{"data": {"bikes": [{"rental_uris": {"ios": "https://dc.lft.to/lastmile_qr_scan", "android": "https://dc.lft.to/lastmile_qr_scan"}, "lat": 38.92044666666666, "bike_id": "47b6eb15b8d7688c9f9112186018a657", "lon": -77.016772, "type": "electric_scooter", "fusion_lon": 0.0, "fusion_lat": 0.0, "is_reserved": 0, "name": "47b6eb15b8d7688c9f9112186018a657", "is_disabled": 0}, {"rental_uris": {"ios": "https://dc.lft.to/lastmile_qr_scan", "android": "https://dc.lft.to/lastmile_qr_scan"}, "lat": 38.95506266666666, "bike_id": "305a2530ce2d13042d02c6eb962ec8e8", "lon": -77.02675733333334, "type": "electric_scooter", "fusion_lon": 0.0, "fusion_lat": 0.0, "is_reserved": 0, "name": "305a2530ce2d13042d02c6eb962ec8e8", "is_disabled": 0}, {"rental_uris": {"ios": "https://dc.lft.to/lastmile_qr_scan", "android": "https://dc.lft.to/lastmile_qr_scan"}, "lat": 38.931947, "bike_id": "53f135332ac5596b1f7088325d301c74", "lon": -77.22926966666667, "type": "electric_bike", "fusion_lon": 0.0, "fusion_lat": 0.0, "is_reserved": 0, "name": "53f135332ac5596b1f7088325d301c74", "is_disabled": 0}, {"rental_uris": {"ios": "https://dc.lft.to/lastmile_qr_scan", "android": "https://dc.lft.to/lastmile_qr_scan"}, "lat": 38.927060166666664, "bike_id": "1c81c94da0a5edbcfaf0048407136801", "lon": -77.02381633333333, "type": "electric_scooter", "fusion_lon": 0.0, "fusion_lat": 0.0, "is_reserved": 0, "name": "1c81c94da0a5edbcfaf0048407136801", "is_disabled": 0}, {"rental_uris": {"ios": "https://dc.lft.to/lastmile_qr_scan", "android": "https://dc.lft.to/lastmile_qr_scan"}, "lat": 38.86506966666666, "bike_id": "869f5d85c41aaed40cb9f9d4816b765f", "lon": -76.9900045, "type": "electric_scooter", "fusion_lon": 0.0, "fusion_lat": 0.0, "is_reserved": 0, "name": "869f5d85c41aaed40cb9f9d4816b765f", "is_disabled": 0}, {"rental_uris": {"ios": "https://dc.lft.to/lastmile_qr_scan", "android": "https://dc.lft.to/lastmile_qr_scan"}, "lat": 38.89985316666667, "bike_id": "12e446487a6d99c2d762ebc1c50e2a83", "lon": -77.01981783333333, "type": "electric_scooter", "fusion_lon": 0.0, "fusion_lat": 0.0, "is_reserved": 0, "name": "12e446487a6d99c2d762ebc1c50e2a83", "is_disabled": 0}, {"rental_uris": {"ios": "https://dc.lft.to/lastmile_qr_scan", "android": "https://dc.lft.to/lastmile_qr_scan"}, "lat": 38.900231, "bike_id": "c1316ba6078d56bfd480887b8d7c6c6e", "lon": -77.0447235, "type": "electric_scooter", "fusion_lon": 0.0, "fusion_lat": 0.0, "is_reserved": 0, "name": "c1316ba6078d56bfd480887b8d7c6c6e", "is_disabled": 0}, {"rental_uris": {"ios": "https://dc.lft.to/lastmile_qr_scan", "android": "https://dc.lft.to/lastmile_qr_scan"}, "lat": 38.9141415, "bike_id": "a750b861b552c3287e80de4eca45b3f3", "lon": -77.026086, "type": "electric_scooter", "fusion_lon": 0.0, "fusion_lat": 0.0, "is_reserved": 0, "name": "a750b861b552c3287e80de4eca45b3f3", "is_disabled": 0}, {"rental_uris": {"ios": "https://dc.lft.to/lastmile_qr_scan", "android": "https://dc.lft.to/lastmile_qr_scan"}, "lat": 38.9305925, "bike_id": "f198ce86db1e15492f35a77bb8374c23", "lon": -77.03631283333333, "type": "electric_scooter", "fusion_lon": 0.0, "fusion_lat": 0.0, "is_reserved": 0, "name": "f198ce86db1e15492f35a77bb8374c23", "is_disabled": 0}, {"rental_uris": {"ios": "https://dc.lft.to/lastmile_qr_scan", "android": "https://dc.lft.to/lastmile_qr_scan"}, "lat": 38.922655666666664, "bike_id": "da8559906af2413d337b0db6b91c9bad", "lon": -77.02346333333334, "type": "electric_scooter", "fusion_lon": 0.0, "fusion_lat": 0.0, "is_reserved": 0, "name": "da8559906af2413d337b0db6b91c9bad", "is_disabled": 0}, {"rental_uris": {"ios": "https://dc.lft.to/lastmile_qr_scan", "android": "https://dc.lft.to/lastmile_qr_scan"}, "lat": 38.950996333333336, "bike_id": "56625e6d9cb249ff193c9ee41c5cd525", "lon": -77.097147, "type": "electric_scooter", "fusion_lon": 0.0, "fusion_lat": 0.0, "is_reserved": 0, "name": "56625e6d9cb249ff193c9ee41c5cd525", "is_disabled": 0}, {"rental_uris": {"ios": "https://dc.lft.to/lastmile_qr_scan", "android": "https://dc.lft.to/lastmile_qr_scan"}, "lat": 38.87710466666667, "bike_id": "9616692e20b9b9ced079178a051fa36f", "lon": -77.01778216666666, "type": "electric_scooter", "fusion_lon": 0.0, "fusion_lat": 0.0, "is_reserved": 0, "name": "9616692e20b9b9ced079178a051fa36f", "is_disabled": 0}, {"rental_uris": {"ios": "https://dc.lft.to/lastmile_qr_scan", "android": "https://dc.lft.to/lastmile_qr_scan"}, "lat": 38.873923, "bike_id": "86896c88073f90237eb936314e28206a", "lon": -77.000255, "type": "electric_scooter", "fusion_lon": 0.0, "fusion_lat": 0.0, "is_reserved": 0, "name": "86896c88073f90237eb936314e28206a", "is_disabled": 0}, {"rental_uris": {"ios": "https://dc.lft.to/lastmile_qr_scan", "android": "https://dc.lft.to/lastmile_qr_scan"}, "lat": 38.895996333333336, "bike_id": "39730791015b0a16af33cc42a0051a40", "lon": -77.02192166666667, "type": "electric_scooter", "fusion_lon": 0.0, "fusion_lat": 0.0, "is_reserved": 0, "name": "39730791015b0a16af33cc42a0051a40", "is_disabled": 0}, {"rental_uris": {"ios": "https://dc.lft.to/lastmile_qr_scan", "android": "https://dc.lft.to/lastmile_qr_scan"}, "lat": 38.90674283333333, "bike_id": "9da2772fe335a1c1be17d36351eef7bb", "lon": -77.03803633333334, "type": "electric_scooter", "fusion_lon": 0.0, "fusion_lat": 0.0, "is_reserved": 0, "name": "9da2772fe335a1c1be17d36351eef7bb", "is_disabled": 0}, {"rental_uris": {"ios": "https://dc.lft.to/lastmile_qr_scan", "android": "https://dc.lft.to/lastmile_qr_scan"}, "lat": 38.902878666666666, "bike_id": "00a837c928a79539bb60b00d254e2d33", "lon": -77.03349583333333, "type": "electric_scooter", "fusion_lon": 0.0, "fusion_lat": 0.0, "is_reserved": 0, "name": "00a837c928a79539bb60b00d254e2d33", "is_disabled": 0}, {"rental_uris": {"ios": "https://dc.lft.to/lastmile_qr_scan", "android": "https://dc.lft.to/lastmile_qr_scan"}, "lat": 38.859720833333334, "bike_id": "ee5df6093cedf146a158f2373a1e92cf", "lon": -76.99159133333333, "type": "electric_scooter", "fusion_lon": 0.0, "fusion_lat": 0.0, "is_reserved": 0, "name": "ee5df6093cedf146a158f2373a1e92cf", "is_disabled": 0}, {"rental_uris": {"ios": "https://dc.lft.to/lastmile_qr_scan", "android": "https://dc.lft.to/lastmile_qr_scan"}, "lat": 38.89799266666667, "bike_id": "a07b811c57da27a41f441ccdac97c0fd", "lon": -77.02476166666666, "type": "electric_scooter", "fusion_lon": 0.0, "fusion_lat": 0.0, "is_reserved": 0, "name": "a07b811c57da27a41f441ccdac97c0fd", "is_disabled": 0}, {"rental_uris": {"ios": "https://dc.lft.to/lastmile_qr_scan", "android": "https://dc.lft.to/lastmile_qr_scan"}, "lat": 38.941849166666664, "bike_id": "42be618422eaca9d608db90dc2005576", "lon": -77.024853, "type": "electric_scooter", "fusion_lon": 0.0, "fusion_lat": 0.0, "is_reserved": 0, "name": "42be618422eaca9d608db90dc2005576", "is_disabled": 0}, {"rental_uris": {"ios": "https://dc.lft.to/lastmile_qr_scan", "android": "https://dc.lft.to/lastmile_qr_scan"}, "lat": 38.95650666666667, "bike_id": "4fb4c85088cb8e58ec28df9f1a8d0a59", "lon": -77.01962766666666, "type": "electric_scooter", "fusion_lon": 0.0, "fusion_lat": 0.0, "is_reserved": 0, "name": "4fb4c85088cb8e58ec28df9f1a8d0a59", "is_disabled": 0}, {"rental_uris": {"ios": "https://dc.lft.to/lastmile_qr_scan", "android": "https://dc.lft.to/lastmile_qr_scan"}, "lat": 38.91206, "bike_id": "ef8457022097c8efb58364cb6f6fd00d", "lon": -77.03196366666667, "type": "electric_scooter", "fusion_lon": 0.0, "fusion_lat": 0.0, "is_reserved": 0, "name": "ef8457022097c8efb58364cb6f6fd00d", "is_disabled": 0}, {"rental_uris": {"ios": "https://dc.lft.to/lastmile_qr_scan", "android": "https://dc.lft.to/lastmile_qr_scan"}, "lat": 38.899788, "bike_id": "e66a2a50ab1575bb78911274e3fdc639", "lon": -77.02129016666666, "type": "electric_scooter", "fusion_lon": 0.0, "fusion_lat": 0.0, "is_reserved": 0, "name": "e66a2a50ab1575bb78911274e3fdc639", "is_disabled": 0}, {"rental_uris": {"ios": "https://dc.lft.to/lastmile_qr_scan", "android": "https://dc.lft.to/lastmile_qr_scan"}, "lat": 38.86036283333333, "bike_id": "93a4fd0460db7b0b2b413fed90f7e06a", "lon": -76.96709766666666, "type": "electric_scooter", "fusion_lon": 0.0, "fusion_lat": 0.0, "is_reserved": 0, "name": "93a4fd0460db7b0b2b413fed90f7e06a", "is_disabled": 0}, {"rental_uris": {"ios": "https://dc.lft.to/lastmile_qr_scan", "android": "https://dc.lft.to/lastmile_qr_scan"}, "lat": 38.94623683333333, "bike_id": "d447073f7ea9d9d202b286c42660cb8b", "lon": -77.02531316666666, "type": "electric_scooter", "fusion_lon": 0.0, "fusion_lat": 0.0, "is_reserved": 0, "name": "d447073f7ea9d9d202b286c42660cb8b", "is_disabled": 0}, {"rental_uris": {"ios": "https://dc.lft.to/lastmile_qr_scan", "android": "https://dc.lft.to/lastmile_qr_scan"}, "lat": 38.89222916666667, "bike_id": "40ff523e10a5db55c2911e0fd38c2520", "lon": -77.01487366666667, "type": "electric_scooter", "fusion_lon": 0.0, "fusion_lat": 0.0, "is_reserved": 0, "name": "40ff523e10a5db55c2911e0fd38c2520", "is_disabled": 0}, {"rental_uris": {"ios": "https://dc.lft.to/lastmile_qr_scan", "android": "https://dc.lft.to/lastmile_qr_scan"}, "lat": 38.905713666666664, "bike_id": "076b8be7af321ea06c1f5c4105eccdc8", "lon": -77.034456, "type": "electric_scooter", "fusion_lon": 0.0, "fusion_lat": 0.0, "is_reserved": 0, "name": "076b8be7af321ea06c1f5c4105eccdc8", "is_disabled": 0}, {"rental_uris": {"ios": "https://dc.lft.to/lastmile_qr_scan", "android": "https://dc.lft.to/lastmile_qr_scan"}, "lat": 38.917369, "bike_id": "a2c83b6f64ab36c9c2ddb0893ce6961d", "lon": -77.0432065, "type": "electric_scooter", "fusion_lon": 0.0, "fusion_lat": 0.0, "is_reserved": 0, "name": "a2c83b6f64ab36c9c2ddb0893ce6961d", "is_disabled": 0}, {"rental_uris": {"ios": "https://dc.lft.to/lastmile_qr_scan", "android": "https://dc.lft.to/lastmile_qr_scan"}, "lat": 38.895055166666666, "bike_id": "795692fd0822570e40616cd4bec2a905", "lon": -77.04673883333334, "type": "electric_scooter", "fusion_lon": 0.0, "fusion_lat": 0.0, "is_reserved": 0, "name": "795692fd0822570e40616cd4bec2a905", "is_disabled": 0}, {"rental_uris": {"ios": "https://dc.lft.to/lastmile_qr_scan", "android": "https://dc.lft.to/lastmile_qr_scan"}, "lat": 38.87384683333333, "bike_id": "0efd6f7fed4ae9f70aec7dda71d50b35", "lon": -77.00068283333333, "type": "electric_scooter", "fusion_lon": 0.0, "fusion_lat": 0.0, "is_reserved": 0, "name": "0efd6f7fed4ae9f70aec7dda71d50b35", "is_disabled": 0}, {"rental_uris": {"ios": "https://dc.lft.to/lastmile_qr_scan", "android": "https://dc.lft.to/lastmile_qr_scan"}, "lat": 38.91558333333333, "bike_id": "bd227ddd7b60ccc0e8a4c1eeaa8e9c87", "lon": -77.031743, "type": "electric_scooter", "fusion_lon": 0.0, "fusion_lat": 0.0, "is_reserved": 0, "name": "bd227ddd7b60ccc0e8a4c1eeaa8e9c87", "is_disabled": 0}, {"rental_uris": {"ios": "https://dc.lft.to/lastmile_qr_scan", "android": "https://dc.lft.to/lastmile_qr_scan"}, "lat": 38.9358245, "bike_id": "b84afdcd59482d9376e7543c1e52d1cf", "lon": -77.0334995, "type": "electric_scooter", "fusion_lon": 0.0, "fusion_lat": 0.0, "is_reserved": 0, "name": "b84afdcd59482d9376e7543c1e52d1cf", "is_disabled": 0}, {"rental_uris": {"ios": "https://dc.lft.to/lastmile_qr_scan", "android": "https://dc.lft.to/lastmile_qr_scan"}, "lat": 38.8845115, "bike_id": "8872bd1bbdb5ff84ec1ffc3bd61cd742", "lon": -76.9509175, "type": "electric_scooter", "fusion_lon": 0.0, "fusion_lat": 0.0, "is_reserved": 0, "name": "8872bd1bbdb5ff84ec1ffc3bd61cd742", "is_disabled": 0}, {"rental_uris": {"ios": "https://dc.lft.to/lastmile_qr_scan", "android": "https://dc.lft.to/lastmile_qr_scan"}, "lat": 38.93214366666667, "bike_id": "b4192b9936184fc45f45c6ed58acd5db", "lon": -76.99902266666666, "type": "electric_scooter", "fusion_lon": 0.0, "fusion_lat": 0.0, "is_reserved": 0, "name": "b4192b9936184fc45f45c6ed58acd5db", "is_disabled": 0}, {"rental_uris": {"ios": "https://dc.lft.to/lastmile_qr_scan", "android": "https://dc.lft.to/lastmile_qr_scan"}, "lat": 38.895583333333335, "bike_id": "893559aa3f987627b2f2f4a33362531e", "lon": -77.04671, "type": "electric_scooter", "fusion_lon": 0.0, "fusion_lat": 0.0, "is_reserved": 0, "name": "893559aa3f987627b2f2f4a33362531e", "is_disabled": 0}, {"rental_uris": {"ios": "https://dc.lft.to/lastmile_qr_scan", "android": "https://dc.lft.to/lastmile_qr_scan"}, "lat": 38.9199225, "bike_id": "183d26c614c6c34519a427f013a4833e", "lon": -77.03262716666667, "type": "electric_scooter", "fusion_lon": 0.0, "fusion_lat": 0.0, "is_reserved": 0, "name": "183d26c614c6c34519a427f013a4833e", "is_disabled": 0}, {"rental_uris": {"ios": "https://dc.lft.to/lastmile_qr_scan", "android": "https://dc.lft.to/lastmile_qr_scan"}, "lat": 38.899614166666666, "bike_id": "3fd43a434d81997ec90210ff5fde2063", "lon": -77.04500883333333, "type": "electric_scooter", "fusion_lon": 0.0, "fusion_lat": 0.0, "is_reserved": 0, "name": "3fd43a434d81997ec90210ff5fde2063", "is_disabled": 0}, {"rental_uris": {"ios": "https://dc.lft.to/lastmile_qr_scan", "android": "https://dc.lft.to/lastmile_qr_scan"}, "lat": 38.93496283333333, "bike_id": "ace5ddfca614345fbdb60560de7578ac", "lon": -76.99794333333334, "type": "electric_bike", "fusion_lon": 0.0, "fusion_lat": 0.0, "is_reserved": 0, "name": "ace5ddfca614345fbdb60560de7578ac", "is_disabled": 0}, {"rental_uris": {"ios": "https://dc.lft.to/lastmile_qr_scan", "android": "https://dc.lft.to/lastmile_qr_scan"}, "lat": 39.040845166666664, "bike_id": "d55a7ea2ec59b63cc935afc39000694f", "lon": -77.05336066666666, "type": "electric_bike", "fusion_lon": 0.0, "fusion_lat": 0.0, "is_reserved": 0, "name": "d55a7ea2ec59b63cc935afc39000694f", "is_disabled": 0}, {"rental_uris": {"ios": "https://dc.lft.to/lastmile_qr_scan", "android": "https://dc.lft.to/lastmile_qr_scan"}, "lat": 38.88659883333333, "bike_id": "17f2d154bed4a8fc4960b508442f06ab", "lon": -77.162308, "type": "electric_bike", "fusion_lon": 0.0, "fusion_lat": 0.0, "is_reserved": 0, "name": "17f2d154bed4a8fc4960b508442f06ab", "is_disabled": 0}, {"rental_uris": {"ios": "https://dc.lft.to/lastmile_qr_scan", "android": "https://dc.lft.to/lastmile_qr_scan"}, "lat": 38.9571175, "bike_id": "c6fe2d9616b8fc670d774fc67b2da4ea", "lon": -77.0027885, "type": "electric_bike", "fusion_lon": 0.0, "fusion_lat": 0.0, "is_reserved": 0, "name": "c6fe2d9616b8fc670d774fc67b2da4ea", "is_disabled": 0}, {"rental_uris": {"ios": "https://dc.lft.to/lastmile_qr_scan", "android": "https://dc.lft.to/lastmile_qr_scan"}, "lat": 38.902850666666666, "bike_id": "4574b26e95e55b6af516670131cf3f53", "lon": -77.03343566666666, "type": "electric_scooter", "fusion_lon": 0.0, "fusion_lat": 0.0, "is_reserved": 0, "name": "4574b26e95e55b6af516670131cf3f53", "is_disabled": 0}, {"rental_uris": {"ios": "https://dc.lft.to/lastmile_qr_scan", "android": "https://dc.lft.to/lastmile_qr_scan"}, "lat": 38.908924666666664, "bike_id": "34a3fb4f118797e53d4bcb4f63d237a2", "lon": -77.04319366666667, "type": "electric_scooter", "fusion_lon": 0.0, "fusion_lat": 0.0, "is_reserved": 0, "name": "34a3fb4f118797e53d4bcb4f63d237a2", "is_disabled": 0}, {"rental_uris": {"ios": "https://dc.lft.to/lastmile_qr_scan", "android": "https://dc.lft.to/lastmile_qr_scan"}, "lat": 38.91593233333333, "bike_id": "fe5458f64503d5b94317eb2e83f226f0", "lon": -77.02302666666667, "type": "electric_scooter", "fusion_lon": 0.0, "fusion_lat": 0.0, "is_reserved": 0, "name": "fe5458f64503d5b94317eb2e83f226f0", "is_disabled": 0}, {"rental_uris": {"ios": "https://dc.lft.to/lastmile_qr_scan", "android": "https://dc.lft.to/lastmile_qr_scan"}, "lat": 38.90568666666667, "bike_id": "0abaf0f55ca9ab8de9d914924cfb6c72", "lon": -77.02207833333334, "type": "electric_scooter", "fusion_lon": 0.0, "fusion_lat": 0.0, "is_reserved": 0, "name": "0abaf0f55ca9ab8de9d914924cfb6c72", "is_disabled": 0}, {"rental_uris": {"ios": "https://dc.lft.to/lastmile_qr_scan", "android": "https://dc.lft.to/lastmile_qr_scan"}, "lat": 38.9068155, "bike_id": "d9c49762bd9bd6e3fa2e66aec9687cfd", "lon": -77.063368, "type": "electric_scooter", "fusion_lon": 0.0, "fusion_lat": 0.0, "is_reserved": 0, "name": "d9c49762bd9bd6e3fa2e66aec9687cfd", "is_disabled": 0}, {"rental_uris": {"ios": "https://dc.lft.to/lastmile_qr_scan", "android": "https://dc.lft.to/lastmile_qr_scan"}, "lat": 38.929744666666664, "bike_id": "8d0cb28a9a2dc7d7f3b87541f4eddd56", "lon": -77.01317683333333, "type": "electric_scooter", "fusion_lon": 0.0, "fusion_lat": 0.0, "is_reserved": 0, "name": "8d0cb28a9a2dc7d7f3b87541f4eddd56", "is_disabled": 0}, {"rental_uris": {"ios": "https://dc.lft.to/lastmile_qr_scan", "android": "https://dc.lft.to/lastmile_qr_scan"}, "lat": 38.901089999999996, "bike_id": "17cf3ef72651cb08f250ae0808a60fa7", "lon": -77.05967716666666, "type": "electric_scooter", "fusion_lon": 0.0, "fusion_lat": 0.0, "is_reserved": 0, "name": "17cf3ef72651cb08f250ae0808a60fa7", "is_disabled": 0}, {"rental_uris": {"ios": "https://dc.lft.to/lastmile_qr_scan", "android": "https://dc.lft.to/lastmile_qr_scan"}, "lat": 38.91397416666667, "bike_id": "cae417d25142a6b19d9433079faeb982", "lon": -77.024069, "type": "electric_scooter", "fusion_lon": 0.0, "fusion_lat": 0.0, "is_reserved": 0, "name": "cae417d25142a6b19d9433079faeb982", "is_disabled": 0}, {"rental_uris": {"ios": "https://dc.lft.to/lastmile_qr_scan", "android": "https://dc.lft.to/lastmile_qr_scan"}, "lat": 38.900951166666665, "bike_id": "56d47b63ce0f6571e5ff18318cabd5be", "lon": -77.01342333333334, "type": "electric_scooter", "fusion_lon": 0.0, "fusion_lat": 0.0, "is_reserved": 0, "name": "56d47b63ce0f6571e5ff18318cabd5be", "is_disabled": 0}, {"rental_uris": {"ios": "https://dc.lft.to/lastmile_qr_scan", "android": "https://dc.lft.to/lastmile_qr_scan"}, "lat": 38.909213, "bike_id": "427ef39ea8c7d7b41a4724dc9403ca42", "lon": -77.0189565, "type": "electric_scooter", "fusion_lon": 0.0, "fusion_lat": 0.0, "is_reserved": 0, "name": "427ef39ea8c7d7b41a4724dc9403ca42", "is_disabled": 0}, {"rental_uris": {"ios": "https://dc.lft.to/lastmile_qr_scan", "android": "https://dc.lft.to/lastmile_qr_scan"}, "lat": 38.900950333333334, "bike_id": "3bdae1f13338ee5bc4d084a46dda6722", "lon": -77.0229845, "type": "electric_scooter", "fusion_lon": 0.0, "fusion_lat": 0.0, "is_reserved": 0, "name": "3bdae1f13338ee5bc4d084a46dda6722", "is_disabled": 0}, {"rental_uris": {"ios": "https://dc.lft.to/lastmile_qr_scan", "android": "https://dc.lft.to/lastmile_qr_scan"}, "lat": 38.9028925, "bike_id": "787a2d33080d17794dec10507e6a1e08", "lon": -77.0022665, "type": "electric_scooter", "fusion_lon": 0.0, "fusion_lat": 0.0, "is_reserved": 0, "name": "787a2d33080d17794dec10507e6a1e08", "is_disabled": 0}, {"rental_uris": {"ios": "https://dc.lft.to/lastmile_qr_scan", "android": "https://dc.lft.to/lastmile_qr_scan"}, "lat": 38.915575, "bike_id": "7386a0a894f3896cce76042caea8ab87", "lon": -77.031708, "type": "electric_scooter", "fusion_lon": 0.0, "fusion_lat": 0.0, "is_reserved": 0, "name": "7386a0a894f3896cce76042caea8ab87", "is_disabled": 0}, {"rental_uris": {"ios": "https://dc.lft.to/lastmile_qr_scan", "android": "https://dc.lft.to/lastmile_qr_scan"}, "lat": 38.9156855, "bike_id": "f71a407586da4b2fec731474018d96b5", "lon": -77.02284266666666, "type": "electric_scooter", "fusion_lon": 0.0, "fusion_lat": 0.0, "is_reserved": 0, "name": "f71a407586da4b2fec731474018d96b5", "is_disabled": 0}, {"rental_uris": {"ios": "https://dc.lft.to/lastmile_qr_scan", "android": "https://dc.lft.to/lastmile_qr_scan"}, "lat": 38.918832, "bike_id": "4f07e17c803b02c47ecfd5b42b319897", "lon": -77.0247275, "type": "electric_scooter", "fusion_lon": 0.0, "fusion_lat": 0.0, "is_reserved": 0, "name": "4f07e17c803b02c47ecfd5b42b319897", "is_disabled": 0}, {"rental_uris": {"ios": "https://dc.lft.to/lastmile_qr_scan", "android": "https://dc.lft.to/lastmile_qr_scan"}, "lat": 38.93364416666667, "bike_id": "9d8e334343a3aa50519a1f72ee10acb3", "lon": -77.05726283333334, "type": "electric_scooter", "fusion_lon": 0.0, "fusion_lat": 0.0, "is_reserved": 0, "name": "9d8e334343a3aa50519a1f72ee10acb3", "is_disabled": 0}, {"rental_uris": {"ios": "https://dc.lft.to/lastmile_qr_scan", "android": "https://dc.lft.to/lastmile_qr_scan"}, "lat": 38.901539666666665, "bike_id": "240633161382404e455f363d6e1b0223", "lon": -77.029302, "type": "electric_scooter", "fusion_lon": 0.0, "fusion_lat": 0.0, "is_reserved": 0, "name": "240633161382404e455f363d6e1b0223", "is_disabled": 0}, {"rental_uris": {"ios": "https://dc.lft.to/lastmile_qr_scan", "android": "https://dc.lft.to/lastmile_qr_scan"}, "lat": 38.96557966666667, "bike_id": "349b5578b68b130f1b2dd3a099f87cbb", "lon": -77.0020355, "type": "electric_scooter", "fusion_lon": 0.0, "fusion_lat": 0.0, "is_reserved": 0, "name": "349b5578b68b130f1b2dd3a099f87cbb", "is_disabled": 0}, {"rental_uris": {"ios": "https://dc.lft.to/lastmile_qr_scan", "android": "https://dc.lft.to/lastmile_qr_scan"}, "lat": 38.915882333333336, "bike_id": "af29ff6c1a76b0e2d7181cb1f3791e2e", "lon": -77.02297783333333, "type": "electric_scooter", "fusion_lon": 0.0, "fusion_lat": 0.0, "is_reserved": 0, "name": "af29ff6c1a76b0e2d7181cb1f3791e2e", "is_disabled": 0}, {"rental_uris": {"ios": "https://dc.lft.to/lastmile_qr_scan", "android": "https://dc.lft.to/lastmile_qr_scan"}, "lat": 38.939514, "bike_id": "b2ee4af69bd77daae9bcf5da77795a99", "lon": -77.0723745, "type": "electric_scooter", "fusion_lon": 0.0, "fusion_lat": 0.0, "is_reserved": 0, "name": "b2ee4af69bd77daae9bcf5da77795a99", "is_disabled": 0}, {"rental_uris": {"ios": "https://dc.lft.to/lastmile_qr_scan", "android": "https://dc.lft.to/lastmile_qr_scan"}, "lat": 38.91960866666667, "bike_id": "e53b0a028efa2eb3b696c8016a39c21d", "lon": -77.02705983333334, "type": "electric_scooter", "fusion_lon": 0.0, "fusion_lat": 0.0, "is_reserved": 0, "name": "e53b0a028efa2eb3b696c8016a39c21d", "is_disabled": 0}, {"rental_uris": {"ios": "https://dc.lft.to/lastmile_qr_scan", "android": "https://dc.lft.to/lastmile_qr_scan"}, "lat": 38.94634, "bike_id": "141e97f24096233d6f55b6bc3f234f6b", "lon": -77.01840783333333, "type": "electric_scooter", "fusion_lon": 0.0, "fusion_lat": 0.0, "is_reserved": 0, "name": "141e97f24096233d6f55b6bc3f234f6b", "is_disabled": 0}, {"rental_uris": {"ios": "https://dc.lft.to/lastmile_qr_scan", "android": "https://dc.lft.to/lastmile_qr_scan"}, "lat": 38.90713683333333, "bike_id": "ced313fcbc04d5e9995151ae75939568", "lon": -77.04580116666666, "type": "electric_scooter", "fusion_lon": 0.0, "fusion_lat": 0.0, "is_reserved": 0, "name": "ced313fcbc04d5e9995151ae75939568", "is_disabled": 0}, {"rental_uris": {"ios": "https://dc.lft.to/lastmile_qr_scan", "android": "https://dc.lft.to/lastmile_qr_scan"}, "lat": 38.89465533333333, "bike_id": "aac5058ed745d0a024567eb34b15defd", "lon": -77.026905, "type": "electric_scooter", "fusion_lon": 0.0, "fusion_lat": 0.0, "is_reserved": 0, "name": "aac5058ed745d0a024567eb34b15defd", "is_disabled": 0}, {"rental_uris": {"ios": "https://dc.lft.to/lastmile_qr_scan", "android": "https://dc.lft.to/lastmile_qr_scan"}, "lat": 38.900145, "bike_id": "5454e202e9b14984bf9c0660f65c1470", "lon": -77.0448, "type": "electric_scooter", "fusion_lon": 0.0, "fusion_lat": 0.0, "is_reserved": 0, "name": "5454e202e9b14984bf9c0660f65c1470", "is_disabled": 0}, {"rental_uris": {"ios": "https://dc.lft.to/lastmile_qr_scan", "android": "https://dc.lft.to/lastmile_qr_scan"}, "lat": 38.933632833333334, "bike_id": "ee935567d47d2d2d74099ccd98266101", "lon": -77.02737283333333, "type": "electric_scooter", "fusion_lon": 0.0, "fusion_lat": 0.0, "is_reserved": 0, "name": "ee935567d47d2d2d74099ccd98266101", "is_disabled": 0}, {"rental_uris": {"ios": "https://dc.lft.to/lastmile_qr_scan", "android": "https://dc.lft.to/lastmile_qr_scan"}, "lat": 38.90874383333333, "bike_id": "06b3c8552fd4757718cf4012d8f87a59", "lon": -77.04053233333333, "type": "electric_scooter", "fusion_lon": 0.0, "fusion_lat": 0.0, "is_reserved": 0, "name": "06b3c8552fd4757718cf4012d8f87a59", "is_disabled": 0}, {"rental_uris": {"ios": "https://dc.lft.to/lastmile_qr_scan", "android": "https://dc.lft.to/lastmile_qr_scan"}, "lat": 38.903768, "bike_id": "d79eac87f6649227f92f83c55c2d980c", "lon": -77.03466766666666, "type": "electric_scooter", "fusion_lon": 0.0, "fusion_lat": 0.0, "is_reserved": 0, "name": "d79eac87f6649227f92f83c55c2d980c", "is_disabled": 0}, {"rental_uris": {"ios": "https://dc.lft.to/lastmile_qr_scan", "android": "https://dc.lft.to/lastmile_qr_scan"}, "lat": 38.899644333333335, "bike_id": "ade7cde49372194626a4a196fc6439ae", "lon": -77.04503533333333, "type": "electric_scooter", "fusion_lon": 0.0, "fusion_lat": 0.0, "is_reserved": 0, "name": "ade7cde49372194626a4a196fc6439ae", "is_disabled": 0}, {"rental_uris": {"ios": "https://dc.lft.to/lastmile_qr_scan", "android": "https://dc.lft.to/lastmile_qr_scan"}, "lat": 38.928241, "bike_id": "e08940b3872bfd15176310b60126b46d", "lon": -77.0225425, "type": "electric_scooter", "fusion_lon": 0.0, "fusion_lat": 0.0, "is_reserved": 0, "name": "e08940b3872bfd15176310b60126b46d", "is_disabled": 0}, {"rental_uris": {"ios": "https://dc.lft.to/lastmile_qr_scan", "android": "https://dc.lft.to/lastmile_qr_scan"}, "lat": 38.9148835, "bike_id": "c3028c42091486f98be6dbde5b8c541e", "lon": -77.021882, "type": "electric_scooter", "fusion_lon": 0.0, "fusion_lat": 0.0, "is_reserved": 0, "name": "c3028c42091486f98be6dbde5b8c541e", "is_disabled": 0}, {"rental_uris": {"ios": "https://dc.lft.to/lastmile_qr_scan", "android": "https://dc.lft.to/lastmile_qr_scan"}, "lat": 38.86505583333334, "bike_id": "a09ee5a6012e353cb25e499a761a31d5", "lon": -76.99003933333333, "type": "electric_scooter", "fusion_lon": 0.0, "fusion_lat": 0.0, "is_reserved": 0, "name": "a09ee5a6012e353cb25e499a761a31d5", "is_disabled": 0}, {"rental_uris": {"ios": "https://dc.lft.to/lastmile_qr_scan", "android": "https://dc.lft.to/lastmile_qr_scan"}, "lat": 38.939083833333335, "bike_id": "abf835f49b62d754749719fdc025d7d1", "lon": -77.06043333333334, "type": "electric_scooter", "fusion_lon": 0.0, "fusion_lat": 0.0, "is_reserved": 0, "name": "abf835f49b62d754749719fdc025d7d1", "is_disabled": 0}, {"rental_uris": {"ios": "https://dc.lft.to/lastmile_qr_scan", "android": "https://dc.lft.to/lastmile_qr_scan"}, "lat": 38.90777766666667, "bike_id": "cd94437cb5e93d71e9a84ab862049f0d", "lon": -76.99855833333334, "type": "electric_scooter", "fusion_lon": 0.0, "fusion_lat": 0.0, "is_reserved": 0, "name": "cd94437cb5e93d71e9a84ab862049f0d", "is_disabled": 0}, {"rental_uris": {"ios": "https://dc.lft.to/lastmile_qr_scan", "android": "https://dc.lft.to/lastmile_qr_scan"}, "lat": 38.86217333333333, "bike_id": "254033ad0561c853b7947bb70b95c564", "lon": -76.99480316666667, "type": "electric_scooter", "fusion_lon": 0.0, "fusion_lat": 0.0, "is_reserved": 0, "name": "254033ad0561c853b7947bb70b95c564", "is_disabled": 0}, {"rental_uris": {"ios": "https://dc.lft.to/lastmile_qr_scan", "android": "https://dc.lft.to/lastmile_qr_scan"}, "lat": 38.90561233333333, "bike_id": "738c573b137a4df28110ad3d4dc8c0dd", "lon": -77.041832, "type": "electric_scooter", "fusion_lon": 0.0, "fusion_lat": 0.0, "is_reserved": 0, "name": "738c573b137a4df28110ad3d4dc8c0dd", "is_disabled": 0}, {"rental_uris": {"ios": "https://dc.lft.to/lastmile_qr_scan", "android": "https://dc.lft.to/lastmile_qr_scan"}, "lat": 38.90336933333333, "bike_id": "ce9835bffd1b28db784d663692bb8fe1", "lon": -77.034509, "type": "electric_scooter", "fusion_lon": 0.0, "fusion_lat": 0.0, "is_reserved": 0, "name": "ce9835bffd1b28db784d663692bb8fe1", "is_disabled": 0}, {"rental_uris": {"ios": "https://dc.lft.to/lastmile_qr_scan", "android": "https://dc.lft.to/lastmile_qr_scan"}, "lat": 38.862479, "bike_id": "cb8744952ea727fd1c90bbbbcbb49960", "lon": -76.9926165, "type": "electric_scooter", "fusion_lon": 0.0, "fusion_lat": 0.0, "is_reserved": 0, "name": "cb8744952ea727fd1c90bbbbcbb49960", "is_disabled": 0}, {"rental_uris": {"ios": "https://dc.lft.to/lastmile_qr_scan", "android": "https://dc.lft.to/lastmile_qr_scan"}, "lat": 38.8773505, "bike_id": "39b5dfc6c9ae06dc25bdf600600a87b7", "lon": -77.00365133333334, "type": "electric_scooter", "fusion_lon": 0.0, "fusion_lat": 0.0, "is_reserved": 0, "name": "39b5dfc6c9ae06dc25bdf600600a87b7", "is_disabled": 0}, {"rental_uris": {"ios": "https://dc.lft.to/lastmile_qr_scan", "android": "https://dc.lft.to/lastmile_qr_scan"}, "lat": 38.902786666666664, "bike_id": "df255f154c5daff03ad5438988015ba4", "lon": -77.0386345, "type": "electric_scooter", "fusion_lon": 0.0, "fusion_lat": 0.0, "is_reserved": 0, "name": "df255f154c5daff03ad5438988015ba4", "is_disabled": 0}, {"rental_uris": {"ios": "https://dc.lft.to/lastmile_qr_scan", "android": "https://dc.lft.to/lastmile_qr_scan"}, "lat": 38.90048483333333, "bike_id": "9764d6a2c9c148b4bdf16967b6a38c1d", "lon": -77.00057883333334, "type": "electric_scooter", "fusion_lon": 0.0, "fusion_lat": 0.0, "is_reserved": 0, "name": "9764d6a2c9c148b4bdf16967b6a38c1d", "is_disabled": 0}, {"rental_uris": {"ios": "https://dc.lft.to/lastmile_qr_scan", "android": "https://dc.lft.to/lastmile_qr_scan"}, "lat": 38.89624116666667, "bike_id": "ae2bcc30d9927ce405975b4554328c3e", "lon": -77.03957366666667, "type": "electric_scooter", "fusion_lon": 0.0, "fusion_lat": 0.0, "is_reserved": 0, "name": "ae2bcc30d9927ce405975b4554328c3e", "is_disabled": 0}, {"rental_uris": {"ios": "https://dc.lft.to/lastmile_qr_scan", "android": "https://dc.lft.to/lastmile_qr_scan"}, "lat": 38.9278045, "bike_id": "4155ec9e4f3d2e022338d508e340ff05", "lon": -77.0526325, "type": "electric_scooter", "fusion_lon": 0.0, "fusion_lat": 0.0, "is_reserved": 0, "name": "4155ec9e4f3d2e022338d508e340ff05", "is_disabled": 0}, {"rental_uris": {"ios": "https://dc.lft.to/lastmile_qr_scan", "android": "https://dc.lft.to/lastmile_qr_scan"}, "lat": 38.8624035, "bike_id": "1bc697715135ea4f37b67b734f2b351c", "lon": -76.95275216666667, "type": "electric_bike", "fusion_lon": 0.0, "fusion_lat": 0.0, "is_reserved": 0, "name": "1bc697715135ea4f37b67b734f2b351c", "is_disabled": 0}, {"rental_uris": {"ios": "https://dc.lft.to/lastmile_qr_scan", "android": "https://dc.lft.to/lastmile_qr_scan"}, "lat": 38.903916833333334, "bike_id": "f68857381d8b3f0bb6fac2a81b82c6d2", "lon": -77.04485833333334, "type": "electric_scooter", "fusion_lon": 0.0, "fusion_lat": 0.0, "is_reserved": 0, "name": "f68857381d8b3f0bb6fac2a81b82c6d2", "is_disabled": 0}, {"rental_uris": {"ios": "https://dc.lft.to/lastmile_qr_scan", "android": "https://dc.lft.to/lastmile_qr_scan"}, "lat": 38.918655, "bike_id": "00b649ab082f7dd8979c8e1bf27cab1d", "lon": -77.04158, "type": "electric_scooter", "fusion_lon": 0.0, "fusion_lat": 0.0, "is_reserved": 0, "name": "00b649ab082f7dd8979c8e1bf27cab1d", "is_disabled": 0}, {"rental_uris": {"ios": "https://dc.lft.to/lastmile_qr_scan", "android": "https://dc.lft.to/lastmile_qr_scan"}, "lat": 38.89839766666667, "bike_id": "d118298e35734ed28fb528e721171f94", "lon": -77.025877, "type": "electric_scooter", "fusion_lon": 0.0, "fusion_lat": 0.0, "is_reserved": 0, "name": "d118298e35734ed28fb528e721171f94", "is_disabled": 0}, {"rental_uris": {"ios": "https://dc.lft.to/lastmile_qr_scan", "android": "https://dc.lft.to/lastmile_qr_scan"}, "lat": 38.907252666666665, "bike_id": "d65706cc475776d3bf277f29b5ff0d5e", "lon": -77.02979966666666, "type": "electric_scooter", "fusion_lon": 0.0, "fusion_lat": 0.0, "is_reserved": 0, "name": "d65706cc475776d3bf277f29b5ff0d5e", "is_disabled": 0}, {"rental_uris": {"ios": "https://dc.lft.to/lastmile_qr_scan", "android": "https://dc.lft.to/lastmile_qr_scan"}, "lat": 38.884398833333336, "bike_id": "79e72b07d483f0aa153e643a264315aa", "lon": -77.00346083333334, "type": "electric_scooter", "fusion_lon": 0.0, "fusion_lat": 0.0, "is_reserved": 0, "name": "79e72b07d483f0aa153e643a264315aa", "is_disabled": 0}, {"rental_uris": {"ios": "https://dc.lft.to/lastmile_qr_scan", "android": "https://dc.lft.to/lastmile_qr_scan"}, "lat": 38.893521666666665, "bike_id": "39595647a3ce1ee605b90bab81fe13cb", "lon": -77.18742583333334, "type": "electric_bike", "fusion_lon": 0.0, "fusion_lat": 0.0, "is_reserved": 0, "name": "39595647a3ce1ee605b90bab81fe13cb", "is_disabled": 0}, {"rental_uris": {"ios": "https://dc.lft.to/lastmile_qr_scan", "android": "https://dc.lft.to/lastmile_qr_scan"}, "lat": 38.909515, "bike_id": "de3ffa7d6b40ba63b2352e21bb289d39", "lon": -77.026947, "type": "electric_scooter", "fusion_lon": 0.0, "fusion_lat": 0.0, "is_reserved": 0, "name": "de3ffa7d6b40ba63b2352e21bb289d39", "is_disabled": 0}, {"rental_uris": {"ios": "https://dc.lft.to/lastmile_qr_scan", "android": "https://dc.lft.to/lastmile_qr_scan"}, "lat": 38.905749166666666, "bike_id": "66051730e3cf802ce9bc15e21ddb1a75", "lon": -77.01501833333333, "type": "electric_scooter", "fusion_lon": 0.0, "fusion_lat": 0.0, "is_reserved": 0, "name": "66051730e3cf802ce9bc15e21ddb1a75", "is_disabled": 0}, {"rental_uris": {"ios": "https://dc.lft.to/lastmile_qr_scan", "android": "https://dc.lft.to/lastmile_qr_scan"}, "lat": 38.916281, "bike_id": "0a6895286eceef39f6ccabf550f552f7", "lon": -77.0304305, "type": "electric_scooter", "fusion_lon": 0.0, "fusion_lat": 0.0, "is_reserved": 0, "name": "0a6895286eceef39f6ccabf550f552f7", "is_disabled": 0}, {"rental_uris": {"ios": "https://dc.lft.to/lastmile_qr_scan", "android": "https://dc.lft.to/lastmile_qr_scan"}, "lat": 38.9181305, "bike_id": "6dcc8481221730e6f2e0e951ab8c0aa4", "lon": -77.027068, "type": "electric_scooter", "fusion_lon": 0.0, "fusion_lat": 0.0, "is_reserved": 0, "name": "6dcc8481221730e6f2e0e951ab8c0aa4", "is_disabled": 0}, {"rental_uris": {"ios": "https://dc.lft.to/lastmile_qr_scan", "android": "https://dc.lft.to/lastmile_qr_scan"}, "lat": 38.903814, "bike_id": "b75bbe4b62c4ee0b3dce91a04cece5cc", "lon": -77.00522166666667, "type": "electric_scooter", "fusion_lon": 0.0, "fusion_lat": 0.0, "is_reserved": 0, "name": "b75bbe4b62c4ee0b3dce91a04cece5cc", "is_disabled": 0}, {"rental_uris": {"ios": "https://dc.lft.to/lastmile_qr_scan", "android": "https://dc.lft.to/lastmile_qr_scan"}, "lat": 38.93018516666667, "bike_id": "4ba8fdd513c16ebea0853e70100b4d19", "lon": -77.05526016666667, "type": "electric_scooter", "fusion_lon": 0.0, "fusion_lat": 0.0, "is_reserved": 0, "name": "4ba8fdd513c16ebea0853e70100b4d19", "is_disabled": 0}, {"rental_uris": {"ios": "https://dc.lft.to/lastmile_qr_scan", "android": "https://dc.lft.to/lastmile_qr_scan"}, "lat": 38.88121783333333, "bike_id": "c582f6efb007c873d59bb1e5f8813d5c", "lon": -77.01646416666667, "type": "electric_scooter", "fusion_lon": 0.0, "fusion_lat": 0.0, "is_reserved": 0, "name": "c582f6efb007c873d59bb1e5f8813d5c", "is_disabled": 0}, {"rental_uris": {"ios": "https://dc.lft.to/lastmile_qr_scan", "android": "https://dc.lft.to/lastmile_qr_scan"}, "lat": 38.898256, "bike_id": "3042caf0176194b1c69de1a19e846bd3", "lon": -77.045396, "type": "electric_scooter", "fusion_lon": 0.0, "fusion_lat": 0.0, "is_reserved": 0, "name": "3042caf0176194b1c69de1a19e846bd3", "is_disabled": 0}, {"rental_uris": {"ios": "https://dc.lft.to/lastmile_qr_scan", "android": "https://dc.lft.to/lastmile_qr_scan"}, "lat": 38.9160915, "bike_id": "1e60df36d76be013bd4e734c24773606", "lon": -77.0173265, "type": "electric_scooter", "fusion_lon": 0.0, "fusion_lat": 0.0, "is_reserved": 0, "name": "1e60df36d76be013bd4e734c24773606", "is_disabled": 0}, {"rental_uris": {"ios": "https://dc.lft.to/lastmile_qr_scan", "android": "https://dc.lft.to/lastmile_qr_scan"}, "lat": 38.922023833333334, "bike_id": "32c665c35a6a4190036ae29bfaa1ba38", "lon": -77.0340245, "type": "electric_scooter", "fusion_lon": 0.0, "fusion_lat": 0.0, "is_reserved": 0, "name": "32c665c35a6a4190036ae29bfaa1ba38", "is_disabled": 0}, {"rental_uris": {"ios": "https://dc.lft.to/lastmile_qr_scan", "android": "https://dc.lft.to/lastmile_qr_scan"}, "lat": 38.902883333333335, "bike_id": "15da3a828957dc91cfd5cc001d0bad82", "lon": -77.04683366666667, "type": "electric_scooter", "fusion_lon": 0.0, "fusion_lat": 0.0, "is_reserved": 0, "name": "15da3a828957dc91cfd5cc001d0bad82", "is_disabled": 0}, {"rental_uris": {"ios": "https://dc.lft.to/lastmile_qr_scan", "android": "https://dc.lft.to/lastmile_qr_scan"}, "lat": 38.8737875, "bike_id": "b02b60c1d4dd00dd5c0211475ecbbb6c", "lon": -77.0006115, "type": "electric_scooter", "fusion_lon": 0.0, "fusion_lat": 0.0, "is_reserved": 0, "name": "b02b60c1d4dd00dd5c0211475ecbbb6c", "is_disabled": 0}, {"rental_uris": {"ios": "https://dc.lft.to/lastmile_qr_scan", "android": "https://dc.lft.to/lastmile_qr_scan"}, "lat": 38.91820416666667, "bike_id": "d329b498f894875d2c770e6200e188ca", "lon": -77.0344545, "type": "electric_scooter", "fusion_lon": 0.0, "fusion_lat": 0.0, "is_reserved": 0, "name": "d329b498f894875d2c770e6200e188ca", "is_disabled": 0}, {"rental_uris": {"ios": "https://dc.lft.to/lastmile_qr_scan", "android": "https://dc.lft.to/lastmile_qr_scan"}, "lat": 38.9274995, "bike_id": "dc1bd8c94bf2f34fc5f0dacf2f5d1628", "lon": -77.02966316666667, "type": "electric_scooter", "fusion_lon": 0.0, "fusion_lat": 0.0, "is_reserved": 0, "name": "dc1bd8c94bf2f34fc5f0dacf2f5d1628", "is_disabled": 0}, {"rental_uris": {"ios": "https://dc.lft.to/lastmile_qr_scan", "android": "https://dc.lft.to/lastmile_qr_scan"}, "lat": 38.918344166666664, "bike_id": "7afd650dc95cd941a8f047c9553db798", "lon": -77.024484, "type": "electric_scooter", "fusion_lon": 0.0, "fusion_lat": 0.0, "is_reserved": 0, "name": "7afd650dc95cd941a8f047c9553db798", "is_disabled": 0}, {"rental_uris": {"ios": "https://dc.lft.to/lastmile_qr_scan", "android": "https://dc.lft.to/lastmile_qr_scan"}, "lat": 38.905823166666664, "bike_id": "3a5396c228f8f05605ffbee6f3a882c4", "lon": -77.04196183333333, "type": "electric_scooter", "fusion_lon": 0.0, "fusion_lat": 0.0, "is_reserved": 0, "name": "3a5396c228f8f05605ffbee6f3a882c4", "is_disabled": 0}, {"rental_uris": {"ios": "https://dc.lft.to/lastmile_qr_scan", "android": "https://dc.lft.to/lastmile_qr_scan"}, "lat": 38.87362866666667, "bike_id": "cc34654bc157ffc9583b08b3b1b73cbc", "lon": -76.97027733333333, "type": "electric_scooter", "fusion_lon": 0.0, "fusion_lat": 0.0, "is_reserved": 0, "name": "cc34654bc157ffc9583b08b3b1b73cbc", "is_disabled": 0}, {"rental_uris": {"ios": "https://dc.lft.to/lastmile_qr_scan", "android": "https://dc.lft.to/lastmile_qr_scan"}, "lat": 38.924435, "bike_id": "dbcc2969152ad56567b6791b79190098", "lon": -77.0202205, "type": "electric_scooter", "fusion_lon": 0.0, "fusion_lat": 0.0, "is_reserved": 0, "name": "dbcc2969152ad56567b6791b79190098", "is_disabled": 0}, {"rental_uris": {"ios": "https://dc.lft.to/lastmile_qr_scan", "android": "https://dc.lft.to/lastmile_qr_scan"}, "lat": 38.9313295, "bike_id": "cd066828492ede04cb043a79d8dcf8ba", "lon": -77.0447395, "type": "electric_scooter", "fusion_lon": 0.0, "fusion_lat": 0.0, "is_reserved": 0, "name": "cd066828492ede04cb043a79d8dcf8ba", "is_disabled": 0}, {"rental_uris": {"ios": "https://dc.lft.to/lastmile_qr_scan", "android": "https://dc.lft.to/lastmile_qr_scan"}, "lat": 38.918143666666666, "bike_id": "1bae0cb216cbb59c2320a563306dd234", "lon": -77.02705083333333, "type": "electric_scooter", "fusion_lon": 0.0, "fusion_lat": 0.0, "is_reserved": 0, "name": "1bae0cb216cbb59c2320a563306dd234", "is_disabled": 0}, {"rental_uris": {"ios": "https://dc.lft.to/lastmile_qr_scan", "android": "https://dc.lft.to/lastmile_qr_scan"}, "lat": 38.9241035, "bike_id": "ff0b22ebd323a5c53538832f9bb351b1", "lon": -77.03638333333333, "type": "electric_scooter", "fusion_lon": 0.0, "fusion_lat": 0.0, "is_reserved": 0, "name": "ff0b22ebd323a5c53538832f9bb351b1", "is_disabled": 0}, {"rental_uris": {"ios": "https://dc.lft.to/lastmile_qr_scan", "android": "https://dc.lft.to/lastmile_qr_scan"}, "lat": 38.89915333333333, "bike_id": "15d9b8b17965b202063fed0fe3d035cf", "lon": -76.93374316666667, "type": "electric_scooter", "fusion_lon": 0.0, "fusion_lat": 0.0, "is_reserved": 0, "name": "15d9b8b17965b202063fed0fe3d035cf", "is_disabled": 0}, {"rental_uris": {"ios": "https://dc.lft.to/lastmile_qr_scan", "android": "https://dc.lft.to/lastmile_qr_scan"}, "lat": 38.91715466666667, "bike_id": "5ce12a66f39e4e16224b85a93e14e454", "lon": -77.02289366666666, "type": "electric_scooter", "fusion_lon": 0.0, "fusion_lat": 0.0, "is_reserved": 0, "name": "5ce12a66f39e4e16224b85a93e14e454", "is_disabled": 0}, {"rental_uris": {"ios": "https://dc.lft.to/lastmile_qr_scan", "android": "https://dc.lft.to/lastmile_qr_scan"}, "lat": 38.8748615, "bike_id": "d577f9cc90adda8edf0bc7e928808315", "lon": -77.002351, "type": "electric_scooter", "fusion_lon": 0.0, "fusion_lat": 0.0, "is_reserved": 0, "name": "d577f9cc90adda8edf0bc7e928808315", "is_disabled": 0}, {"rental_uris": {"ios": "https://dc.lft.to/lastmile_qr_scan", "android": "https://dc.lft.to/lastmile_qr_scan"}, "lat": 38.885812333333334, "bike_id": "1e6f5a84d038d9a28b35a65227cb45fd", "lon": -77.01545116666667, "type": "electric_scooter", "fusion_lon": 0.0, "fusion_lat": 0.0, "is_reserved": 0, "name": "1e6f5a84d038d9a28b35a65227cb45fd", "is_disabled": 0}, {"rental_uris": {"ios": "https://dc.lft.to/lastmile_qr_scan", "android": "https://dc.lft.to/lastmile_qr_scan"}, "lat": 38.91577183333333, "bike_id": "0f327785ffdf717150532792eb3e4d2d", "lon": -77.01583566666666, "type": "electric_scooter", "fusion_lon": 0.0, "fusion_lat": 0.0, "is_reserved": 0, "name": "0f327785ffdf717150532792eb3e4d2d", "is_disabled": 0}, {"rental_uris": {"ios": "https://dc.lft.to/lastmile_qr_scan", "android": "https://dc.lft.to/lastmile_qr_scan"}, "lat": 38.89976816666667, "bike_id": "e7f0c8e522180414cf85e77c5f1b87ac", "lon": -76.98376833333333, "type": "electric_scooter", "fusion_lon": 0.0, "fusion_lat": 0.0, "is_reserved": 0, "name": "e7f0c8e522180414cf85e77c5f1b87ac", "is_disabled": 0}, {"rental_uris": {"ios": "https://dc.lft.to/lastmile_qr_scan", "android": "https://dc.lft.to/lastmile_qr_scan"}, "lat": 38.88327316666667, "bike_id": "ce81268e2009779dc03a020aebd0e2cb", "lon": -76.960528, "type": "electric_bike", "fusion_lon": 0.0, "fusion_lat": 0.0, "is_reserved": 0, "name": "ce81268e2009779dc03a020aebd0e2cb", "is_disabled": 0}, {"rental_uris": {"ios": "https://dc.lft.to/lastmile_qr_scan", "android": "https://dc.lft.to/lastmile_qr_scan"}, "lat": 38.8995845, "bike_id": "1b725602a4cdcce047359a60a0ce6c0d", "lon": -77.04486516666667, "type": "electric_scooter", "fusion_lon": 0.0, "fusion_lat": 0.0, "is_reserved": 0, "name": "1b725602a4cdcce047359a60a0ce6c0d", "is_disabled": 0}, {"rental_uris": {"ios": "https://dc.lft.to/lastmile_qr_scan", "android": "https://dc.lft.to/lastmile_qr_scan"}, "lat": 38.84453583333333, "bike_id": "d3b504830b6e184ad1bab9b8e6117f1a", "lon": -77.00168566666666, "type": "electric_bike", "fusion_lon": 0.0, "fusion_lat": 0.0, "is_reserved": 0, "name": "d3b504830b6e184ad1bab9b8e6117f1a", "is_disabled": 0}, {"rental_uris": {"ios": "https://dc.lft.to/lastmile_qr_scan", "android": "https://dc.lft.to/lastmile_qr_scan"}, "lat": 38.919164333333335, "bike_id": "3f9c2b8bfdc9647eef7d65306e7ccde8", "lon": -77.025554, "type": "electric_scooter", "fusion_lon": 0.0, "fusion_lat": 0.0, "is_reserved": 0, "name": "3f9c2b8bfdc9647eef7d65306e7ccde8", "is_disabled": 0}, {"rental_uris": {"ios": "https://dc.lft.to/lastmile_qr_scan", "android": "https://dc.lft.to/lastmile_qr_scan"}, "lat": 38.920532666666666, "bike_id": "c4f491e637e6e385180f5e0df43524ee", "lon": -77.03391, "type": "electric_scooter", "fusion_lon": 0.0, "fusion_lat": 0.0, "is_reserved": 0, "name": "c4f491e637e6e385180f5e0df43524ee", "is_disabled": 0}, {"rental_uris": {"ios": "https://dc.lft.to/lastmile_qr_scan", "android": "https://dc.lft.to/lastmile_qr_scan"}, "lat": 38.906839833333336, "bike_id": "a5728c575ac3b4bdc959c412edf91028", "lon": -76.98672283333333, "type": "electric_scooter", "fusion_lon": 0.0, "fusion_lat": 0.0, "is_reserved": 0, "name": "a5728c575ac3b4bdc959c412edf91028", "is_disabled": 0}, {"rental_uris": {"ios": "https://dc.lft.to/lastmile_qr_scan", "android": "https://dc.lft.to/lastmile_qr_scan"}, "lat": 38.9270145, "bike_id": "fe06ca915cd76fb0cad8ed7170a25d3f", "lon": -77.03635183333333, "type": "electric_scooter", "fusion_lon": 0.0, "fusion_lat": 0.0, "is_reserved": 0, "name": "fe06ca915cd76fb0cad8ed7170a25d3f", "is_disabled": 0}, {"rental_uris": {"ios": "https://dc.lft.to/lastmile_qr_scan", "android": "https://dc.lft.to/lastmile_qr_scan"}, "lat": 38.92175566666667, "bike_id": "ba637c308ae6f3fbb41f320afb042000", "lon": -77.02107733333334, "type": "electric_scooter", "fusion_lon": 0.0, "fusion_lat": 0.0, "is_reserved": 0, "name": "ba637c308ae6f3fbb41f320afb042000", "is_disabled": 0}, {"rental_uris": {"ios": "https://dc.lft.to/lastmile_qr_scan", "android": "https://dc.lft.to/lastmile_qr_scan"}, "lat": 38.91949233333333, "bike_id": "3d2937034633e694370e48ab56c57b5c", "lon": -77.040563, "type": "electric_scooter", "fusion_lon": 0.0, "fusion_lat": 0.0, "is_reserved": 0, "name": "3d2937034633e694370e48ab56c57b5c", "is_disabled": 0}, {"rental_uris": {"ios": "https://dc.lft.to/lastmile_qr_scan", "android": "https://dc.lft.to/lastmile_qr_scan"}, "lat": 38.90106433333333, "bike_id": "d8cfe3a8dd46fa9c577e0f3653d1d330", "lon": -77.07058366666666, "type": "electric_scooter", "fusion_lon": 0.0, "fusion_lat": 0.0, "is_reserved": 0, "name": "d8cfe3a8dd46fa9c577e0f3653d1d330", "is_disabled": 0}, {"rental_uris": {"ios": "https://dc.lft.to/lastmile_qr_scan", "android": "https://dc.lft.to/lastmile_qr_scan"}, "lat": 38.90287933333333, "bike_id": "8a56049dfb2485caab131c66e1045a09", "lon": -77.03347816666667, "type": "electric_scooter", "fusion_lon": 0.0, "fusion_lat": 0.0, "is_reserved": 0, "name": "8a56049dfb2485caab131c66e1045a09", "is_disabled": 0}, {"rental_uris": {"ios": "https://dc.lft.to/lastmile_qr_scan", "android": "https://dc.lft.to/lastmile_qr_scan"}, "lat": 38.90421333333333, "bike_id": "b2a1f10e4c3a73d1780f79ddea583ae2", "lon": -77.04369833333334, "type": "electric_scooter", "fusion_lon": 0.0, "fusion_lat": 0.0, "is_reserved": 0, "name": "b2a1f10e4c3a73d1780f79ddea583ae2", "is_disabled": 0}, {"rental_uris": {"ios": "https://dc.lft.to/lastmile_qr_scan", "android": "https://dc.lft.to/lastmile_qr_scan"}, "lat": 38.895376166666665, "bike_id": "9edbf2ee45fa4abd8bbc35fa13245c69", "lon": -77.01991866666667, "type": "electric_scooter", "fusion_lon": 0.0, "fusion_lat": 0.0, "is_reserved": 0, "name": "9edbf2ee45fa4abd8bbc35fa13245c69", "is_disabled": 0}, {"rental_uris": {"ios": "https://dc.lft.to/lastmile_qr_scan", "android": "https://dc.lft.to/lastmile_qr_scan"}, "lat": 38.8952585, "bike_id": "a2e609498ca14136ae70cfd1857fcd74", "lon": -77.0448065, "type": "electric_scooter", "fusion_lon": 0.0, "fusion_lat": 0.0, "is_reserved": 0, "name": "a2e609498ca14136ae70cfd1857fcd74", "is_disabled": 0}, {"rental_uris": {"ios": "https://dc.lft.to/lastmile_qr_scan", "android": "https://dc.lft.to/lastmile_qr_scan"}, "lat": 38.89861783333333, "bike_id": "69db18157954bc3cf8e326d4127642e6", "lon": -76.94634533333334, "type": "electric_scooter", "fusion_lon": 0.0, "fusion_lat": 0.0, "is_reserved": 0, "name": "69db18157954bc3cf8e326d4127642e6", "is_disabled": 0}, {"rental_uris": {"ios": "https://dc.lft.to/lastmile_qr_scan", "android": "https://dc.lft.to/lastmile_qr_scan"}, "lat": 38.91899133333333, "bike_id": "bb723b801313c07bbd3683ed1dbc56a0", "lon": -77.03204133333334, "type": "electric_scooter", "fusion_lon": 0.0, "fusion_lat": 0.0, "is_reserved": 0, "name": "bb723b801313c07bbd3683ed1dbc56a0", "is_disabled": 0}, {"rental_uris": {"ios": "https://dc.lft.to/lastmile_qr_scan", "android": "https://dc.lft.to/lastmile_qr_scan"}, "lat": 38.892485, "bike_id": "6078ae6cc3c8d68447698e13a65de2b5", "lon": -77.0502355, "type": "electric_scooter", "fusion_lon": 0.0, "fusion_lat": 0.0, "is_reserved": 0, "name": "6078ae6cc3c8d68447698e13a65de2b5", "is_disabled": 0}, {"rental_uris": {"ios": "https://dc.lft.to/lastmile_qr_scan", "android": "https://dc.lft.to/lastmile_qr_scan"}, "lat": 38.8922185, "bike_id": "ff5b818f4bfe332e1fdf50bc45025709", "lon": -77.04366916666666, "type": "electric_scooter", "fusion_lon": 0.0, "fusion_lat": 0.0, "is_reserved": 0, "name": "ff5b818f4bfe332e1fdf50bc45025709", "is_disabled": 0}, {"rental_uris": {"ios": "https://dc.lft.to/lastmile_qr_scan", "android": "https://dc.lft.to/lastmile_qr_scan"}, "lat": 38.933926166666666, "bike_id": "3dd603c4876a9968ec226fc2372e1419", "lon": -77.03210116666666, "type": "electric_scooter", "fusion_lon": 0.0, "fusion_lat": 0.0, "is_reserved": 0, "name": "3dd603c4876a9968ec226fc2372e1419", "is_disabled": 0}, {"rental_uris": {"ios": "https://dc.lft.to/lastmile_qr_scan", "android": "https://dc.lft.to/lastmile_qr_scan"}, "lat": 38.95007583333334, "bike_id": "eea5fcdda61634d74e9deea4cce19998", "lon": -77.021904, "type": "electric_scooter", "fusion_lon": 0.0, "fusion_lat": 0.0, "is_reserved": 0, "name": "eea5fcdda61634d74e9deea4cce19998", "is_disabled": 0}, {"rental_uris": {"ios": "https://dc.lft.to/lastmile_qr_scan", "android": "https://dc.lft.to/lastmile_qr_scan"}, "lat": 38.8935455, "bike_id": "1ddaae4e70fb78e0af8553e513a93c9f", "lon": -77.0033665, "type": "electric_scooter", "fusion_lon": 0.0, "fusion_lat": 0.0, "is_reserved": 0, "name": "1ddaae4e70fb78e0af8553e513a93c9f", "is_disabled": 0}, {"rental_uris": {"ios": "https://dc.lft.to/lastmile_qr_scan", "android": "https://dc.lft.to/lastmile_qr_scan"}, "lat": 38.909465, "bike_id": "2c8f59254226384ddb788987bc657039", "lon": -77.03432033333333, "type": "electric_scooter", "fusion_lon": 0.0, "fusion_lat": 0.0, "is_reserved": 0, "name": "2c8f59254226384ddb788987bc657039", "is_disabled": 0}, {"rental_uris": {"ios": "https://dc.lft.to/lastmile_qr_scan", "android": "https://dc.lft.to/lastmile_qr_scan"}, "lat": 38.93976166666667, "bike_id": "f489ed46cf906fdb523bd281cd979f9f", "lon": -77.02452716666667, "type": "electric_scooter", "fusion_lon": 0.0, "fusion_lat": 0.0, "is_reserved": 0, "name": "f489ed46cf906fdb523bd281cd979f9f", "is_disabled": 0}, {"rental_uris": {"ios": "https://dc.lft.to/lastmile_qr_scan", "android": "https://dc.lft.to/lastmile_qr_scan"}, "lat": 38.919231, "bike_id": "e73abc945a7d68e048330b7ef08e66dc", "lon": -77.03375616666666, "type": "electric_scooter", "fusion_lon": 0.0, "fusion_lat": 0.0, "is_reserved": 0, "name": "e73abc945a7d68e048330b7ef08e66dc", "is_disabled": 0}, {"rental_uris": {"ios": "https://dc.lft.to/lastmile_qr_scan", "android": "https://dc.lft.to/lastmile_qr_scan"}, "lat": 38.90981516666667, "bike_id": "5cf1e168525134bbaa1bbd45a9631b0c", "lon": -77.03454466666666, "type": "electric_scooter", "fusion_lon": 0.0, "fusion_lat": 0.0, "is_reserved": 0, "name": "5cf1e168525134bbaa1bbd45a9631b0c", "is_disabled": 0}, {"rental_uris": {"ios": "https://dc.lft.to/lastmile_qr_scan", "android": "https://dc.lft.to/lastmile_qr_scan"}, "lat": 38.857528333333335, "bike_id": "dee10b0786603de291ec8d4dbd1c0dd1", "lon": -76.992921, "type": "electric_scooter", "fusion_lon": 0.0, "fusion_lat": 0.0, "is_reserved": 0, "name": "dee10b0786603de291ec8d4dbd1c0dd1", "is_disabled": 0}, {"rental_uris": {"ios": "https://dc.lft.to/lastmile_qr_scan", "android": "https://dc.lft.to/lastmile_qr_scan"}, "lat": 38.908142166666664, "bike_id": "3ce273e4e35832ec81c8015bb73502c6", "lon": -77.0434325, "type": "electric_scooter", "fusion_lon": 0.0, "fusion_lat": 0.0, "is_reserved": 0, "name": "3ce273e4e35832ec81c8015bb73502c6", "is_disabled": 0}, {"rental_uris": {"ios": "https://dc.lft.to/lastmile_qr_scan", "android": "https://dc.lft.to/lastmile_qr_scan"}, "lat": 38.9056625, "bike_id": "e2237b5a6a7da785dfa0ab8d85f83e11", "lon": -77.042938, "type": "electric_scooter", "fusion_lon": 0.0, "fusion_lat": 0.0, "is_reserved": 0, "name": "e2237b5a6a7da785dfa0ab8d85f83e11", "is_disabled": 0}, {"rental_uris": {"ios": "https://dc.lft.to/lastmile_qr_scan", "android": "https://dc.lft.to/lastmile_qr_scan"}, "lat": 38.924921166666664, "bike_id": "d824b26093efae45928689800141d5b9", "lon": -77.04124483333334, "type": "electric_scooter", "fusion_lon": 0.0, "fusion_lat": 0.0, "is_reserved": 0, "name": "d824b26093efae45928689800141d5b9", "is_disabled": 0}, {"rental_uris": {"ios": "https://dc.lft.to/lastmile_qr_scan", "android": "https://dc.lft.to/lastmile_qr_scan"}, "lat": 38.91408783333333, "bike_id": "e488cdf40666f8e9b4d7e491e0f16fa9", "lon": -77.04499066666666, "type": "electric_scooter", "fusion_lon": 0.0, "fusion_lat": 0.0, "is_reserved": 0, "name": "e488cdf40666f8e9b4d7e491e0f16fa9", "is_disabled": 0}, {"rental_uris": {"ios": "https://dc.lft.to/lastmile_qr_scan", "android": "https://dc.lft.to/lastmile_qr_scan"}, "lat": 38.894879833333334, "bike_id": "cd9df8688b2d22b944ec5c42a42fe118", "lon": -77.022981, "type": "electric_scooter", "fusion_lon": 0.0, "fusion_lat": 0.0, "is_reserved": 0, "name": "cd9df8688b2d22b944ec5c42a42fe118", "is_disabled": 0}, {"rental_uris": {"ios": "https://dc.lft.to/lastmile_qr_scan", "android": "https://dc.lft.to/lastmile_qr_scan"}, "lat": 38.920438, "bike_id": "6ff5f4fe43a2d78f7779fd7059b6049f", "lon": -77.04192183333333, "type": "electric_scooter", "fusion_lon": 0.0, "fusion_lat": 0.0, "is_reserved": 0, "name": "6ff5f4fe43a2d78f7779fd7059b6049f", "is_disabled": 0}, {"rental_uris": {"ios": "https://dc.lft.to/lastmile_qr_scan", "android": "https://dc.lft.to/lastmile_qr_scan"}, "lat": 38.984671166666665, "bike_id": "acf375d93047d8b77a1f2d7d7854326a", "lon": -77.0263385, "type": "electric_scooter", "fusion_lon": 0.0, "fusion_lat": 0.0, "is_reserved": 0, "name": "acf375d93047d8b77a1f2d7d7854326a", "is_disabled": 0}, {"rental_uris": {"ios": "https://dc.lft.to/lastmile_qr_scan", "android": "https://dc.lft.to/lastmile_qr_scan"}, "lat": 38.90033016666667, "bike_id": "74163a600611a3cb245268428be84414", "lon": -77.04403983333333, "type": "electric_scooter", "fusion_lon": 0.0, "fusion_lat": 0.0, "is_reserved": 0, "name": "74163a600611a3cb245268428be84414", "is_disabled": 0}, {"rental_uris": {"ios": "https://dc.lft.to/lastmile_qr_scan", "android": "https://dc.lft.to/lastmile_qr_scan"}, "lat": 38.905937333333334, "bike_id": "be3befd491e0e5af2c0c4e18082e10ff", "lon": -77.04322316666666, "type": "electric_scooter", "fusion_lon": 0.0, "fusion_lat": 0.0, "is_reserved": 0, "name": "be3befd491e0e5af2c0c4e18082e10ff", "is_disabled": 0}, {"rental_uris": {"ios": "https://dc.lft.to/lastmile_qr_scan", "android": "https://dc.lft.to/lastmile_qr_scan"}, "lat": 38.91670583333333, "bike_id": "d4a64ad12acde49ea818ce3ed02f4170", "lon": -77.023827, "type": "electric_scooter", "fusion_lon": 0.0, "fusion_lat": 0.0, "is_reserved": 0, "name": "d4a64ad12acde49ea818ce3ed02f4170", "is_disabled": 0}, {"rental_uris": {"ios": "https://dc.lft.to/lastmile_qr_scan", "android": "https://dc.lft.to/lastmile_qr_scan"}, "lat": 38.899780666666665, "bike_id": "ab96bb54f071bb3d13b145d059d38e9b", "lon": -77.05561666666667, "type": "electric_scooter", "fusion_lon": 0.0, "fusion_lat": 0.0, "is_reserved": 0, "name": "ab96bb54f071bb3d13b145d059d38e9b", "is_disabled": 0}, {"rental_uris": {"ios": "https://dc.lft.to/lastmile_qr_scan", "android": "https://dc.lft.to/lastmile_qr_scan"}, "lat": 38.923406666666665, "bike_id": "c3953e3746b9eb07a24ed0eaa38e4e89", "lon": -77.0191465, "type": "electric_scooter", "fusion_lon": 0.0, "fusion_lat": 0.0, "is_reserved": 0, "name": "c3953e3746b9eb07a24ed0eaa38e4e89", "is_disabled": 0}, {"rental_uris": {"ios": "https://dc.lft.to/lastmile_qr_scan", "android": "https://dc.lft.to/lastmile_qr_scan"}, "lat": 38.865092833333335, "bike_id": "2028b7873884c404f5521fb177abcabd", "lon": -76.99008066666667, "type": "electric_scooter", "fusion_lon": 0.0, "fusion_lat": 0.0, "is_reserved": 0, "name": "2028b7873884c404f5521fb177abcabd", "is_disabled": 0}, {"rental_uris": {"ios": "https://dc.lft.to/lastmile_qr_scan", "android": "https://dc.lft.to/lastmile_qr_scan"}, "lat": 38.93638416666667, "bike_id": "6131204fef9ce78f016b30d5bd9176bd", "lon": -77.05880316666666, "type": "electric_scooter", "fusion_lon": 0.0, "fusion_lat": 0.0, "is_reserved": 0, "name": "6131204fef9ce78f016b30d5bd9176bd", "is_disabled": 0}, {"rental_uris": {"ios": "https://dc.lft.to/lastmile_qr_scan", "android": "https://dc.lft.to/lastmile_qr_scan"}, "lat": 38.87161283333333, "bike_id": "822a03c8c9bcf7d6c4617cbfb3b25b03", "lon": -77.01320316666667, "type": "electric_scooter", "fusion_lon": 0.0, "fusion_lat": 0.0, "is_reserved": 0, "name": "822a03c8c9bcf7d6c4617cbfb3b25b03", "is_disabled": 0}, {"rental_uris": {"ios": "https://dc.lft.to/lastmile_qr_scan", "android": "https://dc.lft.to/lastmile_qr_scan"}, "lat": 38.902608, "bike_id": "9ecbcc2f842b7cd078df126b8f2bbd45", "lon": -77.03908116666666, "type": "electric_scooter", "fusion_lon": 0.0, "fusion_lat": 0.0, "is_reserved": 0, "name": "9ecbcc2f842b7cd078df126b8f2bbd45", "is_disabled": 0}, {"rental_uris": {"ios": "https://dc.lft.to/lastmile_qr_scan", "android": "https://dc.lft.to/lastmile_qr_scan"}, "lat": 38.902320333333336, "bike_id": "32b73eb29b8a811c8417eab69b1b0081", "lon": -77.04084116666667, "type": "electric_scooter", "fusion_lon": 0.0, "fusion_lat": 0.0, "is_reserved": 0, "name": "32b73eb29b8a811c8417eab69b1b0081", "is_disabled": 0}, {"rental_uris": {"ios": "https://dc.lft.to/lastmile_qr_scan", "android": "https://dc.lft.to/lastmile_qr_scan"}, "lat": 38.90094833333333, "bike_id": "a9d6b7f4812ff65e057225efb4137d23", "lon": -76.98337233333334, "type": "electric_scooter", "fusion_lon": 0.0, "fusion_lat": 0.0, "is_reserved": 0, "name": "a9d6b7f4812ff65e057225efb4137d23", "is_disabled": 0}, {"rental_uris": {"ios": "https://dc.lft.to/lastmile_qr_scan", "android": "https://dc.lft.to/lastmile_qr_scan"}, "lat": 38.89240366666667, "bike_id": "acf26362cb4c5fa823dc79f9b19ac0d2", "lon": -76.9532765, "type": "electric_scooter", "fusion_lon": 0.0, "fusion_lat": 0.0, "is_reserved": 0, "name": "acf26362cb4c5fa823dc79f9b19ac0d2", "is_disabled": 0}, {"rental_uris": {"ios": "https://dc.lft.to/lastmile_qr_scan", "android": "https://dc.lft.to/lastmile_qr_scan"}, "lat": 38.90359866666667, "bike_id": "01b9102ce5f6a103c6e682eb165484e6", "lon": -77.05351966666667, "type": "electric_scooter", "fusion_lon": 0.0, "fusion_lat": 0.0, "is_reserved": 0, "name": "01b9102ce5f6a103c6e682eb165484e6", "is_disabled": 0}, {"rental_uris": {"ios": "https://dc.lft.to/lastmile_qr_scan", "android": "https://dc.lft.to/lastmile_qr_scan"}, "lat": 38.915275, "bike_id": "5d5aad9710320b3935e614253546142a", "lon": -77.0550835, "type": "electric_scooter", "fusion_lon": 0.0, "fusion_lat": 0.0, "is_reserved": 0, "name": "5d5aad9710320b3935e614253546142a", "is_disabled": 0}, {"rental_uris": {"ios": "https://dc.lft.to/lastmile_qr_scan", "android": "https://dc.lft.to/lastmile_qr_scan"}, "lat": 38.89629983333333, "bike_id": "1197749e2c183d58a9ccbd74bf19aa19", "lon": -77.027829, "type": "electric_scooter", "fusion_lon": 0.0, "fusion_lat": 0.0, "is_reserved": 0, "name": "1197749e2c183d58a9ccbd74bf19aa19", "is_disabled": 0}, {"rental_uris": {"ios": "https://dc.lft.to/lastmile_qr_scan", "android": "https://dc.lft.to/lastmile_qr_scan"}, "lat": 38.89860733333333, "bike_id": "bb4a6e51110426bda48dfb9c43669416", "lon": -76.9463785, "type": "electric_scooter", "fusion_lon": 0.0, "fusion_lat": 0.0, "is_reserved": 0, "name": "bb4a6e51110426bda48dfb9c43669416", "is_disabled": 0}, {"rental_uris": {"ios": "https://dc.lft.to/lastmile_qr_scan", "android": "https://dc.lft.to/lastmile_qr_scan"}, "lat": 38.90383033333333, "bike_id": "4be236e952381a5682745a9636a56cb9", "lon": -77.0357135, "type": "electric_scooter", "fusion_lon": 0.0, "fusion_lat": 0.0, "is_reserved": 0, "name": "4be236e952381a5682745a9636a56cb9", "is_disabled": 0}, {"rental_uris": {"ios": "https://dc.lft.to/lastmile_qr_scan", "android": "https://dc.lft.to/lastmile_qr_scan"}, "lat": 38.89852116666667, "bike_id": "f4992e13688dd9610ed5bcf94d8f468d", "lon": -77.03989166666666, "type": "electric_bike", "fusion_lon": 0.0, "fusion_lat": 0.0, "is_reserved": 0, "name": "f4992e13688dd9610ed5bcf94d8f468d", "is_disabled": 0}, {"rental_uris": {"ios": "https://dc.lft.to/lastmile_qr_scan", "android": "https://dc.lft.to/lastmile_qr_scan"}, "lat": 38.88183183333334, "bike_id": "08d359eb0a9e4518db3450ac6520aeba", "lon": -77.02084866666667, "type": "electric_scooter", "fusion_lon": 0.0, "fusion_lat": 0.0, "is_reserved": 0, "name": "08d359eb0a9e4518db3450ac6520aeba", "is_disabled": 0}, {"rental_uris": {"ios": "https://dc.lft.to/lastmile_qr_scan", "android": "https://dc.lft.to/lastmile_qr_scan"}, "lat": 38.8762335, "bike_id": "e53e41fb62a63d1d11ada1cded6ffebe", "lon": -76.96524916666667, "type": "electric_scooter", "fusion_lon": 0.0, "fusion_lat": 0.0, "is_reserved": 0, "name": "e53e41fb62a63d1d11ada1cded6ffebe", "is_disabled": 0}, {"rental_uris": {"ios": "https://dc.lft.to/lastmile_qr_scan", "android": "https://dc.lft.to/lastmile_qr_scan"}, "lat": 38.8783075, "bike_id": "2570b4a4a9999fa662a569c64950e8ee", "lon": -77.00193816666666, "type": "electric_scooter", "fusion_lon": 0.0, "fusion_lat": 0.0, "is_reserved": 0, "name": "2570b4a4a9999fa662a569c64950e8ee", "is_disabled": 0}, {"rental_uris": {"ios": "https://dc.lft.to/lastmile_qr_scan", "android": "https://dc.lft.to/lastmile_qr_scan"}, "lat": 38.90014033333333, "bike_id": "ddeff627557e8210c6dc880942f1adec", "lon": -76.986001, "type": "electric_scooter", "fusion_lon": 0.0, "fusion_lat": 0.0, "is_reserved": 0, "name": "ddeff627557e8210c6dc880942f1adec", "is_disabled": 0}, {"rental_uris": {"ios": "https://dc.lft.to/lastmile_qr_scan", "android": "https://dc.lft.to/lastmile_qr_scan"}, "lat": 38.902930833333336, "bike_id": "9ef5f7bba8c033d254b47f53237f2772", "lon": -77.03836383333334, "type": "electric_scooter", "fusion_lon": 0.0, "fusion_lat": 0.0, "is_reserved": 0, "name": "9ef5f7bba8c033d254b47f53237f2772", "is_disabled": 0}, {"rental_uris": {"ios": "https://dc.lft.to/lastmile_qr_scan", "android": "https://dc.lft.to/lastmile_qr_scan"}, "lat": 38.90373783333333, "bike_id": "e3bc60d1fae0914329fbd24a7a07fb4f", "lon": -77.04505933333333, "type": "electric_scooter", "fusion_lon": 0.0, "fusion_lat": 0.0, "is_reserved": 0, "name": "e3bc60d1fae0914329fbd24a7a07fb4f", "is_disabled": 0}, {"rental_uris": {"ios": "https://dc.lft.to/lastmile_qr_scan", "android": "https://dc.lft.to/lastmile_qr_scan"}, "lat": 38.886876666666666, "bike_id": "ce3a8cb170d196ced6f66e264ff4329d", "lon": -76.976371, "type": "electric_scooter", "fusion_lon": 0.0, "fusion_lat": 0.0, "is_reserved": 0, "name": "ce3a8cb170d196ced6f66e264ff4329d", "is_disabled": 0}, {"rental_uris": {"ios": "https://dc.lft.to/lastmile_qr_scan", "android": "https://dc.lft.to/lastmile_qr_scan"}, "lat": 38.923288666666664, "bike_id": "feea52bac78b13e7390d57d9e4a85472", "lon": -77.0572465, "type": "electric_bike", "fusion_lon": 0.0, "fusion_lat": 0.0, "is_reserved": 0, "name": "feea52bac78b13e7390d57d9e4a85472", "is_disabled": 0}, {"rental_uris": {"ios": "https://dc.lft.to/lastmile_qr_scan", "android": "https://dc.lft.to/lastmile_qr_scan"}, "lat": 38.9101765, "bike_id": "78a6d0a3829f54ddaffdefe2b017ceab", "lon": -77.00917683333333, "type": "electric_scooter", "fusion_lon": 0.0, "fusion_lat": 0.0, "is_reserved": 0, "name": "78a6d0a3829f54ddaffdefe2b017ceab", "is_disabled": 0}, {"rental_uris": {"ios": "https://dc.lft.to/lastmile_qr_scan", "android": "https://dc.lft.to/lastmile_qr_scan"}, "lat": 38.922966, "bike_id": "3fa71555b39f0c86452baf6ca6061477", "lon": -77.04141283333334, "type": "electric_scooter", "fusion_lon": 0.0, "fusion_lat": 0.0, "is_reserved": 0, "name": "3fa71555b39f0c86452baf6ca6061477", "is_disabled": 0}, {"rental_uris": {"ios": "https://dc.lft.to/lastmile_qr_scan", "android": "https://dc.lft.to/lastmile_qr_scan"}, "lat": 38.902615833333336, "bike_id": "b71e186afee6dc5997baa004dce4779b", "lon": -77.02818283333333, "type": "electric_scooter", "fusion_lon": 0.0, "fusion_lat": 0.0, "is_reserved": 0, "name": "b71e186afee6dc5997baa004dce4779b", "is_disabled": 0}, {"rental_uris": {"ios": "https://dc.lft.to/lastmile_qr_scan", "android": "https://dc.lft.to/lastmile_qr_scan"}, "lat": 38.97503416666667, "bike_id": "38be6c7b0a108fba7a3696604f5e8cf9", "lon": -77.01694666666667, "type": "electric_scooter", "fusion_lon": 0.0, "fusion_lat": 0.0, "is_reserved": 0, "name": "38be6c7b0a108fba7a3696604f5e8cf9", "is_disabled": 0}, {"rental_uris": {"ios": "https://dc.lft.to/lastmile_qr_scan", "android": "https://dc.lft.to/lastmile_qr_scan"}, "lat": 38.893491166666664, "bike_id": "0e5282d026947c6172d084cad639c714", "lon": -77.028341, "type": "electric_scooter", "fusion_lon": 0.0, "fusion_lat": 0.0, "is_reserved": 0, "name": "0e5282d026947c6172d084cad639c714", "is_disabled": 0}, {"rental_uris": {"ios": "https://dc.lft.to/lastmile_qr_scan", "android": "https://dc.lft.to/lastmile_qr_scan"}, "lat": 38.8984605, "bike_id": "4bf4834fa29933455f6ca13e3f72fce7", "lon": -77.02639166666667, "type": "electric_scooter", "fusion_lon": 0.0, "fusion_lat": 0.0, "is_reserved": 0, "name": "4bf4834fa29933455f6ca13e3f72fce7", "is_disabled": 0}, {"rental_uris": {"ios": "https://dc.lft.to/lastmile_qr_scan", "android": "https://dc.lft.to/lastmile_qr_scan"}, "lat": 39.054962333333336, "bike_id": "e0f8b6df722a6a881e5793bb83a57eee", "lon": -77.11787633333333, "type": "electric_bike", "fusion_lon": 0.0, "fusion_lat": 0.0, "is_reserved": 0, "name": "e0f8b6df722a6a881e5793bb83a57eee", "is_disabled": 0}, {"rental_uris": {"ios": "https://dc.lft.to/lastmile_qr_scan", "android": "https://dc.lft.to/lastmile_qr_scan"}, "lat": 38.871812166666665, "bike_id": "0f84b38f96ac15f438df2d764807ccdb", "lon": -77.00605833333333, "type": "electric_scooter", "fusion_lon": 0.0, "fusion_lat": 0.0, "is_reserved": 0, "name": "0f84b38f96ac15f438df2d764807ccdb", "is_disabled": 0}, {"rental_uris": {"ios": "https://dc.lft.to/lastmile_qr_scan", "android": "https://dc.lft.to/lastmile_qr_scan"}, "lat": 38.905199, "bike_id": "878d7ff4f68a1312d8793813d77b6ce7", "lon": -77.06162583333334, "type": "electric_scooter", "fusion_lon": 0.0, "fusion_lat": 0.0, "is_reserved": 0, "name": "878d7ff4f68a1312d8793813d77b6ce7", "is_disabled": 0}, {"rental_uris": {"ios": "https://dc.lft.to/lastmile_qr_scan", "android": "https://dc.lft.to/lastmile_qr_scan"}, "lat": 38.920397333333334, "bike_id": "944d6d5a93479f0409f1fc8b3b96bf01", "lon": -77.04197, "type": "electric_scooter", "fusion_lon": 0.0, "fusion_lat": 0.0, "is_reserved": 0, "name": "944d6d5a93479f0409f1fc8b3b96bf01", "is_disabled": 0}, {"rental_uris": {"ios": "https://dc.lft.to/lastmile_qr_scan", "android": "https://dc.lft.to/lastmile_qr_scan"}, "lat": 38.92152266666667, "bike_id": "529d05a86a014754cad416d45fa3ed21", "lon": -77.03499133333334, "type": "electric_scooter", "fusion_lon": 0.0, "fusion_lat": 0.0, "is_reserved": 0, "name": "529d05a86a014754cad416d45fa3ed21", "is_disabled": 0}, {"rental_uris": {"ios": "https://dc.lft.to/lastmile_qr_scan", "android": "https://dc.lft.to/lastmile_qr_scan"}, "lat": 38.884705, "bike_id": "cee781fd4cc0e3a2673116f43e9d90eb", "lon": -77.03200216666667, "type": "electric_scooter", "fusion_lon": 0.0, "fusion_lat": 0.0, "is_reserved": 0, "name": "cee781fd4cc0e3a2673116f43e9d90eb", "is_disabled": 0}, {"rental_uris": {"ios": "https://dc.lft.to/lastmile_qr_scan", "android": "https://dc.lft.to/lastmile_qr_scan"}, "lat": 38.95374, "bike_id": "591bfb66270f455854add0ce5fe3bfd3", "lon": -76.97965833333333, "type": "electric_bike", "fusion_lon": 0.0, "fusion_lat": 0.0, "is_reserved": 0, "name": "591bfb66270f455854add0ce5fe3bfd3", "is_disabled": 0}, {"rental_uris": {"ios": "https://dc.lft.to/lastmile_qr_scan", "android": "https://dc.lft.to/lastmile_qr_scan"}, "lat": 38.880294666666664, "bike_id": "97548d9f53f6b47a6dee71a71e8b030f", "lon": -77.022259, "type": "electric_scooter", "fusion_lon": 0.0, "fusion_lat": 0.0, "is_reserved": 0, "name": "97548d9f53f6b47a6dee71a71e8b030f", "is_disabled": 0}, {"rental_uris": {"ios": "https://dc.lft.to/lastmile_qr_scan", "android": "https://dc.lft.to/lastmile_qr_scan"}, "lat": 38.89837983333334, "bike_id": "2d28bb7e53c49f5d81519edf1f634ab8", "lon": -77.0498635, "type": "electric_scooter", "fusion_lon": 0.0, "fusion_lat": 0.0, "is_reserved": 0, "name": "2d28bb7e53c49f5d81519edf1f634ab8", "is_disabled": 0}, {"rental_uris": {"ios": "https://dc.lft.to/lastmile_qr_scan", "android": "https://dc.lft.to/lastmile_qr_scan"}, "lat": 38.9098235, "bike_id": "c930d63cb5819e18da6166ba31fba090", "lon": -77.0317575, "type": "electric_scooter", "fusion_lon": 0.0, "fusion_lat": 0.0, "is_reserved": 0, "name": "c930d63cb5819e18da6166ba31fba090", "is_disabled": 0}, {"rental_uris": {"ios": "https://dc.lft.to/lastmile_qr_scan", "android": "https://dc.lft.to/lastmile_qr_scan"}, "lat": 38.90850283333333, "bike_id": "78cc67aa2e3a0a10bfff0f64323c31b4", "lon": -77.01251566666667, "type": "electric_scooter", "fusion_lon": 0.0, "fusion_lat": 0.0, "is_reserved": 0, "name": "78cc67aa2e3a0a10bfff0f64323c31b4", "is_disabled": 0}, {"rental_uris": {"ios": "https://dc.lft.to/lastmile_qr_scan", "android": "https://dc.lft.to/lastmile_qr_scan"}, "lat": 38.938825, "bike_id": "384d57c58fd62c63d1929cf6fc7717d4", "lon": -77.024785, "type": "electric_scooter", "fusion_lon": 0.0, "fusion_lat": 0.0, "is_reserved": 0, "name": "384d57c58fd62c63d1929cf6fc7717d4", "is_disabled": 0}, {"rental_uris": {"ios": "https://dc.lft.to/lastmile_qr_scan", "android": "https://dc.lft.to/lastmile_qr_scan"}, "lat": 38.909656166666664, "bike_id": "e0fe1599299b8d01910daf14532f0742", "lon": -77.03288466666666, "type": "electric_scooter", "fusion_lon": 0.0, "fusion_lat": 0.0, "is_reserved": 0, "name": "e0fe1599299b8d01910daf14532f0742", "is_disabled": 0}, {"rental_uris": {"ios": "https://dc.lft.to/lastmile_qr_scan", "android": "https://dc.lft.to/lastmile_qr_scan"}, "lat": 38.901712333333336, "bike_id": "5b6f78e2a5ec725e9d57addcd99f5fe7", "lon": -77.05056416666666, "type": "electric_scooter", "fusion_lon": 0.0, "fusion_lat": 0.0, "is_reserved": 0, "name": "5b6f78e2a5ec725e9d57addcd99f5fe7", "is_disabled": 0}, {"rental_uris": {"ios": "https://dc.lft.to/lastmile_qr_scan", "android": "https://dc.lft.to/lastmile_qr_scan"}, "lat": 38.901556166666666, "bike_id": "4a618864c1d91de0872d38e6b850a022", "lon": -76.9762785, "type": "electric_scooter", "fusion_lon": 0.0, "fusion_lat": 0.0, "is_reserved": 0, "name": "4a618864c1d91de0872d38e6b850a022", "is_disabled": 0}, {"rental_uris": {"ios": "https://dc.lft.to/lastmile_qr_scan", "android": "https://dc.lft.to/lastmile_qr_scan"}, "lat": 38.8772005, "bike_id": "c12dec901294ac5df9100322e298684d", "lon": -77.01751933333334, "type": "electric_scooter", "fusion_lon": 0.0, "fusion_lat": 0.0, "is_reserved": 0, "name": "c12dec901294ac5df9100322e298684d", "is_disabled": 0}, {"rental_uris": {"ios": "https://dc.lft.to/lastmile_qr_scan", "android": "https://dc.lft.to/lastmile_qr_scan"}, "lat": 38.911655333333336, "bike_id": "7565f18e8715c736a908d22517853dcf", "lon": -77.002691, "type": "electric_bike", "fusion_lon": 0.0, "fusion_lat": 0.0, "is_reserved": 0, "name": "7565f18e8715c736a908d22517853dcf", "is_disabled": 0}, {"rental_uris": {"ios": "https://dc.lft.to/lastmile_qr_scan", "android": "https://dc.lft.to/lastmile_qr_scan"}, "lat": 38.9111925, "bike_id": "372573849991441e703eff89777525b3", "lon": -77.04403516666666, "type": "electric_scooter", "fusion_lon": 0.0, "fusion_lat": 0.0, "is_reserved": 0, "name": "372573849991441e703eff89777525b3", "is_disabled": 0}, {"rental_uris": {"ios": "https://dc.lft.to/lastmile_qr_scan", "android": "https://dc.lft.to/lastmile_qr_scan"}, "lat": 38.884939833333334, "bike_id": "a8e4349f09a1ef0f8c73b2e81c422f75", "lon": -77.00727233333333, "type": "electric_scooter", "fusion_lon": 0.0, "fusion_lat": 0.0, "is_reserved": 0, "name": "a8e4349f09a1ef0f8c73b2e81c422f75", "is_disabled": 0}, {"rental_uris": {"ios": "https://dc.lft.to/lastmile_qr_scan", "android": "https://dc.lft.to/lastmile_qr_scan"}, "lat": 38.872970333333335, "bike_id": "23cb4611819f8bf8e3d4159caa55d3b1", "lon": -76.9690035, "type": "electric_scooter", "fusion_lon": 0.0, "fusion_lat": 0.0, "is_reserved": 0, "name": "23cb4611819f8bf8e3d4159caa55d3b1", "is_disabled": 0}, {"rental_uris": {"ios": "https://dc.lft.to/lastmile_qr_scan", "android": "https://dc.lft.to/lastmile_qr_scan"}, "lat": 38.908746666666666, "bike_id": "c4c584579837a1bcdb6bf6737e0953d0", "lon": -77.04103733333334, "type": "electric_scooter", "fusion_lon": 0.0, "fusion_lat": 0.0, "is_reserved": 0, "name": "c4c584579837a1bcdb6bf6737e0953d0", "is_disabled": 0}, {"rental_uris": {"ios": "https://dc.lft.to/lastmile_qr_scan", "android": "https://dc.lft.to/lastmile_qr_scan"}, "lat": 38.926028333333335, "bike_id": "8ecf254e489332506502de986a1d287d", "lon": -77.021565, "type": "electric_scooter", "fusion_lon": 0.0, "fusion_lat": 0.0, "is_reserved": 0, "name": "8ecf254e489332506502de986a1d287d", "is_disabled": 0}, {"rental_uris": {"ios": "https://dc.lft.to/lastmile_qr_scan", "android": "https://dc.lft.to/lastmile_qr_scan"}, "lat": 38.89822266666667, "bike_id": "35907231250a8831b0a59598929b7911", "lon": -77.04488633333334, "type": "electric_scooter", "fusion_lon": 0.0, "fusion_lat": 0.0, "is_reserved": 0, "name": "35907231250a8831b0a59598929b7911", "is_disabled": 0}, {"rental_uris": {"ios": "https://dc.lft.to/lastmile_qr_scan", "android": "https://dc.lft.to/lastmile_qr_scan"}, "lat": 38.89516166666667, "bike_id": "659b5a9936e23791bd9fcbecd5376a39", "lon": -77.02276066666667, "type": "electric_scooter", "fusion_lon": 0.0, "fusion_lat": 0.0, "is_reserved": 0, "name": "659b5a9936e23791bd9fcbecd5376a39", "is_disabled": 0}, {"rental_uris": {"ios": "https://dc.lft.to/lastmile_qr_scan", "android": "https://dc.lft.to/lastmile_qr_scan"}, "lat": 38.91415033333333, "bike_id": "f002e1c2627040f41bffca8a58debfcb", "lon": -77.04278166666667, "type": "electric_scooter", "fusion_lon": 0.0, "fusion_lat": 0.0, "is_reserved": 0, "name": "f002e1c2627040f41bffca8a58debfcb", "is_disabled": 0}, {"rental_uris": {"ios": "https://dc.lft.to/lastmile_qr_scan", "android": "https://dc.lft.to/lastmile_qr_scan"}, "lat": 38.91660566666667, "bike_id": "4864793029df897489bd6e6322ec5650", "lon": -77.03181416666666, "type": "electric_scooter", "fusion_lon": 0.0, "fusion_lat": 0.0, "is_reserved": 0, "name": "4864793029df897489bd6e6322ec5650", "is_disabled": 0}, {"rental_uris": {"ios": "https://dc.lft.to/lastmile_qr_scan", "android": "https://dc.lft.to/lastmile_qr_scan"}, "lat": 38.90677683333333, "bike_id": "01103c20fc3b6db4e9057d7b9d0a4519", "lon": -77.021759, "type": "electric_scooter", "fusion_lon": 0.0, "fusion_lat": 0.0, "is_reserved": 0, "name": "01103c20fc3b6db4e9057d7b9d0a4519", "is_disabled": 0}, {"rental_uris": {"ios": "https://dc.lft.to/lastmile_qr_scan", "android": "https://dc.lft.to/lastmile_qr_scan"}, "lat": 38.9245315, "bike_id": "2861fdbd8638d01f0a007c806a1b3ae2", "lon": -77.0215575, "type": "electric_scooter", "fusion_lon": 0.0, "fusion_lat": 0.0, "is_reserved": 0, "name": "2861fdbd8638d01f0a007c806a1b3ae2", "is_disabled": 0}, {"rental_uris": {"ios": "https://dc.lft.to/lastmile_qr_scan", "android": "https://dc.lft.to/lastmile_qr_scan"}, "lat": 38.930884, "bike_id": "7702c26ac2a8e88759e3b3e9ef3100df", "lon": -77.03122333333333, "type": "electric_scooter", "fusion_lon": 0.0, "fusion_lat": 0.0, "is_reserved": 0, "name": "7702c26ac2a8e88759e3b3e9ef3100df", "is_disabled": 0}, {"rental_uris": {"ios": "https://dc.lft.to/lastmile_qr_scan", "android": "https://dc.lft.to/lastmile_qr_scan"}, "lat": 38.9178105, "bike_id": "d43a1a2aae2d44822fe5f75d24f0c426", "lon": -77.02369233333333, "type": "electric_scooter", "fusion_lon": 0.0, "fusion_lat": 0.0, "is_reserved": 0, "name": "d43a1a2aae2d44822fe5f75d24f0c426", "is_disabled": 0}, {"rental_uris": {"ios": "https://dc.lft.to/lastmile_qr_scan", "android": "https://dc.lft.to/lastmile_qr_scan"}, "lat": 38.9140795, "bike_id": "fee0a37fca8add1c73de0e895bb2bdcd", "lon": -77.02108866666667, "type": "electric_scooter", "fusion_lon": 0.0, "fusion_lat": 0.0, "is_reserved": 0, "name": "fee0a37fca8add1c73de0e895bb2bdcd", "is_disabled": 0}, {"rental_uris": {"ios": "https://dc.lft.to/lastmile_qr_scan", "android": "https://dc.lft.to/lastmile_qr_scan"}, "lat": 38.90264416666667, "bike_id": "8aa91029ca8e2723d833496ad70d15e6", "lon": -77.0395945, "type": "electric_scooter", "fusion_lon": 0.0, "fusion_lat": 0.0, "is_reserved": 0, "name": "8aa91029ca8e2723d833496ad70d15e6", "is_disabled": 0}, {"rental_uris": {"ios": "https://dc.lft.to/lastmile_qr_scan", "android": "https://dc.lft.to/lastmile_qr_scan"}, "lat": 38.9492255, "bike_id": "0874a9689c358cdb03adb19ed5ad405b", "lon": -77.01857666666666, "type": "electric_scooter", "fusion_lon": 0.0, "fusion_lat": 0.0, "is_reserved": 0, "name": "0874a9689c358cdb03adb19ed5ad405b", "is_disabled": 0}, {"rental_uris": {"ios": "https://dc.lft.to/lastmile_qr_scan", "android": "https://dc.lft.to/lastmile_qr_scan"}, "lat": 38.89435316666667, "bike_id": "205e12de4359d0c0584b4108b0968fa8", "lon": -77.03968716666667, "type": "electric_scooter", "fusion_lon": 0.0, "fusion_lat": 0.0, "is_reserved": 0, "name": "205e12de4359d0c0584b4108b0968fa8", "is_disabled": 0}, {"rental_uris": {"ios": "https://dc.lft.to/lastmile_qr_scan", "android": "https://dc.lft.to/lastmile_qr_scan"}, "lat": 38.897228166666665, "bike_id": "1a99065e4ecd4d9aa1e759908af2a059", "lon": -77.02211783333334, "type": "electric_scooter", "fusion_lon": 0.0, "fusion_lat": 0.0, "is_reserved": 0, "name": "1a99065e4ecd4d9aa1e759908af2a059", "is_disabled": 0}, {"rental_uris": {"ios": "https://dc.lft.to/lastmile_qr_scan", "android": "https://dc.lft.to/lastmile_qr_scan"}, "lat": 38.92653416666667, "bike_id": "f27112dc62dfc6c1f7f6d08d13c309b4", "lon": -77.03276933333333, "type": "electric_scooter", "fusion_lon": 0.0, "fusion_lat": 0.0, "is_reserved": 0, "name": "f27112dc62dfc6c1f7f6d08d13c309b4", "is_disabled": 0}, {"rental_uris": {"ios": "https://dc.lft.to/lastmile_qr_scan", "android": "https://dc.lft.to/lastmile_qr_scan"}, "lat": 38.9037545, "bike_id": "155c4e9cf9a31cee462460dade33e378", "lon": -77.045237, "type": "electric_scooter", "fusion_lon": 0.0, "fusion_lat": 0.0, "is_reserved": 0, "name": "155c4e9cf9a31cee462460dade33e378", "is_disabled": 0}, {"rental_uris": {"ios": "https://dc.lft.to/lastmile_qr_scan", "android": "https://dc.lft.to/lastmile_qr_scan"}, "lat": 38.90869983333333, "bike_id": "b45d725357be15269ed14b1e2c25ff14", "lon": -76.9333485, "type": "electric_scooter", "fusion_lon": 0.0, "fusion_lat": 0.0, "is_reserved": 0, "name": "b45d725357be15269ed14b1e2c25ff14", "is_disabled": 0}, {"rental_uris": {"ios": "https://dc.lft.to/lastmile_qr_scan", "android": "https://dc.lft.to/lastmile_qr_scan"}, "lat": 38.89811016666667, "bike_id": "9751a7fd73cb0171655e05d58816d173", "lon": -77.00598166666667, "type": "electric_bike", "fusion_lon": 0.0, "fusion_lat": 0.0, "is_reserved": 0, "name": "9751a7fd73cb0171655e05d58816d173", "is_disabled": 0}, {"rental_uris": {"ios": "https://dc.lft.to/lastmile_qr_scan", "android": "https://dc.lft.to/lastmile_qr_scan"}, "lat": 38.89694516666667, "bike_id": "d333bdc92a44e2e135c46bec31c389ea", "lon": -77.0229525, "type": "electric_scooter", "fusion_lon": 0.0, "fusion_lat": 0.0, "is_reserved": 0, "name": "d333bdc92a44e2e135c46bec31c389ea", "is_disabled": 0}, {"rental_uris": {"ios": "https://dc.lft.to/lastmile_qr_scan", "android": "https://dc.lft.to/lastmile_qr_scan"}, "lat": 38.8923185, "bike_id": "40a82326ec510ec3855da80b8feb35a0", "lon": -77.025947, "type": "electric_scooter", "fusion_lon": 0.0, "fusion_lat": 0.0, "is_reserved": 0, "name": "40a82326ec510ec3855da80b8feb35a0", "is_disabled": 0}, {"rental_uris": {"ios": "https://dc.lft.to/lastmile_qr_scan", "android": "https://dc.lft.to/lastmile_qr_scan"}, "lat": 38.90477216666667, "bike_id": "d9e96908f201f46a06fd4554ab5e36cf", "lon": -77.04081833333333, "type": "electric_scooter", "fusion_lon": 0.0, "fusion_lat": 0.0, "is_reserved": 0, "name": "d9e96908f201f46a06fd4554ab5e36cf", "is_disabled": 0}, {"rental_uris": {"ios": "https://dc.lft.to/lastmile_qr_scan", "android": "https://dc.lft.to/lastmile_qr_scan"}, "lat": 38.88638533333334, "bike_id": "2d57aca8cd8532c7660e7b96fbf599e1", "lon": -77.0136565, "type": "electric_scooter", "fusion_lon": 0.0, "fusion_lat": 0.0, "is_reserved": 0, "name": "2d57aca8cd8532c7660e7b96fbf599e1", "is_disabled": 0}, {"rental_uris": {"ios": "https://dc.lft.to/lastmile_qr_scan", "android": "https://dc.lft.to/lastmile_qr_scan"}, "lat": 38.90010383333333, "bike_id": "ae851d4642c0c79153d50148cbc9c94e", "lon": -77.03250916666667, "type": "electric_scooter", "fusion_lon": 0.0, "fusion_lat": 0.0, "is_reserved": 0, "name": "ae851d4642c0c79153d50148cbc9c94e", "is_disabled": 0}, {"rental_uris": {"ios": "https://dc.lft.to/lastmile_qr_scan", "android": "https://dc.lft.to/lastmile_qr_scan"}, "lat": 38.91564016666667, "bike_id": "3c268dd7437d2c157bc5835b421b0ba2", "lon": -76.97367033333333, "type": "electric_scooter", "fusion_lon": 0.0, "fusion_lat": 0.0, "is_reserved": 0, "name": "3c268dd7437d2c157bc5835b421b0ba2", "is_disabled": 0}, {"rental_uris": {"ios": "https://dc.lft.to/lastmile_qr_scan", "android": "https://dc.lft.to/lastmile_qr_scan"}, "lat": 38.897365, "bike_id": "8ea643c2d448625319d8ab0add166049", "lon": -76.94246066666666, "type": "electric_bike", "fusion_lon": 0.0, "fusion_lat": 0.0, "is_reserved": 0, "name": "8ea643c2d448625319d8ab0add166049", "is_disabled": 0}, {"rental_uris": {"ios": "https://dc.lft.to/lastmile_qr_scan", "android": "https://dc.lft.to/lastmile_qr_scan"}, "lat": 38.86685166666667, "bike_id": "1e75a8779e08944baa7c39ebba55a50c", "lon": -76.98567916666667, "type": "electric_scooter", "fusion_lon": 0.0, "fusion_lat": 0.0, "is_reserved": 0, "name": "1e75a8779e08944baa7c39ebba55a50c", "is_disabled": 0}, {"rental_uris": {"ios": "https://dc.lft.to/lastmile_qr_scan", "android": "https://dc.lft.to/lastmile_qr_scan"}, "lat": 38.89672366666667, "bike_id": "4a2037d876a65ced1effb4027cd9f8ef", "lon": -77.10429116666667, "type": "electric_bike", "fusion_lon": 0.0, "fusion_lat": 0.0, "is_reserved": 0, "name": "4a2037d876a65ced1effb4027cd9f8ef", "is_disabled": 0}, {"rental_uris": {"ios": "https://dc.lft.to/lastmile_qr_scan", "android": "https://dc.lft.to/lastmile_qr_scan"}, "lat": 38.89992633333333, "bike_id": "0d84f315f930fca0b4cedca31e09e251", "lon": -77.00670133333334, "type": "electric_scooter", "fusion_lon": 0.0, "fusion_lat": 0.0, "is_reserved": 0, "name": "0d84f315f930fca0b4cedca31e09e251", "is_disabled": 0}, {"rental_uris": {"ios": "https://dc.lft.to/lastmile_qr_scan", "android": "https://dc.lft.to/lastmile_qr_scan"}, "lat": 38.86629216666667, "bike_id": "5e0030d18e5dd9db49293101a6ccbd39", "lon": -76.9871395, "type": "electric_scooter", "fusion_lon": 0.0, "fusion_lat": 0.0, "is_reserved": 0, "name": "5e0030d18e5dd9db49293101a6ccbd39", "is_disabled": 0}, {"rental_uris": {"ios": "https://dc.lft.to/lastmile_qr_scan", "android": "https://dc.lft.to/lastmile_qr_scan"}, "lat": 38.9083945, "bike_id": "3c42bd0f12a578419f408c74e262002a", "lon": -77.00227966666667, "type": "electric_scooter", "fusion_lon": 0.0, "fusion_lat": 0.0, "is_reserved": 0, "name": "3c42bd0f12a578419f408c74e262002a", "is_disabled": 0}, {"rental_uris": {"ios": "https://dc.lft.to/lastmile_qr_scan", "android": "https://dc.lft.to/lastmile_qr_scan"}, "lat": 38.90652983333333, "bike_id": "4798702dffb5381826a6e061eda3aa17", "lon": -77.04144716666667, "type": "electric_scooter", "fusion_lon": 0.0, "fusion_lat": 0.0, "is_reserved": 0, "name": "4798702dffb5381826a6e061eda3aa17", "is_disabled": 0}, {"rental_uris": {"ios": "https://dc.lft.to/lastmile_qr_scan", "android": "https://dc.lft.to/lastmile_qr_scan"}, "lat": 38.91048633333333, "bike_id": "52e641182271afe33667917b74843b50", "lon": -77.04349233333333, "type": "electric_scooter", "fusion_lon": 0.0, "fusion_lat": 0.0, "is_reserved": 0, "name": "52e641182271afe33667917b74843b50", "is_disabled": 0}, {"rental_uris": {"ios": "https://dc.lft.to/lastmile_qr_scan", "android": "https://dc.lft.to/lastmile_qr_scan"}, "lat": 38.90508783333333, "bike_id": "04da79834d99070fd751418f39ee127f", "lon": -77.06958, "type": "electric_bike", "fusion_lon": 0.0, "fusion_lat": 0.0, "is_reserved": 0, "name": "04da79834d99070fd751418f39ee127f", "is_disabled": 0}, {"rental_uris": {"ios": "https://dc.lft.to/lastmile_qr_scan", "android": "https://dc.lft.to/lastmile_qr_scan"}, "lat": 38.91406416666667, "bike_id": "74abe609bf1af187b57ecc8c880b097f", "lon": -77.02112983333333, "type": "electric_scooter", "fusion_lon": 0.0, "fusion_lat": 0.0, "is_reserved": 0, "name": "74abe609bf1af187b57ecc8c880b097f", "is_disabled": 0}, {"rental_uris": {"ios": "https://dc.lft.to/lastmile_qr_scan", "android": "https://dc.lft.to/lastmile_qr_scan"}, "lat": 38.905722833333336, "bike_id": "e0b1280c12ac3cabb12c288f059a5928", "lon": -77.04353416666666, "type": "electric_scooter", "fusion_lon": 0.0, "fusion_lat": 0.0, "is_reserved": 0, "name": "e0b1280c12ac3cabb12c288f059a5928", "is_disabled": 0}, {"rental_uris": {"ios": "https://dc.lft.to/lastmile_qr_scan", "android": "https://dc.lft.to/lastmile_qr_scan"}, "lat": 38.900121166666665, "bike_id": "546071fe6669b31fe6d52f2554d4971d", "lon": -77.02710366666666, "type": "electric_scooter", "fusion_lon": 0.0, "fusion_lat": 0.0, "is_reserved": 0, "name": "546071fe6669b31fe6d52f2554d4971d", "is_disabled": 0}, {"rental_uris": {"ios": "https://dc.lft.to/lastmile_qr_scan", "android": "https://dc.lft.to/lastmile_qr_scan"}, "lat": 38.91383716666667, "bike_id": "129bbf15d83b51a15d5f9b8854331d05", "lon": -77.01700466666667, "type": "electric_scooter", "fusion_lon": 0.0, "fusion_lat": 0.0, "is_reserved": 0, "name": "129bbf15d83b51a15d5f9b8854331d05", "is_disabled": 0}, {"rental_uris": {"ios": "https://dc.lft.to/lastmile_qr_scan", "android": "https://dc.lft.to/lastmile_qr_scan"}, "lat": 38.90654633333333, "bike_id": "07ab72efbc1492d9ac35089f14585c7f", "lon": -77.04147533333334, "type": "electric_scooter", "fusion_lon": 0.0, "fusion_lat": 0.0, "is_reserved": 0, "name": "07ab72efbc1492d9ac35089f14585c7f", "is_disabled": 0}, {"rental_uris": {"ios": "https://dc.lft.to/lastmile_qr_scan", "android": "https://dc.lft.to/lastmile_qr_scan"}, "lat": 38.901349833333335, "bike_id": "9bb831bb33685731f93c629183cd7e22", "lon": -76.997404, "type": "electric_scooter", "fusion_lon": 0.0, "fusion_lat": 0.0, "is_reserved": 0, "name": "9bb831bb33685731f93c629183cd7e22", "is_disabled": 0}, {"rental_uris": {"ios": "https://dc.lft.to/lastmile_qr_scan", "android": "https://dc.lft.to/lastmile_qr_scan"}, "lat": 38.91848733333333, "bike_id": "18225b8b25ea8929137c4f72e616a489", "lon": -77.03213816666667, "type": "electric_scooter", "fusion_lon": 0.0, "fusion_lat": 0.0, "is_reserved": 0, "name": "18225b8b25ea8929137c4f72e616a489", "is_disabled": 0}, {"rental_uris": {"ios": "https://dc.lft.to/lastmile_qr_scan", "android": "https://dc.lft.to/lastmile_qr_scan"}, "lat": 38.9015405, "bike_id": "198287c2460c6dc8aafb88a0adea6500", "lon": -77.04743033333334, "type": "electric_scooter", "fusion_lon": 0.0, "fusion_lat": 0.0, "is_reserved": 0, "name": "198287c2460c6dc8aafb88a0adea6500", "is_disabled": 0}, {"rental_uris": {"ios": "https://dc.lft.to/lastmile_qr_scan", "android": "https://dc.lft.to/lastmile_qr_scan"}, "lat": 38.9006765, "bike_id": "dc4798fa8bc3f7ff874a04806420b37c", "lon": -76.9961595, "type": "electric_scooter", "fusion_lon": 0.0, "fusion_lat": 0.0, "is_reserved": 0, "name": "dc4798fa8bc3f7ff874a04806420b37c", "is_disabled": 0}, {"rental_uris": {"ios": "https://dc.lft.to/lastmile_qr_scan", "android": "https://dc.lft.to/lastmile_qr_scan"}, "lat": 38.915741833333335, "bike_id": "b114e106385e9df89f59ec9135c9d067", "lon": -77.01585616666667, "type": "electric_scooter", "fusion_lon": 0.0, "fusion_lat": 0.0, "is_reserved": 0, "name": "b114e106385e9df89f59ec9135c9d067", "is_disabled": 0}, {"rental_uris": {"ios": "https://dc.lft.to/lastmile_qr_scan", "android": "https://dc.lft.to/lastmile_qr_scan"}, "lat": 38.901518833333334, "bike_id": "0d1bb9f67237bb28c541981e98b93d03", "lon": -77.02810266666667, "type": "electric_scooter", "fusion_lon": 0.0, "fusion_lat": 0.0, "is_reserved": 0, "name": "0d1bb9f67237bb28c541981e98b93d03", "is_disabled": 0}, {"rental_uris": {"ios": "https://dc.lft.to/lastmile_qr_scan", "android": "https://dc.lft.to/lastmile_qr_scan"}, "lat": 38.92174266666667, "bike_id": "f8b38e92766e2872d63e17da45a15955", "lon": -77.02025716666667, "type": "electric_scooter", "fusion_lon": 0.0, "fusion_lat": 0.0, "is_reserved": 0, "name": "f8b38e92766e2872d63e17da45a15955", "is_disabled": 0}, {"rental_uris": {"ios": "https://dc.lft.to/lastmile_qr_scan", "android": "https://dc.lft.to/lastmile_qr_scan"}, "lat": 38.903778833333334, "bike_id": "9f06317e4e4f10c2f9d99efa3b27cbe2", "lon": -77.04014516666666, "type": "electric_scooter", "fusion_lon": 0.0, "fusion_lat": 0.0, "is_reserved": 0, "name": "9f06317e4e4f10c2f9d99efa3b27cbe2", "is_disabled": 0}, {"rental_uris": {"ios": "https://dc.lft.to/lastmile_qr_scan", "android": "https://dc.lft.to/lastmile_qr_scan"}, "lat": 38.89669166666667, "bike_id": "bf23578e7afdb0e0d4ba7f51b53c3f19", "lon": -76.93205566666667, "type": "electric_scooter", "fusion_lon": 0.0, "fusion_lat": 0.0, "is_reserved": 0, "name": "bf23578e7afdb0e0d4ba7f51b53c3f19", "is_disabled": 0}, {"rental_uris": {"ios": "https://dc.lft.to/lastmile_qr_scan", "android": "https://dc.lft.to/lastmile_qr_scan"}, "lat": 38.91260916666667, "bike_id": "0ea06570ae63a334bdf91ff4f6e9c391", "lon": -77.03236483333333, "type": "electric_scooter", "fusion_lon": 0.0, "fusion_lat": 0.0, "is_reserved": 0, "name": "0ea06570ae63a334bdf91ff4f6e9c391", "is_disabled": 0}, {"rental_uris": {"ios": "https://dc.lft.to/lastmile_qr_scan", "android": "https://dc.lft.to/lastmile_qr_scan"}, "lat": 38.8672265, "bike_id": "40d4a04825f505a1b595ed830e74b65b", "lon": -76.98694133333333, "type": "electric_scooter", "fusion_lon": 0.0, "fusion_lat": 0.0, "is_reserved": 0, "name": "40d4a04825f505a1b595ed830e74b65b", "is_disabled": 0}, {"rental_uris": {"ios": "https://dc.lft.to/lastmile_qr_scan", "android": "https://dc.lft.to/lastmile_qr_scan"}, "lat": 38.92034, "bike_id": "265f379846dc56585b6a358183b69945", "lon": -77.0030285, "type": "electric_scooter", "fusion_lon": 0.0, "fusion_lat": 0.0, "is_reserved": 0, "name": "265f379846dc56585b6a358183b69945", "is_disabled": 0}, {"rental_uris": {"ios": "https://dc.lft.to/lastmile_qr_scan", "android": "https://dc.lft.to/lastmile_qr_scan"}, "lat": 38.923258833333335, "bike_id": "29398d4fdc8831fbeb54c59ad7167fd9", "lon": -77.00886816666667, "type": "electric_scooter", "fusion_lon": 0.0, "fusion_lat": 0.0, "is_reserved": 0, "name": "29398d4fdc8831fbeb54c59ad7167fd9", "is_disabled": 0}, {"rental_uris": {"ios": "https://dc.lft.to/lastmile_qr_scan", "android": "https://dc.lft.to/lastmile_qr_scan"}, "lat": 38.9159155, "bike_id": "728ea19f30111b6053dc65474a84da80", "lon": -77.02300666666666, "type": "electric_scooter", "fusion_lon": 0.0, "fusion_lat": 0.0, "is_reserved": 0, "name": "728ea19f30111b6053dc65474a84da80", "is_disabled": 0}, {"rental_uris": {"ios": "https://dc.lft.to/lastmile_qr_scan", "android": "https://dc.lft.to/lastmile_qr_scan"}, "lat": 38.90370583333333, "bike_id": "22af07dd208f2e164027f7ffb8edb0a4", "lon": -77.04491216666666, "type": "electric_scooter", "fusion_lon": 0.0, "fusion_lat": 0.0, "is_reserved": 0, "name": "22af07dd208f2e164027f7ffb8edb0a4", "is_disabled": 0}, {"rental_uris": {"ios": "https://dc.lft.to/lastmile_qr_scan", "android": "https://dc.lft.to/lastmile_qr_scan"}, "lat": 38.905286833333335, "bike_id": "3b0bb41e9ea04f33311d8ea06a98a450", "lon": -77.03246533333333, "type": "electric_scooter", "fusion_lon": 0.0, "fusion_lat": 0.0, "is_reserved": 0, "name": "3b0bb41e9ea04f33311d8ea06a98a450", "is_disabled": 0}, {"rental_uris": {"ios": "https://dc.lft.to/lastmile_qr_scan", "android": "https://dc.lft.to/lastmile_qr_scan"}, "lat": 38.91849116666667, "bike_id": "25c012047f083cfaa4826e1f9ec22667", "lon": -77.03225533333334, "type": "electric_scooter", "fusion_lon": 0.0, "fusion_lat": 0.0, "is_reserved": 0, "name": "25c012047f083cfaa4826e1f9ec22667", "is_disabled": 0}, {"rental_uris": {"ios": "https://dc.lft.to/lastmile_qr_scan", "android": "https://dc.lft.to/lastmile_qr_scan"}, "lat": 38.9877045, "bike_id": "77c94bc1a7a7a0a437aa4b8b10c6b9d4", "lon": -77.14056016666666, "type": "electric_bike", "fusion_lon": 0.0, "fusion_lat": 0.0, "is_reserved": 0, "name": "77c94bc1a7a7a0a437aa4b8b10c6b9d4", "is_disabled": 0}, {"rental_uris": {"ios": "https://dc.lft.to/lastmile_qr_scan", "android": "https://dc.lft.to/lastmile_qr_scan"}, "lat": 38.884922833333334, "bike_id": "f198dff9f7c586f5993c9e60c5ff5b2b", "lon": -77.00724616666666, "type": "electric_scooter", "fusion_lon": 0.0, "fusion_lat": 0.0, "is_reserved": 0, "name": "f198dff9f7c586f5993c9e60c5ff5b2b", "is_disabled": 0}, {"rental_uris": {"ios": "https://dc.lft.to/lastmile_qr_scan", "android": "https://dc.lft.to/lastmile_qr_scan"}, "lat": 38.91710783333333, "bike_id": "8a67df9e247ee70b38249009356ae1c6", "lon": -77.03206366666667, "type": "electric_scooter", "fusion_lon": 0.0, "fusion_lat": 0.0, "is_reserved": 0, "name": "8a67df9e247ee70b38249009356ae1c6", "is_disabled": 0}, {"rental_uris": {"ios": "https://dc.lft.to/lastmile_qr_scan", "android": "https://dc.lft.to/lastmile_qr_scan"}, "lat": 38.892211833333334, "bike_id": "b63bfc08f4c1f3f5c1bb0fd566fdb8b4", "lon": -77.02220966666667, "type": "electric_scooter", "fusion_lon": 0.0, "fusion_lat": 0.0, "is_reserved": 0, "name": "b63bfc08f4c1f3f5c1bb0fd566fdb8b4", "is_disabled": 0}, {"rental_uris": {"ios": "https://dc.lft.to/lastmile_qr_scan", "android": "https://dc.lft.to/lastmile_qr_scan"}, "lat": 38.876238, "bike_id": "4a1955e65a237923947841da3bc08ebb", "lon": -77.0057115, "type": "electric_scooter", "fusion_lon": 0.0, "fusion_lat": 0.0, "is_reserved": 0, "name": "4a1955e65a237923947841da3bc08ebb", "is_disabled": 0}, {"rental_uris": {"ios": "https://dc.lft.to/lastmile_qr_scan", "android": "https://dc.lft.to/lastmile_qr_scan"}, "lat": 38.92837216666667, "bike_id": "c39d4cfc13d8eba9d4c9318e3ea94acd", "lon": -77.036894, "type": "electric_scooter", "fusion_lon": 0.0, "fusion_lat": 0.0, "is_reserved": 0, "name": "c39d4cfc13d8eba9d4c9318e3ea94acd", "is_disabled": 0}, {"rental_uris": {"ios": "https://dc.lft.to/lastmile_qr_scan", "android": "https://dc.lft.to/lastmile_qr_scan"}, "lat": 38.91993566666667, "bike_id": "4feb96bf00f1de033c63b3e426cca540", "lon": -77.03271683333334, "type": "electric_scooter", "fusion_lon": 0.0, "fusion_lat": 0.0, "is_reserved": 0, "name": "4feb96bf00f1de033c63b3e426cca540", "is_disabled": 0}, {"rental_uris": {"ios": "https://dc.lft.to/lastmile_qr_scan", "android": "https://dc.lft.to/lastmile_qr_scan"}, "lat": 38.906992833333334, "bike_id": "082ab354a36ebca78d618bb4264a1d4a", "lon": -77.02380566666666, "type": "electric_scooter", "fusion_lon": 0.0, "fusion_lat": 0.0, "is_reserved": 0, "name": "082ab354a36ebca78d618bb4264a1d4a", "is_disabled": 0}, {"rental_uris": {"ios": "https://dc.lft.to/lastmile_qr_scan", "android": "https://dc.lft.to/lastmile_qr_scan"}, "lat": 38.905716166666664, "bike_id": "ee921e37a2984806f19ba62cc3e248c5", "lon": -77.062652, "type": "electric_scooter", "fusion_lon": 0.0, "fusion_lat": 0.0, "is_reserved": 0, "name": "ee921e37a2984806f19ba62cc3e248c5", "is_disabled": 0}, {"rental_uris": {"ios": "https://dc.lft.to/lastmile_qr_scan", "android": "https://dc.lft.to/lastmile_qr_scan"}, "lat": 38.902776333333335, "bike_id": "df89b565104306ee416e62d36119e624", "lon": -77.059132, "type": "electric_scooter", "fusion_lon": 0.0, "fusion_lat": 0.0, "is_reserved": 0, "name": "df89b565104306ee416e62d36119e624", "is_disabled": 0}, {"rental_uris": {"ios": "https://dc.lft.to/lastmile_qr_scan", "android": "https://dc.lft.to/lastmile_qr_scan"}, "lat": 38.89349516666667, "bike_id": "fb484db6841709b4039d7c38d717dac0", "lon": -77.02858683333334, "type": "electric_scooter", "fusion_lon": 0.0, "fusion_lat": 0.0, "is_reserved": 0, "name": "fb484db6841709b4039d7c38d717dac0", "is_disabled": 0}, {"rental_uris": {"ios": "https://dc.lft.to/lastmile_qr_scan", "android": "https://dc.lft.to/lastmile_qr_scan"}, "lat": 38.94192133333333, "bike_id": "de98f4e6bbfa23818364ac1d28336900", "lon": -77.03835016666666, "type": "electric_scooter", "fusion_lon": 0.0, "fusion_lat": 0.0, "is_reserved": 0, "name": "de98f4e6bbfa23818364ac1d28336900", "is_disabled": 0}, {"rental_uris": {"ios": "https://dc.lft.to/lastmile_qr_scan", "android": "https://dc.lft.to/lastmile_qr_scan"}, "lat": 38.91063166666667, "bike_id": "43f97e9186c742f7299dd10dd88b97da", "lon": -77.0308675, "type": "electric_scooter", "fusion_lon": 0.0, "fusion_lat": 0.0, "is_reserved": 0, "name": "43f97e9186c742f7299dd10dd88b97da", "is_disabled": 0}, {"rental_uris": {"ios": "https://dc.lft.to/lastmile_qr_scan", "android": "https://dc.lft.to/lastmile_qr_scan"}, "lat": 38.94021433333333, "bike_id": "d09bd4439d10ca68b893716d75b12d88", "lon": -76.97607966666666, "type": "electric_scooter", "fusion_lon": 0.0, "fusion_lat": 0.0, "is_reserved": 0, "name": "d09bd4439d10ca68b893716d75b12d88", "is_disabled": 0}, {"rental_uris": {"ios": "https://dc.lft.to/lastmile_qr_scan", "android": "https://dc.lft.to/lastmile_qr_scan"}, "lat": 38.89477616666667, "bike_id": "af1b201e05b97d697609d7eb3960263d", "lon": -76.94859966666667, "type": "electric_scooter", "fusion_lon": 0.0, "fusion_lat": 0.0, "is_reserved": 0, "name": "af1b201e05b97d697609d7eb3960263d", "is_disabled": 0}, {"rental_uris": {"ios": "https://dc.lft.to/lastmile_qr_scan", "android": "https://dc.lft.to/lastmile_qr_scan"}, "lat": 38.911107333333334, "bike_id": "9ddaaa2085e46595679210d070b5b22e", "lon": -77.043303, "type": "electric_scooter", "fusion_lon": 0.0, "fusion_lat": 0.0, "is_reserved": 0, "name": "9ddaaa2085e46595679210d070b5b22e", "is_disabled": 0}, {"rental_uris": {"ios": "https://dc.lft.to/lastmile_qr_scan", "android": "https://dc.lft.to/lastmile_qr_scan"}, "lat": 38.90981383333333, "bike_id": "ae45ffd9125335f9e3474d6344939926", "lon": -77.02173666666667, "type": "electric_scooter", "fusion_lon": 0.0, "fusion_lat": 0.0, "is_reserved": 0, "name": "ae45ffd9125335f9e3474d6344939926", "is_disabled": 0}, {"rental_uris": {"ios": "https://dc.lft.to/lastmile_qr_scan", "android": "https://dc.lft.to/lastmile_qr_scan"}, "lat": 38.91166183333333, "bike_id": "7504403dacc06751f043c6a33a07d0ac", "lon": -77.07757366666667, "type": "electric_scooter", "fusion_lon": 0.0, "fusion_lat": 0.0, "is_reserved": 0, "name": "7504403dacc06751f043c6a33a07d0ac", "is_disabled": 0}, {"rental_uris": {"ios": "https://dc.lft.to/lastmile_qr_scan", "android": "https://dc.lft.to/lastmile_qr_scan"}, "lat": 38.91706516666667, "bike_id": "6ca5fd4c0ef09ee15e4810175dd77ea0", "lon": -77.041703, "type": "electric_scooter", "fusion_lon": 0.0, "fusion_lat": 0.0, "is_reserved": 0, "name": "6ca5fd4c0ef09ee15e4810175dd77ea0", "is_disabled": 0}, {"rental_uris": {"ios": "https://dc.lft.to/lastmile_qr_scan", "android": "https://dc.lft.to/lastmile_qr_scan"}, "lat": 38.917129, "bike_id": "bdaa9642eca93a7ed0f480e52c61e98a", "lon": -77.032119, "type": "electric_scooter", "fusion_lon": 0.0, "fusion_lat": 0.0, "is_reserved": 0, "name": "bdaa9642eca93a7ed0f480e52c61e98a", "is_disabled": 0}, {"rental_uris": {"ios": "https://dc.lft.to/lastmile_qr_scan", "android": "https://dc.lft.to/lastmile_qr_scan"}, "lat": 38.9126935, "bike_id": "cc392b0e2c19d3eb1b8eee6b6909c0bf", "lon": -77.02224666666666, "type": "electric_scooter", "fusion_lon": 0.0, "fusion_lat": 0.0, "is_reserved": 0, "name": "cc392b0e2c19d3eb1b8eee6b6909c0bf", "is_disabled": 0}, {"rental_uris": {"ios": "https://dc.lft.to/lastmile_qr_scan", "android": "https://dc.lft.to/lastmile_qr_scan"}, "lat": 38.8924145, "bike_id": "8522e3866c36d2e2865b42258ffdee6a", "lon": -77.03340866666667, "type": "electric_scooter", "fusion_lon": 0.0, "fusion_lat": 0.0, "is_reserved": 0, "name": "8522e3866c36d2e2865b42258ffdee6a", "is_disabled": 0}, {"rental_uris": {"ios": "https://dc.lft.to/lastmile_qr_scan", "android": "https://dc.lft.to/lastmile_qr_scan"}, "lat": 38.893734, "bike_id": "dc1c2e08b6dba213fa7122d9d58ea147", "lon": -77.0195475, "type": "electric_scooter", "fusion_lon": 0.0, "fusion_lat": 0.0, "is_reserved": 0, "name": "dc1c2e08b6dba213fa7122d9d58ea147", "is_disabled": 0}, {"rental_uris": {"ios": "https://dc.lft.to/lastmile_qr_scan", "android": "https://dc.lft.to/lastmile_qr_scan"}, "lat": 38.92342166666667, "bike_id": "f4b2d0c5cee808bf47d8d5153f5d3383", "lon": -77.05087383333333, "type": "electric_scooter", "fusion_lon": 0.0, "fusion_lat": 0.0, "is_reserved": 0, "name": "f4b2d0c5cee808bf47d8d5153f5d3383", "is_disabled": 0}, {"rental_uris": {"ios": "https://dc.lft.to/lastmile_qr_scan", "android": "https://dc.lft.to/lastmile_qr_scan"},