{"data": {"bikes": [{"fusion_lat": 0.0, "name": "08f1011a82a1c36781ab64222d5fcd0b", "is_disabled": 0, "rental_uris": {"android": "https://dc.lft.to/lastmile_qr_scan", "ios": "https://dc.lft.to/lastmile_qr_scan"}, "fusion_lon": 0.0, "lat": 38.8765935, "bike_id": "08f1011a82a1c36781ab64222d5fcd0b", "type": "electric_scooter", "is_reserved": 0, "lon": -77.00514133333333}, {"fusion_lat": 0.0, "name": "fa04209e992dadcaf8a31c9f5794c92c", "is_disabled": 0, "rental_uris": {"android": "https://dc.lft.to/lastmile_qr_scan", "ios": "https://dc.lft.to/lastmile_qr_scan"}, "fusion_lon": 0.0, "lat": 38.88607483333333, "bike_id": "fa04209e992dadcaf8a31c9f5794c92c", "type": "electric_scooter", "is_reserved": 0, "lon": -77.01515633333334}, {"fusion_lat": 0.0, "name": "8ba572d36a84efd22c1ce64f0b5e7fe2", "is_disabled": 0, "rental_uris": {"android": "https://dc.lft.to/lastmile_qr_scan", "ios": "https://dc.lft.to/lastmile_qr_scan"}, "fusion_lon": 0.0, "lat": 38.901271, "bike_id": "8ba572d36a84efd22c1ce64f0b5e7fe2", "type": "electric_scooter", "is_reserved": 0, "lon": -77.03925533333333}, {"fusion_lat": 0.0, "name": "67753dec1fde9d4b3a8114c28bd57f30", "is_disabled": 0, "rental_uris": {"android": "https://dc.lft.to/lastmile_qr_scan", "ios": "https://dc.lft.to/lastmile_qr_scan"}, "fusion_lon": 0.0, "lat": 38.905613, "bike_id": "67753dec1fde9d4b3a8114c28bd57f30", "type": "electric_scooter", "is_reserved": 0, "lon": -77.00615183333333}, {"fusion_lat": 0.0, "name": "e4ed87c5e6750931415d7eb47120f06b", "is_disabled": 0, "rental_uris": {"android": "https://dc.lft.to/lastmile_qr_scan", "ios": "https://dc.lft.to/lastmile_qr_scan"}, "fusion_lon": 0.0, "lat": 38.89732583333333, "bike_id": "e4ed87c5e6750931415d7eb47120f06b", "type": "electric_scooter", "is_reserved": 0, "lon": -77.04531583333333}, {"fusion_lat": 0.0, "name": "038ba7d22ab4156a651d56094b0f3276", "is_disabled": 0, "rental_uris": {"android": "https://dc.lft.to/lastmile_qr_scan", "ios": "https://dc.lft.to/lastmile_qr_scan"}, "fusion_lon": 0.0, "lat": 38.9088595, "bike_id": "038ba7d22ab4156a651d56094b0f3276", "type": "electric_scooter", "is_reserved": 0, "lon": -77.06431383333333}, {"fusion_lat": 0.0, "name": "e453ab8f8cb60fad2db026555d8d7821", "is_disabled": 0, "rental_uris": {"android": "https://dc.lft.to/lastmile_qr_scan", "ios": "https://dc.lft.to/lastmile_qr_scan"}, "fusion_lon": 0.0, "lat": 38.91696483333333, "bike_id": "e453ab8f8cb60fad2db026555d8d7821", "type": "electric_scooter", "is_reserved": 0, "lon": -77.04218066666667}, {"fusion_lat": 0.0, "name": "0e7dbc0919f3383d3c0d85e1de7d0973", "is_disabled": 0, "rental_uris": {"android": "https://dc.lft.to/lastmile_qr_scan", "ios": "https://dc.lft.to/lastmile_qr_scan"}, "fusion_lon": 0.0, "lat": 38.92505083333333, "bike_id": "0e7dbc0919f3383d3c0d85e1de7d0973", "type": "electric_scooter", "is_reserved": 0, "lon": -77.05109183333333}, {"fusion_lat": 0.0, "name": "c10d8cdc8dffbae2acd58fb75bcd4d51", "is_disabled": 0, "rental_uris": {"android": "https://dc.lft.to/lastmile_qr_scan", "ios": "https://dc.lft.to/lastmile_qr_scan"}, "fusion_lon": 0.0, "lat": 38.92609616666667, "bike_id": "c10d8cdc8dffbae2acd58fb75bcd4d51", "type": "electric_scooter", "is_reserved": 0, "lon": -77.05714316666666}, {"fusion_lat": 0.0, "name": "1cc5b2f184f2d253e6de55e9a40f80cf", "is_disabled": 0, "rental_uris": {"android": "https://dc.lft.to/lastmile_qr_scan", "ios": "https://dc.lft.to/lastmile_qr_scan"}, "fusion_lon": 0.0, "lat": 38.91823866666667, "bike_id": "1cc5b2f184f2d253e6de55e9a40f80cf", "type": "electric_scooter", "is_reserved": 0, "lon": -77.02709533333334}, {"fusion_lat": 0.0, "name": "ec89b76b68a27f0a49da83a8a82ba07f", "is_disabled": 0, "rental_uris": {"android": "https://dc.lft.to/lastmile_qr_scan", "ios": "https://dc.lft.to/lastmile_qr_scan"}, "fusion_lon": 0.0, "lat": 38.90604783333333, "bike_id": "ec89b76b68a27f0a49da83a8a82ba07f", "type": "electric_scooter", "is_reserved": 0, "lon": -77.05692233333333}, {"fusion_lat": 0.0, "name": "62b3797d93a09bb071bdca9f70936453", "is_disabled": 0, "rental_uris": {"android": "https://dc.lft.to/lastmile_qr_scan", "ios": "https://dc.lft.to/lastmile_qr_scan"}, "fusion_lon": 0.0, "lat": 38.847831, "bike_id": "62b3797d93a09bb071bdca9f70936453", "type": "electric_scooter", "is_reserved": 0, "lon": -76.97488483333333}, {"fusion_lat": 0.0, "name": "efed00a8033db37bb5d51bef1dd9217d", "is_disabled": 0, "rental_uris": {"android": "https://dc.lft.to/lastmile_qr_scan", "ios": "https://dc.lft.to/lastmile_qr_scan"}, "fusion_lon": 0.0, "lat": 38.92323483333333, "bike_id": "efed00a8033db37bb5d51bef1dd9217d", "type": "electric_scooter", "is_reserved": 0, "lon": -77.0213205}, {"fusion_lat": 0.0, "name": "f36e3340f6fd3439090b0a504df0b3b2", "is_disabled": 0, "rental_uris": {"android": "https://dc.lft.to/lastmile_qr_scan", "ios": "https://dc.lft.to/lastmile_qr_scan"}, "fusion_lon": 0.0, "lat": 38.93061733333333, "bike_id": "f36e3340f6fd3439090b0a504df0b3b2", "type": "electric_scooter", "is_reserved": 0, "lon": -77.02325816666666}, {"fusion_lat": 0.0, "name": "2a0404a98bb9dc5887ead796054801b4", "is_disabled": 0, "rental_uris": {"android": "https://dc.lft.to/lastmile_qr_scan", "ios": "https://dc.lft.to/lastmile_qr_scan"}, "fusion_lon": 0.0, "lat": 38.92004083333333, "bike_id": "2a0404a98bb9dc5887ead796054801b4", "type": "electric_scooter", "is_reserved": 0, "lon": -77.0713115}, {"fusion_lat": 0.0, "name": "a1f14caa0e38e62bea44b23908e77f23", "is_disabled": 0, "rental_uris": {"android": "https://dc.lft.to/lastmile_qr_scan", "ios": "https://dc.lft.to/lastmile_qr_scan"}, "fusion_lon": 0.0, "lat": 38.923020333333334, "bike_id": "a1f14caa0e38e62bea44b23908e77f23", "type": "electric_scooter", "is_reserved": 0, "lon": -77.0426665}, {"fusion_lat": 0.0, "name": "43cde0d4ab9a6acf6f1ea45b59948467", "is_disabled": 0, "rental_uris": {"android": "https://dc.lft.to/lastmile_qr_scan", "ios": "https://dc.lft.to/lastmile_qr_scan"}, "fusion_lon": 0.0, "lat": 38.921620833333336, "bike_id": "43cde0d4ab9a6acf6f1ea45b59948467", "type": "electric_scooter", "is_reserved": 0, "lon": -77.032648}, {"fusion_lat": 0.0, "name": "0e9f8715c818931461d4db88ce885bac", "is_disabled": 0, "rental_uris": {"android": "https://dc.lft.to/lastmile_qr_scan", "ios": "https://dc.lft.to/lastmile_qr_scan"}, "fusion_lon": 0.0, "lat": 38.89225483333333, "bike_id": "0e9f8715c818931461d4db88ce885bac", "type": "electric_scooter", "is_reserved": 0, "lon": -77.04685033333334}, {"fusion_lat": 0.0, "name": "a142f950b6a3be127681c36bd260be9f", "is_disabled": 0, "rental_uris": {"android": "https://dc.lft.to/lastmile_qr_scan", "ios": "https://dc.lft.to/lastmile_qr_scan"}, "fusion_lon": 0.0, "lat": 38.92337833333333, "bike_id": "a142f950b6a3be127681c36bd260be9f", "type": "electric_scooter", "is_reserved": 0, "lon": -77.0204905}, {"fusion_lat": 0.0, "name": "1ebf315336e38bec1dd447d406d665c5", "is_disabled": 0, "rental_uris": {"android": "https://dc.lft.to/lastmile_qr_scan", "ios": "https://dc.lft.to/lastmile_qr_scan"}, "fusion_lon": 0.0, "lat": 38.84089066666667, "bike_id": "1ebf315336e38bec1dd447d406d665c5", "type": "electric_bike", "is_reserved": 0, "lon": -76.97026866666667}, {"fusion_lat": 0.0, "name": "2b34dd699d3b9171491d8a2f037fe83a", "is_disabled": 0, "rental_uris": {"android": "https://dc.lft.to/lastmile_qr_scan", "ios": "https://dc.lft.to/lastmile_qr_scan"}, "fusion_lon": 0.0, "lat": 38.92156283333333, "bike_id": "2b34dd699d3b9171491d8a2f037fe83a", "type": "electric_scooter", "is_reserved": 0, "lon": -77.03396116666667}, {"fusion_lat": 0.0, "name": "1ba3db38d22b6f41fa003ae032b99056", "is_disabled": 0, "rental_uris": {"android": "https://dc.lft.to/lastmile_qr_scan", "ios": "https://dc.lft.to/lastmile_qr_scan"}, "fusion_lon": 0.0, "lat": 38.916744666666666, "bike_id": "1ba3db38d22b6f41fa003ae032b99056", "type": "electric_scooter", "is_reserved": 0, "lon": -77.03653766666666}, {"fusion_lat": 0.0, "name": "203b7d7af69c3a75c2398b7fccc717cf", "is_disabled": 0, "rental_uris": {"android": "https://dc.lft.to/lastmile_qr_scan", "ios": "https://dc.lft.to/lastmile_qr_scan"}, "fusion_lon": 0.0, "lat": 38.855497166666666, "bike_id": "203b7d7af69c3a75c2398b7fccc717cf", "type": "electric_scooter", "is_reserved": 0, "lon": -76.98764666666666}, {"fusion_lat": 0.0, "name": "3fc98676b2d95913f44c787db32b7f55", "is_disabled": 0, "rental_uris": {"android": "https://dc.lft.to/lastmile_qr_scan", "ios": "https://dc.lft.to/lastmile_qr_scan"}, "fusion_lon": 0.0, "lat": 38.908811, "bike_id": "3fc98676b2d95913f44c787db32b7f55", "type": "electric_scooter", "is_reserved": 0, "lon": -77.0489185}, {"fusion_lat": 0.0, "name": "6a8ccc5564d85426411f040853a1bebd", "is_disabled": 0, "rental_uris": {"android": "https://dc.lft.to/lastmile_qr_scan", "ios": "https://dc.lft.to/lastmile_qr_scan"}, "fusion_lon": 0.0, "lat": 38.925113, "bike_id": "6a8ccc5564d85426411f040853a1bebd", "type": "electric_scooter", "is_reserved": 0, "lon": -77.0021815}, {"fusion_lat": 0.0, "name": "3fa2fcb3b3a9ce0c6431db5d96eaee0c", "is_disabled": 0, "rental_uris": {"android": "https://dc.lft.to/lastmile_qr_scan", "ios": "https://dc.lft.to/lastmile_qr_scan"}, "fusion_lon": 0.0, "lat": 38.897371, "bike_id": "3fa2fcb3b3a9ce0c6431db5d96eaee0c", "type": "electric_scooter", "is_reserved": 0, "lon": -77.04295516666667}, {"fusion_lat": 0.0, "name": "7de673a3f4a603608b6176fc14102860", "is_disabled": 0, "rental_uris": {"android": "https://dc.lft.to/lastmile_qr_scan", "ios": "https://dc.lft.to/lastmile_qr_scan"}, "fusion_lon": 0.0, "lat": 38.92266933333333, "bike_id": "7de673a3f4a603608b6176fc14102860", "type": "electric_scooter", "is_reserved": 0, "lon": -77.029595}, {"fusion_lat": 0.0, "name": "4ea9edc45b7e86197b05189bcf004f48", "is_disabled": 0, "rental_uris": {"android": "https://dc.lft.to/lastmile_qr_scan", "ios": "https://dc.lft.to/lastmile_qr_scan"}, "fusion_lon": 0.0, "lat": 38.900022, "bike_id": "4ea9edc45b7e86197b05189bcf004f48", "type": "electric_scooter", "is_reserved": 0, "lon": -77.00658783333333}, {"fusion_lat": 0.0, "name": "48b22049d5285a5053700a9da2d6caf4", "is_disabled": 0, "rental_uris": {"android": "https://dc.lft.to/lastmile_qr_scan", "ios": "https://dc.lft.to/lastmile_qr_scan"}, "fusion_lon": 0.0, "lat": 38.918191, "bike_id": "48b22049d5285a5053700a9da2d6caf4", "type": "electric_scooter", "is_reserved": 0, "lon": -77.01207116666667}, {"fusion_lat": 0.0, "name": "18203e2997ae7325c74b9e2cd8df64db", "is_disabled": 0, "rental_uris": {"android": "https://dc.lft.to/lastmile_qr_scan", "ios": "https://dc.lft.to/lastmile_qr_scan"}, "fusion_lon": 0.0, "lat": 38.8854315, "bike_id": "18203e2997ae7325c74b9e2cd8df64db", "type": "electric_scooter", "is_reserved": 0, "lon": -77.015127}, {"fusion_lat": 0.0, "name": "4c2f650e997feb60754cd98382cc1e25", "is_disabled": 0, "rental_uris": {"android": "https://dc.lft.to/lastmile_qr_scan", "ios": "https://dc.lft.to/lastmile_qr_scan"}, "fusion_lon": 0.0, "lat": 38.9239635, "bike_id": "4c2f650e997feb60754cd98382cc1e25", "type": "electric_scooter", "is_reserved": 0, "lon": -77.04286383333333}, {"fusion_lat": 0.0, "name": "de8e6dcb1b89cf9074b052e5a8e9bcf5", "is_disabled": 0, "rental_uris": {"android": "https://dc.lft.to/lastmile_qr_scan", "ios": "https://dc.lft.to/lastmile_qr_scan"}, "fusion_lon": 0.0, "lat": 38.904269166666666, "bike_id": "de8e6dcb1b89cf9074b052e5a8e9bcf5", "type": "electric_scooter", "is_reserved": 0, "lon": -76.94977116666666}, {"fusion_lat": 0.0, "name": "36c9b75c95b5e7b847eef3fd9a8e5898", "is_disabled": 0, "rental_uris": {"android": "https://dc.lft.to/lastmile_qr_scan", "ios": "https://dc.lft.to/lastmile_qr_scan"}, "fusion_lon": 0.0, "lat": 38.921579, "bike_id": "36c9b75c95b5e7b847eef3fd9a8e5898", "type": "electric_scooter", "is_reserved": 0, "lon": -77.03381783333333}, {"fusion_lat": 0.0, "name": "44943af2f74d04991fb43d2ca13ea007", "is_disabled": 0, "rental_uris": {"android": "https://dc.lft.to/lastmile_qr_scan", "ios": "https://dc.lft.to/lastmile_qr_scan"}, "fusion_lon": 0.0, "lat": 38.934555, "bike_id": "44943af2f74d04991fb43d2ca13ea007", "type": "electric_scooter", "is_reserved": 0, "lon": -77.07265683333334}, {"fusion_lat": 0.0, "name": "a6226f37ba4a04dc40b18dc46c92b221", "is_disabled": 0, "rental_uris": {"android": "https://dc.lft.to/lastmile_qr_scan", "ios": "https://dc.lft.to/lastmile_qr_scan"}, "fusion_lon": 0.0, "lat": 38.897182666666666, "bike_id": "a6226f37ba4a04dc40b18dc46c92b221", "type": "electric_scooter", "is_reserved": 0, "lon": -77.01312216666666}, {"fusion_lat": 0.0, "name": "26c9f29c6ad5ca7af3b6aaa6cd7febfc", "is_disabled": 0, "rental_uris": {"android": "https://dc.lft.to/lastmile_qr_scan", "ios": "https://dc.lft.to/lastmile_qr_scan"}, "fusion_lon": 0.0, "lat": 38.91334766666667, "bike_id": "26c9f29c6ad5ca7af3b6aaa6cd7febfc", "type": "electric_scooter", "is_reserved": 0, "lon": -77.03168766666667}, {"fusion_lat": 0.0, "name": "5d35e1634f2c657bc627a92806da5a4a", "is_disabled": 0, "rental_uris": {"android": "https://dc.lft.to/lastmile_qr_scan", "ios": "https://dc.lft.to/lastmile_qr_scan"}, "fusion_lon": 0.0, "lat": 38.92898366666667, "bike_id": "5d35e1634f2c657bc627a92806da5a4a", "type": "electric_scooter", "is_reserved": 0, "lon": -77.0320895}, {"fusion_lat": 0.0, "name": "b2eab162be300c62297b5553b7232124", "is_disabled": 0, "rental_uris": {"android": "https://dc.lft.to/lastmile_qr_scan", "ios": "https://dc.lft.to/lastmile_qr_scan"}, "fusion_lon": 0.0, "lat": 38.917379833333335, "bike_id": "b2eab162be300c62297b5553b7232124", "type": "electric_scooter", "is_reserved": 0, "lon": -77.03210033333333}, {"fusion_lat": 0.0, "name": "7512b33a980b50edc7f25e82b12986b7", "is_disabled": 0, "rental_uris": {"android": "https://dc.lft.to/lastmile_qr_scan", "ios": "https://dc.lft.to/lastmile_qr_scan"}, "fusion_lon": 0.0, "lat": 38.92424183333333, "bike_id": "7512b33a980b50edc7f25e82b12986b7", "type": "electric_scooter", "is_reserved": 0, "lon": -77.0195415}, {"fusion_lat": 0.0, "name": "209cd15ef1765a4ab0dfe0aee6fcdbe3", "is_disabled": 0, "rental_uris": {"android": "https://dc.lft.to/lastmile_qr_scan", "ios": "https://dc.lft.to/lastmile_qr_scan"}, "fusion_lon": 0.0, "lat": 38.94163983333333, "bike_id": "209cd15ef1765a4ab0dfe0aee6fcdbe3", "type": "electric_scooter", "is_reserved": 0, "lon": -77.0249945}, {"fusion_lat": 0.0, "name": "58d8964c47d6dddbbfcda5ba723a2c0d", "is_disabled": 0, "rental_uris": {"android": "https://dc.lft.to/lastmile_qr_scan", "ios": "https://dc.lft.to/lastmile_qr_scan"}, "fusion_lon": 0.0, "lat": 38.924795833333334, "bike_id": "58d8964c47d6dddbbfcda5ba723a2c0d", "type": "electric_scooter", "is_reserved": 0, "lon": -77.05210783333334}, {"fusion_lat": 0.0, "name": "253c40252184d02e0354e81aadc3c9cb", "is_disabled": 0, "rental_uris": {"android": "https://dc.lft.to/lastmile_qr_scan", "ios": "https://dc.lft.to/lastmile_qr_scan"}, "fusion_lon": 0.0, "lat": 38.92657066666666, "bike_id": "253c40252184d02e0354e81aadc3c9cb", "type": "electric_scooter", "is_reserved": 0, "lon": -77.03725216666666}, {"fusion_lat": 0.0, "name": "c22d966d1dfb07ad2b26641d24c59ac2", "is_disabled": 0, "rental_uris": {"android": "https://dc.lft.to/lastmile_qr_scan", "ios": "https://dc.lft.to/lastmile_qr_scan"}, "fusion_lon": 0.0, "lat": 38.894905666666666, "bike_id": "c22d966d1dfb07ad2b26641d24c59ac2", "type": "electric_scooter", "is_reserved": 0, "lon": -77.00979216666667}, {"fusion_lat": 0.0, "name": "4cfc776f551ca91154d52df0c994c8e7", "is_disabled": 0, "rental_uris": {"android": "https://dc.lft.to/lastmile_qr_scan", "ios": "https://dc.lft.to/lastmile_qr_scan"}, "fusion_lon": 0.0, "lat": 38.89429066666667, "bike_id": "4cfc776f551ca91154d52df0c994c8e7", "type": "electric_scooter", "is_reserved": 0, "lon": -77.00106683333334}, {"fusion_lat": 0.0, "name": "c1c4a1709e8e82cae1a8f31dcecb86d8", "is_disabled": 0, "rental_uris": {"android": "https://dc.lft.to/lastmile_qr_scan", "ios": "https://dc.lft.to/lastmile_qr_scan"}, "fusion_lon": 0.0, "lat": 38.928974, "bike_id": "c1c4a1709e8e82cae1a8f31dcecb86d8", "type": "electric_scooter", "is_reserved": 0, "lon": -77.03229183333333}, {"fusion_lat": 0.0, "name": "e7eb90e62087146f0846241741102a94", "is_disabled": 0, "rental_uris": {"android": "https://dc.lft.to/lastmile_qr_scan", "ios": "https://dc.lft.to/lastmile_qr_scan"}, "fusion_lon": 0.0, "lat": 38.92248283333333, "bike_id": "e7eb90e62087146f0846241741102a94", "type": "electric_scooter", "is_reserved": 0, "lon": -77.02978333333333}, {"fusion_lat": 0.0, "name": "d89b8273549b9b8b6e9edacf6fe57d3f", "is_disabled": 0, "rental_uris": {"android": "https://dc.lft.to/lastmile_qr_scan", "ios": "https://dc.lft.to/lastmile_qr_scan"}, "fusion_lon": 0.0, "lat": 38.90730333333333, "bike_id": "d89b8273549b9b8b6e9edacf6fe57d3f", "type": "electric_scooter", "is_reserved": 0, "lon": -77.029697}, {"fusion_lat": 0.0, "name": "c1b9bfb4d9b9779d0f169efe15eeb24c", "is_disabled": 0, "rental_uris": {"android": "https://dc.lft.to/lastmile_qr_scan", "ios": "https://dc.lft.to/lastmile_qr_scan"}, "fusion_lon": 0.0, "lat": 38.90811933333333, "bike_id": "c1b9bfb4d9b9779d0f169efe15eeb24c", "type": "electric_scooter", "is_reserved": 0, "lon": -77.033742}, {"fusion_lat": 0.0, "name": "d03bc619b3af4110d64b649de4eef917", "is_disabled": 0, "rental_uris": {"android": "https://dc.lft.to/lastmile_qr_scan", "ios": "https://dc.lft.to/lastmile_qr_scan"}, "fusion_lon": 0.0, "lat": 38.96131116666667, "bike_id": "d03bc619b3af4110d64b649de4eef917", "type": "electric_scooter", "is_reserved": 0, "lon": -77.02780983333334}, {"fusion_lat": 0.0, "name": "0c6f444718bb31cc4045527025b0975b", "is_disabled": 0, "rental_uris": {"android": "https://dc.lft.to/lastmile_qr_scan", "ios": "https://dc.lft.to/lastmile_qr_scan"}, "fusion_lon": 0.0, "lat": 38.876878833333336, "bike_id": "0c6f444718bb31cc4045527025b0975b", "type": "electric_scooter", "is_reserved": 0, "lon": -76.9942875}, {"fusion_lat": 0.0, "name": "4bc064925234986ebb57af46e4e587e2", "is_disabled": 0, "rental_uris": {"android": "https://dc.lft.to/lastmile_qr_scan", "ios": "https://dc.lft.to/lastmile_qr_scan"}, "fusion_lon": 0.0, "lat": 38.97519883333333, "bike_id": "4bc064925234986ebb57af46e4e587e2", "type": "electric_scooter", "is_reserved": 0, "lon": -77.01733983333334}, {"fusion_lat": 0.0, "name": "679df14666452f7b028f4e2e952a7022", "is_disabled": 0, "rental_uris": {"android": "https://dc.lft.to/lastmile_qr_scan", "ios": "https://dc.lft.to/lastmile_qr_scan"}, "fusion_lon": 0.0, "lat": 38.913006, "bike_id": "679df14666452f7b028f4e2e952a7022", "type": "electric_scooter", "is_reserved": 0, "lon": -77.01211866666667}, {"fusion_lat": 0.0, "name": "e88cfd90b048a426e9d8bc5acff8001d", "is_disabled": 0, "rental_uris": {"android": "https://dc.lft.to/lastmile_qr_scan", "ios": "https://dc.lft.to/lastmile_qr_scan"}, "fusion_lon": 0.0, "lat": 38.88902483333333, "bike_id": "e88cfd90b048a426e9d8bc5acff8001d", "type": "electric_scooter", "is_reserved": 0, "lon": -76.992037}, {"fusion_lat": 0.0, "name": "4878260676d15238bc4dd5e3adde41ce", "is_disabled": 0, "rental_uris": {"android": "https://dc.lft.to/lastmile_qr_scan", "ios": "https://dc.lft.to/lastmile_qr_scan"}, "fusion_lon": 0.0, "lat": 38.9345325, "bike_id": "4878260676d15238bc4dd5e3adde41ce", "type": "electric_scooter", "is_reserved": 0, "lon": -77.02731333333334}, {"fusion_lat": 0.0, "name": "c77d5ddc9f873aae8b79f25892900573", "is_disabled": 0, "rental_uris": {"android": "https://dc.lft.to/lastmile_qr_scan", "ios": "https://dc.lft.to/lastmile_qr_scan"}, "fusion_lon": 0.0, "lat": 38.905227, "bike_id": "c77d5ddc9f873aae8b79f25892900573", "type": "electric_scooter", "is_reserved": 0, "lon": -77.0613255}, {"fusion_lat": 0.0, "name": "b1bd02ecf2ef2aea050bddbd0c7ba458", "is_disabled": 0, "rental_uris": {"android": "https://dc.lft.to/lastmile_qr_scan", "ios": "https://dc.lft.to/lastmile_qr_scan"}, "fusion_lon": 0.0, "lat": 38.89354516666667, "bike_id": "b1bd02ecf2ef2aea050bddbd0c7ba458", "type": "electric_bike", "is_reserved": 0, "lon": -77.1874305}, {"fusion_lat": 0.0, "name": "6cb8f9d3dbf84f8a896985d57a2e492f", "is_disabled": 0, "rental_uris": {"android": "https://dc.lft.to/lastmile_qr_scan", "ios": "https://dc.lft.to/lastmile_qr_scan"}, "fusion_lon": 0.0, "lat": 38.8819735, "bike_id": "6cb8f9d3dbf84f8a896985d57a2e492f", "type": "electric_scooter", "is_reserved": 0, "lon": -76.99485366666667}, {"fusion_lat": 0.0, "name": "52a8c608437af507f55f32b7418505b9", "is_disabled": 0, "rental_uris": {"android": "https://dc.lft.to/lastmile_qr_scan", "ios": "https://dc.lft.to/lastmile_qr_scan"}, "fusion_lon": 0.0, "lat": 38.89875033333333, "bike_id": "52a8c608437af507f55f32b7418505b9", "type": "electric_scooter", "is_reserved": 0, "lon": -76.93186466666667}, {"fusion_lat": 0.0, "name": "dae2aa7936f2361359966dabcf649672", "is_disabled": 0, "rental_uris": {"android": "https://dc.lft.to/lastmile_qr_scan", "ios": "https://dc.lft.to/lastmile_qr_scan"}, "fusion_lon": 0.0, "lat": 38.88502233333333, "bike_id": "dae2aa7936f2361359966dabcf649672", "type": "electric_scooter", "is_reserved": 0, "lon": -77.00699916666666}, {"fusion_lat": 0.0, "name": "5881f4f3c7714122e498fed26aead423", "is_disabled": 0, "rental_uris": {"android": "https://dc.lft.to/lastmile_qr_scan", "ios": "https://dc.lft.to/lastmile_qr_scan"}, "fusion_lon": 0.0, "lat": 38.884077, "bike_id": "5881f4f3c7714122e498fed26aead423", "type": "electric_bike", "is_reserved": 0, "lon": -76.96062016666667}, {"fusion_lat": 0.0, "name": "0919618fc48f9c5d1bfb8a31e21db37a", "is_disabled": 0, "rental_uris": {"android": "https://dc.lft.to/lastmile_qr_scan", "ios": "https://dc.lft.to/lastmile_qr_scan"}, "fusion_lon": 0.0, "lat": 38.89575966666666, "bike_id": "0919618fc48f9c5d1bfb8a31e21db37a", "type": "electric_scooter", "is_reserved": 0, "lon": -77.02707533333333}, {"fusion_lat": 0.0, "name": "d5cc3074413203107209e6862a074baa", "is_disabled": 0, "rental_uris": {"android": "https://dc.lft.to/lastmile_qr_scan", "ios": "https://dc.lft.to/lastmile_qr_scan"}, "fusion_lon": 0.0, "lat": 38.9308955, "bike_id": "d5cc3074413203107209e6862a074baa", "type": "electric_scooter", "is_reserved": 0, "lon": -77.02553566666667}, {"fusion_lat": 0.0, "name": "f12943ff841bda53fc0d7e6ce063f5d7", "is_disabled": 0, "rental_uris": {"android": "https://dc.lft.to/lastmile_qr_scan", "ios": "https://dc.lft.to/lastmile_qr_scan"}, "fusion_lon": 0.0, "lat": 38.865589, "bike_id": "f12943ff841bda53fc0d7e6ce063f5d7", "type": "electric_scooter", "is_reserved": 0, "lon": -76.98350266666667}, {"fusion_lat": 0.0, "name": "a569553b17265fb810e4995c5005b227", "is_disabled": 0, "rental_uris": {"android": "https://dc.lft.to/lastmile_qr_scan", "ios": "https://dc.lft.to/lastmile_qr_scan"}, "fusion_lon": 0.0, "lat": 38.89800266666666, "bike_id": "a569553b17265fb810e4995c5005b227", "type": "electric_scooter", "is_reserved": 0, "lon": -77.010562}, {"fusion_lat": 0.0, "name": "ec594d58204e153f8a343d8e61981408", "is_disabled": 0, "rental_uris": {"android": "https://dc.lft.to/lastmile_qr_scan", "ios": "https://dc.lft.to/lastmile_qr_scan"}, "fusion_lon": 0.0, "lat": 38.90793733333334, "bike_id": "ec594d58204e153f8a343d8e61981408", "type": "electric_scooter", "is_reserved": 0, "lon": -77.01104866666667}, {"fusion_lat": 0.0, "name": "f4bf9af8d6be6935f9533498d8f21f67", "is_disabled": 0, "rental_uris": {"android": "https://dc.lft.to/lastmile_qr_scan", "ios": "https://dc.lft.to/lastmile_qr_scan"}, "fusion_lon": 0.0, "lat": 38.90562383333334, "bike_id": "f4bf9af8d6be6935f9533498d8f21f67", "type": "electric_scooter", "is_reserved": 0, "lon": -77.01314066666667}, {"fusion_lat": 0.0, "name": "a50a5af8ee401e28f3817a8213845adc", "is_disabled": 0, "rental_uris": {"android": "https://dc.lft.to/lastmile_qr_scan", "ios": "https://dc.lft.to/lastmile_qr_scan"}, "fusion_lon": 0.0, "lat": 38.89641866666667, "bike_id": "a50a5af8ee401e28f3817a8213845adc", "type": "electric_scooter", "is_reserved": 0, "lon": -77.04681833333333}, {"fusion_lat": 0.0, "name": "51a07cf9f69b00750264527e85f31df9", "is_disabled": 0, "rental_uris": {"android": "https://dc.lft.to/lastmile_qr_scan", "ios": "https://dc.lft.to/lastmile_qr_scan"}, "fusion_lon": 0.0, "lat": 38.90329633333333, "bike_id": "51a07cf9f69b00750264527e85f31df9", "type": "electric_scooter", "is_reserved": 0, "lon": -77.06511383333333}, {"fusion_lat": 0.0, "name": "91f2e13480de2bc65c1021d2b63ece38", "is_disabled": 0, "rental_uris": {"android": "https://dc.lft.to/lastmile_qr_scan", "ios": "https://dc.lft.to/lastmile_qr_scan"}, "fusion_lon": 0.0, "lat": 38.91804333333333, "bike_id": "91f2e13480de2bc65c1021d2b63ece38", "type": "electric_scooter", "is_reserved": 0, "lon": -77.03436166666667}, {"fusion_lat": 0.0, "name": "4bc7d2a7c639bee008d3c76b7afa5f53", "is_disabled": 0, "rental_uris": {"android": "https://dc.lft.to/lastmile_qr_scan", "ios": "https://dc.lft.to/lastmile_qr_scan"}, "fusion_lon": 0.0, "lat": 38.9306455, "bike_id": "4bc7d2a7c639bee008d3c76b7afa5f53", "type": "electric_scooter", "is_reserved": 0, "lon": -77.02980866666667}, {"fusion_lat": 0.0, "name": "adf34d000db9661b5649f3c9b21d9fb2", "is_disabled": 0, "rental_uris": {"android": "https://dc.lft.to/lastmile_qr_scan", "ios": "https://dc.lft.to/lastmile_qr_scan"}, "fusion_lon": 0.0, "lat": 38.89226516666667, "bike_id": "adf34d000db9661b5649f3c9b21d9fb2", "type": "electric_scooter", "is_reserved": 0, "lon": -77.0321315}, {"fusion_lat": 0.0, "name": "8a3b8ba119cdfe32892f4e09801aee38", "is_disabled": 0, "rental_uris": {"android": "https://dc.lft.to/lastmile_qr_scan", "ios": "https://dc.lft.to/lastmile_qr_scan"}, "fusion_lon": 0.0, "lat": 38.934281166666665, "bike_id": "8a3b8ba119cdfe32892f4e09801aee38", "type": "electric_scooter", "is_reserved": 0, "lon": -77.04421433333333}, {"fusion_lat": 0.0, "name": "f09160cd7f29f38a688ea992d18353bd", "is_disabled": 0, "rental_uris": {"android": "https://dc.lft.to/lastmile_qr_scan", "ios": "https://dc.lft.to/lastmile_qr_scan"}, "fusion_lon": 0.0, "lat": 38.9317995, "bike_id": "f09160cd7f29f38a688ea992d18353bd", "type": "electric_scooter", "is_reserved": 0, "lon": -77.04309466666666}, {"fusion_lat": 0.0, "name": "5dcc1f1fe8acf5844275fe52aa4b4cd8", "is_disabled": 0, "rental_uris": {"android": "https://dc.lft.to/lastmile_qr_scan", "ios": "https://dc.lft.to/lastmile_qr_scan"}, "fusion_lon": 0.0, "lat": 38.9296605, "bike_id": "5dcc1f1fe8acf5844275fe52aa4b4cd8", "type": "electric_scooter", "is_reserved": 0, "lon": -77.03104633333334}, {"fusion_lat": 0.0, "name": "0bd3cab660dca83ea97acc7503a5276d", "is_disabled": 0, "rental_uris": {"android": "https://dc.lft.to/lastmile_qr_scan", "ios": "https://dc.lft.to/lastmile_qr_scan"}, "fusion_lon": 0.0, "lat": 38.90679383333333, "bike_id": "0bd3cab660dca83ea97acc7503a5276d", "type": "electric_scooter", "is_reserved": 0, "lon": -77.04734966666666}, {"fusion_lat": 0.0, "name": "4558b71d6bb9796f6e280ca69e4f3222", "is_disabled": 0, "rental_uris": {"android": "https://dc.lft.to/lastmile_qr_scan", "ios": "https://dc.lft.to/lastmile_qr_scan"}, "fusion_lon": 0.0, "lat": 38.878998, "bike_id": "4558b71d6bb9796f6e280ca69e4f3222", "type": "electric_scooter", "is_reserved": 0, "lon": -77.01358866666666}, {"fusion_lat": 0.0, "name": "0b7ddd56437fa78cac012743629a45be", "is_disabled": 0, "rental_uris": {"android": "https://dc.lft.to/lastmile_qr_scan", "ios": "https://dc.lft.to/lastmile_qr_scan"}, "fusion_lon": 0.0, "lat": 38.974878833333335, "bike_id": "0b7ddd56437fa78cac012743629a45be", "type": "electric_scooter", "is_reserved": 0, "lon": -77.01468716666666}, {"fusion_lat": 0.0, "name": "92174d4831378cfbbc7d2ca61b1413f5", "is_disabled": 0, "rental_uris": {"android": "https://dc.lft.to/lastmile_qr_scan", "ios": "https://dc.lft.to/lastmile_qr_scan"}, "fusion_lon": 0.0, "lat": 38.8971425, "bike_id": "92174d4831378cfbbc7d2ca61b1413f5", "type": "electric_scooter", "is_reserved": 0, "lon": -77.00805383333334}, {"fusion_lat": 0.0, "name": "31b6fba2f792baec1c3c3d563dcef32a", "is_disabled": 0, "rental_uris": {"android": "https://dc.lft.to/lastmile_qr_scan", "ios": "https://dc.lft.to/lastmile_qr_scan"}, "fusion_lon": 0.0, "lat": 38.94411366666667, "bike_id": "31b6fba2f792baec1c3c3d563dcef32a", "type": "electric_scooter", "is_reserved": 0, "lon": -77.03205533333333}, {"fusion_lat": 0.0, "name": "966bb572b1b79554a2b387c74a25771d", "is_disabled": 0, "rental_uris": {"android": "https://dc.lft.to/lastmile_qr_scan", "ios": "https://dc.lft.to/lastmile_qr_scan"}, "fusion_lon": 0.0, "lat": 38.9163925, "bike_id": "966bb572b1b79554a2b387c74a25771d", "type": "electric_scooter", "is_reserved": 0, "lon": -77.04788333333333}, {"fusion_lat": 0.0, "name": "840f4c70febd2c485be2694b92a60040", "is_disabled": 0, "rental_uris": {"android": "https://dc.lft.to/lastmile_qr_scan", "ios": "https://dc.lft.to/lastmile_qr_scan"}, "fusion_lon": 0.0, "lat": 38.89887916666667, "bike_id": "840f4c70febd2c485be2694b92a60040", "type": "electric_scooter", "is_reserved": 0, "lon": -77.03289916666667}, {"fusion_lat": 0.0, "name": "6a0c05f2b3dee12bd1bd46995b10d6a3", "is_disabled": 0, "rental_uris": {"android": "https://dc.lft.to/lastmile_qr_scan", "ios": "https://dc.lft.to/lastmile_qr_scan"}, "fusion_lon": 0.0, "lat": 38.939746, "bike_id": "6a0c05f2b3dee12bd1bd46995b10d6a3", "type": "electric_scooter", "is_reserved": 0, "lon": -77.03564033333333}, {"fusion_lat": 0.0, "name": "a2ac45011e5b062a1536d5ea3f104162", "is_disabled": 0, "rental_uris": {"android": "https://dc.lft.to/lastmile_qr_scan", "ios": "https://dc.lft.to/lastmile_qr_scan"}, "fusion_lon": 0.0, "lat": 38.88470866666667, "bike_id": "a2ac45011e5b062a1536d5ea3f104162", "type": "electric_scooter", "is_reserved": 0, "lon": -76.94978733333333}, {"fusion_lat": 0.0, "name": "bc22268c1685ff8b6916b49ab11c3b48", "is_disabled": 0, "rental_uris": {"android": "https://dc.lft.to/lastmile_qr_scan", "ios": "https://dc.lft.to/lastmile_qr_scan"}, "fusion_lon": 0.0, "lat": 38.91701883333333, "bike_id": "bc22268c1685ff8b6916b49ab11c3b48", "type": "electric_scooter", "is_reserved": 0, "lon": -77.034755}, {"fusion_lat": 0.0, "name": "8f896ac3bf027752e4956c7483f2091f", "is_disabled": 0, "rental_uris": {"android": "https://dc.lft.to/lastmile_qr_scan", "ios": "https://dc.lft.to/lastmile_qr_scan"}, "fusion_lon": 0.0, "lat": 38.907778666666665, "bike_id": "8f896ac3bf027752e4956c7483f2091f", "type": "electric_scooter", "is_reserved": 0, "lon": -77.04006516666666}, {"fusion_lat": 0.0, "name": "a0199484a20a1f808a94bc2a5d477167", "is_disabled": 0, "rental_uris": {"android": "https://dc.lft.to/lastmile_qr_scan", "ios": "https://dc.lft.to/lastmile_qr_scan"}, "fusion_lon": 0.0, "lat": 38.96128816666667, "bike_id": "a0199484a20a1f808a94bc2a5d477167", "type": "electric_bike", "is_reserved": 0, "lon": -77.03278666666667}, {"fusion_lat": 0.0, "name": "b832a85ddee40b987ca017743587de28", "is_disabled": 0, "rental_uris": {"android": "https://dc.lft.to/lastmile_qr_scan", "ios": "https://dc.lft.to/lastmile_qr_scan"}, "fusion_lon": 0.0, "lat": 38.926577333333334, "bike_id": "b832a85ddee40b987ca017743587de28", "type": "electric_scooter", "is_reserved": 0, "lon": -77.03728416666667}, {"fusion_lat": 0.0, "name": "50820c9a9d8b02709c65668c2f03e561", "is_disabled": 0, "rental_uris": {"android": "https://dc.lft.to/lastmile_qr_scan", "ios": "https://dc.lft.to/lastmile_qr_scan"}, "fusion_lon": 0.0, "lat": 38.90922583333333, "bike_id": "50820c9a9d8b02709c65668c2f03e561", "type": "electric_scooter", "is_reserved": 0, "lon": -77.0308445}, {"fusion_lat": 0.0, "name": "cdb1569ff52e414858ef619e0ba962e0", "is_disabled": 0, "rental_uris": {"android": "https://dc.lft.to/lastmile_qr_scan", "ios": "https://dc.lft.to/lastmile_qr_scan"}, "fusion_lon": 0.0, "lat": 38.91436733333333, "bike_id": "cdb1569ff52e414858ef619e0ba962e0", "type": "electric_scooter", "is_reserved": 0, "lon": -77.01220433333333}, {"fusion_lat": 0.0, "name": "14a30e3b1ad9870b7e05016af1eeac81", "is_disabled": 0, "rental_uris": {"android": "https://dc.lft.to/lastmile_qr_scan", "ios": "https://dc.lft.to/lastmile_qr_scan"}, "fusion_lon": 0.0, "lat": 38.931121, "bike_id": "14a30e3b1ad9870b7e05016af1eeac81", "type": "electric_scooter", "is_reserved": 0, "lon": -77.03840416666667}, {"fusion_lat": 0.0, "name": "791abede5f2c59267d7ffc3ae629962b", "is_disabled": 0, "rental_uris": {"android": "https://dc.lft.to/lastmile_qr_scan", "ios": "https://dc.lft.to/lastmile_qr_scan"}, "fusion_lon": 0.0, "lat": 38.9016355, "bike_id": "791abede5f2c59267d7ffc3ae629962b", "type": "electric_scooter", "is_reserved": 0, "lon": -77.04358566666667}, {"fusion_lat": 0.0, "name": "b1e59a59f3a1ad61c698524d0e67d237", "is_disabled": 0, "rental_uris": {"android": "https://dc.lft.to/lastmile_qr_scan", "ios": "https://dc.lft.to/lastmile_qr_scan"}, "fusion_lon": 0.0, "lat": 38.954032833333336, "bike_id": "b1e59a59f3a1ad61c698524d0e67d237", "type": "electric_scooter", "is_reserved": 0, "lon": -77.02749016666667}, {"fusion_lat": 0.0, "name": "4186c8b403f5a7973f95291d188d549c", "is_disabled": 0, "rental_uris": {"android": "https://dc.lft.to/lastmile_qr_scan", "ios": "https://dc.lft.to/lastmile_qr_scan"}, "fusion_lon": 0.0, "lat": 38.901312, "bike_id": "4186c8b403f5a7973f95291d188d549c", "type": "electric_scooter", "is_reserved": 0, "lon": -77.03233683333333}, {"fusion_lat": 0.0, "name": "d3cc4ebee8b9019a8afa1d151f729b31", "is_disabled": 0, "rental_uris": {"android": "https://dc.lft.to/lastmile_qr_scan", "ios": "https://dc.lft.to/lastmile_qr_scan"}, "fusion_lon": 0.0, "lat": 38.89577533333333, "bike_id": "d3cc4ebee8b9019a8afa1d151f729b31", "type": "electric_scooter", "is_reserved": 0, "lon": -77.028149}, {"fusion_lat": 0.0, "name": "df8bd2c94268afd1db3195564d08bfbf", "is_disabled": 0, "rental_uris": {"android": "https://dc.lft.to/lastmile_qr_scan", "ios": "https://dc.lft.to/lastmile_qr_scan"}, "fusion_lon": 0.0, "lat": 38.95059966666667, "bike_id": "df8bd2c94268afd1db3195564d08bfbf", "type": "electric_scooter", "is_reserved": 0, "lon": -77.08026283333334}, {"fusion_lat": 0.0, "name": "3c918369d46c106c450f384c0c41b725", "is_disabled": 0, "rental_uris": {"android": "https://dc.lft.to/lastmile_qr_scan", "ios": "https://dc.lft.to/lastmile_qr_scan"}, "fusion_lon": 0.0, "lat": 38.93404183333333, "bike_id": "3c918369d46c106c450f384c0c41b725", "type": "electric_scooter", "is_reserved": 0, "lon": -77.0574365}, {"fusion_lat": 0.0, "name": "129e2d8f748c64113daae0d8ecec2fc0", "is_disabled": 0, "rental_uris": {"android": "https://dc.lft.to/lastmile_qr_scan", "ios": "https://dc.lft.to/lastmile_qr_scan"}, "fusion_lon": 0.0, "lat": 38.924526166666666, "bike_id": "129e2d8f748c64113daae0d8ecec2fc0", "type": "electric_scooter", "is_reserved": 0, "lon": -77.04207116666667}, {"fusion_lat": 0.0, "name": "3b027e80a0d269612c95e9f6f8e2e88e", "is_disabled": 0, "rental_uris": {"android": "https://dc.lft.to/lastmile_qr_scan", "ios": "https://dc.lft.to/lastmile_qr_scan"}, "fusion_lon": 0.0, "lat": 38.898087833333335, "bike_id": "3b027e80a0d269612c95e9f6f8e2e88e", "type": "electric_scooter", "is_reserved": 0, "lon": -77.02830133333333}, {"fusion_lat": 0.0, "name": "3d42679b2bdc3dedad79c4be1a0efc63", "is_disabled": 0, "rental_uris": {"android": "https://dc.lft.to/lastmile_qr_scan", "ios": "https://dc.lft.to/lastmile_qr_scan"}, "fusion_lon": 0.0, "lat": 38.896752, "bike_id": "3d42679b2bdc3dedad79c4be1a0efc63", "type": "electric_scooter", "is_reserved": 0, "lon": -77.00519533333333}, {"fusion_lat": 0.0, "name": "796e5156970ba758a69dadf2615886da", "is_disabled": 0, "rental_uris": {"android": "https://dc.lft.to/lastmile_qr_scan", "ios": "https://dc.lft.to/lastmile_qr_scan"}, "fusion_lon": 0.0, "lat": 38.90829183333334, "bike_id": "796e5156970ba758a69dadf2615886da", "type": "electric_scooter", "is_reserved": 0, "lon": -76.9842485}, {"fusion_lat": 0.0, "name": "26a1a4ebae8ad1647c265b83c0073565", "is_disabled": 0, "rental_uris": {"android": "https://dc.lft.to/lastmile_qr_scan", "ios": "https://dc.lft.to/lastmile_qr_scan"}, "fusion_lon": 0.0, "lat": 38.91065366666667, "bike_id": "26a1a4ebae8ad1647c265b83c0073565", "type": "electric_scooter", "is_reserved": 0, "lon": -77.0409325}, {"fusion_lat": 0.0, "name": "105d2153cc76fc638359954887f650a8", "is_disabled": 0, "rental_uris": {"android": "https://dc.lft.to/lastmile_qr_scan", "ios": "https://dc.lft.to/lastmile_qr_scan"}, "fusion_lon": 0.0, "lat": 38.88595183333334, "bike_id": "105d2153cc76fc638359954887f650a8", "type": "electric_scooter", "is_reserved": 0, "lon": -77.01721133333334}, {"fusion_lat": 0.0, "name": "1974751929e53cb62ca903eb1e748bd0", "is_disabled": 0, "rental_uris": {"android": "https://dc.lft.to/lastmile_qr_scan", "ios": "https://dc.lft.to/lastmile_qr_scan"}, "fusion_lon": 0.0, "lat": 38.94086566666667, "bike_id": "1974751929e53cb62ca903eb1e748bd0", "type": "electric_scooter", "is_reserved": 0, "lon": -77.06187216666666}, {"fusion_lat": 0.0, "name": "7553f8a00e210a2c6ec126745e8b1edf", "is_disabled": 0, "rental_uris": {"android": "https://dc.lft.to/lastmile_qr_scan", "ios": "https://dc.lft.to/lastmile_qr_scan"}, "fusion_lon": 0.0, "lat": 38.883872, "bike_id": "7553f8a00e210a2c6ec126745e8b1edf", "type": "electric_scooter", "is_reserved": 0, "lon": -76.930541}, {"fusion_lat": 0.0, "name": "c0bed58abefa9bff3cf06d0ab033411e", "is_disabled": 0, "rental_uris": {"android": "https://dc.lft.to/lastmile_qr_scan", "ios": "https://dc.lft.to/lastmile_qr_scan"}, "fusion_lon": 0.0, "lat": 38.93064733333333, "bike_id": "c0bed58abefa9bff3cf06d0ab033411e", "type": "electric_scooter", "is_reserved": 0, "lon": -77.02321166666667}, {"fusion_lat": 0.0, "name": "dd25ca00b26c606c69799adb60d8a728", "is_disabled": 0, "rental_uris": {"android": "https://dc.lft.to/lastmile_qr_scan", "ios": "https://dc.lft.to/lastmile_qr_scan"}, "fusion_lon": 0.0, "lat": 38.9218155, "bike_id": "dd25ca00b26c606c69799adb60d8a728", "type": "electric_scooter", "is_reserved": 0, "lon": -77.03819816666666}, {"fusion_lat": 0.0, "name": "308cc1e152d1b6b456fa71ab1899c5c1", "is_disabled": 0, "rental_uris": {"android": "https://dc.lft.to/lastmile_qr_scan", "ios": "https://dc.lft.to/lastmile_qr_scan"}, "fusion_lon": 0.0, "lat": 38.923147666666665, "bike_id": "308cc1e152d1b6b456fa71ab1899c5c1", "type": "electric_scooter", "is_reserved": 0, "lon": -77.04400733333334}, {"fusion_lat": 0.0, "name": "5cdbf64d279748bf086ac56c0af301d3", "is_disabled": 0, "rental_uris": {"android": "https://dc.lft.to/lastmile_qr_scan", "ios": "https://dc.lft.to/lastmile_qr_scan"}, "fusion_lon": 0.0, "lat": 38.914212166666665, "bike_id": "5cdbf64d279748bf086ac56c0af301d3", "type": "electric_scooter", "is_reserved": 0, "lon": -77.0316765}, {"fusion_lat": 0.0, "name": "68b4296736063c5a4b2c4cf3fcb923ed", "is_disabled": 0, "rental_uris": {"android": "https://dc.lft.to/lastmile_qr_scan", "ios": "https://dc.lft.to/lastmile_qr_scan"}, "fusion_lon": 0.0, "lat": 38.94892883333333, "bike_id": "68b4296736063c5a4b2c4cf3fcb923ed", "type": "electric_bike", "is_reserved": 0, "lon": -76.96372866666667}, {"fusion_lat": 0.0, "name": "d828a8dd0eee685949812f5901b478ae", "is_disabled": 0, "rental_uris": {"android": "https://dc.lft.to/lastmile_qr_scan", "ios": "https://dc.lft.to/lastmile_qr_scan"}, "fusion_lon": 0.0, "lat": 38.91571716666667, "bike_id": "d828a8dd0eee685949812f5901b478ae", "type": "electric_scooter", "is_reserved": 0, "lon": -77.031932}, {"fusion_lat": 0.0, "name": "6136fa983a7bd8485588ba367078cdf0", "is_disabled": 0, "rental_uris": {"android": "https://dc.lft.to/lastmile_qr_scan", "ios": "https://dc.lft.to/lastmile_qr_scan"}, "fusion_lon": 0.0, "lat": 38.91962266666667, "bike_id": "6136fa983a7bd8485588ba367078cdf0", "type": "electric_scooter", "is_reserved": 0, "lon": -77.01778383333334}, {"fusion_lat": 0.0, "name": "4e654680038c30c6299fb5d55c8f5a5b", "is_disabled": 0, "rental_uris": {"android": "https://dc.lft.to/lastmile_qr_scan", "ios": "https://dc.lft.to/lastmile_qr_scan"}, "fusion_lon": 0.0, "lat": 38.92956816666667, "bike_id": "4e654680038c30c6299fb5d55c8f5a5b", "type": "electric_scooter", "is_reserved": 0, "lon": -77.018143}, {"fusion_lat": 0.0, "name": "e1d3023fab0b1b9850beee88f24e312c", "is_disabled": 0, "rental_uris": {"android": "https://dc.lft.to/lastmile_qr_scan", "ios": "https://dc.lft.to/lastmile_qr_scan"}, "fusion_lon": 0.0, "lat": 38.884714833333334, "bike_id": "e1d3023fab0b1b9850beee88f24e312c", "type": "electric_scooter", "is_reserved": 0, "lon": -77.01524016666667}, {"fusion_lat": 0.0, "name": "71c36dc98bfb2cbadbd855f1abf50cb5", "is_disabled": 0, "rental_uris": {"android": "https://dc.lft.to/lastmile_qr_scan", "ios": "https://dc.lft.to/lastmile_qr_scan"}, "fusion_lon": 0.0, "lat": 39.003777666666664, "bike_id": "71c36dc98bfb2cbadbd855f1abf50cb5", "type": "electric_bike", "is_reserved": 0, "lon": -77.01287733333334}, {"fusion_lat": 0.0, "name": "31ee7beec3f93972bfcd904b20e9159c", "is_disabled": 0, "rental_uris": {"android": "https://dc.lft.to/lastmile_qr_scan", "ios": "https://dc.lft.to/lastmile_qr_scan"}, "fusion_lon": 0.0, "lat": 38.883307, "bike_id": "31ee7beec3f93972bfcd904b20e9159c", "type": "electric_scooter", "is_reserved": 0, "lon": -77.016848}, {"fusion_lat": 0.0, "name": "0026b36e12dba128e44389746ad40ce6", "is_disabled": 0, "rental_uris": {"android": "https://dc.lft.to/lastmile_qr_scan", "ios": "https://dc.lft.to/lastmile_qr_scan"}, "fusion_lon": 0.0, "lat": 38.931919666666666, "bike_id": "0026b36e12dba128e44389746ad40ce6", "type": "electric_scooter", "is_reserved": 0, "lon": -77.073284}, {"fusion_lat": 0.0, "name": "f8335fb869193ffaed9577fafc1951d7", "is_disabled": 0, "rental_uris": {"android": "https://dc.lft.to/lastmile_qr_scan", "ios": "https://dc.lft.to/lastmile_qr_scan"}, "fusion_lon": 0.0, "lat": 38.923753833333336, "bike_id": "f8335fb869193ffaed9577fafc1951d7", "type": "electric_scooter", "is_reserved": 0, "lon": -77.0190505}, {"fusion_lat": 0.0, "name": "c18ee4b9b468be90f87706237d04ff24", "is_disabled": 0, "rental_uris": {"android": "https://dc.lft.to/lastmile_qr_scan", "ios": "https://dc.lft.to/lastmile_qr_scan"}, "fusion_lon": 0.0, "lat": 38.88491483333333, "bike_id": "c18ee4b9b468be90f87706237d04ff24", "type": "electric_scooter", "is_reserved": 0, "lon": -77.010868}, {"fusion_lat": 0.0, "name": "24bb990416a43337332e94cbfb7fb694", "is_disabled": 0, "rental_uris": {"android": "https://dc.lft.to/lastmile_qr_scan", "ios": "https://dc.lft.to/lastmile_qr_scan"}, "fusion_lon": 0.0, "lat": 38.9052895, "bike_id": "24bb990416a43337332e94cbfb7fb694", "type": "electric_scooter", "is_reserved": 0, "lon": -77.04341416666666}, {"fusion_lat": 0.0, "name": "cc43040de8b92b77a65b6759af8c6704", "is_disabled": 0, "rental_uris": {"android": "https://dc.lft.to/lastmile_qr_scan", "ios": "https://dc.lft.to/lastmile_qr_scan"}, "fusion_lon": 0.0, "lat": 38.918294333333336, "bike_id": "cc43040de8b92b77a65b6759af8c6704", "type": "electric_scooter", "is_reserved": 0, "lon": -77.03208383333333}, {"fusion_lat": 0.0, "name": "a773523366237a0aee3e9716f54403f8", "is_disabled": 0, "rental_uris": {"android": "https://dc.lft.to/lastmile_qr_scan", "ios": "https://dc.lft.to/lastmile_qr_scan"}, "fusion_lon": 0.0, "lat": 38.9003425, "bike_id": "a773523366237a0aee3e9716f54403f8", "type": "electric_scooter", "is_reserved": 0, "lon": -77.03496533333333}, {"fusion_lat": 0.0, "name": "4b7232d289c7ffd4d32599bc1733d234", "is_disabled": 0, "rental_uris": {"android": "https://dc.lft.to/lastmile_qr_scan", "ios": "https://dc.lft.to/lastmile_qr_scan"}, "fusion_lon": 0.0, "lat": 38.91693216666667, "bike_id": "4b7232d289c7ffd4d32599bc1733d234", "type": "electric_scooter", "is_reserved": 0, "lon": -77.03157433333334}, {"fusion_lat": 0.0, "name": "ead7170f6a2ca27dd5817ecce6301b4c", "is_disabled": 0, "rental_uris": {"android": "https://dc.lft.to/lastmile_qr_scan", "ios": "https://dc.lft.to/lastmile_qr_scan"}, "fusion_lon": 0.0, "lat": 38.888739666666666, "bike_id": "ead7170f6a2ca27dd5817ecce6301b4c", "type": "electric_scooter", "is_reserved": 0, "lon": -76.98456083333333}, {"fusion_lat": 0.0, "name": "66e1c2f61c9f2acaa70c30c102211369", "is_disabled": 0, "rental_uris": {"android": "https://dc.lft.to/lastmile_qr_scan", "ios": "https://dc.lft.to/lastmile_qr_scan"}, "fusion_lon": 0.0, "lat": 38.92046066666666, "bike_id": "66e1c2f61c9f2acaa70c30c102211369", "type": "electric_scooter", "is_reserved": 0, "lon": -77.00207283333333}, {"fusion_lat": 0.0, "name": "8bbd380e65c0f0a8ccb397f44fb61944", "is_disabled": 0, "rental_uris": {"android": "https://dc.lft.to/lastmile_qr_scan", "ios": "https://dc.lft.to/lastmile_qr_scan"}, "fusion_lon": 0.0, "lat": 38.90188916666666, "bike_id": "8bbd380e65c0f0a8ccb397f44fb61944", "type": "electric_scooter", "is_reserved": 0, "lon": -76.92900616666667}, {"fusion_lat": 0.0, "name": "37fce66c2bae605c5ff9ccbdfa1d1fd0", "is_disabled": 0, "rental_uris": {"android": "https://dc.lft.to/lastmile_qr_scan", "ios": "https://dc.lft.to/lastmile_qr_scan"}, "fusion_lon": 0.0, "lat": 38.8863605, "bike_id": "37fce66c2bae605c5ff9ccbdfa1d1fd0", "type": "electric_scooter", "is_reserved": 0, "lon": -76.92587516666667}, {"fusion_lat": 0.0, "name": "53ab39331c27a7d7698c22065ed38d8d", "is_disabled": 0, "rental_uris": {"android": "https://dc.lft.to/lastmile_qr_scan", "ios": "https://dc.lft.to/lastmile_qr_scan"}, "fusion_lon": 0.0, "lat": 38.91402216666667, "bike_id": "53ab39331c27a7d7698c22065ed38d8d", "type": "electric_scooter", "is_reserved": 0, "lon": -77.0318815}, {"fusion_lat": 0.0, "name": "667970723f897b71139a5f95ed0e7d69", "is_disabled": 0, "rental_uris": {"android": "https://dc.lft.to/lastmile_qr_scan", "ios": "https://dc.lft.to/lastmile_qr_scan"}, "fusion_lon": 0.0, "lat": 38.906186166666664, "bike_id": "667970723f897b71139a5f95ed0e7d69", "type": "electric_scooter", "is_reserved": 0, "lon": -77.01374116666666}, {"fusion_lat": 0.0, "name": "6601a48fb703322d8543225cb5134aff", "is_disabled": 0, "rental_uris": {"android": "https://dc.lft.to/lastmile_qr_scan", "ios": "https://dc.lft.to/lastmile_qr_scan"}, "fusion_lon": 0.0, "lat": 38.85514533333333, "bike_id": "6601a48fb703322d8543225cb5134aff", "type": "electric_bike", "is_reserved": 0, "lon": -77.10536966666666}, {"fusion_lat": 0.0, "name": "4cb49d877f801c97f06755ab7cc78525", "is_disabled": 0, "rental_uris": {"android": "https://dc.lft.to/lastmile_qr_scan", "ios": "https://dc.lft.to/lastmile_qr_scan"}, "fusion_lon": 0.0, "lat": 38.88348633333333, "bike_id": "4cb49d877f801c97f06755ab7cc78525", "type": "electric_scooter", "is_reserved": 0, "lon": -76.9951385}, {"fusion_lat": 0.0, "name": "ac7d2df52530548a6bfdc3b793783daf", "is_disabled": 0, "rental_uris": {"android": "https://dc.lft.to/lastmile_qr_scan", "ios": "https://dc.lft.to/lastmile_qr_scan"}, "fusion_lon": 0.0, "lat": 38.90314516666667, "bike_id": "ac7d2df52530548a6bfdc3b793783daf", "type": "electric_scooter", "is_reserved": 0, "lon": -76.97801266666667}, {"fusion_lat": 0.0, "name": "29e93530e88187f93d75a61e2a53c9bc", "is_disabled": 0, "rental_uris": {"android": "https://dc.lft.to/lastmile_qr_scan", "ios": "https://dc.lft.to/lastmile_qr_scan"}, "fusion_lon": 0.0, "lat": 38.9283, "bike_id": "29e93530e88187f93d75a61e2a53c9bc", "type": "electric_scooter", "is_reserved": 0, "lon": -77.05435916666667}, {"fusion_lat": 0.0, "name": "c77738d9cb2331db3741bda12d369692", "is_disabled": 0, "rental_uris": {"android": "https://dc.lft.to/lastmile_qr_scan", "ios": "https://dc.lft.to/lastmile_qr_scan"}, "fusion_lon": 0.0, "lat": 38.92292416666667, "bike_id": "c77738d9cb2331db3741bda12d369692", "type": "electric_scooter", "is_reserved": 0, "lon": -77.03195066666666}, {"fusion_lat": 0.0, "name": "091a50317fdba19282490af169ddd3c3", "is_disabled": 0, "rental_uris": {"android": "https://dc.lft.to/lastmile_qr_scan", "ios": "https://dc.lft.to/lastmile_qr_scan"}, "fusion_lon": 0.0, "lat": 38.88629233333333, "bike_id": "091a50317fdba19282490af169ddd3c3", "type": "electric_scooter", "is_reserved": 0, "lon": -77.022202}, {"fusion_lat": 0.0, "name": "64896675d101d9a317092b1aee78728f", "is_disabled": 0, "rental_uris": {"android": "https://dc.lft.to/lastmile_qr_scan", "ios": "https://dc.lft.to/lastmile_qr_scan"}, "fusion_lon": 0.0, "lat": 38.89222133333333, "bike_id": "64896675d101d9a317092b1aee78728f", "type": "electric_scooter", "is_reserved": 0, "lon": -77.04808783333333}, {"fusion_lat": 0.0, "name": "a49a5bf5c0da023377c4c3aedd250fd4", "is_disabled": 0, "rental_uris": {"android": "https://dc.lft.to/lastmile_qr_scan", "ios": "https://dc.lft.to/lastmile_qr_scan"}, "fusion_lon": 0.0, "lat": 38.866856166666665, "bike_id": "a49a5bf5c0da023377c4c3aedd250fd4", "type": "electric_scooter", "is_reserved": 0, "lon": -76.985725}, {"fusion_lat": 0.0, "name": "95128bce85d646a8f34399148bea2e4c", "is_disabled": 0, "rental_uris": {"android": "https://dc.lft.to/lastmile_qr_scan", "ios": "https://dc.lft.to/lastmile_qr_scan"}, "fusion_lon": 0.0, "lat": 38.923335333333334, "bike_id": "95128bce85d646a8f34399148bea2e4c", "type": "electric_scooter", "is_reserved": 0, "lon": -77.0196265}, {"fusion_lat": 0.0, "name": "668b6c57a9cb237cb7ac9ceb97d9d6c0", "is_disabled": 0, "rental_uris": {"android": "https://dc.lft.to/lastmile_qr_scan", "ios": "https://dc.lft.to/lastmile_qr_scan"}, "fusion_lon": 0.0, "lat": 38.897194166666665, "bike_id": "668b6c57a9cb237cb7ac9ceb97d9d6c0", "type": "electric_scooter", "is_reserved": 0, "lon": -77.0079715}, {"fusion_lat": 0.0, "name": "8ef813e57b3b72f58722f61ae05e76ca", "is_disabled": 0, "rental_uris": {"android": "https://dc.lft.to/lastmile_qr_scan", "ios": "https://dc.lft.to/lastmile_qr_scan"}, "fusion_lon": 0.0, "lat": 38.900128333333335, "bike_id": "8ef813e57b3b72f58722f61ae05e76ca", "type": "electric_scooter", "is_reserved": 0, "lon": -77.03040533333333}, {"fusion_lat": 0.0, "name": "609c972b897ce5237143a9032dee0c7a", "is_disabled": 0, "rental_uris": {"android": "https://dc.lft.to/lastmile_qr_scan", "ios": "https://dc.lft.to/lastmile_qr_scan"}, "fusion_lon": 0.0, "lat": 38.898159666666665, "bike_id": "609c972b897ce5237143a9032dee0c7a", "type": "electric_scooter", "is_reserved": 0, "lon": -77.024367}, {"fusion_lat": 0.0, "name": "a224eb07a03a6dc1c3a0d7e6744b801b", "is_disabled": 0, "rental_uris": {"android": "https://dc.lft.to/lastmile_qr_scan", "ios": "https://dc.lft.to/lastmile_qr_scan"}, "fusion_lon": 0.0, "lat": 38.94443366666667, "bike_id": "a224eb07a03a6dc1c3a0d7e6744b801b", "type": "electric_scooter", "is_reserved": 0, "lon": -77.06410216666667}, {"fusion_lat": 0.0, "name": "dfe5044f136314b980215b3ad1af8be5", "is_disabled": 0, "rental_uris": {"android": "https://dc.lft.to/lastmile_qr_scan", "ios": "https://dc.lft.to/lastmile_qr_scan"}, "fusion_lon": 0.0, "lat": 38.931905666666665, "bike_id": "dfe5044f136314b980215b3ad1af8be5", "type": "electric_scooter", "is_reserved": 0, "lon": -77.04300383333333}, {"fusion_lat": 0.0, "name": "37dac840d644ee47e35e294ea97cb88d", "is_disabled": 0, "rental_uris": {"android": "https://dc.lft.to/lastmile_qr_scan", "ios": "https://dc.lft.to/lastmile_qr_scan"}, "fusion_lon": 0.0, "lat": 38.89731416666667, "bike_id": "37dac840d644ee47e35e294ea97cb88d", "type": "electric_scooter", "is_reserved": 0, "lon": -77.00219266666667}, {"fusion_lat": 0.0, "name": "001ec131735b3acdb88220fdf5229d78", "is_disabled": 0, "rental_uris": {"android": "https://dc.lft.to/lastmile_qr_scan", "ios": "https://dc.lft.to/lastmile_qr_scan"}, "fusion_lon": 0.0, "lat": 38.8855455, "bike_id": "001ec131735b3acdb88220fdf5229d78", "type": "electric_scooter", "is_reserved": 0, "lon": -76.99779983333333}, {"fusion_lat": 0.0, "name": "6094c782f0d90b757b37912d28b57f79", "is_disabled": 0, "rental_uris": {"android": "https://dc.lft.to/lastmile_qr_scan", "ios": "https://dc.lft.to/lastmile_qr_scan"}, "fusion_lon": 0.0, "lat": 38.923779333333336, "bike_id": "6094c782f0d90b757b37912d28b57f79", "type": "electric_scooter", "is_reserved": 0, "lon": -77.051544}, {"fusion_lat": 0.0, "name": "4f71d322b9903e229ba68f64b41e3916", "is_disabled": 0, "rental_uris": {"android": "https://dc.lft.to/lastmile_qr_scan", "ios": "https://dc.lft.to/lastmile_qr_scan"}, "fusion_lon": 0.0, "lat": 38.88739233333333, "bike_id": "4f71d322b9903e229ba68f64b41e3916", "type": "electric_scooter", "is_reserved": 0, "lon": -77.02578866666667}, {"fusion_lat": 0.0, "name": "3893fc9fe91b7f4143c645370a1e2561", "is_disabled": 0, "rental_uris": {"android": "https://dc.lft.to/lastmile_qr_scan", "ios": "https://dc.lft.to/lastmile_qr_scan"}, "fusion_lon": 0.0, "lat": 38.8990065, "bike_id": "3893fc9fe91b7f4143c645370a1e2561", "type": "electric_scooter", "is_reserved": 0, "lon": -77.03902716666667}, {"fusion_lat": 0.0, "name": "14fb572cad0adb25635edfb7aaa26585", "is_disabled": 0, "rental_uris": {"android": "https://dc.lft.to/lastmile_qr_scan", "ios": "https://dc.lft.to/lastmile_qr_scan"}, "fusion_lon": 0.0, "lat": 38.91717583333333, "bike_id": "14fb572cad0adb25635edfb7aaa26585", "type": "electric_scooter", "is_reserved": 0, "lon": -77.02813133333333}, {"fusion_lat": 0.0, "name": "1b65b0c3fc475e2101212ceabe825a3b", "is_disabled": 0, "rental_uris": {"android": "https://dc.lft.to/lastmile_qr_scan", "ios": "https://dc.lft.to/lastmile_qr_scan"}, "fusion_lon": 0.0, "lat": 38.933973333333334, "bike_id": "1b65b0c3fc475e2101212ceabe825a3b", "type": "electric_scooter", "is_reserved": 0, "lon": -77.05769466666666}, {"fusion_lat": 0.0, "name": "e35f135b7f17488f83ee7e9e85caa647", "is_disabled": 0, "rental_uris": {"android": "https://dc.lft.to/lastmile_qr_scan", "ios": "https://dc.lft.to/lastmile_qr_scan"}, "fusion_lon": 0.0, "lat": 38.92866216666667, "bike_id": "e35f135b7f17488f83ee7e9e85caa647", "type": "electric_scooter", "is_reserved": 0, "lon": -77.03221383333333}, {"fusion_lat": 0.0, "name": "ab5724061a1e54eb57b85b02318e93a6", "is_disabled": 0, "rental_uris": {"android": "https://dc.lft.to/lastmile_qr_scan", "ios": "https://dc.lft.to/lastmile_qr_scan"}, "fusion_lon": 0.0, "lat": 38.918264, "bike_id": "ab5724061a1e54eb57b85b02318e93a6", "type": "electric_scooter", "is_reserved": 0, "lon": -77.04169633333333}, {"fusion_lat": 0.0, "name": "6f9391567c17dd45644b90050811d075", "is_disabled": 0, "rental_uris": {"android": "https://dc.lft.to/lastmile_qr_scan", "ios": "https://dc.lft.to/lastmile_qr_scan"}, "fusion_lon": 0.0, "lat": 38.92494383333333, "bike_id": "6f9391567c17dd45644b90050811d075", "type": "electric_scooter", "is_reserved": 0, "lon": -77.05105}, {"fusion_lat": 0.0, "name": "d86dbd3803145a894b58e56754ba2463", "is_disabled": 0, "rental_uris": {"android": "https://dc.lft.to/lastmile_qr_scan", "ios": "https://dc.lft.to/lastmile_qr_scan"}, "fusion_lon": 0.0, "lat": 38.889554833333335, "bike_id": "d86dbd3803145a894b58e56754ba2463", "type": "electric_bike", "is_reserved": 0, "lon": -77.0765255}, {"fusion_lat": 0.0, "name": "811c1818cafc22c77f9dc9c00e80daac", "is_disabled": 0, "rental_uris": {"android": "https://dc.lft.to/lastmile_qr_scan", "ios": "https://dc.lft.to/lastmile_qr_scan"}, "fusion_lon": 0.0, "lat": 38.91471666666666, "bike_id": "811c1818cafc22c77f9dc9c00e80daac", "type": "electric_scooter", "is_reserved": 0, "lon": -76.9841605}, {"fusion_lat": 0.0, "name": "d585cf7dac63e84283dccaf1c0c42ab1", "is_disabled": 0, "rental_uris": {"android": "https://dc.lft.to/lastmile_qr_scan", "ios": "https://dc.lft.to/lastmile_qr_scan"}, "fusion_lon": 0.0, "lat": 38.932609666666664, "bike_id": "d585cf7dac63e84283dccaf1c0c42ab1", "type": "electric_scooter", "is_reserved": 0, "lon": -77.031077}, {"fusion_lat": 0.0, "name": "cba6b5f6bff75280478b16cc2d4a46e0", "is_disabled": 0, "rental_uris": {"android": "https://dc.lft.to/lastmile_qr_scan", "ios": "https://dc.lft.to/lastmile_qr_scan"}, "fusion_lon": 0.0, "lat": 38.896094166666664, "bike_id": "cba6b5f6bff75280478b16cc2d4a46e0", "type": "electric_scooter", "is_reserved": 0, "lon": -76.9928115}, {"fusion_lat": 0.0, "name": "e2c64a3e4e8c598075c7cd2ddfb38af6", "is_disabled": 0, "rental_uris": {"android": "https://dc.lft.to/lastmile_qr_scan", "ios": "https://dc.lft.to/lastmile_qr_scan"}, "fusion_lon": 0.0, "lat": 38.90449433333333, "bike_id": "e2c64a3e4e8c598075c7cd2ddfb38af6", "type": "electric_scooter", "is_reserved": 0, "lon": -76.97430483333333}, {"fusion_lat": 0.0, "name": "697a34ff4118c3c0f4392afed0155eaa", "is_disabled": 0, "rental_uris": {"android": "https://dc.lft.to/lastmile_qr_scan", "ios": "https://dc.lft.to/lastmile_qr_scan"}, "fusion_lon": 0.0, "lat": 38.90839733333333, "bike_id": "697a34ff4118c3c0f4392afed0155eaa", "type": "electric_scooter", "is_reserved": 0, "lon": -76.99975283333333}, {"fusion_lat": 0.0, "name": "46614598697590cbfaa97f26b4a7545a", "is_disabled": 0, "rental_uris": {"android": "https://dc.lft.to/lastmile_qr_scan", "ios": "https://dc.lft.to/lastmile_qr_scan"}, "fusion_lon": 0.0, "lat": 38.9014785, "bike_id": "46614598697590cbfaa97f26b4a7545a", "type": "electric_scooter", "is_reserved": 0, "lon": -77.00926216666667}, {"fusion_lat": 0.0, "name": "2d9bfce91212b9266bba48dfe0c142a7", "is_disabled": 0, "rental_uris": {"android": "https://dc.lft.to/lastmile_qr_scan", "ios": "https://dc.lft.to/lastmile_qr_scan"}, "fusion_lon": 0.0, "lat": 38.90991916666667, "bike_id": "2d9bfce91212b9266bba48dfe0c142a7", "type": "electric_scooter", "is_reserved": 0, "lon": -77.023905}, {"fusion_lat": 0.0, "name": "07b9a0b56baa7c8143a9779c8e42a569", "is_disabled": 0, "rental_uris": {"android": "https://dc.lft.to/lastmile_qr_scan", "ios": "https://dc.lft.to/lastmile_qr_scan"}, "fusion_lon": 0.0, "lat": 38.90771516666667, "bike_id": "07b9a0b56baa7c8143a9779c8e42a569", "type": "electric_scooter", "is_reserved": 0, "lon": -77.02948383333333}, {"fusion_lat": 0.0, "name": "21db50f6f64d8537d6711e1e120dd569", "is_disabled": 0, "rental_uris": {"android": "https://dc.lft.to/lastmile_qr_scan", "ios": "https://dc.lft.to/lastmile_qr_scan"}, "fusion_lon": 0.0, "lat": 38.91564433333333, "bike_id": "21db50f6f64d8537d6711e1e120dd569", "type": "electric_bike", "is_reserved": 0, "lon": -77.0093545}, {"fusion_lat": 0.0, "name": "5c349b25c1195f1863f120803485d32d", "is_disabled": 0, "rental_uris": {"android": "https://dc.lft.to/lastmile_qr_scan", "ios": "https://dc.lft.to/lastmile_qr_scan"}, "fusion_lon": 0.0, "lat": 38.901392333333334, "bike_id": "5c349b25c1195f1863f120803485d32d", "type": "electric_scooter", "is_reserved": 0, "lon": -77.06077883333333}, {"fusion_lat": 0.0, "name": "b4e2d40c253a75731c6ed5b145ea2253", "is_disabled": 0, "rental_uris": {"android": "https://dc.lft.to/lastmile_qr_scan", "ios": "https://dc.lft.to/lastmile_qr_scan"}, "fusion_lon": 0.0, "lat": 38.95181916666667, "bike_id": "b4e2d40c253a75731c6ed5b145ea2253", "type": "electric_scooter", "is_reserved": 0, "lon": -77.02721683333333}, {"fusion_lat": 0.0, "name": "84e7f257e9f342d168711e7cf3f45ca0", "is_disabled": 0, "rental_uris": {"android": "https://dc.lft.to/lastmile_qr_scan", "ios": "https://dc.lft.to/lastmile_qr_scan"}, "fusion_lon": 0.0, "lat": 38.87794433333333, "bike_id": "84e7f257e9f342d168711e7cf3f45ca0", "type": "electric_scooter", "is_reserved": 0, "lon": -77.00123733333334}, {"fusion_lat": 0.0, "name": "102712e84fb2eb5cf59f99a48d3ae90c", "is_disabled": 0, "rental_uris": {"android": "https://dc.lft.to/lastmile_qr_scan", "ios": "https://dc.lft.to/lastmile_qr_scan"}, "fusion_lon": 0.0, "lat": 38.9027405, "bike_id": "102712e84fb2eb5cf59f99a48d3ae90c", "type": "electric_scooter", "is_reserved": 0, "lon": -77.0531705}, {"fusion_lat": 0.0, "name": "f59d908edab28f39e6f2e530ece14f2a", "is_disabled": 0, "rental_uris": {"android": "https://dc.lft.to/lastmile_qr_scan", "ios": "https://dc.lft.to/lastmile_qr_scan"}, "fusion_lon": 0.0, "lat": 38.89608316666666, "bike_id": "f59d908edab28f39e6f2e530ece14f2a", "type": "electric_scooter", "is_reserved": 0, "lon": -77.0265675}, {"fusion_lat": 0.0, "name": "97d7f2cbe810148b07cd9b7374e52726", "is_disabled": 0, "rental_uris": {"android": "https://dc.lft.to/lastmile_qr_scan", "ios": "https://dc.lft.to/lastmile_qr_scan"}, "fusion_lon": 0.0, "lat": 38.87938483333333, "bike_id": "97d7f2cbe810148b07cd9b7374e52726", "type": "electric_scooter", "is_reserved": 0, "lon": -77.00897533333334}, {"fusion_lat": 0.0, "name": "93b5b1b74ac38e7fa0d362d4a3ea4d05", "is_disabled": 0, "rental_uris": {"android": "https://dc.lft.to/lastmile_qr_scan", "ios": "https://dc.lft.to/lastmile_qr_scan"}, "fusion_lon": 0.0, "lat": 38.884245666666665, "bike_id": "93b5b1b74ac38e7fa0d362d4a3ea4d05", "type": "electric_bike", "is_reserved": 0, "lon": -76.95400266666667}, {"fusion_lat": 0.0, "name": "da39d6216fac4f9f3f68be19f3cdfc6a", "is_disabled": 0, "rental_uris": {"android": "https://dc.lft.to/lastmile_qr_scan", "ios": "https://dc.lft.to/lastmile_qr_scan"}, "fusion_lon": 0.0, "lat": 38.887223, "bike_id": "da39d6216fac4f9f3f68be19f3cdfc6a", "type": "electric_scooter", "is_reserved": 0, "lon": -76.99643366666666}, {"fusion_lat": 0.0, "name": "04800ad45b3ed593aacf6a4472eff5e4", "is_disabled": 0, "rental_uris": {"android": "https://dc.lft.to/lastmile_qr_scan", "ios": "https://dc.lft.to/lastmile_qr_scan"}, "fusion_lon": 0.0, "lat": 38.9182585, "bike_id": "04800ad45b3ed593aacf6a4472eff5e4", "type": "electric_scooter", "is_reserved": 0, "lon": -77.041707}, {"fusion_lat": 0.0, "name": "8cb49258e022992e4a94d891497f5f30", "is_disabled": 0, "rental_uris": {"android": "https://dc.lft.to/lastmile_qr_scan", "ios": "https://dc.lft.to/lastmile_qr_scan"}, "fusion_lon": 0.0, "lat": 38.935143, "bike_id": "8cb49258e022992e4a94d891497f5f30", "type": "electric_scooter", "is_reserved": 0, "lon": -77.05837883333334}, {"fusion_lat": 0.0, "name": "b4e1a8940622501d1901192ef42e40e6", "is_disabled": 0, "rental_uris": {"android": "https://dc.lft.to/lastmile_qr_scan", "ios": "https://dc.lft.to/lastmile_qr_scan"}, "fusion_lon": 0.0, "lat": 38.887389166666665, "bike_id": "b4e1a8940622501d1901192ef42e40e6", "type": "electric_scooter", "is_reserved": 0, "lon": -77.0258005}, {"fusion_lat": 0.0, "name": "8f01debc7030db755fe55646c328b267", "is_disabled": 0, "rental_uris": {"android": "https://dc.lft.to/lastmile_qr_scan", "ios": "https://dc.lft.to/lastmile_qr_scan"}, "fusion_lon": 0.0, "lat": 38.9177475, "bike_id": "8f01debc7030db755fe55646c328b267", "type": "electric_scooter", "is_reserved": 0, "lon": -77.04770566666667}, {"fusion_lat": 0.0, "name": "8a68204e66797a0b70cb909a5bf0125c", "is_disabled": 0, "rental_uris": {"android": "https://dc.lft.to/lastmile_qr_scan", "ios": "https://dc.lft.to/lastmile_qr_scan"}, "fusion_lon": 0.0, "lat": 38.914870666666665, "bike_id": "8a68204e66797a0b70cb909a5bf0125c", "type": "electric_scooter", "is_reserved": 0, "lon": -77.03725666666666}, {"fusion_lat": 0.0, "name": "79497aa44aadd10ccb44eff206816d80", "is_disabled": 0, "rental_uris": {"android": "https://dc.lft.to/lastmile_qr_scan", "ios": "https://dc.lft.to/lastmile_qr_scan"}, "fusion_lon": 0.0, "lat": 38.892243666666666, "bike_id": "79497aa44aadd10ccb44eff206816d80", "type": "electric_scooter", "is_reserved": 0, "lon": -77.046799}, {"fusion_lat": 0.0, "name": "d147f556d38bc4cbb687996cea288cac", "is_disabled": 0, "rental_uris": {"android": "https://dc.lft.to/lastmile_qr_scan", "ios": "https://dc.lft.to/lastmile_qr_scan"}, "fusion_lon": 0.0, "lat": 38.88738516666667, "bike_id": "d147f556d38bc4cbb687996cea288cac", "type": "electric_scooter", "is_reserved": 0, "lon": -77.01531416666667}, {"fusion_lat": 0.0, "name": "295d8467148bf708f2f167468612ba57", "is_disabled": 0, "rental_uris": {"android": "https://dc.lft.to/lastmile_qr_scan", "ios": "https://dc.lft.to/lastmile_qr_scan"}, "fusion_lon": 0.0, "lat": 38.87895983333333, "bike_id": "295d8467148bf708f2f167468612ba57", "type": "electric_scooter", "is_reserved": 0, "lon": -77.02283016666667}, {"fusion_lat": 0.0, "name": "5022874ad9c9c829e294f869ac13548f", "is_disabled": 0, "rental_uris": {"android": "https://dc.lft.to/lastmile_qr_scan", "ios": "https://dc.lft.to/lastmile_qr_scan"}, "fusion_lon": 0.0, "lat": 38.911200666666666, "bike_id": "5022874ad9c9c829e294f869ac13548f", "type": "electric_scooter", "is_reserved": 0, "lon": -77.03147783333333}, {"fusion_lat": 0.0, "name": "6748fb893d994a07e08ddf32b675b529", "is_disabled": 0, "rental_uris": {"android": "https://dc.lft.to/lastmile_qr_scan", "ios": "https://dc.lft.to/lastmile_qr_scan"}, "fusion_lon": 0.0, "lat": 38.874316, "bike_id": "6748fb893d994a07e08ddf32b675b529", "type": "electric_scooter", "is_reserved": 0, "lon": -77.0186955}, {"fusion_lat": 0.0, "name": "e0aaf57de2d209edb6be2d72e73c44a7", "is_disabled": 0, "rental_uris": {"android": "https://dc.lft.to/lastmile_qr_scan", "ios": "https://dc.lft.to/lastmile_qr_scan"}, "fusion_lon": 0.0, "lat": 38.90267866666667, "bike_id": "e0aaf57de2d209edb6be2d72e73c44a7", "type": "electric_scooter", "is_reserved": 0, "lon": -77.003334}, {"fusion_lat": 0.0, "name": "18f802a69252ae54f6f53af827193223", "is_disabled": 0, "rental_uris": {"android": "https://dc.lft.to/lastmile_qr_scan", "ios": "https://dc.lft.to/lastmile_qr_scan"}, "fusion_lon": 0.0, "lat": 38.915624333333334, "bike_id": "18f802a69252ae54f6f53af827193223", "type": "electric_scooter", "is_reserved": 0, "lon": -77.0213585}, {"fusion_lat": 0.0, "name": "a4fc9dc76f52db14a1230252b189f4df", "is_disabled": 0, "rental_uris": {"android": "https://dc.lft.to/lastmile_qr_scan", "ios": "https://dc.lft.to/lastmile_qr_scan"}, "fusion_lon": 0.0, "lat": 38.89223533333333, "bike_id": "a4fc9dc76f52db14a1230252b189f4df", "type": "electric_scooter", "is_reserved": 0, "lon": -77.0397825}, {"fusion_lat": 0.0, "name": "b4c5bae5c98d5c21fb71a71aaad263f3", "is_disabled": 0, "rental_uris": {"android": "https://dc.lft.to/lastmile_qr_scan", "ios": "https://dc.lft.to/lastmile_qr_scan"}, "fusion_lon": 0.0, "lat": 38.907328666666665, "bike_id": "b4c5bae5c98d5c21fb71a71aaad263f3", "type": "electric_scooter", "is_reserved": 0, "lon": -76.997835}, {"fusion_lat": 0.0, "name": "570344c3dec96d92e94f2dd7e269713a", "is_disabled": 0, "rental_uris": {"android": "https://dc.lft.to/lastmile_qr_scan", "ios": "https://dc.lft.to/lastmile_qr_scan"}, "fusion_lon": 0.0, "lat": 38.97883133333333, "bike_id": "570344c3dec96d92e94f2dd7e269713a", "type": "electric_bike", "is_reserved": 0, "lon": -77.060248}, {"fusion_lat": 0.0, "name": "f80eee9b911c28b99e097ad8806c835f", "is_disabled": 0, "rental_uris": {"android": "https://dc.lft.to/lastmile_qr_scan", "ios": "https://dc.lft.to/lastmile_qr_scan"}, "fusion_lon": 0.0, "lat": 38.839361833333335, "bike_id": "f80eee9b911c28b99e097ad8806c835f", "type": "electric_bike", "is_reserved": 0, "lon": -77.07895933333333}, {"fusion_lat": 0.0, "name": "f90ff93ef775454cf6521ad3fd1f5c6a", "is_disabled": 0, "rental_uris": {"android": "https://dc.lft.to/lastmile_qr_scan", "ios": "https://dc.lft.to/lastmile_qr_scan"}, "fusion_lon": 0.0, "lat": 38.93578683333333, "bike_id": "f90ff93ef775454cf6521ad3fd1f5c6a", "type": "electric_bike", "is_reserved": 0, "lon": -77.0373965}, {"fusion_lat": 0.0, "name": "cebe3bd33a85e45214370a818fabf331", "is_disabled": 0, "rental_uris": {"android": "https://dc.lft.to/lastmile_qr_scan", "ios": "https://dc.lft.to/lastmile_qr_scan"}, "fusion_lon": 0.0, "lat": 38.89696, "bike_id": "cebe3bd33a85e45214370a818fabf331", "type": "electric_scooter", "is_reserved": 0, "lon": -77.03241233333334}, {"fusion_lat": 0.0, "name": "bfe9db08b6ceb13d16a36524c3f1ef01", "is_disabled": 0, "rental_uris": {"android": "https://dc.lft.to/lastmile_qr_scan", "ios": "https://dc.lft.to/lastmile_qr_scan"}, "fusion_lon": 0.0, "lat": 38.885065, "bike_id": "bfe9db08b6ceb13d16a36524c3f1ef01", "type": "electric_scooter", "is_reserved": 0, "lon": -76.99755633333334}, {"fusion_lat": 0.0, "name": "d47915f7bc8e874015a2706d7aee2ca9", "is_disabled": 0, "rental_uris": {"android": "https://dc.lft.to/lastmile_qr_scan", "ios": "https://dc.lft.to/lastmile_qr_scan"}, "fusion_lon": 0.0, "lat": 38.9282605, "bike_id": "d47915f7bc8e874015a2706d7aee2ca9", "type": "electric_bike", "is_reserved": 0, "lon": -77.0542245}, {"fusion_lat": 0.0, "name": "a2642087693879b59c89c0846799bc04", "is_disabled": 0, "rental_uris": {"android": "https://dc.lft.to/lastmile_qr_scan", "ios": "https://dc.lft.to/lastmile_qr_scan"}, "fusion_lon": 0.0, "lat": 38.91772866666667, "bike_id": "a2642087693879b59c89c0846799bc04", "type": "electric_scooter", "is_reserved": 0, "lon": -77.01925}, {"fusion_lat": 0.0, "name": "63fc3e73022aa639ba02025db3929566", "is_disabled": 0, "rental_uris": {"android": "https://dc.lft.to/lastmile_qr_scan", "ios": "https://dc.lft.to/lastmile_qr_scan"}, "fusion_lon": 0.0, "lat": 38.816088, "bike_id": "63fc3e73022aa639ba02025db3929566", "type": "electric_bike", "is_reserved": 0, "lon": -76.99663366666667}, {"fusion_lat": 0.0, "name": "5978710fe02bfdfdb9b6dd6029ec8f05", "is_disabled": 0, "rental_uris": {"android": "https://dc.lft.to/lastmile_qr_scan", "ios": "https://dc.lft.to/lastmile_qr_scan"}, "fusion_lon": 0.0, "lat": 39.0141835, "bike_id": "5978710fe02bfdfdb9b6dd6029ec8f05", "type": "electric_bike", "is_reserved": 0, "lon": -77.0450195}, {"fusion_lat": 0.0, "name": "f78401d3066c70df808e96c2ce94240e", "is_disabled": 0, "rental_uris": {"android": "https://dc.lft.to/lastmile_qr_scan", "ios": "https://dc.lft.to/lastmile_qr_scan"}, "fusion_lon": 0.0, "lat": 38.849160166666664, "bike_id": "f78401d3066c70df808e96c2ce94240e", "type": "electric_bike", "is_reserved": 0, "lon": -77.07928916666667}, {"fusion_lat": 0.0, "name": "030aba2e0383093f5f3f62063b47d642", "is_disabled": 0, "rental_uris": {"android": "https://dc.lft.to/lastmile_qr_scan", "ios": "https://dc.lft.to/lastmile_qr_scan"}, "fusion_lon": 0.0, "lat": 38.92229, "bike_id": "030aba2e0383093f5f3f62063b47d642", "type": "electric_scooter", "is_reserved": 0, "lon": -77.02113033333333}, {"fusion_lat": 0.0, "name": "45552172dbdd806b2ff26632733ac7d9", "is_disabled": 0, "rental_uris": {"android": "https://dc.lft.to/lastmile_qr_scan", "ios": "https://dc.lft.to/lastmile_qr_scan"}, "fusion_lon": 0.0, "lat": 38.91809883333333, "bike_id": "45552172dbdd806b2ff26632733ac7d9", "type": "electric_scooter", "is_reserved": 0, "lon": -77.03338}, {"fusion_lat": 0.0, "name": "d6b0201b6594b0bb4c442bce63d43c13", "is_disabled": 0, "rental_uris": {"android": "https://dc.lft.to/lastmile_qr_scan", "ios": "https://dc.lft.to/lastmile_qr_scan"}, "fusion_lon": 0.0, "lat": 38.914928, "bike_id": "d6b0201b6594b0bb4c442bce63d43c13", "type": "electric_scooter", "is_reserved": 0, "lon": -77.0455315}, {"fusion_lat": 0.0, "name": "902e806939926db8c1e70e589ab671b8", "is_disabled": 0, "rental_uris": {"android": "https://dc.lft.to/lastmile_qr_scan", "ios": "https://dc.lft.to/lastmile_qr_scan"}, "fusion_lon": 0.0, "lat": 38.8996095, "bike_id": "902e806939926db8c1e70e589ab671b8", "type": "electric_scooter", "is_reserved": 0, "lon": -77.0404395}, {"fusion_lat": 0.0, "name": "4f6a6a75c1c33533bb7fa3dfffd51d23", "is_disabled": 0, "rental_uris": {"android": "https://dc.lft.to/lastmile_qr_scan", "ios": "https://dc.lft.to/lastmile_qr_scan"}, "fusion_lon": 0.0, "lat": 38.876361833333334, "bike_id": "4f6a6a75c1c33533bb7fa3dfffd51d23", "type": "electric_scooter", "is_reserved": 0, "lon": -77.009506}, {"fusion_lat": 0.0, "name": "95d1c16e162a8f9d7d73932edb804f65", "is_disabled": 0, "rental_uris": {"android": "https://dc.lft.to/lastmile_qr_scan", "ios": "https://dc.lft.to/lastmile_qr_scan"}, "fusion_lon": 0.0, "lat": 38.9261785, "bike_id": "95d1c16e162a8f9d7d73932edb804f65", "type": "electric_scooter", "is_reserved": 0, "lon": -77.0222185}, {"fusion_lat": 0.0, "name": "6a99f08e858d4cd462daf0f3604df5c7", "is_disabled": 0, "rental_uris": {"android": "https://dc.lft.to/lastmile_qr_scan", "ios": "https://dc.lft.to/lastmile_qr_scan"}, "fusion_lon": 0.0, "lat": 38.9095595, "bike_id": "6a99f08e858d4cd462daf0f3604df5c7", "type": "electric_scooter", "is_reserved": 0, "lon": -77.0240475}, {"fusion_lat": 0.0, "name": "b6c2d5bce3a81039927b544d95ef3e3e", "is_disabled": 0, "rental_uris": {"android": "https://dc.lft.to/lastmile_qr_scan", "ios": "https://dc.lft.to/lastmile_qr_scan"}, "fusion_lon": 0.0, "lat": 38.936073666666665, "bike_id": "b6c2d5bce3a81039927b544d95ef3e3e", "type": "electric_scooter", "is_reserved": 0, "lon": -77.05862516666667}, {"fusion_lat": 0.0, "name": "464f850f13182f88b6a298226565bf52", "is_disabled": 0, "rental_uris": {"android": "https://dc.lft.to/lastmile_qr_scan", "ios": "https://dc.lft.to/lastmile_qr_scan"}, "fusion_lon": 0.0, "lat": 38.914541666666665, "bike_id": "464f850f13182f88b6a298226565bf52", "type": "electric_scooter", "is_reserved": 0, "lon": -77.00647433333333}, {"fusion_lat": 0.0, "name": "f3b2a3821850c3b44e4d9ec758f10937", "is_disabled": 0, "rental_uris": {"android": "https://dc.lft.to/lastmile_qr_scan", "ios": "https://dc.lft.to/lastmile_qr_scan"}, "fusion_lon": 0.0, "lat": 38.9003795, "bike_id": "f3b2a3821850c3b44e4d9ec758f10937", "type": "electric_scooter", "is_reserved": 0, "lon": -77.03985033333333}, {"fusion_lat": 0.0, "name": "b249da6452d248357f0de6fa53a0c17a", "is_disabled": 0, "rental_uris": {"android": "https://dc.lft.to/lastmile_qr_scan", "ios": "https://dc.lft.to/lastmile_qr_scan"}, "fusion_lon": 0.0, "lat": 38.892376166666665, "bike_id": "b249da6452d248357f0de6fa53a0c17a", "type": "electric_scooter", "is_reserved": 0, "lon": -77.04878216666667}, {"fusion_lat": 0.0, "name": "12dd5b0b9789c9f07bc2ac107b2e9155", "is_disabled": 0, "rental_uris": {"android": "https://dc.lft.to/lastmile_qr_scan", "ios": "https://dc.lft.to/lastmile_qr_scan"}, "fusion_lon": 0.0, "lat": 38.899529333333334, "bike_id": "12dd5b0b9789c9f07bc2ac107b2e9155", "type": "electric_scooter", "is_reserved": 0, "lon": -77.0416625}, {"fusion_lat": 0.0, "name": "d122a937ce3303e13e5227c9ca98b908", "is_disabled": 0, "rental_uris": {"android": "https://dc.lft.to/lastmile_qr_scan", "ios": "https://dc.lft.to/lastmile_qr_scan"}, "fusion_lon": 0.0, "lat": 38.914069166666664, "bike_id": "d122a937ce3303e13e5227c9ca98b908", "type": "electric_scooter", "is_reserved": 0, "lon": -77.048701}, {"fusion_lat": 0.0, "name": "fa7b659764b14d51256f4167271d5037", "is_disabled": 0, "rental_uris": {"android": "https://dc.lft.to/lastmile_qr_scan", "ios": "https://dc.lft.to/lastmile_qr_scan"}, "fusion_lon": 0.0, "lat": 38.90957433333333, "bike_id": "fa7b659764b14d51256f4167271d5037", "type": "electric_scooter", "is_reserved": 0, "lon": -77.03771083333334}, {"fusion_lat": 0.0, "name": "6ea061c0f7e66e6ca21a004a11c3bb0e", "is_disabled": 0, "rental_uris": {"android": "https://dc.lft.to/lastmile_qr_scan", "ios": "https://dc.lft.to/lastmile_qr_scan"}, "fusion_lon": 0.0, "lat": 38.907407666666664, "bike_id": "6ea061c0f7e66e6ca21a004a11c3bb0e", "type": "electric_scooter", "is_reserved": 0, "lon": -77.04512266666667}, {"fusion_lat": 0.0, "name": "aa6fd92eeee81a12f9735240fafa7946", "is_disabled": 0, "rental_uris": {"android": "https://dc.lft.to/lastmile_qr_scan", "ios": "https://dc.lft.to/lastmile_qr_scan"}, "fusion_lon": 0.0, "lat": 38.90718016666667, "bike_id": "aa6fd92eeee81a12f9735240fafa7946", "type": "electric_scooter", "is_reserved": 0, "lon": -77.0076365}, {"fusion_lat": 0.0, "name": "de3816a654d474fc53895b980430fa11", "is_disabled": 0, "rental_uris": {"android": "https://dc.lft.to/lastmile_qr_scan", "ios": "https://dc.lft.to/lastmile_qr_scan"}, "fusion_lon": 0.0, "lat": 38.87787216666667, "bike_id": "de3816a654d474fc53895b980430fa11", "type": "electric_scooter", "is_reserved": 0, "lon": -76.99409133333333}, {"fusion_lat": 0.0, "name": "a9478b299103b456012d86840c3b0844", "is_disabled": 0, "rental_uris": {"android": "https://dc.lft.to/lastmile_qr_scan", "ios": "https://dc.lft.to/lastmile_qr_scan"}, "fusion_lon": 0.0, "lat": 38.91422933333333, "bike_id": "a9478b299103b456012d86840c3b0844", "type": "electric_scooter", "is_reserved": 0, "lon": -77.03814616666666}, {"fusion_lat": 0.0, "name": "f32f3f8e01b627d6cd329a2bedc60fe1", "is_disabled": 0, "rental_uris": {"android": "https://dc.lft.to/lastmile_qr_scan", "ios": "https://dc.lft.to/lastmile_qr_scan"}, "fusion_lon": 0.0, "lat": 38.90000083333334, "bike_id": "f32f3f8e01b627d6cd329a2bedc60fe1", "type": "electric_scooter", "is_reserved": 0, "lon": -77.02333566666667}, {"fusion_lat": 0.0, "name": "51e2e5863e2c5391363bbf3211ac0da5", "is_disabled": 0, "rental_uris": {"android": "https://dc.lft.to/lastmile_qr_scan", "ios": "https://dc.lft.to/lastmile_qr_scan"}, "fusion_lon": 0.0, "lat": 38.905973833333334, "bike_id": "51e2e5863e2c5391363bbf3211ac0da5", "type": "electric_scooter", "is_reserved": 0, "lon": -76.98805383333334}, {"fusion_lat": 0.0, "name": "9a95f3f21e28c09ca14e134552e7719f", "is_disabled": 0, "rental_uris": {"android": "https://dc.lft.to/lastmile_qr_scan", "ios": "https://dc.lft.to/lastmile_qr_scan"}, "fusion_lon": 0.0, "lat": 38.816002166666664, "bike_id": "9a95f3f21e28c09ca14e134552e7719f", "type": "electric_bike", "is_reserved": 0, "lon": -77.050535}, {"fusion_lat": 0.0, "name": "6c7df2222a8e0373c2637cd624dbb1fc", "is_disabled": 0, "rental_uris": {"android": "https://dc.lft.to/lastmile_qr_scan", "ios": "https://dc.lft.to/lastmile_qr_scan"}, "fusion_lon": 0.0, "lat": 38.89543366666667, "bike_id": "6c7df2222a8e0373c2637cd624dbb1fc", "type": "electric_scooter", "is_reserved": 0, "lon": -76.98212383333333}, {"fusion_lat": 0.0, "name": "1d8f617ee7f0e52faf7ae6d9c82a0c59", "is_disabled": 0, "rental_uris": {"android": "https://dc.lft.to/lastmile_qr_scan", "ios": "https://dc.lft.to/lastmile_qr_scan"}, "fusion_lon": 0.0, "lat": 38.916217333333336, "bike_id": "1d8f617ee7f0e52faf7ae6d9c82a0c59", "type": "electric_scooter", "is_reserved": 0, "lon": -77.01125916666666}, {"fusion_lat": 0.0, "name": "ed7f3cc10d60d98675d5251d8ecc4185", "is_disabled": 0, "rental_uris": {"android": "https://dc.lft.to/lastmile_qr_scan", "ios": "https://dc.lft.to/lastmile_qr_scan"}, "fusion_lon": 0.0, "lat": 38.964472, "bike_id": "ed7f3cc10d60d98675d5251d8ecc4185", "type": "electric_bike", "is_reserved": 0, "lon": -77.03157}, {"fusion_lat": 0.0, "name": "483142a0b11c4170281a194f6705eb8d", "is_disabled": 0, "rental_uris": {"android": "https://dc.lft.to/lastmile_qr_scan", "ios": "https://dc.lft.to/lastmile_qr_scan"}, "fusion_lon": 0.0, "lat": 38.909304, "bike_id": "483142a0b11c4170281a194f6705eb8d", "type": "electric_scooter", "is_reserved": 0, "lon": -77.04572433333334}, {"fusion_lat": 0.0, "name": "fc79bdc324d797e4b0f08e603cf93492", "is_disabled": 0, "rental_uris": {"android": "https://dc.lft.to/lastmile_qr_scan", "ios": "https://dc.lft.to/lastmile_qr_scan"}, "fusion_lon": 0.0, "lat": 38.8961665, "bike_id": "fc79bdc324d797e4b0f08e603cf93492", "type": "electric_scooter", "is_reserved": 0, "lon": -77.03078166666667}, {"fusion_lat": 0.0, "name": "58063bb75e091044f418e7c4970a53dd", "is_disabled": 0, "rental_uris": {"android": "https://dc.lft.to/lastmile_qr_scan", "ios": "https://dc.lft.to/lastmile_qr_scan"}, "fusion_lon": 0.0, "lat": 38.89876733333333, "bike_id": "58063bb75e091044f418e7c4970a53dd", "type": "electric_scooter", "is_reserved": 0, "lon": -77.05281233333334}, {"fusion_lat": 0.0, "name": "3b2a13bdcdbda07bc44cf1bd3885cb20", "is_disabled": 0, "rental_uris": {"android": "https://dc.lft.to/lastmile_qr_scan", "ios": "https://dc.lft.to/lastmile_qr_scan"}, "fusion_lon": 0.0, "lat": 38.902443, "bike_id": "3b2a13bdcdbda07bc44cf1bd3885cb20", "type": "electric_scooter", "is_reserved": 0, "lon": -77.007444}, {"fusion_lat": 0.0, "name": "2135fccd99fb39c3e2a5e5c1efad4565", "is_disabled": 0, "rental_uris": {"android": "https://dc.lft.to/lastmile_qr_scan", "ios": "https://dc.lft.to/lastmile_qr_scan"}, "fusion_lon": 0.0, "lat": 38.904011, "bike_id": "2135fccd99fb39c3e2a5e5c1efad4565", "type": "electric_scooter", "is_reserved": 0, "lon": -77.0678725}, {"fusion_lat": 0.0, "name": "214ce66a771a45f04f30f162d920e42a", "is_disabled": 0, "rental_uris": {"android": "https://dc.lft.to/lastmile_qr_scan", "ios": "https://dc.lft.to/lastmile_qr_scan"}, "fusion_lon": 0.0, "lat": 38.89719083333333, "bike_id": "214ce66a771a45f04f30f162d920e42a", "type": "electric_scooter", "is_reserved": 0, "lon": -77.00838766666666}, {"fusion_lat": 0.0, "name": "b3c6bdf7b5817fb2fa2fcba838dd3fed", "is_disabled": 0, "rental_uris": {"android": "https://dc.lft.to/lastmile_qr_scan", "ios": "https://dc.lft.to/lastmile_qr_scan"}, "fusion_lon": 0.0, "lat": 38.923735666666666, "bike_id": "b3c6bdf7b5817fb2fa2fcba838dd3fed", "type": "electric_scooter", "is_reserved": 0, "lon": -77.031327}, {"fusion_lat": 0.0, "name": "9edca6ce537d062518bef7e540e4b7dc", "is_disabled": 0, "rental_uris": {"android": "https://dc.lft.to/lastmile_qr_scan", "ios": "https://dc.lft.to/lastmile_qr_scan"}, "fusion_lon": 0.0, "lat": 38.9168615, "bike_id": "9edca6ce537d062518bef7e540e4b7dc", "type": "electric_scooter", "is_reserved": 0, "lon": -77.033313}, {"fusion_lat": 0.0, "name": "c448dc144b22fcd0797b3c6f83f0bf1c", "is_disabled": 0, "rental_uris": {"android": "https://dc.lft.to/lastmile_qr_scan", "ios": "https://dc.lft.to/lastmile_qr_scan"}, "fusion_lon": 0.0, "lat": 38.956404166666665, "bike_id": "c448dc144b22fcd0797b3c6f83f0bf1c", "type": "electric_scooter", "is_reserved": 0, "lon": -77.032964}, {"fusion_lat": 0.0, "name": "38a0bee4bc7fd0ce3c6ea3688d4c76f9", "is_disabled": 0, "rental_uris": {"android": "https://dc.lft.to/lastmile_qr_scan", "ios": "https://dc.lft.to/lastmile_qr_scan"}, "fusion_lon": 0.0, "lat": 38.91774383333333, "bike_id": "38a0bee4bc7fd0ce3c6ea3688d4c76f9", "type": "electric_scooter", "is_reserved": 0, "lon": -77.04100216666667}, {"fusion_lat": 0.0, "name": "9c9e20e6562fb079f2d227dc4c530ac6", "is_disabled": 0, "rental_uris": {"android": "https://dc.lft.to/lastmile_qr_scan", "ios": "https://dc.lft.to/lastmile_qr_scan"}, "fusion_lon": 0.0, "lat": 38.8899025, "bike_id": "9c9e20e6562fb079f2d227dc4c530ac6", "type": "electric_scooter", "is_reserved": 0, "lon": -76.98734433333334}, {"fusion_lat": 0.0, "name": "afb64443a4e8074c2b8a8bbfb815e260", "is_disabled": 0, "rental_uris": {"android": "https://dc.lft.to/lastmile_qr_scan", "ios": "https://dc.lft.to/lastmile_qr_scan"}, "fusion_lon": 0.0, "lat": 38.898397, "bike_id": "afb64443a4e8074c2b8a8bbfb815e260", "type": "electric_scooter", "is_reserved": 0, "lon": -77.03150116666667}, {"fusion_lat": 0.0, "name": "49328218cf2f2f549c3c59509407596e", "is_disabled": 0, "rental_uris": {"android": "https://dc.lft.to/lastmile_qr_scan", "ios": "https://dc.lft.to/lastmile_qr_scan"}, "fusion_lon": 0.0, "lat": 38.8959105, "bike_id": "49328218cf2f2f549c3c59509407596e", "type": "electric_scooter", "is_reserved": 0, "lon": -77.0298485}, {"fusion_lat": 0.0, "name": "3bb8e47ecbd9ca3badcb4b26f8499735", "is_disabled": 0, "rental_uris": {"android": "https://dc.lft.to/lastmile_qr_scan", "ios": "https://dc.lft.to/lastmile_qr_scan"}, "fusion_lon": 0.0, "lat": 38.90027666666667, "bike_id": "3bb8e47ecbd9ca3badcb4b26f8499735", "type": "electric_scooter", "is_reserved": 0, "lon": -77.01188833333333}, {"fusion_lat": 0.0, "name": "b2152e412d135337d71a497a0d8b3a49", "is_disabled": 0, "rental_uris": {"android": "https://dc.lft.to/lastmile_qr_scan", "ios": "https://dc.lft.to/lastmile_qr_scan"}, "fusion_lon": 0.0, "lat": 38.92095283333333, "bike_id": "b2152e412d135337d71a497a0d8b3a49", "type": "electric_scooter", "is_reserved": 0, "lon": -77.02313333333333}, {"fusion_lat": 0.0, "name": "3b997f81a53e456cc7565e0453c85d3d", "is_disabled": 0, "rental_uris": {"android": "https://dc.lft.to/lastmile_qr_scan", "ios": "https://dc.lft.to/lastmile_qr_scan"}, "fusion_lon": 0.0, "lat": 38.887343666666666, "bike_id": "3b997f81a53e456cc7565e0453c85d3d", "type": "electric_scooter", "is_reserved": 0, "lon": -77.02583166666666}, {"fusion_lat": 0.0, "name": "7c198c0ac2ebe2f5804d6800a511d27e", "is_disabled": 0, "rental_uris": {"android": "https://dc.lft.to/lastmile_qr_scan", "ios": "https://dc.lft.to/lastmile_qr_scan"}, "fusion_lon": 0.0, "lat": 38.92098983333333, "bike_id": "7c198c0ac2ebe2f5804d6800a511d27e", "type": "electric_scooter", "is_reserved": 0, "lon": -77.02517466666667}, {"fusion_lat": 0.0, "name": "eff9ecab9d2984fae765e761b163adee", "is_disabled": 0, "rental_uris": {"android": "https://dc.lft.to/lastmile_qr_scan", "ios": "https://dc.lft.to/lastmile_qr_scan"}, "fusion_lon": 0.0, "lat": 38.883261166666664, "bike_id": "eff9ecab9d2984fae765e761b163adee", "type": "electric_scooter", "is_reserved": 0, "lon": -77.01768683333333}, {"fusion_lat": 0.0, "name": "653336afd59314b5e0905cedf160cb6a", "is_disabled": 0, "rental_uris": {"android": "https://dc.lft.to/lastmile_qr_scan", "ios": "https://dc.lft.to/lastmile_qr_scan"}, "fusion_lon": 0.0, "lat": 38.884866833333334, "bike_id": "653336afd59314b5e0905cedf160cb6a", "type": "electric_scooter", "is_reserved": 0, "lon": -77.02086866666667}, {"fusion_lat": 0.0, "name": "29b75be0598615fb816644e119910960", "is_disabled": 0, "rental_uris": {"android": "https://dc.lft.to/lastmile_qr_scan", "ios": "https://dc.lft.to/lastmile_qr_scan"}, "fusion_lon": 0.0, "lat": 38.915544, "bike_id": "29b75be0598615fb816644e119910960", "type": "electric_scooter", "is_reserved": 0, "lon": -77.03253566666666}, {"fusion_lat": 0.0, "name": "bd77e7a561f526e4f19d5ecca861ed2a", "is_disabled": 0, "rental_uris": {"android": "https://dc.lft.to/lastmile_qr_scan", "ios": "https://dc.lft.to/lastmile_qr_scan"}, "fusion_lon": 0.0, "lat": 38.90986983333333, "bike_id": "bd77e7a561f526e4f19d5ecca861ed2a", "type": "electric_scooter", "is_reserved": 0, "lon": -77.032969}, {"fusion_lat": 0.0, "name": "6cbe003f63d4735d3effc1fd07f4e239", "is_disabled": 0, "rental_uris": {"android": "https://dc.lft.to/lastmile_qr_scan", "ios": "https://dc.lft.to/lastmile_qr_scan"}, "fusion_lon": 0.0, "lat": 38.93081016666667, "bike_id": "6cbe003f63d4735d3effc1fd07f4e239", "type": "electric_scooter", "is_reserved": 0, "lon": -77.03745466666666}, {"fusion_lat": 0.0, "name": "c114eb501440300f6a664af05373035a", "is_disabled": 0, "rental_uris": {"android": "https://dc.lft.to/lastmile_qr_scan", "ios": "https://dc.lft.to/lastmile_qr_scan"}, "fusion_lon": 0.0, "lat": 38.902007833333336, "bike_id": "c114eb501440300f6a664af05373035a", "type": "electric_scooter", "is_reserved": 0, "lon": -77.06122066666667}, {"fusion_lat": 0.0, "name": "c24015c33c6c974c04d09c628de55ae4", "is_disabled": 0, "rental_uris": {"android": "https://dc.lft.to/lastmile_qr_scan", "ios": "https://dc.lft.to/lastmile_qr_scan"}, "fusion_lon": 0.0, "lat": 38.916371833333336, "bike_id": "c24015c33c6c974c04d09c628de55ae4", "type": "electric_scooter", "is_reserved": 0, "lon": -77.03199516666666}, {"fusion_lat": 0.0, "name": "9969983585e398f438f4cc84b78da78d", "is_disabled": 0, "rental_uris": {"android": "https://dc.lft.to/lastmile_qr_scan", "ios": "https://dc.lft.to/lastmile_qr_scan"}, "fusion_lon": 0.0, "lat": 38.80016666666667, "bike_id": "9969983585e398f438f4cc84b78da78d", "type": "electric_bike", "is_reserved": 0, "lon": -77.05483583333333}, {"fusion_lat": 0.0, "name": "2cd993f950ce7ba145b5b11b78349148", "is_disabled": 0, "rental_uris": {"android": "https://dc.lft.to/lastmile_qr_scan", "ios": "https://dc.lft.to/lastmile_qr_scan"}, "fusion_lon": 0.0, "lat": 38.922328, "bike_id": "2cd993f950ce7ba145b5b11b78349148", "type": "electric_scooter", "is_reserved": 0, "lon": -77.03427483333333}, {"fusion_lat": 0.0, "name": "cdb71e95bbb88c22da4309615cc79715", "is_disabled": 0, "rental_uris": {"android": "https://dc.lft.to/lastmile_qr_scan", "ios": "https://dc.lft.to/lastmile_qr_scan"}, "fusion_lon": 0.0, "lat": 38.90472966666667, "bike_id": "cdb71e95bbb88c22da4309615cc79715", "type": "electric_scooter", "is_reserved": 0, "lon": -77.04351983333333}, {"fusion_lat": 0.0, "name": "a4dccc44acd2113404d62e77a852dc4c", "is_disabled": 0, "rental_uris": {"android": "https://dc.lft.to/lastmile_qr_scan", "ios": "https://dc.lft.to/lastmile_qr_scan"}, "fusion_lon": 0.0, "lat": 38.864508666666666, "bike_id": "a4dccc44acd2113404d62e77a852dc4c", "type": "electric_scooter", "is_reserved": 0, "lon": -76.97987833333333}, {"fusion_lat": 0.0, "name": "830c2cfb64f93f4fd7fd244c5faee0f2", "is_disabled": 0, "rental_uris": {"android": "https://dc.lft.to/lastmile_qr_scan", "ios": "https://dc.lft.to/lastmile_qr_scan"}, "fusion_lon": 0.0, "lat": 38.892266166666666, "bike_id": "830c2cfb64f93f4fd7fd244c5faee0f2", "type": "electric_scooter", "is_reserved": 0, "lon": -77.026661}, {"fusion_lat": 0.0, "name": "3804b8aa72cebfcbe94ce79707876b3b", "is_disabled": 0, "rental_uris": {"android": "https://dc.lft.to/lastmile_qr_scan", "ios": "https://dc.lft.to/lastmile_qr_scan"}, "fusion_lon": 0.0, "lat": 38.90269383333333, "bike_id": "3804b8aa72cebfcbe94ce79707876b3b", "type": "electric_scooter", "is_reserved": 0, "lon": -77.03858933333333}, {"fusion_lat": 0.0, "name": "4e63f71a146a43bd32aa055792971c79", "is_disabled": 0, "rental_uris": {"android": "https://dc.lft.to/lastmile_qr_scan", "ios": "https://dc.lft.to/lastmile_qr_scan"}, "fusion_lon": 0.0, "lat": 38.84726083333334, "bike_id": "4e63f71a146a43bd32aa055792971c79", "type": "electric_scooter", "is_reserved": 0, "lon": -76.9824985}, {"fusion_lat": 0.0, "name": "894ec179132e6ecdb86f011094bbc11c", "is_disabled": 0, "rental_uris": {"android": "https://dc.lft.to/lastmile_qr_scan", "ios": "https://dc.lft.to/lastmile_qr_scan"}, "fusion_lon": 0.0, "lat": 38.915616, "bike_id": "894ec179132e6ecdb86f011094bbc11c", "type": "electric_scooter", "is_reserved": 0, "lon": -77.0316915}, {"fusion_lat": 0.0, "name": "d3815d9b4e4ae46c749b32b73daef94a", "is_disabled": 0, "rental_uris": {"android": "https://dc.lft.to/lastmile_qr_scan", "ios": "https://dc.lft.to/lastmile_qr_scan"}, "fusion_lon": 0.0, "lat": 38.878933, "bike_id": "d3815d9b4e4ae46c749b32b73daef94a", "type": "electric_scooter", "is_reserved": 0, "lon": -77.02315883333333}, {"fusion_lat": 0.0, "name": "ae15de00b8bed232d518de06995183c2", "is_disabled": 0, "rental_uris": {"android": "https://dc.lft.to/lastmile_qr_scan", "ios": "https://dc.lft.to/lastmile_qr_scan"}, "fusion_lon": 0.0, "lat": 38.91097583333333, "bike_id": "ae15de00b8bed232d518de06995183c2", "type": "electric_scooter", "is_reserved": 0, "lon": -77.04483416666666}, {"fusion_lat": 0.0, "name": "68a5bf36b03f7fff1c83ccb35e66b80d", "is_disabled": 0, "rental_uris": {"android": "https://dc.lft.to/lastmile_qr_scan", "ios": "https://dc.lft.to/lastmile_qr_scan"}, "fusion_lon": 0.0, "lat": 38.90984566666667, "bike_id": "68a5bf36b03f7fff1c83ccb35e66b80d", "type": "electric_scooter", "is_reserved": 0, "lon": -77.04412416666666}, {"fusion_lat": 0.0, "name": "3070cb0eb8301ac95d158974dfe06631", "is_disabled": 0, "rental_uris": {"android": "https://dc.lft.to/lastmile_qr_scan", "ios": "https://dc.lft.to/lastmile_qr_scan"}, "fusion_lon": 0.0, "lat": 38.936995333333336, "bike_id": "3070cb0eb8301ac95d158974dfe06631", "type": "electric_scooter", "is_reserved": 0, "lon": -77.0328075}, {"fusion_lat": 0.0, "name": "0391614c8f1e7525ab1e0ab739133d85", "is_disabled": 0, "rental_uris": {"android": "https://dc.lft.to/lastmile_qr_scan", "ios": "https://dc.lft.to/lastmile_qr_scan"}, "fusion_lon": 0.0, "lat": 38.8969955, "bike_id": "0391614c8f1e7525ab1e0ab739133d85", "type": "electric_scooter", "is_reserved": 0, "lon": -77.00761566666667}, {"fusion_lat": 0.0, "name": "3123cc884e93b5c2eb91b72c9230ce52", "is_disabled": 0, "rental_uris": {"android": "https://dc.lft.to/lastmile_qr_scan", "ios": "https://dc.lft.to/lastmile_qr_scan"}, "fusion_lon": 0.0, "lat": 38.92446866666667, "bike_id": "3123cc884e93b5c2eb91b72c9230ce52", "type": "electric_scooter", "is_reserved": 0, "lon": -77.0402475}, {"fusion_lat": 0.0, "name": "b3fbf8ad419ad3323c97e4a218bb8cba", "is_disabled": 0, "rental_uris": {"android": "https://dc.lft.to/lastmile_qr_scan", "ios": "https://dc.lft.to/lastmile_qr_scan"}, "fusion_lon": 0.0, "lat": 38.919652166666665, "bike_id": "b3fbf8ad419ad3323c97e4a218bb8cba", "type": "electric_scooter", "is_reserved": 0, "lon": -77.01779466666666}, {"fusion_lat": 0.0, "name": "b05ad6ea3888ee15d69d8282531306d6", "is_disabled": 0, "rental_uris": {"android": "https://dc.lft.to/lastmile_qr_scan", "ios": "https://dc.lft.to/lastmile_qr_scan"}, "fusion_lon": 0.0, "lat": 38.923314833333336, "bike_id": "b05ad6ea3888ee15d69d8282531306d6", "type": "electric_scooter", "is_reserved": 0, "lon": -77.0205285}, {"fusion_lat": 0.0, "name": "5a52d97a5c42c1c4176c605b12e9f90f", "is_disabled": 0, "rental_uris": {"android": "https://dc.lft.to/lastmile_qr_scan", "ios": "https://dc.lft.to/lastmile_qr_scan"}, "fusion_lon": 0.0, "lat": 38.913556, "bike_id": "5a52d97a5c42c1c4176c605b12e9f90f", "type": "electric_scooter", "is_reserved": 0, "lon": -77.04348633333333}, {"fusion_lat": 0.0, "name": "a39e6212629aaabd64daa16459c53554", "is_disabled": 0, "rental_uris": {"android": "https://dc.lft.to/lastmile_qr_scan", "ios": "https://dc.lft.to/lastmile_qr_scan"}, "fusion_lon": 0.0, "lat": 38.9236795, "bike_id": "a39e6212629aaabd64daa16459c53554", "type": "electric_scooter", "is_reserved": 0, "lon": -77.01956733333333}, {"fusion_lat": 0.0, "name": "f006a93e2154776f60c222da1386c732", "is_disabled": 0, "rental_uris": {"android": "https://dc.lft.to/lastmile_qr_scan", "ios": "https://dc.lft.to/lastmile_qr_scan"}, "fusion_lon": 0.0, "lat": 38.88950366666667, "bike_id": "f006a93e2154776f60c222da1386c732", "type": "electric_scooter", "is_reserved": 0, "lon": -76.99166133333334}, {"fusion_lat": 0.0, "name": "3fbb08e9181c08931ae41631c51bfdec", "is_disabled": 0, "rental_uris": {"android": "https://dc.lft.to/lastmile_qr_scan", "ios": "https://dc.lft.to/lastmile_qr_scan"}, "fusion_lon": 0.0, "lat": 38.92872666666667, "bike_id": "3fbb08e9181c08931ae41631c51bfdec", "type": "electric_scooter", "is_reserved": 0, "lon": -77.05455583333334}, {"fusion_lat": 0.0, "name": "35e262361fc8fb1239fac622f18d506a", "is_disabled": 0, "rental_uris": {"android": "https://dc.lft.to/lastmile_qr_scan", "ios": "https://dc.lft.to/lastmile_qr_scan"}, "fusion_lon": 0.0, "lat": 38.900212, "bike_id": "35e262361fc8fb1239fac622f18d506a", "type": "electric_scooter", "is_reserved": 0, "lon": -77.0402115}, {"fusion_lat": 0.0, "name": "ea8fe52afe07dd6b420be34f159f435f", "is_disabled": 0, "rental_uris": {"android": "https://dc.lft.to/lastmile_qr_scan", "ios": "https://dc.lft.to/lastmile_qr_scan"}, "fusion_lon": 0.0, "lat": 38.90151433333333, "bike_id": "ea8fe52afe07dd6b420be34f159f435f", "type": "electric_scooter", "is_reserved": 0, "lon": -76.93059983333333}, {"fusion_lat": 0.0, "name": "efc2e6211c87a2842cf96550364353fa", "is_disabled": 0, "rental_uris": {"android": "https://dc.lft.to/lastmile_qr_scan", "ios": "https://dc.lft.to/lastmile_qr_scan"}, "fusion_lon": 0.0, "lat": 38.91057716666667, "bike_id": "efc2e6211c87a2842cf96550364353fa", "type": "electric_scooter", "is_reserved": 0, "lon": -76.9851735}, {"fusion_lat": 0.0, "name": "5203b36e580edfef4fed9a310c6baf84", "is_disabled": 0, "rental_uris": {"android": "https://dc.lft.to/lastmile_qr_scan", "ios": "https://dc.lft.to/lastmile_qr_scan"}, "fusion_lon": 0.0, "lat": 38.887732666666665, "bike_id": "5203b36e580edfef4fed9a310c6baf84", "type": "electric_scooter", "is_reserved": 0, "lon": -76.9774625}, {"fusion_lat": 0.0, "name": "9fbbeaf10e984b8cd1a8725d7be236c8", "is_disabled": 0, "rental_uris": {"android": "https://dc.lft.to/lastmile_qr_scan", "ios": "https://dc.lft.to/lastmile_qr_scan"}, "fusion_lon": 0.0, "lat": 38.93688516666667, "bike_id": "9fbbeaf10e984b8cd1a8725d7be236c8", "type": "electric_bike", "is_reserved": 0, "lon": -76.99058433333333}, {"fusion_lat": 0.0, "name": "d66e15a89be3d305ba75afe67083fd3e", "is_disabled": 0, "rental_uris": {"android": "https://dc.lft.to/lastmile_qr_scan", "ios": "https://dc.lft.to/lastmile_qr_scan"}, "fusion_lon": 0.0, "lat": 38.90417166666667, "bike_id": "d66e15a89be3d305ba75afe67083fd3e", "type": "electric_scooter", "is_reserved": 0, "lon": -77.04343166666666}, {"fusion_lat": 0.0, "name": "4e4974b75bbc75bec536f2e3d4b7d8be", "is_disabled": 0, "rental_uris": {"android": "https://dc.lft.to/lastmile_qr_scan", "ios": "https://dc.lft.to/lastmile_qr_scan"}, "fusion_lon": 0.0, "lat": 38.89835983333333, "bike_id": "4e4974b75bbc75bec536f2e3d4b7d8be", "type": "electric_scooter", "is_reserved": 0, "lon": -77.00747766666667}, {"fusion_lat": 0.0, "name": "137e669a60067a803ab0e16a7330e0e5", "is_disabled": 0, "rental_uris": {"android": "https://dc.lft.to/lastmile_qr_scan", "ios": "https://dc.lft.to/lastmile_qr_scan"}, "fusion_lon": 0.0, "lat": 38.896890666666664, "bike_id": "137e669a60067a803ab0e16a7330e0e5", "type": "electric_bike", "is_reserved": 0, "lon": -76.99621016666667}, {"fusion_lat": 0.0, "name": "b01d2307a37f32f6ab70f94a980c785b", "is_disabled": 0, "rental_uris": {"android": "https://dc.lft.to/lastmile_qr_scan", "ios": "https://dc.lft.to/lastmile_qr_scan"}, "fusion_lon": 0.0, "lat": 38.98463016666667, "bike_id": "b01d2307a37f32f6ab70f94a980c785b", "type": "electric_bike", "is_reserved": 0, "lon": -76.97055483333334}, {"fusion_lat": 0.0, "name": "6809e6b2910403f3955d9d4e301eedc3", "is_disabled": 0, "rental_uris": {"android": "https://dc.lft.to/lastmile_qr_scan", "ios": "https://dc.lft.to/lastmile_qr_scan"}, "fusion_lon": 0.0, "lat": 38.9068485, "bike_id": "6809e6b2910403f3955d9d4e301eedc3", "type": "electric_bike", "is_reserved": 0, "lon": -76.94493683333333}, {"fusion_lat": 0.0, "name": "bcda4a5cc4763cd5659596583214e479", "is_disabled": 0, "rental_uris": {"android": "https://dc.lft.to/lastmile_qr_scan", "ios": "https://dc.lft.to/lastmile_qr_scan"}, "fusion_lon": 0.0, "lat": 38.896695, "bike_id": "bcda4a5cc4763cd5659596583214e479", "type": "electric_scooter", "is_reserved": 0, "lon": -77.05465066666666}, {"fusion_lat": 0.0, "name": "1c3ddb3b8c640668f22f7eec75f4995c", "is_disabled": 0, "rental_uris": {"android": "https://dc.lft.to/lastmile_qr_scan", "ios": "https://dc.lft.to/lastmile_qr_scan"}, "fusion_lon": 0.0, "lat": 38.87179033333334, "bike_id": "1c3ddb3b8c640668f22f7eec75f4995c", "type": "electric_scooter", "is_reserved": 0, "lon": -77.0061035}, {"fusion_lat": 0.0, "name": "f39f0ff8463b0c1959c1cf3ce4571c73", "is_disabled": 0, "rental_uris": {"android": "https://dc.lft.to/lastmile_qr_scan", "ios": "https://dc.lft.to/lastmile_qr_scan"}, "fusion_lon": 0.0, "lat": 38.92558916666667, "bike_id": "f39f0ff8463b0c1959c1cf3ce4571c73", "type": "electric_scooter", "is_reserved": 0, "lon": -77.02279483333334}, {"fusion_lat": 0.0, "name": "66c21d61ed2cd17f4dc4c7cf60ac5bf0", "is_disabled": 0, "rental_uris": {"android": "https://dc.lft.to/lastmile_qr_scan", "ios": "https://dc.lft.to/lastmile_qr_scan"}, "fusion_lon": 0.0, "lat": 38.90133466666666, "bike_id": "66c21d61ed2cd17f4dc4c7cf60ac5bf0", "type": "electric_scooter", "is_reserved": 0, "lon": -77.04484566666666}, {"fusion_lat": 0.0, "name": "4c078b27300bdd91085981faa59972ef", "is_disabled": 0, "rental_uris": {"android": "https://dc.lft.to/lastmile_qr_scan", "ios": "https://dc.lft.to/lastmile_qr_scan"}, "fusion_lon": 0.0, "lat": 38.902759833333334, "bike_id": "4c078b27300bdd91085981faa59972ef", "type": "electric_scooter", "is_reserved": 0, "lon": -76.9872805}, {"fusion_lat": 0.0, "name": "65eab291bab716e8d9be7da722fd29c9", "is_disabled": 0, "rental_uris": {"android": "https://dc.lft.to/lastmile_qr_scan", "ios": "https://dc.lft.to/lastmile_qr_scan"}, "fusion_lon": 0.0, "lat": 38.898452166666665, "bike_id": "65eab291bab716e8d9be7da722fd29c9", "type": "electric_scooter", "is_reserved": 0, "lon": -77.03327516666667}, {"fusion_lat": 0.0, "name": "6ee708c6fee9c7fb1bb001de22295825", "is_disabled": 0, "rental_uris": {"android": "https://dc.lft.to/lastmile_qr_scan", "ios": "https://dc.lft.to/lastmile_qr_scan"}, "fusion_lon": 0.0, "lat": 38.909606, "bike_id": "6ee708c6fee9c7fb1bb001de22295825", "type": "electric_bike", "is_reserved": 0, "lon": -77.22890716666667}, {"fusion_lat": 0.0, "name": "c5e46fe875baaeb1d9fdf87ed9222418", "is_disabled": 0, "rental_uris": {"android": "https://dc.lft.to/lastmile_qr_scan", "ios": "https://dc.lft.to/lastmile_qr_scan"}, "fusion_lon": 0.0, "lat": 38.887685, "bike_id": "c5e46fe875baaeb1d9fdf87ed9222418", "type": "electric_scooter", "is_reserved": 0, "lon": -76.98351133333334}, {"fusion_lat": 0.0, "name": "1543d99b247bb965e6bab66f54247ce1", "is_disabled": 0, "rental_uris": {"android": "https://dc.lft.to/lastmile_qr_scan", "ios": "https://dc.lft.to/lastmile_qr_scan"}, "fusion_lon": 0.0, "lat": 38.88066633333333, "bike_id": "1543d99b247bb965e6bab66f54247ce1", "type": "electric_scooter", "is_reserved": 0, "lon": -76.9321915}, {"fusion_lat": 0.0, "name": "dbff29b44a20369a7cc7e47e44f82a70", "is_disabled": 0, "rental_uris": {"android": "https://dc.lft.to/lastmile_qr_scan", "ios": "https://dc.lft.to/lastmile_qr_scan"}, "fusion_lon": 0.0, "lat": 38.878438333333335, "bike_id": "dbff29b44a20369a7cc7e47e44f82a70", "type": "electric_scooter", "is_reserved": 0, "lon": -76.9301355},