{"data": {"bikes": [{"lon": -77.00907633333334, "is_reserved": 0, "is_disabled": 0, "type": "electric_scooter", "lat": 38.91286083333333, "rental_uris": {"ios": "https://dc.lft.to/lastmile_qr_scan", "android": "https://dc.lft.to/lastmile_qr_scan"}, "fusion_lat": 0.0, "fusion_lon": 0.0, "bike_id": "bf05278ab1656bb79f9e402e84d422e7", "name": "bf05278ab1656bb79f9e402e84d422e7"}, {"lon": -77.035725, "is_reserved": 0, "is_disabled": 0, "type": "electric_scooter", "lat": 38.8818205, "rental_uris": {"ios": "https://dc.lft.to/lastmile_qr_scan", "android": "https://dc.lft.to/lastmile_qr_scan"}, "fusion_lat": 0.0, "fusion_lon": 0.0, "bike_id": "1473b2d822de773503a2cad67099f1e5", "name": "1473b2d822de773503a2cad67099f1e5"}, {"lon": -77.01942733333334, "is_reserved": 0, "is_disabled": 0, "type": "electric_scooter", "lat": 38.902347, "rental_uris": {"ios": "https://dc.lft.to/lastmile_qr_scan", "android": "https://dc.lft.to/lastmile_qr_scan"}, "fusion_lat": 0.0, "fusion_lon": 0.0, "bike_id": "fe13a8dcdd5fc0b4378a83b78ad71056", "name": "fe13a8dcdd5fc0b4378a83b78ad71056"}, {"lon": -77.03838833333333, "is_reserved": 0, "is_disabled": 0, "type": "electric_scooter", "lat": 38.9173165, "rental_uris": {"ios": "https://dc.lft.to/lastmile_qr_scan", "android": "https://dc.lft.to/lastmile_qr_scan"}, "fusion_lat": 0.0, "fusion_lon": 0.0, "bike_id": "f467ba9561194fde0e1b6e5d51ccac1b", "name": "f467ba9561194fde0e1b6e5d51ccac1b"}, {"lon": -77.01049683333333, "is_reserved": 0, "is_disabled": 0, "type": "electric_scooter", "lat": 38.906744333333336, "rental_uris": {"ios": "https://dc.lft.to/lastmile_qr_scan", "android": "https://dc.lft.to/lastmile_qr_scan"}, "fusion_lat": 0.0, "fusion_lon": 0.0, "bike_id": "6e00759672d6de6e8bd2dd630e8f0280", "name": "6e00759672d6de6e8bd2dd630e8f0280"}, {"lon": -77.025927, "is_reserved": 0, "is_disabled": 0, "type": "electric_scooter", "lat": 38.941985333333335, "rental_uris": {"ios": "https://dc.lft.to/lastmile_qr_scan", "android": "https://dc.lft.to/lastmile_qr_scan"}, "fusion_lat": 0.0, "fusion_lon": 0.0, "bike_id": "c40dd673b7ff43cbe7359b97c73d3fff", "name": "c40dd673b7ff43cbe7359b97c73d3fff"}, {"lon": -77.041804, "is_reserved": 0, "is_disabled": 0, "type": "electric_scooter", "lat": 38.914102166666666, "rental_uris": {"ios": "https://dc.lft.to/lastmile_qr_scan", "android": "https://dc.lft.to/lastmile_qr_scan"}, "fusion_lat": 0.0, "fusion_lon": 0.0, "bike_id": "1f898216b58a9e433f575f9d080fdcd1", "name": "1f898216b58a9e433f575f9d080fdcd1"}, {"lon": -77.041856, "is_reserved": 0, "is_disabled": 0, "type": "electric_scooter", "lat": 38.899761166666664, "rental_uris": {"ios": "https://dc.lft.to/lastmile_qr_scan", "android": "https://dc.lft.to/lastmile_qr_scan"}, "fusion_lat": 0.0, "fusion_lon": 0.0, "bike_id": "7e906ea8fcde0ab88e4af921a2a6ff48", "name": "7e906ea8fcde0ab88e4af921a2a6ff48"}, {"lon": -77.04862333333334, "is_reserved": 0, "is_disabled": 0, "type": "electric_scooter", "lat": 38.89223066666667, "rental_uris": {"ios": "https://dc.lft.to/lastmile_qr_scan", "android": "https://dc.lft.to/lastmile_qr_scan"}, "fusion_lat": 0.0, "fusion_lon": 0.0, "bike_id": "2a4b8a5abb41cd50b9239edbc42b8ee4", "name": "2a4b8a5abb41cd50b9239edbc42b8ee4"}, {"lon": -77.0293705, "is_reserved": 0, "is_disabled": 0, "type": "electric_scooter", "lat": 38.90245216666667, "rental_uris": {"ios": "https://dc.lft.to/lastmile_qr_scan", "android": "https://dc.lft.to/lastmile_qr_scan"}, "fusion_lat": 0.0, "fusion_lon": 0.0, "bike_id": "de9863e66216144aed60b38cb38f052e", "name": "de9863e66216144aed60b38cb38f052e"}, {"lon": -77.01381866666667, "is_reserved": 0, "is_disabled": 0, "type": "electric_scooter", "lat": 38.92875933333333, "rental_uris": {"ios": "https://dc.lft.to/lastmile_qr_scan", "android": "https://dc.lft.to/lastmile_qr_scan"}, "fusion_lat": 0.0, "fusion_lon": 0.0, "bike_id": "3f6cc3af116709088b37cc79214ba2d3", "name": "3f6cc3af116709088b37cc79214ba2d3"}, {"lon": -76.98330316666667, "is_reserved": 0, "is_disabled": 0, "type": "electric_scooter", "lat": 38.9075405, "rental_uris": {"ios": "https://dc.lft.to/lastmile_qr_scan", "android": "https://dc.lft.to/lastmile_qr_scan"}, "fusion_lat": 0.0, "fusion_lon": 0.0, "bike_id": "e65cf2dc88ca0354eceb33d7b4878c48", "name": "e65cf2dc88ca0354eceb33d7b4878c48"}, {"lon": -77.04724233333333, "is_reserved": 0, "is_disabled": 0, "type": "electric_scooter", "lat": 38.899612833333336, "rental_uris": {"ios": "https://dc.lft.to/lastmile_qr_scan", "android": "https://dc.lft.to/lastmile_qr_scan"}, "fusion_lat": 0.0, "fusion_lon": 0.0, "bike_id": "981d80982d708f059e7de361a06378c6", "name": "981d80982d708f059e7de361a06378c6"}, {"lon": -77.01522483333333, "is_reserved": 0, "is_disabled": 0, "type": "electric_scooter", "lat": 38.8848605, "rental_uris": {"ios": "https://dc.lft.to/lastmile_qr_scan", "android": "https://dc.lft.to/lastmile_qr_scan"}, "fusion_lat": 0.0, "fusion_lon": 0.0, "bike_id": "c5f92bd86604b533ae0bf4e62947ee9f", "name": "c5f92bd86604b533ae0bf4e62947ee9f"}, {"lon": -77.0060375, "is_reserved": 0, "is_disabled": 0, "type": "electric_scooter", "lat": 38.87545316666667, "rental_uris": {"ios": "https://dc.lft.to/lastmile_qr_scan", "android": "https://dc.lft.to/lastmile_qr_scan"}, "fusion_lat": 0.0, "fusion_lon": 0.0, "bike_id": "354153d858e60b05fee879038760e10c", "name": "354153d858e60b05fee879038760e10c"}, {"lon": -76.96837716666667, "is_reserved": 0, "is_disabled": 0, "type": "electric_bike", "lat": 38.92448366666667, "rental_uris": {"ios": "https://dc.lft.to/lastmile_qr_scan", "android": "https://dc.lft.to/lastmile_qr_scan"}, "fusion_lat": 0.0, "fusion_lon": 0.0, "bike_id": "a9bea690a9231f1dc8f2b10e4861e5e6", "name": "a9bea690a9231f1dc8f2b10e4861e5e6"}, {"lon": -77.04183966666666, "is_reserved": 0, "is_disabled": 0, "type": "electric_scooter", "lat": 38.91260483333333, "rental_uris": {"ios": "https://dc.lft.to/lastmile_qr_scan", "android": "https://dc.lft.to/lastmile_qr_scan"}, "fusion_lat": 0.0, "fusion_lon": 0.0, "bike_id": "475ebcbe6f212ca980f94f4204063e9a", "name": "475ebcbe6f212ca980f94f4204063e9a"}, {"lon": -76.96504083333333, "is_reserved": 0, "is_disabled": 0, "type": "electric_scooter", "lat": 38.87648466666667, "rental_uris": {"ios": "https://dc.lft.to/lastmile_qr_scan", "android": "https://dc.lft.to/lastmile_qr_scan"}, "fusion_lat": 0.0, "fusion_lon": 0.0, "bike_id": "26f857fb5ad6e07663d4a33b8188b2dc", "name": "26f857fb5ad6e07663d4a33b8188b2dc"}, {"lon": -77.15268666666667, "is_reserved": 0, "is_disabled": 0, "type": "electric_bike", "lat": 39.105650833333335, "rental_uris": {"ios": "https://dc.lft.to/lastmile_qr_scan", "android": "https://dc.lft.to/lastmile_qr_scan"}, "fusion_lat": 0.0, "fusion_lon": 0.0, "bike_id": "e348128cbe0be84ed3d56d68e7346904", "name": "e348128cbe0be84ed3d56d68e7346904"}, {"lon": -76.98324283333334, "is_reserved": 0, "is_disabled": 0, "type": "electric_scooter", "lat": 38.861702333333334, "rental_uris": {"ios": "https://dc.lft.to/lastmile_qr_scan", "android": "https://dc.lft.to/lastmile_qr_scan"}, "fusion_lat": 0.0, "fusion_lon": 0.0, "bike_id": "6904b164430e8f99c01eb99051b4225c", "name": "6904b164430e8f99c01eb99051b4225c"}, {"lon": -77.03457316666666, "is_reserved": 0, "is_disabled": 0, "type": "electric_scooter", "lat": 38.964267, "rental_uris": {"ios": "https://dc.lft.to/lastmile_qr_scan", "android": "https://dc.lft.to/lastmile_qr_scan"}, "fusion_lat": 0.0, "fusion_lon": 0.0, "bike_id": "32d90e4850b7c6cda6e2f6f8fa97455c", "name": "32d90e4850b7c6cda6e2f6f8fa97455c"}, {"lon": -77.052184, "is_reserved": 0, "is_disabled": 0, "type": "electric_scooter", "lat": 38.9243595, "rental_uris": {"ios": "https://dc.lft.to/lastmile_qr_scan", "android": "https://dc.lft.to/lastmile_qr_scan"}, "fusion_lat": 0.0, "fusion_lon": 0.0, "bike_id": "96223236691feec17349c92e125220a4", "name": "96223236691feec17349c92e125220a4"}, {"lon": -76.98728816666667, "is_reserved": 0, "is_disabled": 0, "type": "electric_scooter", "lat": 38.867069, "rental_uris": {"ios": "https://dc.lft.to/lastmile_qr_scan", "android": "https://dc.lft.to/lastmile_qr_scan"}, "fusion_lat": 0.0, "fusion_lon": 0.0, "bike_id": "9f6ac2bc3f75db3cd72f54a02899cad4", "name": "9f6ac2bc3f75db3cd72f54a02899cad4"}, {"lon": -76.9908585, "is_reserved": 0, "is_disabled": 0, "type": "electric_scooter", "lat": 38.862356166666665, "rental_uris": {"ios": "https://dc.lft.to/lastmile_qr_scan", "android": "https://dc.lft.to/lastmile_qr_scan"}, "fusion_lat": 0.0, "fusion_lon": 0.0, "bike_id": "11488f9f2ac3d15103d0edc161cc0824", "name": "11488f9f2ac3d15103d0edc161cc0824"}, {"lon": -77.02683633333334, "is_reserved": 0, "is_disabled": 0, "type": "electric_scooter", "lat": 38.912567, "rental_uris": {"ios": "https://dc.lft.to/lastmile_qr_scan", "android": "https://dc.lft.to/lastmile_qr_scan"}, "fusion_lat": 0.0, "fusion_lon": 0.0, "bike_id": "254b80cff4296f5e8491da0551a6760a", "name": "254b80cff4296f5e8491da0551a6760a"}, {"lon": -77.02982133333333, "is_reserved": 0, "is_disabled": 0, "type": "electric_scooter", "lat": 38.925352833333335, "rental_uris": {"ios": "https://dc.lft.to/lastmile_qr_scan", "android": "https://dc.lft.to/lastmile_qr_scan"}, "fusion_lat": 0.0, "fusion_lon": 0.0, "bike_id": "6ccd071dfb0ca5e3dcd066791a6a54f1", "name": "6ccd071dfb0ca5e3dcd066791a6a54f1"}, {"lon": -77.036587, "is_reserved": 0, "is_disabled": 0, "type": "electric_scooter", "lat": 38.9127525, "rental_uris": {"ios": "https://dc.lft.to/lastmile_qr_scan", "android": "https://dc.lft.to/lastmile_qr_scan"}, "fusion_lat": 0.0, "fusion_lon": 0.0, "bike_id": "ca040696510e317aa77b422a77406b73", "name": "ca040696510e317aa77b422a77406b73"}, {"lon": -77.00749166666667, "is_reserved": 0, "is_disabled": 0, "type": "electric_scooter", "lat": 38.89821716666667, "rental_uris": {"ios": "https://dc.lft.to/lastmile_qr_scan", "android": "https://dc.lft.to/lastmile_qr_scan"}, "fusion_lat": 0.0, "fusion_lon": 0.0, "bike_id": "59bc9be05c5a86eae710a5931d5028d7", "name": "59bc9be05c5a86eae710a5931d5028d7"}, {"lon": -76.98094166666667, "is_reserved": 0, "is_disabled": 0, "type": "electric_scooter", "lat": 38.857169166666665, "rental_uris": {"ios": "https://dc.lft.to/lastmile_qr_scan", "android": "https://dc.lft.to/lastmile_qr_scan"}, "fusion_lat": 0.0, "fusion_lon": 0.0, "bike_id": "57f9188488c0ca3bf89be17ca51cb907", "name": "57f9188488c0ca3bf89be17ca51cb907"}, {"lon": -76.94981283333334, "is_reserved": 0, "is_disabled": 0, "type": "electric_scooter", "lat": 38.89435916666667, "rental_uris": {"ios": "https://dc.lft.to/lastmile_qr_scan", "android": "https://dc.lft.to/lastmile_qr_scan"}, "fusion_lat": 0.0, "fusion_lon": 0.0, "bike_id": "d04226aeb0fa06121a81df4e4a92b0b3", "name": "d04226aeb0fa06121a81df4e4a92b0b3"}, {"lon": -77.02813466666667, "is_reserved": 0, "is_disabled": 0, "type": "electric_scooter", "lat": 38.9141625, "rental_uris": {"ios": "https://dc.lft.to/lastmile_qr_scan", "android": "https://dc.lft.to/lastmile_qr_scan"}, "fusion_lat": 0.0, "fusion_lon": 0.0, "bike_id": "a5b748ea8f392cb0235527d86c9e85d4", "name": "a5b748ea8f392cb0235527d86c9e85d4"}, {"lon": -77.02491766666667, "is_reserved": 0, "is_disabled": 0, "type": "electric_scooter", "lat": 38.9329215, "rental_uris": {"ios": "https://dc.lft.to/lastmile_qr_scan", "android": "https://dc.lft.to/lastmile_qr_scan"}, "fusion_lat": 0.0, "fusion_lon": 0.0, "bike_id": "638a097685d2e27c91f8266e6e81aeb7", "name": "638a097685d2e27c91f8266e6e81aeb7"}, {"lon": -77.041669, "is_reserved": 0, "is_disabled": 0, "type": "electric_scooter", "lat": 38.9092685, "rental_uris": {"ios": "https://dc.lft.to/lastmile_qr_scan", "android": "https://dc.lft.to/lastmile_qr_scan"}, "fusion_lat": 0.0, "fusion_lon": 0.0, "bike_id": "fadc6fc5fd80bfeadcae28d96599b309", "name": "fadc6fc5fd80bfeadcae28d96599b309"}, {"lon": -77.03201416666667, "is_reserved": 0, "is_disabled": 0, "type": "electric_scooter", "lat": 38.9396755, "rental_uris": {"ios": "https://dc.lft.to/lastmile_qr_scan", "android": "https://dc.lft.to/lastmile_qr_scan"}, "fusion_lat": 0.0, "fusion_lon": 0.0, "bike_id": "74dbf51bf99eb10137faea0e01020638", "name": "74dbf51bf99eb10137faea0e01020638"}, {"lon": -77.021562, "is_reserved": 0, "is_disabled": 0, "type": "electric_scooter", "lat": 38.92601, "rental_uris": {"ios": "https://dc.lft.to/lastmile_qr_scan", "android": "https://dc.lft.to/lastmile_qr_scan"}, "fusion_lat": 0.0, "fusion_lon": 0.0, "bike_id": "d408fa0d0cf3788ce67458dfb1e69007", "name": "d408fa0d0cf3788ce67458dfb1e69007"}, {"lon": -77.01768116666666, "is_reserved": 0, "is_disabled": 0, "type": "electric_scooter", "lat": 38.91964083333333, "rental_uris": {"ios": "https://dc.lft.to/lastmile_qr_scan", "android": "https://dc.lft.to/lastmile_qr_scan"}, "fusion_lat": 0.0, "fusion_lon": 0.0, "bike_id": "46efbe0ef640ef64906684b31cdad9f7", "name": "46efbe0ef640ef64906684b31cdad9f7"}, {"lon": -76.990131, "is_reserved": 0, "is_disabled": 0, "type": "electric_bike", "lat": 38.88246133333333, "rental_uris": {"ios": "https://dc.lft.to/lastmile_qr_scan", "android": "https://dc.lft.to/lastmile_qr_scan"}, "fusion_lat": 0.0, "fusion_lon": 0.0, "bike_id": "bb974ff9b8976179461cf3f1e754d633", "name": "bb974ff9b8976179461cf3f1e754d633"}, {"lon": -77.026198, "is_reserved": 0, "is_disabled": 0, "type": "electric_scooter", "lat": 38.9003145, "rental_uris": {"ios": "https://dc.lft.to/lastmile_qr_scan", "android": "https://dc.lft.to/lastmile_qr_scan"}, "fusion_lat": 0.0, "fusion_lon": 0.0, "bike_id": "dbd3ae8f33cba19e5bd4d0dd75d09d67", "name": "dbd3ae8f33cba19e5bd4d0dd75d09d67"}, {"lon": -77.03032333333333, "is_reserved": 0, "is_disabled": 0, "type": "electric_scooter", "lat": 38.939785666666666, "rental_uris": {"ios": "https://dc.lft.to/lastmile_qr_scan", "android": "https://dc.lft.to/lastmile_qr_scan"}, "fusion_lat": 0.0, "fusion_lon": 0.0, "bike_id": "796f604dcf53f2ba839cd8652dbe39ba", "name": "796f604dcf53f2ba839cd8652dbe39ba"}, {"lon": -77.01201816666666, "is_reserved": 0, "is_disabled": 0, "type": "electric_scooter", "lat": 38.96912583333334, "rental_uris": {"ios": "https://dc.lft.to/lastmile_qr_scan", "android": "https://dc.lft.to/lastmile_qr_scan"}, "fusion_lat": 0.0, "fusion_lon": 0.0, "bike_id": "9d1de6abb67e7659421f00c52ec04677", "name": "9d1de6abb67e7659421f00c52ec04677"}, {"lon": -77.06755083333333, "is_reserved": 0, "is_disabled": 0, "type": "electric_scooter", "lat": 38.94989616666667, "rental_uris": {"ios": "https://dc.lft.to/lastmile_qr_scan", "android": "https://dc.lft.to/lastmile_qr_scan"}, "fusion_lat": 0.0, "fusion_lon": 0.0, "bike_id": "30df97763cb210d01f90042e2ed9f3c8", "name": "30df97763cb210d01f90042e2ed9f3c8"}, {"lon": -77.04307216666666, "is_reserved": 0, "is_disabled": 0, "type": "electric_scooter", "lat": 38.915574166666666, "rental_uris": {"ios": "https://dc.lft.to/lastmile_qr_scan", "android": "https://dc.lft.to/lastmile_qr_scan"}, "fusion_lat": 0.0, "fusion_lon": 0.0, "bike_id": "81e428f39c4ee3cc8c764c7767a1a3d7", "name": "81e428f39c4ee3cc8c764c7767a1a3d7"}, {"lon": -76.9721695, "is_reserved": 0, "is_disabled": 0, "type": "electric_bike", "lat": 38.844782333333335, "rental_uris": {"ios": "https://dc.lft.to/lastmile_qr_scan", "android": "https://dc.lft.to/lastmile_qr_scan"}, "fusion_lat": 0.0, "fusion_lon": 0.0, "bike_id": "3fb5bcf73fb1ad29daafd88617ccd227", "name": "3fb5bcf73fb1ad29daafd88617ccd227"}, {"lon": -77.03847583333334, "is_reserved": 0, "is_disabled": 0, "type": "electric_scooter", "lat": 38.9216465, "rental_uris": {"ios": "https://dc.lft.to/lastmile_qr_scan", "android": "https://dc.lft.to/lastmile_qr_scan"}, "fusion_lat": 0.0, "fusion_lon": 0.0, "bike_id": "955b00a57ff9f85c9108a90e39f18011", "name": "955b00a57ff9f85c9108a90e39f18011"}, {"lon": -77.04872916666666, "is_reserved": 0, "is_disabled": 0, "type": "electric_scooter", "lat": 38.89234833333333, "rental_uris": {"ios": "https://dc.lft.to/lastmile_qr_scan", "android": "https://dc.lft.to/lastmile_qr_scan"}, "fusion_lat": 0.0, "fusion_lon": 0.0, "bike_id": "088298e80ed943472af43114f594d85a", "name": "088298e80ed943472af43114f594d85a"}, {"lon": -76.994912, "is_reserved": 0, "is_disabled": 0, "type": "electric_scooter", "lat": 38.84215616666667, "rental_uris": {"ios": "https://dc.lft.to/lastmile_qr_scan", "android": "https://dc.lft.to/lastmile_qr_scan"}, "fusion_lat": 0.0, "fusion_lon": 0.0, "bike_id": "025fa29c7d188db56b2dac3de5b0f450", "name": "025fa29c7d188db56b2dac3de5b0f450"}, {"lon": -77.04374616666666, "is_reserved": 0, "is_disabled": 0, "type": "electric_scooter", "lat": 38.904616833333336, "rental_uris": {"ios": "https://dc.lft.to/lastmile_qr_scan", "android": "https://dc.lft.to/lastmile_qr_scan"}, "fusion_lat": 0.0, "fusion_lon": 0.0, "bike_id": "a1049a7cbf2b6d69b527fdf14eab6bc6", "name": "a1049a7cbf2b6d69b527fdf14eab6bc6"}, {"lon": -77.06533783333333, "is_reserved": 0, "is_disabled": 0, "type": "electric_scooter", "lat": 38.9507, "rental_uris": {"ios": "https://dc.lft.to/lastmile_qr_scan", "android": "https://dc.lft.to/lastmile_qr_scan"}, "fusion_lat": 0.0, "fusion_lon": 0.0, "bike_id": "fe4328d24af554248b6154eb39baf2d1", "name": "fe4328d24af554248b6154eb39baf2d1"}, {"lon": -77.02036516666666, "is_reserved": 0, "is_disabled": 0, "type": "electric_scooter", "lat": 38.892707333333334, "rental_uris": {"ios": "https://dc.lft.to/lastmile_qr_scan", "android": "https://dc.lft.to/lastmile_qr_scan"}, "fusion_lat": 0.0, "fusion_lon": 0.0, "bike_id": "b6f765399e2b629c9ea02b26ca134c66", "name": "b6f765399e2b629c9ea02b26ca134c66"}, {"lon": -76.98876416666667, "is_reserved": 0, "is_disabled": 0, "type": "electric_scooter", "lat": 38.8667335, "rental_uris": {"ios": "https://dc.lft.to/lastmile_qr_scan", "android": "https://dc.lft.to/lastmile_qr_scan"}, "fusion_lat": 0.0, "fusion_lon": 0.0, "bike_id": "193d8faebc456593691991fb5159d019", "name": "193d8faebc456593691991fb5159d019"}, {"lon": -77.02045583333333, "is_reserved": 0, "is_disabled": 0, "type": "electric_scooter", "lat": 38.9155255, "rental_uris": {"ios": "https://dc.lft.to/lastmile_qr_scan", "android": "https://dc.lft.to/lastmile_qr_scan"}, "fusion_lat": 0.0, "fusion_lon": 0.0, "bike_id": "4af374e8876b4d7385b24a493da5fc81", "name": "4af374e8876b4d7385b24a493da5fc81"}, {"lon": -77.02603833333333, "is_reserved": 0, "is_disabled": 0, "type": "electric_scooter", "lat": 38.916907333333334, "rental_uris": {"ios": "https://dc.lft.to/lastmile_qr_scan", "android": "https://dc.lft.to/lastmile_qr_scan"}, "fusion_lat": 0.0, "fusion_lon": 0.0, "bike_id": "ee135f87488c94e82dbafa19e841d21c", "name": "ee135f87488c94e82dbafa19e841d21c"}, {"lon": -76.9951155, "is_reserved": 0, "is_disabled": 0, "type": "electric_scooter", "lat": 38.885798, "rental_uris": {"ios": "https://dc.lft.to/lastmile_qr_scan", "android": "https://dc.lft.to/lastmile_qr_scan"}, "fusion_lat": 0.0, "fusion_lon": 0.0, "bike_id": "c258ee5a0f843851b820da217d46152c", "name": "c258ee5a0f843851b820da217d46152c"}, {"lon": -77.07253633333333, "is_reserved": 0, "is_disabled": 0, "type": "electric_scooter", "lat": 38.907825833333334, "rental_uris": {"ios": "https://dc.lft.to/lastmile_qr_scan", "android": "https://dc.lft.to/lastmile_qr_scan"}, "fusion_lat": 0.0, "fusion_lon": 0.0, "bike_id": "1237536e7f8e0edcb00627f9e15477ce", "name": "1237536e7f8e0edcb00627f9e15477ce"}, {"lon": -77.17801883333334, "is_reserved": 0, "is_disabled": 0, "type": "electric_bike", "lat": 39.0884095, "rental_uris": {"ios": "https://dc.lft.to/lastmile_qr_scan", "android": "https://dc.lft.to/lastmile_qr_scan"}, "fusion_lat": 0.0, "fusion_lon": 0.0, "bike_id": "9d7c40379df5dc6eb7b81faa53b6a06f", "name": "9d7c40379df5dc6eb7b81faa53b6a06f"}, {"lon": -77.044821, "is_reserved": 0, "is_disabled": 0, "type": "electric_scooter", "lat": 38.9127225, "rental_uris": {"ios": "https://dc.lft.to/lastmile_qr_scan", "android": "https://dc.lft.to/lastmile_qr_scan"}, "fusion_lat": 0.0, "fusion_lon": 0.0, "bike_id": "16fa396f2afb169ba8bb4cd5fbea5ff0", "name": "16fa396f2afb169ba8bb4cd5fbea5ff0"}, {"lon": -77.01734966666666, "is_reserved": 0, "is_disabled": 0, "type": "electric_scooter", "lat": 38.8770535, "rental_uris": {"ios": "https://dc.lft.to/lastmile_qr_scan", "android": "https://dc.lft.to/lastmile_qr_scan"}, "fusion_lat": 0.0, "fusion_lon": 0.0, "bike_id": "3718a3b36712bebaa16e17a747547143", "name": "3718a3b36712bebaa16e17a747547143"}, {"lon": -77.0318425, "is_reserved": 0, "is_disabled": 0, "type": "electric_scooter", "lat": 38.912214666666664, "rental_uris": {"ios": "https://dc.lft.to/lastmile_qr_scan", "android": "https://dc.lft.to/lastmile_qr_scan"}, "fusion_lat": 0.0, "fusion_lon": 0.0, "bike_id": "43cfd322a46429a6d319d8027ecca20c", "name": "43cfd322a46429a6d319d8027ecca20c"}, {"lon": -77.00282566666667, "is_reserved": 0, "is_disabled": 0, "type": "electric_scooter", "lat": 38.939213, "rental_uris": {"ios": "https://dc.lft.to/lastmile_qr_scan", "android": "https://dc.lft.to/lastmile_qr_scan"}, "fusion_lat": 0.0, "fusion_lon": 0.0, "bike_id": "f7cac1f35721b8d3cd850fab2d324dfd", "name": "f7cac1f35721b8d3cd850fab2d324dfd"}, {"lon": -77.02699683333333, "is_reserved": 0, "is_disabled": 0, "type": "electric_scooter", "lat": 38.90840683333333, "rental_uris": {"ios": "https://dc.lft.to/lastmile_qr_scan", "android": "https://dc.lft.to/lastmile_qr_scan"}, "fusion_lat": 0.0, "fusion_lon": 0.0, "bike_id": "be86a84b2039e252629fe579e63c1cdf", "name": "be86a84b2039e252629fe579e63c1cdf"}, {"lon": -77.028306, "is_reserved": 0, "is_disabled": 0, "type": "electric_scooter", "lat": 38.902537833333334, "rental_uris": {"ios": "https://dc.lft.to/lastmile_qr_scan", "android": "https://dc.lft.to/lastmile_qr_scan"}, "fusion_lat": 0.0, "fusion_lon": 0.0, "bike_id": "35e8f282d4a6c02fa43bacca3ff7e4f7", "name": "35e8f282d4a6c02fa43bacca3ff7e4f7"}, {"lon": -76.937462, "is_reserved": 0, "is_disabled": 0, "type": "electric_scooter", "lat": 38.8901495, "rental_uris": {"ios": "https://dc.lft.to/lastmile_qr_scan", "android": "https://dc.lft.to/lastmile_qr_scan"}, "fusion_lat": 0.0, "fusion_lon": 0.0, "bike_id": "b8e7eb3ad1a859934339b07486f64cd8", "name": "b8e7eb3ad1a859934339b07486f64cd8"}, {"lon": -76.99383816666666, "is_reserved": 0, "is_disabled": 0, "type": "electric_scooter", "lat": 38.920981166666664, "rental_uris": {"ios": "https://dc.lft.to/lastmile_qr_scan", "android": "https://dc.lft.to/lastmile_qr_scan"}, "fusion_lat": 0.0, "fusion_lon": 0.0, "bike_id": "3cd7c21c2a32ac7e7488256ad4c7763a", "name": "3cd7c21c2a32ac7e7488256ad4c7763a"}, {"lon": -77.04782683333333, "is_reserved": 0, "is_disabled": 0, "type": "electric_scooter", "lat": 38.91216816666667, "rental_uris": {"ios": "https://dc.lft.to/lastmile_qr_scan", "android": "https://dc.lft.to/lastmile_qr_scan"}, "fusion_lat": 0.0, "fusion_lon": 0.0, "bike_id": "0f885fa9909434bdea4e5bb389d46256", "name": "0f885fa9909434bdea4e5bb389d46256"}, {"lon": -77.04242566666667, "is_reserved": 0, "is_disabled": 0, "type": "electric_scooter", "lat": 38.917807333333336, "rental_uris": {"ios": "https://dc.lft.to/lastmile_qr_scan", "android": "https://dc.lft.to/lastmile_qr_scan"}, "fusion_lat": 0.0, "fusion_lon": 0.0, "bike_id": "bea8a4301324b8210675d98dd87e9349", "name": "bea8a4301324b8210675d98dd87e9349"}, {"lon": -77.0470555, "is_reserved": 0, "is_disabled": 0, "type": "electric_scooter", "lat": 38.912702, "rental_uris": {"ios": "https://dc.lft.to/lastmile_qr_scan", "android": "https://dc.lft.to/lastmile_qr_scan"}, "fusion_lat": 0.0, "fusion_lon": 0.0, "bike_id": "73a4649c5879d83942b0da2a1cc1adda", "name": "73a4649c5879d83942b0da2a1cc1adda"}, {"lon": -77.00343066666667, "is_reserved": 0, "is_disabled": 0, "type": "electric_scooter", "lat": 38.8953075, "rental_uris": {"ios": "https://dc.lft.to/lastmile_qr_scan", "android": "https://dc.lft.to/lastmile_qr_scan"}, "fusion_lat": 0.0, "fusion_lon": 0.0, "bike_id": "ed793c20ebc26d53ac3a653809062fb9", "name": "ed793c20ebc26d53ac3a653809062fb9"}, {"lon": -77.04226766666666, "is_reserved": 0, "is_disabled": 0, "type": "electric_scooter", "lat": 38.9216905, "rental_uris": {"ios": "https://dc.lft.to/lastmile_qr_scan", "android": "https://dc.lft.to/lastmile_qr_scan"}, "fusion_lat": 0.0, "fusion_lon": 0.0, "bike_id": "769c35e6f8236ede8c677bb5e30acf06", "name": "769c35e6f8236ede8c677bb5e30acf06"}, {"lon": -77.041786, "is_reserved": 0, "is_disabled": 0, "type": "electric_scooter", "lat": 38.9141505, "rental_uris": {"ios": "https://dc.lft.to/lastmile_qr_scan", "android": "https://dc.lft.to/lastmile_qr_scan"}, "fusion_lat": 0.0, "fusion_lon": 0.0, "bike_id": "abfb5a70ca7f387b696ff62ff02585f3", "name": "abfb5a70ca7f387b696ff62ff02585f3"}, {"lon": -76.94886633333333, "is_reserved": 0, "is_disabled": 0, "type": "electric_scooter", "lat": 38.89508433333334, "rental_uris": {"ios": "https://dc.lft.to/lastmile_qr_scan", "android": "https://dc.lft.to/lastmile_qr_scan"}, "fusion_lat": 0.0, "fusion_lon": 0.0, "bike_id": "37263b537a84035da7a35380c95c17ab", "name": "37263b537a84035da7a35380c95c17ab"}, {"lon": -77.027252, "is_reserved": 0, "is_disabled": 0, "type": "electric_scooter", "lat": 38.927774166666666, "rental_uris": {"ios": "https://dc.lft.to/lastmile_qr_scan", "android": "https://dc.lft.to/lastmile_qr_scan"}, "fusion_lat": 0.0, "fusion_lon": 0.0, "bike_id": "e07189ef000dc69d2238b76443501845", "name": "e07189ef000dc69d2238b76443501845"}, {"lon": -77.00336933333334, "is_reserved": 0, "is_disabled": 0, "type": "electric_scooter", "lat": 38.893571666666666, "rental_uris": {"ios": "https://dc.lft.to/lastmile_qr_scan", "android": "https://dc.lft.to/lastmile_qr_scan"}, "fusion_lat": 0.0, "fusion_lon": 0.0, "bike_id": "a31601975431c78e495735b261c2553f", "name": "a31601975431c78e495735b261c2553f"}, {"lon": -77.09560783333333, "is_reserved": 0, "is_disabled": 0, "type": "electric_bike", "lat": 38.9170505, "rental_uris": {"ios": "https://dc.lft.to/lastmile_qr_scan", "android": "https://dc.lft.to/lastmile_qr_scan"}, "fusion_lat": 0.0, "fusion_lon": 0.0, "bike_id": "e89e7589ab22f6dd1773bf6ea962ab78", "name": "e89e7589ab22f6dd1773bf6ea962ab78"}, {"lon": -77.00296083333333, "is_reserved": 0, "is_disabled": 0, "type": "electric_scooter", "lat": 38.8919635, "rental_uris": {"ios": "https://dc.lft.to/lastmile_qr_scan", "android": "https://dc.lft.to/lastmile_qr_scan"}, "fusion_lat": 0.0, "fusion_lon": 0.0, "bike_id": "5a437be5e4228fd70ec046f3d58fac80", "name": "5a437be5e4228fd70ec046f3d58fac80"}, {"lon": -76.987104, "is_reserved": 0, "is_disabled": 0, "type": "electric_scooter", "lat": 38.86695, "rental_uris": {"ios": "https://dc.lft.to/lastmile_qr_scan", "android": "https://dc.lft.to/lastmile_qr_scan"}, "fusion_lat": 0.0, "fusion_lon": 0.0, "bike_id": "59dc6e5cf0e7a2cd366fbe1dae796e3f", "name": "59dc6e5cf0e7a2cd366fbe1dae796e3f"}, {"lon": -77.01819133333333, "is_reserved": 0, "is_disabled": 0, "type": "electric_scooter", "lat": 38.92168433333333, "rental_uris": {"ios": "https://dc.lft.to/lastmile_qr_scan", "android": "https://dc.lft.to/lastmile_qr_scan"}, "fusion_lat": 0.0, "fusion_lon": 0.0, "bike_id": "354a42e6e2f20b6468327dec063d12e5", "name": "354a42e6e2f20b6468327dec063d12e5"}, {"lon": -77.12507316666667, "is_reserved": 0, "is_disabled": 0, "type": "electric_bike", "lat": 39.024203666666665, "rental_uris": {"ios": "https://dc.lft.to/lastmile_qr_scan", "android": "https://dc.lft.to/lastmile_qr_scan"}, "fusion_lat": 0.0, "fusion_lon": 0.0, "bike_id": "7aabcb656e907952494bc6b77eda925d", "name": "7aabcb656e907952494bc6b77eda925d"}, {"lon": -77.02658066666666, "is_reserved": 0, "is_disabled": 0, "type": "electric_scooter", "lat": 38.895951833333335, "rental_uris": {"ios": "https://dc.lft.to/lastmile_qr_scan", "android": "https://dc.lft.to/lastmile_qr_scan"}, "fusion_lat": 0.0, "fusion_lon": 0.0, "bike_id": "5d79d7ee217c8b8cdeed79cd34878789", "name": "5d79d7ee217c8b8cdeed79cd34878789"}, {"lon": -77.03533616666667, "is_reserved": 0, "is_disabled": 0, "type": "electric_scooter", "lat": 38.92468866666667, "rental_uris": {"ios": "https://dc.lft.to/lastmile_qr_scan", "android": "https://dc.lft.to/lastmile_qr_scan"}, "fusion_lat": 0.0, "fusion_lon": 0.0, "bike_id": "fd0e313e37cc4bf90bd413bed512498c", "name": "fd0e313e37cc4bf90bd413bed512498c"}, {"lon": -77.06352616666666, "is_reserved": 0, "is_disabled": 0, "type": "electric_scooter", "lat": 38.944430833333335, "rental_uris": {"ios": "https://dc.lft.to/lastmile_qr_scan", "android": "https://dc.lft.to/lastmile_qr_scan"}, "fusion_lat": 0.0, "fusion_lon": 0.0, "bike_id": "b8f33fad7fc80a9d37d5446daebc8edd", "name": "b8f33fad7fc80a9d37d5446daebc8edd"}, {"lon": -76.99573916666667, "is_reserved": 0, "is_disabled": 0, "type": "electric_bike", "lat": 39.00784616666667, "rental_uris": {"ios": "https://dc.lft.to/lastmile_qr_scan", "android": "https://dc.lft.to/lastmile_qr_scan"}, "fusion_lat": 0.0, "fusion_lon": 0.0, "bike_id": "84e260d611d6a59367ff271e7353cc36", "name": "84e260d611d6a59367ff271e7353cc36"}, {"lon": -77.00904966666667, "is_reserved": 0, "is_disabled": 0, "type": "electric_scooter", "lat": 38.8732655, "rental_uris": {"ios": "https://dc.lft.to/lastmile_qr_scan", "android": "https://dc.lft.to/lastmile_qr_scan"}, "fusion_lat": 0.0, "fusion_lon": 0.0, "bike_id": "866a7e58d73d8a49dd5bdd80abf7f4a4", "name": "866a7e58d73d8a49dd5bdd80abf7f4a4"}, {"lon": -77.03193033333334, "is_reserved": 0, "is_disabled": 0, "type": "electric_bike", "lat": 38.94179783333333, "rental_uris": {"ios": "https://dc.lft.to/lastmile_qr_scan", "android": "https://dc.lft.to/lastmile_qr_scan"}, "fusion_lat": 0.0, "fusion_lon": 0.0, "bike_id": "c60fd039542c0c4ce309fef6f832976b", "name": "c60fd039542c0c4ce309fef6f832976b"}, {"lon": -77.046755, "is_reserved": 0, "is_disabled": 0, "type": "electric_scooter", "lat": 38.8950465, "rental_uris": {"ios": "https://dc.lft.to/lastmile_qr_scan", "android": "https://dc.lft.to/lastmile_qr_scan"}, "fusion_lat": 0.0, "fusion_lon": 0.0, "bike_id": "8f17e1521a6492b551a1045cbf729246", "name": "8f17e1521a6492b551a1045cbf729246"}, {"lon": -77.02935016666666, "is_reserved": 0, "is_disabled": 0, "type": "electric_scooter", "lat": 38.89880383333333, "rental_uris": {"ios": "https://dc.lft.to/lastmile_qr_scan", "android": "https://dc.lft.to/lastmile_qr_scan"}, "fusion_lat": 0.0, "fusion_lon": 0.0, "bike_id": "347f9adeb09421a0f0e1211d95b3c328", "name": "347f9adeb09421a0f0e1211d95b3c328"}, {"lon": -77.03660733333334, "is_reserved": 0, "is_disabled": 0, "type": "electric_scooter", "lat": 38.917273333333334, "rental_uris": {"ios": "https://dc.lft.to/lastmile_qr_scan", "android": "https://dc.lft.to/lastmile_qr_scan"}, "fusion_lat": 0.0, "fusion_lon": 0.0, "bike_id": "42ccf2eec53e162b89e67ca5c7ad5fc1", "name": "42ccf2eec53e162b89e67ca5c7ad5fc1"}, {"lon": -77.03186083333334, "is_reserved": 0, "is_disabled": 0, "type": "electric_scooter", "lat": 38.88656683333333, "rental_uris": {"ios": "https://dc.lft.to/lastmile_qr_scan", "android": "https://dc.lft.to/lastmile_qr_scan"}, "fusion_lat": 0.0, "fusion_lon": 0.0, "bike_id": "8b3259babb5237d71269b1057e743e0a", "name": "8b3259babb5237d71269b1057e743e0a"}, {"lon": -77.02155016666667, "is_reserved": 0, "is_disabled": 0, "type": "electric_scooter", "lat": 38.925984, "rental_uris": {"ios": "https://dc.lft.to/lastmile_qr_scan", "android": "https://dc.lft.to/lastmile_qr_scan"}, "fusion_lat": 0.0, "fusion_lon": 0.0, "bike_id": "dc17a1bb99e17e192439db83ee1d8cc7", "name": "dc17a1bb99e17e192439db83ee1d8cc7"}, {"lon": -77.04169166666667, "is_reserved": 0, "is_disabled": 0, "type": "electric_scooter", "lat": 38.90720666666667, "rental_uris": {"ios": "https://dc.lft.to/lastmile_qr_scan", "android": "https://dc.lft.to/lastmile_qr_scan"}, "fusion_lat": 0.0, "fusion_lon": 0.0, "bike_id": "2540d4f44b86433ebc56779aa6a7b63b", "name": "2540d4f44b86433ebc56779aa6a7b63b"}, {"lon": -77.0075075, "is_reserved": 0, "is_disabled": 0, "type": "electric_scooter", "lat": 38.90046816666667, "rental_uris": {"ios": "https://dc.lft.to/lastmile_qr_scan", "android": "https://dc.lft.to/lastmile_qr_scan"}, "fusion_lat": 0.0, "fusion_lon": 0.0, "bike_id": "754ebc504b11f6f38af688019eed763c", "name": "754ebc504b11f6f38af688019eed763c"}, {"lon": -77.026698, "is_reserved": 0, "is_disabled": 0, "type": "electric_bike", "lat": 38.95484283333333, "rental_uris": {"ios": "https://dc.lft.to/lastmile_qr_scan", "android": "https://dc.lft.to/lastmile_qr_scan"}, "fusion_lat": 0.0, "fusion_lon": 0.0, "bike_id": "e3c215c16b143c50ee867b7e5e032e79", "name": "e3c215c16b143c50ee867b7e5e032e79"}, {"lon": -77.06619366666666, "is_reserved": 0, "is_disabled": 0, "type": "electric_scooter", "lat": 38.904469, "rental_uris": {"ios": "https://dc.lft.to/lastmile_qr_scan", "android": "https://dc.lft.to/lastmile_qr_scan"}, "fusion_lat": 0.0, "fusion_lon": 0.0, "bike_id": "a2eaacf454b34d8ffb8fa7c0cab5a9bb", "name": "a2eaacf454b34d8ffb8fa7c0cab5a9bb"}, {"lon": -77.03218683333333, "is_reserved": 0, "is_disabled": 0, "type": "electric_scooter", "lat": 38.91467816666667, "rental_uris": {"ios": "https://dc.lft.to/lastmile_qr_scan", "android": "https://dc.lft.to/lastmile_qr_scan"}, "fusion_lat": 0.0, "fusion_lon": 0.0, "bike_id": "4ece4b269bb38ccd8b436f56ddf713f6", "name": "4ece4b269bb38ccd8b436f56ddf713f6"}, {"lon": -77.029517, "is_reserved": 0, "is_disabled": 0, "type": "electric_scooter", "lat": 38.9168175, "rental_uris": {"ios": "https://dc.lft.to/lastmile_qr_scan", "android": "https://dc.lft.to/lastmile_qr_scan"}, "fusion_lat": 0.0, "fusion_lon": 0.0, "bike_id": "47f41d2253c53bbf13374c04e21512ef", "name": "47f41d2253c53bbf13374c04e21512ef"}, {"lon": -76.9921325, "is_reserved": 0, "is_disabled": 0, "type": "electric_scooter", "lat": 38.895111166666666, "rental_uris": {"ios": "https://dc.lft.to/lastmile_qr_scan", "android": "https://dc.lft.to/lastmile_qr_scan"}, "fusion_lat": 0.0, "fusion_lon": 0.0, "bike_id": "a36b793e1da5d8b60a701d21ec25e5a1", "name": "a36b793e1da5d8b60a701d21ec25e5a1"}, {"lon": -76.994169, "is_reserved": 0, "is_disabled": 0, "type": "electric_scooter", "lat": 38.9330735, "rental_uris": {"ios": "https://dc.lft.to/lastmile_qr_scan", "android": "https://dc.lft.to/lastmile_qr_scan"}, "fusion_lat": 0.0, "fusion_lon": 0.0, "bike_id": "f38c511dabd7a8881bee4699f843b424", "name": "f38c511dabd7a8881bee4699f843b424"}, {"lon": -77.02955866666667, "is_reserved": 0, "is_disabled": 0, "type": "electric_scooter", "lat": 38.92238033333334, "rental_uris": {"ios": "https://dc.lft.to/lastmile_qr_scan", "android": "https://dc.lft.to/lastmile_qr_scan"}, "fusion_lat": 0.0, "fusion_lon": 0.0, "bike_id": "72007379fa8f03102557929d62d45dd3", "name": "72007379fa8f03102557929d62d45dd3"}, {"lon": -76.99807566666667, "is_reserved": 0, "is_disabled": 0, "type": "electric_scooter", "lat": 38.87668466666667, "rental_uris": {"ios": "https://dc.lft.to/lastmile_qr_scan", "android": "https://dc.lft.to/lastmile_qr_scan"}, "fusion_lat": 0.0, "fusion_lon": 0.0, "bike_id": "115fbe15c454cd96523b696b0e11fb28", "name": "115fbe15c454cd96523b696b0e11fb28"}, {"lon": -77.02494416666667, "is_reserved": 0, "is_disabled": 0, "type": "electric_scooter", "lat": 38.94183483333333, "rental_uris": {"ios": "https://dc.lft.to/lastmile_qr_scan", "android": "https://dc.lft.to/lastmile_qr_scan"}, "fusion_lat": 0.0, "fusion_lon": 0.0, "bike_id": "22b741437fff8bd25ec34adc12f302c8", "name": "22b741437fff8bd25ec34adc12f302c8"}, {"lon": -77.047374, "is_reserved": 0, "is_disabled": 0, "type": "electric_scooter", "lat": 38.9014705, "rental_uris": {"ios": "https://dc.lft.to/lastmile_qr_scan", "android": "https://dc.lft.to/lastmile_qr_scan"}, "fusion_lat": 0.0, "fusion_lon": 0.0, "bike_id": "7a275f847c4722b559d51fbd8d7121e1", "name": "7a275f847c4722b559d51fbd8d7121e1"}, {"lon": -77.019504, "is_reserved": 0, "is_disabled": 0, "type": "electric_scooter", "lat": 38.9225615, "rental_uris": {"ios": "https://dc.lft.to/lastmile_qr_scan", "android": "https://dc.lft.to/lastmile_qr_scan"}, "fusion_lat": 0.0, "fusion_lon": 0.0, "bike_id": "4673f4dec60ac1faf58a17c26d4a7df1", "name": "4673f4dec60ac1faf58a17c26d4a7df1"}, {"lon": -76.92917183333333, "is_reserved": 0, "is_disabled": 0, "type": "electric_bike", "lat": 38.9802435, "rental_uris": {"ios": "https://dc.lft.to/lastmile_qr_scan", "android": "https://dc.lft.to/lastmile_qr_scan"}, "fusion_lat": 0.0, "fusion_lon": 0.0, "bike_id": "76cb2661aed2b191d292e26e29455eee", "name": "76cb2661aed2b191d292e26e29455eee"}, {"lon": -76.92776533333333, "is_reserved": 0, "is_disabled": 0, "type": "electric_scooter", "lat": 38.90271416666667, "rental_uris": {"ios": "https://dc.lft.to/lastmile_qr_scan", "android": "https://dc.lft.to/lastmile_qr_scan"}, "fusion_lat": 0.0, "fusion_lon": 0.0, "bike_id": "cd6abe4ac4610f7c6a15c7de1b1e6d80", "name": "cd6abe4ac4610f7c6a15c7de1b1e6d80"}, {"lon": -77.05065516666667, "is_reserved": 0, "is_disabled": 0, "type": "electric_scooter", "lat": 38.90074116666667, "rental_uris": {"ios": "https://dc.lft.to/lastmile_qr_scan", "android": "https://dc.lft.to/lastmile_qr_scan"}, "fusion_lat": 0.0, "fusion_lon": 0.0, "bike_id": "d920cbbdb6f36dc4de5469ea1d53bdc0", "name": "d920cbbdb6f36dc4de5469ea1d53bdc0"}, {"lon": -77.02714616666667, "is_reserved": 0, "is_disabled": 0, "type": "electric_scooter", "lat": 38.90667716666667, "rental_uris": {"ios": "https://dc.lft.to/lastmile_qr_scan", "android": "https://dc.lft.to/lastmile_qr_scan"}, "fusion_lat": 0.0, "fusion_lon": 0.0, "bike_id": "3fd7b8547d3c967091237f3235bca48a", "name": "3fd7b8547d3c967091237f3235bca48a"}, {"lon": -77.00293266666667, "is_reserved": 0, "is_disabled": 0, "type": "electric_scooter", "lat": 38.908929, "rental_uris": {"ios": "https://dc.lft.to/lastmile_qr_scan", "android": "https://dc.lft.to/lastmile_qr_scan"}, "fusion_lat": 0.0, "fusion_lon": 0.0, "bike_id": "0d7561d0a7fc2f0f6006962f7131139c", "name": "0d7561d0a7fc2f0f6006962f7131139c"}, {"lon": -77.057935, "is_reserved": 0, "is_disabled": 0, "type": "electric_scooter", "lat": 38.934778666666666, "rental_uris": {"ios": "https://dc.lft.to/lastmile_qr_scan", "android": "https://dc.lft.to/lastmile_qr_scan"}, "fusion_lat": 0.0, "fusion_lon": 0.0, "bike_id": "cb239a6412c9cd17428714a3e276dcc0", "name": "cb239a6412c9cd17428714a3e276dcc0"}, {"lon": -77.04667383333333, "is_reserved": 0, "is_disabled": 0, "type": "electric_scooter", "lat": 38.90380116666667, "rental_uris": {"ios": "https://dc.lft.to/lastmile_qr_scan", "android": "https://dc.lft.to/lastmile_qr_scan"}, "fusion_lat": 0.0, "fusion_lon": 0.0, "bike_id": "08b1bfcb04fdd2db96392387329a9021", "name": "08b1bfcb04fdd2db96392387329a9021"}, {"lon": -77.0456885, "is_reserved": 0, "is_disabled": 0, "type": "electric_scooter", "lat": 38.90745733333333, "rental_uris": {"ios": "https://dc.lft.to/lastmile_qr_scan", "android": "https://dc.lft.to/lastmile_qr_scan"}, "fusion_lat": 0.0, "fusion_lon": 0.0, "bike_id": "1e2cee4758589c1168855347ae385f08", "name": "1e2cee4758589c1168855347ae385f08"}, {"lon": -77.0416975, "is_reserved": 0, "is_disabled": 0, "type": "electric_scooter", "lat": 38.913373, "rental_uris": {"ios": "https://dc.lft.to/lastmile_qr_scan", "android": "https://dc.lft.to/lastmile_qr_scan"}, "fusion_lat": 0.0, "fusion_lon": 0.0, "bike_id": "258fd4790628fe09e902068af619db56", "name": "258fd4790628fe09e902068af619db56"}, {"lon": -77.022867, "is_reserved": 0, "is_disabled": 0, "type": "electric_scooter", "lat": 38.90141583333333, "rental_uris": {"ios": "https://dc.lft.to/lastmile_qr_scan", "android": "https://dc.lft.to/lastmile_qr_scan"}, "fusion_lat": 0.0, "fusion_lon": 0.0, "bike_id": "3492cb5d47507c1fcd46e42a3f31da56", "name": "3492cb5d47507c1fcd46e42a3f31da56"}, {"lon": -76.94641816666666, "is_reserved": 0, "is_disabled": 0, "type": "electric_scooter", "lat": 38.898433833333335, "rental_uris": {"ios": "https://dc.lft.to/lastmile_qr_scan", "android": "https://dc.lft.to/lastmile_qr_scan"}, "fusion_lat": 0.0, "fusion_lon": 0.0, "bike_id": "0d0ca374d0411fb00cf0a0b07fef201d", "name": "0d0ca374d0411fb00cf0a0b07fef201d"}, {"lon": -76.99446216666666, "is_reserved": 0, "is_disabled": 0, "type": "electric_scooter", "lat": 38.90509633333333, "rental_uris": {"ios": "https://dc.lft.to/lastmile_qr_scan", "android": "https://dc.lft.to/lastmile_qr_scan"}, "fusion_lat": 0.0, "fusion_lon": 0.0, "bike_id": "476e1895563f2b6846403b69ac3aab46", "name": "476e1895563f2b6846403b69ac3aab46"}, {"lon": -77.0201425, "is_reserved": 0, "is_disabled": 0, "type": "electric_scooter", "lat": 38.903654, "rental_uris": {"ios": "https://dc.lft.to/lastmile_qr_scan", "android": "https://dc.lft.to/lastmile_qr_scan"}, "fusion_lat": 0.0, "fusion_lon": 0.0, "bike_id": "d3bd6374e572614ff10b02e5d520d2f0", "name": "d3bd6374e572614ff10b02e5d520d2f0"}, {"lon": -76.95521483333333, "is_reserved": 0, "is_disabled": 0, "type": "electric_scooter", "lat": 38.89052916666667, "rental_uris": {"ios": "https://dc.lft.to/lastmile_qr_scan", "android": "https://dc.lft.to/lastmile_qr_scan"}, "fusion_lat": 0.0, "fusion_lon": 0.0, "bike_id": "71a023265bddec109d1c732e46e62809", "name": "71a023265bddec109d1c732e46e62809"}, {"lon": -77.03437966666667, "is_reserved": 0, "is_disabled": 0, "type": "electric_scooter", "lat": 38.9044045, "rental_uris": {"ios": "https://dc.lft.to/lastmile_qr_scan", "android": "https://dc.lft.to/lastmile_qr_scan"}, "fusion_lat": 0.0, "fusion_lon": 0.0, "bike_id": "0cdfdcd9a726a93121223baa442ab23d", "name": "0cdfdcd9a726a93121223baa442ab23d"}, {"lon": -77.0260855, "is_reserved": 0, "is_disabled": 0, "type": "electric_scooter", "lat": 38.914237166666666, "rental_uris": {"ios": "https://dc.lft.to/lastmile_qr_scan", "android": "https://dc.lft.to/lastmile_qr_scan"}, "fusion_lat": 0.0, "fusion_lon": 0.0, "bike_id": "fd0b23cdc99bb7a390c86f86264d11e3", "name": "fd0b23cdc99bb7a390c86f86264d11e3"}, {"lon": -77.04139166666667, "is_reserved": 0, "is_disabled": 0, "type": "electric_scooter", "lat": 38.91690766666667, "rental_uris": {"ios": "https://dc.lft.to/lastmile_qr_scan", "android": "https://dc.lft.to/lastmile_qr_scan"}, "fusion_lat": 0.0, "fusion_lon": 0.0, "bike_id": "9a6b5aed577e1e1094dd2a02d37f0406", "name": "9a6b5aed577e1e1094dd2a02d37f0406"}, {"lon": -77.021053, "is_reserved": 0, "is_disabled": 0, "type": "electric_scooter", "lat": 38.94096416666667, "rental_uris": {"ios": "https://dc.lft.to/lastmile_qr_scan", "android": "https://dc.lft.to/lastmile_qr_scan"}, "fusion_lat": 0.0, "fusion_lon": 0.0, "bike_id": "c11982eff67b061422929df630bb7e4b", "name": "c11982eff67b061422929df630bb7e4b"}, {"lon": -77.0298575, "is_reserved": 0, "is_disabled": 0, "type": "electric_scooter", "lat": 38.9405405, "rental_uris": {"ios": "https://dc.lft.to/lastmile_qr_scan", "android": "https://dc.lft.to/lastmile_qr_scan"}, "fusion_lat": 0.0, "fusion_lon": 0.0, "bike_id": "328da7b2d80d2aca63b96bbc9ff4da06", "name": "328da7b2d80d2aca63b96bbc9ff4da06"}, {"lon": -76.96504733333333, "is_reserved": 0, "is_disabled": 0, "type": "electric_scooter", "lat": 38.87646633333333, "rental_uris": {"ios": "https://dc.lft.to/lastmile_qr_scan", "android": "https://dc.lft.to/lastmile_qr_scan"}, "fusion_lat": 0.0, "fusion_lon": 0.0, "bike_id": "2d1c9e3671b6563428fff3ad257e477b", "name": "2d1c9e3671b6563428fff3ad257e477b"}, {"lon": -76.99629533333334, "is_reserved": 0, "is_disabled": 0, "type": "electric_scooter", "lat": 38.84619983333333, "rental_uris": {"ios": "https://dc.lft.to/lastmile_qr_scan", "android": "https://dc.lft.to/lastmile_qr_scan"}, "fusion_lat": 0.0, "fusion_lon": 0.0, "bike_id": "ffdffb248b1c0951645d15fa682d3f3b", "name": "ffdffb248b1c0951645d15fa682d3f3b"}, {"lon": -77.00798383333333, "is_reserved": 0, "is_disabled": 0, "type": "electric_scooter", "lat": 38.89680966666667, "rental_uris": {"ios": "https://dc.lft.to/lastmile_qr_scan", "android": "https://dc.lft.to/lastmile_qr_scan"}, "fusion_lat": 0.0, "fusion_lon": 0.0, "bike_id": "bdaa010948609caf0c93f128f2547f44", "name": "bdaa010948609caf0c93f128f2547f44"}, {"lon": -77.05011466666667, "is_reserved": 0, "is_disabled": 0, "type": "electric_scooter", "lat": 38.895487833333334, "rental_uris": {"ios": "https://dc.lft.to/lastmile_qr_scan", "android": "https://dc.lft.to/lastmile_qr_scan"}, "fusion_lat": 0.0, "fusion_lon": 0.0, "bike_id": "ee3b0b16c9f7b7349552ebe70c93fbbf", "name": "ee3b0b16c9f7b7349552ebe70c93fbbf"}, {"lon": -77.03217166666667, "is_reserved": 0, "is_disabled": 0, "type": "electric_scooter", "lat": 38.92869366666667, "rental_uris": {"ios": "https://dc.lft.to/lastmile_qr_scan", "android": "https://dc.lft.to/lastmile_qr_scan"}, "fusion_lat": 0.0, "fusion_lon": 0.0, "bike_id": "ae820419ae25502b5ee73dc9d64909d3", "name": "ae820419ae25502b5ee73dc9d64909d3"}, {"lon": -77.025874, "is_reserved": 0, "is_disabled": 0, "type": "electric_scooter", "lat": 38.899771333333334, "rental_uris": {"ios": "https://dc.lft.to/lastmile_qr_scan", "android": "https://dc.lft.to/lastmile_qr_scan"}, "fusion_lat": 0.0, "fusion_lon": 0.0, "bike_id": "2282e1664f8df347df845344b59a546f", "name": "2282e1664f8df347df845344b59a546f"}, {"lon": -77.02373333333334, "is_reserved": 0, "is_disabled": 0, "type": "electric_scooter", "lat": 38.901973, "rental_uris": {"ios": "https://dc.lft.to/lastmile_qr_scan", "android": "https://dc.lft.to/lastmile_qr_scan"}, "fusion_lat": 0.0, "fusion_lon": 0.0, "bike_id": "e9f3375effc0d0a17ecd7d8e41367ae2", "name": "e9f3375effc0d0a17ecd7d8e41367ae2"}, {"lon": -77.03077366666666, "is_reserved": 0, "is_disabled": 0, "type": "electric_scooter", "lat": 38.907554166666664, "rental_uris": {"ios": "https://dc.lft.to/lastmile_qr_scan", "android": "https://dc.lft.to/lastmile_qr_scan"}, "fusion_lat": 0.0, "fusion_lon": 0.0, "bike_id": "c205dfe799fdf38ecafb35c03959d102", "name": "c205dfe799fdf38ecafb35c03959d102"}, {"lon": -77.02343333333333, "is_reserved": 0, "is_disabled": 0, "type": "electric_scooter", "lat": 38.917707, "rental_uris": {"ios": "https://dc.lft.to/lastmile_qr_scan", "android": "https://dc.lft.to/lastmile_qr_scan"}, "fusion_lat": 0.0, "fusion_lon": 0.0, "bike_id": "854637c1fce3db243986881e1fd2df96", "name": "854637c1fce3db243986881e1fd2df96"}, {"lon": -76.936742, "is_reserved": 0, "is_disabled": 0, "type": "electric_scooter", "lat": 38.887504166666666, "rental_uris": {"ios": "https://dc.lft.to/lastmile_qr_scan", "android": "https://dc.lft.to/lastmile_qr_scan"}, "fusion_lat": 0.0, "fusion_lon": 0.0, "bike_id": "4e08e8da07b6cb7c900ea9f6c61e9356", "name": "4e08e8da07b6cb7c900ea9f6c61e9356"}, {"lon": -77.04002166666666, "is_reserved": 0, "is_disabled": 0, "type": "electric_scooter", "lat": 38.93248833333333, "rental_uris": {"ios": "https://dc.lft.to/lastmile_qr_scan", "android": "https://dc.lft.to/lastmile_qr_scan"}, "fusion_lat": 0.0, "fusion_lon": 0.0, "bike_id": "dbcd26473cb332b17e64a246234a5fa4", "name": "dbcd26473cb332b17e64a246234a5fa4"}, {"lon": -77.0034565, "is_reserved": 0, "is_disabled": 0, "type": "electric_scooter", "lat": 38.877595, "rental_uris": {"ios": "https://dc.lft.to/lastmile_qr_scan", "android": "https://dc.lft.to/lastmile_qr_scan"}, "fusion_lat": 0.0, "fusion_lon": 0.0, "bike_id": "c315083e80e0994eb2ad2c36af0d3203", "name": "c315083e80e0994eb2ad2c36af0d3203"}, {"lon": -77.1323345, "is_reserved": 0, "is_disabled": 0, "type": "electric_bike", "lat": 38.869745333333334, "rental_uris": {"ios": "https://dc.lft.to/lastmile_qr_scan", "android": "https://dc.lft.to/lastmile_qr_scan"}, "fusion_lat": 0.0, "fusion_lon": 0.0, "bike_id": "bb53e99390da2a32563844d0a5ac9395", "name": "bb53e99390da2a32563844d0a5ac9395"}, {"lon": -77.02309616666666, "is_reserved": 0, "is_disabled": 0, "type": "electric_scooter", "lat": 38.917706833333334, "rental_uris": {"ios": "https://dc.lft.to/lastmile_qr_scan", "android": "https://dc.lft.to/lastmile_qr_scan"}, "fusion_lat": 0.0, "fusion_lon": 0.0, "bike_id": "d4b3ba2544761ee10fbb81b28b9f08ee", "name": "d4b3ba2544761ee10fbb81b28b9f08ee"}, {"lon": -77.00745766666667, "is_reserved": 0, "is_disabled": 0, "type": "electric_scooter", "lat": 38.87647533333333, "rental_uris": {"ios": "https://dc.lft.to/lastmile_qr_scan", "android": "https://dc.lft.to/lastmile_qr_scan"}, "fusion_lat": 0.0, "fusion_lon": 0.0, "bike_id": "773a614320421c5c87b9efb49a1bbd42", "name": "773a614320421c5c87b9efb49a1bbd42"}, {"lon": -77.0056675, "is_reserved": 0, "is_disabled": 0, "type": "electric_scooter", "lat": 38.88500966666667, "rental_uris": {"ios": "https://dc.lft.to/lastmile_qr_scan", "android": "https://dc.lft.to/lastmile_qr_scan"}, "fusion_lat": 0.0, "fusion_lon": 0.0, "bike_id": "4c0981c92290d934822fe7501041da9e", "name": "4c0981c92290d934822fe7501041da9e"}, {"lon": -77.01568383333333, "is_reserved": 0, "is_disabled": 0, "type": "electric_scooter", "lat": 38.891412833333334, "rental_uris": {"ios": "https://dc.lft.to/lastmile_qr_scan", "android": "https://dc.lft.to/lastmile_qr_scan"}, "fusion_lat": 0.0, "fusion_lon": 0.0, "bike_id": "295df0d4addaf9599ba9899bfe8560f8", "name": "295df0d4addaf9599ba9899bfe8560f8"}, {"lon": -76.997913, "is_reserved": 0, "is_disabled": 0, "type": "electric_bike", "lat": 38.905619333333334, "rental_uris": {"ios": "https://dc.lft.to/lastmile_qr_scan", "android": "https://dc.lft.to/lastmile_qr_scan"}, "fusion_lat": 0.0, "fusion_lon": 0.0, "bike_id": "0c3f64ff9b5ff75a82a503829e174a73", "name": "0c3f64ff9b5ff75a82a503829e174a73"}, {"lon": -77.01055033333333, "is_reserved": 0, "is_disabled": 0, "type": "electric_scooter", "lat": 38.900282833333335, "rental_uris": {"ios": "https://dc.lft.to/lastmile_qr_scan", "android": "https://dc.lft.to/lastmile_qr_scan"}, "fusion_lat": 0.0, "fusion_lon": 0.0, "bike_id": "40876577bbbd794cc166be1b15f0b222", "name": "40876577bbbd794cc166be1b15f0b222"}, {"lon": -77.02532266666667, "is_reserved": 0, "is_disabled": 0, "type": "electric_scooter", "lat": 38.9008885, "rental_uris": {"ios": "https://dc.lft.to/lastmile_qr_scan", "android": "https://dc.lft.to/lastmile_qr_scan"}, "fusion_lat": 0.0, "fusion_lon": 0.0, "bike_id": "836737a5c683900f5d182b4d0d897776", "name": "836737a5c683900f5d182b4d0d897776"}, {"lon": -77.02175516666667, "is_reserved": 0, "is_disabled": 0, "type": "electric_scooter", "lat": 38.9428905, "rental_uris": {"ios": "https://dc.lft.to/lastmile_qr_scan", "android": "https://dc.lft.to/lastmile_qr_scan"}, "fusion_lat": 0.0, "fusion_lon": 0.0, "bike_id": "c4a980c14fe7f709203b685c112e2e7b", "name": "c4a980c14fe7f709203b685c112e2e7b"}, {"lon": -77.04675866666666, "is_reserved": 0, "is_disabled": 0, "type": "electric_scooter", "lat": 38.904211333333336, "rental_uris": {"ios": "https://dc.lft.to/lastmile_qr_scan", "android": "https://dc.lft.to/lastmile_qr_scan"}, "fusion_lat": 0.0, "fusion_lon": 0.0, "bike_id": "b1027002812c12f23bffbbee0f1ecb27", "name": "b1027002812c12f23bffbbee0f1ecb27"}, {"lon": -77.03493716666667, "is_reserved": 0, "is_disabled": 0, "type": "electric_scooter", "lat": 38.918813, "rental_uris": {"ios": "https://dc.lft.to/lastmile_qr_scan", "android": "https://dc.lft.to/lastmile_qr_scan"}, "fusion_lat": 0.0, "fusion_lon": 0.0, "bike_id": "9f3b7079cfae60fc0757a674ec42618b", "name": "9f3b7079cfae60fc0757a674ec42618b"}, {"lon": -77.03336766666666, "is_reserved": 0, "is_disabled": 0, "type": "electric_scooter", "lat": 38.8982095, "rental_uris": {"ios": "https://dc.lft.to/lastmile_qr_scan", "android": "https://dc.lft.to/lastmile_qr_scan"}, "fusion_lat": 0.0, "fusion_lon": 0.0, "bike_id": "258e883e0e14d7bc7bcfd9176aeb183c", "name": "258e883e0e14d7bc7bcfd9176aeb183c"}, {"lon": -77.07170866666667, "is_reserved": 0, "is_disabled": 0, "type": "electric_scooter", "lat": 38.9077665, "rental_uris": {"ios": "https://dc.lft.to/lastmile_qr_scan", "android": "https://dc.lft.to/lastmile_qr_scan"}, "fusion_lat": 0.0, "fusion_lon": 0.0, "bike_id": "ab657375028152b2b408d3dfd20812b6", "name": "ab657375028152b2b408d3dfd20812b6"}, {"lon": -77.044962, "is_reserved": 0, "is_disabled": 0, "type": "electric_scooter", "lat": 38.9141515, "rental_uris": {"ios": "https://dc.lft.to/lastmile_qr_scan", "android": "https://dc.lft.to/lastmile_qr_scan"}, "fusion_lat": 0.0, "fusion_lon": 0.0, "bike_id": "9ee14b6596235145519ce9d71f96bf50", "name": "9ee14b6596235145519ce9d71f96bf50"}, {"lon": -77.03351783333333, "is_reserved": 0, "is_disabled": 0, "type": "electric_scooter", "lat": 38.89528583333333, "rental_uris": {"ios": "https://dc.lft.to/lastmile_qr_scan", "android": "https://dc.lft.to/lastmile_qr_scan"}, "fusion_lat": 0.0, "fusion_lon": 0.0, "bike_id": "3c0ba201b6afe3168006234afcc058a8", "name": "3c0ba201b6afe3168006234afcc058a8"}, {"lon": -77.011056, "is_reserved": 0, "is_disabled": 0, "type": "electric_scooter", "lat": 38.9078585, "rental_uris": {"ios": "https://dc.lft.to/lastmile_qr_scan", "android": "https://dc.lft.to/lastmile_qr_scan"}, "fusion_lat": 0.0, "fusion_lon": 0.0, "bike_id": "2047bfe8e20d40e66fa916ea51256432", "name": "2047bfe8e20d40e66fa916ea51256432"}, {"lon": -76.9859265, "is_reserved": 0, "is_disabled": 0, "type": "electric_scooter", "lat": 38.8839005, "rental_uris": {"ios": "https://dc.lft.to/lastmile_qr_scan", "android": "https://dc.lft.to/lastmile_qr_scan"}, "fusion_lat": 0.0, "fusion_lon": 0.0, "bike_id": "8dad62e266c9f15503cfbb6f1c661557", "name": "8dad62e266c9f15503cfbb6f1c661557"}, {"lon": -77.039468, "is_reserved": 0, "is_disabled": 0, "type": "electric_scooter", "lat": 38.916896, "rental_uris": {"ios": "https://dc.lft.to/lastmile_qr_scan", "android": "https://dc.lft.to/lastmile_qr_scan"}, "fusion_lat": 0.0, "fusion_lon": 0.0, "bike_id": "702c2946586b23e765d211623600dab9", "name": "702c2946586b23e765d211623600dab9"}, {"lon": -77.36091733333333, "is_reserved": 0, "is_disabled": 0, "type": "electric_bike", "lat": 38.939632833333334, "rental_uris": {"ios": "https://dc.lft.to/lastmile_qr_scan", "android": "https://dc.lft.to/lastmile_qr_scan"}, "fusion_lat": 0.0, "fusion_lon": 0.0, "bike_id": "7206d5c69715d1def3ce2b8ab093271c", "name": "7206d5c69715d1def3ce2b8ab093271c"}, {"lon": -77.02172, "is_reserved": 0, "is_disabled": 0, "type": "electric_scooter", "lat": 38.942925, "rental_uris": {"ios": "https://dc.lft.to/lastmile_qr_scan", "android": "https://dc.lft.to/lastmile_qr_scan"}, "fusion_lat": 0.0, "fusion_lon": 0.0, "bike_id": "6677f8fd253be6ffa557ba5b397551c0", "name": "6677f8fd253be6ffa557ba5b397551c0"}, {"lon": -77.031783, "is_reserved": 0, "is_disabled": 0, "type": "electric_scooter", "lat": 38.899715666666665, "rental_uris": {"ios": "https://dc.lft.to/lastmile_qr_scan", "android": "https://dc.lft.to/lastmile_qr_scan"}, "fusion_lat": 0.0, "fusion_lon": 0.0, "bike_id": "5b39023bb145337dc5770bd73efe3157", "name": "5b39023bb145337dc5770bd73efe3157"}, {"lon": -77.03048716666666, "is_reserved": 0, "is_disabled": 0, "type": "electric_scooter", "lat": 38.939778, "rental_uris": {"ios": "https://dc.lft.to/lastmile_qr_scan", "android": "https://dc.lft.to/lastmile_qr_scan"}, "fusion_lat": 0.0, "fusion_lon": 0.0, "bike_id": "7d53234232c1d650b0e8c14b1d883982", "name": "7d53234232c1d650b0e8c14b1d883982"}, {"lon": -77.026014, "is_reserved": 0, "is_disabled": 0, "type": "electric_scooter", "lat": 38.883575666666665, "rental_uris": {"ios": "https://dc.lft.to/lastmile_qr_scan", "android": "https://dc.lft.to/lastmile_qr_scan"}, "fusion_lat": 0.0, "fusion_lon": 0.0, "bike_id": "83c72b9ce770df3d5ebad3aea61dd195", "name": "83c72b9ce770df3d5ebad3aea61dd195"}, {"lon": -77.03852566666667, "is_reserved": 0, "is_disabled": 0, "type": "electric_scooter", "lat": 38.915327833333336, "rental_uris": {"ios": "https://dc.lft.to/lastmile_qr_scan", "android": "https://dc.lft.to/lastmile_qr_scan"}, "fusion_lat": 0.0, "fusion_lon": 0.0, "bike_id": "c4ea97150bd13b9a7d99ef1fc4af586a", "name": "c4ea97150bd13b9a7d99ef1fc4af586a"}, {"lon": -77.04755166666666, "is_reserved": 0, "is_disabled": 0, "type": "electric_scooter", "lat": 38.90975516666666, "rental_uris": {"ios": "https://dc.lft.to/lastmile_qr_scan", "android": "https://dc.lft.to/lastmile_qr_scan"}, "fusion_lat": 0.0, "fusion_lon": 0.0, "bike_id": "60d00632ef85c10219a4befd0c5a69f3", "name": "60d00632ef85c10219a4befd0c5a69f3"}, {"lon": -77.01402983333334, "is_reserved": 0, "is_disabled": 0, "type": "electric_scooter", "lat": 38.87902033333334, "rental_uris": {"ios": "https://dc.lft.to/lastmile_qr_scan", "android": "https://dc.lft.to/lastmile_qr_scan"}, "fusion_lat": 0.0, "fusion_lon": 0.0, "bike_id": "e72785b2944d7368ffd067bf3a1fbae7", "name": "e72785b2944d7368ffd067bf3a1fbae7"}, {"lon": -77.0211565, "is_reserved": 0, "is_disabled": 0, "type": "electric_scooter", "lat": 38.917364666666664, "rental_uris": {"ios": "https://dc.lft.to/lastmile_qr_scan", "android": "https://dc.lft.to/lastmile_qr_scan"}, "fusion_lat": 0.0, "fusion_lon": 0.0, "bike_id": "c959e8bc8ded9146a2902beff747cee3", "name": "c959e8bc8ded9146a2902beff747cee3"}, {"lon": -77.04181116666666, "is_reserved": 0, "is_disabled": 0, "type": "electric_scooter", "lat": 38.911388333333335, "rental_uris": {"ios": "https://dc.lft.to/lastmile_qr_scan", "android": "https://dc.lft.to/lastmile_qr_scan"}, "fusion_lat": 0.0, "fusion_lon": 0.0, "bike_id": "dd8826d7fcdabcfa1239bc4ecca4adcd", "name": "dd8826d7fcdabcfa1239bc4ecca4adcd"}, {"lon": -77.037851, "is_reserved": 0, "is_disabled": 0, "type": "electric_scooter", "lat": 38.9262435, "rental_uris": {"ios": "https://dc.lft.to/lastmile_qr_scan", "android": "https://dc.lft.to/lastmile_qr_scan"}, "fusion_lat": 0.0, "fusion_lon": 0.0, "bike_id": "fc6997d35f628cea5a407feb6d92bee5", "name": "fc6997d35f628cea5a407feb6d92bee5"}, {"lon": -77.00160616666666, "is_reserved": 0, "is_disabled": 0, "type": "electric_bike", "lat": 38.94098366666667, "rental_uris": {"ios": "https://dc.lft.to/lastmile_qr_scan", "android": "https://dc.lft.to/lastmile_qr_scan"}, "fusion_lat": 0.0, "fusion_lon": 0.0, "bike_id": "e8fb138ad16147726acaac3c0703b96c", "name": "e8fb138ad16147726acaac3c0703b96c"}, {"lon": -77.0434705, "is_reserved": 0, "is_disabled": 0, "type": "electric_scooter", "lat": 38.91052583333333, "rental_uris": {"ios": "https://dc.lft.to/lastmile_qr_scan", "android": "https://dc.lft.to/lastmile_qr_scan"}, "fusion_lat": 0.0, "fusion_lon": 0.0, "bike_id": "0a91a993283b01ab1a943ce671ef09b7", "name": "0a91a993283b01ab1a943ce671ef09b7"}, {"lon": -76.99963783333334, "is_reserved": 0, "is_disabled": 0, "type": "electric_scooter", "lat": 38.893155666666665, "rental_uris": {"ios": "https://dc.lft.to/lastmile_qr_scan", "android": "https://dc.lft.to/lastmile_qr_scan"}, "fusion_lat": 0.0, "fusion_lon": 0.0, "bike_id": "0f284430afa660dc3663d6bc6cf13cc3", "name": "0f284430afa660dc3663d6bc6cf13cc3"}, {"lon": -77.0332385, "is_reserved": 0, "is_disabled": 0, "type": "electric_scooter", "lat": 38.900263333333335, "rental_uris": {"ios": "https://dc.lft.to/lastmile_qr_scan", "android": "https://dc.lft.to/lastmile_qr_scan"}, "fusion_lat": 0.0, "fusion_lon": 0.0, "bike_id": "69a9cc55d22f52ecf5ddf5adfbeb448a", "name": "69a9cc55d22f52ecf5ddf5adfbeb448a"}, {"lon": -77.022039, "is_reserved": 0, "is_disabled": 0, "type": "electric_scooter", "lat": 38.91527583333333, "rental_uris": {"ios": "https://dc.lft.to/lastmile_qr_scan", "android": "https://dc.lft.to/lastmile_qr_scan"}, "fusion_lat": 0.0, "fusion_lon": 0.0, "bike_id": "601c0ae3f0cd2c66a2c4ede7c23b9859", "name": "601c0ae3f0cd2c66a2c4ede7c23b9859"}, {"lon": -77.00437233333334, "is_reserved": 0, "is_disabled": 0, "type": "electric_scooter", "lat": 38.87673683333333, "rental_uris": {"ios": "https://dc.lft.to/lastmile_qr_scan", "android": "https://dc.lft.to/lastmile_qr_scan"}, "fusion_lat": 0.0, "fusion_lon": 0.0, "bike_id": "070a10402470cb702d85db97dc439934", "name": "070a10402470cb702d85db97dc439934"}, {"lon": -77.03392716666667, "is_reserved": 0, "is_disabled": 0, "type": "electric_bike", "lat": 38.96030666666667, "rental_uris": {"ios": "https://dc.lft.to/lastmile_qr_scan", "android": "https://dc.lft.to/lastmile_qr_scan"}, "fusion_lat": 0.0, "fusion_lon": 0.0, "bike_id": "bb95a0a55ee6d14ff4943ae2c57abfdf", "name": "bb95a0a55ee6d14ff4943ae2c57abfdf"}, {"lon": -77.02290366666666, "is_reserved": 0, "is_disabled": 0, "type": "electric_scooter", "lat": 38.91603, "rental_uris": {"ios": "https://dc.lft.to/lastmile_qr_scan", "android": "https://dc.lft.to/lastmile_qr_scan"}, "fusion_lat": 0.0, "fusion_lon": 0.0, "bike_id": "ef7410e02a8ea7685fcebdf59ee30c47", "name": "ef7410e02a8ea7685fcebdf59ee30c47"}, {"lon": -77.03985516666667, "is_reserved": 0, "is_disabled": 0, "type": "electric_scooter", "lat": 38.903993, "rental_uris": {"ios": "https://dc.lft.to/lastmile_qr_scan", "android": "https://dc.lft.to/lastmile_qr_scan"}, "fusion_lat": 0.0, "fusion_lon": 0.0, "bike_id": "e552df99c61e41f0119ff0e1b0a93e9f", "name": "e552df99c61e41f0119ff0e1b0a93e9f"}, {"lon": -77.03440033333334, "is_reserved": 0, "is_disabled": 0, "type": "electric_scooter", "lat": 38.90520983333333, "rental_uris": {"ios": "https://dc.lft.to/lastmile_qr_scan", "android": "https://dc.lft.to/lastmile_qr_scan"}, "fusion_lat": 0.0, "fusion_lon": 0.0, "bike_id": "6548f6178d4eef513b0b7e535bff1aaf", "name": "6548f6178d4eef513b0b7e535bff1aaf"}, {"lon": -77.01365233333334, "is_reserved": 0, "is_disabled": 0, "type": "electric_scooter", "lat": 38.88705366666667, "rental_uris": {"ios": "https://dc.lft.to/lastmile_qr_scan", "android": "https://dc.lft.to/lastmile_qr_scan"}, "fusion_lat": 0.0, "fusion_lon": 0.0, "bike_id": "47bdc77d90c16e281f01fedbd6b13ebd", "name": "47bdc77d90c16e281f01fedbd6b13ebd"}, {"lon": -77.00139066666667, "is_reserved": 0, "is_disabled": 0, "type": "electric_scooter", "lat": 38.905110666666666, "rental_uris": {"ios": "https://dc.lft.to/lastmile_qr_scan", "android": "https://dc.lft.to/lastmile_qr_scan"}, "fusion_lat": 0.0, "fusion_lon": 0.0, "bike_id": "c1c3d8bf0d5509503397cf92b90d38f5", "name": "c1c3d8bf0d5509503397cf92b90d38f5"}, {"lon": -77.01709416666667, "is_reserved": 0, "is_disabled": 0, "type": "electric_scooter", "lat": 38.9052125, "rental_uris": {"ios": "https://dc.lft.to/lastmile_qr_scan", "android": "https://dc.lft.to/lastmile_qr_scan"}, "fusion_lat": 0.0, "fusion_lon": 0.0, "bike_id": "6e7a2cc19ce626c564990add3cc975a7", "name": "6e7a2cc19ce626c564990add3cc975a7"}, {"lon": -76.99621016666667, "is_reserved": 0, "is_disabled": 0, "type": "electric_scooter", "lat": 38.884858, "rental_uris": {"ios": "https://dc.lft.to/lastmile_qr_scan", "android": "https://dc.lft.to/lastmile_qr_scan"}, "fusion_lat": 0.0, "fusion_lon": 0.0, "bike_id": "a1bd0f8662fcde3b8d1675568c940586", "name": "a1bd0f8662fcde3b8d1675568c940586"}, {"lon": -77.04363583333334, "is_reserved": 0, "is_disabled": 0, "type": "electric_scooter", "lat": 38.89234066666667, "rental_uris": {"ios": "https://dc.lft.to/lastmile_qr_scan", "android": "https://dc.lft.to/lastmile_qr_scan"}, "fusion_lat": 0.0, "fusion_lon": 0.0, "bike_id": "45a52436425c319d792eed1361d7ca0b", "name": "45a52436425c319d792eed1361d7ca0b"}, {"lon": -77.03453616666667, "is_reserved": 0, "is_disabled": 0, "type": "electric_scooter", "lat": 38.90277716666667, "rental_uris": {"ios": "https://dc.lft.to/lastmile_qr_scan", "android": "https://dc.lft.to/lastmile_qr_scan"}, "fusion_lat": 0.0, "fusion_lon": 0.0, "bike_id": "1c33c053eec308868f9f5ea1f3e02c0a", "name": "1c33c053eec308868f9f5ea1f3e02c0a"}, {"lon": -76.9849135, "is_reserved": 0, "is_disabled": 0, "type": "electric_scooter", "lat": 38.889663666666664, "rental_uris": {"ios": "https://dc.lft.to/lastmile_qr_scan", "android": "https://dc.lft.to/lastmile_qr_scan"}, "fusion_lat": 0.0, "fusion_lon": 0.0, "bike_id": "e2b0bbf8530de87569b4a06f5208b328", "name": "e2b0bbf8530de87569b4a06f5208b328"}, {"lon": -77.02268683333334, "is_reserved": 0, "is_disabled": 0, "type": "electric_scooter", "lat": 38.94718233333333, "rental_uris": {"ios": "https://dc.lft.to/lastmile_qr_scan", "android": "https://dc.lft.to/lastmile_qr_scan"}, "fusion_lat": 0.0, "fusion_lon": 0.0, "bike_id": "ae987041428202419ec1c028e69944e4", "name": "ae987041428202419ec1c028e69944e4"}, {"lon": -77.03653, "is_reserved": 0, "is_disabled": 0, "type": "electric_scooter", "lat": 38.90299683333333, "rental_uris": {"ios": "https://dc.lft.to/lastmile_qr_scan", "android": "https://dc.lft.to/lastmile_qr_scan"}, "fusion_lat": 0.0, "fusion_lon": 0.0, "bike_id": "f197f68dc53c37e017e9435f19f82e49", "name": "f197f68dc53c37e017e9435f19f82e49"}, {"lon": -76.98663133333334, "is_reserved": 0, "is_disabled": 0, "type": "electric_scooter", "lat": 38.901467333333336, "rental_uris": {"ios": "https://dc.lft.to/lastmile_qr_scan", "android": "https://dc.lft.to/lastmile_qr_scan"}, "fusion_lat": 0.0, "fusion_lon": 0.0, "bike_id": "c07b19ae09eb978838385e407a696129", "name": "c07b19ae09eb978838385e407a696129"}, {"lon": -77.03844866666667, "is_reserved": 0, "is_disabled": 0, "type": "electric_scooter", "lat": 38.912079166666665, "rental_uris": {"ios": "https://dc.lft.to/lastmile_qr_scan", "android": "https://dc.lft.to/lastmile_qr_scan"}, "fusion_lat": 0.0, "fusion_lon": 0.0, "bike_id": "2daeeee4bf1c6a04f63bf4c5e09f753a", "name": "2daeeee4bf1c6a04f63bf4c5e09f753a"}, {"lon": -77.0430675, "is_reserved": 0, "is_disabled": 0, "type": "electric_bike", "lat": 39.05443233333333, "rental_uris": {"ios": "https://dc.lft.to/lastmile_qr_scan", "android": "https://dc.lft.to/lastmile_qr_scan"}, "fusion_lat": 0.0, "fusion_lon": 0.0, "bike_id": "78389c49b0940b13e79289f1d1a629a5", "name": "78389c49b0940b13e79289f1d1a629a5"}, {"lon": -77.1785085, "is_reserved": 0, "is_disabled": 0, "type": "electric_bike", "lat": 39.089051, "rental_uris": {"ios": "https://dc.lft.to/lastmile_qr_scan", "android": "https://dc.lft.to/lastmile_qr_scan"}, "fusion_lat": 0.0, "fusion_lon": 0.0, "bike_id": "0c58b50cc2facf2447c160792c12518e", "name": "0c58b50cc2facf2447c160792c12518e"}, {"lon": -77.0271105, "is_reserved": 0, "is_disabled": 0, "type": "electric_scooter", "lat": 38.906661166666666, "rental_uris": {"ios": "https://dc.lft.to/lastmile_qr_scan", "android": "https://dc.lft.to/lastmile_qr_scan"}, "fusion_lat": 0.0, "fusion_lon": 0.0, "bike_id": "98e9ae17501ae241c69a70f50965fc33", "name": "98e9ae17501ae241c69a70f50965fc33"}, {"lon": -77.01286166666667, "is_reserved": 0, "is_disabled": 0, "type": "electric_scooter", "lat": 38.89978833333333, "rental_uris": {"ios": "https://dc.lft.to/lastmile_qr_scan", "android": "https://dc.lft.to/lastmile_qr_scan"}, "fusion_lat": 0.0, "fusion_lon": 0.0, "bike_id": "274dd118537ff2252261b3fa61072db4", "name": "274dd118537ff2252261b3fa61072db4"}, {"lon": -77.082113, "is_reserved": 0, "is_disabled": 0, "type": "electric_scooter", "lat": 38.935578166666666, "rental_uris": {"ios": "https://dc.lft.to/lastmile_qr_scan", "android": "https://dc.lft.to/lastmile_qr_scan"}, "fusion_lat": 0.0, "fusion_lon": 0.0, "bike_id": "2d33aef6421b32df51a8660f3aac2779", "name": "2d33aef6421b32df51a8660f3aac2779"}, {"lon": -77.0175675, "is_reserved": 0, "is_disabled": 0, "type": "electric_scooter", "lat": 38.916732, "rental_uris": {"ios": "https://dc.lft.to/lastmile_qr_scan", "android": "https://dc.lft.to/lastmile_qr_scan"}, "fusion_lat": 0.0, "fusion_lon": 0.0, "bike_id": "e6f0fc5b4b35323d94520664de3dff0f", "name": "e6f0fc5b4b35323d94520664de3dff0f"}, {"lon": -77.06559616666667, "is_reserved": 0, "is_disabled": 0, "type": "electric_scooter", "lat": 38.947519, "rental_uris": {"ios": "https://dc.lft.to/lastmile_qr_scan", "android": "https://dc.lft.to/lastmile_qr_scan"}, "fusion_lat": 0.0, "fusion_lon": 0.0, "bike_id": "8e6d5c9b594d691558abb648cc263178", "name": "8e6d5c9b594d691558abb648cc263178"}, {"lon": -77.04986083333333, "is_reserved": 0, "is_disabled": 0, "type": "electric_scooter", "lat": 38.89666483333333, "rental_uris": {"ios": "https://dc.lft.to/lastmile_qr_scan", "android": "https://dc.lft.to/lastmile_qr_scan"}, "fusion_lat": 0.0, "fusion_lon": 0.0, "bike_id": "5a5c9c5127e0d2190d73b4dc624e94e6", "name": "5a5c9c5127e0d2190d73b4dc624e94e6"}, {"lon": -77.04518666666667, "is_reserved": 0, "is_disabled": 0, "type": "electric_scooter", "lat": 38.903698, "rental_uris": {"ios": "https://dc.lft.to/lastmile_qr_scan", "android": "https://dc.lft.to/lastmile_qr_scan"}, "fusion_lat": 0.0, "fusion_lon": 0.0, "bike_id": "ce80f73830e7fec16529ecfaaa96161a", "name": "ce80f73830e7fec16529ecfaaa96161a"}, {"lon": -77.029624, "is_reserved": 0, "is_disabled": 0, "type": "electric_scooter", "lat": 38.92067083333333, "rental_uris": {"ios": "https://dc.lft.to/lastmile_qr_scan", "android": "https://dc.lft.to/lastmile_qr_scan"}, "fusion_lat": 0.0, "fusion_lon": 0.0, "bike_id": "be19901d8b3c5ebc7cc67b9a91f0886c", "name": "be19901d8b3c5ebc7cc67b9a91f0886c"}, {"lon": -77.00582783333333, "is_reserved": 0, "is_disabled": 0, "type": "electric_scooter", "lat": 38.90558, "rental_uris": {"ios": "https://dc.lft.to/lastmile_qr_scan", "android": "https://dc.lft.to/lastmile_qr_scan"}, "fusion_lat": 0.0, "fusion_lon": 0.0, "bike_id": "499f9dec83746a0c03415eeec66db68c", "name": "499f9dec83746a0c03415eeec66db68c"}, {"lon": -77.04163216666667, "is_reserved": 0, "is_disabled": 0, "type": "electric_scooter", "lat": 38.917533, "rental_uris": {"ios": "https://dc.lft.to/lastmile_qr_scan", "android": "https://dc.lft.to/lastmile_qr_scan"}, "fusion_lat": 0.0, "fusion_lon": 0.0, "bike_id": "162c10e59e7a877063fb8b99f8e4b2da", "name": "162c10e59e7a877063fb8b99f8e4b2da"}, {"lon": -77.025187, "is_reserved": 0, "is_disabled": 0, "type": "electric_scooter", "lat": 38.901810166666664, "rental_uris": {"ios": "https://dc.lft.to/lastmile_qr_scan", "android": "https://dc.lft.to/lastmile_qr_scan"}, "fusion_lat": 0.0, "fusion_lon": 0.0, "bike_id": "a8bab5c1a62aa7d00a533f21843a4a27", "name": "a8bab5c1a62aa7d00a533f21843a4a27"}, {"lon": -76.99367266666667, "is_reserved": 0, "is_disabled": 0, "type": "electric_scooter", "lat": 38.92401516666666, "rental_uris": {"ios": "https://dc.lft.to/lastmile_qr_scan", "android": "https://dc.lft.to/lastmile_qr_scan"}, "fusion_lat": 0.0, "fusion_lon": 0.0, "bike_id": "f275b4e18cf7cbae80ed36730f095142", "name": "f275b4e18cf7cbae80ed36730f095142"}, {"lon": -77.0433, "is_reserved": 0, "is_disabled": 0, "type": "electric_scooter", "lat": 38.9057625, "rental_uris": {"ios": "https://dc.lft.to/lastmile_qr_scan", "android": "https://dc.lft.to/lastmile_qr_scan"}, "fusion_lat": 0.0, "fusion_lon": 0.0, "bike_id": "63c7a627503842e46a47b0e5b89ab07f", "name": "63c7a627503842e46a47b0e5b89ab07f"}, {"lon": -77.03215433333334, "is_reserved": 0, "is_disabled": 0, "type": "electric_scooter", "lat": 38.8921905, "rental_uris": {"ios": "https://dc.lft.to/lastmile_qr_scan", "android": "https://dc.lft.to/lastmile_qr_scan"}, "fusion_lat": 0.0, "fusion_lon": 0.0, "bike_id": "18f560a33a9b3bedc68f71f67830b5e6", "name": "18f560a33a9b3bedc68f71f67830b5e6"}, {"lon": -77.00226716666667, "is_reserved": 0, "is_disabled": 0, "type": "electric_scooter", "lat": 38.874927166666666, "rental_uris": {"ios": "https://dc.lft.to/lastmile_qr_scan", "android": "https://dc.lft.to/lastmile_qr_scan"}, "fusion_lat": 0.0, "fusion_lon": 0.0, "bike_id": "9a07543d9c7b07660f3ecb7b202946f6", "name": "9a07543d9c7b07660f3ecb7b202946f6"}, {"lon": -77.037734, "is_reserved": 0, "is_disabled": 0, "type": "electric_scooter", "lat": 38.91684083333333, "rental_uris": {"ios": "https://dc.lft.to/lastmile_qr_scan", "android": "https://dc.lft.to/lastmile_qr_scan"}, "fusion_lat": 0.0, "fusion_lon": 0.0, "bike_id": "ef3f461605d12c2519356edbd5fa22bf", "name": "ef3f461605d12c2519356edbd5fa22bf"}, {"lon": -77.02161083333333, "is_reserved": 0, "is_disabled": 0, "type": "electric_scooter", "lat": 38.8850265, "rental_uris": {"ios": "https://dc.lft.to/lastmile_qr_scan", "android": "https://dc.lft.to/lastmile_qr_scan"}, "fusion_lat": 0.0, "fusion_lon": 0.0, "bike_id": "d05859263db2439dcab236f09a6949f2", "name": "d05859263db2439dcab236f09a6949f2"}, {"lon": -77.0417185, "is_reserved": 0, "is_disabled": 0, "type": "electric_scooter", "lat": 38.91342616666667, "rental_uris": {"ios": "https://dc.lft.to/lastmile_qr_scan", "android": "https://dc.lft.to/lastmile_qr_scan"}, "fusion_lat": 0.0, "fusion_lon": 0.0, "bike_id": "46ffa7ebe427fbe44c129b2433b7a874", "name": "46ffa7ebe427fbe44c129b2433b7a874"}, {"lon": -76.98992683333333, "is_reserved": 0, "is_disabled": 0, "type": "electric_scooter", "lat": 38.86440533333333, "rental_uris": {"ios": "https://dc.lft.to/lastmile_qr_scan", "android": "https://dc.lft.to/lastmile_qr_scan"}, "fusion_lat": 0.0, "fusion_lon": 0.0, "bike_id": "fb5f61f31caa8935799096c82d8b68f8", "name": "fb5f61f31caa8935799096c82d8b68f8"}, {"lon": -77.03289816666667, "is_reserved": 0, "is_disabled": 0, "type": "electric_scooter", "lat": 38.956522, "rental_uris": {"ios": "https://dc.lft.to/lastmile_qr_scan", "android": "https://dc.lft.to/lastmile_qr_scan"}, "fusion_lat": 0.0, "fusion_lon": 0.0, "bike_id": "b06894c74ae89c950417119fb9b62ee0", "name": "b06894c74ae89c950417119fb9b62ee0"}, {"lon": -76.94636616666666, "is_reserved": 0, "is_disabled": 0, "type": "electric_scooter", "lat": 38.89843466666667, "rental_uris": {"ios": "https://dc.lft.to/lastmile_qr_scan", "android": "https://dc.lft.to/lastmile_qr_scan"}, "fusion_lat": 0.0, "fusion_lon": 0.0, "bike_id": "aae5627bd2d36db08daf587b0dfe7901", "name": "aae5627bd2d36db08daf587b0dfe7901"}, {"lon": -76.99374866666666, "is_reserved": 0, "is_disabled": 0, "type": "electric_scooter", "lat": 38.910157, "rental_uris": {"ios": "https://dc.lft.to/lastmile_qr_scan", "android": "https://dc.lft.to/lastmile_qr_scan"}, "fusion_lat": 0.0, "fusion_lon": 0.0, "bike_id": "9d89619cf2fc802e81be10142f23bafa", "name": "9d89619cf2fc802e81be10142f23bafa"}, {"lon": -77.0265085, "is_reserved": 0, "is_disabled": 0, "type": "electric_scooter", "lat": 38.90272433333333, "rental_uris": {"ios": "https://dc.lft.to/lastmile_qr_scan", "android": "https://dc.lft.to/lastmile_qr_scan"}, "fusion_lat": 0.0, "fusion_lon": 0.0, "bike_id": "3937fd639829d2115efde2c3093cb52f", "name": "3937fd639829d2115efde2c3093cb52f"}, {"lon": -77.00542183333333, "is_reserved": 0, "is_disabled": 0, "type": "electric_scooter", "lat": 38.874558, "rental_uris": {"ios": "https://dc.lft.to/lastmile_qr_scan", "android": "https://dc.lft.to/lastmile_qr_scan"}, "fusion_lat": 0.0, "fusion_lon": 0.0, "bike_id": "39406b588416caa8b566ede5cf97f878", "name": "39406b588416caa8b566ede5cf97f878"}, {"lon": -77.028289, "is_reserved": 0, "is_disabled": 0, "type": "electric_scooter", "lat": 38.90558333333333, "rental_uris": {"ios": "https://dc.lft.to/lastmile_qr_scan", "android": "https://dc.lft.to/lastmile_qr_scan"}, "fusion_lat": 0.0, "fusion_lon": 0.0, "bike_id": "b8c1f8d5dd7ee7450e4613c4c5c67e83", "name": "b8c1f8d5dd7ee7450e4613c4c5c67e83"}, {"lon": -76.93745133333333, "is_reserved": 0, "is_disabled": 0, "type": "electric_scooter", "lat": 38.89014783333333, "rental_uris": {"ios": "https://dc.lft.to/lastmile_qr_scan", "android": "https://dc.lft.to/lastmile_qr_scan"}, "fusion_lat": 0.0, "fusion_lon": 0.0, "bike_id": "b1d3ec4c3b5a91a286c50159d6428a30", "name": "b1d3ec4c3b5a91a286c50159d6428a30"}, {"lon": -76.94843466666667, "is_reserved": 0, "is_disabled": 0, "type": "electric_scooter", "lat": 38.894865333333335, "rental_uris": {"ios": "https://dc.lft.to/lastmile_qr_scan", "android": "https://dc.lft.to/lastmile_qr_scan"}, "fusion_lat": 0.0, "fusion_lon": 0.0, "bike_id": "7f4763e1f6973e7e5e5404cd811e2ff8", "name": "7f4763e1f6973e7e5e5404cd811e2ff8"}, {"lon": -77.08209983333333, "is_reserved": 0, "is_disabled": 0, "type": "electric_scooter", "lat": 38.93552533333333, "rental_uris": {"ios": "https://dc.lft.to/lastmile_qr_scan", "android": "https://dc.lft.to/lastmile_qr_scan"}, "fusion_lat": 0.0, "fusion_lon": 0.0, "bike_id": "e4051f970c33375217db21330d5490e9", "name": "e4051f970c33375217db21330d5490e9"}, {"lon": -77.063796, "is_reserved": 0, "is_disabled": 0, "type": "electric_scooter", "lat": 38.905207833333336, "rental_uris": {"ios": "https://dc.lft.to/lastmile_qr_scan", "android": "https://dc.lft.to/lastmile_qr_scan"}, "fusion_lat": 0.0, "fusion_lon": 0.0, "bike_id": "7338b8c583eb05a9b3f81f8bcbc664e3", "name": "7338b8c583eb05a9b3f81f8bcbc664e3"}, {"lon": -77.04161366666666, "is_reserved": 0, "is_disabled": 0, "type": "electric_scooter", "lat": 38.917161166666666, "rental_uris": {"ios": "https://dc.lft.to/lastmile_qr_scan", "android": "https://dc.lft.to/lastmile_qr_scan"}, "fusion_lat": 0.0, "fusion_lon": 0.0, "bike_id": "53c9606a3dba0f4f5a0a72880ce47b02", "name": "53c9606a3dba0f4f5a0a72880ce47b02"}, {"lon": -77.05697483333333, "is_reserved": 0, "is_disabled": 0, "type": "electric_scooter", "lat": 38.91057816666667, "rental_uris": {"ios": "https://dc.lft.to/lastmile_qr_scan", "android": "https://dc.lft.to/lastmile_qr_scan"}, "fusion_lat": 0.0, "fusion_lon": 0.0, "bike_id": "1e9e1b4c2284731628d65c870cfc23b7", "name": "1e9e1b4c2284731628d65c870cfc23b7"}, {"lon": -77.00321333333333, "is_reserved": 0, "is_disabled": 0, "type": "electric_scooter", "lat": 38.889872833333335, "rental_uris": {"ios": "https://dc.lft.to/lastmile_qr_scan", "android": "https://dc.lft.to/lastmile_qr_scan"}, "fusion_lat": 0.0, "fusion_lon": 0.0, "bike_id": "6d2871705585d41de097089c117a57aa", "name": "6d2871705585d41de097089c117a57aa"}, {"lon": -77.032624, "is_reserved": 0, "is_disabled": 0, "type": "electric_scooter", "lat": 38.93342533333333, "rental_uris": {"ios": "https://dc.lft.to/lastmile_qr_scan", "android": "https://dc.lft.to/lastmile_qr_scan"}, "fusion_lat": 0.0, "fusion_lon": 0.0, "bike_id": "872f2b0b95f3f3b79e12d1b2187d0446", "name": "872f2b0b95f3f3b79e12d1b2187d0446"}, {"lon": -77.00330933333333, "is_reserved": 0, "is_disabled": 0, "type": "electric_scooter", "lat": 38.90148, "rental_uris": {"ios": "https://dc.lft.to/lastmile_qr_scan", "android": "https://dc.lft.to/lastmile_qr_scan"}, "fusion_lat": 0.0, "fusion_lon": 0.0, "bike_id": "117352c3e9ba13fedd2557ead19e13c8", "name": "117352c3e9ba13fedd2557ead19e13c8"}, {"lon": -77.03856616666667, "is_reserved": 0, "is_disabled": 0, "type": "electric_scooter", "lat": 38.9321205, "rental_uris": {"ios": "https://dc.lft.to/lastmile_qr_scan", "android": "https://dc.lft.to/lastmile_qr_scan"}, "fusion_lat": 0.0, "fusion_lon": 0.0, "bike_id": "ec1c3df5e083bac9eb10eea005b42f45", "name": "ec1c3df5e083bac9eb10eea005b42f45"}, {"lon": -77.032931, "is_reserved": 0, "is_disabled": 0, "type": "electric_scooter", "lat": 38.898822333333335, "rental_uris": {"ios": "https://dc.lft.to/lastmile_qr_scan", "android": "https://dc.lft.to/lastmile_qr_scan"}, "fusion_lat": 0.0, "fusion_lon": 0.0, "bike_id": "9535131dce8114cd585f4759e7de2f75", "name": "9535131dce8114cd585f4759e7de2f75"}, {"lon": -77.06394783333333, "is_reserved": 0, "is_disabled": 0, "type": "electric_scooter", "lat": 38.929037, "rental_uris": {"ios": "https://dc.lft.to/lastmile_qr_scan", "android": "https://dc.lft.to/lastmile_qr_scan"}, "fusion_lat": 0.0, "fusion_lon": 0.0, "bike_id": "e5f815b04a34b776f5d2674fe36dcc8c", "name": "e5f815b04a34b776f5d2674fe36dcc8c"}, {"lon": -77.06043883333334, "is_reserved": 0, "is_disabled": 0, "type": "electric_scooter", "lat": 38.9391175, "rental_uris": {"ios": "https://dc.lft.to/lastmile_qr_scan", "android": "https://dc.lft.to/lastmile_qr_scan"}, "fusion_lat": 0.0, "fusion_lon": 0.0, "bike_id": "358a0f7280483fe8ca4cc883616ec07f", "name": "358a0f7280483fe8ca4cc883616ec07f"}, {"lon": -76.94122216666666, "is_reserved": 0, "is_disabled": 0, "type": "electric_scooter", "lat": 38.907939666666664, "rental_uris": {"ios": "https://dc.lft.to/lastmile_qr_scan", "android": "https://dc.lft.to/lastmile_qr_scan"}, "fusion_lat": 0.0, "fusion_lon": 0.0, "bike_id": "4ae7befa0f58553089af26a352773f5f", "name": "4ae7befa0f58553089af26a352773f5f"}, {"lon": -77.02304266666667, "is_reserved": 0, "is_disabled": 0, "type": "electric_scooter", "lat": 38.916055166666666, "rental_uris": {"ios": "https://dc.lft.to/lastmile_qr_scan", "android": "https://dc.lft.to/lastmile_qr_scan"}, "fusion_lat": 0.0, "fusion_lon": 0.0, "bike_id": "70b5c83627c655d7d07fbc719f405f42", "name": "70b5c83627c655d7d07fbc719f405f42"}, {"lon": -77.03659416666666, "is_reserved": 0, "is_disabled": 0, "type": "electric_scooter", "lat": 38.91284, "rental_uris": {"ios": "https://dc.lft.to/lastmile_qr_scan", "android": "https://dc.lft.to/lastmile_qr_scan"}, "fusion_lat": 0.0, "fusion_lon": 0.0, "bike_id": "81e1c862b0c858a50a088ce423425fd0", "name": "81e1c862b0c858a50a088ce423425fd0"}, {"lon": -77.04240083333333, "is_reserved": 0, "is_disabled": 0, "type": "electric_scooter", "lat": 38.94559483333333, "rental_uris": {"ios": "https://dc.lft.to/lastmile_qr_scan", "android": "https://dc.lft.to/lastmile_qr_scan"}, "fusion_lat": 0.0, "fusion_lon": 0.0, "bike_id": "7ab51304ad904a5568f7590f7187e1b6", "name": "7ab51304ad904a5568f7590f7187e1b6"}, {"lon": -77.00707066666666, "is_reserved": 0, "is_disabled": 0, "type": "electric_scooter", "lat": 38.896738, "rental_uris": {"ios": "https://dc.lft.to/lastmile_qr_scan", "android": "https://dc.lft.to/lastmile_qr_scan"}, "fusion_lat": 0.0, "fusion_lon": 0.0, "bike_id": "3a5d9f31d1db88b5d23b10fcf417f144", "name": "3a5d9f31d1db88b5d23b10fcf417f144"}, {"lon": -77.0450645, "is_reserved": 0, "is_disabled": 0, "type": "electric_scooter", "lat": 38.91275983333333, "rental_uris": {"ios": "https://dc.lft.to/lastmile_qr_scan", "android": "https://dc.lft.to/lastmile_qr_scan"}, "fusion_lat": 0.0, "fusion_lon": 0.0, "bike_id": "e0b4ae1edc9136807a8dff0c6c0d8c8b", "name": "e0b4ae1edc9136807a8dff0c6c0d8c8b"}, {"lon": -77.02752666666666, "is_reserved": 0, "is_disabled": 0, "type": "electric_scooter", "lat": 38.95413933333333, "rental_uris": {"ios": "https://dc.lft.to/lastmile_qr_scan", "android": "https://dc.lft.to/lastmile_qr_scan"}, "fusion_lat": 0.0, "fusion_lon": 0.0, "bike_id": "b0949261294c80919011e14f4cddcd3f", "name": "b0949261294c80919011e14f4cddcd3f"}, {"lon": -77.06188166666666, "is_reserved": 0, "is_disabled": 0, "type": "electric_scooter", "lat": 38.930128833333335, "rental_uris": {"ios": "https://dc.lft.to/lastmile_qr_scan", "android": "https://dc.lft.to/lastmile_qr_scan"}, "fusion_lat": 0.0, "fusion_lon": 0.0, "bike_id": "2d25b2f6dbb66eba8fbc5836b9a36c62", "name": "2d25b2f6dbb66eba8fbc5836b9a36c62"}, {"lon": -77.0055375, "is_reserved": 0, "is_disabled": 0, "type": "electric_scooter", "lat": 38.91183133333333, "rental_uris": {"ios": "https://dc.lft.to/lastmile_qr_scan", "android": "https://dc.lft.to/lastmile_qr_scan"}, "fusion_lat": 0.0, "fusion_lon": 0.0, "bike_id": "8bb91b393a07be6acbdcdf12d2ae452f", "name": "8bb91b393a07be6acbdcdf12d2ae452f"}, {"lon": -77.02328466666667, "is_reserved": 0, "is_disabled": 0, "type": "electric_scooter", "lat": 38.899925333333336, "rental_uris": {"ios": "https://dc.lft.to/lastmile_qr_scan", "android": "https://dc.lft.to/lastmile_qr_scan"}, "fusion_lat": 0.0, "fusion_lon": 0.0, "bike_id": "f3f1505b7d42b3c48044bfa61c5227fe", "name": "f3f1505b7d42b3c48044bfa61c5227fe"}, {"lon": -77.045305, "is_reserved": 0, "is_disabled": 0, "type": "electric_scooter", "lat": 38.902453666666666, "rental_uris": {"ios": "https://dc.lft.to/lastmile_qr_scan", "android": "https://dc.lft.to/lastmile_qr_scan"}, "fusion_lat": 0.0, "fusion_lon": 0.0, "bike_id": "53726516d0e625b955f54800c934ab42", "name": "53726516d0e625b955f54800c934ab42"}, {"lon": -77.34415483333333, "is_reserved": 0, "is_disabled": 0, "type": "electric_bike", "lat": 38.946007333333334, "rental_uris": {"ios": "https://dc.lft.to/lastmile_qr_scan", "android": "https://dc.lft.to/lastmile_qr_scan"}, "fusion_lat": 0.0, "fusion_lon": 0.0, "bike_id": "113c432a333f40e0905271ee5f30ddc0", "name": "113c432a333f40e0905271ee5f30ddc0"}, {"lon": -77.02801833333334, "is_reserved": 0, "is_disabled": 0, "type": "electric_scooter", "lat": 38.89914266666667, "rental_uris": {"ios": "https://dc.lft.to/lastmile_qr_scan", "android": "https://dc.lft.to/lastmile_qr_scan"}, "fusion_lat": 0.0, "fusion_lon": 0.0, "bike_id": "f7d54dccab15af6d1aa8a64f02090678", "name": "f7d54dccab15af6d1aa8a64f02090678"}, {"lon": -77.002185, "is_reserved": 0, "is_disabled": 0, "type": "electric_scooter", "lat": 38.9001015, "rental_uris": {"ios": "https://dc.lft.to/lastmile_qr_scan", "android": "https://dc.lft.to/lastmile_qr_scan"}, "fusion_lat": 0.0, "fusion_lon": 0.0, "bike_id": "af6c2b4dd6e53fc8a93b0acb1fbe0b7a", "name": "af6c2b4dd6e53fc8a93b0acb1fbe0b7a"}, {"lon": -77.028538, "is_reserved": 0, "is_disabled": 0, "type": "electric_scooter", "lat": 38.92380383333333, "rental_uris": {"ios": "https://dc.lft.to/lastmile_qr_scan", "android": "https://dc.lft.to/lastmile_qr_scan"}, "fusion_lat": 0.0, "fusion_lon": 0.0, "bike_id": "fb3c38ec6ff5bf3a135caa1f128e8c7d", "name": "fb3c38ec6ff5bf3a135caa1f128e8c7d"}, {"lon": -77.017635, "is_reserved": 0, "is_disabled": 0, "type": "electric_scooter", "lat": 38.921205666666665, "rental_uris": {"ios": "https://dc.lft.to/lastmile_qr_scan", "android": "https://dc.lft.to/lastmile_qr_scan"}, "fusion_lat": 0.0, "fusion_lon": 0.0, "bike_id": "4a052be15af4b45b5aa7b0d9302d09ce", "name": "4a052be15af4b45b5aa7b0d9302d09ce"}, {"lon": -77.0453615, "is_reserved": 0, "is_disabled": 0, "type": "electric_scooter", "lat": 38.9140895, "rental_uris": {"ios": "https://dc.lft.to/lastmile_qr_scan", "android": "https://dc.lft.to/lastmile_qr_scan"}, "fusion_lat": 0.0, "fusion_lon": 0.0, "bike_id": "01428ee6aacb95951450c2cf11de662b", "name": "01428ee6aacb95951450c2cf11de662b"}, {"lon": -77.0366215, "is_reserved": 0, "is_disabled": 0, "type": "electric_scooter", "lat": 38.9172295, "rental_uris": {"ios": "https://dc.lft.to/lastmile_qr_scan", "android": "https://dc.lft.to/lastmile_qr_scan"}, "fusion_lat": 0.0, "fusion_lon": 0.0, "bike_id": "54c08a6ea6c0081991cd5397c8dd12f3", "name": "54c08a6ea6c0081991cd5397c8dd12f3"}, {"lon": -76.94857233333333, "is_reserved": 0, "is_disabled": 0, "type": "electric_scooter", "lat": 38.8830165, "rental_uris": {"ios": "https://dc.lft.to/lastmile_qr_scan", "android": "https://dc.lft.to/lastmile_qr_scan"}, "fusion_lat": 0.0, "fusion_lon": 0.0, "bike_id": "3be38c6df7970be2f20eca7462e24b16", "name": "3be38c6df7970be2f20eca7462e24b16"}, {"lon": -76.98885166666666, "is_reserved": 0, "is_disabled": 0, "type": "electric_scooter", "lat": 38.86671, "rental_uris": {"ios": "https://dc.lft.to/lastmile_qr_scan", "android": "https://dc.lft.to/lastmile_qr_scan"}, "fusion_lat": 0.0, "fusion_lon": 0.0, "bike_id": "60d2db9808601f1c364d758bc8bc5b03", "name": "60d2db9808601f1c364d758bc8bc5b03"}, {"lon": -76.99028, "is_reserved": 0, "is_disabled": 0, "type": "electric_scooter", "lat": 38.86069233333333, "rental_uris": {"ios": "https://dc.lft.to/lastmile_qr_scan", "android": "https://dc.lft.to/lastmile_qr_scan"}, "fusion_lat": 0.0, "fusion_lon": 0.0, "bike_id": "40cc636e8be9d1ffb5abc58e5b369183", "name": "40cc636e8be9d1ffb5abc58e5b369183"}, {"lon": -77.14323583333334, "is_reserved": 0, "is_disabled": 0, "type": "electric_bike", "lat": 39.05455166666667, "rental_uris": {"ios": "https://dc.lft.to/lastmile_qr_scan", "android": "https://dc.lft.to/lastmile_qr_scan"}, "fusion_lat": 0.0, "fusion_lon": 0.0, "bike_id": "3d772e564954f53914f49f2e953cfef5", "name": "3d772e564954f53914f49f2e953cfef5"}, {"lon": -77.02298283333333, "is_reserved": 0, "is_disabled": 0, "type": "electric_scooter", "lat": 38.90140483333333, "rental_uris": {"ios": "https://dc.lft.to/lastmile_qr_scan", "android": "https://dc.lft.to/lastmile_qr_scan"}, "fusion_lat": 0.0, "fusion_lon": 0.0, "bike_id": "44dc5278ea0e24f770304a669e848c2c", "name": "44dc5278ea0e24f770304a669e848c2c"}, {"lon": -77.07045166666667, "is_reserved": 0, "is_disabled": 0, "type": "electric_bike", "lat": 38.82442233333333, "rental_uris": {"ios": "https://dc.lft.to/lastmile_qr_scan", "android": "https://dc.lft.to/lastmile_qr_scan"}, "fusion_lat": 0.0, "fusion_lon": 0.0, "bike_id": "7f6465b9b2ba10a971ce6d933ca398c1", "name": "7f6465b9b2ba10a971ce6d933ca398c1"}, {"lon": -77.06398433333334, "is_reserved": 0, "is_disabled": 0, "type": "electric_scooter", "lat": 38.929062, "rental_uris": {"ios": "https://dc.lft.to/lastmile_qr_scan", "android": "https://dc.lft.to/lastmile_qr_scan"}, "fusion_lat": 0.0, "fusion_lon": 0.0, "bike_id": "5394453949aefd873c215a092ff985e0", "name": "5394453949aefd873c215a092ff985e0"}, {"lon": -77.03654233333333, "is_reserved": 0, "is_disabled": 0, "type": "electric_bike", "lat": 38.950221, "rental_uris": {"ios": "https://dc.lft.to/lastmile_qr_scan", "android": "https://dc.lft.to/lastmile_qr_scan"}, "fusion_lat": 0.0, "fusion_lon": 0.0, "bike_id": "0518c710f518e2b26f0f7bdac6f8a0cf", "name": "0518c710f518e2b26f0f7bdac6f8a0cf"}, {"lon": -77.07297283333334, "is_reserved": 0, "is_disabled": 0, "type": "electric_bike", "lat": 38.92464233333333, "rental_uris": {"ios": "https://dc.lft.to/lastmile_qr_scan", "android": "https://dc.lft.to/lastmile_qr_scan"}, "fusion_lat": 0.0, "fusion_lon": 0.0, "bike_id": "c7fc4544d73ead083c95369014081518", "name": "c7fc4544d73ead083c95369014081518"}, {"lon": -76.99446716666667, "is_reserved": 0, "is_disabled": 0, "type": "electric_scooter", "lat": 38.90503366666667, "rental_uris": {"ios": "https://dc.lft.to/lastmile_qr_scan", "android": "https://dc.lft.to/lastmile_qr_scan"}, "fusion_lat": 0.0, "fusion_lon": 0.0, "bike_id": "f3ab6f08bc3c849386ff597669d2eab3", "name": "f3ab6f08bc3c849386ff597669d2eab3"}, {"lon": -76.95463616666666, "is_reserved": 0, "is_disabled": 0, "type": "electric_scooter", "lat": 38.888082833333335, "rental_uris": {"ios": "https://dc.lft.to/lastmile_qr_scan", "android": "https://dc.lft.to/lastmile_qr_scan"}, "fusion_lat": 0.0, "fusion_lon": 0.0, "bike_id": "36a6f90e7992e1d99f472809526ef2a8", "name": "36a6f90e7992e1d99f472809526ef2a8"}, {"lon": -77.00134116666666, "is_reserved": 0, "is_disabled": 0, "type": "electric_scooter", "lat": 38.89488166666667, "rental_uris": {"ios": "https://dc.lft.to/lastmile_qr_scan", "android": "https://dc.lft.to/lastmile_qr_scan"}, "fusion_lat": 0.0, "fusion_lon": 0.0, "bike_id": "018f498bb154c32734e6c7bc37c07011", "name": "018f498bb154c32734e6c7bc37c07011"}, {"lon": -76.90082416666667, "is_reserved": 0, "is_disabled": 0, "type": "electric_bike", "lat": 38.887504, "rental_uris": {"ios": "https://dc.lft.to/lastmile_qr_scan", "android": "https://dc.lft.to/lastmile_qr_scan"}, "fusion_lat": 0.0, "fusion_lon": 0.0, "bike_id": "db1b32abb38241c378fa9e64e8f8de39", "name": "db1b32abb38241c378fa9e64e8f8de39"}, {"lon": -77.12812, "is_reserved": 0, "is_disabled": 0, "type": "electric_bike", "lat": 38.865196, "rental_uris": {"ios": "https://dc.lft.to/lastmile_qr_scan", "android": "https://dc.lft.to/lastmile_qr_scan"}, "fusion_lat": 0.0, "fusion_lon": 0.0, "bike_id": "034120426dd70d83a10e728e69199faf", "name": "034120426dd70d83a10e728e69199faf"}, {"lon": -77.04473633333333, "is_reserved": 0, "is_disabled": 0, "type": "electric_scooter", "lat": 38.9006995, "rental_uris": {"ios": "https://dc.lft.to/lastmile_qr_scan", "android": "https://dc.lft.to/lastmile_qr_scan"}, "fusion_lat": 0.0, "fusion_lon": 0.0, "bike_id": "fce274acc8470d0805be19d82ef03390", "name": "fce274acc8470d0805be19d82ef03390"}, {"lon": -77.0382955, "is_reserved": 0, "is_disabled": 0, "type": "electric_scooter", "lat": 38.90664833333334, "rental_uris": {"ios": "https://dc.lft.to/lastmile_qr_scan", "android": "https://dc.lft.to/lastmile_qr_scan"}, "fusion_lat": 0.0, "fusion_lon": 0.0, "bike_id": "46e9a64883ff942a4fc4f8b206702886", "name": "46e9a64883ff942a4fc4f8b206702886"}, {"lon": -77.042265, "is_reserved": 0, "is_disabled": 0, "type": "electric_scooter", "lat": 38.92162883333334, "rental_uris": {"ios": "https://dc.lft.to/lastmile_qr_scan", "android": "https://dc.lft.to/lastmile_qr_scan"}, "fusion_lat": 0.0, "fusion_lon": 0.0, "bike_id": "9679a2167f6a12e1cc4caa123b9ee41f", "name": "9679a2167f6a12e1cc4caa123b9ee41f"}, {"lon": -77.1297235, "is_reserved": 0, "is_disabled": 0, "type": "electric_bike", "lat": 38.79981, "rental_uris": {"ios": "https://dc.lft.to/lastmile_qr_scan", "android": "https://dc.lft.to/lastmile_qr_scan"}, "fusion_lat": 0.0, "fusion_lon": 0.0, "bike_id": "6c1664a262f38f7c47e1a2f8723cda7b", "name": "6c1664a262f38f7c47e1a2f8723cda7b"}, {"lon": -76.94654016666667, "is_reserved": 0, "is_disabled": 0, "type": "electric_scooter", "lat": 38.8982355, "rental_uris": {"ios": "https://dc.lft.to/lastmile_qr_scan", "android": "https://dc.lft.to/lastmile_qr_scan"}, "fusion_lat": 0.0, "fusion_lon": 0.0, "bike_id": "c5f97b210726d39cf7ec82e0687e37b4", "name": "c5f97b210726d39cf7ec82e0687e37b4"}, {"lon": -77.03282033333333, "is_reserved": 0, "is_disabled": 0, "type": "electric_scooter", "lat": 38.94656766666667, "rental_uris": {"ios": "https://dc.lft.to/lastmile_qr_scan", "android": "https://dc.lft.to/lastmile_qr_scan"}, "fusion_lat": 0.0, "fusion_lon": 0.0, "bike_id": "814ab7d1c496c3c1ebc3db6ed53af641", "name": "814ab7d1c496c3c1ebc3db6ed53af641"}, {"lon": -77.02925716666667, "is_reserved": 0, "is_disabled": 0, "type": "electric_bike", "lat": 38.896187833333336, "rental_uris": {"ios": "https://dc.lft.to/lastmile_qr_scan", "android": "https://dc.lft.to/lastmile_qr_scan"}, "fusion_lat": 0.0, "fusion_lon": 0.0, "bike_id": "d20ac709120e9b0496a33a531652fdfc", "name": "d20ac709120e9b0496a33a531652fdfc"}, {"lon": -76.98709066666666, "is_reserved": 0, "is_disabled": 0, "type": "electric_scooter", "lat": 38.86534116666667, "rental_uris": {"ios": "https://dc.lft.to/lastmile_qr_scan", "android": "https://dc.lft.to/lastmile_qr_scan"}, "fusion_lat": 0.0, "fusion_lon": 0.0, "bike_id": "9dc11c781c871a0ed6d3076235e5e29d", "name": "9dc11c781c871a0ed6d3076235e5e29d"}, {"lon": -77.112434, "is_reserved": 0, "is_disabled": 0, "type": "electric_bike", "lat": 38.812308333333334, "rental_uris": {"ios": "https://dc.lft.to/lastmile_qr_scan", "android": "https://dc.lft.to/lastmile_qr_scan"}, "fusion_lat": 0.0, "fusion_lon": 0.0, "bike_id": "2149caceb8a663de3bc31a2a8ee4e7d3", "name": "2149caceb8a663de3bc31a2a8ee4e7d3"}, {"lon": -76.99614366666667, "is_reserved": 0, "is_disabled": 0, "type": "electric_scooter", "lat": 38.88615883333333, "rental_uris": {"ios": "https://dc.lft.to/lastmile_qr_scan", "android": "https://dc.lft.to/lastmile_qr_scan"}, "fusion_lat": 0.0, "fusion_lon": 0.0, "bike_id": "f7ac8fb239df51626129f5f539e05166", "name": "f7ac8fb239df51626129f5f539e05166"}, {"lon": -76.93724566666667, "is_reserved": 0, "is_disabled": 0, "type": "electric_scooter", "lat": 38.89099433333333, "rental_uris": {"ios": "https://dc.lft.to/lastmile_qr_scan", "android": "https://dc.lft.to/lastmile_qr_scan"}, "fusion_lat": 0.0, "fusion_lon": 0.0, "bike_id": "2561a6f7afc1fb33517552b9fcb95bcc", "name": "2561a6f7afc1fb33517552b9fcb95bcc"}, {"lon": -77.02225366666667, "is_reserved": 0, "is_disabled": 0, "type": "electric_scooter", "lat": 38.912716833333334, "rental_uris": {"ios": "https://dc.lft.to/lastmile_qr_scan", "android": "https://dc.lft.to/lastmile_qr_scan"}, "fusion_lat": 0.0, "fusion_lon": 0.0, "bike_id": "d88efb0fde406a108c94b8ea25d34292", "name": "d88efb0fde406a108c94b8ea25d34292"}, {"lon": -77.101917, "is_reserved": 0, "is_disabled": 0, "type": "electric_bike", "lat": 38.9180265, "rental_uris": {"ios": "https://dc.lft.to/lastmile_qr_scan", "android": "https://dc.lft.to/lastmile_qr_scan"}, "fusion_lat": 0.0, "fusion_lon": 0.0, "bike_id": "5091230cf23de306fff307fd79df2bdb", "name": "5091230cf23de306fff307fd79df2bdb"}, {"lon": -76.98373016666666, "is_reserved": 0, "is_disabled": 0, "type": "electric_scooter", "lat": 38.906434833333336, "rental_uris": {"ios": "https://dc.lft.to/lastmile_qr_scan", "android": "https://dc.lft.to/lastmile_qr_scan"}, "fusion_lat": 0.0, "fusion_lon": 0.0, "bike_id": "4c20dcdc099f788be995761b68fc4455", "name": "4c20dcdc099f788be995761b68fc4455"}, {"lon": -76.98119316666667, "is_reserved": 0, "is_disabled": 0, "type": "electric_bike", "lat": 38.89663133333333, "rental_uris": {"ios": "https://dc.lft.to/lastmile_qr_scan", "android": "https://dc.lft.to/lastmile_qr_scan"}, "fusion_lat": 0.0, "fusion_lon": 0.0, "bike_id": "e8a0777614ade0decae3fd2f054302c3", "name": "e8a0777614ade0decae3fd2f054302c3"}, {"lon": -77.02593216666666, "is_reserved": 0, "is_disabled": 0, "type": "electric_scooter", "lat": 38.912759, "rental_uris": {"ios": "https://dc.lft.to/lastmile_qr_scan", "android": "https://dc.lft.to/lastmile_qr_scan"}, "fusion_lat": 0.0, "fusion_lon": 0.0, "bike_id": "9f4434a2b73ae33fa89c3accdb578730", "name": "9f4434a2b73ae33fa89c3accdb578730"}, {"lon": -77.034991, "is_reserved": 0, "is_disabled": 0, "type": "electric_scooter", "lat": 38.932719166666665, "rental_uris": {"ios": "https://dc.lft.to/lastmile_qr_scan", "android": "https://dc.lft.to/lastmile_qr_scan"}, "fusion_lat": 0.0, "fusion_lon": 0.0, "bike_id": "6ad180d0324aab841b111eea7d993e62", "name": "6ad180d0324aab841b111eea7d993e62"}, {"lon": -77.068155, "is_reserved": 0, "is_disabled": 0, "type": "electric_scooter", "lat": 38.94473, "rental_uris": {"ios": "https://dc.lft.to/lastmile_qr_scan", "android": "https://dc.lft.to/lastmile_qr_scan"}, "fusion_lat": 0.0, "fusion_lon": 0.0, "bike_id": "f21f82d11c3ddc0bb4adaafcdcea5345", "name": "f21f82d11c3ddc0bb4adaafcdcea5345"}, {"lon": -77.02159216666666, "is_reserved": 0, "is_disabled": 0, "type": "electric_scooter", "lat": 38.926009, "rental_uris": {"ios": "https://dc.lft.to/lastmile_qr_scan", "android": "https://dc.lft.to/lastmile_qr_scan"}, "fusion_lat": 0.0, "fusion_lon": 0.0, "bike_id": "2af606663aa700c5e27bf2273410306c", "name": "2af606663aa700c5e27bf2273410306c"}, {"lon": -77.00343916666667, "is_reserved": 0, "is_disabled": 0, "type": "electric_scooter", "lat": 38.89350983333333, "rental_uris": {"ios": "https://dc.lft.to/lastmile_qr_scan", "android": "https://dc.lft.to/lastmile_qr_scan"}, "fusion_lat": 0.0, "fusion_lon": 0.0, "bike_id": "7e60e901a8e34b9ac280496cbd1a383e", "name": "7e60e901a8e34b9ac280496cbd1a383e"}, {"lon": -76.98331166666667, "is_reserved": 0, "is_disabled": 0, "type": "electric_bike", "lat": 38.96609616666667, "rental_uris": {"ios": "https://dc.lft.to/lastmile_qr_scan", "android": "https://dc.lft.to/lastmile_qr_scan"}, "fusion_lat": 0.0, "fusion_lon": 0.0, "bike_id": "fd4f32271c0f1aa6721fef5bf7dec3e6", "name": "fd4f32271c0f1aa6721fef5bf7dec3e6"}, {"lon": -77.0279515, "is_reserved": 0, "is_disabled": 0, "type": "electric_scooter", "lat": 38.93084483333333, "rental_uris": {"ios": "https://dc.lft.to/lastmile_qr_scan", "android": "https://dc.lft.to/lastmile_qr_scan"}, "fusion_lat": 0.0, "fusion_lon": 0.0, "bike_id": "4b53e9a0796db0102e0740ab320c6faa", "name": "4b53e9a0796db0102e0740ab320c6faa"}, {"lon": -77.03979833333334, "is_reserved": 0, "is_disabled": 0, "type": "electric_scooter", "lat": 38.90583633333333, "rental_uris": {"ios": "https://dc.lft.to/lastmile_qr_scan", "android": "https://dc.lft.to/lastmile_qr_scan"}, "fusion_lat": 0.0, "fusion_lon": 0.0, "bike_id": "a96c3d7563eba0007af9241273eee946", "name": "a96c3d7563eba0007af9241273eee946"}, {"lon": -77.05238883333334, "is_reserved": 0, "is_disabled": 0, "type": "electric_scooter", "lat": 38.92463566666667, "rental_uris": {"ios": "https://dc.lft.to/lastmile_qr_scan", "android": "https://dc.lft.to/lastmile_qr_scan"}, "fusion_lat": 0.0, "fusion_lon": 0.0, "bike_id": "2e73e759ae56b4d9f5c4fb7cc3480fa2", "name": "2e73e759ae56b4d9f5c4fb7cc3480fa2"}, {"lon": -77.02333483333334, "is_reserved": 0, "is_disabled": 0, "type": "electric_scooter", "lat": 38.915572833333336, "rental_uris": {"ios": "https://dc.lft.to/lastmile_qr_scan", "android": "https://dc.lft.to/lastmile_qr_scan"}, "fusion_lat": 0.0, "fusion_lon": 0.0, "bike_id": "79f1b931e46233346438392c806e84cd", "name": "79f1b931e46233346438392c806e84cd"}, {"lon": -76.9948085, "is_reserved": 0, "is_disabled": 0, "type": "electric_scooter", "lat": 38.86215333333333, "rental_uris": {"ios": "https://dc.lft.to/lastmile_qr_scan", "android": "https://dc.lft.to/lastmile_qr_scan"}, "fusion_lat": 0.0, "fusion_lon": 0.0, "bike_id": "cb722610cf410b9ff4cc1fd131a6e83b", "name": "cb722610cf410b9ff4cc1fd131a6e83b"}, {"lon": -77.0723345, "is_reserved": 0, "is_disabled": 0, "type": "electric_scooter", "lat": 38.934578333333334, "rental_uris": {"ios": "https://dc.lft.to/lastmile_qr_scan", "android": "https://dc.lft.to/lastmile_qr_scan"}, "fusion_lat": 0.0, "fusion_lon": 0.0, "bike_id": "9cb08731bb2639fdff436d864fde4b3c", "name": "9cb08731bb2639fdff436d864fde4b3c"}, {"lon": -77.00312916666667, "is_reserved": 0, "is_disabled": 0, "type": "electric_scooter", "lat": 38.8947215, "rental_uris": {"ios": "https://dc.lft.to/lastmile_qr_scan", "android": "https://dc.lft.to/lastmile_qr_scan"}, "fusion_lat": 0.0, "fusion_lon": 0.0, "bike_id": "54481479c8aac5fb8cd6d1bfb9e51fa3", "name": "54481479c8aac5fb8cd6d1bfb9e51fa3"}, {"lon": -76.98512633333333, "is_reserved": 0, "is_disabled": 0, "type": "electric_scooter", "lat": 38.88077033333333, "rental_uris": {"ios": "https://dc.lft.to/lastmile_qr_scan", "android": "https://dc.lft.to/lastmile_qr_scan"},