{"data": {"bikes": [{"bike_id": "133e69bdd8298b11decbe93d67f8f6c7", "lat": 38.866491333333336, "is_reserved": 0, "fusion_lat": 0.0, "rental_uris": {"android": "https://dc.lft.to/lastmile_qr_scan", "ios": "https://dc.lft.to/lastmile_qr_scan"}, "fusion_lon": 0.0, "name": "133e69bdd8298b11decbe93d67f8f6c7", "lon": -76.98818516666667, "is_disabled": 0, "type": "electric_scooter"}, {"bike_id": "63d4258f17c2efec3775e0610387a486", "lat": 38.91919266666667, "is_reserved": 0, "fusion_lat": 0.0, "rental_uris": {"android": "https://dc.lft.to/lastmile_qr_scan", "ios": "https://dc.lft.to/lastmile_qr_scan"}, "fusion_lon": 0.0, "name": "63d4258f17c2efec3775e0610387a486", "lon": -77.03625116666667, "is_disabled": 0, "type": "electric_scooter"}, {"bike_id": "ecd9d1277569115cee22b574e503addd", "lat": 38.98464083333333, "is_reserved": 0, "fusion_lat": 0.0, "rental_uris": {"android": "https://dc.lft.to/lastmile_qr_scan", "ios": "https://dc.lft.to/lastmile_qr_scan"}, "fusion_lon": 0.0, "name": "ecd9d1277569115cee22b574e503addd", "lon": -76.970591, "is_disabled": 0, "type": "electric_bike"}, {"bike_id": "52181c2f57cb0aaf4322eb7bcdb184aa", "lat": 38.86689283333333, "is_reserved": 0, "fusion_lat": 0.0, "rental_uris": {"android": "https://dc.lft.to/lastmile_qr_scan", "ios": "https://dc.lft.to/lastmile_qr_scan"}, "fusion_lon": 0.0, "name": "52181c2f57cb0aaf4322eb7bcdb184aa", "lon": -76.9857975, "is_disabled": 0, "type": "electric_scooter"}, {"bike_id": "d1f8fe7b4c9552d6d15195f6e939635c", "lat": 38.892913666666665, "is_reserved": 0, "fusion_lat": 0.0, "rental_uris": {"android": "https://dc.lft.to/lastmile_qr_scan", "ios": "https://dc.lft.to/lastmile_qr_scan"}, "fusion_lon": 0.0, "name": "d1f8fe7b4c9552d6d15195f6e939635c", "lon": -77.01988633333333, "is_disabled": 0, "type": "electric_scooter"}, {"bike_id": "eb50b1c176887b2ec15fc5fa7c2f51ef", "lat": 38.9138565, "is_reserved": 0, "fusion_lat": 0.0, "rental_uris": {"android": "https://dc.lft.to/lastmile_qr_scan", "ios": "https://dc.lft.to/lastmile_qr_scan"}, "fusion_lon": 0.0, "name": "eb50b1c176887b2ec15fc5fa7c2f51ef", "lon": -77.01703983333333, "is_disabled": 0, "type": "electric_scooter"}, {"bike_id": "dfbe753b09684b019123de549d824729", "lat": 38.920167166666666, "is_reserved": 0, "fusion_lat": 0.0, "rental_uris": {"android": "https://dc.lft.to/lastmile_qr_scan", "ios": "https://dc.lft.to/lastmile_qr_scan"}, "fusion_lon": 0.0, "name": "dfbe753b09684b019123de549d824729", "lon": -77.03122933333333, "is_disabled": 0, "type": "electric_scooter"}, {"bike_id": "3491057ef383ec9c536eb04ffd26cb23", "lat": 38.9033795, "is_reserved": 0, "fusion_lat": 0.0, "rental_uris": {"android": "https://dc.lft.to/lastmile_qr_scan", "ios": "https://dc.lft.to/lastmile_qr_scan"}, "fusion_lon": 0.0, "name": "3491057ef383ec9c536eb04ffd26cb23", "lon": -77.03872816666667, "is_disabled": 0, "type": "electric_scooter"}, {"bike_id": "496d6bc4a49ac095f0a1eee058b9df6b", "lat": 38.952559666666666, "is_reserved": 0, "fusion_lat": 0.0, "rental_uris": {"android": "https://dc.lft.to/lastmile_qr_scan", "ios": "https://dc.lft.to/lastmile_qr_scan"}, "fusion_lon": 0.0, "name": "496d6bc4a49ac095f0a1eee058b9df6b", "lon": -77.01965366666667, "is_disabled": 0, "type": "electric_scooter"}, {"bike_id": "5d8d01afb697f2adc9891cfc16fb1d00", "lat": 38.92311266666667, "is_reserved": 0, "fusion_lat": 0.0, "rental_uris": {"android": "https://dc.lft.to/lastmile_qr_scan", "ios": "https://dc.lft.to/lastmile_qr_scan"}, "fusion_lon": 0.0, "name": "5d8d01afb697f2adc9891cfc16fb1d00", "lon": -77.02966983333333, "is_disabled": 0, "type": "electric_scooter"}, {"bike_id": "c86df45c45f8bc03ee604546254b5f19", "lat": 38.87474433333333, "is_reserved": 0, "fusion_lat": 0.0, "rental_uris": {"android": "https://dc.lft.to/lastmile_qr_scan", "ios": "https://dc.lft.to/lastmile_qr_scan"}, "fusion_lon": 0.0, "name": "c86df45c45f8bc03ee604546254b5f19", "lon": -77.00496316666667, "is_disabled": 0, "type": "electric_scooter"}, {"bike_id": "6ab0f4d44ebda2052b4d6c95225c7d05", "lat": 38.896285166666665, "is_reserved": 0, "fusion_lat": 0.0, "rental_uris": {"android": "https://dc.lft.to/lastmile_qr_scan", "ios": "https://dc.lft.to/lastmile_qr_scan"}, "fusion_lon": 0.0, "name": "6ab0f4d44ebda2052b4d6c95225c7d05", "lon": -77.00354833333333, "is_disabled": 0, "type": "electric_scooter"}, {"bike_id": "3f9c149b0b627ad76af939e0c0b05e71", "lat": 38.86707616666666, "is_reserved": 0, "fusion_lat": 0.0, "rental_uris": {"android": "https://dc.lft.to/lastmile_qr_scan", "ios": "https://dc.lft.to/lastmile_qr_scan"}, "fusion_lon": 0.0, "name": "3f9c149b0b627ad76af939e0c0b05e71", "lon": -76.98713516666666, "is_disabled": 0, "type": "electric_scooter"}, {"bike_id": "af556dc0effef2110d2fddbd78f14328", "lat": 39.05285, "is_reserved": 0, "fusion_lat": 0.0, "rental_uris": {"android": "https://dc.lft.to/lastmile_qr_scan", "ios": "https://dc.lft.to/lastmile_qr_scan"}, "fusion_lon": 0.0, "name": "af556dc0effef2110d2fddbd78f14328", "lon": -77.08071966666667, "is_disabled": 0, "type": "electric_bike"}, {"bike_id": "349fd04d99b031ceafdc8473d88e6be5", "lat": 38.935754833333334, "is_reserved": 0, "fusion_lat": 0.0, "rental_uris": {"android": "https://dc.lft.to/lastmile_qr_scan", "ios": "https://dc.lft.to/lastmile_qr_scan"}, "fusion_lon": 0.0, "name": "349fd04d99b031ceafdc8473d88e6be5", "lon": -77.01977416666666, "is_disabled": 0, "type": "electric_scooter"}, {"bike_id": "236f9e23cf7805b2e8fda011bcac580b", "lat": 38.895035, "is_reserved": 0, "fusion_lat": 0.0, "rental_uris": {"android": "https://dc.lft.to/lastmile_qr_scan", "ios": "https://dc.lft.to/lastmile_qr_scan"}, "fusion_lon": 0.0, "name": "236f9e23cf7805b2e8fda011bcac580b", "lon": -77.023009, "is_disabled": 0, "type": "electric_scooter"}, {"bike_id": "18b58ed4e7461bcca7dba4bf0b9db666", "lat": 38.905141, "is_reserved": 0, "fusion_lat": 0.0, "rental_uris": {"android": "https://dc.lft.to/lastmile_qr_scan", "ios": "https://dc.lft.to/lastmile_qr_scan"}, "fusion_lon": 0.0, "name": "18b58ed4e7461bcca7dba4bf0b9db666", "lon": -77.06470316666666, "is_disabled": 0, "type": "electric_scooter"}, {"bike_id": "d7f455bba8af372f60681b3fd73cb363", "lat": 38.91515, "is_reserved": 0, "fusion_lat": 0.0, "rental_uris": {"android": "https://dc.lft.to/lastmile_qr_scan", "ios": "https://dc.lft.to/lastmile_qr_scan"}, "fusion_lon": 0.0, "name": "d7f455bba8af372f60681b3fd73cb363", "lon": -77.04488583333334, "is_disabled": 0, "type": "electric_scooter"}, {"bike_id": "c77260b21059334f898121cc8b9e9df9", "lat": 38.89953416666667, "is_reserved": 0, "fusion_lat": 0.0, "rental_uris": {"android": "https://dc.lft.to/lastmile_qr_scan", "ios": "https://dc.lft.to/lastmile_qr_scan"}, "fusion_lon": 0.0, "name": "c77260b21059334f898121cc8b9e9df9", "lon": -77.04767266666667, "is_disabled": 0, "type": "electric_scooter"}, {"bike_id": "fc969b122fdee1ce2214e00e3623e153", "lat": 38.91827583333333, "is_reserved": 0, "fusion_lat": 0.0, "rental_uris": {"android": "https://dc.lft.to/lastmile_qr_scan", "ios": "https://dc.lft.to/lastmile_qr_scan"}, "fusion_lon": 0.0, "name": "fc969b122fdee1ce2214e00e3623e153", "lon": -77.04944033333334, "is_disabled": 0, "type": "electric_scooter"}, {"bike_id": "bb45fb3a8f692078d974a865ddf96903", "lat": 38.8812165, "is_reserved": 0, "fusion_lat": 0.0, "rental_uris": {"android": "https://dc.lft.to/lastmile_qr_scan", "ios": "https://dc.lft.to/lastmile_qr_scan"}, "fusion_lon": 0.0, "name": "bb45fb3a8f692078d974a865ddf96903", "lon": -77.00183, "is_disabled": 0, "type": "electric_scooter"}, {"bike_id": "e39eefa04560c519bdc4d239ca27e8c7", "lat": 38.87359383333333, "is_reserved": 0, "fusion_lat": 0.0, "rental_uris": {"android": "https://dc.lft.to/lastmile_qr_scan", "ios": "https://dc.lft.to/lastmile_qr_scan"}, "fusion_lon": 0.0, "name": "e39eefa04560c519bdc4d239ca27e8c7", "lon": -76.97023966666667, "is_disabled": 0, "type": "electric_scooter"}, {"bike_id": "34bbf2e95b9baf7e321fab07cc16acff", "lat": 38.90715316666667, "is_reserved": 0, "fusion_lat": 0.0, "rental_uris": {"android": "https://dc.lft.to/lastmile_qr_scan", "ios": "https://dc.lft.to/lastmile_qr_scan"}, "fusion_lon": 0.0, "name": "34bbf2e95b9baf7e321fab07cc16acff", "lon": -77.03256383333333, "is_disabled": 0, "type": "electric_scooter"}, {"bike_id": "4014b3bf18811c4871ba98435eca4ce1", "lat": 38.93341433333333, "is_reserved": 0, "fusion_lat": 0.0, "rental_uris": {"android": "https://dc.lft.to/lastmile_qr_scan", "ios": "https://dc.lft.to/lastmile_qr_scan"}, "fusion_lon": 0.0, "name": "4014b3bf18811c4871ba98435eca4ce1", "lon": -77.02061933333333, "is_disabled": 0, "type": "electric_scooter"}, {"bike_id": "d693f7dcb0680106317d94a55cb55506", "lat": 38.911198666666664, "is_reserved": 0, "fusion_lat": 0.0, "rental_uris": {"android": "https://dc.lft.to/lastmile_qr_scan", "ios": "https://dc.lft.to/lastmile_qr_scan"}, "fusion_lon": 0.0, "name": "d693f7dcb0680106317d94a55cb55506", "lon": -77.02208216666666, "is_disabled": 0, "type": "electric_scooter"}, {"bike_id": "f087958462e6548dd3f8fa259fc846a5", "lat": 38.92189166666667, "is_reserved": 0, "fusion_lat": 0.0, "rental_uris": {"android": "https://dc.lft.to/lastmile_qr_scan", "ios": "https://dc.lft.to/lastmile_qr_scan"}, "fusion_lon": 0.0, "name": "f087958462e6548dd3f8fa259fc846a5", "lon": -77.03932133333333, "is_disabled": 0, "type": "electric_scooter"}, {"bike_id": "b0f1c77a3f94c746a7c86a0d46757696", "lat": 38.923262333333334, "is_reserved": 0, "fusion_lat": 0.0, "rental_uris": {"android": "https://dc.lft.to/lastmile_qr_scan", "ios": "https://dc.lft.to/lastmile_qr_scan"}, "fusion_lon": 0.0, "name": "b0f1c77a3f94c746a7c86a0d46757696", "lon": -77.03678666666667, "is_disabled": 0, "type": "electric_scooter"}, {"bike_id": "8da5a3e530e5ca711ae8ea257bed1022", "lat": 38.963204166666664, "is_reserved": 0, "fusion_lat": 0.0, "rental_uris": {"android": "https://dc.lft.to/lastmile_qr_scan", "ios": "https://dc.lft.to/lastmile_qr_scan"}, "fusion_lon": 0.0, "name": "8da5a3e530e5ca711ae8ea257bed1022", "lon": -76.97372016666667, "is_disabled": 0, "type": "electric_bike"}, {"bike_id": "6037e5c620bfb29df30b4e43de4d0ab5", "lat": 38.88721183333333, "is_reserved": 0, "fusion_lat": 0.0, "rental_uris": {"android": "https://dc.lft.to/lastmile_qr_scan", "ios": "https://dc.lft.to/lastmile_qr_scan"}, "fusion_lon": 0.0, "name": "6037e5c620bfb29df30b4e43de4d0ab5", "lon": -77.0220885, "is_disabled": 0, "type": "electric_scooter"}, {"bike_id": "d720422dc87ddad8ce48984d51c86afa", "lat": 38.90533166666667, "is_reserved": 0, "fusion_lat": 0.0, "rental_uris": {"android": "https://dc.lft.to/lastmile_qr_scan", "ios": "https://dc.lft.to/lastmile_qr_scan"}, "fusion_lon": 0.0, "name": "d720422dc87ddad8ce48984d51c86afa", "lon": -77.0702965, "is_disabled": 0, "type": "electric_scooter"}, {"bike_id": "e0384025346a4e9e71ea2940901a56b9", "lat": 38.898891666666664, "is_reserved": 0, "fusion_lat": 0.0, "rental_uris": {"android": "https://dc.lft.to/lastmile_qr_scan", "ios": "https://dc.lft.to/lastmile_qr_scan"}, "fusion_lon": 0.0, "name": "e0384025346a4e9e71ea2940901a56b9", "lon": -76.93226566666667, "is_disabled": 0, "type": "electric_scooter"}, {"bike_id": "1970ed5689da1905e7e76b8ef7e5fa82", "lat": 38.91646133333333, "is_reserved": 0, "fusion_lat": 0.0, "rental_uris": {"android": "https://dc.lft.to/lastmile_qr_scan", "ios": "https://dc.lft.to/lastmile_qr_scan"}, "fusion_lon": 0.0, "name": "1970ed5689da1905e7e76b8ef7e5fa82", "lon": -77.03207883333333, "is_disabled": 0, "type": "electric_scooter"}, {"bike_id": "7599111bd0f08823982b44ceb72b8c66", "lat": 38.89227483333333, "is_reserved": 0, "fusion_lat": 0.0, "rental_uris": {"android": "https://dc.lft.to/lastmile_qr_scan", "ios": "https://dc.lft.to/lastmile_qr_scan"}, "fusion_lon": 0.0, "name": "7599111bd0f08823982b44ceb72b8c66", "lon": -77.00344616666666, "is_disabled": 0, "type": "electric_scooter"}, {"bike_id": "6ab69dcf7624e66e54aa12d134bfc146", "lat": 38.903805, "is_reserved": 0, "fusion_lat": 0.0, "rental_uris": {"android": "https://dc.lft.to/lastmile_qr_scan", "ios": "https://dc.lft.to/lastmile_qr_scan"}, "fusion_lon": 0.0, "name": "6ab69dcf7624e66e54aa12d134bfc146", "lon": -77.0346605, "is_disabled": 0, "type": "electric_scooter"}, {"bike_id": "fee2d63b6a86b85a543801977f710527", "lat": 38.966651666666664, "is_reserved": 0, "fusion_lat": 0.0, "rental_uris": {"android": "https://dc.lft.to/lastmile_qr_scan", "ios": "https://dc.lft.to/lastmile_qr_scan"}, "fusion_lon": 0.0, "name": "fee2d63b6a86b85a543801977f710527", "lon": -76.97444783333333, "is_disabled": 0, "type": "electric_bike"}, {"bike_id": "04579c20415c6effaa71120371b1722f", "lat": 38.9170755, "is_reserved": 0, "fusion_lat": 0.0, "rental_uris": {"android": "https://dc.lft.to/lastmile_qr_scan", "ios": "https://dc.lft.to/lastmile_qr_scan"}, "fusion_lon": 0.0, "name": "04579c20415c6effaa71120371b1722f", "lon": -77.03471766666667, "is_disabled": 0, "type": "electric_scooter"}, {"bike_id": "8ad94014bde386ce4c80ed16792a6648", "lat": 38.9552505, "is_reserved": 0, "fusion_lat": 0.0, "rental_uris": {"android": "https://dc.lft.to/lastmile_qr_scan", "ios": "https://dc.lft.to/lastmile_qr_scan"}, "fusion_lon": 0.0, "name": "8ad94014bde386ce4c80ed16792a6648", "lon": -77.02311766666666, "is_disabled": 0, "type": "electric_scooter"}, {"bike_id": "e03a19bf928381dea92921aedcc0db6b", "lat": 38.944904, "is_reserved": 0, "fusion_lat": 0.0, "rental_uris": {"android": "https://dc.lft.to/lastmile_qr_scan", "ios": "https://dc.lft.to/lastmile_qr_scan"}, "fusion_lon": 0.0, "name": "e03a19bf928381dea92921aedcc0db6b", "lon": -77.09445533333333, "is_disabled": 0, "type": "electric_scooter"}, {"bike_id": "576d9a3120613f12a8a25051a135a5e2", "lat": 38.9060215, "is_reserved": 0, "fusion_lat": 0.0, "rental_uris": {"android": "https://dc.lft.to/lastmile_qr_scan", "ios": "https://dc.lft.to/lastmile_qr_scan"}, "fusion_lon": 0.0, "name": "576d9a3120613f12a8a25051a135a5e2", "lon": -77.02678316666666, "is_disabled": 0, "type": "electric_scooter"}, {"bike_id": "79e3e2e60a4f46985a6a8ba363d9f110", "lat": 38.915657, "is_reserved": 0, "fusion_lat": 0.0, "rental_uris": {"android": "https://dc.lft.to/lastmile_qr_scan", "ios": "https://dc.lft.to/lastmile_qr_scan"}, "fusion_lon": 0.0, "name": "79e3e2e60a4f46985a6a8ba363d9f110", "lon": -77.035773, "is_disabled": 0, "type": "electric_scooter"}, {"bike_id": "883b43fb000f8bd25a0dfaea0406d0ae", "lat": 38.89753, "is_reserved": 0, "fusion_lat": 0.0, "rental_uris": {"android": "https://dc.lft.to/lastmile_qr_scan", "ios": "https://dc.lft.to/lastmile_qr_scan"}, "fusion_lon": 0.0, "name": "883b43fb000f8bd25a0dfaea0406d0ae", "lon": -77.02743183333334, "is_disabled": 0, "type": "electric_scooter"}, {"bike_id": "39ebbc4e4441979ce4133f1bd313dd12", "lat": 38.921768166666666, "is_reserved": 0, "fusion_lat": 0.0, "rental_uris": {"android": "https://dc.lft.to/lastmile_qr_scan", "ios": "https://dc.lft.to/lastmile_qr_scan"}, "fusion_lon": 0.0, "name": "39ebbc4e4441979ce4133f1bd313dd12", "lon": -77.019213, "is_disabled": 0, "type": "electric_scooter"}, {"bike_id": "ebc6ac6cbcc2661193eb0c20d0d9d1cb", "lat": 38.9261955, "is_reserved": 0, "fusion_lat": 0.0, "rental_uris": {"android": "https://dc.lft.to/lastmile_qr_scan", "ios": "https://dc.lft.to/lastmile_qr_scan"}, "fusion_lon": 0.0, "name": "ebc6ac6cbcc2661193eb0c20d0d9d1cb", "lon": -77.041914, "is_disabled": 0, "type": "electric_scooter"}, {"bike_id": "117164463b77c6dc11cd854e7044e57e", "lat": 38.9365535, "is_reserved": 0, "fusion_lat": 0.0, "rental_uris": {"android": "https://dc.lft.to/lastmile_qr_scan", "ios": "https://dc.lft.to/lastmile_qr_scan"}, "fusion_lon": 0.0, "name": "117164463b77c6dc11cd854e7044e57e", "lon": -77.0334935, "is_disabled": 0, "type": "electric_scooter"}, {"bike_id": "94b01c518202e2df003e55ad1c80218e", "lat": 38.90145966666667, "is_reserved": 0, "fusion_lat": 0.0, "rental_uris": {"android": "https://dc.lft.to/lastmile_qr_scan", "ios": "https://dc.lft.to/lastmile_qr_scan"}, "fusion_lon": 0.0, "name": "94b01c518202e2df003e55ad1c80218e", "lon": -76.93085833333333, "is_disabled": 0, "type": "electric_scooter"}, {"bike_id": "34afb4185030e7cbbea9710e874fccf7", "lat": 38.902916166666664, "is_reserved": 0, "fusion_lat": 0.0, "rental_uris": {"android": "https://dc.lft.to/lastmile_qr_scan", "ios": "https://dc.lft.to/lastmile_qr_scan"}, "fusion_lon": 0.0, "name": "34afb4185030e7cbbea9710e874fccf7", "lon": -77.0337, "is_disabled": 0, "type": "electric_scooter"}, {"bike_id": "bb9c32ab35e5119fa22b96a505246cc2", "lat": 38.86329833333333, "is_reserved": 0, "fusion_lat": 0.0, "rental_uris": {"android": "https://dc.lft.to/lastmile_qr_scan", "ios": "https://dc.lft.to/lastmile_qr_scan"}, "fusion_lon": 0.0, "name": "bb9c32ab35e5119fa22b96a505246cc2", "lon": -76.98728183333333, "is_disabled": 0, "type": "electric_bike"}, {"bike_id": "d7ec5caf0e7df704be2709b47be822dc", "lat": 38.89222516666667, "is_reserved": 0, "fusion_lat": 0.0, "rental_uris": {"android": "https://dc.lft.to/lastmile_qr_scan", "ios": "https://dc.lft.to/lastmile_qr_scan"}, "fusion_lon": 0.0, "name": "d7ec5caf0e7df704be2709b47be822dc", "lon": -77.032161, "is_disabled": 0, "type": "electric_scooter"}, {"bike_id": "f3e5ac94267350b1f73c5e40e6166eed", "lat": 38.8991435, "is_reserved": 0, "fusion_lat": 0.0, "rental_uris": {"android": "https://dc.lft.to/lastmile_qr_scan", "ios": "https://dc.lft.to/lastmile_qr_scan"}, "fusion_lon": 0.0, "name": "f3e5ac94267350b1f73c5e40e6166eed", "lon": -76.9337165, "is_disabled": 0, "type": "electric_scooter"}, {"bike_id": "0fbcd7b041fd24f0bf2d6df761e74d30", "lat": 38.87883933333333, "is_reserved": 0, "fusion_lat": 0.0, "rental_uris": {"android": "https://dc.lft.to/lastmile_qr_scan", "ios": "https://dc.lft.to/lastmile_qr_scan"}, "fusion_lon": 0.0, "name": "0fbcd7b041fd24f0bf2d6df761e74d30", "lon": -77.022345, "is_disabled": 0, "type": "electric_scooter"}, {"bike_id": "2fa1f34193c8b98446dc7fd194268186", "lat": 38.89229383333333, "is_reserved": 0, "fusion_lat": 0.0, "rental_uris": {"android": "https://dc.lft.to/lastmile_qr_scan", "ios": "https://dc.lft.to/lastmile_qr_scan"}, "fusion_lon": 0.0, "name": "2fa1f34193c8b98446dc7fd194268186", "lon": -77.03165983333334, "is_disabled": 0, "type": "electric_scooter"}, {"bike_id": "028cb5d7ddaf081bae2b56612353562f", "lat": 38.948272333333335, "is_reserved": 0, "fusion_lat": 0.0, "rental_uris": {"android": "https://dc.lft.to/lastmile_qr_scan", "ios": "https://dc.lft.to/lastmile_qr_scan"}, "fusion_lon": 0.0, "name": "028cb5d7ddaf081bae2b56612353562f", "lon": -77.02488583333333, "is_disabled": 0, "type": "electric_scooter"}, {"bike_id": "d8eaa0180b5fef431d942dcc6730c63e", "lat": 38.902538666666665, "is_reserved": 0, "fusion_lat": 0.0, "rental_uris": {"android": "https://dc.lft.to/lastmile_qr_scan", "ios": "https://dc.lft.to/lastmile_qr_scan"}, "fusion_lon": 0.0, "name": "d8eaa0180b5fef431d942dcc6730c63e", "lon": -77.03428866666667, "is_disabled": 0, "type": "electric_scooter"}, {"bike_id": "3cc30ac8232746e771840429d4d92d47", "lat": 38.9142655, "is_reserved": 0, "fusion_lat": 0.0, "rental_uris": {"android": "https://dc.lft.to/lastmile_qr_scan", "ios": "https://dc.lft.to/lastmile_qr_scan"}, "fusion_lon": 0.0, "name": "3cc30ac8232746e771840429d4d92d47", "lon": -77.03188966666667, "is_disabled": 0, "type": "electric_scooter"}, {"bike_id": "12377b0864918f79eb5b282002dac725", "lat": 38.903468333333336, "is_reserved": 0, "fusion_lat": 0.0, "rental_uris": {"android": "https://dc.lft.to/lastmile_qr_scan", "ios": "https://dc.lft.to/lastmile_qr_scan"}, "fusion_lon": 0.0, "name": "12377b0864918f79eb5b282002dac725", "lon": -77.045062, "is_disabled": 0, "type": "electric_bike"}, {"bike_id": "aef89725a232f34784627a80f05e3122", "lat": 38.9182645, "is_reserved": 0, "fusion_lat": 0.0, "rental_uris": {"android": "https://dc.lft.to/lastmile_qr_scan", "ios": "https://dc.lft.to/lastmile_qr_scan"}, "fusion_lon": 0.0, "name": "aef89725a232f34784627a80f05e3122", "lon": -77.04926616666667, "is_disabled": 0, "type": "electric_scooter"}, {"bike_id": "b3e8a891dccd2553034b50365f0990c2", "lat": 38.9224965, "is_reserved": 0, "fusion_lat": 0.0, "rental_uris": {"android": "https://dc.lft.to/lastmile_qr_scan", "ios": "https://dc.lft.to/lastmile_qr_scan"}, "fusion_lon": 0.0, "name": "b3e8a891dccd2553034b50365f0990c2", "lon": -77.04271966666667, "is_disabled": 0, "type": "electric_scooter"}, {"bike_id": "fe8148ba3ce16a6a26dbc95aec0ab395", "lat": 38.920254666666665, "is_reserved": 0, "fusion_lat": 0.0, "rental_uris": {"android": "https://dc.lft.to/lastmile_qr_scan", "ios": "https://dc.lft.to/lastmile_qr_scan"}, "fusion_lon": 0.0, "name": "fe8148ba3ce16a6a26dbc95aec0ab395", "lon": -77.01790366666667, "is_disabled": 0, "type": "electric_scooter"}, {"bike_id": "1af18c32effe150a9726a3723499d29a", "lat": 38.93053416666667, "is_reserved": 0, "fusion_lat": 0.0, "rental_uris": {"android": "https://dc.lft.to/lastmile_qr_scan", "ios": "https://dc.lft.to/lastmile_qr_scan"}, "fusion_lon": 0.0, "name": "1af18c32effe150a9726a3723499d29a", "lon": -77.0425935, "is_disabled": 0, "type": "electric_scooter"}, {"bike_id": "926cfbcae8bb31a95d9f0d3d3f64fbc0", "lat": 38.90682283333334, "is_reserved": 0, "fusion_lat": 0.0, "rental_uris": {"android": "https://dc.lft.to/lastmile_qr_scan", "ios": "https://dc.lft.to/lastmile_qr_scan"}, "fusion_lon": 0.0, "name": "926cfbcae8bb31a95d9f0d3d3f64fbc0", "lon": -76.9800345, "is_disabled": 0, "type": "electric_scooter"}, {"bike_id": "33ff22bebdf1c5c091bbba359a152e3a", "lat": 38.87708683333334, "is_reserved": 0, "fusion_lat": 0.0, "rental_uris": {"android": "https://dc.lft.to/lastmile_qr_scan", "ios": "https://dc.lft.to/lastmile_qr_scan"}, "fusion_lon": 0.0, "name": "33ff22bebdf1c5c091bbba359a152e3a", "lon": -77.01765716666667, "is_disabled": 0, "type": "electric_scooter"}, {"bike_id": "9aeb435e046db3a56ea1303451769e19", "lat": 38.85176766666667, "is_reserved": 0, "fusion_lat": 0.0, "rental_uris": {"android": "https://dc.lft.to/lastmile_qr_scan", "ios": "https://dc.lft.to/lastmile_qr_scan"}, "fusion_lon": 0.0, "name": "9aeb435e046db3a56ea1303451769e19", "lon": -76.99579216666666, "is_disabled": 0, "type": "electric_scooter"}, {"bike_id": "47a093a01eb8c7930b142e0fdd136a89", "lat": 38.88395633333333, "is_reserved": 0, "fusion_lat": 0.0, "rental_uris": {"android": "https://dc.lft.to/lastmile_qr_scan", "ios": "https://dc.lft.to/lastmile_qr_scan"}, "fusion_lon": 0.0, "name": "47a093a01eb8c7930b142e0fdd136a89", "lon": -77.02011533333334, "is_disabled": 0, "type": "electric_scooter"}, {"bike_id": "71331ff42c3edd32d1e5b49b1d22b715", "lat": 38.92060083333333, "is_reserved": 0, "fusion_lat": 0.0, "rental_uris": {"android": "https://dc.lft.to/lastmile_qr_scan", "ios": "https://dc.lft.to/lastmile_qr_scan"}, "fusion_lon": 0.0, "name": "71331ff42c3edd32d1e5b49b1d22b715", "lon": -77.03346766666667, "is_disabled": 0, "type": "electric_scooter"}, {"bike_id": "065a2d26a934462e4a3b5637deec9188", "lat": 38.91273, "is_reserved": 0, "fusion_lat": 0.0, "rental_uris": {"android": "https://dc.lft.to/lastmile_qr_scan", "ios": "https://dc.lft.to/lastmile_qr_scan"}, "fusion_lon": 0.0, "name": "065a2d26a934462e4a3b5637deec9188", "lon": -77.0221605, "is_disabled": 0, "type": "electric_scooter"}, {"bike_id": "3653b247b10258dc35cb295a6b735e21", "lat": 38.925105333333335, "is_reserved": 0, "fusion_lat": 0.0, "rental_uris": {"android": "https://dc.lft.to/lastmile_qr_scan", "ios": "https://dc.lft.to/lastmile_qr_scan"}, "fusion_lon": 0.0, "name": "3653b247b10258dc35cb295a6b735e21", "lon": -77.00226383333333, "is_disabled": 0, "type": "electric_scooter"}, {"bike_id": "9b03bc2cf84d4410e7c358e4c0c19863", "lat": 38.9138545, "is_reserved": 0, "fusion_lat": 0.0, "rental_uris": {"android": "https://dc.lft.to/lastmile_qr_scan", "ios": "https://dc.lft.to/lastmile_qr_scan"}, "fusion_lon": 0.0, "name": "9b03bc2cf84d4410e7c358e4c0c19863", "lon": -77.04605416666666, "is_disabled": 0, "type": "electric_scooter"}, {"bike_id": "ddb2e2020d75bbb67d952b17f0fd564a", "lat": 38.89387166666667, "is_reserved": 0, "fusion_lat": 0.0, "rental_uris": {"android": "https://dc.lft.to/lastmile_qr_scan", "ios": "https://dc.lft.to/lastmile_qr_scan"}, "fusion_lon": 0.0, "name": "ddb2e2020d75bbb67d952b17f0fd564a", "lon": -77.02271783333333, "is_disabled": 0, "type": "electric_scooter"}, {"bike_id": "9c8ef1c0d631cb17f489ef5a7372057a", "lat": 38.89853316666667, "is_reserved": 0, "fusion_lat": 0.0, "rental_uris": {"android": "https://dc.lft.to/lastmile_qr_scan", "ios": "https://dc.lft.to/lastmile_qr_scan"}, "fusion_lon": 0.0, "name": "9c8ef1c0d631cb17f489ef5a7372057a", "lon": -76.929111, "is_disabled": 0, "type": "electric_scooter"}, {"bike_id": "48776701584470a7ae6185ce96b108d9", "lat": 38.900281166666666, "is_reserved": 0, "fusion_lat": 0.0, "rental_uris": {"android": "https://dc.lft.to/lastmile_qr_scan", "ios": "https://dc.lft.to/lastmile_qr_scan"}, "fusion_lon": 0.0, "name": "48776701584470a7ae6185ce96b108d9", "lon": -76.9865535, "is_disabled": 0, "type": "electric_scooter"}, {"bike_id": "583e7712004c5ec0e3ade655f6c6d0fd", "lat": 38.90371183333333, "is_reserved": 0, "fusion_lat": 0.0, "rental_uris": {"android": "https://dc.lft.to/lastmile_qr_scan", "ios": "https://dc.lft.to/lastmile_qr_scan"}, "fusion_lon": 0.0, "name": "583e7712004c5ec0e3ade655f6c6d0fd", "lon": -77.00771916666666, "is_disabled": 0, "type": "electric_scooter"}, {"bike_id": "c96fc039a04db6dd853a9023db415e3c", "lat": 38.88713, "is_reserved": 0, "fusion_lat": 0.0, "rental_uris": {"android": "https://dc.lft.to/lastmile_qr_scan", "ios": "https://dc.lft.to/lastmile_qr_scan"}, "fusion_lon": 0.0, "name": "c96fc039a04db6dd853a9023db415e3c", "lon": -77.01778766666666, "is_disabled": 0, "type": "electric_scooter"}, {"bike_id": "0bcbb21839554914dc802ed181630dc9", "lat": 38.9010985, "is_reserved": 0, "fusion_lat": 0.0, "rental_uris": {"android": "https://dc.lft.to/lastmile_qr_scan", "ios": "https://dc.lft.to/lastmile_qr_scan"}, "fusion_lon": 0.0, "name": "0bcbb21839554914dc802ed181630dc9", "lon": -77.01238766666667, "is_disabled": 0, "type": "electric_scooter"}, {"bike_id": "4ea544e4abf6d39ff4346ee53c168a05", "lat": 38.924699333333336, "is_reserved": 0, "fusion_lat": 0.0, "rental_uris": {"android": "https://dc.lft.to/lastmile_qr_scan", "ios": "https://dc.lft.to/lastmile_qr_scan"}, "fusion_lon": 0.0, "name": "4ea544e4abf6d39ff4346ee53c168a05", "lon": -77.02206083333333, "is_disabled": 0, "type": "electric_scooter"}, {"bike_id": "29652fe16a7feeb9a6adaec9a8d75433", "lat": 38.920475, "is_reserved": 0, "fusion_lat": 0.0, "rental_uris": {"android": "https://dc.lft.to/lastmile_qr_scan", "ios": "https://dc.lft.to/lastmile_qr_scan"}, "fusion_lon": 0.0, "name": "29652fe16a7feeb9a6adaec9a8d75433", "lon": -77.0341, "is_disabled": 0, "type": "electric_scooter"}, {"bike_id": "017170634d95f5a4b0366d4b3e722639", "lat": 38.90503483333333, "is_reserved": 0, "fusion_lat": 0.0, "rental_uris": {"android": "https://dc.lft.to/lastmile_qr_scan", "ios": "https://dc.lft.to/lastmile_qr_scan"}, "fusion_lon": 0.0, "name": "017170634d95f5a4b0366d4b3e722639", "lon": -77.06883766666667, "is_disabled": 0, "type": "electric_scooter"}, {"bike_id": "19b160b5731db02a0df6e18e6fa6937e", "lat": 38.933108833333335, "is_reserved": 0, "fusion_lat": 0.0, "rental_uris": {"android": "https://dc.lft.to/lastmile_qr_scan", "ios": "https://dc.lft.to/lastmile_qr_scan"}, "fusion_lon": 0.0, "name": "19b160b5731db02a0df6e18e6fa6937e", "lon": -77.07254533333334, "is_disabled": 0, "type": "electric_scooter"}, {"bike_id": "8ebf1392717a4c77c71eb1f9b32f242b", "lat": 38.93701133333333, "is_reserved": 0, "fusion_lat": 0.0, "rental_uris": {"android": "https://dc.lft.to/lastmile_qr_scan", "ios": "https://dc.lft.to/lastmile_qr_scan"}, "fusion_lon": 0.0, "name": "8ebf1392717a4c77c71eb1f9b32f242b", "lon": -77.05603433333333, "is_disabled": 0, "type": "electric_bike"}, {"bike_id": "da5ec0fa84a281f86351eed975f06842", "lat": 38.897572833333335, "is_reserved": 0, "fusion_lat": 0.0, "rental_uris": {"android": "https://dc.lft.to/lastmile_qr_scan", "ios": "https://dc.lft.to/lastmile_qr_scan"}, "fusion_lon": 0.0, "name": "da5ec0fa84a281f86351eed975f06842", "lon": -77.0302835, "is_disabled": 0, "type": "electric_scooter"}, {"bike_id": "0dda5568a6c278dd8e2b4b1232f75498", "lat": 38.89722616666667, "is_reserved": 0, "fusion_lat": 0.0, "rental_uris": {"android": "https://dc.lft.to/lastmile_qr_scan", "ios": "https://dc.lft.to/lastmile_qr_scan"}, "fusion_lon": 0.0, "name": "0dda5568a6c278dd8e2b4b1232f75498", "lon": -77.0274, "is_disabled": 0, "type": "electric_scooter"}, {"bike_id": "89eb426941af7d0ae7d60ed03ae4ab70", "lat": 38.94323833333333, "is_reserved": 0, "fusion_lat": 0.0, "rental_uris": {"android": "https://dc.lft.to/lastmile_qr_scan", "ios": "https://dc.lft.to/lastmile_qr_scan"}, "fusion_lon": 0.0, "name": "89eb426941af7d0ae7d60ed03ae4ab70", "lon": -77.0610675, "is_disabled": 0, "type": "electric_bike"}, {"bike_id": "e9ae2628521d8efb716d803ebbb1f7f8", "lat": 38.89871616666667, "is_reserved": 0, "fusion_lat": 0.0, "rental_uris": {"android": "https://dc.lft.to/lastmile_qr_scan", "ios": "https://dc.lft.to/lastmile_qr_scan"}, "fusion_lon": 0.0, "name": "e9ae2628521d8efb716d803ebbb1f7f8", "lon": -76.946407, "is_disabled": 0, "type": "electric_scooter"}, {"bike_id": "3e65c11e942eba5a084ef21f500934df", "lat": 38.9052655, "is_reserved": 0, "fusion_lat": 0.0, "rental_uris": {"android": "https://dc.lft.to/lastmile_qr_scan", "ios": "https://dc.lft.to/lastmile_qr_scan"}, "fusion_lon": 0.0, "name": "3e65c11e942eba5a084ef21f500934df", "lon": -77.06988916666667, "is_disabled": 0, "type": "electric_bike"}, {"bike_id": "ef208769309eec32c23363864713bfd2", "lat": 38.933908333333335, "is_reserved": 0, "fusion_lat": 0.0, "rental_uris": {"android": "https://dc.lft.to/lastmile_qr_scan", "ios": "https://dc.lft.to/lastmile_qr_scan"}, "fusion_lon": 0.0, "name": "ef208769309eec32c23363864713bfd2", "lon": -77.05741666666667, "is_disabled": 0, "type": "electric_scooter"}, {"bike_id": "2fdc504b545bc1c84deeb525471aa5e1", "lat": 38.907323166666664, "is_reserved": 0, "fusion_lat": 0.0, "rental_uris": {"android": "https://dc.lft.to/lastmile_qr_scan", "ios": "https://dc.lft.to/lastmile_qr_scan"}, "fusion_lon": 0.0, "name": "2fdc504b545bc1c84deeb525471aa5e1", "lon": -77.02378516666667, "is_disabled": 0, "type": "electric_scooter"}, {"bike_id": "f9e04e5f795f50e230ecfcccc559bd9e", "lat": 38.90291783333333, "is_reserved": 0, "fusion_lat": 0.0, "rental_uris": {"android": "https://dc.lft.to/lastmile_qr_scan", "ios": "https://dc.lft.to/lastmile_qr_scan"}, "fusion_lon": 0.0, "name": "f9e04e5f795f50e230ecfcccc559bd9e", "lon": -77.0581785, "is_disabled": 0, "type": "electric_scooter"}, {"bike_id": "fa2616839aaf629008ae1fa1d24f3146", "lat": 38.940594833333336, "is_reserved": 0, "fusion_lat": 0.0, "rental_uris": {"android": "https://dc.lft.to/lastmile_qr_scan", "ios": "https://dc.lft.to/lastmile_qr_scan"}, "fusion_lon": 0.0, "name": "fa2616839aaf629008ae1fa1d24f3146", "lon": -77.023385, "is_disabled": 0, "type": "electric_scooter"}, {"bike_id": "3d7a080f377ee06c86bee7026e1bcdce", "lat": 38.89328016666666, "is_reserved": 0, "fusion_lat": 0.0, "rental_uris": {"android": "https://dc.lft.to/lastmile_qr_scan", "ios": "https://dc.lft.to/lastmile_qr_scan"}, "fusion_lon": 0.0, "name": "3d7a080f377ee06c86bee7026e1bcdce", "lon": -77.0467295, "is_disabled": 0, "type": "electric_scooter"}, {"bike_id": "1126ea3f2adf385fb5c880128fdd7283", "lat": 38.861526833333336, "is_reserved": 0, "fusion_lat": 0.0, "rental_uris": {"android": "https://dc.lft.to/lastmile_qr_scan", "ios": "https://dc.lft.to/lastmile_qr_scan"}, "fusion_lon": 0.0, "name": "1126ea3f2adf385fb5c880128fdd7283", "lon": -77.091429, "is_disabled": 0, "type": "electric_bike"}, {"bike_id": "419e68dab457898a919aae1469b8a894", "lat": 38.93236266666667, "is_reserved": 0, "fusion_lat": 0.0, "rental_uris": {"android": "https://dc.lft.to/lastmile_qr_scan", "ios": "https://dc.lft.to/lastmile_qr_scan"}, "fusion_lon": 0.0, "name": "419e68dab457898a919aae1469b8a894", "lon": -77.03875466666666, "is_disabled": 0, "type": "electric_scooter"}, {"bike_id": "0c382238c1a1d3b28301c13e0c7014f1", "lat": 38.922210166666666, "is_reserved": 0, "fusion_lat": 0.0, "rental_uris": {"android": "https://dc.lft.to/lastmile_qr_scan", "ios": "https://dc.lft.to/lastmile_qr_scan"}, "fusion_lon": 0.0, "name": "0c382238c1a1d3b28301c13e0c7014f1", "lon": -77.20137733333334, "is_disabled": 0, "type": "electric_bike"}, {"bike_id": "d57e4a29f34bcdf922690282b4626f46", "lat": 38.8924455, "is_reserved": 0, "fusion_lat": 0.0, "rental_uris": {"android": "https://dc.lft.to/lastmile_qr_scan", "ios": "https://dc.lft.to/lastmile_qr_scan"}, "fusion_lon": 0.0, "name": "d57e4a29f34bcdf922690282b4626f46", "lon": -77.03957583333333, "is_disabled": 0, "type": "electric_scooter"}, {"bike_id": "8f5fdf9e2736d374b2b97e79072d6870", "lat": 38.90809266666667, "is_reserved": 0, "fusion_lat": 0.0, "rental_uris": {"android": "https://dc.lft.to/lastmile_qr_scan", "ios": "https://dc.lft.to/lastmile_qr_scan"}, "fusion_lon": 0.0, "name": "8f5fdf9e2736d374b2b97e79072d6870", "lon": -77.03067833333333, "is_disabled": 0, "type": "electric_scooter"}, {"bike_id": "21b6e5e19fd9be05f07472369cad3ecd", "lat": 38.90540333333333, "is_reserved": 0, "fusion_lat": 0.0, "rental_uris": {"android": "https://dc.lft.to/lastmile_qr_scan", "ios": "https://dc.lft.to/lastmile_qr_scan"}, "fusion_lon": 0.0, "name": "21b6e5e19fd9be05f07472369cad3ecd", "lon": -77.041911, "is_disabled": 0, "type": "electric_scooter"}, {"bike_id": "65480f1ee7730043f1c64a5a83e26934", "lat": 38.94113933333333, "is_reserved": 0, "fusion_lat": 0.0, "rental_uris": {"android": "https://dc.lft.to/lastmile_qr_scan", "ios": "https://dc.lft.to/lastmile_qr_scan"}, "fusion_lon": 0.0, "name": "65480f1ee7730043f1c64a5a83e26934", "lon": -77.0254205, "is_disabled": 0, "type": "electric_scooter"}, {"bike_id": "d3abd4eeab4cb5b739532983476c72bd", "lat": 38.9112325, "is_reserved": 0, "fusion_lat": 0.0, "rental_uris": {"android": "https://dc.lft.to/lastmile_qr_scan", "ios": "https://dc.lft.to/lastmile_qr_scan"}, "fusion_lon": 0.0, "name": "d3abd4eeab4cb5b739532983476c72bd", "lon": -77.03148066666667, "is_disabled": 0, "type": "electric_scooter"}, {"bike_id": "3e8a39eb13093d115eaae632cd364ab6", "lat": 38.9025825, "is_reserved": 0, "fusion_lat": 0.0, "rental_uris": {"android": "https://dc.lft.to/lastmile_qr_scan", "ios": "https://dc.lft.to/lastmile_qr_scan"}, "fusion_lon": 0.0, "name": "3e8a39eb13093d115eaae632cd364ab6", "lon": -77.048148, "is_disabled": 0, "type": "electric_scooter"}, {"bike_id": "4893f6f8cf0916e067d79a6dfdc54d2d", "lat": 38.9232635, "is_reserved": 0, "fusion_lat": 0.0, "rental_uris": {"android": "https://dc.lft.to/lastmile_qr_scan", "ios": "https://dc.lft.to/lastmile_qr_scan"}, "fusion_lon": 0.0, "name": "4893f6f8cf0916e067d79a6dfdc54d2d", "lon": -77.0296675, "is_disabled": 0, "type": "electric_scooter"}, {"bike_id": "b7573f42f00135cbe47b7381446ff94c", "lat": 38.921503, "is_reserved": 0, "fusion_lat": 0.0, "rental_uris": {"android": "https://dc.lft.to/lastmile_qr_scan", "ios": "https://dc.lft.to/lastmile_qr_scan"}, "fusion_lon": 0.0, "name": "b7573f42f00135cbe47b7381446ff94c", "lon": -77.03441933333333, "is_disabled": 0, "type": "electric_scooter"}, {"bike_id": "bcbcb040ee86e3dfee0e24082132b274", "lat": 38.909722333333335, "is_reserved": 0, "fusion_lat": 0.0, "rental_uris": {"android": "https://dc.lft.to/lastmile_qr_scan", "ios": "https://dc.lft.to/lastmile_qr_scan"}, "fusion_lon": 0.0, "name": "bcbcb040ee86e3dfee0e24082132b274", "lon": -77.01714366666667, "is_disabled": 0, "type": "electric_scooter"}, {"bike_id": "9ef8a87ac6e3593fc4f07593c028d553", "lat": 38.9155795, "is_reserved": 0, "fusion_lat": 0.0, "rental_uris": {"android": "https://dc.lft.to/lastmile_qr_scan", "ios": "https://dc.lft.to/lastmile_qr_scan"}, "fusion_lon": 0.0, "name": "9ef8a87ac6e3593fc4f07593c028d553", "lon": -77.03323433333334, "is_disabled": 0, "type": "electric_scooter"}, {"bike_id": "0b671167ab5d78bf365f7437b7cbc4c4", "lat": 38.90607583333333, "is_reserved": 0, "fusion_lat": 0.0, "rental_uris": {"android": "https://dc.lft.to/lastmile_qr_scan", "ios": "https://dc.lft.to/lastmile_qr_scan"}, "fusion_lon": 0.0, "name": "0b671167ab5d78bf365f7437b7cbc4c4", "lon": -77.04676283333333, "is_disabled": 0, "type": "electric_scooter"}, {"bike_id": "77cf920af05f02310addc0eb31d3d6e3", "lat": 38.965601166666666, "is_reserved": 0, "fusion_lat": 0.0, "rental_uris": {"android": "https://dc.lft.to/lastmile_qr_scan", "ios": "https://dc.lft.to/lastmile_qr_scan"}, "fusion_lon": 0.0, "name": "77cf920af05f02310addc0eb31d3d6e3", "lon": -77.00205583333333, "is_disabled": 0, "type": "electric_scooter"}, {"bike_id": "d4bb657ae2265ee7e07967a94bb55803", "lat": 38.89223116666667, "is_reserved": 0, "fusion_lat": 0.0, "rental_uris": {"android": "https://dc.lft.to/lastmile_qr_scan", "ios": "https://dc.lft.to/lastmile_qr_scan"}, "fusion_lon": 0.0, "name": "d4bb657ae2265ee7e07967a94bb55803", "lon": -77.04368616666666, "is_disabled": 0, "type": "electric_scooter"}, {"bike_id": "c6d906e01c2d3438c62c95f4047ba6b8", "lat": 38.92302016666667, "is_reserved": 0, "fusion_lat": 0.0, "rental_uris": {"android": "https://dc.lft.to/lastmile_qr_scan", "ios": "https://dc.lft.to/lastmile_qr_scan"}, "fusion_lon": 0.0, "name": "c6d906e01c2d3438c62c95f4047ba6b8", "lon": -77.041796, "is_disabled": 0, "type": "electric_scooter"}, {"bike_id": "923fc8ca3d048b0482d4c0b50fd6e154", "lat": 38.932574833333334, "is_reserved": 0, "fusion_lat": 0.0, "rental_uris": {"android": "https://dc.lft.to/lastmile_qr_scan", "ios": "https://dc.lft.to/lastmile_qr_scan"}, "fusion_lon": 0.0, "name": "923fc8ca3d048b0482d4c0b50fd6e154", "lon": -77.03285033333333, "is_disabled": 0, "type": "electric_scooter"}, {"bike_id": "324ec1a957868f628f019864aad68d7b", "lat": 38.9361295, "is_reserved": 0, "fusion_lat": 0.0, "rental_uris": {"android": "https://dc.lft.to/lastmile_qr_scan", "ios": "https://dc.lft.to/lastmile_qr_scan"}, "fusion_lon": 0.0, "name": "324ec1a957868f628f019864aad68d7b", "lon": -77.058899, "is_disabled": 0, "type": "electric_scooter"}, {"bike_id": "ac64c542340292be2f6ce8c60b58e771", "lat": 38.9160205, "is_reserved": 0, "fusion_lat": 0.0, "rental_uris": {"android": "https://dc.lft.to/lastmile_qr_scan", "ios": "https://dc.lft.to/lastmile_qr_scan"}, "fusion_lon": 0.0, "name": "ac64c542340292be2f6ce8c60b58e771", "lon": -77.001982, "is_disabled": 0, "type": "electric_scooter"}, {"bike_id": "7d1bd3b8f3e27770a18c920270d0bd52", "lat": 38.9223455, "is_reserved": 0, "fusion_lat": 0.0, "rental_uris": {"android": "https://dc.lft.to/lastmile_qr_scan", "ios": "https://dc.lft.to/lastmile_qr_scan"}, "fusion_lon": 0.0, "name": "7d1bd3b8f3e27770a18c920270d0bd52", "lon": -77.02328983333334, "is_disabled": 0, "type": "electric_scooter"}, {"bike_id": "7e6e3ff08562699d2102354b9a00250b", "lat": 38.89224316666667, "is_reserved": 0, "fusion_lat": 0.0, "rental_uris": {"android": "https://dc.lft.to/lastmile_qr_scan", "ios": "https://dc.lft.to/lastmile_qr_scan"}, "fusion_lon": 0.0, "name": "7e6e3ff08562699d2102354b9a00250b", "lon": -77.0486775, "is_disabled": 0, "type": "electric_scooter"}, {"bike_id": "be063c4c2efab38d5b37910caf564936", "lat": 38.88299166666667, "is_reserved": 0, "fusion_lat": 0.0, "rental_uris": {"android": "https://dc.lft.to/lastmile_qr_scan", "ios": "https://dc.lft.to/lastmile_qr_scan"}, "fusion_lon": 0.0, "name": "be063c4c2efab38d5b37910caf564936", "lon": -76.94207566666667, "is_disabled": 0, "type": "electric_scooter"}, {"bike_id": "be5c42309bfb46bd30a1134f2d2979d0", "lat": 38.921429333333336, "is_reserved": 0, "fusion_lat": 0.0, "rental_uris": {"android": "https://dc.lft.to/lastmile_qr_scan", "ios": "https://dc.lft.to/lastmile_qr_scan"}, "fusion_lon": 0.0, "name": "be5c42309bfb46bd30a1134f2d2979d0", "lon": -77.04364133333333, "is_disabled": 0, "type": "electric_scooter"}, {"bike_id": "bcd8bcddc8a09d302ab4bbafbe634a1f", "lat": 38.93525866666667, "is_reserved": 0, "fusion_lat": 0.0, "rental_uris": {"android": "https://dc.lft.to/lastmile_qr_scan", "ios": "https://dc.lft.to/lastmile_qr_scan"}, "fusion_lon": 0.0, "name": "bcd8bcddc8a09d302ab4bbafbe634a1f", "lon": -77.0334845, "is_disabled": 0, "type": "electric_scooter"}, {"bike_id": "9382bd991cd5ceb684333bf19d0edf60", "lat": 38.919105, "is_reserved": 0, "fusion_lat": 0.0, "rental_uris": {"android": "https://dc.lft.to/lastmile_qr_scan", "ios": "https://dc.lft.to/lastmile_qr_scan"}, "fusion_lon": 0.0, "name": "9382bd991cd5ceb684333bf19d0edf60", "lon": -77.002186, "is_disabled": 0, "type": "electric_scooter"}, {"bike_id": "26c87a79be78f245eb3d4946b3ec1312", "lat": 38.936929, "is_reserved": 0, "fusion_lat": 0.0, "rental_uris": {"android": "https://dc.lft.to/lastmile_qr_scan", "ios": "https://dc.lft.to/lastmile_qr_scan"}, "fusion_lon": 0.0, "name": "26c87a79be78f245eb3d4946b3ec1312", "lon": -76.9906545, "is_disabled": 0, "type": "electric_bike"}, {"bike_id": "3d5d8ceb9c093c5973689fb3ea54e4a2", "lat": 38.93473633333333, "is_reserved": 0, "fusion_lat": 0.0, "rental_uris": {"android": "https://dc.lft.to/lastmile_qr_scan", "ios": "https://dc.lft.to/lastmile_qr_scan"}, "fusion_lon": 0.0, "name": "3d5d8ceb9c093c5973689fb3ea54e4a2", "lon": -77.045417, "is_disabled": 0, "type": "electric_scooter"}, {"bike_id": "4e3a91b22b44915a5651a81fe6dff073", "lat": 38.90253633333333, "is_reserved": 0, "fusion_lat": 0.0, "rental_uris": {"android": "https://dc.lft.to/lastmile_qr_scan", "ios": "https://dc.lft.to/lastmile_qr_scan"}, "fusion_lon": 0.0, "name": "4e3a91b22b44915a5651a81fe6dff073", "lon": -77.01791233333333, "is_disabled": 0, "type": "electric_scooter"}, {"bike_id": "ee2084500b9dc68d67c9817a894b078a", "lat": 38.89957183333333, "is_reserved": 0, "fusion_lat": 0.0, "rental_uris": {"android": "https://dc.lft.to/lastmile_qr_scan", "ios": "https://dc.lft.to/lastmile_qr_scan"}, "fusion_lon": 0.0, "name": "ee2084500b9dc68d67c9817a894b078a", "lon": -77.01440966666667, "is_disabled": 0, "type": "electric_scooter"}, {"bike_id": "ad783e222cd8f89ff63977d748e427b3", "lat": 38.90365116666667, "is_reserved": 0, "fusion_lat": 0.0, "rental_uris": {"android": "https://dc.lft.to/lastmile_qr_scan", "ios": "https://dc.lft.to/lastmile_qr_scan"}, "fusion_lon": 0.0, "name": "ad783e222cd8f89ff63977d748e427b3", "lon": -77.03769933333334, "is_disabled": 0, "type": "electric_scooter"}, {"bike_id": "80edc33673d35d97ce0d7722a644eb0d", "lat": 38.8992235, "is_reserved": 0, "fusion_lat": 0.0, "rental_uris": {"android": "https://dc.lft.to/lastmile_qr_scan", "ios": "https://dc.lft.to/lastmile_qr_scan"}, "fusion_lon": 0.0, "name": "80edc33673d35d97ce0d7722a644eb0d", "lon": -76.93368416666667, "is_disabled": 0, "type": "electric_scooter"}, {"bike_id": "fd5fd554a404c8b6bdfef9f6a4d282ad", "lat": 38.91567633333333, "is_reserved": 0, "fusion_lat": 0.0, "rental_uris": {"android": "https://dc.lft.to/lastmile_qr_scan", "ios": "https://dc.lft.to/lastmile_qr_scan"}, "fusion_lon": 0.0, "name": "fd5fd554a404c8b6bdfef9f6a4d282ad", "lon": -77.0259045, "is_disabled": 0, "type": "electric_scooter"}, {"bike_id": "3a47b4eeb90214a7ffec8662a289d959", "lat": 38.89353933333334, "is_reserved": 0, "fusion_lat": 0.0, "rental_uris": {"android": "https://dc.lft.to/lastmile_qr_scan", "ios": "https://dc.lft.to/lastmile_qr_scan"}, "fusion_lon": 0.0, "name": "3a47b4eeb90214a7ffec8662a289d959", "lon": -77.00337033333334, "is_disabled": 0, "type": "electric_scooter"}, {"bike_id": "1dbec7c3d0a9e342f6fd76039fcf475d", "lat": 38.922587166666666, "is_reserved": 0, "fusion_lat": 0.0, "rental_uris": {"android": "https://dc.lft.to/lastmile_qr_scan", "ios": "https://dc.lft.to/lastmile_qr_scan"}, "fusion_lon": 0.0, "name": "1dbec7c3d0a9e342f6fd76039fcf475d", "lon": -77.04217233333334, "is_disabled": 0, "type": "electric_scooter"}, {"bike_id": "afa8293c0575ee98f3a3d2ae5c2f36e6", "lat": 38.878788, "is_reserved": 0, "fusion_lat": 0.0, "rental_uris": {"android": "https://dc.lft.to/lastmile_qr_scan", "ios": "https://dc.lft.to/lastmile_qr_scan"}, "fusion_lon": 0.0, "name": "afa8293c0575ee98f3a3d2ae5c2f36e6", "lon": -77.01751233333333, "is_disabled": 0, "type": "electric_scooter"}, {"bike_id": "e9a84a1e7c36c81d2228c8464607afb0", "lat": 38.8987885, "is_reserved": 0, "fusion_lat": 0.0, "rental_uris": {"android": "https://dc.lft.to/lastmile_qr_scan", "ios": "https://dc.lft.to/lastmile_qr_scan"}, "fusion_lon": 0.0, "name": "e9a84a1e7c36c81d2228c8464607afb0", "lon": -77.04206066666667, "is_disabled": 0, "type": "electric_scooter"}, {"bike_id": "c1904e3c117c6122bef0a049db9791a7", "lat": 38.90260333333333, "is_reserved": 0, "fusion_lat": 0.0, "rental_uris": {"android": "https://dc.lft.to/lastmile_qr_scan", "ios": "https://dc.lft.to/lastmile_qr_scan"}, "fusion_lon": 0.0, "name": "c1904e3c117c6122bef0a049db9791a7", "lon": -77.02994983333333, "is_disabled": 0, "type": "electric_scooter"}, {"bike_id": "f46012e16ba261036a26d3dd8aa8d58f", "lat": 38.922182166666666, "is_reserved": 0, "fusion_lat": 0.0, "rental_uris": {"android": "https://dc.lft.to/lastmile_qr_scan", "ios": "https://dc.lft.to/lastmile_qr_scan"}, "fusion_lon": 0.0, "name": "f46012e16ba261036a26d3dd8aa8d58f", "lon": -77.0423845, "is_disabled": 0, "type": "electric_scooter"}, {"bike_id": "5b3820979fde7ddcab1d776a4f71a960", "lat": 38.907876, "is_reserved": 0, "fusion_lat": 0.0, "rental_uris": {"android": "https://dc.lft.to/lastmile_qr_scan", "ios": "https://dc.lft.to/lastmile_qr_scan"}, "fusion_lon": 0.0, "name": "5b3820979fde7ddcab1d776a4f71a960", "lon": -77.01109333333333, "is_disabled": 0, "type": "electric_scooter"}, {"bike_id": "042275ba362e7b0884d8aa745ce2f281", "lat": 38.913506, "is_reserved": 0, "fusion_lat": 0.0, "rental_uris": {"android": "https://dc.lft.to/lastmile_qr_scan", "ios": "https://dc.lft.to/lastmile_qr_scan"}, "fusion_lon": 0.0, "name": "042275ba362e7b0884d8aa745ce2f281", "lon": -77.071125, "is_disabled": 0, "type": "electric_scooter"}, {"bike_id": "75a722dc34ea35c4274623a846c5706d", "lat": 38.8619395, "is_reserved": 0, "fusion_lat": 0.0, "rental_uris": {"android": "https://dc.lft.to/lastmile_qr_scan", "ios": "https://dc.lft.to/lastmile_qr_scan"}, "fusion_lon": 0.0, "name": "75a722dc34ea35c4274623a846c5706d", "lon": -76.95953166666666, "is_disabled": 0, "type": "electric_scooter"}, {"bike_id": "da3674b9fbce942e2a63838925675d52", "lat": 38.9288205, "is_reserved": 0, "fusion_lat": 0.0, "rental_uris": {"android": "https://dc.lft.to/lastmile_qr_scan", "ios": "https://dc.lft.to/lastmile_qr_scan"}, "fusion_lon": 0.0, "name": "da3674b9fbce942e2a63838925675d52", "lon": -77.03332016666667, "is_disabled": 0, "type": "electric_scooter"}, {"bike_id": "ed754f1c9316cd4d459c9a65c437ff09", "lat": 38.9027775, "is_reserved": 0, "fusion_lat": 0.0, "rental_uris": {"android": "https://dc.lft.to/lastmile_qr_scan", "ios": "https://dc.lft.to/lastmile_qr_scan"}, "fusion_lon": 0.0, "name": "ed754f1c9316cd4d459c9a65c437ff09", "lon": -77.03352866666667, "is_disabled": 0, "type": "electric_scooter"}, {"bike_id": "ff1dc536f24336ac42817f0cab45354c", "lat": 38.89613116666666, "is_reserved": 0, "fusion_lat": 0.0, "rental_uris": {"android": "https://dc.lft.to/lastmile_qr_scan", "ios": "https://dc.lft.to/lastmile_qr_scan"}, "fusion_lon": 0.0, "name": "ff1dc536f24336ac42817f0cab45354c", "lon": -77.02220583333333, "is_disabled": 0, "type": "electric_scooter"}, {"bike_id": "36b46ced5b46de4b141ddcb23e2d9f2d", "lat": 38.96852283333333, "is_reserved": 0, "fusion_lat": 0.0, "rental_uris": {"android": "https://dc.lft.to/lastmile_qr_scan", "ios": "https://dc.lft.to/lastmile_qr_scan"}, "fusion_lon": 0.0, "name": "36b46ced5b46de4b141ddcb23e2d9f2d", "lon": -77.02722933333334, "is_disabled": 0, "type": "electric_scooter"}, {"bike_id": "1c37e23bc1d06e61ae6eaa81adcc163b", "lat": 38.900406333333336, "is_reserved": 0, "fusion_lat": 0.0, "rental_uris": {"android": "https://dc.lft.to/lastmile_qr_scan", "ios": "https://dc.lft.to/lastmile_qr_scan"}, "fusion_lon": 0.0, "name": "1c37e23bc1d06e61ae6eaa81adcc163b", "lon": -77.0020105, "is_disabled": 0, "type": "electric_scooter"}, {"bike_id": "c0e00adac0fd6675ae470d9abd68a519", "lat": 38.862471, "is_reserved": 0, "fusion_lat": 0.0, "rental_uris": {"android": "https://dc.lft.to/lastmile_qr_scan", "ios": "https://dc.lft.to/lastmile_qr_scan"}, "fusion_lon": 0.0, "name": "c0e00adac0fd6675ae470d9abd68a519", "lon": -76.99496933333333, "is_disabled": 0, "type": "electric_scooter"}, {"bike_id": "049de5e84a6ee09032a841a886aa6b8b", "lat": 38.87649916666667, "is_reserved": 0, "fusion_lat": 0.0, "rental_uris": {"android": "https://dc.lft.to/lastmile_qr_scan", "ios": "https://dc.lft.to/lastmile_qr_scan"}, "fusion_lon": 0.0, "name": "049de5e84a6ee09032a841a886aa6b8b", "lon": -76.96504183333333, "is_disabled": 0, "type": "electric_scooter"}, {"bike_id": "a1684361bfe621d6123060d7f206cc26", "lat": 38.8997245, "is_reserved": 0, "fusion_lat": 0.0, "rental_uris": {"android": "https://dc.lft.to/lastmile_qr_scan", "ios": "https://dc.lft.to/lastmile_qr_scan"}, "fusion_lon": 0.0, "name": "a1684361bfe621d6123060d7f206cc26", "lon": -77.04718283333334, "is_disabled": 0, "type": "electric_scooter"}, {"bike_id": "c9159b8c0d37b0a60c67ef3e8679de9a", "lat": 38.908002333333336, "is_reserved": 0, "fusion_lat": 0.0, "rental_uris": {"android": "https://dc.lft.to/lastmile_qr_scan", "ios": "https://dc.lft.to/lastmile_qr_scan"}, "fusion_lon": 0.0, "name": "c9159b8c0d37b0a60c67ef3e8679de9a", "lon": -77.0344045, "is_disabled": 0, "type": "electric_scooter"}, {"bike_id": "b2e5a1d954209993460a527b55a0e0b8", "lat": 38.89870966666667, "is_reserved": 0, "fusion_lat": 0.0, "rental_uris": {"android": "https://dc.lft.to/lastmile_qr_scan", "ios": "https://dc.lft.to/lastmile_qr_scan"}, "fusion_lon": 0.0, "name": "b2e5a1d954209993460a527b55a0e0b8", "lon": -77.04883683333334, "is_disabled": 0, "type": "electric_scooter"}, {"bike_id": "9b491e01200dd146a5ef79a7b867d1ad", "lat": 38.903077833333334, "is_reserved": 0, "fusion_lat": 0.0, "rental_uris": {"android": "https://dc.lft.to/lastmile_qr_scan", "ios": "https://dc.lft.to/lastmile_qr_scan"}, "fusion_lon": 0.0, "name": "9b491e01200dd146a5ef79a7b867d1ad", "lon": -77.05063016666666, "is_disabled": 0, "type": "electric_scooter"}, {"bike_id": "d61956e3f124c615e6b6e1b50bd1fbdf", "lat": 38.91834016666667, "is_reserved": 0, "fusion_lat": 0.0, "rental_uris": {"android": "https://dc.lft.to/lastmile_qr_scan", "ios": "https://dc.lft.to/lastmile_qr_scan"}, "fusion_lon": 0.0, "name": "d61956e3f124c615e6b6e1b50bd1fbdf", "lon": -77.04161016666667, "is_disabled": 0, "type": "electric_scooter"}, {"bike_id": "3213de97dace7a93533536ed6ad5096a", "lat": 38.906722333333335, "is_reserved": 0, "fusion_lat": 0.0, "rental_uris": {"android": "https://dc.lft.to/lastmile_qr_scan", "ios": "https://dc.lft.to/lastmile_qr_scan"}, "fusion_lon": 0.0, "name": "3213de97dace7a93533536ed6ad5096a", "lon": -77.01057933333334, "is_disabled": 0, "type": "electric_scooter"}, {"bike_id": "afdc97597c924d0a7afa4db239e9f2f9", "lat": 38.876669, "is_reserved": 0, "fusion_lat": 0.0, "rental_uris": {"android": "https://dc.lft.to/lastmile_qr_scan", "ios": "https://dc.lft.to/lastmile_qr_scan"}, "fusion_lon": 0.0, "name": "afdc97597c924d0a7afa4db239e9f2f9", "lon": -77.00816366666666, "is_disabled": 0, "type": "electric_scooter"}, {"bike_id": "3eacebcd08fde4c4d423c418ee10e2fd", "lat": 38.875085, "is_reserved": 0, "fusion_lat": 0.0, "rental_uris": {"android": "https://dc.lft.to/lastmile_qr_scan", "ios": "https://dc.lft.to/lastmile_qr_scan"}, "fusion_lon": 0.0, "name": "3eacebcd08fde4c4d423c418ee10e2fd", "lon": -77.01246766666667, "is_disabled": 0, "type": "electric_scooter"}, {"bike_id": "b356a832cdad1c68cbd8befd5541bb0f", "lat": 38.9006735, "is_reserved": 0, "fusion_lat": 0.0, "rental_uris": {"android": "https://dc.lft.to/lastmile_qr_scan", "ios": "https://dc.lft.to/lastmile_qr_scan"}, "fusion_lon": 0.0, "name": "b356a832cdad1c68cbd8befd5541bb0f", "lon": -77.04890866666666, "is_disabled": 0, "type": "electric_scooter"}, {"bike_id": "e0d7c3dab33c8730491b749c4575efee", "lat": 38.91035816666667, "is_reserved": 0, "fusion_lat": 0.0, "rental_uris": {"android": "https://dc.lft.to/lastmile_qr_scan", "ios": "https://dc.lft.to/lastmile_qr_scan"}, "fusion_lon": 0.0, "name": "e0d7c3dab33c8730491b749c4575efee", "lon": -76.99345433333333, "is_disabled": 0, "type": "electric_scooter"}, {"bike_id": "d1a96f72d8b0a479cb1ed16bd93e0159", "lat": 38.94015016666667, "is_reserved": 0, "fusion_lat": 0.0, "rental_uris": {"android": "https://dc.lft.to/lastmile_qr_scan", "ios": "https://dc.lft.to/lastmile_qr_scan"}, "fusion_lon": 0.0, "name": "d1a96f72d8b0a479cb1ed16bd93e0159", "lon": -77.02633866666666, "is_disabled": 0, "type": "electric_scooter"}, {"bike_id": "b6683d1ab42f50bac52ad2909807ff61", "lat": 38.90237116666667, "is_reserved": 0, "fusion_lat": 0.0, "rental_uris": {"android": "https://dc.lft.to/lastmile_qr_scan", "ios": "https://dc.lft.to/lastmile_qr_scan"}, "fusion_lon": 0.0, "name": "b6683d1ab42f50bac52ad2909807ff61", "lon": -77.0347525, "is_disabled": 0, "type": "electric_scooter"}, {"bike_id": "27f7c3f4ac7ea7a9fd911517950e57ab", "lat": 38.87626816666667, "is_reserved": 0, "fusion_lat": 0.0, "rental_uris": {"android": "https://dc.lft.to/lastmile_qr_scan", "ios": "https://dc.lft.to/lastmile_qr_scan"}, "fusion_lon": 0.0, "name": "27f7c3f4ac7ea7a9fd911517950e57ab", "lon": -76.96530683333333, "is_disabled": 0, "type": "electric_scooter"}, {"bike_id": "886b105ea42d709a377e4025c436086d", "lat": 38.917288, "is_reserved": 0, "fusion_lat": 0.0, "rental_uris": {"android": "https://dc.lft.to/lastmile_qr_scan", "ios": "https://dc.lft.to/lastmile_qr_scan"}, "fusion_lon": 0.0, "name": "886b105ea42d709a377e4025c436086d", "lon": -77.019188, "is_disabled": 0, "type": "electric_scooter"}, {"bike_id": "df1190afea86a0b7be20ffab4ae356c1", "lat": 38.95620066666667, "is_reserved": 0, "fusion_lat": 0.0, "rental_uris": {"android": "https://dc.lft.to/lastmile_qr_scan", "ios": "https://dc.lft.to/lastmile_qr_scan"}, "fusion_lon": 0.0, "name": "df1190afea86a0b7be20ffab4ae356c1", "lon": -77.01028116666667, "is_disabled": 0, "type": "electric_scooter"}, {"bike_id": "da72bac7587ee8763ff3469e52debce8", "lat": 38.908622333333334, "is_reserved": 0, "fusion_lat": 0.0, "rental_uris": {"android": "https://dc.lft.to/lastmile_qr_scan", "ios": "https://dc.lft.to/lastmile_qr_scan"}, "fusion_lon": 0.0, "name": "da72bac7587ee8763ff3469e52debce8", "lon": -76.9914005, "is_disabled": 0, "type": "electric_bike"}, {"bike_id": "f8c6b59e59b5efc506e14838f64b2f79", "lat": 38.907290333333336, "is_reserved": 0, "fusion_lat": 0.0, "rental_uris": {"android": "https://dc.lft.to/lastmile_qr_scan", "ios": "https://dc.lft.to/lastmile_qr_scan"}, "fusion_lon": 0.0, "name": "f8c6b59e59b5efc506e14838f64b2f79", "lon": -77.02377983333334, "is_disabled": 0, "type": "electric_scooter"}, {"bike_id": "d54d30226d6bf64d41f04eaff359ed0d", "lat": 38.88765566666667, "is_reserved": 0, "fusion_lat": 0.0, "rental_uris": {"android": "https://dc.lft.to/lastmile_qr_scan", "ios": "https://dc.lft.to/lastmile_qr_scan"}, "fusion_lon": 0.0, "name": "d54d30226d6bf64d41f04eaff359ed0d", "lon": -76.90086033333333, "is_disabled": 0, "type": "electric_bike"}, {"bike_id": "8d71d372f13062042de5dbe453f937b1", "lat": 38.90780783333334, "is_reserved": 0, "fusion_lat": 0.0, "rental_uris": {"android": "https://dc.lft.to/lastmile_qr_scan", "ios": "https://dc.lft.to/lastmile_qr_scan"}, "fusion_lon": 0.0, "name": "8d71d372f13062042de5dbe453f937b1", "lon": -77.03475816666666, "is_disabled": 0, "type": "electric_scooter"}, {"bike_id": "c690a507409b1246be42c73b04eb618e", "lat": 38.91556683333334, "is_reserved": 0, "fusion_lat": 0.0, "rental_uris": {"android": "https://dc.lft.to/lastmile_qr_scan", "ios": "https://dc.lft.to/lastmile_qr_scan"}, "fusion_lon": 0.0, "name": "c690a507409b1246be42c73b04eb618e", "lon": -77.03332183333333, "is_disabled": 0, "type": "electric_scooter"}, {"bike_id": "cda20d9b95b451a0abfec248182cb082", "lat": 38.90140683333333, "is_reserved": 0, "fusion_lat": 0.0, "rental_uris": {"android": "https://dc.lft.to/lastmile_qr_scan", "ios": "https://dc.lft.to/lastmile_qr_scan"}, "fusion_lon": 0.0, "name": "cda20d9b95b451a0abfec248182cb082", "lon": -76.9915965, "is_disabled": 0, "type": "electric_scooter"}, {"bike_id": "20c738c374866aa659c0687c89cbb4c7", "lat": 38.88031266666667, "is_reserved": 0, "fusion_lat": 0.0, "rental_uris": {"android": "https://dc.lft.to/lastmile_qr_scan", "ios": "https://dc.lft.to/lastmile_qr_scan"}, "fusion_lon": 0.0, "name": "20c738c374866aa659c0687c89cbb4c7", "lon": -77.01007533333333, "is_disabled": 0, "type": "electric_scooter"}, {"bike_id": "17bc0195c8e55160079d54ab378c355f", "lat": 38.92848766666667, "is_reserved": 0, "fusion_lat": 0.0, "rental_uris": {"android": "https://dc.lft.to/lastmile_qr_scan", "ios": "https://dc.lft.to/lastmile_qr_scan"}, "fusion_lon": 0.0, "name": "17bc0195c8e55160079d54ab378c355f", "lon": -77.01421883333333, "is_disabled": 0, "type": "electric_scooter"}, {"bike_id": "dc64778e4778272698645e7bde24cc95", "lat": 38.90559, "is_reserved": 0, "fusion_lat": 0.0, "rental_uris": {"android": "https://dc.lft.to/lastmile_qr_scan", "ios": "https://dc.lft.to/lastmile_qr_scan"}, "fusion_lon": 0.0, "name": "dc64778e4778272698645e7bde24cc95", "lon": -77.02719233333333, "is_disabled": 0, "type": "electric_scooter"}, {"bike_id": "ff7e3d2893611e23ba7dd21938d2b54a", "lat": 38.9138815, "is_reserved": 0, "fusion_lat": 0.0, "rental_uris": {"android": "https://dc.lft.to/lastmile_qr_scan", "ios": "https://dc.lft.to/lastmile_qr_scan"}, "fusion_lon": 0.0, "name": "ff7e3d2893611e23ba7dd21938d2b54a", "lon": -77.01700383333333, "is_disabled": 0, "type": "electric_scooter"}, {"bike_id": "8db854b7b23d5b7b781e610091fcb64e", "lat": 38.8765205, "is_reserved": 0, "fusion_lat": 0.0, "rental_uris": {"android": "https://dc.lft.to/lastmile_qr_scan", "ios": "https://dc.lft.to/lastmile_qr_scan"}, "fusion_lon": 0.0, "name": "8db854b7b23d5b7b781e610091fcb64e", "lon": -76.96507583333333, "is_disabled": 0, "type": "electric_scooter"}, {"bike_id": "c3e264afa68bdf7bea5879f74820f9d6", "lat": 38.92738966666667, "is_reserved": 0, "fusion_lat": 0.0, "rental_uris": {"android": "https://dc.lft.to/lastmile_qr_scan", "ios": "https://dc.lft.to/lastmile_qr_scan"}, "fusion_lon": 0.0, "name": "c3e264afa68bdf7bea5879f74820f9d6", "lon": -77.034363, "is_disabled": 0, "type": "electric_scooter"}, {"bike_id": "0a6a5489b46af4f095a940c36c8a6e5d", "lat": 38.906429, "is_reserved": 0, "fusion_lat": 0.0, "rental_uris": {"android": "https://dc.lft.to/lastmile_qr_scan", "ios": "https://dc.lft.to/lastmile_qr_scan"}, "fusion_lon": 0.0, "name": "0a6a5489b46af4f095a940c36c8a6e5d", "lon": -77.01830383333333, "is_disabled": 0, "type": "electric_scooter"}, {"bike_id": "5cf65e2a4eb30e6936345697b0207af2", "lat": 38.90609, "is_reserved": 0, "fusion_lat": 0.0, "rental_uris": {"android": "https://dc.lft.to/lastmile_qr_scan", "ios": "https://dc.lft.to/lastmile_qr_scan"}, "fusion_lon": 0.0, "name": "5cf65e2a4eb30e6936345697b0207af2", "lon": -77.002648, "is_disabled": 0, "type": "electric_scooter"}, {"bike_id": "0c8ff6c9581246d46c9706b29fdbc747", "lat": 38.9012985, "is_reserved": 0, "fusion_lat": 0.0, "rental_uris": {"android": "https://dc.lft.to/lastmile_qr_scan", "ios": "https://dc.lft.to/lastmile_qr_scan"}, "fusion_lon": 0.0, "name": "0c8ff6c9581246d46c9706b29fdbc747", "lon": -77.04196633333333, "is_disabled": 0, "type": "electric_scooter"}, {"bike_id": "cec9de9b7cf4c02fafc77d593c59cf64", "lat": 38.899662166666666, "is_reserved": 0, "fusion_lat": 0.0, "rental_uris": {"android": "https://dc.lft.to/lastmile_qr_scan", "ios": "https://dc.lft.to/lastmile_qr_scan"}, "fusion_lon": 0.0, "name": "cec9de9b7cf4c02fafc77d593c59cf64", "lon": -77.05055, "is_disabled": 0, "type": "electric_scooter"}, {"bike_id": "4b39f6fdb5e59725fde3c233d5a9c107", "lat": 38.89874433333333, "is_reserved": 0, "fusion_lat": 0.0, "rental_uris": {"android": "https://dc.lft.to/lastmile_qr_scan", "ios": "https://dc.lft.to/lastmile_qr_scan"}, "fusion_lon": 0.0, "name": "4b39f6fdb5e59725fde3c233d5a9c107", "lon": -77.04876633333333, "is_disabled": 0, "type": "electric_scooter"}, {"bike_id": "c35505882d355a020643e3214b5a4689", "lat": 38.8974035, "is_reserved": 0, "fusion_lat": 0.0, "rental_uris": {"android": "https://dc.lft.to/lastmile_qr_scan", "ios": "https://dc.lft.to/lastmile_qr_scan"}, "fusion_lon": 0.0, "name": "c35505882d355a020643e3214b5a4689", "lon": -77.0269985, "is_disabled": 0, "type": "electric_scooter"}, {"bike_id": "4cea9bd1807f731287b873b38db816c7", "lat": 38.87911116666667, "is_reserved": 0, "fusion_lat": 0.0, "rental_uris": {"android": "https://dc.lft.to/lastmile_qr_scan", "ios": "https://dc.lft.to/lastmile_qr_scan"}, "fusion_lon": 0.0, "name": "4cea9bd1807f731287b873b38db816c7", "lon": -77.00553016666667, "is_disabled": 0, "type": "electric_scooter"}, {"bike_id": "18cb482a4ed9eb0492d840320431a42f", "lat": 38.896172166666666, "is_reserved": 0, "fusion_lat": 0.0, "rental_uris": {"android": "https://dc.lft.to/lastmile_qr_scan", "ios": "https://dc.lft.to/lastmile_qr_scan"}, "fusion_lon": 0.0, "name": "18cb482a4ed9eb0492d840320431a42f", "lon": -77.0234265, "is_disabled": 0, "type": "electric_scooter"}, {"bike_id": "43aebce347027736b95a6a369a136878", "lat": 38.887204833333335, "is_reserved": 0, "fusion_lat": 0.0, "rental_uris": {"android": "https://dc.lft.to/lastmile_qr_scan", "ios": "https://dc.lft.to/lastmile_qr_scan"}, "fusion_lon": 0.0, "name": "43aebce347027736b95a6a369a136878", "lon": -76.99629483333334, "is_disabled": 0, "type": "electric_scooter"}, {"bike_id": "ced67e9a2a4f96ecff46a473401eaf65", "lat": 38.906175833333336, "is_reserved": 0, "fusion_lat": 0.0, "rental_uris": {"android": "https://dc.lft.to/lastmile_qr_scan", "ios": "https://dc.lft.to/lastmile_qr_scan"}, "fusion_lon": 0.0, "name": "ced67e9a2a4f96ecff46a473401eaf65", "lon": -77.02814116666667, "is_disabled": 0, "type": "electric_scooter"}, {"bike_id": "949437241bed52393d58984fe018ab12", "lat": 38.87467816666667, "is_reserved": 0, "fusion_lat": 0.0, "rental_uris": {"android": "https://dc.lft.to/lastmile_qr_scan", "ios": "https://dc.lft.to/lastmile_qr_scan"}, "fusion_lon": 0.0, "name": "949437241bed52393d58984fe018ab12", "lon": -77.00491316666667, "is_disabled": 0, "type": "electric_scooter"}, {"bike_id": "dd708b2a7a0de8f0a7a87c040ffbfc6a", "lat": 38.884236333333334, "is_reserved": 0, "fusion_lat": 0.0, "rental_uris": {"android": "https://dc.lft.to/lastmile_qr_scan", "ios": "https://dc.lft.to/lastmile_qr_scan"}, "fusion_lon": 0.0, "name": "dd708b2a7a0de8f0a7a87c040ffbfc6a", "lon": -77.00064283333333, "is_disabled": 0, "type": "electric_scooter"}, {"bike_id": "67161227c1659d69e25b7bd394dd6ac2", "lat": 38.8926015, "is_reserved": 0, "fusion_lat": 0.0, "rental_uris": {"android": "https://dc.lft.to/lastmile_qr_scan", "ios": "https://dc.lft.to/lastmile_qr_scan"}, "fusion_lon": 0.0, "name": "67161227c1659d69e25b7bd394dd6ac2", "lon": -76.925719, "is_disabled": 0, "type": "electric_scooter"}, {"bike_id": "104c0c0e95aecfae14169de31b57144f", "lat": 38.93204883333333, "is_reserved": 0, "fusion_lat": 0.0, "rental_uris": {"android": "https://dc.lft.to/lastmile_qr_scan", "ios": "https://dc.lft.to/lastmile_qr_scan"}, "fusion_lon": 0.0, "name": "104c0c0e95aecfae14169de31b57144f", "lon": -77.03851866666666, "is_disabled": 0, "type": "electric_scooter"}, {"bike_id": "00084bf45111019bf8c8958d29b5281d", "lat": 38.903758833333335, "is_reserved": 0, "fusion_lat": 0.0, "rental_uris": {"android": "https://dc.lft.to/lastmile_qr_scan", "ios": "https://dc.lft.to/lastmile_qr_scan"}, "fusion_lon": 0.0, "name": "00084bf45111019bf8c8958d29b5281d", "lon": -77.04505166666667, "is_disabled": 0, "type": "electric_scooter"}, {"bike_id": "b5dfae822081a8b92594c88be67db740", "lat": 38.905479166666666, "is_reserved": 0, "fusion_lat": 0.0, "rental_uris": {"android": "https://dc.lft.to/lastmile_qr_scan", "ios": "https://dc.lft.to/lastmile_qr_scan"}, "fusion_lon": 0.0, "name": "b5dfae822081a8b92594c88be67db740", "lon": -77.032454, "is_disabled": 0, "type": "electric_scooter"}, {"bike_id": "60536abe6047a63b21ad2bf1db4f1536", "lat": 38.87689666666667, "is_reserved": 0, "fusion_lat": 0.0, "rental_uris": {"android": "https://dc.lft.to/lastmile_qr_scan", "ios": "https://dc.lft.to/lastmile_qr_scan"}, "fusion_lon": 0.0, "name": "60536abe6047a63b21ad2bf1db4f1536", "lon": -77.01754016666666, "is_disabled": 0, "type": "electric_scooter"}, {"bike_id": "a9218b760444a8018d01edac7f935e86", "lat": 38.892916666666665, "is_reserved": 0, "fusion_lat": 0.0, "rental_uris": {"android": "https://dc.lft.to/lastmile_qr_scan", "ios": "https://dc.lft.to/lastmile_qr_scan"}, "fusion_lon": 0.0, "name": "a9218b760444a8018d01edac7f935e86", "lon": -77.04873316666666, "is_disabled": 0, "type": "electric_scooter"}, {"bike_id": "1a53fd2a06b6b1e221b1f4240903c230", "lat": 38.897920666666664, "is_reserved": 0, "fusion_lat": 0.0, "rental_uris": {"android": "https://dc.lft.to/lastmile_qr_scan", "ios": "https://dc.lft.to/lastmile_qr_scan"}, "fusion_lon": 0.0, "name": "1a53fd2a06b6b1e221b1f4240903c230", "lon": -77.0014725, "is_disabled": 0, "type": "electric_scooter"}, {"bike_id": "343de5580fcac8497d1dd109bee2469f", "lat": 38.905078833333334, "is_reserved": 0, "fusion_lat": 0.0, "rental_uris": {"android": "https://dc.lft.to/lastmile_qr_scan", "ios": "https://dc.lft.to/lastmile_qr_scan"}, "fusion_lon": 0.0, "name": "343de5580fcac8497d1dd109bee2469f", "lon": -77.06031366666667, "is_disabled": 0, "type": "electric_scooter"}, {"bike_id": "8bbc15165cc2854b722e6c57c33f8b02", "lat": 38.92171916666667, "is_reserved": 0, "fusion_lat": 0.0, "rental_uris": {"android": "https://dc.lft.to/lastmile_qr_scan", "ios": "https://dc.lft.to/lastmile_qr_scan"}, "fusion_lon": 0.0, "name": "8bbc15165cc2854b722e6c57c33f8b02", "lon": -77.0209905, "is_disabled": 0, "type": "electric_scooter"}, {"bike_id": "4978058128fe5bc042ba73dd5dda9e8e", "lat": 38.914237666666665, "is_reserved": 0, "fusion_lat": 0.0, "rental_uris": {"android": "https://dc.lft.to/lastmile_qr_scan", "ios": "https://dc.lft.to/lastmile_qr_scan"}, "fusion_lon": 0.0, "name": "4978058128fe5bc042ba73dd5dda9e8e", "lon": -77.04808333333334, "is_disabled": 0, "type": "electric_scooter"}, {"bike_id": "949842cc1417b8a01134366557760286", "lat": 38.888573, "is_reserved": 0, "fusion_lat": 0.0, "rental_uris": {"android": "https://dc.lft.to/lastmile_qr_scan", "ios": "https://dc.lft.to/lastmile_qr_scan"}, "fusion_lon": 0.0, "name": "949842cc1417b8a01134366557760286", "lon": -77.085951, "is_disabled": 0, "type": "electric_bike"}, {"bike_id": "7712b2b8fc8217f8f07c9b4f5c3b4e78", "lat": 38.89619016666666, "is_reserved": 0, "fusion_lat": 0.0, "rental_uris": {"android": "https://dc.lft.to/lastmile_qr_scan", "ios": "https://dc.lft.to/lastmile_qr_scan"}, "fusion_lon": 0.0, "name": "7712b2b8fc8217f8f07c9b4f5c3b4e78", "lon": -77.044831, "is_disabled": 0, "type": "electric_scooter"}, {"bike_id": "1d31f5739d0a113c56ffdd9274b69ef5", "lat": 38.91620533333333, "is_reserved": 0, "fusion_lat": 0.0, "rental_uris": {"android": "https://dc.lft.to/lastmile_qr_scan", "ios": "https://dc.lft.to/lastmile_qr_scan"}, "fusion_lon": 0.0, "name": "1d31f5739d0a113c56ffdd9274b69ef5", "lon": -77.031433, "is_disabled": 0, "type": "electric_scooter"}, {"bike_id": "c089d550048aaf50eb438a5cbb94f020", "lat": 38.900268833333335, "is_reserved": 0, "fusion_lat": 0.0, "rental_uris": {"android": "https://dc.lft.to/lastmile_qr_scan", "ios": "https://dc.lft.to/lastmile_qr_scan"}, "fusion_lon": 0.0, "name": "c089d550048aaf50eb438a5cbb94f020", "lon": -76.986537, "is_disabled": 0, "type": "electric_scooter"}, {"bike_id": "73cfba915ab8c4c7b5d31f48660147dc", "lat": 38.920989666666664, "is_reserved": 0, "fusion_lat": 0.0, "rental_uris": {"android": "https://dc.lft.to/lastmile_qr_scan", "ios": "https://dc.lft.to/lastmile_qr_scan"}, "fusion_lon": 0.0, "name": "73cfba915ab8c4c7b5d31f48660147dc", "lon": -77.03184583333334, "is_disabled": 0, "type": "electric_scooter"}, {"bike_id": "7d7afc5b2a70479ba24eb5a01706ca75", "lat": 38.872579333333334, "is_reserved": 0, "fusion_lat": 0.0, "rental_uris": {"android": "https://dc.lft.to/lastmile_qr_scan", "ios": "https://dc.lft.to/lastmile_qr_scan"}, "fusion_lon": 0.0, "name": "7d7afc5b2a70479ba24eb5a01706ca75", "lon": -77.232587, "is_disabled": 0, "type": "electric_bike"}, {"bike_id": "bb16dabfc629d62e86bc41beaeed6043", "lat": 38.910172333333335, "is_reserved": 0, "fusion_lat": 0.0, "rental_uris": {"android": "https://dc.lft.to/lastmile_qr_scan", "ios": "https://dc.lft.to/lastmile_qr_scan"}, "fusion_lon": 0.0, "name": "bb16dabfc629d62e86bc41beaeed6043", "lon": -77.22795783333333, "is_disabled": 0, "type": "electric_bike"}, {"bike_id": "435f0c6ba8946e1ca8843291f239f248", "lat": 38.88494516666667, "is_reserved": 0, "fusion_lat": 0.0, "rental_uris": {"android": "https://dc.lft.to/lastmile_qr_scan", "ios": "https://dc.lft.to/lastmile_qr_scan"}, "fusion_lon": 0.0, "name": "435f0c6ba8946e1ca8843291f239f248", "lon": -77.00728933333333, "is_disabled": 0, "type": "electric_scooter"}, {"bike_id": "e8fef31dea06df368f5fc33c234037fb", "lat": 38.9084885, "is_reserved": 0, "fusion_lat": 0.0, "rental_uris": {"android": "https://dc.lft.to/lastmile_qr_scan", "ios": "https://dc.lft.to/lastmile_qr_scan"}, "fusion_lon": 0.0, "name": "e8fef31dea06df368f5fc33c234037fb", "lon": -77.0427225, "is_disabled": 0, "type": "electric_scooter"}, {"bike_id": "b4fea2982205285665e17330ec2fd4bd", "lat": 38.869694333333335, "is_reserved": 0, "fusion_lat": 0.0, "rental_uris": {"android": "https://dc.lft.to/lastmile_qr_scan", "ios": "https://dc.lft.to/lastmile_qr_scan"}, "fusion_lon": 0.0, "name": "b4fea2982205285665e17330ec2fd4bd", "lon": -76.98178366666667, "is_disabled": 0, "type": "electric_scooter"}, {"bike_id": "4438bc90be9317c5fae2b37f1f1dfe5b", "lat": 38.924471833333335, "is_reserved": 0, "fusion_lat": 0.0, "rental_uris": {"android": "https://dc.lft.to/lastmile_qr_scan", "ios": "https://dc.lft.to/lastmile_qr_scan"}, "fusion_lon": 0.0, "name": "4438bc90be9317c5fae2b37f1f1dfe5b", "lon": -77.041238, "is_disabled": 0, "type": "electric_scooter"}, {"bike_id": "107db673ef35af9db94323d67e659088", "lat": 38.9181995, "is_reserved": 0, "fusion_lat": 0.0, "rental_uris": {"android": "https://dc.lft.to/lastmile_qr_scan", "ios": "https://dc.lft.to/lastmile_qr_scan"}, "fusion_lon": 0.0, "name": "107db673ef35af9db94323d67e659088", "lon": -77.012092, "is_disabled": 0, "type": "electric_scooter"}, {"bike_id": "20e3eb458e1b3890ef64db94a6cba979", "lat": 38.911207166666664, "is_reserved": 0, "fusion_lat": 0.0, "rental_uris": {"android": "https://dc.lft.to/lastmile_qr_scan", "ios": "https://dc.lft.to/lastmile_qr_scan"}, "fusion_lon": 0.0, "name": "20e3eb458e1b3890ef64db94a6cba979", "lon": -77.02199283333333, "is_disabled": 0, "type": "electric_scooter"}, {"bike_id": "dc2ca217f4c050d9af7f434f95293d4f", "lat": 38.86661316666667, "is_reserved": 0, "fusion_lat": 0.0, "rental_uris": {"android": "https://dc.lft.to/lastmile_qr_scan", "ios": "https://dc.lft.to/lastmile_qr_scan"}, "fusion_lon": 0.0, "name": "dc2ca217f4c050d9af7f434f95293d4f", "lon": -76.98879783333334, "is_disabled": 0, "type": "electric_scooter"}, {"bike_id": "192904b2b72707ad691297a4c77769ec", "lat": 38.885189, "is_reserved": 0, "fusion_lat": 0.0, "rental_uris": {"android": "https://dc.lft.to/lastmile_qr_scan", "ios": "https://dc.lft.to/lastmile_qr_scan"}, "fusion_lon": 0.0, "name": "192904b2b72707ad691297a4c77769ec", "lon": -76.990911, "is_disabled": 0, "type": "electric_scooter"}, {"bike_id": "a924393df536e22fec82061863a59b5b", "lat": 38.90250183333333, "is_reserved": 0, "fusion_lat": 0.0, "rental_uris": {"android": "https://dc.lft.to/lastmile_qr_scan", "ios": "https://dc.lft.to/lastmile_qr_scan"}, "fusion_lon": 0.0, "name": "a924393df536e22fec82061863a59b5b", "lon": -77.03931, "is_disabled": 0, "type": "electric_scooter"}, {"bike_id": "78aa5aa5e96564ce5f8f3c5ec4dcd659", "lat": 38.920326333333335, "is_reserved": 0, "fusion_lat": 0.0, "rental_uris": {"android": "https://dc.lft.to/lastmile_qr_scan", "ios": "https://dc.lft.to/lastmile_qr_scan"}, "fusion_lon": 0.0, "name": "78aa5aa5e96564ce5f8f3c5ec4dcd659", "lon": -77.01779683333334, "is_disabled": 0, "type": "electric_scooter"}, {"bike_id": "5d2ff7bfe6d47df7409804b9c5a058b4", "lat": 38.90870833333334, "is_reserved": 0, "fusion_lat": 0.0, "rental_uris": {"android": "https://dc.lft.to/lastmile_qr_scan", "ios": "https://dc.lft.to/lastmile_qr_scan"}, "fusion_lon": 0.0, "name": "5d2ff7bfe6d47df7409804b9c5a058b4", "lon": -76.99790983333334, "is_disabled": 0, "type": "electric_scooter"}, {"bike_id": "a25b36f3d7d06029e75af7d470c6c6f8", "lat": 38.899817666666664, "is_reserved": 0, "fusion_lat": 0.0, "rental_uris": {"android": "https://dc.lft.to/lastmile_qr_scan", "ios": "https://dc.lft.to/lastmile_qr_scan"}, "fusion_lon": 0.0, "name": "a25b36f3d7d06029e75af7d470c6c6f8", "lon": -76.99613316666667, "is_disabled": 0, "type": "electric_scooter"}, {"bike_id": "225d12e00b421a562a067868ccf4ee66", "lat": 38.92892966666667, "is_reserved": 0, "fusion_lat": 0.0, "rental_uris": {"android": "https://dc.lft.to/lastmile_qr_scan", "ios": "https://dc.lft.to/lastmile_qr_scan"}, "fusion_lon": 0.0, "name": "225d12e00b421a562a067868ccf4ee66", "lon": -77.0373195, "is_disabled": 0, "type": "electric_scooter"}, {"bike_id": "a6cac16994be8396fd17fcab925a128f", "lat": 38.96552533333333, "is_reserved": 0, "fusion_lat": 0.0, "rental_uris": {"android": "https://dc.lft.to/lastmile_qr_scan", "ios": "https://dc.lft.to/lastmile_qr_scan"}, "fusion_lon": 0.0, "name": "a6cac16994be8396fd17fcab925a128f", "lon": -77.03624816666667, "is_disabled": 0, "type": "electric_scooter"}, {"bike_id": "3ecf6c5a0224efd9cd6aa5a16f7d1653", "lat": 38.90548966666667, "is_reserved": 0, "fusion_lat": 0.0, "rental_uris": {"android": "https://dc.lft.to/lastmile_qr_scan", "ios": "https://dc.lft.to/lastmile_qr_scan"}, "fusion_lon": 0.0, "name": "3ecf6c5a0224efd9cd6aa5a16f7d1653", "lon": -77.04498216666667, "is_disabled": 0, "type": "electric_scooter"}, {"bike_id": "311ca070642f546279b712eed625dfc9", "lat": 38.924587, "is_reserved": 0, "fusion_lat": 0.0, "rental_uris": {"android": "https://dc.lft.to/lastmile_qr_scan", "ios": "https://dc.lft.to/lastmile_qr_scan"}, "fusion_lon": 0.0, "name": "311ca070642f546279b712eed625dfc9", "lon": -77.03971883333334, "is_disabled": 0, "type": "electric_scooter"}, {"bike_id": "f855f78980c38c68cba47475b6b680a7", "lat": 38.91684216666667, "is_reserved": 0, "fusion_lat": 0.0, "rental_uris": {"android": "https://dc.lft.to/lastmile_qr_scan", "ios": "https://dc.lft.to/lastmile_qr_scan"}, "fusion_lon": 0.0, "name": "f855f78980c38c68cba47475b6b680a7", "lon": -77.02974016666667, "is_disabled": 0, "type": "electric_scooter"}, {"bike_id": "d3674fb2a0c7723f260898b595d0ba11", "lat": 38.899133666666664, "is_reserved": 0, "fusion_lat": 0.0, "rental_uris": {"android": "https://dc.lft.to/lastmile_qr_scan", "ios": "https://dc.lft.to/lastmile_qr_scan"}, "fusion_lon": 0.0, "name": "d3674fb2a0c7723f260898b595d0ba11", "lon": -77.03300933333334, "is_disabled": 0, "type": "electric_scooter"}, {"bike_id": "d8c875f7889ef86a7424b1e87fc893fa", "lat": 38.918412000000004, "is_reserved": 0, "fusion_lat": 0.0, "rental_uris": {"android": "https://dc.lft.to/lastmile_qr_scan", "ios": "https://dc.lft.to/lastmile_qr_scan"}, "fusion_lon": 0.0, "name": "d8c875f7889ef86a7424b1e87fc893fa", "lon": -77.022841, "is_disabled": 0, "type": "electric_scooter"}, {"bike_id": "a36e7e5f5d6a5c909c9e4a2e52a757bc", "lat": 38.956528666666664, "is_reserved": 0, "fusion_lat": 0.0, "rental_uris": {"android": "https://dc.lft.to/lastmile_qr_scan", "ios": "https://dc.lft.to/lastmile_qr_scan"}, "fusion_lon": 0.0, "name": "a36e7e5f5d6a5c909c9e4a2e52a757bc", "lon": -77.00999816666666, "is_disabled": 0, "type": "electric_scooter"}, {"bike_id": "e7da3d095c6625cc8ce2b4a17f30cbad", "lat": 38.916260666666666, "is_reserved": 0, "fusion_lat": 0.0, "rental_uris": {"android": "https://dc.lft.to/lastmile_qr_scan", "ios": "https://dc.lft.to/lastmile_qr_scan"}, "fusion_lon": 0.0, "name": "e7da3d095c6625cc8ce2b4a17f30cbad", "lon": -77.03010233333333, "is_disabled": 0, "type": "electric_scooter"}, {"bike_id": "929bfcee2bb77c06374ad4bc239f8073", "lat": 38.914721666666665, "is_reserved": 0, "fusion_lat": 0.0, "rental_uris": {"android": "https://dc.lft.to/lastmile_qr_scan", "ios": "https://dc.lft.to/lastmile_qr_scan"}, "fusion_lon": 0.0, "name": "929bfcee2bb77c06374ad4bc239f8073", "lon": -77.045878, "is_disabled": 0, "type": "electric_scooter"}, {"bike_id": "9b4b8fcb74417a001eef5aaa87b279a6", "lat": 38.9245325, "is_reserved": 0, "fusion_lat": 0.0, "rental_uris": {"android": "https://dc.lft.to/lastmile_qr_scan", "ios": "https://dc.lft.to/lastmile_qr_scan"}, "fusion_lon": 0.0, "name": "9b4b8fcb74417a001eef5aaa87b279a6", "lon": -77.04402433333334, "is_disabled": 0, "type": "electric_scooter"}, {"bike_id": "7f16eed88bb5951943e83298f36f2d34", "lat": 38.88657766666667, "is_reserved": 0, "fusion_lat": 0.0, "rental_uris": {"android": "https://dc.lft.to/lastmile_qr_scan", "ios": "https://dc.lft.to/lastmile_qr_scan"}, "fusion_lon": 0.0, "name": "7f16eed88bb5951943e83298f36f2d34", "lon": -77.00110783333334, "is_disabled": 0, "type": "electric_scooter"}, {"bike_id": "f4ed34791fccd2ac5efe98dc3a6fa08d", "lat": 38.798554833333334, "is_reserved": 0, "fusion_lat": 0.0, "rental_uris": {"android": "https://dc.lft.to/lastmile_qr_scan", "ios": "https://dc.lft.to/lastmile_qr_scan"}, "fusion_lon": 0.0, "name": "f4ed34791fccd2ac5efe98dc3a6fa08d", "lon": -77.06306416666666, "is_disabled": 0, "type": "electric_bike"}, {"bike_id": "51301646879790562f783c209ecb6cb6", "lat": 38.92541383333333, "is_reserved": 0, "fusion_lat": 0.0, "rental_uris": {"android": "https://dc.lft.to/lastmile_qr_scan", "ios": "https://dc.lft.to/lastmile_qr_scan"}, "fusion_lon": 0.0, "name": "51301646879790562f783c209ecb6cb6", "lon": -77.02130366666667, "is_disabled": 0, "type": "electric_scooter"}, {"bike_id": "6c7b2b1b05d4f2481e4b101a2abc50b8", "lat": 38.901703833333336, "is_reserved": 0, "fusion_lat": 0.0, "rental_uris": {"android": "https://dc.lft.to/lastmile_qr_scan", "ios": "https://dc.lft.to/lastmile_qr_scan"}, "fusion_lon": 0.0, "name": "6c7b2b1b05d4f2481e4b101a2abc50b8", "lon": -76.93023033333333, "is_disabled": 0, "type": "electric_scooter"}, {"bike_id": "65407f1d1935557490d420a95603bece", "lat": 38.89895766666667, "is_reserved": 0, "fusion_lat": 0.0, "rental_uris": {"android": "https://dc.lft.to/lastmile_qr_scan", "ios": "https://dc.lft.to/lastmile_qr_scan"}, "fusion_lon": 0.0, "name": "65407f1d1935557490d420a95603bece", "lon": -77.0393495, "is_disabled": 0, "type": "electric_scooter"}, {"bike_id": "a334625372655d825c674c3dee84b8af", "lat": 38.899089000000004, "is_reserved": 0, "fusion_lat": 0.0, "rental_uris": {"android": "https://dc.lft.to/lastmile_qr_scan", "ios": "https://dc.lft.to/lastmile_qr_scan"}, "fusion_lon": 0.0, "name": "a334625372655d825c674c3dee84b8af", "lon": -77.0138405, "is_disabled": 0, "type": "electric_scooter"}, {"bike_id": "478eeea75cf114a3f79f87edaa3ee054", "lat": 38.87786783333333, "is_reserved": 0, "fusion_lat": 0.0, "rental_uris": {"android": "https://dc.lft.to/lastmile_qr_scan", "ios": "https://dc.lft.to/lastmile_qr_scan"}, "fusion_lon": 0.0, "name": "478eeea75cf114a3f79f87edaa3ee054", "lon": -76.99411183333333, "is_disabled": 0, "type": "electric_scooter"}, {"bike_id": "3a0262ab16b832a44c485540059d7974", "lat": 38.91509383333333, "is_reserved": 0, "fusion_lat": 0.0, "rental_uris": {"android": "https://dc.lft.to/lastmile_qr_scan", "ios": "https://dc.lft.to/lastmile_qr_scan"}, "fusion_lon": 0.0, "name": "3a0262ab16b832a44c485540059d7974", "lon": -77.01775433333333, "is_disabled": 0, "type": "electric_scooter"}, {"bike_id": "2991a1e5b5f296c1aec75c1b513a37a1", "lat": 38.915714333333334, "is_reserved": 0, "fusion_lat": 0.0, "rental_uris": {"android": "https://dc.lft.to/lastmile_qr_scan", "ios": "https://dc.lft.to/lastmile_qr_scan"}, "fusion_lon": 0.0, "name": "2991a1e5b5f296c1aec75c1b513a37a1", "lon": -77.0200845, "is_disabled": 0, "type": "electric_scooter"}, {"bike_id": "225df2f2ce51727b51d46292a3ebb1db", "lat": 38.95634016666666, "is_reserved": 0, "fusion_lat": 0.0, "rental_uris": {"android": "https://dc.lft.to/lastmile_qr_scan", "ios": "https://dc.lft.to/lastmile_qr_scan"}, "fusion_lon": 0.0, "name": "225df2f2ce51727b51d46292a3ebb1db", "lon": -77.011577, "is_disabled": 0, "type": "electric_scooter"}, {"bike_id": "9c4726ddebecb1c3b0c4a8a9b4bcf528", "lat": 38.895355333333335, "is_reserved": 0, "fusion_lat": 0.0, "rental_uris": {"android": "https://dc.lft.to/lastmile_qr_scan", "ios": "https://dc.lft.to/lastmile_qr_scan"}, "fusion_lon": 0.0, "name": "9c4726ddebecb1c3b0c4a8a9b4bcf528", "lon": -77.02280333333333, "is_disabled": 0, "type": "electric_scooter"}, {"bike_id": "d8f4834a0c99bdb81a28bdca688a999e", "lat": 38.892294166666666, "is_reserved": 0, "fusion_lat": 0.0, "rental_uris": {"android": "https://dc.lft.to/lastmile_qr_scan", "ios": "https://dc.lft.to/lastmile_qr_scan"}, "fusion_lon": 0.0, "name": "d8f4834a0c99bdb81a28bdca688a999e", "lon": -77.03164383333333, "is_disabled": 0, "type": "electric_scooter"}, {"bike_id": "e2876d945a8968f9dbe35cfd00a353b8", "lat": 38.904310333333335, "is_reserved": 0, "fusion_lat": 0.0, "rental_uris": {"android": "https://dc.lft.to/lastmile_qr_scan", "ios": "https://dc.lft.to/lastmile_qr_scan"}, "fusion_lon": 0.0, "name": "e2876d945a8968f9dbe35cfd00a353b8", "lon": -76.97907716666667, "is_disabled": 0, "type": "electric_scooter"}, {"bike_id": "d8d1e66a4725f4ccaab41eb1a4251f8e", "lat": 38.89866116666666, "is_reserved": 0, "fusion_lat": 0.0, "rental_uris": {"android": "https://dc.lft.to/lastmile_qr_scan", "ios": "https://dc.lft.to/lastmile_qr_scan"}, "fusion_lon": 0.0, "name": "d8d1e66a4725f4ccaab41eb1a4251f8e", "lon": -76.94639966666666, "is_disabled": 0, "type": "electric_scooter"}, {"bike_id": "95b7ec0bcaee06a5d82985ef9f2cb23b", "lat": 38.952853833333336, "is_reserved": 0, "fusion_lat": 0.0, "rental_uris": {"android": "https://dc.lft.to/lastmile_qr_scan", "ios": "https://dc.lft.to/lastmile_qr_scan"}, "fusion_lon": 0.0, "name": "95b7ec0bcaee06a5d82985ef9f2cb23b", "lon": -77.01797316666666, "is_disabled": 0, "type": "electric_scooter"}, {"bike_id": "ddcf1d9002e9a12d79c6e4473d596ba3", "lat": 38.89481216666667, "is_reserved": 0, "fusion_lat": 0.0, "rental_uris": {"android": "https://dc.lft.to/lastmile_qr_scan", "ios": "https://dc.lft.to/lastmile_qr_scan"}, "fusion_lon": 0.0, "name": "ddcf1d9002e9a12d79c6e4473d596ba3", "lon": -76.94859116666666, "is_disabled": 0, "type": "electric_scooter"}, {"bike_id": "6cb503cef43d6680823a625530f7b522", "lat": 38.910407, "is_reserved": 0, "fusion_lat": 0.0, "rental_uris": {"android": "https://dc.lft.to/lastmile_qr_scan", "ios": "https://dc.lft.to/lastmile_qr_scan"}, "fusion_lon": 0.0, "name": "6cb503cef43d6680823a625530f7b522", "lon": -77.03407883333334, "is_disabled": 0, "type": "electric_scooter"}, {"bike_id": "3f3dc6404917816241a0c49cccd16211", "lat": 38.87481783333333, "is_reserved": 0, "fusion_lat": 0.0, "rental_uris": {"android": "https://dc.lft.to/lastmile_qr_scan", "ios": "https://dc.lft.to/lastmile_qr_scan"}, "fusion_lon": 0.0, "name": "3f3dc6404917816241a0c49cccd16211", "lon": -76.965362, "is_disabled": 0, "type": "electric_bike"}, {"bike_id": "ba14b0a1355b6bb56099c2c1045862e1", "lat": 38.90084183333333, "is_reserved": 0, "fusion_lat": 0.0, "rental_uris": {"android": "https://dc.lft.to/lastmile_qr_scan", "ios": "https://dc.lft.to/lastmile_qr_scan"}, "fusion_lon": 0.0, "name": "ba14b0a1355b6bb56099c2c1045862e1", "lon": -77.02216816666666, "is_disabled": 0, "type": "electric_scooter"}, {"bike_id": "ba5e445143e3b2aee366284733d8475b", "lat": 38.9157175, "is_reserved": 0, "fusion_lat": 0.0, "rental_uris": {"android": "https://dc.lft.to/lastmile_qr_scan", "ios": "https://dc.lft.to/lastmile_qr_scan"}, "fusion_lon": 0.0, "name": "ba5e445143e3b2aee366284733d8475b", "lon": -77.02008283333333, "is_disabled": 0, "type": "electric_scooter"}, {"bike_id": "4efd74aa6b22690513c5c49fd3ec7de9", "lat": 38.89541, "is_reserved": 0, "fusion_lat": 0.0, "rental_uris": {"android": "https://dc.lft.to/lastmile_qr_scan", "ios": "https://dc.lft.to/lastmile_qr_scan"}, "fusion_lon": 0.0, "name": "4efd74aa6b22690513c5c49fd3ec7de9", "lon": -77.01125233333333, "is_disabled": 0, "type": "electric_scooter"}, {"bike_id": "f4791a390ff6c5472a8dcca81fdbb945", "lat": 38.932369, "is_reserved": 0, "fusion_lat": 0.0, "rental_uris": {"android": "https://dc.lft.to/lastmile_qr_scan", "ios": "https://dc.lft.to/lastmile_qr_scan"}, "fusion_lon": 0.0, "name": "f4791a390ff6c5472a8dcca81fdbb945", "lon": -77.0385495, "is_disabled": 0, "type": "electric_scooter"}, {"bike_id": "8432ada2fa7e5064a1a0ecbbe9768afc", "lat": 38.91617516666667, "is_reserved": 0, "fusion_lat": 0.0, "rental_uris": {"android": "https://dc.lft.to/lastmile_qr_scan", "ios": "https://dc.lft.to/lastmile_qr_scan"}, "fusion_lon": 0.0, "name": "8432ada2fa7e5064a1a0ecbbe9768afc", "lon": -77.0231895, "is_disabled": 0, "type": "electric_scooter"}, {"bike_id": "50f22b61b7933f6652a7f97710a4e12c", "lat": 38.89224983333333, "is_reserved": 0, "fusion_lat": 0.0, "rental_uris": {"android": "https://dc.lft.to/lastmile_qr_scan", "ios": "https://dc.lft.to/lastmile_qr_scan"}, "fusion_lon": 0.0, "name": "50f22b61b7933f6652a7f97710a4e12c", "lon": -77.04367633333334, "is_disabled": 0, "type": "electric_scooter"}, {"bike_id": "92b8daf9a7c61c7a2b25e3e5d9191f12", "lat": 38.892476333333335, "is_reserved": 0, "fusion_lat": 0.0, "rental_uris": {"android": "https://dc.lft.to/lastmile_qr_scan", "ios": "https://dc.lft.to/lastmile_qr_scan"}, "fusion_lon": 0.0, "name": "92b8daf9a7c61c7a2b25e3e5d9191f12", "lon": -77.0502545, "is_disabled": 0, "type": "electric_scooter"}, {"bike_id": "d1c9e719be8ad9065217b92e5db5ba4a", "lat": 38.88749116666666, "is_reserved": 0, "fusion_lat": 0.0, "rental_uris": {"android": "https://dc.lft.to/lastmile_qr_scan", "ios": "https://dc.lft.to/lastmile_qr_scan"}, "fusion_lon": 0.0, "name": "d1c9e719be8ad9065217b92e5db5ba4a", "lon": -77.0172565, "is_disabled": 0, "type": "electric_scooter"}, {"bike_id": "cad085c36122e9a33bf0ef2c0d0270c4", "lat": 38.9025145, "is_reserved": 0, "fusion_lat": 0.0, "rental_uris": {"android": "https://dc.lft.to/lastmile_qr_scan", "ios": "https://dc.lft.to/lastmile_qr_scan"}, "fusion_lon": 0.0, "name": "cad085c36122e9a33bf0ef2c0d0270c4", "lon": -77.03417433333334, "is_disabled": 0, "type": "electric_scooter"}, {"bike_id": "d6bfb9dbcb94621978fdefde431842ae", "lat": 38.90764216666667, "is_reserved": 0, "fusion_lat": 0.0, "rental_uris": {"android": "https://dc.lft.to/lastmile_qr_scan", "ios": "https://dc.lft.to/lastmile_qr_scan"}, "fusion_lon": 0.0, "name": "d6bfb9dbcb94621978fdefde431842ae", "lon": -77.016968, "is_disabled": 0, "type": "electric_scooter"}, {"bike_id": "631043ebdf03cf00b37e18fc71f85be9", "lat": 38.932182166666664, "is_reserved": 0, "fusion_lat": 0.0, "rental_uris": {"android": "https://dc.lft.to/lastmile_qr_scan", "ios": "https://dc.lft.to/lastmile_qr_scan"}, "fusion_lon": 0.0, "name": "631043ebdf03cf00b37e18fc71f85be9", "lon": -77.03265466666667, "is_disabled": 0, "type": "electric_scooter"}, {"bike_id": "8ce6cb77d008a48c24603c230eb5d1cf", "lat": 38.899497833333335, "is_reserved": 0, "fusion_lat": 0.0, "rental_uris": {"android": "https://dc.lft.to/lastmile_qr_scan", "ios": "https://dc.lft.to/lastmile_qr_scan"}, "fusion_lon": 0.0, "name": "8ce6cb77d008a48c24603c230eb5d1cf", "lon": -77.071807, "is_disabled": 0, "type": "electric_scooter"}, {"bike_id": "df2181648b02888617f9d85b0f53c1c4", "lat": 38.902143333333335, "is_reserved": 0, "fusion_lat": 0.0, "rental_uris": {"android": "https://dc.lft.to/lastmile_qr_scan", "ios": "https://dc.lft.to/lastmile_qr_scan"}, "fusion_lon": 0.0, "name": "df2181648b02888617f9d85b0f53c1c4", "lon": -77.02150766666666, "is_disabled": 0, "type": "electric_scooter"}, {"bike_id": "7b296d8bfff5ac2a0d5d8d945217d8c8", "lat": 38.89758416666667, "is_reserved": 0, "fusion_lat": 0.0, "rental_uris": {"android": "https://dc.lft.to/lastmile_qr_scan", "ios": "https://dc.lft.to/lastmile_qr_scan"}, "fusion_lon": 0.0, "name": "7b296d8bfff5ac2a0d5d8d945217d8c8", "lon": -77.03369616666667, "is_disabled": 0, "type": "electric_scooter"}, {"bike_id": "4ec51f32bbcae998420220f5a537d365", "lat": 38.899668, "is_reserved": 0, "fusion_lat": 0.0, "rental_uris": {"android": "https://dc.lft.to/lastmile_qr_scan", "ios": "https://dc.lft.to/lastmile_qr_scan"}, "fusion_lon": 0.0, "name": "4ec51f32bbcae998420220f5a537d365", "lon": -77.04505483333334, "is_disabled": 0, "type": "electric_scooter"}, {"bike_id": "82a6346546ceb724620dea2d4ae196da", "lat": 38.915433666666665, "is_reserved": 0, "fusion_lat": 0.0, "rental_uris": {"android": "https://dc.lft.to/lastmile_qr_scan", "ios": "https://dc.lft.to/lastmile_qr_scan"}, "fusion_lon": 0.0, "name": "82a6346546ceb724620dea2d4ae196da", "lon": -77.044569, "is_disabled": 0, "type": "electric_scooter"}, {"bike_id": "f722cb8ae8a55d8dc38aa9ec48292161", "lat": 38.949211166666664, "is_reserved": 0, "fusion_lat": 0.0, "rental_uris": {"android": "https://dc.lft.to/lastmile_qr_scan", "ios": "https://dc.lft.to/lastmile_qr_scan"}, "fusion_lon": 0.0, "name": "f722cb8ae8a55d8dc38aa9ec48292161", "lon": -77.01856366666667, "is_disabled": 0, "type": "electric_scooter"}, {"bike_id": "1ee391ce4f8e99c59485ba0f8d4da84f", "lat": 38.894309, "is_reserved": 0, "fusion_lat": 0.0, "rental_uris": {"android": "https://dc.lft.to/lastmile_qr_scan", "ios": "https://dc.lft.to/lastmile_qr_scan"}, "fusion_lon": 0.0, "name": "1ee391ce4f8e99c59485ba0f8d4da84f", "lon": -77.03968633333334, "is_disabled": 0, "type": "electric_scooter"}, {"bike_id": "4447a3a636ba34ed8a5a4b4966055415", "lat": 38.91540583333333, "is_reserved": 0, "fusion_lat": 0.0, "rental_uris": {"android": "https://dc.lft.to/lastmile_qr_scan", "ios": "https://dc.lft.to/lastmile_qr_scan"}, "fusion_lon": 0.0, "name": "4447a3a636ba34ed8a5a4b4966055415", "lon": -77.03205783333334, "is_disabled": 0, "type": "electric_scooter"}, {"bike_id": "37ad0edb8b61c0e6368be50565f33cc7", "lat": 38.897316333333336, "is_reserved": 0, "fusion_lat": 0.0, "rental_uris": {"android": "https://dc.lft.to/lastmile_qr_scan", "ios": "https://dc.lft.to/lastmile_qr_scan"}, "fusion_lon": 0.0, "name": "37ad0edb8b61c0e6368be50565f33cc7", "lon": -77.0270735, "is_disabled": 0, "type": "electric_scooter"}, {"bike_id": "71f711916671bb5561a22994459b4e1e", "lat": 38.90757216666667, "is_reserved": 0, "fusion_lat": 0.0, "rental_uris": {"android": "https://dc.lft.to/lastmile_qr_scan", "ios": "https://dc.lft.to/lastmile_qr_scan"}, "fusion_lon": 0.0, "name": "71f711916671bb5561a22994459b4e1e", "lon": -77.0031065, "is_disabled": 0, "type": "electric_scooter"}, {"bike_id": "9a6a1aaf97d340b476a9f0dcfad912c7", "lat": 38.91554583333333, "is_reserved": 0, "fusion_lat": 0.0, "rental_uris": {"android": "https://dc.lft.to/lastmile_qr_scan", "ios": "https://dc.lft.to/lastmile_qr_scan"}, "fusion_lon": 0.0, "name": "9a6a1aaf97d340b476a9f0dcfad912c7", "lon": -77.06669266666667, "is_disabled": 0, "type": "electric_bike"}, {"bike_id": "acaaa045a2c70a375a3a107970351d2d", "lat": 38.924050333333334, "is_reserved": 0, "fusion_lat": 0.0, "rental_uris": {"android": "https://dc.lft.to/lastmile_qr_scan", "ios": "https://dc.lft.to/lastmile_qr_scan"}, "fusion_lon": 0.0, "name": "acaaa045a2c70a375a3a107970351d2d", "lon": -77.02558566666667, "is_disabled": 0, "type": "electric_scooter"}, {"bike_id": "4dc3d3a461e4d016db158801af3e5bff", "lat": 38.930829833333334, "is_reserved": 0, "fusion_lat": 0.0, "rental_uris": {"android": "https://dc.lft.to/lastmile_qr_scan", "ios": "https://dc.lft.to/lastmile_qr_scan"}, "fusion_lon": 0.0, "name": "4dc3d3a461e4d016db158801af3e5bff", "lon": -77.0279695, "is_disabled": 0, "type": "electric_scooter"}, {"bike_id": "768874d60853b989beb54f5d0625b63b", "lat": 38.902515333333334, "is_reserved": 0, "fusion_lat": 0.0, "rental_uris": {"android": "https://dc.lft.to/lastmile_qr_scan", "ios": "https://dc.lft.to/lastmile_qr_scan"}, "fusion_lon": 0.0, "name": "768874d60853b989beb54f5d0625b63b", "lon": -77.03259366666667, "is_disabled": 0, "type": "electric_scooter"}, {"bike_id": "15e57dbc7031bb1c243555b198ee830a", "lat": 38.90018666666667, "is_reserved": 0, "fusion_lat": 0.0, "rental_uris": {"android": "https://dc.lft.to/lastmile_qr_scan", "ios": "https://dc.lft.to/lastmile_qr_scan"}, "fusion_lon": 0.0, "name": "15e57dbc7031bb1c243555b198ee830a", "lon": -77.04043866666666, "is_disabled": 0, "type": "electric_scooter"}, {"bike_id": "81b6eb5143802f1ff37406b474cdd92a", "lat": 38.902567166666664, "is_reserved": 0, "fusion_lat": 0.0, "rental_uris": {"android": "https://dc.lft.to/lastmile_qr_scan", "ios": "https://dc.lft.to/lastmile_qr_scan"}, "fusion_lon": 0.0, "name": "81b6eb5143802f1ff37406b474cdd92a", "lon": -77.03943, "is_disabled": 0, "type": "electric_scooter"}, {"bike_id": "e84d8904e4c293b437944ef80f92a5e6", "lat": 38.91564983333333, "is_reserved": 0, "fusion_lat": 0.0, "rental_uris": {"android": "https://dc.lft.to/lastmile_qr_scan", "ios": "https://dc.lft.to/lastmile_qr_scan"}, "fusion_lon": 0.0, "name": "e84d8904e4c293b437944ef80f92a5e6", "lon": -77.01035966666667, "is_disabled": 0, "type": "electric_scooter"}, {"bike_id": "d1a5d064f4582028994f82485a2d6452", "lat": 38.9057, "is_reserved": 0, "fusion_lat": 0.0, "rental_uris": {"android": "https://dc.lft.to/lastmile_qr_scan", "ios": "https://dc.lft.to/lastmile_qr_scan"}, "fusion_lon": 0.0, "name": "d1a5d064f4582028994f82485a2d6452", "lon": -77.050153, "is_disabled": 0, "type": "electric_scooter"}, {"bike_id": "dee06e66c50d6ac4104732534269ba34", "lat": 38.8924705, "is_reserved": 0, "fusion_lat": 0.0, "rental_uris": {"android": "https://dc.lft.to/lastmile_qr_scan", "ios": "https://dc.lft.to/lastmile_qr_scan"}, "fusion_lon": 0.0, "name": "dee06e66c50d6ac4104732534269ba34", "lon": -77.03958583333333, "is_disabled": 0, "type": "electric_scooter"}, {"bike_id": "d5af4db7940bb5cf3b0feb0cdefcb4f7", "lat": 38.9077825, "is_reserved": 0, "fusion_lat": 0.0, "rental_uris": {"android": "https://dc.lft.to/lastmile_qr_scan", "ios": "https://dc.lft.to/lastmile_qr_scan"}, "fusion_lon": 0.0, "name": "d5af4db7940bb5cf3b0feb0cdefcb4f7", "lon": -77.0058175, "is_disabled": 0, "type": "electric_bike"}, {"bike_id": "95ecb0425c870144ad801ae3698e24fe", "lat": 38.915667166666665, "is_reserved": 0, "fusion_lat": 0.0, "rental_uris": {"android": "https://dc.lft.to/lastmile_qr_scan", "ios": "https://dc.lft.to/lastmile_qr_scan"}, "fusion_lon": 0.0, "name": "95ecb0425c870144ad801ae3698e24fe", "lon": -77.03137133333334, "is_disabled": 0, "type": "electric_scooter"}, {"bike_id": "dfbd5f7bacbbf8171f6e235ccc84149e", "lat": 38.85896433333333, "is_reserved": 0, "fusion_lat": 0.0, "rental_uris": {"android": "https://dc.lft.to/lastmile_qr_scan", "ios": "https://dc.lft.to/lastmile_qr_scan"}, "fusion_lon": 0.0, "name": "dfbd5f7bacbbf8171f6e235ccc84149e", "lon": -76.997273, "is_disabled": 0, "type": "electric_scooter"}, {"bike_id": "5852490a1ebc695d3345b9beffef2955", "lat": 38.8831285, "is_reserved": 0, "fusion_lat": 0.0, "rental_uris": {"android": "https://dc.lft.to/lastmile_qr_scan", "ios": "https://dc.lft.to/lastmile_qr_scan"}, "fusion_lon": 0.0, "name": "5852490a1ebc695d3345b9beffef2955", "lon": -77.00344366666667, "is_disabled": 0, "type": "electric_scooter"}, {"bike_id": "3bafb7f2541e168319ee3fe85205d3ad", "lat": 38.88497733333333, "is_reserved": 0, "fusion_lat": 0.0, "rental_uris": {"android": "https://dc.lft.to/lastmile_qr_scan", "ios": "https://dc.lft.to/lastmile_qr_scan"}, "fusion_lon": 0.0, "name": "3bafb7f2541e168319ee3fe85205d3ad", "lon": -77.007295, "is_disabled": 0, "type": "electric_scooter"}, {"bike_id": "8021c779c3fd74eb354abced3bb31796", "lat": 38.926355666666666, "is_reserved": 0, "fusion_lat": 0.0, "rental_uris": {"android": "https://dc.lft.to/lastmile_qr_scan", "ios": "https://dc.lft.to/lastmile_qr_scan"}, "fusion_lon": 0.0, "name": "8021c779c3fd74eb354abced3bb31796", "lon": -77.03789483333334, "is_disabled": 0, "type": "electric_scooter"}, {"bike_id": "ee9e51d984b630ca6d6e172d14daca25", "lat": 38.9909665, "is_reserved": 0, "fusion_lat": 0.0, "rental_uris": {"android": "https://dc.lft.to/lastmile_qr_scan", "ios": "https://dc.lft.to/lastmile_qr_scan"}, "fusion_lon": 0.0, "name": "ee9e51d984b630ca6d6e172d14daca25", "lon": -76.9937515, "is_disabled": 0, "type": "electric_bike"}, {"bike_id": "719d5e0d2c9e7a55ba00e0bf750dc430", "lat": 38.90725883333333, "is_reserved": 0, "fusion_lat": 0.0, "rental_uris": {"android": "https://dc.lft.to/lastmile_qr_scan", "ios": "https://dc.lft.to/lastmile_qr_scan"}, "fusion_lon": 0.0, "name": "719d5e0d2c9e7a55ba00e0bf750dc430", "lon": -77.00241466666667, "is_disabled": 0, "type": "electric_scooter"}, {"bike_id": "4211a38e4e91da8da571117bbe778e14", "lat": 38.89242616666667, "is_reserved": 0, "fusion_lat": 0.0, "rental_uris": {"android": "https://dc.lft.to/lastmile_qr_scan", "ios": "https://dc.lft.to/lastmile_qr_scan"}, "fusion_lon": 0.0, "name": "4211a38e4e91da8da571117bbe778e14", "lon": -77.04503216666667, "is_disabled": 0, "type": "electric_scooter"}, {"bike_id": "04f23f25ca490bf751b879d13a6d678d", "lat": 38.878172, "is_reserved": 0, "fusion_lat": 0.0, "rental_uris": {"android": "https://dc.lft.to/lastmile_qr_scan", "ios": "https://dc.lft.to/lastmile_qr_scan"}, "fusion_lon": 0.0, "name": "04f23f25ca490bf751b879d13a6d678d", "lon": -76.971721, "is_disabled": 0, "type": "electric_scooter"}, {"bike_id": "3cdbff0f6176fab0eecc0c2469dfd8f1", "lat": 38.95079783333333, "is_reserved": 0, "fusion_lat": 0.0, "rental_uris": {"android": "https://dc.lft.to/lastmile_qr_scan", "ios": "https://dc.lft.to/lastmile_qr_scan"}, "fusion_lon": 0.0, "name": "3cdbff0f6176fab0eecc0c2469dfd8f1", "lon": -77.02985283333334, "is_disabled": 0, "type": "electric_scooter"}, {"bike_id": "1d89aa6e23456f2d4058f12abed61b08", "lat": 38.911166, "is_reserved": 0, "fusion_lat": 0.0, "rental_uris": {"android": "https://dc.lft.to/lastmile_qr_scan", "ios": "https://dc.lft.to/lastmile_qr_scan"}, "fusion_lon": 0.0, "name": "1d89aa6e23456f2d4058f12abed61b08", "lon": -77.04220116666667, "is_disabled": 0, "type": "electric_scooter"}, {"bike_id": "4f82eda2d47189c628b216a7c1a1663e", "lat": 38.8771105, "is_reserved": 0, "fusion_lat": 0.0, "rental_uris": {"android": "https://dc.lft.to/lastmile_qr_scan", "ios": "https://dc.lft.to/lastmile_qr_scan"}, "fusion_lon": 0.0, "name": "4f82eda2d47189c628b216a7c1a1663e", "lon": -77.01766266666667, "is_disabled": 0, "type": "electric_scooter"}, {"bike_id": "2fd66e2523499afecfbbc43051a4fd54", "lat": 38.90733933333333, "is_reserved": 0, "fusion_lat": 0.0, "rental_uris": {"android": "https://dc.lft.to/lastmile_qr_scan", "ios": "https://dc.lft.to/lastmile_qr_scan"}, "fusion_lon": 0.0, "name": "2fd66e2523499afecfbbc43051a4fd54", "lon": -77.02374166666667, "is_disabled": 0, "type": "electric_scooter"}, {"bike_id": "af4b1dd319a8afc533ca045939c4ec99", "lat": 38.90977933333333, "is_reserved": 0, "fusion_lat": 0.0, "rental_uris": {"android": "https://dc.lft.to/lastmile_qr_scan", "ios": "https://dc.lft.to/lastmile_qr_scan"}, "fusion_lon": 0.0, "name": "af4b1dd319a8afc533ca045939c4ec99", "lon": -77.02694583333333, "is_disabled": 0, "type": "electric_scooter"}, {"bike_id": "42ba1766f275b087b5736f481c6b2184", "lat": 38.86025333333333, "is_reserved": 0, "fusion_lat": 0.0, "rental_uris": {"android": "https://dc.lft.to/lastmile_qr_scan", "ios": "https://dc.lft.to/lastmile_qr_scan"}, "fusion_lon": 0.0, "name": "42ba1766f275b087b5736f481c6b2184", "lon": -76.996841, "is_disabled": 0, "type": "electric_scooter"}, {"bike_id": "61a5293bbbd28cb00c257866dade68a8", "lat": 38.926250833333334, "is_reserved": 0, "fusion_lat": 0.0, "rental_uris": {"android": "https://dc.lft.to/lastmile_qr_scan", "ios": "https://dc.lft.to/lastmile_qr_scan"}, "fusion_lon": 0.0, "name": "61a5293bbbd28cb00c257866dade68a8", "lon": -77.03713, "is_disabled": 0, "type": "electric_scooter"}, {"bike_id": "2c33b490d62b98c7cd0896461a228c89", "lat": 38.908563666666666, "is_reserved": 0, "fusion_lat": 0.0, "rental_uris": {"android": "https://dc.lft.to/lastmile_qr_scan", "ios": "https://dc.lft.to/lastmile_qr_scan"}, "fusion_lon": 0.0, "name": "2c33b490d62b98c7cd0896461a228c89", "lon": -76.998009, "is_disabled": 0, "type": "electric_scooter"},