{"data": {"bikes": [{"lat": 38.924872, "type": "electric_scooter", "is_disabled": 0, "name": "d98eb11af6de6e20abef2d9ecbad8a50", "bike_id": "d98eb11af6de6e20abef2d9ecbad8a50", "fusion_lon": 0.0, "rental_uris": {"ios": "https://dc.lft.to/lastmile_qr_scan", "android": "https://dc.lft.to/lastmile_qr_scan"}, "is_reserved": 0, "fusion_lat": 0.0, "lon": -77.051012}, {"lat": 38.923463166666664, "type": "electric_scooter", "is_disabled": 0, "name": "3d2e2cfce1452d55be7be35015b1c94d", "bike_id": "3d2e2cfce1452d55be7be35015b1c94d", "fusion_lon": 0.0, "rental_uris": {"ios": "https://dc.lft.to/lastmile_qr_scan", "android": "https://dc.lft.to/lastmile_qr_scan"}, "is_reserved": 0, "fusion_lat": 0.0, "lon": -77.03495483333333}, {"lat": 38.894983833333335, "type": "electric_scooter", "is_disabled": 0, "name": "c05523209bc1addeda2ce74686126cc5", "bike_id": "c05523209bc1addeda2ce74686126cc5", "fusion_lon": 0.0, "rental_uris": {"ios": "https://dc.lft.to/lastmile_qr_scan", "android": "https://dc.lft.to/lastmile_qr_scan"}, "is_reserved": 0, "fusion_lat": 0.0, "lon": -77.02285683333334}, {"lat": 38.92321233333333, "type": "electric_scooter", "is_disabled": 0, "name": "a75b34d0dc42d561286fd40b69f32299", "bike_id": "a75b34d0dc42d561286fd40b69f32299", "fusion_lon": 0.0, "rental_uris": {"ios": "https://dc.lft.to/lastmile_qr_scan", "android": "https://dc.lft.to/lastmile_qr_scan"}, "is_reserved": 0, "fusion_lat": 0.0, "lon": -77.04046216666667}, {"lat": 38.93296216666667, "type": "electric_scooter", "is_disabled": 0, "name": "8a94a0705a28d90abdb98a0da35a27db", "bike_id": "8a94a0705a28d90abdb98a0da35a27db", "fusion_lon": 0.0, "rental_uris": {"ios": "https://dc.lft.to/lastmile_qr_scan", "android": "https://dc.lft.to/lastmile_qr_scan"}, "is_reserved": 0, "fusion_lat": 0.0, "lon": -77.02294066666667}, {"lat": 38.8987985, "type": "electric_scooter", "is_disabled": 0, "name": "6908cf267fc7df0a53762c4d8471dc3d", "bike_id": "6908cf267fc7df0a53762c4d8471dc3d", "fusion_lon": 0.0, "rental_uris": {"ios": "https://dc.lft.to/lastmile_qr_scan", "android": "https://dc.lft.to/lastmile_qr_scan"}, "is_reserved": 0, "fusion_lat": 0.0, "lon": -76.98838266666667}, {"lat": 38.90852833333334, "type": "electric_scooter", "is_disabled": 0, "name": "3510b6c46aa53afa36ab596e908007dc", "bike_id": "3510b6c46aa53afa36ab596e908007dc", "fusion_lon": 0.0, "rental_uris": {"ios": "https://dc.lft.to/lastmile_qr_scan", "android": "https://dc.lft.to/lastmile_qr_scan"}, "is_reserved": 0, "fusion_lat": 0.0, "lon": -77.01020083333333}, {"lat": 38.920366, "type": "electric_scooter", "is_disabled": 0, "name": "c5387766d98b4ff15fa6fcb166f02d6b", "bike_id": "c5387766d98b4ff15fa6fcb166f02d6b", "fusion_lon": 0.0, "rental_uris": {"ios": "https://dc.lft.to/lastmile_qr_scan", "android": "https://dc.lft.to/lastmile_qr_scan"}, "is_reserved": 0, "fusion_lat": 0.0, "lon": -77.01217516666667}, {"lat": 38.92244683333333, "type": "electric_scooter", "is_disabled": 0, "name": "4c778165e30a204c4cfad036294bf870", "bike_id": "4c778165e30a204c4cfad036294bf870", "fusion_lon": 0.0, "rental_uris": {"ios": "https://dc.lft.to/lastmile_qr_scan", "android": "https://dc.lft.to/lastmile_qr_scan"}, "is_reserved": 0, "fusion_lat": 0.0, "lon": -77.0436245}, {"lat": 38.890052833333336, "type": "electric_scooter", "is_disabled": 0, "name": "f08431918a20db71e2b2e73bac9a5b49", "bike_id": "f08431918a20db71e2b2e73bac9a5b49", "fusion_lon": 0.0, "rental_uris": {"ios": "https://dc.lft.to/lastmile_qr_scan", "android": "https://dc.lft.to/lastmile_qr_scan"}, "is_reserved": 0, "fusion_lat": 0.0, "lon": -76.93751833333333}, {"lat": 38.89217583333333, "type": "electric_scooter", "is_disabled": 0, "name": "7ef98f7617e890148ef6ea17ea4e8359", "bike_id": "7ef98f7617e890148ef6ea17ea4e8359", "fusion_lon": 0.0, "rental_uris": {"ios": "https://dc.lft.to/lastmile_qr_scan", "android": "https://dc.lft.to/lastmile_qr_scan"}, "is_reserved": 0, "fusion_lat": 0.0, "lon": -77.00344166666666}, {"lat": 38.90513583333333, "type": "electric_scooter", "is_disabled": 0, "name": "55faf2da92ca1ef4ac285c256c60cb97", "bike_id": "55faf2da92ca1ef4ac285c256c60cb97", "fusion_lon": 0.0, "rental_uris": {"ios": "https://dc.lft.to/lastmile_qr_scan", "android": "https://dc.lft.to/lastmile_qr_scan"}, "is_reserved": 0, "fusion_lat": 0.0, "lon": -77.04151483333334}, {"lat": 38.88705383333333, "type": "electric_scooter", "is_disabled": 0, "name": "79645acda0916cf5a040c11cc046c915", "bike_id": "79645acda0916cf5a040c11cc046c915", "fusion_lon": 0.0, "rental_uris": {"ios": "https://dc.lft.to/lastmile_qr_scan", "android": "https://dc.lft.to/lastmile_qr_scan"}, "is_reserved": 0, "fusion_lat": 0.0, "lon": -77.02183883333333}, {"lat": 38.89884633333333, "type": "electric_scooter", "is_disabled": 0, "name": "bbe357fea62e0d2161b13ac726c34edf", "bike_id": "bbe357fea62e0d2161b13ac726c34edf", "fusion_lon": 0.0, "rental_uris": {"ios": "https://dc.lft.to/lastmile_qr_scan", "android": "https://dc.lft.to/lastmile_qr_scan"}, "is_reserved": 0, "fusion_lat": 0.0, "lon": -76.9883985}, {"lat": 38.92615333333333, "type": "electric_scooter", "is_disabled": 0, "name": "a29fdbe88ef486abdc96be31c994e0fc", "bike_id": "a29fdbe88ef486abdc96be31c994e0fc", "fusion_lon": 0.0, "rental_uris": {"ios": "https://dc.lft.to/lastmile_qr_scan", "android": "https://dc.lft.to/lastmile_qr_scan"}, "is_reserved": 0, "fusion_lat": 0.0, "lon": -77.0215965}, {"lat": 38.88819983333333, "type": "electric_scooter", "is_disabled": 0, "name": "c4c0b75864777f46ac05dc485b987b94", "bike_id": "c4c0b75864777f46ac05dc485b987b94", "fusion_lon": 0.0, "rental_uris": {"ios": "https://dc.lft.to/lastmile_qr_scan", "android": "https://dc.lft.to/lastmile_qr_scan"}, "is_reserved": 0, "fusion_lat": 0.0, "lon": -76.97702083333333}, {"lat": 38.90012316666667, "type": "electric_scooter", "is_disabled": 0, "name": "22d0a8887191d3ceb2f3024aa298103e", "bike_id": "22d0a8887191d3ceb2f3024aa298103e", "fusion_lon": 0.0, "rental_uris": {"ios": "https://dc.lft.to/lastmile_qr_scan", "android": "https://dc.lft.to/lastmile_qr_scan"}, "is_reserved": 0, "fusion_lat": 0.0, "lon": -76.9302545}, {"lat": 38.92885366666667, "type": "electric_scooter", "is_disabled": 0, "name": "cd2a0c10eae5c0f2e40843aaf513c84d", "bike_id": "cd2a0c10eae5c0f2e40843aaf513c84d", "fusion_lon": 0.0, "rental_uris": {"ios": "https://dc.lft.to/lastmile_qr_scan", "android": "https://dc.lft.to/lastmile_qr_scan"}, "is_reserved": 0, "fusion_lat": 0.0, "lon": -77.03355233333333}, {"lat": 38.908580666666666, "type": "electric_scooter", "is_disabled": 0, "name": "c69c3c2e34012016fda8a2171a76f2be", "bike_id": "c69c3c2e34012016fda8a2171a76f2be", "fusion_lon": 0.0, "rental_uris": {"ios": "https://dc.lft.to/lastmile_qr_scan", "android": "https://dc.lft.to/lastmile_qr_scan"}, "is_reserved": 0, "fusion_lat": 0.0, "lon": -76.996788}, {"lat": 38.90394666666667, "type": "electric_scooter", "is_disabled": 0, "name": "cecd2b3c5343f20619147aa89f9e26b2", "bike_id": "cecd2b3c5343f20619147aa89f9e26b2", "fusion_lon": 0.0, "rental_uris": {"ios": "https://dc.lft.to/lastmile_qr_scan", "android": "https://dc.lft.to/lastmile_qr_scan"}, "is_reserved": 0, "fusion_lat": 0.0, "lon": -76.98099966666666}, {"lat": 38.91699783333333, "type": "electric_scooter", "is_disabled": 0, "name": "dc7dee24e7f78dde22f68d564bd59fb3", "bike_id": "dc7dee24e7f78dde22f68d564bd59fb3", "fusion_lon": 0.0, "rental_uris": {"ios": "https://dc.lft.to/lastmile_qr_scan", "android": "https://dc.lft.to/lastmile_qr_scan"}, "is_reserved": 0, "fusion_lat": 0.0, "lon": -77.03110466666666}, {"lat": 38.89499433333334, "type": "electric_scooter", "is_disabled": 0, "name": "ee333135947e8bb0186a174aa4b9baae", "bike_id": "ee333135947e8bb0186a174aa4b9baae", "fusion_lon": 0.0, "rental_uris": {"ios": "https://dc.lft.to/lastmile_qr_scan", "android": "https://dc.lft.to/lastmile_qr_scan"}, "is_reserved": 0, "fusion_lat": 0.0, "lon": -77.00209833333334}, {"lat": 38.924159833333334, "type": "electric_scooter", "is_disabled": 0, "name": "b1df89bc5688eaabf19d11d587707162", "bike_id": "b1df89bc5688eaabf19d11d587707162", "fusion_lon": 0.0, "rental_uris": {"ios": "https://dc.lft.to/lastmile_qr_scan", "android": "https://dc.lft.to/lastmile_qr_scan"}, "is_reserved": 0, "fusion_lat": 0.0, "lon": -77.05065}, {"lat": 38.876026333333336, "type": "electric_scooter", "is_disabled": 0, "name": "cab16f18258e1605b2b257dd0294e5e1", "bike_id": "cab16f18258e1605b2b257dd0294e5e1", "fusion_lon": 0.0, "rental_uris": {"ios": "https://dc.lft.to/lastmile_qr_scan", "android": "https://dc.lft.to/lastmile_qr_scan"}, "is_reserved": 0, "fusion_lat": 0.0, "lon": -77.00582483333334}, {"lat": 38.933878, "type": "electric_scooter", "is_disabled": 0, "name": "3246a24c26843fa6869ffa2c973d40d4", "bike_id": "3246a24c26843fa6869ffa2c973d40d4", "fusion_lon": 0.0, "rental_uris": {"ios": "https://dc.lft.to/lastmile_qr_scan", "android": "https://dc.lft.to/lastmile_qr_scan"}, "is_reserved": 0, "fusion_lat": 0.0, "lon": -77.029655}, {"lat": 38.86872116666667, "type": "electric_scooter", "is_disabled": 0, "name": "ae210163e415aa859289f80d0f12fc13", "bike_id": "ae210163e415aa859289f80d0f12fc13", "fusion_lon": 0.0, "rental_uris": {"ios": "https://dc.lft.to/lastmile_qr_scan", "android": "https://dc.lft.to/lastmile_qr_scan"}, "is_reserved": 0, "fusion_lat": 0.0, "lon": -76.98661416666667}, {"lat": 38.85444583333334, "type": "electric_bike", "is_disabled": 0, "name": "98ed70722113dd91cede59eeff786d02", "bike_id": "98ed70722113dd91cede59eeff786d02", "fusion_lon": 0.0, "rental_uris": {"ios": "https://dc.lft.to/lastmile_qr_scan", "android": "https://dc.lft.to/lastmile_qr_scan"}, "is_reserved": 0, "fusion_lat": 0.0, "lon": -77.08318183333333}, {"lat": 38.9191505, "type": "electric_scooter", "is_disabled": 0, "name": "e0626dc28b621cc3d9856c7e56e4e57b", "bike_id": "e0626dc28b621cc3d9856c7e56e4e57b", "fusion_lon": 0.0, "rental_uris": {"ios": "https://dc.lft.to/lastmile_qr_scan", "android": "https://dc.lft.to/lastmile_qr_scan"}, "is_reserved": 0, "fusion_lat": 0.0, "lon": -77.03382583333334}, {"lat": 38.896077, "type": "electric_scooter", "is_disabled": 0, "name": "056e9e828296d375983aef088a1f934b", "bike_id": "056e9e828296d375983aef088a1f934b", "fusion_lon": 0.0, "rental_uris": {"ios": "https://dc.lft.to/lastmile_qr_scan", "android": "https://dc.lft.to/lastmile_qr_scan"}, "is_reserved": 0, "fusion_lat": 0.0, "lon": -77.0508385}, {"lat": 38.89556916666667, "type": "electric_scooter", "is_disabled": 0, "name": "0957e6a9e12db27bc0ccba02210c36f7", "bike_id": "0957e6a9e12db27bc0ccba02210c36f7", "fusion_lon": 0.0, "rental_uris": {"ios": "https://dc.lft.to/lastmile_qr_scan", "android": "https://dc.lft.to/lastmile_qr_scan"}, "is_reserved": 0, "fusion_lat": 0.0, "lon": -77.0467545}, {"lat": 38.923737833333334, "type": "electric_scooter", "is_disabled": 0, "name": "79787bba5e5813bc7a963e200439cabf", "bike_id": "79787bba5e5813bc7a963e200439cabf", "fusion_lon": 0.0, "rental_uris": {"ios": "https://dc.lft.to/lastmile_qr_scan", "android": "https://dc.lft.to/lastmile_qr_scan"}, "is_reserved": 0, "fusion_lat": 0.0, "lon": -77.02121433333333}, {"lat": 38.934495, "type": "electric_scooter", "is_disabled": 0, "name": "9fbe5674695dcb144bb96b54039e4660", "bike_id": "9fbe5674695dcb144bb96b54039e4660", "fusion_lon": 0.0, "rental_uris": {"ios": "https://dc.lft.to/lastmile_qr_scan", "android": "https://dc.lft.to/lastmile_qr_scan"}, "is_reserved": 0, "fusion_lat": 0.0, "lon": -77.023563}, {"lat": 38.89262983333333, "type": "electric_scooter", "is_disabled": 0, "name": "c13b6f22dac6052c82e1a011ce62a1ba", "bike_id": "c13b6f22dac6052c82e1a011ce62a1ba", "fusion_lon": 0.0, "rental_uris": {"ios": "https://dc.lft.to/lastmile_qr_scan", "android": "https://dc.lft.to/lastmile_qr_scan"}, "is_reserved": 0, "fusion_lat": 0.0, "lon": -77.00218683333334}, {"lat": 38.89594666666667, "type": "electric_scooter", "is_disabled": 0, "name": "82b0aa49d8774a165d9f78298208e2a3", "bike_id": "82b0aa49d8774a165d9f78298208e2a3", "fusion_lon": 0.0, "rental_uris": {"ios": "https://dc.lft.to/lastmile_qr_scan", "android": "https://dc.lft.to/lastmile_qr_scan"}, "is_reserved": 0, "fusion_lat": 0.0, "lon": -77.01623883333333}, {"lat": 38.92417716666667, "type": "electric_scooter", "is_disabled": 0, "name": "0b3e1e314e93fd85839d943c2cd904ff", "bike_id": "0b3e1e314e93fd85839d943c2cd904ff", "fusion_lon": 0.0, "rental_uris": {"ios": "https://dc.lft.to/lastmile_qr_scan", "android": "https://dc.lft.to/lastmile_qr_scan"}, "is_reserved": 0, "fusion_lat": 0.0, "lon": -77.02013316666667}, {"lat": 38.90156183333333, "type": "electric_scooter", "is_disabled": 0, "name": "052ee4298bb6d06d2f422d3b1fb5a9ee", "bike_id": "052ee4298bb6d06d2f422d3b1fb5a9ee", "fusion_lon": 0.0, "rental_uris": {"ios": "https://dc.lft.to/lastmile_qr_scan", "android": "https://dc.lft.to/lastmile_qr_scan"}, "is_reserved": 0, "fusion_lat": 0.0, "lon": -77.0317935}, {"lat": 38.928354166666665, "type": "electric_scooter", "is_disabled": 0, "name": "dc9b6d9026f4f2a3aa1c0e20ef774b51", "bike_id": "dc9b6d9026f4f2a3aa1c0e20ef774b51", "fusion_lon": 0.0, "rental_uris": {"ios": "https://dc.lft.to/lastmile_qr_scan", "android": "https://dc.lft.to/lastmile_qr_scan"}, "is_reserved": 0, "fusion_lat": 0.0, "lon": -77.01415866666666}, {"lat": 38.90646133333333, "type": "electric_scooter", "is_disabled": 0, "name": "13fe64a14f53a5f4b03407d98d7be1f6", "bike_id": "13fe64a14f53a5f4b03407d98d7be1f6", "fusion_lon": 0.0, "rental_uris": {"ios": "https://dc.lft.to/lastmile_qr_scan", "android": "https://dc.lft.to/lastmile_qr_scan"}, "is_reserved": 0, "fusion_lat": 0.0, "lon": -77.01766083333334}, {"lat": 38.89554016666666, "type": "electric_scooter", "is_disabled": 0, "name": "a6ad47fd9a884ce4dcbacb881dba4c24", "bike_id": "a6ad47fd9a884ce4dcbacb881dba4c24", "fusion_lon": 0.0, "rental_uris": {"ios": "https://dc.lft.to/lastmile_qr_scan", "android": "https://dc.lft.to/lastmile_qr_scan"}, "is_reserved": 0, "fusion_lat": 0.0, "lon": -77.0091645}, {"lat": 38.901377, "type": "electric_scooter", "is_disabled": 0, "name": "ac83ae2b43495fb65f1f8d94ac1d5923", "bike_id": "ac83ae2b43495fb65f1f8d94ac1d5923", "fusion_lon": 0.0, "rental_uris": {"ios": "https://dc.lft.to/lastmile_qr_scan", "android": "https://dc.lft.to/lastmile_qr_scan"}, "is_reserved": 0, "fusion_lat": 0.0, "lon": -77.04484633333334}, {"lat": 38.93822816666667, "type": "electric_bike", "is_disabled": 0, "name": "85460db30ebfddf0833d77e9b8b9d989", "bike_id": "85460db30ebfddf0833d77e9b8b9d989", "fusion_lon": 0.0, "rental_uris": {"ios": "https://dc.lft.to/lastmile_qr_scan", "android": "https://dc.lft.to/lastmile_qr_scan"}, "is_reserved": 0, "fusion_lat": 0.0, "lon": -77.1017515}, {"lat": 38.94140816666667, "type": "electric_scooter", "is_disabled": 0, "name": "c9b7b4a3725bc10b2cf0e8ed0b0bc9b7", "bike_id": "c9b7b4a3725bc10b2cf0e8ed0b0bc9b7", "fusion_lon": 0.0, "rental_uris": {"ios": "https://dc.lft.to/lastmile_qr_scan", "android": "https://dc.lft.to/lastmile_qr_scan"}, "is_reserved": 0, "fusion_lat": 0.0, "lon": -77.02327216666667}, {"lat": 38.92341116666667, "type": "electric_bike", "is_disabled": 0, "name": "42263d477c7f341bd758175c02f0e72c", "bike_id": "42263d477c7f341bd758175c02f0e72c", "fusion_lon": 0.0, "rental_uris": {"ios": "https://dc.lft.to/lastmile_qr_scan", "android": "https://dc.lft.to/lastmile_qr_scan"}, "is_reserved": 0, "fusion_lat": 0.0, "lon": -76.97144816666666}, {"lat": 38.924780166666665, "type": "electric_scooter", "is_disabled": 0, "name": "7efe62e0d3a5ac27580842104c094820", "bike_id": "7efe62e0d3a5ac27580842104c094820", "fusion_lon": 0.0, "rental_uris": {"ios": "https://dc.lft.to/lastmile_qr_scan", "android": "https://dc.lft.to/lastmile_qr_scan"}, "is_reserved": 0, "fusion_lat": 0.0, "lon": -77.022484}, {"lat": 38.90046683333333, "type": "electric_scooter", "is_disabled": 0, "name": "1b7e9d9a9e0f911bbd6f6ae385473660", "bike_id": "1b7e9d9a9e0f911bbd6f6ae385473660", "fusion_lon": 0.0, "rental_uris": {"ios": "https://dc.lft.to/lastmile_qr_scan", "android": "https://dc.lft.to/lastmile_qr_scan"}, "is_reserved": 0, "fusion_lat": 0.0, "lon": -76.985578}, {"lat": 38.935288166666666, "type": "electric_scooter", "is_disabled": 0, "name": "e822b1a7e4433e5ee04bf75f83acfc8f", "bike_id": "e822b1a7e4433e5ee04bf75f83acfc8f", "fusion_lon": 0.0, "rental_uris": {"ios": "https://dc.lft.to/lastmile_qr_scan", "android": "https://dc.lft.to/lastmile_qr_scan"}, "is_reserved": 0, "fusion_lat": 0.0, "lon": -77.0730415}, {"lat": 38.937201, "type": "electric_scooter", "is_disabled": 0, "name": "498cf03c8e1e5265c05494ff7cef4f8a", "bike_id": "498cf03c8e1e5265c05494ff7cef4f8a", "fusion_lon": 0.0, "rental_uris": {"ios": "https://dc.lft.to/lastmile_qr_scan", "android": "https://dc.lft.to/lastmile_qr_scan"}, "is_reserved": 0, "fusion_lat": 0.0, "lon": -77.03286066666666}, {"lat": 38.924737666666665, "type": "electric_scooter", "is_disabled": 0, "name": "a547134c567c29860c4f3141f3840e0e", "bike_id": "a547134c567c29860c4f3141f3840e0e", "fusion_lon": 0.0, "rental_uris": {"ios": "https://dc.lft.to/lastmile_qr_scan", "android": "https://dc.lft.to/lastmile_qr_scan"}, "is_reserved": 0, "fusion_lat": 0.0, "lon": -77.03942116666667}, {"lat": 38.8997445, "type": "electric_scooter", "is_disabled": 0, "name": "82642d2938152ddd3985f39dc1230092", "bike_id": "82642d2938152ddd3985f39dc1230092", "fusion_lon": 0.0, "rental_uris": {"ios": "https://dc.lft.to/lastmile_qr_scan", "android": "https://dc.lft.to/lastmile_qr_scan"}, "is_reserved": 0, "fusion_lat": 0.0, "lon": -77.00934933333333}, {"lat": 38.90918033333333, "type": "electric_scooter", "is_disabled": 0, "name": "dd4ad02f31041801a1ee86de75012271", "bike_id": "dd4ad02f31041801a1ee86de75012271", "fusion_lon": 0.0, "rental_uris": {"ios": "https://dc.lft.to/lastmile_qr_scan", "android": "https://dc.lft.to/lastmile_qr_scan"}, "is_reserved": 0, "fusion_lat": 0.0, "lon": -77.07277366666666}, {"lat": 38.899811166666666, "type": "electric_scooter", "is_disabled": 0, "name": "cb4f843d5228b7e2171805532c2ee987", "bike_id": "cb4f843d5228b7e2171805532c2ee987", "fusion_lon": 0.0, "rental_uris": {"ios": "https://dc.lft.to/lastmile_qr_scan", "android": "https://dc.lft.to/lastmile_qr_scan"}, "is_reserved": 0, "fusion_lat": 0.0, "lon": -77.041894}, {"lat": 38.905092833333335, "type": "electric_scooter", "is_disabled": 0, "name": "96478e6b037f8a7977888349a069d0fb", "bike_id": "96478e6b037f8a7977888349a069d0fb", "fusion_lon": 0.0, "rental_uris": {"ios": "https://dc.lft.to/lastmile_qr_scan", "android": "https://dc.lft.to/lastmile_qr_scan"}, "is_reserved": 0, "fusion_lat": 0.0, "lon": -77.04063233333333}, {"lat": 38.90955983333333, "type": "electric_scooter", "is_disabled": 0, "name": "b0fb7d7be6c9fe9f208df491e5635bf4", "bike_id": "b0fb7d7be6c9fe9f208df491e5635bf4", "fusion_lon": 0.0, "rental_uris": {"ios": "https://dc.lft.to/lastmile_qr_scan", "android": "https://dc.lft.to/lastmile_qr_scan"}, "is_reserved": 0, "fusion_lat": 0.0, "lon": -77.04494133333333}, {"lat": 38.899472833333334, "type": "electric_scooter", "is_disabled": 0, "name": "9119b13de77802cb6e3f6b18351c964b", "bike_id": "9119b13de77802cb6e3f6b18351c964b", "fusion_lon": 0.0, "rental_uris": {"ios": "https://dc.lft.to/lastmile_qr_scan", "android": "https://dc.lft.to/lastmile_qr_scan"}, "is_reserved": 0, "fusion_lat": 0.0, "lon": -77.0203505}, {"lat": 38.90783283333333, "type": "electric_scooter", "is_disabled": 0, "name": "3d08c0ca8300773b2ec13fb50a35ab2c", "bike_id": "3d08c0ca8300773b2ec13fb50a35ab2c", "fusion_lon": 0.0, "rental_uris": {"ios": "https://dc.lft.to/lastmile_qr_scan", "android": "https://dc.lft.to/lastmile_qr_scan"}, "is_reserved": 0, "fusion_lat": 0.0, "lon": -76.99708583333333}, {"lat": 38.98944016666667, "type": "electric_bike", "is_disabled": 0, "name": "261dc0d204e753323c8ab0eacb602ac7", "bike_id": "261dc0d204e753323c8ab0eacb602ac7", "fusion_lon": 0.0, "rental_uris": {"ios": "https://dc.lft.to/lastmile_qr_scan", "android": "https://dc.lft.to/lastmile_qr_scan"}, "is_reserved": 0, "fusion_lat": 0.0, "lon": -77.10109866666667}, {"lat": 38.901861333333336, "type": "electric_scooter", "is_disabled": 0, "name": "974b05b5e9710283753394b1bec8b6df", "bike_id": "974b05b5e9710283753394b1bec8b6df", "fusion_lon": 0.0, "rental_uris": {"ios": "https://dc.lft.to/lastmile_qr_scan", "android": "https://dc.lft.to/lastmile_qr_scan"}, "is_reserved": 0, "fusion_lat": 0.0, "lon": -77.0503215}, {"lat": 38.89771133333333, "type": "electric_scooter", "is_disabled": 0, "name": "19bb291543684692ec6a8095a37db538", "bike_id": "19bb291543684692ec6a8095a37db538", "fusion_lon": 0.0, "rental_uris": {"ios": "https://dc.lft.to/lastmile_qr_scan", "android": "https://dc.lft.to/lastmile_qr_scan"}, "is_reserved": 0, "fusion_lat": 0.0, "lon": -77.02868783333334}, {"lat": 38.89610583333334, "type": "electric_scooter", "is_disabled": 0, "name": "77e9b825751364befa79f7fa2fde3636", "bike_id": "77e9b825751364befa79f7fa2fde3636", "fusion_lon": 0.0, "rental_uris": {"ios": "https://dc.lft.to/lastmile_qr_scan", "android": "https://dc.lft.to/lastmile_qr_scan"}, "is_reserved": 0, "fusion_lat": 0.0, "lon": -77.04403933333333}, {"lat": 38.925949333333335, "type": "electric_scooter", "is_disabled": 0, "name": "0585f119a536ff99a6941662dd910a12", "bike_id": "0585f119a536ff99a6941662dd910a12", "fusion_lon": 0.0, "rental_uris": {"ios": "https://dc.lft.to/lastmile_qr_scan", "android": "https://dc.lft.to/lastmile_qr_scan"}, "is_reserved": 0, "fusion_lat": 0.0, "lon": -77.009166}, {"lat": 38.916364333333334, "type": "electric_scooter", "is_disabled": 0, "name": "01d34673b4585d753959c63e333f2a4b", "bike_id": "01d34673b4585d753959c63e333f2a4b", "fusion_lon": 0.0, "rental_uris": {"ios": "https://dc.lft.to/lastmile_qr_scan", "android": "https://dc.lft.to/lastmile_qr_scan"}, "is_reserved": 0, "fusion_lat": 0.0, "lon": -77.04571333333334}, {"lat": 38.902643833333336, "type": "electric_scooter", "is_disabled": 0, "name": "f268bce2b48d27b11154dddf43158e93", "bike_id": "f268bce2b48d27b11154dddf43158e93", "fusion_lon": 0.0, "rental_uris": {"ios": "https://dc.lft.to/lastmile_qr_scan", "android": "https://dc.lft.to/lastmile_qr_scan"}, "is_reserved": 0, "fusion_lat": 0.0, "lon": -77.02644766666667}, {"lat": 38.936305, "type": "electric_scooter", "is_disabled": 0, "name": "9241f7b864b7538a9d7ee412e455f917", "bike_id": "9241f7b864b7538a9d7ee412e455f917", "fusion_lon": 0.0, "rental_uris": {"ios": "https://dc.lft.to/lastmile_qr_scan", "android": "https://dc.lft.to/lastmile_qr_scan"}, "is_reserved": 0, "fusion_lat": 0.0, "lon": -77.06429883333334}, {"lat": 38.919521333333336, "type": "electric_scooter", "is_disabled": 0, "name": "11748233b2771a11b51d14041f89ca1f", "bike_id": "11748233b2771a11b51d14041f89ca1f", "fusion_lon": 0.0, "rental_uris": {"ios": "https://dc.lft.to/lastmile_qr_scan", "android": "https://dc.lft.to/lastmile_qr_scan"}, "is_reserved": 0, "fusion_lat": 0.0, "lon": -77.0190865}, {"lat": 38.92371133333333, "type": "electric_scooter", "is_disabled": 0, "name": "05c9179af25e3469502faa2cc4e1f5ab", "bike_id": "05c9179af25e3469502faa2cc4e1f5ab", "fusion_lon": 0.0, "rental_uris": {"ios": "https://dc.lft.to/lastmile_qr_scan", "android": "https://dc.lft.to/lastmile_qr_scan"}, "is_reserved": 0, "fusion_lat": 0.0, "lon": -77.01912033333333}, {"lat": 38.8996575, "type": "electric_scooter", "is_disabled": 0, "name": "4c2bd59705af50a00abf51e1a7b49fc2", "bike_id": "4c2bd59705af50a00abf51e1a7b49fc2", "fusion_lon": 0.0, "rental_uris": {"ios": "https://dc.lft.to/lastmile_qr_scan", "android": "https://dc.lft.to/lastmile_qr_scan"}, "is_reserved": 0, "fusion_lat": 0.0, "lon": -77.045033}, {"lat": 38.865656666666666, "type": "electric_bike", "is_disabled": 0, "name": "cb9f5802ed51c6d299b3731d35e5f46a", "bike_id": "cb9f5802ed51c6d299b3731d35e5f46a", "fusion_lon": 0.0, "rental_uris": {"ios": "https://dc.lft.to/lastmile_qr_scan", "android": "https://dc.lft.to/lastmile_qr_scan"}, "is_reserved": 0, "fusion_lat": 0.0, "lon": -76.97473933333333}, {"lat": 38.907024666666665, "type": "electric_scooter", "is_disabled": 0, "name": "0e33aeabd9a9616648a7d76d34a0afb4", "bike_id": "0e33aeabd9a9616648a7d76d34a0afb4", "fusion_lon": 0.0, "rental_uris": {"ios": "https://dc.lft.to/lastmile_qr_scan", "android": "https://dc.lft.to/lastmile_qr_scan"}, "is_reserved": 0, "fusion_lat": 0.0, "lon": -77.0320525}, {"lat": 38.920815833333336, "type": "electric_scooter", "is_disabled": 0, "name": "5e8ecfd53d284e9554755d01bd8bc639", "bike_id": "5e8ecfd53d284e9554755d01bd8bc639", "fusion_lon": 0.0, "rental_uris": {"ios": "https://dc.lft.to/lastmile_qr_scan", "android": "https://dc.lft.to/lastmile_qr_scan"}, "is_reserved": 0, "fusion_lat": 0.0, "lon": -77.0253215}, {"lat": 38.867187333333334, "type": "electric_scooter", "is_disabled": 0, "name": "47920654829369ce1428a106a0f4b836", "bike_id": "47920654829369ce1428a106a0f4b836", "fusion_lon": 0.0, "rental_uris": {"ios": "https://dc.lft.to/lastmile_qr_scan", "android": "https://dc.lft.to/lastmile_qr_scan"}, "is_reserved": 0, "fusion_lat": 0.0, "lon": -77.01006983333333}, {"lat": 38.82434283333333, "type": "electric_bike", "is_disabled": 0, "name": "61a46e958cb1dca88ca3e9d0482437de", "bike_id": "61a46e958cb1dca88ca3e9d0482437de", "fusion_lon": 0.0, "rental_uris": {"ios": "https://dc.lft.to/lastmile_qr_scan", "android": "https://dc.lft.to/lastmile_qr_scan"}, "is_reserved": 0, "fusion_lat": 0.0, "lon": -77.12037616666667}, {"lat": 38.93972216666667, "type": "electric_bike", "is_disabled": 0, "name": "f8191ccd1163332d4cc8da819e2850f0", "bike_id": "f8191ccd1163332d4cc8da819e2850f0", "fusion_lon": 0.0, "rental_uris": {"ios": "https://dc.lft.to/lastmile_qr_scan", "android": "https://dc.lft.to/lastmile_qr_scan"}, "is_reserved": 0, "fusion_lat": 0.0, "lon": -76.98614966666666}, {"lat": 38.902502166666665, "type": "electric_scooter", "is_disabled": 0, "name": "be72ed5fbb87986383b1b8ec3a515edb", "bike_id": "be72ed5fbb87986383b1b8ec3a515edb", "fusion_lon": 0.0, "rental_uris": {"ios": "https://dc.lft.to/lastmile_qr_scan", "android": "https://dc.lft.to/lastmile_qr_scan"}, "is_reserved": 0, "fusion_lat": 0.0, "lon": -77.0450715}, {"lat": 38.87070116666666, "type": "electric_scooter", "is_disabled": 0, "name": "7166a80b1f85a2104867a1a754a02954", "bike_id": "7166a80b1f85a2104867a1a754a02954", "fusion_lon": 0.0, "rental_uris": {"ios": "https://dc.lft.to/lastmile_qr_scan", "android": "https://dc.lft.to/lastmile_qr_scan"}, "is_reserved": 0, "fusion_lat": 0.0, "lon": -76.98002133333334}, {"lat": 38.884357333333334, "type": "electric_scooter", "is_disabled": 0, "name": "3fd5978ee671c46ce6f0a8f1ead4d268", "bike_id": "3fd5978ee671c46ce6f0a8f1ead4d268", "fusion_lon": 0.0, "rental_uris": {"ios": "https://dc.lft.to/lastmile_qr_scan", "android": "https://dc.lft.to/lastmile_qr_scan"}, "is_reserved": 0, "fusion_lat": 0.0, "lon": -76.997224}, {"lat": 38.924456166666666, "type": "electric_scooter", "is_disabled": 0, "name": "7b44e5d8348b8eea85bff916dca38261", "bike_id": "7b44e5d8348b8eea85bff916dca38261", "fusion_lon": 0.0, "rental_uris": {"ios": "https://dc.lft.to/lastmile_qr_scan", "android": "https://dc.lft.to/lastmile_qr_scan"}, "is_reserved": 0, "fusion_lat": 0.0, "lon": -76.968224}, {"lat": 38.94410966666667, "type": "electric_scooter", "is_disabled": 0, "name": "1761461c51f71749a0a01a42927e3ad3", "bike_id": "1761461c51f71749a0a01a42927e3ad3", "fusion_lon": 0.0, "rental_uris": {"ios": "https://dc.lft.to/lastmile_qr_scan", "android": "https://dc.lft.to/lastmile_qr_scan"}, "is_reserved": 0, "fusion_lat": 0.0, "lon": -77.01865983333333}, {"lat": 38.89961916666667, "type": "electric_bike", "is_disabled": 0, "name": "85ad45c8d7bef3e1d2808746d37cf62d", "bike_id": "85ad45c8d7bef3e1d2808746d37cf62d", "fusion_lon": 0.0, "rental_uris": {"ios": "https://dc.lft.to/lastmile_qr_scan", "android": "https://dc.lft.to/lastmile_qr_scan"}, "is_reserved": 0, "fusion_lat": 0.0, "lon": -77.04528516666667}, {"lat": 38.87307533333333, "type": "electric_scooter", "is_disabled": 0, "name": "fcca11724df3eeb043175084100e5fe8", "bike_id": "fcca11724df3eeb043175084100e5fe8", "fusion_lon": 0.0, "rental_uris": {"ios": "https://dc.lft.to/lastmile_qr_scan", "android": "https://dc.lft.to/lastmile_qr_scan"}, "is_reserved": 0, "fusion_lat": 0.0, "lon": -77.015846}, {"lat": 38.884442666666665, "type": "electric_scooter", "is_disabled": 0, "name": "d58f8a8d0764dfe11dc80a849f55d8b0", "bike_id": "d58f8a8d0764dfe11dc80a849f55d8b0", "fusion_lon": 0.0, "rental_uris": {"ios": "https://dc.lft.to/lastmile_qr_scan", "android": "https://dc.lft.to/lastmile_qr_scan"}, "is_reserved": 0, "fusion_lat": 0.0, "lon": -76.957678}, {"lat": 38.92836066666667, "type": "electric_scooter", "is_disabled": 0, "name": "c10fbb2e28a84bab6b5ea410c37740c6", "bike_id": "c10fbb2e28a84bab6b5ea410c37740c6", "fusion_lon": 0.0, "rental_uris": {"ios": "https://dc.lft.to/lastmile_qr_scan", "android": "https://dc.lft.to/lastmile_qr_scan"}, "is_reserved": 0, "fusion_lat": 0.0, "lon": -77.01399133333334}, {"lat": 38.91984883333333, "type": "electric_scooter", "is_disabled": 0, "name": "76a461a0de53c15684f07e26ee36dc4d", "bike_id": "76a461a0de53c15684f07e26ee36dc4d", "fusion_lon": 0.0, "rental_uris": {"ios": "https://dc.lft.to/lastmile_qr_scan", "android": "https://dc.lft.to/lastmile_qr_scan"}, "is_reserved": 0, "fusion_lat": 0.0, "lon": -77.02176683333333}, {"lat": 38.90313116666667, "type": "electric_scooter", "is_disabled": 0, "name": "3a493eed9d52cdd5459cbf7e3034d43b", "bike_id": "3a493eed9d52cdd5459cbf7e3034d43b", "fusion_lon": 0.0, "rental_uris": {"ios": "https://dc.lft.to/lastmile_qr_scan", "android": "https://dc.lft.to/lastmile_qr_scan"}, "is_reserved": 0, "fusion_lat": 0.0, "lon": -76.97494383333333}, {"lat": 38.915624, "type": "electric_scooter", "is_disabled": 0, "name": "92e8fb768469bcb92d1fd992b8e05d85", "bike_id": "92e8fb768469bcb92d1fd992b8e05d85", "fusion_lon": 0.0, "rental_uris": {"ios": "https://dc.lft.to/lastmile_qr_scan", "android": "https://dc.lft.to/lastmile_qr_scan"}, "is_reserved": 0, "fusion_lat": 0.0, "lon": -77.067706}, {"lat": 38.86532116666667, "type": "electric_scooter", "is_disabled": 0, "name": "0d2fd56fd513615d07d31065b7f0f80b", "bike_id": "0d2fd56fd513615d07d31065b7f0f80b", "fusion_lon": 0.0, "rental_uris": {"ios": "https://dc.lft.to/lastmile_qr_scan", "android": "https://dc.lft.to/lastmile_qr_scan"}, "is_reserved": 0, "fusion_lat": 0.0, "lon": -76.96901033333333}, {"lat": 38.922680166666666, "type": "electric_scooter", "is_disabled": 0, "name": "dba54ae8a952d885477a7a861463a514", "bike_id": "dba54ae8a952d885477a7a861463a514", "fusion_lon": 0.0, "rental_uris": {"ios": "https://dc.lft.to/lastmile_qr_scan", "android": "https://dc.lft.to/lastmile_qr_scan"}, "is_reserved": 0, "fusion_lat": 0.0, "lon": -77.019463}, {"lat": 38.899137, "type": "electric_scooter", "is_disabled": 0, "name": "b2c847d9f08df1115dad0793598c6684", "bike_id": "b2c847d9f08df1115dad0793598c6684", "fusion_lon": 0.0, "rental_uris": {"ios": "https://dc.lft.to/lastmile_qr_scan", "android": "https://dc.lft.to/lastmile_qr_scan"}, "is_reserved": 0, "fusion_lat": 0.0, "lon": -77.044728}, {"lat": 38.919443666666666, "type": "electric_scooter", "is_disabled": 0, "name": "0788585ba213328d1c4d657235ea4141", "bike_id": "0788585ba213328d1c4d657235ea4141", "fusion_lon": 0.0, "rental_uris": {"ios": "https://dc.lft.to/lastmile_qr_scan", "android": "https://dc.lft.to/lastmile_qr_scan"}, "is_reserved": 0, "fusion_lat": 0.0, "lon": -77.01797416666666}, {"lat": 38.9348225, "type": "electric_scooter", "is_disabled": 0, "name": "19d0219051667ccdba7e1e72199a375d", "bike_id": "19d0219051667ccdba7e1e72199a375d", "fusion_lon": 0.0, "rental_uris": {"ios": "https://dc.lft.to/lastmile_qr_scan", "android": "https://dc.lft.to/lastmile_qr_scan"}, "is_reserved": 0, "fusion_lat": 0.0, "lon": -77.04459383333334}, {"lat": 38.897517666666666, "type": "electric_scooter", "is_disabled": 0, "name": "3c51a27f4dbc7a9ebdb9aa57fdba1123", "bike_id": "3c51a27f4dbc7a9ebdb9aa57fdba1123", "fusion_lon": 0.0, "rental_uris": {"ios": "https://dc.lft.to/lastmile_qr_scan", "android": "https://dc.lft.to/lastmile_qr_scan"}, "is_reserved": 0, "fusion_lat": 0.0, "lon": -77.025492}, {"lat": 38.885052333333334, "type": "electric_scooter", "is_disabled": 0, "name": "0da223730e24ec1bd89430382cf4cbae", "bike_id": "0da223730e24ec1bd89430382cf4cbae", "fusion_lon": 0.0, "rental_uris": {"ios": "https://dc.lft.to/lastmile_qr_scan", "android": "https://dc.lft.to/lastmile_qr_scan"}, "is_reserved": 0, "fusion_lat": 0.0, "lon": -77.00567916666667}, {"lat": 38.927449333333335, "type": "electric_bike", "is_disabled": 0, "name": "ee43c3557a7312365add7ff2392adc6c", "bike_id": "ee43c3557a7312365add7ff2392adc6c", "fusion_lon": 0.0, "rental_uris": {"ios": "https://dc.lft.to/lastmile_qr_scan", "android": "https://dc.lft.to/lastmile_qr_scan"}, "is_reserved": 0, "fusion_lat": 0.0, "lon": -77.034345}, {"lat": 38.921999, "type": "electric_scooter", "is_disabled": 0, "name": "6df66d55eac89a01d2bdfd385a0ba22e", "bike_id": "6df66d55eac89a01d2bdfd385a0ba22e", "fusion_lon": 0.0, "rental_uris": {"ios": "https://dc.lft.to/lastmile_qr_scan", "android": "https://dc.lft.to/lastmile_qr_scan"}, "is_reserved": 0, "fusion_lat": 0.0, "lon": -76.983637}, {"lat": 38.899480833333335, "type": "electric_scooter", "is_disabled": 0, "name": "a0703c41eb8aa82945f6cc7f0cdf89e7", "bike_id": "a0703c41eb8aa82945f6cc7f0cdf89e7", "fusion_lon": 0.0, "rental_uris": {"ios": "https://dc.lft.to/lastmile_qr_scan", "android": "https://dc.lft.to/lastmile_qr_scan"}, "is_reserved": 0, "fusion_lat": 0.0, "lon": -77.04496416666667}, {"lat": 38.89691966666667, "type": "electric_scooter", "is_disabled": 0, "name": "448783f54258019d152b3f786aa01d28", "bike_id": "448783f54258019d152b3f786aa01d28", "fusion_lon": 0.0, "rental_uris": {"ios": "https://dc.lft.to/lastmile_qr_scan", "android": "https://dc.lft.to/lastmile_qr_scan"}, "is_reserved": 0, "fusion_lat": 0.0, "lon": -77.01203483333333}, {"lat": 38.92055766666667, "type": "electric_scooter", "is_disabled": 0, "name": "70c3bf0090935ff6b64c9b576b0129a7", "bike_id": "70c3bf0090935ff6b64c9b576b0129a7", "fusion_lon": 0.0, "rental_uris": {"ios": "https://dc.lft.to/lastmile_qr_scan", "android": "https://dc.lft.to/lastmile_qr_scan"}, "is_reserved": 0, "fusion_lat": 0.0, "lon": -77.0421405}, {"lat": 38.90262283333333, "type": "electric_scooter", "is_disabled": 0, "name": "51bf9a08c4a877e4d6b5ed052f975ef6", "bike_id": "51bf9a08c4a877e4d6b5ed052f975ef6", "fusion_lon": 0.0, "rental_uris": {"ios": "https://dc.lft.to/lastmile_qr_scan", "android": "https://dc.lft.to/lastmile_qr_scan"}, "is_reserved": 0, "fusion_lat": 0.0, "lon": -77.030706}, {"lat": 38.89933216666667, "type": "electric_scooter", "is_disabled": 0, "name": "d487cd3a69c4f10f440f51aa40cea159", "bike_id": "d487cd3a69c4f10f440f51aa40cea159", "fusion_lon": 0.0, "rental_uris": {"ios": "https://dc.lft.to/lastmile_qr_scan", "android": "https://dc.lft.to/lastmile_qr_scan"}, "is_reserved": 0, "fusion_lat": 0.0, "lon": -77.04547283333333}, {"lat": 38.89356983333333, "type": "electric_scooter", "is_disabled": 0, "name": "86c8a0decd8c47bb40fa6b486ba14a1e", "bike_id": "86c8a0decd8c47bb40fa6b486ba14a1e", "fusion_lon": 0.0, "rental_uris": {"ios": "https://dc.lft.to/lastmile_qr_scan", "android": "https://dc.lft.to/lastmile_qr_scan"}, "is_reserved": 0, "fusion_lat": 0.0, "lon": -77.0033405}, {"lat": 38.88687933333333, "type": "electric_scooter", "is_disabled": 0, "name": "8e1a7cbd5db3ab0c2b0c8320af9f9d69", "bike_id": "8e1a7cbd5db3ab0c2b0c8320af9f9d69", "fusion_lon": 0.0, "rental_uris": {"ios": "https://dc.lft.to/lastmile_qr_scan", "android": "https://dc.lft.to/lastmile_qr_scan"}, "is_reserved": 0, "fusion_lat": 0.0, "lon": -76.97639616666666}, {"lat": 38.915563166666665, "type": "electric_scooter", "is_disabled": 0, "name": "4ba13650c76b8bba0ef94ca5bea55d0a", "bike_id": "4ba13650c76b8bba0ef94ca5bea55d0a", "fusion_lon": 0.0, "rental_uris": {"ios": "https://dc.lft.to/lastmile_qr_scan", "android": "https://dc.lft.to/lastmile_qr_scan"}, "is_reserved": 0, "fusion_lat": 0.0, "lon": -77.044533}, {"lat": 38.90018083333333, "type": "electric_scooter", "is_disabled": 0, "name": "0d87b65944a1d021056d6909507acce8", "bike_id": "0d87b65944a1d021056d6909507acce8", "fusion_lon": 0.0, "rental_uris": {"ios": "https://dc.lft.to/lastmile_qr_scan", "android": "https://dc.lft.to/lastmile_qr_scan"}, "is_reserved": 0, "fusion_lat": 0.0, "lon": -77.01188683333334}, {"lat": 38.9268945, "type": "electric_scooter", "is_disabled": 0, "name": "5cd0178a509d66a440e39159ff373292", "bike_id": "5cd0178a509d66a440e39159ff373292", "fusion_lon": 0.0, "rental_uris": {"ios": "https://dc.lft.to/lastmile_qr_scan", "android": "https://dc.lft.to/lastmile_qr_scan"}, "is_reserved": 0, "fusion_lat": 0.0, "lon": -77.0156885}, {"lat": 38.92977233333333, "type": "electric_scooter", "is_disabled": 0, "name": "773a614f37e4e50bb4de657d81456d15", "bike_id": "773a614f37e4e50bb4de657d81456d15", "fusion_lon": 0.0, "rental_uris": {"ios": "https://dc.lft.to/lastmile_qr_scan", "android": "https://dc.lft.to/lastmile_qr_scan"}, "is_reserved": 0, "fusion_lat": 0.0, "lon": -77.03277233333333}, {"lat": 38.89637866666666, "type": "electric_scooter", "is_disabled": 0, "name": "676a82ec920418345da71d2b13c90125", "bike_id": "676a82ec920418345da71d2b13c90125", "fusion_lon": 0.0, "rental_uris": {"ios": "https://dc.lft.to/lastmile_qr_scan", "android": "https://dc.lft.to/lastmile_qr_scan"}, "is_reserved": 0, "fusion_lat": 0.0, "lon": -77.04008883333333}, {"lat": 38.927833, "type": "electric_scooter", "is_disabled": 0, "name": "80df2f98eb9c9bb40520ca91087648e8", "bike_id": "80df2f98eb9c9bb40520ca91087648e8", "fusion_lon": 0.0, "rental_uris": {"ios": "https://dc.lft.to/lastmile_qr_scan", "android": "https://dc.lft.to/lastmile_qr_scan"}, "is_reserved": 0, "fusion_lat": 0.0, "lon": -77.02564533333333}, {"lat": 38.902619666666666, "type": "electric_scooter", "is_disabled": 0, "name": "e9206ca27969be06e7d38f52277664d3", "bike_id": "e9206ca27969be06e7d38f52277664d3", "fusion_lon": 0.0, "rental_uris": {"ios": "https://dc.lft.to/lastmile_qr_scan", "android": "https://dc.lft.to/lastmile_qr_scan"}, "is_reserved": 0, "fusion_lat": 0.0, "lon": -77.0290785}, {"lat": 38.909946, "type": "electric_scooter", "is_disabled": 0, "name": "82abe780b23a92aa517935242151f93b", "bike_id": "82abe780b23a92aa517935242151f93b", "fusion_lon": 0.0, "rental_uris": {"ios": "https://dc.lft.to/lastmile_qr_scan", "android": "https://dc.lft.to/lastmile_qr_scan"}, "is_reserved": 0, "fusion_lat": 0.0, "lon": -77.02203966666667}, {"lat": 38.90977266666667, "type": "electric_bike", "is_disabled": 0, "name": "9c8b4e8f21c00266a1a0f3998cb3cd20", "bike_id": "9c8b4e8f21c00266a1a0f3998cb3cd20", "fusion_lon": 0.0, "rental_uris": {"ios": "https://dc.lft.to/lastmile_qr_scan", "android": "https://dc.lft.to/lastmile_qr_scan"}, "is_reserved": 0, "fusion_lat": 0.0, "lon": -77.0882195}, {"lat": 38.912644666666665, "type": "electric_scooter", "is_disabled": 0, "name": "4b22ecd079fb6d9f0bcc0c39c2764b02", "bike_id": "4b22ecd079fb6d9f0bcc0c39c2764b02", "fusion_lon": 0.0, "rental_uris": {"ios": "https://dc.lft.to/lastmile_qr_scan", "android": "https://dc.lft.to/lastmile_qr_scan"}, "is_reserved": 0, "fusion_lat": 0.0, "lon": -76.97203183333333}, {"lat": 38.92994483333333, "type": "electric_scooter", "is_disabled": 0, "name": "8f6faf96c5c9fe76e203f10f5276f4c9", "bike_id": "8f6faf96c5c9fe76e203f10f5276f4c9", "fusion_lon": 0.0, "rental_uris": {"ios": "https://dc.lft.to/lastmile_qr_scan", "android": "https://dc.lft.to/lastmile_qr_scan"}, "is_reserved": 0, "fusion_lat": 0.0, "lon": -77.03772566666666}, {"lat": 38.8950605, "type": "electric_scooter", "is_disabled": 0, "name": "3f5ad505b6ddd84507431785d09b4674", "bike_id": "3f5ad505b6ddd84507431785d09b4674", "fusion_lon": 0.0, "rental_uris": {"ios": "https://dc.lft.to/lastmile_qr_scan", "android": "https://dc.lft.to/lastmile_qr_scan"}, "is_reserved": 0, "fusion_lat": 0.0, "lon": -77.04642233333334}, {"lat": 38.919911, "type": "electric_scooter", "is_disabled": 0, "name": "894194daaba5fde49348eefed72e90ba", "bike_id": "894194daaba5fde49348eefed72e90ba", "fusion_lon": 0.0, "rental_uris": {"ios": "https://dc.lft.to/lastmile_qr_scan", "android": "https://dc.lft.to/lastmile_qr_scan"}, "is_reserved": 0, "fusion_lat": 0.0, "lon": -77.04152966666666}, {"lat": 38.921543166666666, "type": "electric_scooter", "is_disabled": 0, "name": "d2a6b7d2e62459eec5967b73aa85a726", "bike_id": "d2a6b7d2e62459eec5967b73aa85a726", "fusion_lon": 0.0, "rental_uris": {"ios": "https://dc.lft.to/lastmile_qr_scan", "android": "https://dc.lft.to/lastmile_qr_scan"}, "is_reserved": 0, "fusion_lat": 0.0, "lon": -77.0353475}, {"lat": 38.90901183333333, "type": "electric_scooter", "is_disabled": 0, "name": "e51b1c18087d8231f2fd7193234bd131", "bike_id": "e51b1c18087d8231f2fd7193234bd131", "fusion_lon": 0.0, "rental_uris": {"ios": "https://dc.lft.to/lastmile_qr_scan", "android": "https://dc.lft.to/lastmile_qr_scan"}, "is_reserved": 0, "fusion_lat": 0.0, "lon": -77.0338355}, {"lat": 38.89192466666667, "type": "electric_scooter", "is_disabled": 0, "name": "b62713b806b303282463afc4104d2be3", "bike_id": "b62713b806b303282463afc4104d2be3", "fusion_lon": 0.0, "rental_uris": {"ios": "https://dc.lft.to/lastmile_qr_scan", "android": "https://dc.lft.to/lastmile_qr_scan"}, "is_reserved": 0, "fusion_lat": 0.0, "lon": -77.00294783333334}, {"lat": 38.9285275, "type": "electric_scooter", "is_disabled": 0, "name": "186a6386e378e295db02cb77bafd24dc", "bike_id": "186a6386e378e295db02cb77bafd24dc", "fusion_lon": 0.0, "rental_uris": {"ios": "https://dc.lft.to/lastmile_qr_scan", "android": "https://dc.lft.to/lastmile_qr_scan"}, "is_reserved": 0, "fusion_lat": 0.0, "lon": -77.01407066666667}, {"lat": 38.89910283333333, "type": "electric_scooter", "is_disabled": 0, "name": "806a37310e57ac223aea7e0ab8f14e5f", "bike_id": "806a37310e57ac223aea7e0ab8f14e5f", "fusion_lon": 0.0, "rental_uris": {"ios": "https://dc.lft.to/lastmile_qr_scan", "android": "https://dc.lft.to/lastmile_qr_scan"}, "is_reserved": 0, "fusion_lat": 0.0, "lon": -77.04048283333333}, {"lat": 38.871864333333335, "type": "electric_scooter", "is_disabled": 0, "name": "0d72976798f9ee96ade2201b417d41b0", "bike_id": "0d72976798f9ee96ade2201b417d41b0", "fusion_lon": 0.0, "rental_uris": {"ios": "https://dc.lft.to/lastmile_qr_scan", "android": "https://dc.lft.to/lastmile_qr_scan"}, "is_reserved": 0, "fusion_lat": 0.0, "lon": -77.00641883333333}, {"lat": 38.92459016666667, "type": "electric_scooter", "is_disabled": 0, "name": "ba064c0297ed77b723d3c9623781bffe", "bike_id": "ba064c0297ed77b723d3c9623781bffe", "fusion_lon": 0.0, "rental_uris": {"ios": "https://dc.lft.to/lastmile_qr_scan", "android": "https://dc.lft.to/lastmile_qr_scan"}, "is_reserved": 0, "fusion_lat": 0.0, "lon": -77.03376866666666}, {"lat": 38.897488333333335, "type": "electric_scooter", "is_disabled": 0, "name": "a72e3a2ec5806e7325a370fba4a2ab5e", "bike_id": "a72e3a2ec5806e7325a370fba4a2ab5e", "fusion_lon": 0.0, "rental_uris": {"ios": "https://dc.lft.to/lastmile_qr_scan", "android": "https://dc.lft.to/lastmile_qr_scan"}, "is_reserved": 0, "fusion_lat": 0.0, "lon": -76.97580516666666}, {"lat": 38.92067433333333, "type": "electric_scooter", "is_disabled": 0, "name": "2b874bbb0d3c9183e55466940c425bae", "bike_id": "2b874bbb0d3c9183e55466940c425bae", "fusion_lon": 0.0, "rental_uris": {"ios": "https://dc.lft.to/lastmile_qr_scan", "android": "https://dc.lft.to/lastmile_qr_scan"}, "is_reserved": 0, "fusion_lat": 0.0, "lon": -77.0425545}, {"lat": 38.92145683333333, "type": "electric_scooter", "is_disabled": 0, "name": "4f4d2ca4c14674dd53d9f2092045c5e8", "bike_id": "4f4d2ca4c14674dd53d9f2092045c5e8", "fusion_lon": 0.0, "rental_uris": {"ios": "https://dc.lft.to/lastmile_qr_scan", "android": "https://dc.lft.to/lastmile_qr_scan"}, "is_reserved": 0, "fusion_lat": 0.0, "lon": -77.01797333333333}, {"lat": 38.8961555, "type": "electric_scooter", "is_disabled": 0, "name": "8fefc3dd6d2f3556ea7243713b33b113", "bike_id": "8fefc3dd6d2f3556ea7243713b33b113", "fusion_lon": 0.0, "rental_uris": {"ios": "https://dc.lft.to/lastmile_qr_scan", "android": "https://dc.lft.to/lastmile_qr_scan"}, "is_reserved": 0, "fusion_lat": 0.0, "lon": -77.03040483333334}, {"lat": 38.89223483333333, "type": "electric_scooter", "is_disabled": 0, "name": "7758d0725ccbabf8a7d69ceabce40b71", "bike_id": "7758d0725ccbabf8a7d69ceabce40b71", "fusion_lon": 0.0, "rental_uris": {"ios": "https://dc.lft.to/lastmile_qr_scan", "android": "https://dc.lft.to/lastmile_qr_scan"}, "is_reserved": 0, "fusion_lat": 0.0, "lon": -77.0464225}, {"lat": 38.921405666666665, "type": "electric_scooter", "is_disabled": 0, "name": "e8174a7af62a96a358fbd9401bdbbb5e", "bike_id": "e8174a7af62a96a358fbd9401bdbbb5e", "fusion_lon": 0.0, "rental_uris": {"ios": "https://dc.lft.to/lastmile_qr_scan", "android": "https://dc.lft.to/lastmile_qr_scan"}, "is_reserved": 0, "fusion_lat": 0.0, "lon": -77.021354}, {"lat": 38.9298975, "type": "electric_scooter", "is_disabled": 0, "name": "b5003144b120bc5ab4661154e6e491aa", "bike_id": "b5003144b120bc5ab4661154e6e491aa", "fusion_lon": 0.0, "rental_uris": {"ios": "https://dc.lft.to/lastmile_qr_scan", "android": "https://dc.lft.to/lastmile_qr_scan"}, "is_reserved": 0, "fusion_lat": 0.0, "lon": -77.03472766666667}, {"lat": 38.911539, "type": "electric_bike", "is_disabled": 0, "name": "eb05aa15801a8f920c2e0a8c86241e63", "bike_id": "eb05aa15801a8f920c2e0a8c86241e63", "fusion_lon": 0.0, "rental_uris": {"ios": "https://dc.lft.to/lastmile_qr_scan", "android": "https://dc.lft.to/lastmile_qr_scan"}, "is_reserved": 0, "fusion_lat": 0.0, "lon": -77.01716633333334}, {"lat": 38.91268, "type": "electric_scooter", "is_disabled": 0, "name": "2918e8ed9bf269308750dba048ce8103", "bike_id": "2918e8ed9bf269308750dba048ce8103", "fusion_lon": 0.0, "rental_uris": {"ios": "https://dc.lft.to/lastmile_qr_scan", "android": "https://dc.lft.to/lastmile_qr_scan"}, "is_reserved": 0, "fusion_lat": 0.0, "lon": -77.01476533333333}, {"lat": 38.898288666666666, "type": "electric_bike", "is_disabled": 0, "name": "981663be9313765916bc8d723fb967e2", "bike_id": "981663be9313765916bc8d723fb967e2", "fusion_lon": 0.0, "rental_uris": {"ios": "https://dc.lft.to/lastmile_qr_scan", "android": "https://dc.lft.to/lastmile_qr_scan"}, "is_reserved": 0, "fusion_lat": 0.0, "lon": -76.93851533333333}, {"lat": 38.921556, "type": "electric_scooter", "is_disabled": 0, "name": "ccd5bf34acb6391c6995b1508c1c3ff8", "bike_id": "ccd5bf34acb6391c6995b1508c1c3ff8", "fusion_lon": 0.0, "rental_uris": {"ios": "https://dc.lft.to/lastmile_qr_scan", "android": "https://dc.lft.to/lastmile_qr_scan"}, "is_reserved": 0, "fusion_lat": 0.0, "lon": -77.04232633333334}, {"lat": 38.90432583333333, "type": "electric_scooter", "is_disabled": 0, "name": "becb51641ba90ad585f54addc31cbc15", "bike_id": "becb51641ba90ad585f54addc31cbc15", "fusion_lon": 0.0, "rental_uris": {"ios": "https://dc.lft.to/lastmile_qr_scan", "android": "https://dc.lft.to/lastmile_qr_scan"}, "is_reserved": 0, "fusion_lat": 0.0, "lon": -77.03432016666666}, {"lat": 38.934283666666666, "type": "electric_scooter", "is_disabled": 0, "name": "7e8cc74167b6c23f14bec2038b8d48b3", "bike_id": "7e8cc74167b6c23f14bec2038b8d48b3", "fusion_lon": 0.0, "rental_uris": {"ios": "https://dc.lft.to/lastmile_qr_scan", "android": "https://dc.lft.to/lastmile_qr_scan"}, "is_reserved": 0, "fusion_lat": 0.0, "lon": -77.0400395}, {"lat": 38.93816833333333, "type": "electric_scooter", "is_disabled": 0, "name": "baea649e9993b672971e8ffc7b75a8a6", "bike_id": "baea649e9993b672971e8ffc7b75a8a6", "fusion_lon": 0.0, "rental_uris": {"ios": "https://dc.lft.to/lastmile_qr_scan", "android": "https://dc.lft.to/lastmile_qr_scan"}, "is_reserved": 0, "fusion_lat": 0.0, "lon": -77.05986183333333}, {"lat": 38.911085666666665, "type": "electric_scooter", "is_disabled": 0, "name": "6ecb829571d17ab6fb3e530b85d3507d", "bike_id": "6ecb829571d17ab6fb3e530b85d3507d", "fusion_lon": 0.0, "rental_uris": {"ios": "https://dc.lft.to/lastmile_qr_scan", "android": "https://dc.lft.to/lastmile_qr_scan"}, "is_reserved": 0, "fusion_lat": 0.0, "lon": -77.04519916666666}, {"lat": 38.89223666666667, "type": "electric_scooter", "is_disabled": 0, "name": "a58b2674d466024df7a9e54173cbd962", "bike_id": "a58b2674d466024df7a9e54173cbd962", "fusion_lon": 0.0, "rental_uris": {"ios": "https://dc.lft.to/lastmile_qr_scan", "android": "https://dc.lft.to/lastmile_qr_scan"}, "is_reserved": 0, "fusion_lat": 0.0, "lon": -77.043666}, {"lat": 38.8925965, "type": "electric_scooter", "is_disabled": 0, "name": "964fcba30fb2765b40110d79a1d980df", "bike_id": "964fcba30fb2765b40110d79a1d980df", "fusion_lon": 0.0, "rental_uris": {"ios": "https://dc.lft.to/lastmile_qr_scan", "android": "https://dc.lft.to/lastmile_qr_scan"}, "is_reserved": 0, "fusion_lat": 0.0, "lon": -77.00220966666667}, {"lat": 38.90045683333334, "type": "electric_scooter", "is_disabled": 0, "name": "47aa7c524e47f95a792ba02fca4d9b2d", "bike_id": "47aa7c524e47f95a792ba02fca4d9b2d", "fusion_lon": 0.0, "rental_uris": {"ios": "https://dc.lft.to/lastmile_qr_scan", "android": "https://dc.lft.to/lastmile_qr_scan"}, "is_reserved": 0, "fusion_lat": 0.0, "lon": -77.0434185}, {"lat": 38.91637566666667, "type": "electric_scooter", "is_disabled": 0, "name": "1fcb0b51071609e7f397c7e0c9df5bc7", "bike_id": "1fcb0b51071609e7f397c7e0c9df5bc7", "fusion_lon": 0.0, "rental_uris": {"ios": "https://dc.lft.to/lastmile_qr_scan", "android": "https://dc.lft.to/lastmile_qr_scan"}, "is_reserved": 0, "fusion_lat": 0.0, "lon": -77.04814883333333}, {"lat": 38.914094, "type": "electric_scooter", "is_disabled": 0, "name": "2c336ac8a414d7fe5931685da78e8a56", "bike_id": "2c336ac8a414d7fe5931685da78e8a56", "fusion_lon": 0.0, "rental_uris": {"ios": "https://dc.lft.to/lastmile_qr_scan", "android": "https://dc.lft.to/lastmile_qr_scan"}, "is_reserved": 0, "fusion_lat": 0.0, "lon": -77.041279}, {"lat": 38.899765, "type": "electric_scooter", "is_disabled": 0, "name": "3c62d28893138f3f7ced3b93fd647305", "bike_id": "3c62d28893138f3f7ced3b93fd647305", "fusion_lon": 0.0, "rental_uris": {"ios": "https://dc.lft.to/lastmile_qr_scan", "android": "https://dc.lft.to/lastmile_qr_scan"}, "is_reserved": 0, "fusion_lat": 0.0, "lon": -77.03352816666667}, {"lat": 38.884939333333335, "type": "electric_scooter", "is_disabled": 0, "name": "3041b760ee87ac1ce4e1bc111c6c1fe0", "bike_id": "3041b760ee87ac1ce4e1bc111c6c1fe0", "fusion_lon": 0.0, "rental_uris": {"ios": "https://dc.lft.to/lastmile_qr_scan", "android": "https://dc.lft.to/lastmile_qr_scan"}, "is_reserved": 0, "fusion_lat": 0.0, "lon": -77.00714533333333}, {"lat": 38.88071683333333, "type": "electric_bike", "is_disabled": 0, "name": "9a5d92265b4209248221d4d4049055af", "bike_id": "9a5d92265b4209248221d4d4049055af", "fusion_lon": 0.0, "rental_uris": {"ios": "https://dc.lft.to/lastmile_qr_scan", "android": "https://dc.lft.to/lastmile_qr_scan"}, "is_reserved": 0, "fusion_lat": 0.0, "lon": -76.987935}, {"lat": 38.892352333333335, "type": "electric_scooter", "is_disabled": 0, "name": "59b3f7ca6b5271cd4508c3f7d3b3ef8d", "bike_id": "59b3f7ca6b5271cd4508c3f7d3b3ef8d", "fusion_lon": 0.0, "rental_uris": {"ios": "https://dc.lft.to/lastmile_qr_scan", "android": "https://dc.lft.to/lastmile_qr_scan"}, "is_reserved": 0, "fusion_lat": 0.0, "lon": -77.0320735}, {"lat": 38.903806833333334, "type": "electric_scooter", "is_disabled": 0, "name": "f5650166c6f08230a576ede2f619a42e", "bike_id": "f5650166c6f08230a576ede2f619a42e", "fusion_lon": 0.0, "rental_uris": {"ios": "https://dc.lft.to/lastmile_qr_scan", "android": "https://dc.lft.to/lastmile_qr_scan"}, "is_reserved": 0, "fusion_lat": 0.0, "lon": -77.06862283333334}, {"lat": 38.90350983333333, "type": "electric_scooter", "is_disabled": 0, "name": "971d53d8fe4f8c0b15e39526b2a3e942", "bike_id": "971d53d8fe4f8c0b15e39526b2a3e942", "fusion_lon": 0.0, "rental_uris": {"ios": "https://dc.lft.to/lastmile_qr_scan", "android": "https://dc.lft.to/lastmile_qr_scan"}, "is_reserved": 0, "fusion_lat": 0.0, "lon": -76.98271833333334}, {"lat": 38.92762, "type": "electric_scooter", "is_disabled": 0, "name": "9d5f94659f50c2604276c62ef428272e", "bike_id": "9d5f94659f50c2604276c62ef428272e", "fusion_lon": 0.0, "rental_uris": {"ios": "https://dc.lft.to/lastmile_qr_scan", "android": "https://dc.lft.to/lastmile_qr_scan"}, "is_reserved": 0, "fusion_lat": 0.0, "lon": -77.03203616666667}, {"lat": 38.887101333333334, "type": "electric_scooter", "is_disabled": 0, "name": "36f54ff2781bc63b51012a5214e21d49", "bike_id": "36f54ff2781bc63b51012a5214e21d49", "fusion_lon": 0.0, "rental_uris": {"ios": "https://dc.lft.to/lastmile_qr_scan", "android": "https://dc.lft.to/lastmile_qr_scan"}, "is_reserved": 0, "fusion_lat": 0.0, "lon": -77.02831216666667}, {"lat": 38.88060566666667, "type": "electric_scooter", "is_disabled": 0, "name": "4dfbdd4e0002e188e994f966bae7be1c", "bike_id": "4dfbdd4e0002e188e994f966bae7be1c", "fusion_lon": 0.0, "rental_uris": {"ios": "https://dc.lft.to/lastmile_qr_scan", "android": "https://dc.lft.to/lastmile_qr_scan"}, "is_reserved": 0, "fusion_lat": 0.0, "lon": -77.0118565}, {"lat": 38.89580633333333, "type": "electric_scooter", "is_disabled": 0, "name": "5ac850bb49d58f4c2a3f7e3bc744ae8e", "bike_id": "5ac850bb49d58f4c2a3f7e3bc744ae8e", "fusion_lon": 0.0, "rental_uris": {"ios": "https://dc.lft.to/lastmile_qr_scan", "android": "https://dc.lft.to/lastmile_qr_scan"}, "is_reserved": 0, "fusion_lat": 0.0, "lon": -77.031827}, {"lat": 38.8452415, "type": "electric_bike", "is_disabled": 0, "name": "6f3c3a6e20aeff762fa611d02c90a9c5", "bike_id": "6f3c3a6e20aeff762fa611d02c90a9c5", "fusion_lon": 0.0, "rental_uris": {"ios": "https://dc.lft.to/lastmile_qr_scan", "android": "https://dc.lft.to/lastmile_qr_scan"}, "is_reserved": 0, "fusion_lat": 0.0, "lon": -76.9974015}, {"lat": 38.90985766666667, "type": "electric_scooter", "is_disabled": 0, "name": "4127999c711bd82a1ad9b71e15a8fe14", "bike_id": "4127999c711bd82a1ad9b71e15a8fe14", "fusion_lon": 0.0, "rental_uris": {"ios": "https://dc.lft.to/lastmile_qr_scan", "android": "https://dc.lft.to/lastmile_qr_scan"}, "is_reserved": 0, "fusion_lat": 0.0, "lon": -77.03192883333334}, {"lat": 38.922505, "type": "electric_scooter", "is_disabled": 0, "name": "f5d599a08945ce6d613915ff5b94c3cc", "bike_id": "f5d599a08945ce6d613915ff5b94c3cc", "fusion_lon": 0.0, "rental_uris": {"ios": "https://dc.lft.to/lastmile_qr_scan", "android": "https://dc.lft.to/lastmile_qr_scan"}, "is_reserved": 0, "fusion_lat": 0.0, "lon": -77.01947566666666}, {"lat": 38.9004495, "type": "electric_bike", "is_disabled": 0, "name": "a6e1c2cc488fbba13e15324f4822cae6", "bike_id": "a6e1c2cc488fbba13e15324f4822cae6", "fusion_lon": 0.0, "rental_uris": {"ios": "https://dc.lft.to/lastmile_qr_scan", "android": "https://dc.lft.to/lastmile_qr_scan"}, "is_reserved": 0, "fusion_lat": 0.0, "lon": -76.97224066666666}, {"lat": 38.8803945, "type": "electric_scooter", "is_disabled": 0, "name": "291db0b835daf55e7f03257e8af7e0dd", "bike_id": "291db0b835daf55e7f03257e8af7e0dd", "fusion_lon": 0.0, "rental_uris": {"ios": "https://dc.lft.to/lastmile_qr_scan", "android": "https://dc.lft.to/lastmile_qr_scan"}, "is_reserved": 0, "fusion_lat": 0.0, "lon": -77.02474583333333}, {"lat": 38.90511766666667, "type": "electric_scooter", "is_disabled": 0, "name": "f977af22785d30c62d4ea544699fa437", "bike_id": "f977af22785d30c62d4ea544699fa437", "fusion_lon": 0.0, "rental_uris": {"ios": "https://dc.lft.to/lastmile_qr_scan", "android": "https://dc.lft.to/lastmile_qr_scan"}, "is_reserved": 0, "fusion_lat": 0.0, "lon": -77.027089}, {"lat": 38.90605583333333, "type": "electric_bike", "is_disabled": 0, "name": "62112412eaf6b64febc670f6c92453f0", "bike_id": "62112412eaf6b64febc670f6c92453f0", "fusion_lon": 0.0, "rental_uris": {"ios": "https://dc.lft.to/lastmile_qr_scan", "android": "https://dc.lft.to/lastmile_qr_scan"}, "is_reserved": 0, "fusion_lat": 0.0, "lon": -77.128767}, {"lat": 38.9003255, "type": "electric_scooter", "is_disabled": 0, "name": "f6ce6a62b2f9dc21d8c4603c31400233", "bike_id": "f6ce6a62b2f9dc21d8c4603c31400233", "fusion_lon": 0.0, "rental_uris": {"ios": "https://dc.lft.to/lastmile_qr_scan", "android": "https://dc.lft.to/lastmile_qr_scan"}, "is_reserved": 0, "fusion_lat": 0.0, "lon": -76.98755066666666}, {"lat": 38.90224966666667, "type": "electric_scooter", "is_disabled": 0, "name": "86bba978c0f0f618f48e87b0aba1c18f", "bike_id": "86bba978c0f0f618f48e87b0aba1c18f", "fusion_lon": 0.0, "rental_uris": {"ios": "https://dc.lft.to/lastmile_qr_scan", "android": "https://dc.lft.to/lastmile_qr_scan"}, "is_reserved": 0, "fusion_lat": 0.0, "lon": -77.00878316666666}, {"lat": 38.896097166666664, "type": "electric_scooter", "is_disabled": 0, "name": "1d653e8dfcd893f8fad11eb9038ac868", "bike_id": "1d653e8dfcd893f8fad11eb9038ac868", "fusion_lon": 0.0, "rental_uris": {"ios": "https://dc.lft.to/lastmile_qr_scan", "android": "https://dc.lft.to/lastmile_qr_scan"}, "is_reserved": 0, "fusion_lat": 0.0, "lon": -77.0451465}, {"lat": 38.901391333333336, "type": "electric_scooter", "is_disabled": 0, "name": "d35f7bc9387afdf3679386c47142ccf9", "bike_id": "d35f7bc9387afdf3679386c47142ccf9", "fusion_lon": 0.0, "rental_uris": {"ios": "https://dc.lft.to/lastmile_qr_scan", "android": "https://dc.lft.to/lastmile_qr_scan"}, "is_reserved": 0, "fusion_lat": 0.0, "lon": -77.02293883333333}, {"lat": 38.92637116666667, "type": "electric_scooter", "is_disabled": 0, "name": "742e092eb170230b8ddaf161948d8501", "bike_id": "742e092eb170230b8ddaf161948d8501", "fusion_lon": 0.0, "rental_uris": {"ios": "https://dc.lft.to/lastmile_qr_scan", "android": "https://dc.lft.to/lastmile_qr_scan"}, "is_reserved": 0, "fusion_lat": 0.0, "lon": -77.03710116666667}, {"lat": 38.908183333333334, "type": "electric_scooter", "is_disabled": 0, "name": "040d7e728aef77fa493e42eec10cd631", "bike_id": "040d7e728aef77fa493e42eec10cd631", "fusion_lon": 0.0, "rental_uris": {"ios": "https://dc.lft.to/lastmile_qr_scan", "android": "https://dc.lft.to/lastmile_qr_scan"}, "is_reserved": 0, "fusion_lat": 0.0, "lon": -77.039463}, {"lat": 38.899163, "type": "electric_scooter", "is_disabled": 0, "name": "1a104358b272e5faff493cd18c6d83ad", "bike_id": "1a104358b272e5faff493cd18c6d83ad", "fusion_lon": 0.0, "rental_uris": {"ios": "https://dc.lft.to/lastmile_qr_scan", "android": "https://dc.lft.to/lastmile_qr_scan"}, "is_reserved": 0, "fusion_lat": 0.0, "lon": -77.03303566666666}, {"lat": 38.892966, "type": "electric_bike", "is_disabled": 0, "name": "c026ce65b95b2c53f0d71870a94d7b98", "bike_id": "c026ce65b95b2c53f0d71870a94d7b98", "fusion_lon": 0.0, "rental_uris": {"ios": "https://dc.lft.to/lastmile_qr_scan", "android": "https://dc.lft.to/lastmile_qr_scan"}, "is_reserved": 0, "fusion_lat": 0.0, "lon": -76.97615066666667}, {"lat": 38.89582583333333, "type": "electric_scooter", "is_disabled": 0, "name": "699007bfc6c255542147ef900614cea4", "bike_id": "699007bfc6c255542147ef900614cea4", "fusion_lon": 0.0, "rental_uris": {"ios": "https://dc.lft.to/lastmile_qr_scan", "android": "https://dc.lft.to/lastmile_qr_scan"}, "is_reserved": 0, "fusion_lat": 0.0, "lon": -77.0317965}, {"lat": 38.919364333333334, "type": "electric_scooter", "is_disabled": 0, "name": "7fccf6980ba5de211b632648f1cda419", "bike_id": "7fccf6980ba5de211b632648f1cda419", "fusion_lon": 0.0, "rental_uris": {"ios": "https://dc.lft.to/lastmile_qr_scan", "android": "https://dc.lft.to/lastmile_qr_scan"}, "is_reserved": 0, "fusion_lat": 0.0, "lon": -77.03472466666666}, {"lat": 38.90250433333333, "type": "electric_scooter", "is_disabled": 0, "name": "6ae83bd175952a6179f795ac149404d9", "bike_id": "6ae83bd175952a6179f795ac149404d9", "fusion_lon": 0.0, "rental_uris": {"ios": "https://dc.lft.to/lastmile_qr_scan", "android": "https://dc.lft.to/lastmile_qr_scan"}, "is_reserved": 0, "fusion_lat": 0.0, "lon": -77.046043}, {"lat": 38.942597166666665, "type": "electric_scooter", "is_disabled": 0, "name": "87214bad57b40a20f65bc702bb64701a", "bike_id": "87214bad57b40a20f65bc702bb64701a", "fusion_lon": 0.0, "rental_uris": {"ios": "https://dc.lft.to/lastmile_qr_scan", "android": "https://dc.lft.to/lastmile_qr_scan"}, "is_reserved": 0, "fusion_lat": 0.0, "lon": -77.02844516666667}, {"lat": 38.896634166666665, "type": "electric_scooter", "is_disabled": 0, "name": "33b80192f3843f9d4b41c8d626abebd9", "bike_id": "33b80192f3843f9d4b41c8d626abebd9", "fusion_lon": 0.0, "rental_uris": {"ios": "https://dc.lft.to/lastmile_qr_scan", "android": "https://dc.lft.to/lastmile_qr_scan"}, "is_reserved": 0, "fusion_lat": 0.0, "lon": -76.981008}, {"lat": 38.906645, "type": "electric_scooter", "is_disabled": 0, "name": "368312c9997ee9f5d33fc6190c96365e", "bike_id": "368312c9997ee9f5d33fc6190c96365e", "fusion_lon": 0.0, "rental_uris": {"ios": "https://dc.lft.to/lastmile_qr_scan", "android": "https://dc.lft.to/lastmile_qr_scan"}, "is_reserved": 0, "fusion_lat": 0.0, "lon": -77.02714116666667}, {"lat": 38.89713916666667, "type": "electric_scooter", "is_disabled": 0, "name": "996db61ef264de9d65f6ca18e6a833ef", "bike_id": "996db61ef264de9d65f6ca18e6a833ef", "fusion_lon": 0.0, "rental_uris": {"ios": "https://dc.lft.to/lastmile_qr_scan", "android": "https://dc.lft.to/lastmile_qr_scan"}, "is_reserved": 0, "fusion_lat": 0.0, "lon": -76.9911545}, {"lat": 38.915394666666664, "type": "electric_scooter", "is_disabled": 0, "name": "0c17891db488108e71bcafa345f21a12", "bike_id": "0c17891db488108e71bcafa345f21a12", "fusion_lon": 0.0, "rental_uris": {"ios": "https://dc.lft.to/lastmile_qr_scan", "android": "https://dc.lft.to/lastmile_qr_scan"}, "is_reserved": 0, "fusion_lat": 0.0, "lon": -77.044339}, {"lat": 38.934986333333335, "type": "electric_scooter", "is_disabled": 0, "name": "41fc116dfb51bc4aa4a93ded85ecc06c", "bike_id": "41fc116dfb51bc4aa4a93ded85ecc06c", "fusion_lon": 0.0, "rental_uris": {"ios": "https://dc.lft.to/lastmile_qr_scan", "android": "https://dc.lft.to/lastmile_qr_scan"}, "is_reserved": 0, "fusion_lat": 0.0, "lon": -76.98197783333333}, {"lat": 38.912639666666664, "type": "electric_scooter", "is_disabled": 0, "name": "13ce02ce17153ac24faf829419be96af", "bike_id": "13ce02ce17153ac24faf829419be96af", "fusion_lon": 0.0, "rental_uris": {"ios": "https://dc.lft.to/lastmile_qr_scan", "android": "https://dc.lft.to/lastmile_qr_scan"}, "is_reserved": 0, "fusion_lat": 0.0, "lon": -77.0445605}, {"lat": 38.93272283333334, "type": "electric_scooter", "is_disabled": 0, "name": "53cbd35bb5fd1f6bdae9cc821f129ab4", "bike_id": "53cbd35bb5fd1f6bdae9cc821f129ab4", "fusion_lon": 0.0, "rental_uris": {"ios": "https://dc.lft.to/lastmile_qr_scan", "android": "https://dc.lft.to/lastmile_qr_scan"}, "is_reserved": 0, "fusion_lat": 0.0, "lon": -76.99609183333334}, {"lat": 38.955178833333335, "type": "electric_scooter", "is_disabled": 0, "name": "dad80f77b362f864465a229f6c061af2", "bike_id": "dad80f77b362f864465a229f6c061af2", "fusion_lon": 0.0, "rental_uris": {"ios": "https://dc.lft.to/lastmile_qr_scan", "android": "https://dc.lft.to/lastmile_qr_scan"}, "is_reserved": 0, "fusion_lat": 0.0, "lon": -77.01041066666667}, {"lat": 38.91981116666667, "type": "electric_scooter", "is_disabled": 0, "name": "3bec4ce85b4096e0940da1eefa5ce396", "bike_id": "3bec4ce85b4096e0940da1eefa5ce396", "fusion_lon": 0.0, "rental_uris": {"ios": "https://dc.lft.to/lastmile_qr_scan", "android": "https://dc.lft.to/lastmile_qr_scan"}, "is_reserved": 0, "fusion_lat": 0.0, "lon": -77.02201166666667}, {"lat": 38.926152333333334, "type": "electric_scooter", "is_disabled": 0, "name": "7439ba74718fa7fa4e2cba00fbf642fc", "bike_id": "7439ba74718fa7fa4e2cba00fbf642fc", "fusion_lon": 0.0, "rental_uris": {"ios": "https://dc.lft.to/lastmile_qr_scan", "android": "https://dc.lft.to/lastmile_qr_scan"}, "is_reserved": 0, "fusion_lat": 0.0, "lon": -77.021623}, {"lat": 38.897409833333334, "type": "electric_bike", "is_disabled": 0, "name": "0dd6940ac4e2c2bf1651acf6238fdb95", "bike_id": "0dd6940ac4e2c2bf1651acf6238fdb95", "fusion_lon": 0.0, "rental_uris": {"ios": "https://dc.lft.to/lastmile_qr_scan", "android": "https://dc.lft.to/lastmile_qr_scan"}, "is_reserved": 0, "fusion_lat": 0.0, "lon": -76.96949783333334}, {"lat": 38.882304500000004, "type": "electric_bike", "is_disabled": 0, "name": "7258a13107a7ffcc2fb6bb7e7d59660a", "bike_id": "7258a13107a7ffcc2fb6bb7e7d59660a", "fusion_lon": 0.0, "rental_uris": {"ios": "https://dc.lft.to/lastmile_qr_scan", "android": "https://dc.lft.to/lastmile_qr_scan"}, "is_reserved": 0, "fusion_lat": 0.0, "lon": -77.1118345}, {"lat": 38.911820666666664, "type": "electric_scooter", "is_disabled": 0, "name": "0c43efa56323abd38d154e662b595d38", "bike_id": "0c43efa56323abd38d154e662b595d38", "fusion_lon": 0.0, "rental_uris": {"ios": "https://dc.lft.to/lastmile_qr_scan", "android": "https://dc.lft.to/lastmile_qr_scan"}, "is_reserved": 0, "fusion_lat": 0.0, "lon": -77.005571}, {"lat": 38.895050166666664, "type": "electric_scooter", "is_disabled": 0, "name": "00ba6fdcd52baeb71f275593347b9657", "bike_id": "00ba6fdcd52baeb71f275593347b9657", "fusion_lon": 0.0, "rental_uris": {"ios": "https://dc.lft.to/lastmile_qr_scan", "android": "https://dc.lft.to/lastmile_qr_scan"}, "is_reserved": 0, "fusion_lat": 0.0, "lon": -77.04640566666667}, {"lat": 38.8960585, "type": "electric_scooter", "is_disabled": 0, "name": "b5539af2771861d9f8fc38389ea2f5a1", "bike_id": "b5539af2771861d9f8fc38389ea2f5a1", "fusion_lon": 0.0, "rental_uris": {"ios": "https://dc.lft.to/lastmile_qr_scan", "android": "https://dc.lft.to/lastmile_qr_scan"}, "is_reserved": 0, "fusion_lat": 0.0, "lon": -77.02986083333333}, {"lat": 38.92414316666667, "type": "electric_scooter", "is_disabled": 0, "name": "3b13bc71ebc25af0c7c8758614272f87", "bike_id": "3b13bc71ebc25af0c7c8758614272f87", "fusion_lon": 0.0, "rental_uris": {"ios": "https://dc.lft.to/lastmile_qr_scan", "android": "https://dc.lft.to/lastmile_qr_scan"}, "is_reserved": 0, "fusion_lat": 0.0, "lon": -77.01945733333334}, {"lat": 38.892244166666664, "type": "electric_scooter", "is_disabled": 0, "name": "fa7072b2b304838726044d6e23bfb69f", "bike_id": "fa7072b2b304838726044d6e23bfb69f", "fusion_lon": 0.0, "rental_uris": {"ios": "https://dc.lft.to/lastmile_qr_scan", "android": "https://dc.lft.to/lastmile_qr_scan"}, "is_reserved": 0, "fusion_lat": 0.0, "lon": -77.042718}, {"lat": 38.88741183333333, "type": "electric_scooter", "is_disabled": 0, "name": "4bdeaaca54e2bf658716950c3dec7766", "bike_id": "4bdeaaca54e2bf658716950c3dec7766", "fusion_lon": 0.0, "rental_uris": {"ios": "https://dc.lft.to/lastmile_qr_scan", "android": "https://dc.lft.to/lastmile_qr_scan"}, "is_reserved": 0, "fusion_lat": 0.0, "lon": -76.9964375}, {"lat": 38.906848833333335, "type": "electric_scooter", "is_disabled": 0, "name": "2a81be5f5fc2b669ae4ce97c199add3b", "bike_id": "2a81be5f5fc2b669ae4ce97c199add3b", "fusion_lon": 0.0, "rental_uris": {"ios": "https://dc.lft.to/lastmile_qr_scan", "android": "https://dc.lft.to/lastmile_qr_scan"}, "is_reserved": 0, "fusion_lat": 0.0, "lon": -77.01092983333334}, {"lat": 38.919428, "type": "electric_scooter", "is_disabled": 0, "name": "2fbb38fb14464de0beb3acb414eeb2c5", "bike_id": "2fbb38fb14464de0beb3acb414eeb2c5", "fusion_lon": 0.0, "rental_uris": {"ios": "https://dc.lft.to/lastmile_qr_scan", "android": "https://dc.lft.to/lastmile_qr_scan"}, "is_reserved": 0, "fusion_lat": 0.0, "lon": -77.045588}, {"lat": 38.924082166666665, "type": "electric_scooter", "is_disabled": 0, "name": "0f2057923a10497a9301999cf5b6aea4", "bike_id": "0f2057923a10497a9301999cf5b6aea4", "fusion_lon": 0.0, "rental_uris": {"ios": "https://dc.lft.to/lastmile_qr_scan", "android": "https://dc.lft.to/lastmile_qr_scan"}, "is_reserved": 0, "fusion_lat": 0.0, "lon": -77.02033633333333}, {"lat": 38.95765383333333, "type": "electric_scooter", "is_disabled": 0, "name": "0a54167a810b6165319dfc1ac0be87f7", "bike_id": "0a54167a810b6165319dfc1ac0be87f7", "fusion_lon": 0.0, "rental_uris": {"ios": "https://dc.lft.to/lastmile_qr_scan", "android": "https://dc.lft.to/lastmile_qr_scan"}, "is_reserved": 0, "fusion_lat": 0.0, "lon": -77.00915016666667}, {"lat": 38.90527016666667, "type": "electric_scooter", "is_disabled": 0, "name": "73a87ba5289ae52effa6d3be1a738a61", "bike_id": "73a87ba5289ae52effa6d3be1a738a61", "fusion_lon": 0.0, "rental_uris": {"ios": "https://dc.lft.to/lastmile_qr_scan", "android": "https://dc.lft.to/lastmile_qr_scan"}, "is_reserved": 0, "fusion_lat": 0.0, "lon": -77.04102733333333}, {"lat": 38.91586233333334, "type": "electric_scooter", "is_disabled": 0, "name": "1c24c8b48a3b7bcf6b96300783f64b97", "bike_id": "1c24c8b48a3b7bcf6b96300783f64b97", "fusion_lon": 0.0, "rental_uris": {"ios": "https://dc.lft.to/lastmile_qr_scan", "android": "https://dc.lft.to/lastmile_qr_scan"}, "is_reserved": 0, "fusion_lat": 0.0, "lon": -77.04516466666666}, {"lat": 38.898821833333336, "type": "electric_scooter", "is_disabled": 0, "name": "ef38435ade645fb0c76fcf09a424e4d3", "bike_id": "ef38435ade645fb0c76fcf09a424e4d3", "fusion_lon": 0.0, "rental_uris": {"ios": "https://dc.lft.to/lastmile_qr_scan", "android": "https://dc.lft.to/lastmile_qr_scan"}, "is_reserved": 0, "fusion_lat": 0.0, "lon": -77.03317916666667}, {"lat": 38.900467666666664, "type": "electric_scooter", "is_disabled": 0, "name": "a162fe504aedc8a1f054c293827355f0", "bike_id": "a162fe504aedc8a1f054c293827355f0", "fusion_lon": 0.0, "rental_uris": {"ios": "https://dc.lft.to/lastmile_qr_scan", "android": "https://dc.lft.to/lastmile_qr_scan"}, "is_reserved": 0, "fusion_lat": 0.0, "lon": -76.98818766666666}, {"lat": 38.907887833333334, "type": "electric_scooter", "is_disabled": 0, "name": "dd8628281dc7532e2ec19f7f8de34893", "bike_id": "dd8628281dc7532e2ec19f7f8de34893", "fusion_lon": 0.0, "rental_uris": {"ios": "https://dc.lft.to/lastmile_qr_scan", "android": "https://dc.lft.to/lastmile_qr_scan"}, "is_reserved": 0, "fusion_lat": 0.0, "lon": -77.00968733333333}, {"lat": 38.90869033333333, "type": "electric_scooter", "is_disabled": 0, "name": "21a63350589846b9f7f0a74150a22458", "bike_id": "21a63350589846b9f7f0a74150a22458", "fusion_lon": 0.0, "rental_uris": {"ios": "https://dc.lft.to/lastmile_qr_scan", "android": "https://dc.lft.to/lastmile_qr_scan"}, "is_reserved": 0, "fusion_lat": 0.0, "lon": -77.08591683333333}, {"lat": 38.90780266666667, "type": "electric_scooter", "is_disabled": 0, "name": "2706786f0cda2a8c5307f5578f205d76", "bike_id": "2706786f0cda2a8c5307f5578f205d76", "fusion_lon": 0.0, "rental_uris": {"ios": "https://dc.lft.to/lastmile_qr_scan", "android": "https://dc.lft.to/lastmile_qr_scan"}, "is_reserved": 0, "fusion_lat": 0.0, "lon": -77.03206583333333}, {"lat": 38.896227333333336, "type": "electric_bike", "is_disabled": 0, "name": "8b7a748e694e2767ee385285bf375bbd", "bike_id": "8b7a748e694e2767ee385285bf375bbd", "fusion_lon": 0.0, "rental_uris": {"ios": "https://dc.lft.to/lastmile_qr_scan", "android": "https://dc.lft.to/lastmile_qr_scan"}, "is_reserved": 0, "fusion_lat": 0.0, "lon": -76.90752666666667}, {"lat": 38.914509333333335, "type": "electric_scooter", "is_disabled": 0, "name": "70aa7ceee8f3793ac4b475b0f5d4b5cf", "bike_id": "70aa7ceee8f3793ac4b475b0f5d4b5cf", "fusion_lon": 0.0, "rental_uris": {"ios": "https://dc.lft.to/lastmile_qr_scan", "android": "https://dc.lft.to/lastmile_qr_scan"}, "is_reserved": 0, "fusion_lat": 0.0, "lon": -77.00898483333333}, {"lat": 38.886701, "type": "electric_scooter", "is_disabled": 0, "name": "501e7ff3b6543426530827c5cbf49815", "bike_id": "501e7ff3b6543426530827c5cbf49815", "fusion_lon": 0.0, "rental_uris": {"ios": "https://dc.lft.to/lastmile_qr_scan", "android": "https://dc.lft.to/lastmile_qr_scan"}, "is_reserved": 0, "fusion_lat": 0.0, "lon": -77.01374716666666}, {"lat": 38.91713333333333, "type": "electric_scooter", "is_disabled": 0, "name": "48f1f9a3af541f03515d3c9e97d45e2c", "bike_id": "48f1f9a3af541f03515d3c9e97d45e2c", "fusion_lon": 0.0, "rental_uris": {"ios": "https://dc.lft.to/lastmile_qr_scan", "android": "https://dc.lft.to/lastmile_qr_scan"}, "is_reserved": 0, "fusion_lat": 0.0, "lon": -77.0416125}, {"lat": 38.905973333333336, "type": "electric_scooter", "is_disabled": 0, "name": "1f12b6585162ba28c37633c80c39d5c4", "bike_id": "1f12b6585162ba28c37633c80c39d5c4", "fusion_lon": 0.0, "rental_uris": {"ios": "https://dc.lft.to/lastmile_qr_scan", "android": "https://dc.lft.to/lastmile_qr_scan"}, "is_reserved": 0, "fusion_lat": 0.0, "lon": -77.00270466666667}, {"lat": 38.92626683333334, "type": "electric_scooter", "is_disabled": 0, "name": "7a91e863f2abe56b43c8a76f1019a453", "bike_id": "7a91e863f2abe56b43c8a76f1019a453", "fusion_lon": 0.0, "rental_uris": {"ios": "https://dc.lft.to/lastmile_qr_scan", "android": "https://dc.lft.to/lastmile_qr_scan"}, "is_reserved": 0, "fusion_lat": 0.0, "lon": -77.07302666666666}, {"lat": 38.899817, "type": "electric_scooter", "is_disabled": 0, "name": "aac03c06d853009f381c2344e2847932", "bike_id": "aac03c06d853009f381c2344e2847932", "fusion_lon": 0.0, "rental_uris": {"ios": "https://dc.lft.to/lastmile_qr_scan", "android": "https://dc.lft.to/lastmile_qr_scan"}, "is_reserved": 0, "fusion_lat": 0.0, "lon": -77.04192916666666}, {"lat": 38.901775666666666, "type": "electric_scooter", "is_disabled": 0, "name": "909480cc16f975267aa675b347dc53c8", "bike_id": "909480cc16f975267aa675b347dc53c8", "fusion_lon": 0.0, "rental_uris": {"ios": "https://dc.lft.to/lastmile_qr_scan", "android": "https://dc.lft.to/lastmile_qr_scan"}, "is_reserved": 0, "fusion_lat": 0.0, "lon": -77.03639116666666}, {"lat": 38.89905483333333, "type": "electric_scooter", "is_disabled": 0, "name": "e119a1c9d1b9700ab7a3352b79221aa0", "bike_id": "e119a1c9d1b9700ab7a3352b79221aa0", "fusion_lon": 0.0, "rental_uris": {"ios": "https://dc.lft.to/lastmile_qr_scan", "android": "https://dc.lft.to/lastmile_qr_scan"}, "is_reserved": 0, "fusion_lat": 0.0, "lon": -76.98822766666666}, {"lat": 38.9124695, "type": "electric_scooter", "is_disabled": 0, "name": "4e3e480970c211d583d699f7d0210187", "bike_id": "4e3e480970c211d583d699f7d0210187", "fusion_lon": 0.0, "rental_uris": {"ios": "https://dc.lft.to/lastmile_qr_scan", "android": "https://dc.lft.to/lastmile_qr_scan"}, "is_reserved": 0, "fusion_lat": 0.0, "lon": -77.00114083333334}, {"lat": 38.923200666666666, "type": "electric_scooter", "is_disabled": 0, "name": "aaa271d17a0967f94d452f3206d97625", "bike_id": "aaa271d17a0967f94d452f3206d97625", "fusion_lon": 0.0, "rental_uris": {"ios": "https://dc.lft.to/lastmile_qr_scan", "android": "https://dc.lft.to/lastmile_qr_scan"}, "is_reserved": 0, "fusion_lat": 0.0, "lon": -77.04409416666667}, {"lat": 38.89221, "type": "electric_scooter", "is_disabled": 0, "name": "87cb80c65875d8f67c2e26c9c4f34b66", "bike_id": "87cb80c65875d8f67c2e26c9c4f34b66", "fusion_lon": 0.0, "rental_uris": {"ios": "https://dc.lft.to/lastmile_qr_scan", "android": "https://dc.lft.to/lastmile_qr_scan"}, "is_reserved": 0, "fusion_lat": 0.0, "lon": -77.04149983333333}, {"lat": 38.92121733333333, "type": "electric_scooter", "is_disabled": 0, "name": "5afb2678bdeb64a1c25d256a5feba5a6", "bike_id": "5afb2678bdeb64a1c25d256a5feba5a6", "fusion_lon": 0.0, "rental_uris": {"ios": "https://dc.lft.to/lastmile_qr_scan", "android": "https://dc.lft.to/lastmile_qr_scan"}, "is_reserved": 0, "fusion_lat": 0.0, "lon": -77.041932}, {"lat": 38.919759, "type": "electric_scooter", "is_disabled": 0, "name": "13ed13b609d1aa3533bb7c9baa1f4431", "bike_id": "13ed13b609d1aa3533bb7c9baa1f4431", "fusion_lon": 0.0, "rental_uris": {"ios": "https://dc.lft.to/lastmile_qr_scan", "android": "https://dc.lft.to/lastmile_qr_scan"}, "is_reserved": 0, "fusion_lat": 0.0, "lon": -77.027631}, {"lat": 38.903607666666666, "type": "electric_scooter", "is_disabled": 0, "name": "0e11c32530f7eb60cd2b3e0a5d97b8e4", "bike_id": "0e11c32530f7eb60cd2b3e0a5d97b8e4", "fusion_lon": 0.0, "rental_uris": {"ios": "https://dc.lft.to/lastmile_qr_scan", "android": "https://dc.lft.to/lastmile_qr_scan"}, "is_reserved": 0, "fusion_lat": 0.0, "lon": -77.04317483333334}, {"lat": 38.9310115, "type": "electric_scooter", "is_disabled": 0, "name": "0df6ea13a8b98cd3bfe2b18e1f2a8540", "bike_id": "0df6ea13a8b98cd3bfe2b18e1f2a8540", "fusion_lon": 0.0, "rental_uris": {"ios": "https://dc.lft.to/lastmile_qr_scan", "android": "https://dc.lft.to/lastmile_qr_scan"}, "is_reserved": 0, "fusion_lat": 0.0, "lon": -77.03092483333333}, {"lat": 38.91654116666667, "type": "electric_scooter", "is_disabled": 0, "name": "b0406291388a4de0387f9fd029ad3a1a", "bike_id": "b0406291388a4de0387f9fd029ad3a1a", "fusion_lon": 0.0, "rental_uris": {"ios": "https://dc.lft.to/lastmile_qr_scan", "android": "https://dc.lft.to/lastmile_qr_scan"}, "is_reserved": 0, "fusion_lat": 0.0, "lon": -77.0203275}, {"lat": 38.9508815, "type": "electric_scooter", "is_disabled": 0, "name": "e2c01e45c14fea961d1da184e4657707", "bike_id": "e2c01e45c14fea961d1da184e4657707", "fusion_lon": 0.0, "rental_uris": {"ios": "https://dc.lft.to/lastmile_qr_scan", "android": "https://dc.lft.to/lastmile_qr_scan"}, "is_reserved": 0, "fusion_lat": 0.0, "lon": -76.99791816666666}, {"lat": 38.884395, "type": "electric_scooter", "is_disabled": 0, "name": "f67dba66fdd588abda08a90c48c5d6a3", "bike_id": "f67dba66fdd588abda08a90c48c5d6a3", "fusion_lon": 0.0, "rental_uris": {"ios": "https://dc.lft.to/lastmile_qr_scan", "android": "https://dc.lft.to/lastmile_qr_scan"}, "is_reserved": 0, "fusion_lat": 0.0, "lon": -76.957478}, {"lat": 38.92364933333333, "type": "electric_scooter", "is_disabled": 0, "name": "8db904dd3449300f6453930a37235e00", "bike_id": "8db904dd3449300f6453930a37235e00", "fusion_lon": 0.0, "rental_uris": {"ios": "https://dc.lft.to/lastmile_qr_scan", "android": "https://dc.lft.to/lastmile_qr_scan"}, "is_reserved": 0, "fusion_lat": 0.0, "lon": -77.05027283333334}, {"lat": 38.911228, "type": "electric_scooter", "is_disabled": 0, "name": "90ff0fbfb10c9548ef110de75f2f3c44", "bike_id": "90ff0fbfb10c9548ef110de75f2f3c44", "fusion_lon": 0.0, "rental_uris": {"ios": "https://dc.lft.to/lastmile_qr_scan", "android": "https://dc.lft.to/lastmile_qr_scan"}, "is_reserved": 0, "fusion_lat": 0.0, "lon": -77.044553}, {"lat": 38.91703916666667, "type": "electric_scooter", "is_disabled": 0, "name": "0587d21363a540267b1ff2a4bdebfefd", "bike_id": "0587d21363a540267b1ff2a4bdebfefd", "fusion_lon": 0.0, "rental_uris": {"ios": "https://dc.lft.to/lastmile_qr_scan", "android": "https://dc.lft.to/lastmile_qr_scan"}, "is_reserved": 0, "fusion_lat": 0.0, "lon": -77.02315283333333}, {"lat": 38.892266166666666, "type": "electric_scooter", "is_disabled": 0, "name": "d4ee3751281f9c51469e598b0749c66c", "bike_id": "d4ee3751281f9c51469e598b0749c66c", "fusion_lon": 0.0, "rental_uris": {"ios": "https://dc.lft.to/lastmile_qr_scan", "android": "https://dc.lft.to/lastmile_qr_scan"}, "is_reserved": 0, "fusion_lat": 0.0, "lon": -77.04367366666666}, {"lat": 38.8073365, "type": "electric_bike", "is_disabled": 0, "name": "60fcb29152923d504f378b395ceb7fef", "bike_id": "60fcb29152923d504f378b395ceb7fef", "fusion_lon": 0.0, "rental_uris": {"ios": "https://dc.lft.to/lastmile_qr_scan", "android": "https://dc.lft.to/lastmile_qr_scan"}, "is_reserved": 0, "fusion_lat": 0.0, "lon": -76.99258883333333}, {"lat": 38.917114166666664, "type": "electric_scooter", "is_disabled": 0, "name": "ce11352c58d5962ab7c35bf23856321e", "bike_id": "ce11352c58d5962ab7c35bf23856321e", "fusion_lon": 0.0, "rental_uris": {"ios": "https://dc.lft.to/lastmile_qr_scan", "android": "https://dc.lft.to/lastmile_qr_scan"}, "is_reserved": 0, "fusion_lat": 0.0, "lon": -77.02554516666666}, {"lat": 38.8922535, "type": "electric_scooter", "is_disabled": 0, "name": "f2b5f0df0a9494ac32e44dfe889b9745", "bike_id": "f2b5f0df0a9494ac32e44dfe889b9745", "fusion_lon": 0.0, "rental_uris": {"ios": "https://dc.lft.to/lastmile_qr_scan", "android": "https://dc.lft.to/lastmile_qr_scan"}, "is_reserved": 0, "fusion_lat": 0.0, "lon": -77.04266583333333}, {"lat": 38.926867333333334, "type": "electric_scooter", "is_disabled": 0, "name": "48a9c29dcc6127dd98fecc0be946e382", "bike_id": "48a9c29dcc6127dd98fecc0be946e382", "fusion_lon": 0.0, "rental_uris": {"ios": "https://dc.lft.to/lastmile_qr_scan", "android": "https://dc.lft.to/lastmile_qr_scan"}, "is_reserved": 0, "fusion_lat": 0.0, "lon": -77.02964433333334}, {"lat": 38.90273283333333, "type": "electric_scooter", "is_disabled": 0, "name": "59dfbb344623a2aecfb65ef58563ebb6", "bike_id": "59dfbb344623a2aecfb65ef58563ebb6", "fusion_lon": 0.0, "rental_uris": {"ios": "https://dc.lft.to/lastmile_qr_scan", "android": "https://dc.lft.to/lastmile_qr_scan"}, "is_reserved": 0, "fusion_lat": 0.0, "lon": -77.03131966666666}, {"lat": 38.918066833333334, "type": "electric_scooter", "is_disabled": 0, "name": "1f61e2e91e31dcd543fe2f2d2ec9f1af", "bike_id": "1f61e2e91e31dcd543fe2f2d2ec9f1af", "fusion_lon": 0.0, "rental_uris": {"ios": "https://dc.lft.to/lastmile_qr_scan", "android": "https://dc.lft.to/lastmile_qr_scan"}, "is_reserved": 0, "fusion_lat": 0.0, "lon": -77.02488033333333}, {"lat": 38.89962766666667, "type": "electric_scooter", "is_disabled": 0, "name": "4835216b3c9e838aff3c9ef31656f86d", "bike_id": "4835216b3c9e838aff3c9ef31656f86d", "fusion_lon": 0.0, "rental_uris": {"ios": "https://dc.lft.to/lastmile_qr_scan", "android": "https://dc.lft.to/lastmile_qr_scan"}, "is_reserved": 0, "fusion_lat": 0.0, "lon": -77.04708666666667}, {"lat": 38.89726233333333, "type": "electric_scooter", "is_disabled": 0, "name": "2ff60fe2142a7928ed6de5d0949ccd9b", "bike_id": "2ff60fe2142a7928ed6de5d0949ccd9b", "fusion_lon": 0.0, "rental_uris": {"ios": "https://dc.lft.to/lastmile_qr_scan", "android": "https://dc.lft.to/lastmile_qr_scan"}, "is_reserved": 0, "fusion_lat": 0.0, "lon": -77.00212616666667}, {"lat": 38.846937833333335, "type": "electric_bike", "is_disabled": 0, "name": "0ab45870574e5341773405509059bd7f", "bike_id": "0ab45870574e5341773405509059bd7f", "fusion_lon": 0.0, "rental_uris": {"ios": "https://dc.lft.to/lastmile_qr_scan", "android": "https://dc.lft.to/lastmile_qr_scan"}, "is_reserved": 0, "fusion_lat": 0.0, "lon": -76.996266}, {"lat": 38.88280783333333, "type": "electric_bike", "is_disabled": 0, "name": "049c931df499ac61d77da6e417a4837a", "bike_id": "049c931df499ac61d77da6e417a4837a", "fusion_lon": 0.0, "rental_uris": {"ios": "https://dc.lft.to/lastmile_qr_scan", "android": "https://dc.lft.to/lastmile_qr_scan"}, "is_reserved": 0, "fusion_lat": 0.0, "lon": -76.93239733333333}, {"lat": 38.909162333333335, "type": "electric_scooter", "is_disabled": 0, "name": "99c9d8089ff5c3aa9d09dfc3df7ffb3c", "bike_id": "99c9d8089ff5c3aa9d09dfc3df7ffb3c", "fusion_lon": 0.0, "rental_uris": {"ios": "https://dc.lft.to/lastmile_qr_scan", "android": "https://dc.lft.to/lastmile_qr_scan"}, "is_reserved": 0, "fusion_lat": 0.0, "lon": -77.07271966666667}, {"lat": 38.90307466666667, "type": "electric_scooter", "is_disabled": 0, "name": "296813dcfe8d7cd3e89ddaff77d640c3", "bike_id": "296813dcfe8d7cd3e89ddaff77d640c3", "fusion_lon": 0.0, "rental_uris": {"ios": "https://dc.lft.to/lastmile_qr_scan", "android": "https://dc.lft.to/lastmile_qr_scan"}, "is_reserved": 0, "fusion_lat": 0.0, "lon": -77.04331116666667}, {"lat": 38.896567166666664, "type": "electric_scooter", "is_disabled": 0, "name": "27b6b567c56544eed13fd5256af15cf3", "bike_id": "27b6b567c56544eed13fd5256af15cf3", "fusion_lon": 0.0, "rental_uris": {"ios": "https://dc.lft.to/lastmile_qr_scan", "android": "https://dc.lft.to/lastmile_qr_scan"}, "is_reserved": 0, "fusion_lat": 0.0, "lon": -77.050238}, {"lat": 38.88496133333334, "type": "electric_scooter", "is_disabled": 0, "name": "4b5a2f3c145b811664c4619937dbf1f5", "bike_id": "4b5a2f3c145b811664c4619937dbf1f5", "fusion_lon": 0.0, "rental_uris": {"ios": "https://dc.lft.to/lastmile_qr_scan", "android": "https://dc.lft.to/lastmile_qr_scan"}, "is_reserved": 0, "fusion_lat": 0.0, "lon": -77.02553583333334}, {"lat": 38.91880416666667, "type": "electric_bike", "is_disabled": 0, "name": "edea70f9640a6fd11de923958de122f6", "bike_id": "edea70f9640a6fd11de923958de122f6", "fusion_lon": 0.0, "rental_uris": {"ios": "https://dc.lft.to/lastmile_qr_scan", "android": "https://dc.lft.to/lastmile_qr_scan"}, "is_reserved": 0, "fusion_lat": 0.0, "lon": -76.96436083333333}, {"lat": 38.884948666666666, "type": "electric_scooter", "is_disabled": 0, "name": "0280e3a56f03f7c572fdbc936592bdf6", "bike_id": "0280e3a56f03f7c572fdbc936592bdf6", "fusion_lon": 0.0, "rental_uris": {"ios": "https://dc.lft.to/lastmile_qr_scan", "android": "https://dc.lft.to/lastmile_qr_scan"}, "is_reserved": 0, "fusion_lat": 0.0, "lon": -77.00712383333334}, {"lat": 38.89723433333333, "type": "electric_scooter", "is_disabled": 0, "name": "7a9c81e145819ca7868986fa48ded847", "bike_id": "7a9c81e145819ca7868986fa48ded847", "fusion_lon": 0.0, "rental_uris": {"ios": "https://dc.lft.to/lastmile_qr_scan", "android": "https://dc.lft.to/lastmile_qr_scan"}, "is_reserved": 0, "fusion_lat": 0.0, "lon": -77.03189083333334}, {"lat": 38.92232683333334, "type": "electric_scooter", "is_disabled": 0, "name": "a55b48d1a744313349198ccd0c3dc775", "bike_id": "a55b48d1a744313349198ccd0c3dc775", "fusion_lon": 0.0, "rental_uris": {"ios": "https://dc.lft.to/lastmile_qr_scan", "android": "https://dc.lft.to/lastmile_qr_scan"}, "is_reserved": 0, "fusion_lat": 0.0, "lon": -77.0211125}, {"lat": 38.8924505, "type": "electric_scooter", "is_disabled": 0, "name": "a93d20551263f5a1d1b5d33ccb01e51c", "bike_id": "a93d20551263f5a1d1b5d33ccb01e51c", "fusion_lon": 0.0, "rental_uris": {"ios": "https://dc.lft.to/lastmile_qr_scan", "android": "https://dc.lft.to/lastmile_qr_scan"}, "is_reserved": 0, "fusion_lat": 0.0, "lon": -77.031748}, {"lat": 38.92254616666666, "type": "electric_scooter", "is_disabled": 0, "name": "e0413474f389449bae60e0ee6a5b6926", "bike_id": "e0413474f389449bae60e0ee6a5b6926", "fusion_lon": 0.0, "rental_uris": {"ios": "https://dc.lft.to/lastmile_qr_scan", "android": "https://dc.lft.to/lastmile_qr_scan"}, "is_reserved": 0, "fusion_lat": 0.0, "lon": -77.0352065}, {"lat": 38.923202833333335, "type": "electric_scooter", "is_disabled": 0, "name": "cc85ff6bcbf99660047e228d3f5720ac", "bike_id": "cc85ff6bcbf99660047e228d3f5720ac", "fusion_lon": 0.0, "rental_uris": {"ios": "https://dc.lft.to/lastmile_qr_scan", "android": "https://dc.lft.to/lastmile_qr_scan"}, "is_reserved": 0, "fusion_lat": 0.0, "lon": -77.01951066666666}, {"lat": 38.94292216666667, "type": "electric_scooter", "is_disabled": 0, "name": "51cb9893253330b2d6fdf78e2b21cd27", "bike_id": "51cb9893253330b2d6fdf78e2b21cd27", "fusion_lon": 0.0, "rental_uris": {"ios": "https://dc.lft.to/lastmile_qr_scan", "android": "https://dc.lft.to/lastmile_qr_scan"}, "is_reserved": 0, "fusion_lat": 0.0, "lon": -77.02175483333333}, {"lat": 38.89214666666667, "type": "electric_scooter", "is_disabled": 0, "name": "e848f69ec85612f486022db73480a613", "bike_id": "e848f69ec85612f486022db73480a613", "fusion_lon": 0.0, "rental_uris": {"ios": "https://dc.lft.to/lastmile_qr_scan", "android": "https://dc.lft.to/lastmile_qr_scan"}, "is_reserved": 0, "fusion_lat": 0.0, "lon": -77.031465}, {"lat": 38.911796833333334, "type": "electric_scooter", "is_disabled": 0, "name": "9127c6722881bf35e672229be1c3fb49", "bike_id": "9127c6722881bf35e672229be1c3fb49", "fusion_lon": 0.0, "rental_uris": {"ios": "https://dc.lft.to/lastmile_qr_scan", "android": "https://dc.lft.to/lastmile_qr_scan"}, "is_reserved": 0, "fusion_lat": 0.0, "lon": -77.029535}, {"lat": 38.9223585, "type": "electric_scooter", "is_disabled": 0, "name": "c0dea815b998eb2ba94915ba0eab5ee3", "bike_id": "c0dea815b998eb2ba94915ba0eab5ee3", "fusion_lon": 0.0, "rental_uris": {"ios": "https://dc.lft.to/lastmile_qr_scan", "android": "https://dc.lft.to/lastmile_qr_scan"}, "is_reserved": 0, "fusion_lat": 0.0, "lon": -77.021385}, {"lat": 38.9264785, "type": "electric_scooter", "is_disabled": 0, "name": "61807df0fd32febeffc17a74650eef71", "bike_id": "61807df0fd32febeffc17a74650eef71", "fusion_lon": 0.0, "rental_uris": {"ios": "https://dc.lft.to/lastmile_qr_scan", "android": "https://dc.lft.to/lastmile_qr_scan"}, "is_reserved": 0, "fusion_lat": 0.0, "lon": -77.02506983333333}, {"lat": 38.931143, "type": "electric_scooter", "is_disabled": 0, "name": "2eda8258c60fc277957b0e9ba7119696", "bike_id": "2eda8258c60fc277957b0e9ba7119696", "fusion_lon": 0.0, "rental_uris": {"ios": "https://dc.lft.to/lastmile_qr_scan", "android": "https://dc.lft.to/lastmile_qr_scan"}, "is_reserved": 0, "fusion_lat": 0.0, "lon": -77.03055016666667}, {"lat": 38.8988285, "type": "electric_scooter", "is_disabled": 0, "name": "1631e5e5a05682064caa10a0c2951345", "bike_id": "1631e5e5a05682064caa10a0c2951345", "fusion_lon": 0.0, "rental_uris": {"ios": "https://dc.lft.to/lastmile_qr_scan", "android": "https://dc.lft.to/lastmile_qr_scan"}, "is_reserved": 0, "fusion_lat": 0.0, "lon": -76.98839116666667}, {"lat": 38.897117, "type": "electric_scooter", "is_disabled": 0, "name": "64a1d0900592e825285fd2e7116511e8", "bike_id": "64a1d0900592e825285fd2e7116511e8", "fusion_lon": 0.0, "rental_uris": {"ios": "https://dc.lft.to/lastmile_qr_scan", "android": "https://dc.lft.to/lastmile_qr_scan"}, "is_reserved": 0, "fusion_lat": 0.0, "lon": -76.99116266666667}, {"lat": 38.903644, "type": "electric_scooter", "is_disabled": 0, "name": "d0e3c2a31d0512cd1dd209cbc19e7456", "bike_id": "d0e3c2a31d0512cd1dd209cbc19e7456", "fusion_lon": 0.0, "rental_uris": {"ios": "https://dc.lft.to/lastmile_qr_scan", "android": "https://dc.lft.to/lastmile_qr_scan"}, "is_reserved": 0, "fusion_lat": 0.0, "lon": -77.03923566666667}, {"lat": 38.932466166666664, "type": "electric_scooter", "is_disabled": 0, "name": "f124a1eb411f8b2437bdb585cbf4ad4a", "bike_id": "f124a1eb411f8b2437bdb585cbf4ad4a", "fusion_lon": 0.0, "rental_uris": {"ios": "https://dc.lft.to/lastmile_qr_scan", "android": "https://dc.lft.to/lastmile_qr_scan"}, "is_reserved": 0, "fusion_lat": 0.0, "lon": -77.03279266666667}, {"lat": 38.932979333333336, "type": "electric_scooter", "is_disabled": 0, "name": "e1c7e200b708f68997caaded93896887", "bike_id": "e1c7e200b708f68997caaded93896887", "fusion_lon": 0.0, "rental_uris": {"ios": "https://dc.lft.to/lastmile_qr_scan", "android": "https://dc.lft.to/lastmile_qr_scan"}, "is_reserved": 0, "fusion_lat": 0.0, "lon": -77.02846833333334}, {"lat": 38.902202833333334, "type": "electric_scooter", "is_disabled": 0, "name": "f6aff39cc66b4f44e25fb035cee1bd91", "bike_id": "f6aff39cc66b4f44e25fb035cee1bd91", "fusion_lon": 0.0, "rental_uris": {"ios": "https://dc.lft.to/lastmile_qr_scan", "android": "https://dc.lft.to/lastmile_qr_scan"}, "is_reserved": 0, "fusion_lat": 0.0, "lon": -77.03173066666666}, {"lat": 38.907723833333336, "type": "electric_scooter", "is_disabled": 0, "name": "f1ee553980108161188c608b90baa502", "bike_id": "f1ee553980108161188c608b90baa502", "fusion_lon": 0.0, "rental_uris": {"ios": "https://dc.lft.to/lastmile_qr_scan", "android": "https://dc.lft.to/lastmile_qr_scan"}, "is_reserved": 0, "fusion_lat": 0.0, "lon": -77.02459183333333}, {"lat": 38.871858833333334, "type": "electric_scooter", "is_disabled": 0, "name": "6aca688fbb16850d87db3fa12ed4edc2", "bike_id": "6aca688fbb16850d87db3fa12ed4edc2", "fusion_lon": 0.0, "rental_uris": {"ios": "https://dc.lft.to/lastmile_qr_scan", "android": "https://dc.lft.to/lastmile_qr_scan"}, "is_reserved": 0, "fusion_lat": 0.0, "lon": -77.0064695}, {"lat": 38.9359165, "type": "electric_scooter", "is_disabled": 0, "name": "bfad300c7df77ea8961d4141fb28e3b7", "bike_id": "bfad300c7df77ea8961d4141fb28e3b7", "fusion_lon": 0.0, "rental_uris": {"ios": "https://dc.lft.to/lastmile_qr_scan", "android": "https://dc.lft.to/lastmile_qr_scan"}, "is_reserved": 0, "fusion_lat": 0.0, "lon": -77.05845416666666}, {"lat": 38.90226783333333, "type": "electric_scooter", "is_disabled": 0, "name": "2f9400e5ddf5e8113ee0504d4f15e9a1", "bike_id": "2f9400e5ddf5e8113ee0504d4f15e9a1", "fusion_lon": 0.0, "rental_uris": {"ios": "https://dc.lft.to/lastmile_qr_scan", "android": "https://dc.lft.to/lastmile_qr_scan"}, "is_reserved": 0, "fusion_lat": 0.0, "lon": -77.0435165}, {"lat": 38.876838, "type": "electric_scooter", "is_disabled": 0, "name": "174189e6654317d3bd07870f8d81cf76", "bike_id": "174189e6654317d3bd07870f8d81cf76", "fusion_lon": 0.0, "rental_uris": {"ios": "https://dc.lft.to/lastmile_qr_scan", "android": "https://dc.lft.to/lastmile_qr_scan"}, "is_reserved": 0, "fusion_lat": 0.0, "lon": -77.0202485}, {"lat": 38.93504983333333, "type": "electric_scooter", "is_disabled": 0, "name": "7308214ce3e98a3aa85d14e12f8f1dee", "bike_id": "7308214ce3e98a3aa85d14e12f8f1dee", "fusion_lon": 0.0, "rental_uris": {"ios": "https://dc.lft.to/lastmile_qr_scan", "android": "https://dc.lft.to/lastmile_qr_scan"}, "is_reserved": 0, "fusion_lat": 0.0, "lon": -77.03718733333334}, {"lat": 38.92214666666667, "type": "electric_scooter", "is_disabled": 0, "name": "205f9a74575ea310aec7911cf0dc2416", "bike_id": "205f9a74575ea310aec7911cf0dc2416", "fusion_lon": 0.0, "rental_uris": {"ios": "https://dc.lft.to/lastmile_qr_scan", "android": "https://dc.lft.to/lastmile_qr_scan"}, "is_reserved": 0, "fusion_lat": 0.0, "lon": -77.0203475}, {"lat": 38.903936333333334, "type": "electric_scooter", "is_disabled": 0, "name": "a60bad72991da3a740859fefae99d7fc", "bike_id": "a60bad72991da3a740859fefae99d7fc", "fusion_lon": 0.0, "rental_uris": {"ios": "https://dc.lft.to/lastmile_qr_scan", "android": "https://dc.lft.to/lastmile_qr_scan"}, "is_reserved": 0, "fusion_lat": 0.0, "lon": -76.98105933333333}, {"lat": 38.8940445, "type": "electric_bike", "is_disabled": 0, "name": "57451bac0d9b1c5d6b1c8dd80a44d5f4", "bike_id": "57451bac0d9b1c5d6b1c8dd80a44d5f4", "fusion_lon": 0.0, "rental_uris": {"ios": "https://dc.lft.to/lastmile_qr_scan", "android": "https://dc.lft.to/lastmile_qr_scan"}, "is_reserved": 0, "fusion_lat": 0.0, "lon": -76.86849233333334}, {"lat": 38.902504666666665, "type": "electric_scooter", "is_disabled": 0, "name": "483ce84a3bc42db9e7e48d9d5499f95b", "bike_id": "483ce84a3bc42db9e7e48d9d5499f95b", "fusion_lon": 0.0, "rental_uris": {"ios": "https://dc.lft.to/lastmile_qr_scan", "android": "https://dc.lft.to/lastmile_qr_scan"}, "is_reserved": 0, "fusion_lat": 0.0, "lon": -77.03273516666667}, {"lat": 38.9211375, "type": "electric_scooter", "is_disabled": 0, "name": "5149b4ecd782d65d3033efffdd2a74aa", "bike_id": "5149b4ecd782d65d3033efffdd2a74aa", "fusion_lon": 0.0, "rental_uris": {"ios": "https://dc.lft.to/lastmile_qr_scan", "android": "https://dc.lft.to/lastmile_qr_scan"}, "is_reserved": 0, "fusion_lat": 0.0, "lon": -77.03235366666667}, {"lat": 38.9021905, "type": "electric_scooter", "is_disabled": 0, "name": "318d26fedf4b701af1d2a3a25fb7df39", "bike_id": "318d26fedf4b701af1d2a3a25fb7df39", "fusion_lon": 0.0, "rental_uris": {"ios": "https://dc.lft.to/lastmile_qr_scan", "android": "https://dc.lft.to/lastmile_qr_scan"}, "is_reserved": 0, "fusion_lat": 0.0, "lon": -77.023682}, {"lat": 38.920171833333335, "type": "electric_scooter", "is_disabled": 0, "name": "f88e503ea0e779fa3ad391389531caaf", "bike_id": "f88e503ea0e779fa3ad391389531caaf", "fusion_lon": 0.0, "rental_uris": {"ios": "https://dc.lft.to/lastmile_qr_scan", "android": "https://dc.lft.to/lastmile_qr_scan"}, "is_reserved": 0, "fusion_lat": 0.0, "lon": -77.044014}, {"lat": 38.89641733333333, "type": "electric_scooter", "is_disabled": 0, "name": "496262147292c121031252dd4513c37b", "bike_id": "496262147292c121031252dd4513c37b", "fusion_lon": 0.0, "rental_uris": {"ios": "https://dc.lft.to/lastmile_qr_scan", "android": "https://dc.lft.to/lastmile_qr_scan"}, "is_reserved": 0, "fusion_lat": 0.0, "lon": -77.021909}, {"lat": 38.895638166666664, "type": "electric_bike", "is_disabled": 0, "name": "a3cdc24d666a948b47f8bfb7a8defee4", "bike_id": "a3cdc24d666a948b47f8bfb7a8defee4", "fusion_lon": 0.0, "rental_uris": {"ios": "https://dc.lft.to/lastmile_qr_scan", "android": "https://dc.lft.to/lastmile_qr_scan"}, "is_reserved": 0, "fusion_lat": 0.0, "lon": -77.1272915}, {"lat": 38.916265833333334, "type": "electric_scooter", "is_disabled": 0, "name": "5b17e9baa36c84e92ecd242918922d0e", "bike_id": "5b17e9baa36c84e92ecd242918922d0e", "fusion_lon": 0.0, "rental_uris": {"ios": "https://dc.lft.to/lastmile_qr_scan", "android": "https://dc.lft.to/lastmile_qr_scan"}, "is_reserved": 0, "fusion_lat": 0.0, "lon": -77.035039}, {"lat": 38.8874485, "type": "electric_scooter", "is_disabled": 0, "name": "e38681fa1066ae9fca42edfe587ff156", "bike_id": "e38681fa1066ae9fca42edfe587ff156", "fusion_lon": 0.0, "rental_uris": {"ios": "https://dc.lft.to/lastmile_qr_scan", "android": "https://dc.lft.to/lastmile_qr_scan"}, "is_reserved": 0, "fusion_lat": 0.0, "lon": -77.02571516666667}, {"lat": 38.89480316666667, "type": "electric_scooter", "is_disabled": 0, "name": "8f19dea82689646933dba62a73e56acc", "bike_id": "8f19dea82689646933dba62a73e56acc", "fusion_lon": 0.0, "rental_uris": {"ios": "https://dc.lft.to/lastmile_qr_scan", "android": "https://dc.lft.to/lastmile_qr_scan"}, "is_reserved": 0, "fusion_lat": 0.0, "lon": -77.027968}, {"lat": 38.92801266666667, "type": "electric_scooter", "is_disabled": 0, "name": "77593764f0275dd8526ed6efd04611cf", "bike_id": "77593764f0275dd8526ed6efd04611cf", "fusion_lon": 0.0, "rental_uris": {"ios": "https://dc.lft.to/lastmile_qr_scan", "android": "https://dc.lft.to/lastmile_qr_scan"}, "is_reserved": 0, "fusion_lat": 0.0, "lon": -77.01560383333333}, {"lat": 38.89886683333334, "type": "electric_scooter", "is_disabled": 0, "name": "b98a425a6be1db79fd848d77792dc9d8", "bike_id": "b98a425a6be1db79fd848d77792dc9d8", "fusion_lon": 0.0, "rental_uris": {"ios": "https://dc.lft.to/lastmile_qr_scan", "android": "https://dc.lft.to/lastmile_qr_scan"}, "is_reserved": 0, "fusion_lat": 0.0, "lon": -77.02972366666667}, {"lat": 38.9001295, "type": "electric_scooter", "is_disabled": 0, "name": "8b9f891580288f09879fa0c2f66b776c", "bike_id": "8b9f891580288f09879fa0c2f66b776c", "fusion_lon": 0.0, "rental_uris": {"ios": "https://dc.lft.to/lastmile_qr_scan", "android": "https://dc.lft.to/lastmile_qr_scan"}, "is_reserved": 0, "fusion_lat": 0.0, "lon": -77.02210233333334}, {"lat": 38.879996, "type": "electric_scooter", "is_disabled": 0, "name": "1496345707ae8bf7e2b5ea8574930db4", "bike_id": "1496345707ae8bf7e2b5ea8574930db4", "fusion_lon": 0.0, "rental_uris": {"ios": "https://dc.lft.to/lastmile_qr_scan", "android": "https://dc.lft.to/lastmile_qr_scan"}, "is_reserved": 0, "fusion_lat": 0.0, "lon": -76.98543633333334}, {"lat": 38.89234183333333, "type": "electric_scooter", "is_disabled": 0, "name": "eb8ec204e4751d69fca303a3fec40b32", "bike_id": "eb8ec204e4751d69fca303a3fec40b32", "fusion_lon": 0.0, "rental_uris": {"ios": "https://dc.lft.to/lastmile_qr_scan", "android": "https://dc.lft.to/lastmile_qr_scan"}, "is_reserved": 0, "fusion_lat": 0.0, "lon": -77.0487525}, {"lat": 38.89899066666667, "type": "electric_scooter", "is_disabled": 0, "name": "a80cd4c9d080bab62db59e2218ed952f", "bike_id": "a80cd4c9d080bab62db59e2218ed952f", "fusion_lon": 0.0, "rental_uris": {"ios": "https://dc.lft.to/lastmile_qr_scan", "android": "https://dc.lft.to/lastmile_qr_scan"}, "is_reserved": 0, "fusion_lat": 0.0, "lon": -77.03952583333333}, {"lat": 38.87462083333333, "type": "electric_scooter", "is_disabled": 0, "name": "5533b4fa5d69e5368abc6bdf98da178a", "bike_id": "5533b4fa5d69e5368abc6bdf98da178a", "fusion_lon": 0.0, "rental_uris": {"ios": "https://dc.lft.to/lastmile_qr_scan", "android": "https://dc.lft.to/lastmile_qr_scan"}, "is_reserved": 0, "fusion_lat": 0.0, "lon": -77.00944016666666}, {"lat": 38.898865, "type": "electric_scooter", "is_disabled": 0, "name": "03adc5bebd272154fc3dfe79e4575f07", "bike_id": "03adc5bebd272154fc3dfe79e4575f07", "fusion_lon": 0.0, "rental_uris": {"ios": "https://dc.lft.to/lastmile_qr_scan", "android": "https://dc.lft.to/lastmile_qr_scan"}, "is_reserved": 0, "fusion_lat": 0.0, "lon": -76.93175133333334}, {"lat": 38.889882666666665, "type": "electric_scooter", "is_disabled": 0, "name": "309f9605c9e23b4ba0ec6bdd0fd906c7", "bike_id": "309f9605c9e23b4ba0ec6bdd0fd906c7", "fusion_lon": 0.0, "rental_uris": {"ios": "https://dc.lft.to/lastmile_qr_scan", "android": "https://dc.lft.to/lastmile_qr_scan"}, "is_reserved": 0, "fusion_lat": 0.0, "lon": -76.92108666666667}, {"lat": 38.89219083333333, "type": "electric_scooter", "is_disabled": 0, "name": "2ce702fe40446825b68047ab1939a704", "bike_id": "2ce702fe40446825b68047ab1939a704", "fusion_lon": 0.0, "rental_uris": {"ios": "https://dc.lft.to/lastmile_qr_scan", "android": "https://dc.lft.to/lastmile_qr_scan"},