{"data": {"bikes": [{"lon": -77.02569516666667, "rental_uris": {"android": "https://dc.lft.to/lastmile_qr_scan", "ios": "https://dc.lft.to/lastmile_qr_scan"}, "fusion_lon": 0.0, "is_reserved": 0, "is_disabled": 0, "fusion_lat": 0.0, "type": "electric_scooter", "name": "347a0d683bcd0d88982bfd497fdb5a73", "lat": 38.8874195, "bike_id": "347a0d683bcd0d88982bfd497fdb5a73"}, {"lon": -77.03839933333333, "rental_uris": {"android": "https://dc.lft.to/lastmile_qr_scan", "ios": "https://dc.lft.to/lastmile_qr_scan"}, "fusion_lon": 0.0, "is_reserved": 0, "is_disabled": 0, "fusion_lat": 0.0, "type": "electric_scooter", "name": "71f9a97eeeaed7c8d779c03e7031891b", "lat": 38.90774416666667, "bike_id": "71f9a97eeeaed7c8d779c03e7031891b"}, {"lon": -77.0233965, "rental_uris": {"android": "https://dc.lft.to/lastmile_qr_scan", "ios": "https://dc.lft.to/lastmile_qr_scan"}, "fusion_lon": 0.0, "is_reserved": 0, "is_disabled": 0, "fusion_lat": 0.0, "type": "electric_scooter", "name": "610cec1e1f86207496b56fcff7eb1d6e", "lat": 38.94501, "bike_id": "610cec1e1f86207496b56fcff7eb1d6e"}, {"lon": -77.017426, "rental_uris": {"android": "https://dc.lft.to/lastmile_qr_scan", "ios": "https://dc.lft.to/lastmile_qr_scan"}, "fusion_lon": 0.0, "is_reserved": 0, "is_disabled": 0, "fusion_lat": 0.0, "type": "electric_scooter", "name": "34dc243594975304039269048036bd6e", "lat": 38.97514833333334, "bike_id": "34dc243594975304039269048036bd6e"}, {"lon": -77.047001, "rental_uris": {"android": "https://dc.lft.to/lastmile_qr_scan", "ios": "https://dc.lft.to/lastmile_qr_scan"}, "fusion_lon": 0.0, "is_reserved": 0, "is_disabled": 0, "fusion_lat": 0.0, "type": "electric_scooter", "name": "f9f32cd423a627ce74702c1d8e3e0ee3", "lat": 38.909394, "bike_id": "f9f32cd423a627ce74702c1d8e3e0ee3"}, {"lon": -77.05116466666666, "rental_uris": {"android": "https://dc.lft.to/lastmile_qr_scan", "ios": "https://dc.lft.to/lastmile_qr_scan"}, "fusion_lon": 0.0, "is_reserved": 0, "is_disabled": 0, "fusion_lat": 0.0, "type": "electric_bike", "name": "3179aa015cb75e4da89454ea5f249701", "lat": 38.813301333333335, "bike_id": "3179aa015cb75e4da89454ea5f249701"}, {"lon": -76.97445183333333, "rental_uris": {"android": "https://dc.lft.to/lastmile_qr_scan", "ios": "https://dc.lft.to/lastmile_qr_scan"}, "fusion_lon": 0.0, "is_reserved": 0, "is_disabled": 0, "fusion_lat": 0.0, "type": "electric_scooter", "name": "c624f270fc802027d1205216ce243ac8", "lat": 38.902613333333335, "bike_id": "c624f270fc802027d1205216ce243ac8"}, {"lon": -77.03337933333333, "rental_uris": {"android": "https://dc.lft.to/lastmile_qr_scan", "ios": "https://dc.lft.to/lastmile_qr_scan"}, "fusion_lon": 0.0, "is_reserved": 0, "is_disabled": 0, "fusion_lat": 0.0, "type": "electric_scooter", "name": "b9991b394ad66f6704011d6dd40aadcd", "lat": 38.892229666666665, "bike_id": "b9991b394ad66f6704011d6dd40aadcd"}, {"lon": -77.0346615, "rental_uris": {"android": "https://dc.lft.to/lastmile_qr_scan", "ios": "https://dc.lft.to/lastmile_qr_scan"}, "fusion_lon": 0.0, "is_reserved": 0, "is_disabled": 0, "fusion_lat": 0.0, "type": "electric_scooter", "name": "7bd989ad3ddd76e1d3f3b123eb5cfe95", "lat": 38.90823566666667, "bike_id": "7bd989ad3ddd76e1d3f3b123eb5cfe95"}, {"lon": -77.04666833333333, "rental_uris": {"android": "https://dc.lft.to/lastmile_qr_scan", "ios": "https://dc.lft.to/lastmile_qr_scan"}, "fusion_lon": 0.0, "is_reserved": 0, "is_disabled": 0, "fusion_lat": 0.0, "type": "electric_scooter", "name": "48148e6e76f92981e42f25102ef2ae60", "lat": 38.89501416666667, "bike_id": "48148e6e76f92981e42f25102ef2ae60"}, {"lon": -76.99450133333333, "rental_uris": {"android": "https://dc.lft.to/lastmile_qr_scan", "ios": "https://dc.lft.to/lastmile_qr_scan"}, "fusion_lon": 0.0, "is_reserved": 0, "is_disabled": 0, "fusion_lat": 0.0, "type": "electric_scooter", "name": "3e6a3a245e51ee92438987c7ecf0ac85", "lat": 38.90992383333333, "bike_id": "3e6a3a245e51ee92438987c7ecf0ac85"}, {"lon": -77.0328785, "rental_uris": {"android": "https://dc.lft.to/lastmile_qr_scan", "ios": "https://dc.lft.to/lastmile_qr_scan"}, "fusion_lon": 0.0, "is_reserved": 0, "is_disabled": 0, "fusion_lat": 0.0, "type": "electric_scooter", "name": "2abf456a6da70763d35a549526c6c7ba", "lat": 38.92745466666667, "bike_id": "2abf456a6da70763d35a549526c6c7ba"}, {"lon": -77.021518, "rental_uris": {"android": "https://dc.lft.to/lastmile_qr_scan", "ios": "https://dc.lft.to/lastmile_qr_scan"}, "fusion_lon": 0.0, "is_reserved": 0, "is_disabled": 0, "fusion_lat": 0.0, "type": "electric_scooter", "name": "1ed138ad4289977553e7b7f71c62128c", "lat": 38.87927416666667, "bike_id": "1ed138ad4289977553e7b7f71c62128c"}, {"lon": -77.06946416666666, "rental_uris": {"android": "https://dc.lft.to/lastmile_qr_scan", "ios": "https://dc.lft.to/lastmile_qr_scan"}, "fusion_lon": 0.0, "is_reserved": 0, "is_disabled": 0, "fusion_lat": 0.0, "type": "electric_bike", "name": "bbf11440abd708f1744a3bdcebb25f98", "lat": 38.836266333333334, "bike_id": "bbf11440abd708f1744a3bdcebb25f98"}, {"lon": -77.00336683333333, "rental_uris": {"android": "https://dc.lft.to/lastmile_qr_scan", "ios": "https://dc.lft.to/lastmile_qr_scan"}, "fusion_lon": 0.0, "is_reserved": 0, "is_disabled": 0, "fusion_lat": 0.0, "type": "electric_scooter", "name": "ca9bee2f0cc5ff3a0f6f2885d92b3138", "lat": 38.89616316666667, "bike_id": "ca9bee2f0cc5ff3a0f6f2885d92b3138"}, {"lon": -77.04380116666667, "rental_uris": {"android": "https://dc.lft.to/lastmile_qr_scan", "ios": "https://dc.lft.to/lastmile_qr_scan"}, "fusion_lon": 0.0, "is_reserved": 0, "is_disabled": 0, "fusion_lat": 0.0, "type": "electric_scooter", "name": "027c9b03f74ff3e4bea20f4258fd2e77", "lat": 38.901322, "bike_id": "027c9b03f74ff3e4bea20f4258fd2e77"}, {"lon": -77.04487466666667, "rental_uris": {"android": "https://dc.lft.to/lastmile_qr_scan", "ios": "https://dc.lft.to/lastmile_qr_scan"}, "fusion_lon": 0.0, "is_reserved": 0, "is_disabled": 0, "fusion_lat": 0.0, "type": "electric_scooter", "name": "a426387bf472864c952a62261adf0478", "lat": 38.90884916666667, "bike_id": "a426387bf472864c952a62261adf0478"}, {"lon": -77.0282745, "rental_uris": {"android": "https://dc.lft.to/lastmile_qr_scan", "ios": "https://dc.lft.to/lastmile_qr_scan"}, "fusion_lon": 0.0, "is_reserved": 0, "is_disabled": 0, "fusion_lat": 0.0, "type": "electric_scooter", "name": "5b19942b90849bd4bee1c7683845b9db", "lat": 38.90263066666667, "bike_id": "5b19942b90849bd4bee1c7683845b9db"}, {"lon": -77.04872866666666, "rental_uris": {"android": "https://dc.lft.to/lastmile_qr_scan", "ios": "https://dc.lft.to/lastmile_qr_scan"}, "fusion_lon": 0.0, "is_reserved": 0, "is_disabled": 0, "fusion_lat": 0.0, "type": "electric_scooter", "name": "29a258d04116da19abfdf2d0b2a85a3f", "lat": 38.90375866666667, "bike_id": "29a258d04116da19abfdf2d0b2a85a3f"}, {"lon": -77.01078433333333, "rental_uris": {"android": "https://dc.lft.to/lastmile_qr_scan", "ios": "https://dc.lft.to/lastmile_qr_scan"}, "fusion_lon": 0.0, "is_reserved": 0, "is_disabled": 0, "fusion_lat": 0.0, "type": "electric_scooter", "name": "ddc6a8abe228b00f80f941f464684713", "lat": 38.91413566666667, "bike_id": "ddc6a8abe228b00f80f941f464684713"}, {"lon": -77.0315465, "rental_uris": {"android": "https://dc.lft.to/lastmile_qr_scan", "ios": "https://dc.lft.to/lastmile_qr_scan"}, "fusion_lon": 0.0, "is_reserved": 0, "is_disabled": 0, "fusion_lat": 0.0, "type": "electric_scooter", "name": "da74adaa343334cb696ca84ff16cf66e", "lat": 38.90488633333333, "bike_id": "da74adaa343334cb696ca84ff16cf66e"}, {"lon": -77.00320116666667, "rental_uris": {"android": "https://dc.lft.to/lastmile_qr_scan", "ios": "https://dc.lft.to/lastmile_qr_scan"}, "fusion_lon": 0.0, "is_reserved": 0, "is_disabled": 0, "fusion_lat": 0.0, "type": "electric_scooter", "name": "38d4e6056ddc24100b25039a6df7f068", "lat": 38.87649183333333, "bike_id": "38d4e6056ddc24100b25039a6df7f068"}, {"lon": -77.02198216666666, "rental_uris": {"android": "https://dc.lft.to/lastmile_qr_scan", "ios": "https://dc.lft.to/lastmile_qr_scan"}, "fusion_lon": 0.0, "is_reserved": 0, "is_disabled": 0, "fusion_lat": 0.0, "type": "electric_scooter", "name": "8282d8d187f687554a3da733d1328de6", "lat": 38.905471166666665, "bike_id": "8282d8d187f687554a3da733d1328de6"}, {"lon": -77.0277985, "rental_uris": {"android": "https://dc.lft.to/lastmile_qr_scan", "ios": "https://dc.lft.to/lastmile_qr_scan"}, "fusion_lon": 0.0, "is_reserved": 0, "is_disabled": 0, "fusion_lat": 0.0, "type": "electric_scooter", "name": "0ee7ca8ae069639903b84a4fe7316422", "lat": 38.892167, "bike_id": "0ee7ca8ae069639903b84a4fe7316422"}, {"lon": -77.03193683333333, "rental_uris": {"android": "https://dc.lft.to/lastmile_qr_scan", "ios": "https://dc.lft.to/lastmile_qr_scan"}, "fusion_lon": 0.0, "is_reserved": 0, "is_disabled": 0, "fusion_lat": 0.0, "type": "electric_scooter", "name": "f5390bb1b12d4ffc7ae65f04604a2243", "lat": 38.900680666666666, "bike_id": "f5390bb1b12d4ffc7ae65f04604a2243"}, {"lon": -77.0169695, "rental_uris": {"android": "https://dc.lft.to/lastmile_qr_scan", "ios": "https://dc.lft.to/lastmile_qr_scan"}, "fusion_lon": 0.0, "is_reserved": 0, "is_disabled": 0, "fusion_lat": 0.0, "type": "electric_scooter", "name": "b912728e2bb914c7f5b2f9fb049d8436", "lat": 38.9076015, "bike_id": "b912728e2bb914c7f5b2f9fb049d8436"}, {"lon": -77.02820016666666, "rental_uris": {"android": "https://dc.lft.to/lastmile_qr_scan", "ios": "https://dc.lft.to/lastmile_qr_scan"}, "fusion_lon": 0.0, "is_reserved": 0, "is_disabled": 0, "fusion_lat": 0.0, "type": "electric_scooter", "name": "606c1f6086be2cf392453d561b30c304", "lat": 38.88656066666667, "bike_id": "606c1f6086be2cf392453d561b30c304"}, {"lon": -77.02820983333334, "rental_uris": {"android": "https://dc.lft.to/lastmile_qr_scan", "ios": "https://dc.lft.to/lastmile_qr_scan"}, "fusion_lon": 0.0, "is_reserved": 0, "is_disabled": 0, "fusion_lat": 0.0, "type": "electric_scooter", "name": "cb86b242485936ffe5c787dcd00bd887", "lat": 38.8923125, "bike_id": "cb86b242485936ffe5c787dcd00bd887"}, {"lon": -77.04678316666667, "rental_uris": {"android": "https://dc.lft.to/lastmile_qr_scan", "ios": "https://dc.lft.to/lastmile_qr_scan"}, "fusion_lon": 0.0, "is_reserved": 0, "is_disabled": 0, "fusion_lat": 0.0, "type": "electric_scooter", "name": "894e78b2c385513eb562226ac232d4d4", "lat": 38.9002625, "bike_id": "894e78b2c385513eb562226ac232d4d4"}, {"lon": -77.04508983333334, "rental_uris": {"android": "https://dc.lft.to/lastmile_qr_scan", "ios": "https://dc.lft.to/lastmile_qr_scan"}, "fusion_lon": 0.0, "is_reserved": 0, "is_disabled": 0, "fusion_lat": 0.0, "type": "electric_scooter", "name": "4fdbedcab28c05afd9d82399abb68a52", "lat": 38.89943916666667, "bike_id": "4fdbedcab28c05afd9d82399abb68a52"}, {"lon": -77.0321055, "rental_uris": {"android": "https://dc.lft.to/lastmile_qr_scan", "ios": "https://dc.lft.to/lastmile_qr_scan"}, "fusion_lon": 0.0, "is_reserved": 0, "is_disabled": 0, "fusion_lat": 0.0, "type": "electric_scooter", "name": "3ca6727d58714786d8128f6a8aff3a30", "lat": 38.89839833333333, "bike_id": "3ca6727d58714786d8128f6a8aff3a30"}, {"lon": -77.021185, "rental_uris": {"android": "https://dc.lft.to/lastmile_qr_scan", "ios": "https://dc.lft.to/lastmile_qr_scan"}, "fusion_lon": 0.0, "is_reserved": 0, "is_disabled": 0, "fusion_lat": 0.0, "type": "electric_scooter", "name": "15855a9260fc770594ce1011fcbe4661", "lat": 38.924273166666666, "bike_id": "15855a9260fc770594ce1011fcbe4661"}, {"lon": -77.09519333333333, "rental_uris": {"android": "https://dc.lft.to/lastmile_qr_scan", "ios": "https://dc.lft.to/lastmile_qr_scan"}, "fusion_lon": 0.0, "is_reserved": 0, "is_disabled": 0, "fusion_lat": 0.0, "type": "electric_bike", "name": "a012d095660592a3ef63028b279c0937", "lat": 38.838084333333335, "bike_id": "a012d095660592a3ef63028b279c0937"}, {"lon": -77.03350183333333, "rental_uris": {"android": "https://dc.lft.to/lastmile_qr_scan", "ios": "https://dc.lft.to/lastmile_qr_scan"}, "fusion_lon": 0.0, "is_reserved": 0, "is_disabled": 0, "fusion_lat": 0.0, "type": "electric_bike", "name": "d578244d8082913e4bacb4b811279656", "lat": 38.972325166666664, "bike_id": "d578244d8082913e4bacb4b811279656"}, {"lon": -77.04683916666667, "rental_uris": {"android": "https://dc.lft.to/lastmile_qr_scan", "ios": "https://dc.lft.to/lastmile_qr_scan"}, "fusion_lon": 0.0, "is_reserved": 0, "is_disabled": 0, "fusion_lat": 0.0, "type": "electric_scooter", "name": "eee243a738abd38d45a881830c613274", "lat": 38.92117316666667, "bike_id": "eee243a738abd38d45a881830c613274"}, {"lon": -77.05351983333334, "rental_uris": {"android": "https://dc.lft.to/lastmile_qr_scan", "ios": "https://dc.lft.to/lastmile_qr_scan"}, "fusion_lon": 0.0, "is_reserved": 0, "is_disabled": 0, "fusion_lat": 0.0, "type": "electric_scooter", "name": "d466b7664620e1dd5ae4f9f4e5e2fef6", "lat": 38.92788516666667, "bike_id": "d466b7664620e1dd5ae4f9f4e5e2fef6"}, {"lon": -77.023754, "rental_uris": {"android": "https://dc.lft.to/lastmile_qr_scan", "ios": "https://dc.lft.to/lastmile_qr_scan"}, "fusion_lon": 0.0, "is_reserved": 0, "is_disabled": 0, "fusion_lat": 0.0, "type": "electric_scooter", "name": "3f5c23af48570ef82d841818226dae20", "lat": 38.91977283333333, "bike_id": "3f5c23af48570ef82d841818226dae20"}, {"lon": -77.054699, "rental_uris": {"android": "https://dc.lft.to/lastmile_qr_scan", "ios": "https://dc.lft.to/lastmile_qr_scan"}, "fusion_lon": 0.0, "is_reserved": 0, "is_disabled": 0, "fusion_lat": 0.0, "type": "electric_scooter", "name": "773153497308c100b5071afd8315e3cb", "lat": 38.92325433333333, "bike_id": "773153497308c100b5071afd8315e3cb"}, {"lon": -77.01794033333333, "rental_uris": {"android": "https://dc.lft.to/lastmile_qr_scan", "ios": "https://dc.lft.to/lastmile_qr_scan"}, "fusion_lon": 0.0, "is_reserved": 0, "is_disabled": 0, "fusion_lat": 0.0, "type": "electric_scooter", "name": "da4ad63f6f405e8b9693baaad52b1f33", "lat": 38.913960833333334, "bike_id": "da4ad63f6f405e8b9693baaad52b1f33"}, {"lon": -77.0490475, "rental_uris": {"android": "https://dc.lft.to/lastmile_qr_scan", "ios": "https://dc.lft.to/lastmile_qr_scan"}, "fusion_lon": 0.0, "is_reserved": 0, "is_disabled": 0, "fusion_lat": 0.0, "type": "electric_scooter", "name": "59e0528e03d97011a1a1eedd656e6148", "lat": 38.8972885, "bike_id": "59e0528e03d97011a1a1eedd656e6148"}, {"lon": -77.0447085, "rental_uris": {"android": "https://dc.lft.to/lastmile_qr_scan", "ios": "https://dc.lft.to/lastmile_qr_scan"}, "fusion_lon": 0.0, "is_reserved": 0, "is_disabled": 0, "fusion_lat": 0.0, "type": "electric_scooter", "name": "5da2cececc42e69d1e045687cd6012bc", "lat": 38.89222, "bike_id": "5da2cececc42e69d1e045687cd6012bc"}, {"lon": -77.04393333333333, "rental_uris": {"android": "https://dc.lft.to/lastmile_qr_scan", "ios": "https://dc.lft.to/lastmile_qr_scan"}, "fusion_lon": 0.0, "is_reserved": 0, "is_disabled": 0, "fusion_lat": 0.0, "type": "electric_scooter", "name": "6dd5b2a2b9c57962086ebd65d70bf3ae", "lat": 38.90147966666667, "bike_id": "6dd5b2a2b9c57962086ebd65d70bf3ae"}, {"lon": -77.00309566666667, "rental_uris": {"android": "https://dc.lft.to/lastmile_qr_scan", "ios": "https://dc.lft.to/lastmile_qr_scan"}, "fusion_lon": 0.0, "is_reserved": 0, "is_disabled": 0, "fusion_lat": 0.0, "type": "electric_scooter", "name": "532ed84f80dedcae4de627b48566efe9", "lat": 38.8765445, "bike_id": "532ed84f80dedcae4de627b48566efe9"}, {"lon": -77.05319083333333, "rental_uris": {"android": "https://dc.lft.to/lastmile_qr_scan", "ios": "https://dc.lft.to/lastmile_qr_scan"}, "fusion_lon": 0.0, "is_reserved": 0, "is_disabled": 0, "fusion_lat": 0.0, "type": "electric_scooter", "name": "28d757201951ce1037e949055b7069fe", "lat": 38.902679, "bike_id": "28d757201951ce1037e949055b7069fe"}, {"lon": -77.02488583333333, "rental_uris": {"android": "https://dc.lft.to/lastmile_qr_scan", "ios": "https://dc.lft.to/lastmile_qr_scan"}, "fusion_lon": 0.0, "is_reserved": 0, "is_disabled": 0, "fusion_lat": 0.0, "type": "electric_scooter", "name": "83b874f569ebb4d5f2d207e0c4d6b087", "lat": 38.930934666666666, "bike_id": "83b874f569ebb4d5f2d207e0c4d6b087"}, {"lon": -77.038029, "rental_uris": {"android": "https://dc.lft.to/lastmile_qr_scan", "ios": "https://dc.lft.to/lastmile_qr_scan"}, "fusion_lon": 0.0, "is_reserved": 0, "is_disabled": 0, "fusion_lat": 0.0, "type": "electric_scooter", "name": "56538b207db30c3e723169ec141d4b8a", "lat": 38.9155505, "bike_id": "56538b207db30c3e723169ec141d4b8a"}, {"lon": -76.98722333333333, "rental_uris": {"android": "https://dc.lft.to/lastmile_qr_scan", "ios": "https://dc.lft.to/lastmile_qr_scan"}, "fusion_lon": 0.0, "is_reserved": 0, "is_disabled": 0, "fusion_lat": 0.0, "type": "electric_bike", "name": "9890603011f267f08cc74fca1e0b8e6a", "lat": 38.86327883333333, "bike_id": "9890603011f267f08cc74fca1e0b8e6a"}, {"lon": -77.02138983333333, "rental_uris": {"android": "https://dc.lft.to/lastmile_qr_scan", "ios": "https://dc.lft.to/lastmile_qr_scan"}, "fusion_lon": 0.0, "is_reserved": 0, "is_disabled": 0, "fusion_lat": 0.0, "type": "electric_scooter", "name": "9319da54bf73fd538a4d5ccddab08f41", "lat": 38.924414666666664, "bike_id": "9319da54bf73fd538a4d5ccddab08f41"}, {"lon": -77.02368416666667, "rental_uris": {"android": "https://dc.lft.to/lastmile_qr_scan", "ios": "https://dc.lft.to/lastmile_qr_scan"}, "fusion_lon": 0.0, "is_reserved": 0, "is_disabled": 0, "fusion_lat": 0.0, "type": "electric_scooter", "name": "14c50808a7bffd25688494e90883cc91", "lat": 38.879304166666664, "bike_id": "14c50808a7bffd25688494e90883cc91"}, {"lon": -77.04895583333334, "rental_uris": {"android": "https://dc.lft.to/lastmile_qr_scan", "ios": "https://dc.lft.to/lastmile_qr_scan"}, "fusion_lon": 0.0, "is_reserved": 0, "is_disabled": 0, "fusion_lat": 0.0, "type": "electric_scooter", "name": "72127ebf5ca85408b0321118e41e49bc", "lat": 38.892278, "bike_id": "72127ebf5ca85408b0321118e41e49bc"}, {"lon": -77.0282365, "rental_uris": {"android": "https://dc.lft.to/lastmile_qr_scan", "ios": "https://dc.lft.to/lastmile_qr_scan"}, "fusion_lon": 0.0, "is_reserved": 0, "is_disabled": 0, "fusion_lat": 0.0, "type": "electric_scooter", "name": "d2576b1149ade5f603fee5bdf842e752", "lat": 38.922372, "bike_id": "d2576b1149ade5f603fee5bdf842e752"}, {"lon": -77.03655683333334, "rental_uris": {"android": "https://dc.lft.to/lastmile_qr_scan", "ios": "https://dc.lft.to/lastmile_qr_scan"}, "fusion_lon": 0.0, "is_reserved": 0, "is_disabled": 0, "fusion_lat": 0.0, "type": "electric_scooter", "name": "3fb0a5fbf1dda8cb1f36a32de9c2b869", "lat": 38.911318, "bike_id": "3fb0a5fbf1dda8cb1f36a32de9c2b869"}, {"lon": -77.072701, "rental_uris": {"android": "https://dc.lft.to/lastmile_qr_scan", "ios": "https://dc.lft.to/lastmile_qr_scan"}, "fusion_lon": 0.0, "is_reserved": 0, "is_disabled": 0, "fusion_lat": 0.0, "type": "electric_scooter", "name": "d0bd48eb5c9644ac422e50c23bc6f18a", "lat": 38.909134333333334, "bike_id": "d0bd48eb5c9644ac422e50c23bc6f18a"}, {"lon": -77.03384433333333, "rental_uris": {"android": "https://dc.lft.to/lastmile_qr_scan", "ios": "https://dc.lft.to/lastmile_qr_scan"}, "fusion_lon": 0.0, "is_reserved": 0, "is_disabled": 0, "fusion_lat": 0.0, "type": "electric_scooter", "name": "abc4aa8c7a72bf447d07edfaefde2df8", "lat": 38.938531, "bike_id": "abc4aa8c7a72bf447d07edfaefde2df8"}, {"lon": -77.23672066666667, "rental_uris": {"android": "https://dc.lft.to/lastmile_qr_scan", "ios": "https://dc.lft.to/lastmile_qr_scan"}, "fusion_lon": 0.0, "is_reserved": 0, "is_disabled": 0, "fusion_lat": 0.0, "type": "electric_bike", "name": "5a758a23280cf11a87c4632b30a9c086", "lat": 38.921119833333336, "bike_id": "5a758a23280cf11a87c4632b30a9c086"}, {"lon": -76.98548033333333, "rental_uris": {"android": "https://dc.lft.to/lastmile_qr_scan", "ios": "https://dc.lft.to/lastmile_qr_scan"}, "fusion_lon": 0.0, "is_reserved": 0, "is_disabled": 0, "fusion_lat": 0.0, "type": "electric_scooter", "name": "b2adcd668a87cc2f4e20a927314e64ae", "lat": 38.899739, "bike_id": "b2adcd668a87cc2f4e20a927314e64ae"}, {"lon": -77.02382716666666, "rental_uris": {"android": "https://dc.lft.to/lastmile_qr_scan", "ios": "https://dc.lft.to/lastmile_qr_scan"}, "fusion_lon": 0.0, "is_reserved": 0, "is_disabled": 0, "fusion_lat": 0.0, "type": "electric_scooter", "name": "4ce0ee9b0522f8eee906680c6b2e9ed8", "lat": 38.88735233333333, "bike_id": "4ce0ee9b0522f8eee906680c6b2e9ed8"}, {"lon": -76.996413, "rental_uris": {"android": "https://dc.lft.to/lastmile_qr_scan", "ios": "https://dc.lft.to/lastmile_qr_scan"}, "fusion_lon": 0.0, "is_reserved": 0, "is_disabled": 0, "fusion_lat": 0.0, "type": "electric_scooter", "name": "b262165ac0c280514d30dc40c316074f", "lat": 38.90028066666667, "bike_id": "b262165ac0c280514d30dc40c316074f"}, {"lon": -77.02305583333333, "rental_uris": {"android": "https://dc.lft.to/lastmile_qr_scan", "ios": "https://dc.lft.to/lastmile_qr_scan"}, "fusion_lon": 0.0, "is_reserved": 0, "is_disabled": 0, "fusion_lat": 0.0, "type": "electric_scooter", "name": "f7014a3607bc8c58d223b4103f3bd3a4", "lat": 38.9177125, "bike_id": "f7014a3607bc8c58d223b4103f3bd3a4"}, {"lon": -76.93740366666667, "rental_uris": {"android": "https://dc.lft.to/lastmile_qr_scan", "ios": "https://dc.lft.to/lastmile_qr_scan"}, "fusion_lon": 0.0, "is_reserved": 0, "is_disabled": 0, "fusion_lat": 0.0, "type": "electric_scooter", "name": "e1a3ca41960dca610d440374addda336", "lat": 38.890024, "bike_id": "e1a3ca41960dca610d440374addda336"}, {"lon": -76.98516616666667, "rental_uris": {"android": "https://dc.lft.to/lastmile_qr_scan", "ios": "https://dc.lft.to/lastmile_qr_scan"}, "fusion_lon": 0.0, "is_reserved": 0, "is_disabled": 0, "fusion_lat": 0.0, "type": "electric_bike", "name": "edf11701c27c06f8dc50b447cdcf8b80", "lat": 38.868926333333334, "bike_id": "edf11701c27c06f8dc50b447cdcf8b80"}, {"lon": -77.022988, "rental_uris": {"android": "https://dc.lft.to/lastmile_qr_scan", "ios": "https://dc.lft.to/lastmile_qr_scan"}, "fusion_lon": 0.0, "is_reserved": 0, "is_disabled": 0, "fusion_lat": 0.0, "type": "electric_scooter", "name": "b427aba1dbf79f9350f1579d1b54e5fa", "lat": 38.916927, "bike_id": "b427aba1dbf79f9350f1579d1b54e5fa"}, {"lon": -77.031512, "rental_uris": {"android": "https://dc.lft.to/lastmile_qr_scan", "ios": "https://dc.lft.to/lastmile_qr_scan"}, "fusion_lon": 0.0, "is_reserved": 0, "is_disabled": 0, "fusion_lat": 0.0, "type": "electric_scooter", "name": "c5f25e4628a7f13e2684db87203871f1", "lat": 38.893595833333336, "bike_id": "c5f25e4628a7f13e2684db87203871f1"}, {"lon": -77.02098183333334, "rental_uris": {"android": "https://dc.lft.to/lastmile_qr_scan", "ios": "https://dc.lft.to/lastmile_qr_scan"}, "fusion_lon": 0.0, "is_reserved": 0, "is_disabled": 0, "fusion_lat": 0.0, "type": "electric_scooter", "name": "e88d0db8678a68c15e3d3088319ebe0b", "lat": 38.921132666666665, "bike_id": "e88d0db8678a68c15e3d3088319ebe0b"}, {"lon": -77.0806705, "rental_uris": {"android": "https://dc.lft.to/lastmile_qr_scan", "ios": "https://dc.lft.to/lastmile_qr_scan"}, "fusion_lon": 0.0, "is_reserved": 0, "is_disabled": 0, "fusion_lat": 0.0, "type": "electric_bike", "name": "a10c6463f032a826a9f90f4b5edcdb4e", "lat": 39.05253883333334, "bike_id": "a10c6463f032a826a9f90f4b5edcdb4e"}, {"lon": -77.04673916666667, "rental_uris": {"android": "https://dc.lft.to/lastmile_qr_scan", "ios": "https://dc.lft.to/lastmile_qr_scan"}, "fusion_lon": 0.0, "is_reserved": 0, "is_disabled": 0, "fusion_lat": 0.0, "type": "electric_scooter", "name": "05765487cb03264bdad9107e4a296fd8", "lat": 38.895533666666665, "bike_id": "05765487cb03264bdad9107e4a296fd8"}, {"lon": -77.03820666666667, "rental_uris": {"android": "https://dc.lft.to/lastmile_qr_scan", "ios": "https://dc.lft.to/lastmile_qr_scan"}, "fusion_lon": 0.0, "is_reserved": 0, "is_disabled": 0, "fusion_lat": 0.0, "type": "electric_scooter", "name": "f0a5288b188608d91ff691360e704d11", "lat": 38.9077205, "bike_id": "f0a5288b188608d91ff691360e704d11"}, {"lon": -77.00921066666666, "rental_uris": {"android": "https://dc.lft.to/lastmile_qr_scan", "ios": "https://dc.lft.to/lastmile_qr_scan"}, "fusion_lon": 0.0, "is_reserved": 0, "is_disabled": 0, "fusion_lat": 0.0, "type": "electric_scooter", "name": "ba69c92e04d53b0340926d087d1308da", "lat": 38.89549, "bike_id": "ba69c92e04d53b0340926d087d1308da"}, {"lon": -77.03326166666666, "rental_uris": {"android": "https://dc.lft.to/lastmile_qr_scan", "ios": "https://dc.lft.to/lastmile_qr_scan"}, "fusion_lon": 0.0, "is_reserved": 0, "is_disabled": 0, "fusion_lat": 0.0, "type": "electric_scooter", "name": "78bd0d4f11bacf29637c26e201692580", "lat": 38.89648016666666, "bike_id": "78bd0d4f11bacf29637c26e201692580"}, {"lon": -77.03998833333333, "rental_uris": {"android": "https://dc.lft.to/lastmile_qr_scan", "ios": "https://dc.lft.to/lastmile_qr_scan"}, "fusion_lon": 0.0, "is_reserved": 0, "is_disabled": 0, "fusion_lat": 0.0, "type": "electric_scooter", "name": "0a7cedf4a73d6a9edba39ce2aba40958", "lat": 38.934193, "bike_id": "0a7cedf4a73d6a9edba39ce2aba40958"}, {"lon": -77.09963433333333, "rental_uris": {"android": "https://dc.lft.to/lastmile_qr_scan", "ios": "https://dc.lft.to/lastmile_qr_scan"}, "fusion_lon": 0.0, "is_reserved": 0, "is_disabled": 0, "fusion_lat": 0.0, "type": "electric_scooter", "name": "0bcbfa67a0f862ee3a2283df723a6a48", "lat": 38.94975066666667, "bike_id": "0bcbfa67a0f862ee3a2283df723a6a48"}, {"lon": -77.03280666666667, "rental_uris": {"android": "https://dc.lft.to/lastmile_qr_scan", "ios": "https://dc.lft.to/lastmile_qr_scan"}, "fusion_lon": 0.0, "is_reserved": 0, "is_disabled": 0, "fusion_lat": 0.0, "type": "electric_scooter", "name": "d490a09209faa4ba7789fbcc8d5b282a", "lat": 38.9396545, "bike_id": "d490a09209faa4ba7789fbcc8d5b282a"}, {"lon": -77.021573, "rental_uris": {"android": "https://dc.lft.to/lastmile_qr_scan", "ios": "https://dc.lft.to/lastmile_qr_scan"}, "fusion_lon": 0.0, "is_reserved": 0, "is_disabled": 0, "fusion_lat": 0.0, "type": "electric_scooter", "name": "2a45ec5d327f35f5514afedb37d19187", "lat": 38.9246075, "bike_id": "2a45ec5d327f35f5514afedb37d19187"}, {"lon": -77.046014, "rental_uris": {"android": "https://dc.lft.to/lastmile_qr_scan", "ios": "https://dc.lft.to/lastmile_qr_scan"}, "fusion_lon": 0.0, "is_reserved": 0, "is_disabled": 0, "fusion_lat": 0.0, "type": "electric_scooter", "name": "af9a0f0b070b8a567e5c79c23688ed26", "lat": 38.917222833333334, "bike_id": "af9a0f0b070b8a567e5c79c23688ed26"}, {"lon": -77.00584866666667, "rental_uris": {"android": "https://dc.lft.to/lastmile_qr_scan", "ios": "https://dc.lft.to/lastmile_qr_scan"}, "fusion_lon": 0.0, "is_reserved": 0, "is_disabled": 0, "fusion_lat": 0.0, "type": "electric_scooter", "name": "d79b95fbc20a3f3193310f5ebadc34da", "lat": 38.9061125, "bike_id": "d79b95fbc20a3f3193310f5ebadc34da"}, {"lon": -76.98655783333334, "rental_uris": {"android": "https://dc.lft.to/lastmile_qr_scan", "ios": "https://dc.lft.to/lastmile_qr_scan"}, "fusion_lon": 0.0, "is_reserved": 0, "is_disabled": 0, "fusion_lat": 0.0, "type": "electric_scooter", "name": "891866f5e612c2bd11aaeb57bf142083", "lat": 38.8935175, "bike_id": "891866f5e612c2bd11aaeb57bf142083"}, {"lon": -77.02473483333333, "rental_uris": {"android": "https://dc.lft.to/lastmile_qr_scan", "ios": "https://dc.lft.to/lastmile_qr_scan"}, "fusion_lon": 0.0, "is_reserved": 0, "is_disabled": 0, "fusion_lat": 0.0, "type": "electric_scooter", "name": "deaf0e3fa13409edd7bcf470522cd3ee", "lat": 38.91816016666667, "bike_id": "deaf0e3fa13409edd7bcf470522cd3ee"}, {"lon": -77.0151255, "rental_uris": {"android": "https://dc.lft.to/lastmile_qr_scan", "ios": "https://dc.lft.to/lastmile_qr_scan"}, "fusion_lon": 0.0, "is_reserved": 0, "is_disabled": 0, "fusion_lat": 0.0, "type": "electric_scooter", "name": "f55a2ec31ee37234acec64f543d9e67f", "lat": 38.958001333333335, "bike_id": "f55a2ec31ee37234acec64f543d9e67f"}, {"lon": -77.04318666666667, "rental_uris": {"android": "https://dc.lft.to/lastmile_qr_scan", "ios": "https://dc.lft.to/lastmile_qr_scan"}, "fusion_lon": 0.0, "is_reserved": 0, "is_disabled": 0, "fusion_lat": 0.0, "type": "electric_scooter", "name": "4617c5860cc8f770476746c78b6d71d2", "lat": 38.90885333333333, "bike_id": "4617c5860cc8f770476746c78b6d71d2"}, {"lon": -77.05012666666667, "rental_uris": {"android": "https://dc.lft.to/lastmile_qr_scan", "ios": "https://dc.lft.to/lastmile_qr_scan"}, "fusion_lon": 0.0, "is_reserved": 0, "is_disabled": 0, "fusion_lat": 0.0, "type": "electric_scooter", "name": "ed8677848e22c981a1d31a9b804dcac0", "lat": 38.9233575, "bike_id": "ed8677848e22c981a1d31a9b804dcac0"}, {"lon": -76.94653616666666, "rental_uris": {"android": "https://dc.lft.to/lastmile_qr_scan", "ios": "https://dc.lft.to/lastmile_qr_scan"}, "fusion_lon": 0.0, "is_reserved": 0, "is_disabled": 0, "fusion_lat": 0.0, "type": "electric_scooter", "name": "50fd95ba2a4027c0b2abdefa74ff6dba", "lat": 38.8982835, "bike_id": "50fd95ba2a4027c0b2abdefa74ff6dba"}, {"lon": -77.02314133333333, "rental_uris": {"android": "https://dc.lft.to/lastmile_qr_scan", "ios": "https://dc.lft.to/lastmile_qr_scan"}, "fusion_lon": 0.0, "is_reserved": 0, "is_disabled": 0, "fusion_lat": 0.0, "type": "electric_scooter", "name": "3598139c636fe1a2317c532770373779", "lat": 38.92073033333333, "bike_id": "3598139c636fe1a2317c532770373779"}, {"lon": -77.04325016666667, "rental_uris": {"android": "https://dc.lft.to/lastmile_qr_scan", "ios": "https://dc.lft.to/lastmile_qr_scan"}, "fusion_lon": 0.0, "is_reserved": 0, "is_disabled": 0, "fusion_lat": 0.0, "type": "electric_scooter", "name": "84efbb909da162b6e23ec0f0e18de39e", "lat": 38.9062395, "bike_id": "84efbb909da162b6e23ec0f0e18de39e"}, {"lon": -77.02096883333333, "rental_uris": {"android": "https://dc.lft.to/lastmile_qr_scan", "ios": "https://dc.lft.to/lastmile_qr_scan"}, "fusion_lon": 0.0, "is_reserved": 0, "is_disabled": 0, "fusion_lat": 0.0, "type": "electric_scooter", "name": "63f31245e8ca393479cffe5285bc83f6", "lat": 38.932633833333334, "bike_id": "63f31245e8ca393479cffe5285bc83f6"}, {"lon": -77.03201133333333, "rental_uris": {"android": "https://dc.lft.to/lastmile_qr_scan", "ios": "https://dc.lft.to/lastmile_qr_scan"}, "fusion_lon": 0.0, "is_reserved": 0, "is_disabled": 0, "fusion_lat": 0.0, "type": "electric_scooter", "name": "8a491dde1233313b3545eeeff9b2d931", "lat": 38.9191535, "bike_id": "8a491dde1233313b3545eeeff9b2d931"}, {"lon": -77.02798533333333, "rental_uris": {"android": "https://dc.lft.to/lastmile_qr_scan", "ios": "https://dc.lft.to/lastmile_qr_scan"}, "fusion_lon": 0.0, "is_reserved": 0, "is_disabled": 0, "fusion_lat": 0.0, "type": "electric_scooter", "name": "db81fb4e2f44ce48aa33872c42b47281", "lat": 38.892296333333334, "bike_id": "db81fb4e2f44ce48aa33872c42b47281"}, {"lon": -77.03789183333333, "rental_uris": {"android": "https://dc.lft.to/lastmile_qr_scan", "ios": "https://dc.lft.to/lastmile_qr_scan"}, "fusion_lon": 0.0, "is_reserved": 0, "is_disabled": 0, "fusion_lat": 0.0, "type": "electric_scooter", "name": "189d651f51c44db338a1286432f9cefc", "lat": 38.9255405, "bike_id": "189d651f51c44db338a1286432f9cefc"}, {"lon": -77.04313716666667, "rental_uris": {"android": "https://dc.lft.to/lastmile_qr_scan", "ios": "https://dc.lft.to/lastmile_qr_scan"}, "fusion_lon": 0.0, "is_reserved": 0, "is_disabled": 0, "fusion_lat": 0.0, "type": "electric_scooter", "name": "0b1f4f5bb7441c6655843078004b2fc8", "lat": 38.923612, "bike_id": "0b1f4f5bb7441c6655843078004b2fc8"}, {"lon": -77.028317, "rental_uris": {"android": "https://dc.lft.to/lastmile_qr_scan", "ios": "https://dc.lft.to/lastmile_qr_scan"}, "fusion_lon": 0.0, "is_reserved": 0, "is_disabled": 0, "fusion_lat": 0.0, "type": "electric_scooter", "name": "6da12eea6799fe435ddecb9be5955c76", "lat": 38.887308166666664, "bike_id": "6da12eea6799fe435ddecb9be5955c76"}, {"lon": -77.0456825, "rental_uris": {"android": "https://dc.lft.to/lastmile_qr_scan", "ios": "https://dc.lft.to/lastmile_qr_scan"}, "fusion_lon": 0.0, "is_reserved": 0, "is_disabled": 0, "fusion_lat": 0.0, "type": "electric_scooter", "name": "fc89974fc2533aec8b7ac24877ed2b94", "lat": 38.913607999999996, "bike_id": "fc89974fc2533aec8b7ac24877ed2b94"}, {"lon": -77.02190966666667, "rental_uris": {"android": "https://dc.lft.to/lastmile_qr_scan", "ios": "https://dc.lft.to/lastmile_qr_scan"}, "fusion_lon": 0.0, "is_reserved": 0, "is_disabled": 0, "fusion_lat": 0.0, "type": "electric_scooter", "name": "8ce39173a95b73fc26234236cf62389d", "lat": 38.91872933333333, "bike_id": "8ce39173a95b73fc26234236cf62389d"}, {"lon": -77.019725, "rental_uris": {"android": "https://dc.lft.to/lastmile_qr_scan", "ios": "https://dc.lft.to/lastmile_qr_scan"}, "fusion_lon": 0.0, "is_reserved": 0, "is_disabled": 0, "fusion_lat": 0.0, "type": "electric_scooter", "name": "2f8c2ec80cb75209d9a18292fd4b61c4", "lat": 38.95650783333333, "bike_id": "2f8c2ec80cb75209d9a18292fd4b61c4"}, {"lon": -77.029763, "rental_uris": {"android": "https://dc.lft.to/lastmile_qr_scan", "ios": "https://dc.lft.to/lastmile_qr_scan"}, "fusion_lon": 0.0, "is_reserved": 0, "is_disabled": 0, "fusion_lat": 0.0, "type": "electric_scooter", "name": "29b1c23dadded8117ee9d05b15f928d7", "lat": 38.907283, "bike_id": "29b1c23dadded8117ee9d05b15f928d7"}, {"lon": -77.038795, "rental_uris": {"android": "https://dc.lft.to/lastmile_qr_scan", "ios": "https://dc.lft.to/lastmile_qr_scan"}, "fusion_lon": 0.0, "is_reserved": 0, "is_disabled": 0, "fusion_lat": 0.0, "type": "electric_scooter", "name": "1597f767f89da83d48efd2432a014e59", "lat": 38.90621483333334, "bike_id": "1597f767f89da83d48efd2432a014e59"}, {"lon": -77.032869, "rental_uris": {"android": "https://dc.lft.to/lastmile_qr_scan", "ios": "https://dc.lft.to/lastmile_qr_scan"}, "fusion_lon": 0.0, "is_reserved": 0, "is_disabled": 0, "fusion_lat": 0.0, "type": "electric_scooter", "name": "cc923c8ef1ab035789393f21db46276e", "lat": 38.92875133333333, "bike_id": "cc923c8ef1ab035789393f21db46276e"}, {"lon": -77.02382133333333, "rental_uris": {"android": "https://dc.lft.to/lastmile_qr_scan", "ios": "https://dc.lft.to/lastmile_qr_scan"}, "fusion_lon": 0.0, "is_reserved": 0, "is_disabled": 0, "fusion_lat": 0.0, "type": "electric_scooter", "name": "febca7a80daae52464be03f587d1cbe8", "lat": 38.887282, "bike_id": "febca7a80daae52464be03f587d1cbe8"}, {"lon": -77.02780566666667, "rental_uris": {"android": "https://dc.lft.to/lastmile_qr_scan", "ios": "https://dc.lft.to/lastmile_qr_scan"}, "fusion_lon": 0.0, "is_reserved": 0, "is_disabled": 0, "fusion_lat": 0.0, "type": "electric_scooter", "name": "3da59aff4760ead4cccb7da622260f77", "lat": 38.892105, "bike_id": "3da59aff4760ead4cccb7da622260f77"}, {"lon": -77.023745, "rental_uris": {"android": "https://dc.lft.to/lastmile_qr_scan", "ios": "https://dc.lft.to/lastmile_qr_scan"}, "fusion_lon": 0.0, "is_reserved": 0, "is_disabled": 0, "fusion_lat": 0.0, "type": "electric_scooter", "name": "1c56e3b6f4777c16d3b0960dd44f03d6", "lat": 38.891921833333335, "bike_id": "1c56e3b6f4777c16d3b0960dd44f03d6"}, {"lon": -77.04006266666667, "rental_uris": {"android": "https://dc.lft.to/lastmile_qr_scan", "ios": "https://dc.lft.to/lastmile_qr_scan"}, "fusion_lon": 0.0, "is_reserved": 0, "is_disabled": 0, "fusion_lat": 0.0, "type": "electric_scooter", "name": "7a7933118b84f0cc8b640fad6ff0c72c", "lat": 38.922034333333336, "bike_id": "7a7933118b84f0cc8b640fad6ff0c72c"}, {"lon": -77.00924383333333, "rental_uris": {"android": "https://dc.lft.to/lastmile_qr_scan", "ios": "https://dc.lft.to/lastmile_qr_scan"}, "fusion_lon": 0.0, "is_reserved": 0, "is_disabled": 0, "fusion_lat": 0.0, "type": "electric_scooter", "name": "c45aa3707efa7ac1dd74580655b1d0a7", "lat": 38.89623733333333, "bike_id": "c45aa3707efa7ac1dd74580655b1d0a7"}, {"lon": -77.03549466666666, "rental_uris": {"android": "https://dc.lft.to/lastmile_qr_scan", "ios": "https://dc.lft.to/lastmile_qr_scan"}, "fusion_lon": 0.0, "is_reserved": 0, "is_disabled": 0, "fusion_lat": 0.0, "type": "electric_scooter", "name": "937982656ec6617e15e2518e127c4af5", "lat": 38.92579533333333, "bike_id": "937982656ec6617e15e2518e127c4af5"}, {"lon": -77.04385733333334, "rental_uris": {"android": "https://dc.lft.to/lastmile_qr_scan", "ios": "https://dc.lft.to/lastmile_qr_scan"}, "fusion_lon": 0.0, "is_reserved": 0, "is_disabled": 0, "fusion_lat": 0.0, "type": "electric_scooter", "name": "8af580b8de2d6cc17e3e69e0c3b83139", "lat": 38.90393016666667, "bike_id": "8af580b8de2d6cc17e3e69e0c3b83139"}, {"lon": -77.0135895, "rental_uris": {"android": "https://dc.lft.to/lastmile_qr_scan", "ios": "https://dc.lft.to/lastmile_qr_scan"}, "fusion_lon": 0.0, "is_reserved": 0, "is_disabled": 0, "fusion_lat": 0.0, "type": "electric_scooter", "name": "1971cebaaf99ad22bb33e5395ef7dab5", "lat": 38.95678216666667, "bike_id": "1971cebaaf99ad22bb33e5395ef7dab5"}, {"lon": -77.03202733333333, "rental_uris": {"android": "https://dc.lft.to/lastmile_qr_scan", "ios": "https://dc.lft.to/lastmile_qr_scan"}, "fusion_lon": 0.0, "is_reserved": 0, "is_disabled": 0, "fusion_lat": 0.0, "type": "electric_scooter", "name": "c49f9c6a3db77da7dc14b574e3e4ed12", "lat": 38.91120733333333, "bike_id": "c49f9c6a3db77da7dc14b574e3e4ed12"}, {"lon": -76.9348605, "rental_uris": {"android": "https://dc.lft.to/lastmile_qr_scan", "ios": "https://dc.lft.to/lastmile_qr_scan"}, "fusion_lon": 0.0, "is_reserved": 0, "is_disabled": 0, "fusion_lat": 0.0, "type": "electric_bike", "name": "3bec4f9c634aa6e19125f503fb45f8c6", "lat": 38.890987, "bike_id": "3bec4f9c634aa6e19125f503fb45f8c6"}, {"lon": -77.043347, "rental_uris": {"android": "https://dc.lft.to/lastmile_qr_scan", "ios": "https://dc.lft.to/lastmile_qr_scan"}, "fusion_lon": 0.0, "is_reserved": 0, "is_disabled": 0, "fusion_lat": 0.0, "type": "electric_scooter", "name": "7ecc3ad43ae31643584b3619870baa3e", "lat": 38.905200666666666, "bike_id": "7ecc3ad43ae31643584b3619870baa3e"}, {"lon": -77.03821166666667, "rental_uris": {"android": "https://dc.lft.to/lastmile_qr_scan", "ios": "https://dc.lft.to/lastmile_qr_scan"}, "fusion_lon": 0.0, "is_reserved": 0, "is_disabled": 0, "fusion_lat": 0.0, "type": "electric_scooter", "name": "b7853ebb4eada9c5dc98695a320e977f", "lat": 38.91407933333333, "bike_id": "b7853ebb4eada9c5dc98695a320e977f"}, {"lon": -77.034455, "rental_uris": {"android": "https://dc.lft.to/lastmile_qr_scan", "ios": "https://dc.lft.to/lastmile_qr_scan"}, "fusion_lon": 0.0, "is_reserved": 0, "is_disabled": 0, "fusion_lat": 0.0, "type": "electric_scooter", "name": "53d0bff8069e794cc504b0b834953b59", "lat": 38.90379333333333, "bike_id": "53d0bff8069e794cc504b0b834953b59"}, {"lon": -77.04145916666667, "rental_uris": {"android": "https://dc.lft.to/lastmile_qr_scan", "ios": "https://dc.lft.to/lastmile_qr_scan"}, "fusion_lon": 0.0, "is_reserved": 0, "is_disabled": 0, "fusion_lat": 0.0, "type": "electric_scooter", "name": "500c122558d77ee0f4b54d546c86fe32", "lat": 38.892372, "bike_id": "500c122558d77ee0f4b54d546c86fe32"}, {"lon": -77.04033733333333, "rental_uris": {"android": "https://dc.lft.to/lastmile_qr_scan", "ios": "https://dc.lft.to/lastmile_qr_scan"}, "fusion_lon": 0.0, "is_reserved": 0, "is_disabled": 0, "fusion_lat": 0.0, "type": "electric_scooter", "name": "5ab90317c83fb833752149d6a5f0be97", "lat": 38.9245315, "bike_id": "5ab90317c83fb833752149d6a5f0be97"}, {"lon": -76.98686666666667, "rental_uris": {"android": "https://dc.lft.to/lastmile_qr_scan", "ios": "https://dc.lft.to/lastmile_qr_scan"}, "fusion_lon": 0.0, "is_reserved": 0, "is_disabled": 0, "fusion_lat": 0.0, "type": "electric_scooter", "name": "8b7e56382d4137b2e76b9914c8ee388b", "lat": 38.900603333333336, "bike_id": "8b7e56382d4137b2e76b9914c8ee388b"}, {"lon": -77.001173, "rental_uris": {"android": "https://dc.lft.to/lastmile_qr_scan", "ios": "https://dc.lft.to/lastmile_qr_scan"}, "fusion_lon": 0.0, "is_reserved": 0, "is_disabled": 0, "fusion_lat": 0.0, "type": "electric_scooter", "name": "80f9d6b65af1c9ab865ceca4270812de", "lat": 38.873934166666665, "bike_id": "80f9d6b65af1c9ab865ceca4270812de"}, {"lon": -77.02108383333334, "rental_uris": {"android": "https://dc.lft.to/lastmile_qr_scan", "ios": "https://dc.lft.to/lastmile_qr_scan"}, "fusion_lon": 0.0, "is_reserved": 0, "is_disabled": 0, "fusion_lat": 0.0, "type": "electric_scooter", "name": "201512293278cbc106f289fed03bb7e0", "lat": 38.904729833333334, "bike_id": "201512293278cbc106f289fed03bb7e0"}, {"lon": -77.05263766666667, "rental_uris": {"android": "https://dc.lft.to/lastmile_qr_scan", "ios": "https://dc.lft.to/lastmile_qr_scan"}, "fusion_lon": 0.0, "is_reserved": 0, "is_disabled": 0, "fusion_lat": 0.0, "type": "electric_bike", "name": "2f61553a5b69b7018dc77210e0608b9f", "lat": 38.961829333333334, "bike_id": "2f61553a5b69b7018dc77210e0608b9f"}, {"lon": -77.0329585, "rental_uris": {"android": "https://dc.lft.to/lastmile_qr_scan", "ios": "https://dc.lft.to/lastmile_qr_scan"}, "fusion_lon": 0.0, "is_reserved": 0, "is_disabled": 0, "fusion_lat": 0.0, "type": "electric_scooter", "name": "fddf1365d8c2e741e0c992b71d7970a5", "lat": 38.903595833333334, "bike_id": "fddf1365d8c2e741e0c992b71d7970a5"}, {"lon": -77.006002, "rental_uris": {"android": "https://dc.lft.to/lastmile_qr_scan", "ios": "https://dc.lft.to/lastmile_qr_scan"}, "fusion_lon": 0.0, "is_reserved": 0, "is_disabled": 0, "fusion_lat": 0.0, "type": "electric_scooter", "name": "55a3b165028375028a7e8fb70cc1e67b", "lat": 38.90630633333333, "bike_id": "55a3b165028375028a7e8fb70cc1e67b"}, {"lon": -77.03047133333334, "rental_uris": {"android": "https://dc.lft.to/lastmile_qr_scan", "ios": "https://dc.lft.to/lastmile_qr_scan"}, "fusion_lon": 0.0, "is_reserved": 0, "is_disabled": 0, "fusion_lat": 0.0, "type": "electric_scooter", "name": "16c08680a9e2ef285481e3125606740b", "lat": 38.91677, "bike_id": "16c08680a9e2ef285481e3125606740b"}, {"lon": -76.997106, "rental_uris": {"android": "https://dc.lft.to/lastmile_qr_scan", "ios": "https://dc.lft.to/lastmile_qr_scan"}, "fusion_lon": 0.0, "is_reserved": 0, "is_disabled": 0, "fusion_lat": 0.0, "type": "electric_scooter", "name": "bf6b523b8034ef74c962d3d6506f8940", "lat": 38.934404666666666, "bike_id": "bf6b523b8034ef74c962d3d6506f8940"}, {"lon": -77.03435666666667, "rental_uris": {"android": "https://dc.lft.to/lastmile_qr_scan", "ios": "https://dc.lft.to/lastmile_qr_scan"}, "fusion_lon": 0.0, "is_reserved": 0, "is_disabled": 0, "fusion_lat": 0.0, "type": "electric_scooter", "name": "99d3db5d626eff7686da008151472d28", "lat": 38.9171355, "bike_id": "99d3db5d626eff7686da008151472d28"}, {"lon": -77.0414925, "rental_uris": {"android": "https://dc.lft.to/lastmile_qr_scan", "ios": "https://dc.lft.to/lastmile_qr_scan"}, "fusion_lon": 0.0, "is_reserved": 0, "is_disabled": 0, "fusion_lat": 0.0, "type": "electric_scooter", "name": "277d6dfb381c3349dd544bcf9ac81e9e", "lat": 38.909036, "bike_id": "277d6dfb381c3349dd544bcf9ac81e9e"}, {"lon": -77.03150633333334, "rental_uris": {"android": "https://dc.lft.to/lastmile_qr_scan", "ios": "https://dc.lft.to/lastmile_qr_scan"}, "fusion_lon": 0.0, "is_reserved": 0, "is_disabled": 0, "fusion_lat": 0.0, "type": "electric_scooter", "name": "0e202121ae4c71b07567c464cb7dfdce", "lat": 38.91560616666666, "bike_id": "0e202121ae4c71b07567c464cb7dfdce"}, {"lon": -77.01920833333334, "rental_uris": {"android": "https://dc.lft.to/lastmile_qr_scan", "ios": "https://dc.lft.to/lastmile_qr_scan"}, "fusion_lon": 0.0, "is_reserved": 0, "is_disabled": 0, "fusion_lat": 0.0, "type": "electric_scooter", "name": "430ea1172f0a09bc9cb93ad937c2353f", "lat": 38.92266583333333, "bike_id": "430ea1172f0a09bc9cb93ad937c2353f"}, {"lon": -76.99755683333333, "rental_uris": {"android": "https://dc.lft.to/lastmile_qr_scan", "ios": "https://dc.lft.to/lastmile_qr_scan"}, "fusion_lon": 0.0, "is_reserved": 0, "is_disabled": 0, "fusion_lat": 0.0, "type": "electric_scooter", "name": "75ee32f258c606d9f8bcc1fc5c241044", "lat": 38.92251183333333, "bike_id": "75ee32f258c606d9f8bcc1fc5c241044"}, {"lon": -76.94931916666667, "rental_uris": {"android": "https://dc.lft.to/lastmile_qr_scan", "ios": "https://dc.lft.to/lastmile_qr_scan"}, "fusion_lon": 0.0, "is_reserved": 0, "is_disabled": 0, "fusion_lat": 0.0, "type": "electric_scooter", "name": "5139cb3dfa74104f36b4b41d7541e3c2", "lat": 38.89531866666667, "bike_id": "5139cb3dfa74104f36b4b41d7541e3c2"}, {"lon": -76.98607516666667, "rental_uris": {"android": "https://dc.lft.to/lastmile_qr_scan", "ios": "https://dc.lft.to/lastmile_qr_scan"}, "fusion_lon": 0.0, "is_reserved": 0, "is_disabled": 0, "fusion_lat": 0.0, "type": "electric_scooter", "name": "591cc1adfc6944b5767922996672f269", "lat": 38.93895216666667, "bike_id": "591cc1adfc6944b5767922996672f269"}, {"lon": -77.05111216666667, "rental_uris": {"android": "https://dc.lft.to/lastmile_qr_scan", "ios": "https://dc.lft.to/lastmile_qr_scan"}, "fusion_lon": 0.0, "is_reserved": 0, "is_disabled": 0, "fusion_lat": 0.0, "type": "electric_scooter", "name": "ac7988c27ca44e8c2cc50db09769aa9d", "lat": 38.923601, "bike_id": "ac7988c27ca44e8c2cc50db09769aa9d"}, {"lon": -77.00341883333333, "rental_uris": {"android": "https://dc.lft.to/lastmile_qr_scan", "ios": "https://dc.lft.to/lastmile_qr_scan"}, "fusion_lon": 0.0, "is_reserved": 0, "is_disabled": 0, "fusion_lat": 0.0, "type": "electric_scooter", "name": "11704c5fe842a380c46d73930d68dba1", "lat": 38.89176916666667, "bike_id": "11704c5fe842a380c46d73930d68dba1"}, {"lon": -77.02475666666666, "rental_uris": {"android": "https://dc.lft.to/lastmile_qr_scan", "ios": "https://dc.lft.to/lastmile_qr_scan"}, "fusion_lon": 0.0, "is_reserved": 0, "is_disabled": 0, "fusion_lat": 0.0, "type": "electric_scooter", "name": "77a01286069258a3d4bbea7a230e187f", "lat": 38.918161833333336, "bike_id": "77a01286069258a3d4bbea7a230e187f"}, {"lon": -77.032743, "rental_uris": {"android": "https://dc.lft.to/lastmile_qr_scan", "ios": "https://dc.lft.to/lastmile_qr_scan"}, "fusion_lon": 0.0, "is_reserved": 0, "is_disabled": 0, "fusion_lat": 0.0, "type": "electric_scooter", "name": "0d8733526c643a99086061569aa4a625", "lat": 38.915601833333334, "bike_id": "0d8733526c643a99086061569aa4a625"}, {"lon": -76.99136183333333, "rental_uris": {"android": "https://dc.lft.to/lastmile_qr_scan", "ios": "https://dc.lft.to/lastmile_qr_scan"}, "fusion_lon": 0.0, "is_reserved": 0, "is_disabled": 0, "fusion_lat": 0.0, "type": "electric_scooter", "name": "712850799103f46782a251de64789bb3", "lat": 38.882264, "bike_id": "712850799103f46782a251de64789bb3"}, {"lon": -77.01214366666666, "rental_uris": {"android": "https://dc.lft.to/lastmile_qr_scan", "ios": "https://dc.lft.to/lastmile_qr_scan"}, "fusion_lon": 0.0, "is_reserved": 0, "is_disabled": 0, "fusion_lat": 0.0, "type": "electric_scooter", "name": "7f2222d5370d32ceea127d4be0cc021a", "lat": 38.90042116666667, "bike_id": "7f2222d5370d32ceea127d4be0cc021a"}, {"lon": -77.00542716666666, "rental_uris": {"android": "https://dc.lft.to/lastmile_qr_scan", "ios": "https://dc.lft.to/lastmile_qr_scan"}, "fusion_lon": 0.0, "is_reserved": 0, "is_disabled": 0, "fusion_lat": 0.0, "type": "electric_scooter", "name": "1f76d02ff9809489417bb6329418cd93", "lat": 38.8745655, "bike_id": "1f76d02ff9809489417bb6329418cd93"}, {"lon": -76.98282183333333, "rental_uris": {"android": "https://dc.lft.to/lastmile_qr_scan", "ios": "https://dc.lft.to/lastmile_qr_scan"}, "fusion_lon": 0.0, "is_reserved": 0, "is_disabled": 0, "fusion_lat": 0.0, "type": "electric_bike", "name": "63d8d6f8b5a066dcb5c7374fbfd28a64", "lat": 38.906287, "bike_id": "63d8d6f8b5a066dcb5c7374fbfd28a64"}, {"lon": -77.04256566666666, "rental_uris": {"android": "https://dc.lft.to/lastmile_qr_scan", "ios": "https://dc.lft.to/lastmile_qr_scan"}, "fusion_lon": 0.0, "is_reserved": 0, "is_disabled": 0, "fusion_lat": 0.0, "type": "electric_scooter", "name": "ae543e8acbc579b122937366fb8efda2", "lat": 38.92220433333333, "bike_id": "ae543e8acbc579b122937366fb8efda2"}, {"lon": -77.02251183333334, "rental_uris": {"android": "https://dc.lft.to/lastmile_qr_scan", "ios": "https://dc.lft.to/lastmile_qr_scan"}, "fusion_lon": 0.0, "is_reserved": 0, "is_disabled": 0, "fusion_lat": 0.0, "type": "electric_scooter", "name": "750d182c5b64d8256f63c033e87bec8d", "lat": 38.92374566666667, "bike_id": "750d182c5b64d8256f63c033e87bec8d"}, {"lon": -77.00735183333333, "rental_uris": {"android": "https://dc.lft.to/lastmile_qr_scan", "ios": "https://dc.lft.to/lastmile_qr_scan"}, "fusion_lon": 0.0, "is_reserved": 0, "is_disabled": 0, "fusion_lat": 0.0, "type": "electric_scooter", "name": "e4a78700d513402c06cea3aae2eac166", "lat": 38.89873866666667, "bike_id": "e4a78700d513402c06cea3aae2eac166"}, {"lon": -77.03272416666667, "rental_uris": {"android": "https://dc.lft.to/lastmile_qr_scan", "ios": "https://dc.lft.to/lastmile_qr_scan"}, "fusion_lon": 0.0, "is_reserved": 0, "is_disabled": 0, "fusion_lat": 0.0, "type": "electric_scooter", "name": "1bc76897726a97bfc37bb8261c8f9c94", "lat": 38.93255683333334, "bike_id": "1bc76897726a97bfc37bb8261c8f9c94"}, {"lon": -77.05132116666667, "rental_uris": {"android": "https://dc.lft.to/lastmile_qr_scan", "ios": "https://dc.lft.to/lastmile_qr_scan"}, "fusion_lon": 0.0, "is_reserved": 0, "is_disabled": 0, "fusion_lat": 0.0, "type": "electric_scooter", "name": "2c5a9cd735d59a30faed703b75b2314d", "lat": 38.90632433333333, "bike_id": "2c5a9cd735d59a30faed703b75b2314d"}, {"lon": -77.02837233333334, "rental_uris": {"android": "https://dc.lft.to/lastmile_qr_scan", "ios": "https://dc.lft.to/lastmile_qr_scan"}, "fusion_lon": 0.0, "is_reserved": 0, "is_disabled": 0, "fusion_lat": 0.0, "type": "electric_scooter", "name": "32a3f615b84614b14adbe232ae599763", "lat": 38.887687666666665, "bike_id": "32a3f615b84614b14adbe232ae599763"}, {"lon": -77.07520266666667, "rental_uris": {"android": "https://dc.lft.to/lastmile_qr_scan", "ios": "https://dc.lft.to/lastmile_qr_scan"}, "fusion_lon": 0.0, "is_reserved": 0, "is_disabled": 0, "fusion_lat": 0.0, "type": "electric_bike", "name": "2d4b4724e799ece098cba316168e3970", "lat": 38.842800833333335, "bike_id": "2d4b4724e799ece098cba316168e3970"}, {"lon": -77.00370816666667, "rental_uris": {"android": "https://dc.lft.to/lastmile_qr_scan", "ios": "https://dc.lft.to/lastmile_qr_scan"}, "fusion_lon": 0.0, "is_reserved": 0, "is_disabled": 0, "fusion_lat": 0.0, "type": "electric_scooter", "name": "d95f7ecee3375bfaad15e32df2208ffb", "lat": 38.907175, "bike_id": "d95f7ecee3375bfaad15e32df2208ffb"}, {"lon": -77.02969233333333, "rental_uris": {"android": "https://dc.lft.to/lastmile_qr_scan", "ios": "https://dc.lft.to/lastmile_qr_scan"}, "fusion_lon": 0.0, "is_reserved": 0, "is_disabled": 0, "fusion_lat": 0.0, "type": "electric_scooter", "name": "c0f76c099bb245675f0743f0fb6fc220", "lat": 38.912894333333334, "bike_id": "c0f76c099bb245675f0743f0fb6fc220"}, {"lon": -77.03509166666667, "rental_uris": {"android": "https://dc.lft.to/lastmile_qr_scan", "ios": "https://dc.lft.to/lastmile_qr_scan"}, "fusion_lon": 0.0, "is_reserved": 0, "is_disabled": 0, "fusion_lat": 0.0, "type": "electric_scooter", "name": "c14f50e13e17cb5a01889b79e9c80afb", "lat": 38.92328833333333, "bike_id": "c14f50e13e17cb5a01889b79e9c80afb"}, {"lon": -77.043438, "rental_uris": {"android": "https://dc.lft.to/lastmile_qr_scan", "ios": "https://dc.lft.to/lastmile_qr_scan"}, "fusion_lon": 0.0, "is_reserved": 0, "is_disabled": 0, "fusion_lat": 0.0, "type": "electric_scooter", "name": "d9c03db1f9b0bc8c2db328d37a2d9a1d", "lat": 38.8974685, "bike_id": "d9c03db1f9b0bc8c2db328d37a2d9a1d"}, {"lon": -77.021512, "rental_uris": {"android": "https://dc.lft.to/lastmile_qr_scan", "ios": "https://dc.lft.to/lastmile_qr_scan"}, "fusion_lon": 0.0, "is_reserved": 0, "is_disabled": 0, "fusion_lat": 0.0, "type": "electric_scooter", "name": "c57d97a7ae2eaf224dcd90b9d822fedb", "lat": 38.92633633333333, "bike_id": "c57d97a7ae2eaf224dcd90b9d822fedb"}, {"lon": -77.0317235, "rental_uris": {"android": "https://dc.lft.to/lastmile_qr_scan", "ios": "https://dc.lft.to/lastmile_qr_scan"}, "fusion_lon": 0.0, "is_reserved": 0, "is_disabled": 0, "fusion_lat": 0.0, "type": "electric_scooter", "name": "b509ad356364d01480550a4c4f528243", "lat": 38.887318666666665, "bike_id": "b509ad356364d01480550a4c4f528243"}, {"lon": -77.02823316666667, "rental_uris": {"android": "https://dc.lft.to/lastmile_qr_scan", "ios": "https://dc.lft.to/lastmile_qr_scan"}, "fusion_lon": 0.0, "is_reserved": 0, "is_disabled": 0, "fusion_lat": 0.0, "type": "electric_scooter", "name": "08bbfd439927c24c2b8234a02d6f7778", "lat": 38.886561666666665, "bike_id": "08bbfd439927c24c2b8234a02d6f7778"}, {"lon": -77.04473416666667, "rental_uris": {"android": "https://dc.lft.to/lastmile_qr_scan", "ios": "https://dc.lft.to/lastmile_qr_scan"}, "fusion_lon": 0.0, "is_reserved": 0, "is_disabled": 0, "fusion_lat": 0.0, "type": "electric_scooter", "name": "eb672d4b53c5ae45138ca5bade221ea0", "lat": 38.8922105, "bike_id": "eb672d4b53c5ae45138ca5bade221ea0"}, {"lon": -77.080624, "rental_uris": {"android": "https://dc.lft.to/lastmile_qr_scan", "ios": "https://dc.lft.to/lastmile_qr_scan"}, "fusion_lon": 0.0, "is_reserved": 0, "is_disabled": 0, "fusion_lat": 0.0, "type": "electric_scooter", "name": "c7d1f8c5f44e854d10ee42e4bc062322", "lat": 38.95599133333333, "bike_id": "c7d1f8c5f44e854d10ee42e4bc062322"}, {"lon": -77.02789366666667, "rental_uris": {"android": "https://dc.lft.to/lastmile_qr_scan", "ios": "https://dc.lft.to/lastmile_qr_scan"}, "fusion_lon": 0.0, "is_reserved": 0, "is_disabled": 0, "fusion_lat": 0.0, "type": "electric_scooter", "name": "7c9325929f5004ed3696cd9dd0db42fd", "lat": 38.95403816666666, "bike_id": "7c9325929f5004ed3696cd9dd0db42fd"}, {"lon": -76.99488883333333, "rental_uris": {"android": "https://dc.lft.to/lastmile_qr_scan", "ios": "https://dc.lft.to/lastmile_qr_scan"}, "fusion_lon": 0.0, "is_reserved": 0, "is_disabled": 0, "fusion_lat": 0.0, "type": "electric_scooter", "name": "55c1499c3a6afe661a4d0a635b1a6289", "lat": 38.925593, "bike_id": "55c1499c3a6afe661a4d0a635b1a6289"}, {"lon": -76.95746916666667, "rental_uris": {"android": "https://dc.lft.to/lastmile_qr_scan", "ios": "https://dc.lft.to/lastmile_qr_scan"}, "fusion_lon": 0.0, "is_reserved": 0, "is_disabled": 0, "fusion_lat": 0.0, "type": "electric_scooter", "name": "3292d45ffdea9fa1ff1856d76d269c8b", "lat": 38.884256, "bike_id": "3292d45ffdea9fa1ff1856d76d269c8b"}, {"lon": -77.04345083333334, "rental_uris": {"android": "https://dc.lft.to/lastmile_qr_scan", "ios": "https://dc.lft.to/lastmile_qr_scan"}, "fusion_lon": 0.0, "is_reserved": 0, "is_disabled": 0, "fusion_lat": 0.0, "type": "electric_scooter", "name": "c48b084694a297e48ec75c5fe054e6e4", "lat": 38.91043716666667, "bike_id": "c48b084694a297e48ec75c5fe054e6e4"}, {"lon": -77.05065616666667, "rental_uris": {"android": "https://dc.lft.to/lastmile_qr_scan", "ios": "https://dc.lft.to/lastmile_qr_scan"}, "fusion_lon": 0.0, "is_reserved": 0, "is_disabled": 0, "fusion_lat": 0.0, "type": "electric_scooter", "name": "1be995307763b1afdc90008299d50194", "lat": 38.91627233333333, "bike_id": "1be995307763b1afdc90008299d50194"}, {"lon": -77.02195466666667, "rental_uris": {"android": "https://dc.lft.to/lastmile_qr_scan", "ios": "https://dc.lft.to/lastmile_qr_scan"}, "fusion_lon": 0.0, "is_reserved": 0, "is_disabled": 0, "fusion_lat": 0.0, "type": "electric_scooter", "name": "b75d9ca60c726467d0d3926250bcf742", "lat": 38.896900333333335, "bike_id": "b75d9ca60c726467d0d3926250bcf742"}, {"lon": -76.9773605, "rental_uris": {"android": "https://dc.lft.to/lastmile_qr_scan", "ios": "https://dc.lft.to/lastmile_qr_scan"}, "fusion_lon": 0.0, "is_reserved": 0, "is_disabled": 0, "fusion_lat": 0.0, "type": "electric_bike", "name": "de6e0516ccf98b8762d52e9c179f1ba2", "lat": 38.86508, "bike_id": "de6e0516ccf98b8762d52e9c179f1ba2"}, {"lon": -77.04473666666667, "rental_uris": {"android": "https://dc.lft.to/lastmile_qr_scan", "ios": "https://dc.lft.to/lastmile_qr_scan"}, "fusion_lon": 0.0, "is_reserved": 0, "is_disabled": 0, "fusion_lat": 0.0, "type": "electric_scooter", "name": "512c94c8b07d9fa92587a559e23cf7be", "lat": 38.899089000000004, "bike_id": "512c94c8b07d9fa92587a559e23cf7be"}, {"lon": -77.02721483333333, "rental_uris": {"android": "https://dc.lft.to/lastmile_qr_scan", "ios": "https://dc.lft.to/lastmile_qr_scan"}, "fusion_lon": 0.0, "is_reserved": 0, "is_disabled": 0, "fusion_lat": 0.0, "type": "electric_scooter", "name": "bc1c917df953096d693311f85754635c", "lat": 38.940864833333336, "bike_id": "bc1c917df953096d693311f85754635c"}, {"lon": -77.04100416666667, "rental_uris": {"android": "https://dc.lft.to/lastmile_qr_scan", "ios": "https://dc.lft.to/lastmile_qr_scan"}, "fusion_lon": 0.0, "is_reserved": 0, "is_disabled": 0, "fusion_lat": 0.0, "type": "electric_scooter", "name": "26d0cca3d963051a575d9e44f652d5fc", "lat": 38.9012175, "bike_id": "26d0cca3d963051a575d9e44f652d5fc"}, {"lon": -77.027705, "rental_uris": {"android": "https://dc.lft.to/lastmile_qr_scan", "ios": "https://dc.lft.to/lastmile_qr_scan"}, "fusion_lon": 0.0, "is_reserved": 0, "is_disabled": 0, "fusion_lat": 0.0, "type": "electric_scooter", "name": "78468dbb471c712326e124b46d120bc4", "lat": 38.887436, "bike_id": "78468dbb471c712326e124b46d120bc4"}, {"lon": -77.0137755, "rental_uris": {"android": "https://dc.lft.to/lastmile_qr_scan", "ios": "https://dc.lft.to/lastmile_qr_scan"}, "fusion_lon": 0.0, "is_reserved": 0, "is_disabled": 0, "fusion_lat": 0.0, "type": "electric_scooter", "name": "68e4eadcf010900c772d05ea1034163b", "lat": 38.92888683333334, "bike_id": "68e4eadcf010900c772d05ea1034163b"}, {"lon": -76.96983883333333, "rental_uris": {"android": "https://dc.lft.to/lastmile_qr_scan", "ios": "https://dc.lft.to/lastmile_qr_scan"}, "fusion_lon": 0.0, "is_reserved": 0, "is_disabled": 0, "fusion_lat": 0.0, "type": "electric_scooter", "name": "a89daf4f0c0a57478b17ca5c18b68727", "lat": 38.8738275, "bike_id": "a89daf4f0c0a57478b17ca5c18b68727"}, {"lon": -77.04150366666667, "rental_uris": {"android": "https://dc.lft.to/lastmile_qr_scan", "ios": "https://dc.lft.to/lastmile_qr_scan"}, "fusion_lon": 0.0, "is_reserved": 0, "is_disabled": 0, "fusion_lat": 0.0, "type": "electric_scooter", "name": "a71996940553a10d2d6e4c2566510cc9", "lat": 38.907146166666664, "bike_id": "a71996940553a10d2d6e4c2566510cc9"}, {"lon": -77.03209883333334, "rental_uris": {"android": "https://dc.lft.to/lastmile_qr_scan", "ios": "https://dc.lft.to/lastmile_qr_scan"}, "fusion_lon": 0.0, "is_reserved": 0, "is_disabled": 0, "fusion_lat": 0.0, "type": "electric_scooter", "name": "d90eb782d97ffafe43d953f78912ba5d", "lat": 38.915534666666666, "bike_id": "d90eb782d97ffafe43d953f78912ba5d"}, {"lon": -77.0205775, "rental_uris": {"android": "https://dc.lft.to/lastmile_qr_scan", "ios": "https://dc.lft.to/lastmile_qr_scan"}, "fusion_lon": 0.0, "is_reserved": 0, "is_disabled": 0, "fusion_lat": 0.0, "type": "electric_scooter", "name": "d326007d79111e3438dd1d9b000a6ddd", "lat": 38.927648, "bike_id": "d326007d79111e3438dd1d9b000a6ddd"}, {"lon": -77.04603733333333, "rental_uris": {"android": "https://dc.lft.to/lastmile_qr_scan", "ios": "https://dc.lft.to/lastmile_qr_scan"}, "fusion_lon": 0.0, "is_reserved": 0, "is_disabled": 0, "fusion_lat": 0.0, "type": "electric_scooter", "name": "73277ea2b2345e567df0b3cf1db7a83a", "lat": 38.90284033333333, "bike_id": "73277ea2b2345e567df0b3cf1db7a83a"}, {"lon": -77.03162683333333, "rental_uris": {"android": "https://dc.lft.to/lastmile_qr_scan", "ios": "https://dc.lft.to/lastmile_qr_scan"}, "fusion_lon": 0.0, "is_reserved": 0, "is_disabled": 0, "fusion_lat": 0.0, "type": "electric_scooter", "name": "d58ea896905d1c145911a0037ef79ce3", "lat": 38.8920995, "bike_id": "d58ea896905d1c145911a0037ef79ce3"}, {"lon": -77.0650385, "rental_uris": {"android": "https://dc.lft.to/lastmile_qr_scan", "ios": "https://dc.lft.to/lastmile_qr_scan"}, "fusion_lon": 0.0, "is_reserved": 0, "is_disabled": 0, "fusion_lat": 0.0, "type": "electric_scooter", "name": "37f77e4cb84eacd3796601ec92a1bd9a", "lat": 38.90519966666667, "bike_id": "37f77e4cb84eacd3796601ec92a1bd9a"}, {"lon": -77.055514, "rental_uris": {"android": "https://dc.lft.to/lastmile_qr_scan", "ios": "https://dc.lft.to/lastmile_qr_scan"}, "fusion_lon": 0.0, "is_reserved": 0, "is_disabled": 0, "fusion_lat": 0.0, "type": "electric_bike", "name": "5da32f0570e1ffc08871f5fffda85c0a", "lat": 39.03599483333333, "bike_id": "5da32f0570e1ffc08871f5fffda85c0a"}, {"lon": -77.09453366666666, "rental_uris": {"android": "https://dc.lft.to/lastmile_qr_scan", "ios": "https://dc.lft.to/lastmile_qr_scan"}, "fusion_lon": 0.0, "is_reserved": 0, "is_disabled": 0, "fusion_lat": 0.0, "type": "electric_bike", "name": "d50e84dbc5c920504f640bf563ec2bb0", "lat": 38.8075395, "bike_id": "d50e84dbc5c920504f640bf563ec2bb0"}, {"lon": -77.00260566666667, "rental_uris": {"android": "https://dc.lft.to/lastmile_qr_scan", "ios": "https://dc.lft.to/lastmile_qr_scan"}, "fusion_lon": 0.0, "is_reserved": 0, "is_disabled": 0, "fusion_lat": 0.0, "type": "electric_scooter", "name": "6d7eeeb0a64a8c6861f10a64a4165d0b", "lat": 38.911825, "bike_id": "6d7eeeb0a64a8c6861f10a64a4165d0b"}, {"lon": -77.020932, "rental_uris": {"android": "https://dc.lft.to/lastmile_qr_scan", "ios": "https://dc.lft.to/lastmile_qr_scan"}, "fusion_lon": 0.0, "is_reserved": 0, "is_disabled": 0, "fusion_lat": 0.0, "type": "electric_scooter", "name": "0317aff93dc8d6793e7ae55dd1e0f10b", "lat": 38.92115416666667, "bike_id": "0317aff93dc8d6793e7ae55dd1e0f10b"}, {"lon": -77.015324, "rental_uris": {"android": "https://dc.lft.to/lastmile_qr_scan", "ios": "https://dc.lft.to/lastmile_qr_scan"}, "fusion_lon": 0.0, "is_reserved": 0, "is_disabled": 0, "fusion_lat": 0.0, "type": "electric_scooter", "name": "a9248ba7ffb6e9b0c5f4dfe8895eb391", "lat": 38.88732666666667, "bike_id": "a9248ba7ffb6e9b0c5f4dfe8895eb391"}, {"lon": -77.072263, "rental_uris": {"android": "https://dc.lft.to/lastmile_qr_scan", "ios": "https://dc.lft.to/lastmile_qr_scan"}, "fusion_lon": 0.0, "is_reserved": 0, "is_disabled": 0, "fusion_lat": 0.0, "type": "electric_scooter", "name": "cd380d31fa97418bc9ebf3a882b614ca", "lat": 38.93443933333333, "bike_id": "cd380d31fa97418bc9ebf3a882b614ca"}, {"lon": -77.0555755, "rental_uris": {"android": "https://dc.lft.to/lastmile_qr_scan", "ios": "https://dc.lft.to/lastmile_qr_scan"}, "fusion_lon": 0.0, "is_reserved": 0, "is_disabled": 0, "fusion_lat": 0.0, "type": "electric_scooter", "name": "a13bf08e45762bf89acb55c01f2737c2", "lat": 38.92527716666667, "bike_id": "a13bf08e45762bf89acb55c01f2737c2"}, {"lon": -77.03279533333334, "rental_uris": {"android": "https://dc.lft.to/lastmile_qr_scan", "ios": "https://dc.lft.to/lastmile_qr_scan"}, "fusion_lon": 0.0, "is_reserved": 0, "is_disabled": 0, "fusion_lat": 0.0, "type": "electric_scooter", "name": "303eaa1136a00aeb77c77caffcde4163", "lat": 38.939628, "bike_id": "303eaa1136a00aeb77c77caffcde4163"}, {"lon": -77.03345933333334, "rental_uris": {"android": "https://dc.lft.to/lastmile_qr_scan", "ios": "https://dc.lft.to/lastmile_qr_scan"}, "fusion_lon": 0.0, "is_reserved": 0, "is_disabled": 0, "fusion_lat": 0.0, "type": "electric_scooter", "name": "0b1eaab11c943ad7110e360823fa9cbf", "lat": 38.928809, "bike_id": "0b1eaab11c943ad7110e360823fa9cbf"}, {"lon": -77.012256, "rental_uris": {"android": "https://dc.lft.to/lastmile_qr_scan", "ios": "https://dc.lft.to/lastmile_qr_scan"}, "fusion_lon": 0.0, "is_reserved": 0, "is_disabled": 0, "fusion_lat": 0.0, "type": "electric_scooter", "name": "24b6a8d98eb3617ac75c09f8c0609776", "lat": 38.900332666666664, "bike_id": "24b6a8d98eb3617ac75c09f8c0609776"}, {"lon": -77.03893883333333, "rental_uris": {"android": "https://dc.lft.to/lastmile_qr_scan", "ios": "https://dc.lft.to/lastmile_qr_scan"}, "fusion_lon": 0.0, "is_reserved": 0, "is_disabled": 0, "fusion_lat": 0.0, "type": "electric_scooter", "name": "ea90572e9cdf37769b4ea3d6304521a9", "lat": 38.90624966666667, "bike_id": "ea90572e9cdf37769b4ea3d6304521a9"}, {"lon": -77.0034155, "rental_uris": {"android": "https://dc.lft.to/lastmile_qr_scan", "ios": "https://dc.lft.to/lastmile_qr_scan"}, "fusion_lon": 0.0, "is_reserved": 0, "is_disabled": 0, "fusion_lat": 0.0, "type": "electric_scooter", "name": "15f9674eeb0a18b799a40b8717f59078", "lat": 38.89532233333333, "bike_id": "15f9674eeb0a18b799a40b8717f59078"}, {"lon": -76.995116, "rental_uris": {"android": "https://dc.lft.to/lastmile_qr_scan", "ios": "https://dc.lft.to/lastmile_qr_scan"}, "fusion_lon": 0.0, "is_reserved": 0, "is_disabled": 0, "fusion_lat": 0.0, "type": "electric_scooter", "name": "c2232828bb4ec8ae60ddbf5a8e331c66", "lat": 38.8788795, "bike_id": "c2232828bb4ec8ae60ddbf5a8e331c66"}, {"lon": -77.0320075, "rental_uris": {"android": "https://dc.lft.to/lastmile_qr_scan", "ios": "https://dc.lft.to/lastmile_qr_scan"}, "fusion_lon": 0.0, "is_reserved": 0, "is_disabled": 0, "fusion_lat": 0.0, "type": "electric_scooter", "name": "4c64f520ec924a082b6cdfa6396f9c75", "lat": 38.926951333333335, "bike_id": "4c64f520ec924a082b6cdfa6396f9c75"}, {"lon": -77.034433, "rental_uris": {"android": "https://dc.lft.to/lastmile_qr_scan", "ios": "https://dc.lft.to/lastmile_qr_scan"}, "fusion_lon": 0.0, "is_reserved": 0, "is_disabled": 0, "fusion_lat": 0.0, "type": "electric_scooter", "name": "915946c0bbee3e65f985a43a73372841", "lat": 38.9039765, "bike_id": "915946c0bbee3e65f985a43a73372841"}, {"lon": -77.04041033333333, "rental_uris": {"android": "https://dc.lft.to/lastmile_qr_scan", "ios": "https://dc.lft.to/lastmile_qr_scan"}, "fusion_lon": 0.0, "is_reserved": 0, "is_disabled": 0, "fusion_lat": 0.0, "type": "electric_scooter", "name": "5bd703b37176d2ddde08f008fd32dd38", "lat": 38.924625666666664, "bike_id": "5bd703b37176d2ddde08f008fd32dd38"}, {"lon": -76.95285883333334, "rental_uris": {"android": "https://dc.lft.to/lastmile_qr_scan", "ios": "https://dc.lft.to/lastmile_qr_scan"}, "fusion_lon": 0.0, "is_reserved": 0, "is_disabled": 0, "fusion_lat": 0.0, "type": "electric_scooter", "name": "0cfc3c022e436da219324c297ad4dbd2", "lat": 38.88504533333333, "bike_id": "0cfc3c022e436da219324c297ad4dbd2"}, {"lon": -76.996317, "rental_uris": {"android": "https://dc.lft.to/lastmile_qr_scan", "ios": "https://dc.lft.to/lastmile_qr_scan"}, "fusion_lon": 0.0, "is_reserved": 0, "is_disabled": 0, "fusion_lat": 0.0, "type": "electric_scooter", "name": "19ab952edc629a5d62299286e590b2c6", "lat": 38.92518883333334, "bike_id": "19ab952edc629a5d62299286e590b2c6"}, {"lon": -77.03931933333334, "rental_uris": {"android": "https://dc.lft.to/lastmile_qr_scan", "ios": "https://dc.lft.to/lastmile_qr_scan"}, "fusion_lon": 0.0, "is_reserved": 0, "is_disabled": 0, "fusion_lat": 0.0, "type": "electric_scooter", "name": "c386d28453493d2180c6a6ef27c45bc3", "lat": 38.901441166666665, "bike_id": "c386d28453493d2180c6a6ef27c45bc3"}, {"lon": -76.99647066666667, "rental_uris": {"android": "https://dc.lft.to/lastmile_qr_scan", "ios": "https://dc.lft.to/lastmile_qr_scan"}, "fusion_lon": 0.0, "is_reserved": 0, "is_disabled": 0, "fusion_lat": 0.0, "type": "electric_scooter", "name": "05806c8d3ead32dcf559968d5dfeaccc", "lat": 38.85979, "bike_id": "05806c8d3ead32dcf559968d5dfeaccc"}, {"lon": -77.042672, "rental_uris": {"android": "https://dc.lft.to/lastmile_qr_scan", "ios": "https://dc.lft.to/lastmile_qr_scan"}, "fusion_lon": 0.0, "is_reserved": 0, "is_disabled": 0, "fusion_lat": 0.0, "type": "electric_scooter", "name": "d21aa69df06fa3ed9c2dc465e9a073e9", "lat": 38.92241516666667, "bike_id": "d21aa69df06fa3ed9c2dc465e9a073e9"}, {"lon": -77.00296616666667, "rental_uris": {"android": "https://dc.lft.to/lastmile_qr_scan", "ios": "https://dc.lft.to/lastmile_qr_scan"}, "fusion_lon": 0.0, "is_reserved": 0, "is_disabled": 0, "fusion_lat": 0.0, "type": "electric_scooter", "name": "0e498f848037db3024d9e55829c6a15f", "lat": 38.8765505, "bike_id": "0e498f848037db3024d9e55829c6a15f"}, {"lon": -77.04604883333333, "rental_uris": {"android": "https://dc.lft.to/lastmile_qr_scan", "ios": "https://dc.lft.to/lastmile_qr_scan"}, "fusion_lon": 0.0, "is_reserved": 0, "is_disabled": 0, "fusion_lat": 0.0, "type": "electric_scooter", "name": "4e9401b95545f64ed5303a14d4c0c7c8", "lat": 38.896081, "bike_id": "4e9401b95545f64ed5303a14d4c0c7c8"}, {"lon": -77.03355433333333, "rental_uris": {"android": "https://dc.lft.to/lastmile_qr_scan", "ios": "https://dc.lft.to/lastmile_qr_scan"}, "fusion_lon": 0.0, "is_reserved": 0, "is_disabled": 0, "fusion_lat": 0.0, "type": "electric_scooter", "name": "cb9b2f04d6e225a05fd4308e71ab59f1", "lat": 38.898041166666665, "bike_id": "cb9b2f04d6e225a05fd4308e71ab59f1"}, {"lon": -77.03229283333333, "rental_uris": {"android": "https://dc.lft.to/lastmile_qr_scan", "ios": "https://dc.lft.to/lastmile_qr_scan"}, "fusion_lon": 0.0, "is_reserved": 0, "is_disabled": 0, "fusion_lat": 0.0, "type": "electric_scooter", "name": "d6734b28c068910559e511c12307ffb7", "lat": 38.917046, "bike_id": "d6734b28c068910559e511c12307ffb7"}, {"lon": -77.0240545, "rental_uris": {"android": "https://dc.lft.to/lastmile_qr_scan", "ios": "https://dc.lft.to/lastmile_qr_scan"}, "fusion_lon": 0.0, "is_reserved": 0, "is_disabled": 0, "fusion_lat": 0.0, "type": "electric_scooter", "name": "a7ecf7a4c2fe8f229889625e4b9882b2", "lat": 38.901873, "bike_id": "a7ecf7a4c2fe8f229889625e4b9882b2"}, {"lon": -77.01949383333333, "rental_uris": {"android": "https://dc.lft.to/lastmile_qr_scan", "ios": "https://dc.lft.to/lastmile_qr_scan"}, "fusion_lon": 0.0, "is_reserved": 0, "is_disabled": 0, "fusion_lat": 0.0, "type": "electric_scooter", "name": "79af16cab92aa18cc40fa9788876ff9a", "lat": 38.92265783333333, "bike_id": "79af16cab92aa18cc40fa9788876ff9a"}, {"lon": -77.03803583333334, "rental_uris": {"android": "https://dc.lft.to/lastmile_qr_scan", "ios": "https://dc.lft.to/lastmile_qr_scan"}, "fusion_lon": 0.0, "is_reserved": 0, "is_disabled": 0, "fusion_lat": 0.0, "type": "electric_scooter", "name": "507bbd51150330398d7994645b62c49b", "lat": 38.923134166666664, "bike_id": "507bbd51150330398d7994645b62c49b"}, {"lon": -77.030125, "rental_uris": {"android": "https://dc.lft.to/lastmile_qr_scan", "ios": "https://dc.lft.to/lastmile_qr_scan"}, "fusion_lon": 0.0, "is_reserved": 0, "is_disabled": 0, "fusion_lat": 0.0, "type": "electric_scooter", "name": "259fcdd95e02e2f7eeab87756613a996", "lat": 38.916437333333334, "bike_id": "259fcdd95e02e2f7eeab87756613a996"}, {"lon": -77.05757383333334, "rental_uris": {"android": "https://dc.lft.to/lastmile_qr_scan", "ios": "https://dc.lft.to/lastmile_qr_scan"}, "fusion_lon": 0.0, "is_reserved": 0, "is_disabled": 0, "fusion_lat": 0.0, "type": "electric_scooter", "name": "280b4130a23394f31fcf2dc9d71e812b", "lat": 38.93373733333333, "bike_id": "280b4130a23394f31fcf2dc9d71e812b"}, {"lon": -77.0433435, "rental_uris": {"android": "https://dc.lft.to/lastmile_qr_scan", "ios": "https://dc.lft.to/lastmile_qr_scan"}, "fusion_lon": 0.0, "is_reserved": 0, "is_disabled": 0, "fusion_lat": 0.0, "type": "electric_scooter", "name": "d3ef3223d8b0dfd2cb1d81ab8a285cb2", "lat": 38.901216833333336, "bike_id": "d3ef3223d8b0dfd2cb1d81ab8a285cb2"}, {"lon": -77.00164533333333, "rental_uris": {"android": "https://dc.lft.to/lastmile_qr_scan", "ios": "https://dc.lft.to/lastmile_qr_scan"}, "fusion_lon": 0.0, "is_reserved": 0, "is_disabled": 0, "fusion_lat": 0.0, "type": "electric_scooter", "name": "b814a5425d512bc205dc6aa82ce6e1b3", "lat": 38.958359, "bike_id": "b814a5425d512bc205dc6aa82ce6e1b3"}, {"lon": -77.016715, "rental_uris": {"android": "https://dc.lft.to/lastmile_qr_scan", "ios": "https://dc.lft.to/lastmile_qr_scan"}, "fusion_lon": 0.0, "is_reserved": 0, "is_disabled": 0, "fusion_lat": 0.0, "type": "electric_scooter", "name": "a133b6d3a3df38f6e195a97db2d7e936", "lat": 38.9204385, "bike_id": "a133b6d3a3df38f6e195a97db2d7e936"}, {"lon": -77.04863283333333, "rental_uris": {"android": "https://dc.lft.to/lastmile_qr_scan", "ios": "https://dc.lft.to/lastmile_qr_scan"}, "fusion_lon": 0.0, "is_reserved": 0, "is_disabled": 0, "fusion_lat": 0.0, "type": "electric_scooter", "name": "5254438d655388faa33880cb3e9406e9", "lat": 38.90015566666667, "bike_id": "5254438d655388faa33880cb3e9406e9"}, {"lon": -77.02234466666667, "rental_uris": {"android": "https://dc.lft.to/lastmile_qr_scan", "ios": "https://dc.lft.to/lastmile_qr_scan"}, "fusion_lon": 0.0, "is_reserved": 0, "is_disabled": 0, "fusion_lat": 0.0, "type": "electric_scooter", "name": "b1ecc151990cbdd08ee47093470f1d2b", "lat": 38.887642666666665, "bike_id": "b1ecc151990cbdd08ee47093470f1d2b"}, {"lon": -77.04509316666666, "rental_uris": {"android": "https://dc.lft.to/lastmile_qr_scan", "ios": "https://dc.lft.to/lastmile_qr_scan"}, "fusion_lon": 0.0, "is_reserved": 0, "is_disabled": 0, "fusion_lat": 0.0, "type": "electric_scooter", "name": "1a4490b4839497f77ab35fd8d194042c", "lat": 38.89953, "bike_id": "1a4490b4839497f77ab35fd8d194042c"}, {"lon": -77.0031465, "rental_uris": {"android": "https://dc.lft.to/lastmile_qr_scan", "ios": "https://dc.lft.to/lastmile_qr_scan"}, "fusion_lon": 0.0, "is_reserved": 0, "is_disabled": 0, "fusion_lat": 0.0, "type": "electric_scooter", "name": "bb56c5970c073ed289a90e6b0734fd6f", "lat": 38.912475, "bike_id": "bb56c5970c073ed289a90e6b0734fd6f"}, {"lon": -77.03176133333334, "rental_uris": {"android": "https://dc.lft.to/lastmile_qr_scan", "ios": "https://dc.lft.to/lastmile_qr_scan"}, "fusion_lon": 0.0, "is_reserved": 0, "is_disabled": 0, "fusion_lat": 0.0, "type": "electric_scooter", "name": "5167b1f38837c6bd06566af055c82b41", "lat": 38.91679116666667, "bike_id": "5167b1f38837c6bd06566af055c82b41"}, {"lon": -76.99381466666667, "rental_uris": {"android": "https://dc.lft.to/lastmile_qr_scan", "ios": "https://dc.lft.to/lastmile_qr_scan"}, "fusion_lon": 0.0, "is_reserved": 0, "is_disabled": 0, "fusion_lat": 0.0, "type": "electric_scooter", "name": "b102e70275c090a4f2ed1ebffca5750a", "lat": 38.89336483333334, "bike_id": "b102e70275c090a4f2ed1ebffca5750a"}, {"lon": -77.0383445, "rental_uris": {"android": "https://dc.lft.to/lastmile_qr_scan", "ios": "https://dc.lft.to/lastmile_qr_scan"}, "fusion_lon": 0.0, "is_reserved": 0, "is_disabled": 0, "fusion_lat": 0.0, "type": "electric_scooter", "name": "5d53d2369c37d5b5d244824847711338", "lat": 38.90775516666667, "bike_id": "5d53d2369c37d5b5d244824847711338"}, {"lon": -77.0286445, "rental_uris": {"android": "https://dc.lft.to/lastmile_qr_scan", "ios": "https://dc.lft.to/lastmile_qr_scan"}, "fusion_lon": 0.0, "is_reserved": 0, "is_disabled": 0, "fusion_lat": 0.0, "type": "electric_scooter", "name": "060f40c956318090071165e4c8542e5f", "lat": 38.887407833333334, "bike_id": "060f40c956318090071165e4c8542e5f"}, {"lon": -77.04531133333333, "rental_uris": {"android": "https://dc.lft.to/lastmile_qr_scan", "ios": "https://dc.lft.to/lastmile_qr_scan"}, "fusion_lon": 0.0, "is_reserved": 0, "is_disabled": 0, "fusion_lat": 0.0, "type": "electric_scooter", "name": "110d0744e6df0c1cf71dc88954fd3e96", "lat": 38.914045333333334, "bike_id": "110d0744e6df0c1cf71dc88954fd3e96"}, {"lon": -76.99570183333333, "rental_uris": {"android": "https://dc.lft.to/lastmile_qr_scan", "ios": "https://dc.lft.to/lastmile_qr_scan"}, "fusion_lon": 0.0, "is_reserved": 0, "is_disabled": 0, "fusion_lat": 0.0, "type": "electric_scooter", "name": "b2f2fd6c3782a6d719505a9c3974e0d6", "lat": 38.920460166666665, "bike_id": "b2f2fd6c3782a6d719505a9c3974e0d6"}, {"lon": -77.05556466666667, "rental_uris": {"android": "https://dc.lft.to/lastmile_qr_scan", "ios": "https://dc.lft.to/lastmile_qr_scan"}, "fusion_lon": 0.0, "is_reserved": 0, "is_disabled": 0, "fusion_lat": 0.0, "type": "electric_scooter", "name": "1519d2eaa98394807fe686fd422d1378", "lat": 38.93029933333333, "bike_id": "1519d2eaa98394807fe686fd422d1378"}, {"lon": -77.006431, "rental_uris": {"android": "https://dc.lft.to/lastmile_qr_scan", "ios": "https://dc.lft.to/lastmile_qr_scan"}, "fusion_lon": 0.0, "is_reserved": 0, "is_disabled": 0, "fusion_lat": 0.0, "type": "electric_scooter", "name": "2cb846afd7db30e55eb3c04301896299", "lat": 38.876909833333336, "bike_id": "2cb846afd7db30e55eb3c04301896299"}, {"lon": -77.03348583333333, "rental_uris": {"android": "https://dc.lft.to/lastmile_qr_scan", "ios": "https://dc.lft.to/lastmile_qr_scan"}, "fusion_lon": 0.0, "is_reserved": 0, "is_disabled": 0, "fusion_lat": 0.0, "type": "electric_scooter", "name": "224fae29c094dea8c141068cfa9087ef", "lat": 38.927409, "bike_id": "224fae29c094dea8c141068cfa9087ef"}, {"lon": -77.0699695, "rental_uris": {"android": "https://dc.lft.to/lastmile_qr_scan", "ios": "https://dc.lft.to/lastmile_qr_scan"}, "fusion_lon": 0.0, "is_reserved": 0, "is_disabled": 0, "fusion_lat": 0.0, "type": "electric_scooter", "name": "fb0bd167cbbe62c13d78f44130419184", "lat": 38.90596733333334, "bike_id": "fb0bd167cbbe62c13d78f44130419184"}, {"lon": -76.98688533333333, "rental_uris": {"android": "https://dc.lft.to/lastmile_qr_scan", "ios": "https://dc.lft.to/lastmile_qr_scan"}, "fusion_lon": 0.0, "is_reserved": 0, "is_disabled": 0, "fusion_lat": 0.0, "type": "electric_bike", "name": "b89a622746eb414073e6051157c0b511", "lat": 38.944694, "bike_id": "b89a622746eb414073e6051157c0b511"}, {"lon": -77.02221816666666, "rental_uris": {"android": "https://dc.lft.to/lastmile_qr_scan", "ios": "https://dc.lft.to/lastmile_qr_scan"}, "fusion_lon": 0.0, "is_reserved": 0, "is_disabled": 0, "fusion_lat": 0.0, "type": "electric_bike", "name": "79e933260b1336b0fba5d7ec2a35ec2d", "lat": 38.912570833333334, "bike_id": "79e933260b1336b0fba5d7ec2a35ec2d"}, {"lon": -77.01987533333333, "rental_uris": {"android": "https://dc.lft.to/lastmile_qr_scan", "ios": "https://dc.lft.to/lastmile_qr_scan"}, "fusion_lon": 0.0, "is_reserved": 0, "is_disabled": 0, "fusion_lat": 0.0, "type": "electric_scooter", "name": "e6c6e16e5f1502ebd217d306737ab71a", "lat": 38.9104625, "bike_id": "e6c6e16e5f1502ebd217d306737ab71a"}, {"lon": -77.011318, "rental_uris": {"android": "https://dc.lft.to/lastmile_qr_scan", "ios": "https://dc.lft.to/lastmile_qr_scan"}, "fusion_lon": 0.0, "is_reserved": 0, "is_disabled": 0, "fusion_lat": 0.0, "type": "electric_scooter", "name": "b9161741fb84055bd16b905bb57a58af", "lat": 38.9063475, "bike_id": "b9161741fb84055bd16b905bb57a58af"}, {"lon": -77.0034415, "rental_uris": {"android": "https://dc.lft.to/lastmile_qr_scan", "ios": "https://dc.lft.to/lastmile_qr_scan"}, "fusion_lon": 0.0, "is_reserved": 0, "is_disabled": 0, "fusion_lat": 0.0, "type": "electric_scooter", "name": "7dd82e873c799a95bf1eee462d28f44b", "lat": 38.8993375, "bike_id": "7dd82e873c799a95bf1eee462d28f44b"}, {"lon": -77.01402733333333, "rental_uris": {"android": "https://dc.lft.to/lastmile_qr_scan", "ios": "https://dc.lft.to/lastmile_qr_scan"}, "fusion_lon": 0.0, "is_reserved": 0, "is_disabled": 0, "fusion_lat": 0.0, "type": "electric_scooter", "name": "8045d231a839a0380e6ebf0679b67f16", "lat": 38.8921795, "bike_id": "8045d231a839a0380e6ebf0679b67f16"}, {"lon": -77.02853466666667, "rental_uris": {"android": "https://dc.lft.to/lastmile_qr_scan", "ios": "https://dc.lft.to/lastmile_qr_scan"}, "fusion_lon": 0.0, "is_reserved": 0, "is_disabled": 0, "fusion_lat": 0.0, "type": "electric_scooter", "name": "7de0a6137805a3434d4d61b1bcf92907", "lat": 38.9350225, "bike_id": "7de0a6137805a3434d4d61b1bcf92907"}, {"lon": -77.03166916666666, "rental_uris": {"android": "https://dc.lft.to/lastmile_qr_scan", "ios": "https://dc.lft.to/lastmile_qr_scan"}, "fusion_lon": 0.0, "is_reserved": 0, "is_disabled": 0, "fusion_lat": 0.0, "type": "electric_scooter", "name": "467280cf03232a22def6bfa30d5aba12", "lat": 38.916421, "bike_id": "467280cf03232a22def6bfa30d5aba12"}, {"lon": -77.04602133333333, "rental_uris": {"android": "https://dc.lft.to/lastmile_qr_scan", "ios": "https://dc.lft.to/lastmile_qr_scan"}, "fusion_lon": 0.0, "is_reserved": 0, "is_disabled": 0, "fusion_lat": 0.0, "type": "electric_scooter", "name": "f417c4dd6e109c5b77771f64fa138ffd", "lat": 38.902748, "bike_id": "f417c4dd6e109c5b77771f64fa138ffd"}, {"lon": -77.046485, "rental_uris": {"android": "https://dc.lft.to/lastmile_qr_scan", "ios": "https://dc.lft.to/lastmile_qr_scan"}, "fusion_lon": 0.0, "is_reserved": 0, "is_disabled": 0, "fusion_lat": 0.0, "type": "electric_scooter", "name": "d5f18fd8d3458f7bf9ae398dbdab52fb", "lat": 38.892234333333334, "bike_id": "d5f18fd8d3458f7bf9ae398dbdab52fb"}, {"lon": -77.228983, "rental_uris": {"android": "https://dc.lft.to/lastmile_qr_scan", "ios": "https://dc.lft.to/lastmile_qr_scan"}, "fusion_lon": 0.0, "is_reserved": 0, "is_disabled": 0, "fusion_lat": 0.0, "type": "electric_bike", "name": "968a77508af77f0bbc0e8a59d70664bc", "lat": 38.87031066666667, "bike_id": "968a77508af77f0bbc0e8a59d70664bc"}, {"lon": -77.0302085, "rental_uris": {"android": "https://dc.lft.to/lastmile_qr_scan", "ios": "https://dc.lft.to/lastmile_qr_scan"}, "fusion_lon": 0.0, "is_reserved": 0, "is_disabled": 0, "fusion_lat": 0.0, "type": "electric_scooter", "name": "41fe0ba3c7907a9d22be184d9f24cddb", "lat": 38.93481966666667, "bike_id": "41fe0ba3c7907a9d22be184d9f24cddb"}, {"lon": -77.00198916666666, "rental_uris": {"android": "https://dc.lft.to/lastmile_qr_scan", "ios": "https://dc.lft.to/lastmile_qr_scan"}, "fusion_lon": 0.0, "is_reserved": 0, "is_disabled": 0, "fusion_lat": 0.0, "type": "electric_scooter", "name": "14c3711365a2d3ba10133ffa92e82eaa", "lat": 38.9023785, "bike_id": "14c3711365a2d3ba10133ffa92e82eaa"}, {"lon": -77.0039625, "rental_uris": {"android": "https://dc.lft.to/lastmile_qr_scan", "ios": "https://dc.lft.to/lastmile_qr_scan"}, "fusion_lon": 0.0, "is_reserved": 0, "is_disabled": 0, "fusion_lat": 0.0, "type": "electric_scooter", "name": "d29fda54b3c6667be4d3db466cd7172d", "lat": 38.900385166666666, "bike_id": "d29fda54b3c6667be4d3db466cd7172d"}, {"lon": -77.01946166666667, "rental_uris": {"android": "https://dc.lft.to/lastmile_qr_scan", "ios": "https://dc.lft.to/lastmile_qr_scan"}, "fusion_lon": 0.0, "is_reserved": 0, "is_disabled": 0, "fusion_lat": 0.0, "type": "electric_scooter", "name": "67aa6f7e735768150be0cf9033e28850", "lat": 38.92269483333333, "bike_id": "67aa6f7e735768150be0cf9033e28850"}, {"lon": -77.03565033333334, "rental_uris": {"android": "https://dc.lft.to/lastmile_qr_scan", "ios": "https://dc.lft.to/lastmile_qr_scan"}, "fusion_lon": 0.0, "is_reserved": 0, "is_disabled": 0, "fusion_lat": 0.0, "type": "electric_scooter", "name": "21159ce22bdcc7b6b670d72eaade0ab2", "lat": 38.908358666666665, "bike_id": "21159ce22bdcc7b6b670d72eaade0ab2"}, {"lon": -77.0022045, "rental_uris": {"android": "https://dc.lft.to/lastmile_qr_scan", "ios": "https://dc.lft.to/lastmile_qr_scan"}, "fusion_lon": 0.0, "is_reserved": 0, "is_disabled": 0, "fusion_lat": 0.0, "type": "electric_scooter", "name": "ec849bd5dc20b5055bfa05a104ec4824", "lat": 38.90034983333334, "bike_id": "ec849bd5dc20b5055bfa05a104ec4824"}, {"lon": -77.0053545, "rental_uris": {"android": "https://dc.lft.to/lastmile_qr_scan", "ios": "https://dc.lft.to/lastmile_qr_scan"}, "fusion_lon": 0.0, "is_reserved": 0, "is_disabled": 0, "fusion_lat": 0.0, "type": "electric_scooter", "name": "40b6ce7a5fb3e808a7e58deabda2045b", "lat": 38.87542366666667, "bike_id": "40b6ce7a5fb3e808a7e58deabda2045b"}, {"lon": -77.02178816666667, "rental_uris": {"android": "https://dc.lft.to/lastmile_qr_scan", "ios": "https://dc.lft.to/lastmile_qr_scan"}, "fusion_lon": 0.0, "is_reserved": 0, "is_disabled": 0, "fusion_lat": 0.0, "type": "electric_scooter", "name": "ee984e6f59141fe190746959265aeb04", "lat": 38.89355, "bike_id": "ee984e6f59141fe190746959265aeb04"}, {"lon": -76.94612583333333, "rental_uris": {"android": "https://dc.lft.to/lastmile_qr_scan", "ios": "https://dc.lft.to/lastmile_qr_scan"}, "fusion_lon": 0.0, "is_reserved": 0, "is_disabled": 0, "fusion_lat": 0.0, "type": "electric_scooter", "name": "a9ca44f907b1d157480d6b9c137b1c96", "lat": 38.89829683333333, "bike_id": "a9ca44f907b1d157480d6b9c137b1c96"}, {"lon": -77.064684, "rental_uris": {"android": "https://dc.lft.to/lastmile_qr_scan", "ios": "https://dc.lft.to/lastmile_qr_scan"}, "fusion_lon": 0.0, "is_reserved": 0, "is_disabled": 0, "fusion_lat": 0.0, "type": "electric_scooter", "name": "4bb876d0b5e5c89f72bc691c07a287b1", "lat": 38.9460415, "bike_id": "4bb876d0b5e5c89f72bc691c07a287b1"}, {"lon": -76.9836895, "rental_uris": {"android": "https://dc.lft.to/lastmile_qr_scan", "ios": "https://dc.lft.to/lastmile_qr_scan"}, "fusion_lon": 0.0, "is_reserved": 0, "is_disabled": 0, "fusion_lat": 0.0, "type": "electric_scooter", "name": "389f789125dcf579c47fe2095edec068", "lat": 38.889967166666665, "bike_id": "389f789125dcf579c47fe2095edec068"}, {"lon": -77.02528133333334, "rental_uris": {"android": "https://dc.lft.to/lastmile_qr_scan", "ios": "https://dc.lft.to/lastmile_qr_scan"}, "fusion_lon": 0.0, "is_reserved": 0, "is_disabled": 0, "fusion_lat": 0.0, "type": "electric_scooter", "name": "1c87d5dd663eff353334a10941b1b802", "lat": 38.92975, "bike_id": "1c87d5dd663eff353334a10941b1b802"}, {"lon": -77.0058635, "rental_uris": {"android": "https://dc.lft.to/lastmile_qr_scan", "ios": "https://dc.lft.to/lastmile_qr_scan"}, "fusion_lon": 0.0, "is_reserved": 0, "is_disabled": 0, "fusion_lat": 0.0, "type": "electric_scooter", "name": "c9b6c1b672d01c29e3a53a15acd30c0d", "lat": 38.875691, "bike_id": "c9b6c1b672d01c29e3a53a15acd30c0d"}, {"lon": -77.03229933333333, "rental_uris": {"android": "https://dc.lft.to/lastmile_qr_scan", "ios": "https://dc.lft.to/lastmile_qr_scan"}, "fusion_lon": 0.0, "is_reserved": 0, "is_disabled": 0, "fusion_lat": 0.0, "type": "electric_scooter", "name": "ac480ecb775d4167b83647e0decc4f30", "lat": 38.90151183333333, "bike_id": "ac480ecb775d4167b83647e0decc4f30"}, {"lon": -77.04533266666667, "rental_uris": {"android": "https://dc.lft.to/lastmile_qr_scan", "ios": "https://dc.lft.to/lastmile_qr_scan"}, "fusion_lon": 0.0, "is_reserved": 0, "is_disabled": 0, "fusion_lat": 0.0, "type": "electric_scooter", "name": "29a3a78b64f8bf63801c80247b766ddc", "lat": 38.91320783333333, "bike_id": "29a3a78b64f8bf63801c80247b766ddc"}, {"lon": -77.04621533333334, "rental_uris": {"android": "https://dc.lft.to/lastmile_qr_scan", "ios": "https://dc.lft.to/lastmile_qr_scan"}, "fusion_lon": 0.0, "is_reserved": 0, "is_disabled": 0, "fusion_lat": 0.0, "type": "electric_scooter", "name": "bbc2f01c64e6608b28beb4493fd95758", "lat": 38.90388333333333, "bike_id": "bbc2f01c64e6608b28beb4493fd95758"}, {"lon": -77.04117366666667, "rental_uris": {"android": "https://dc.lft.to/lastmile_qr_scan", "ios": "https://dc.lft.to/lastmile_qr_scan"}, "fusion_lon": 0.0, "is_reserved": 0, "is_disabled": 0, "fusion_lat": 0.0, "type": "electric_scooter", "name": "865cba266d97c71b941168d206881326", "lat": 38.899215166666664, "bike_id": "865cba266d97c71b941168d206881326"}, {"lon": -77.02759533333334, "rental_uris": {"android": "https://dc.lft.to/lastmile_qr_scan", "ios": "https://dc.lft.to/lastmile_qr_scan"}, "fusion_lon": 0.0, "is_reserved": 0, "is_disabled": 0, "fusion_lat": 0.0, "type": "electric_scooter", "name": "6842485034acef35a7bd58d8ec71d07a", "lat": 38.9278115, "bike_id": "6842485034acef35a7bd58d8ec71d07a"}, {"lon": -76.990313, "rental_uris": {"android": "https://dc.lft.to/lastmile_qr_scan", "ios": "https://dc.lft.to/lastmile_qr_scan"}, "fusion_lon": 0.0, "is_reserved": 0, "is_disabled": 0, "fusion_lat": 0.0, "type": "electric_scooter", "name": "5eeacf6e7aff6b97bf938f818359fe9d", "lat": 38.898503833333336, "bike_id": "5eeacf6e7aff6b97bf938f818359fe9d"}, {"lon": -77.15246033333334, "rental_uris": {"android": "https://dc.lft.to/lastmile_qr_scan", "ios": "https://dc.lft.to/lastmile_qr_scan"}, "fusion_lon": 0.0, "is_reserved": 0, "is_disabled": 0, "fusion_lat": 0.0, "type": "electric_bike", "name": "f773058fdb36b6a48ef24709bfbc3138", "lat": 39.086110833333336, "bike_id": "f773058fdb36b6a48ef24709bfbc3138"}, {"lon": -76.987602, "rental_uris": {"android": "https://dc.lft.to/lastmile_qr_scan", "ios": "https://dc.lft.to/lastmile_qr_scan"}, "fusion_lon": 0.0, "is_reserved": 0, "is_disabled": 0, "fusion_lat": 0.0, "type": "electric_bike", "name": "6074579dff0d0427b5727a9eed0e6c55", "lat": 38.85772816666667, "bike_id": "6074579dff0d0427b5727a9eed0e6c55"}, {"lon": -77.05876533333333, "rental_uris": {"android": "https://dc.lft.to/lastmile_qr_scan", "ios": "https://dc.lft.to/lastmile_qr_scan"}, "fusion_lon": 0.0, "is_reserved": 0, "is_disabled": 0, "fusion_lat": 0.0, "type": "electric_scooter", "name": "34d94d74f37cd947c143ee15f25a10e6", "lat": 38.936230333333334, "bike_id": "34d94d74f37cd947c143ee15f25a10e6"}, {"lon": -77.04622983333333, "rental_uris": {"android": "https://dc.lft.to/lastmile_qr_scan", "ios": "https://dc.lft.to/lastmile_qr_scan"}, "fusion_lon": 0.0, "is_reserved": 0, "is_disabled": 0, "fusion_lat": 0.0, "type": "electric_scooter", "name": "7128072bafd4e2f06fc89aaf09e2cfc2", "lat": 38.903631, "bike_id": "7128072bafd4e2f06fc89aaf09e2cfc2"}, {"lon": -77.04492483333334, "rental_uris": {"android": "https://dc.lft.to/lastmile_qr_scan", "ios": "https://dc.lft.to/lastmile_qr_scan"}, "fusion_lon": 0.0, "is_reserved": 0, "is_disabled": 0, "fusion_lat": 0.0, "type": "electric_scooter", "name": "e92b159e8c3a2101f87125c0083d7c7d", "lat": 38.90868483333333, "bike_id": "e92b159e8c3a2101f87125c0083d7c7d"}, {"lon": -77.03279966666666, "rental_uris": {"android": "https://dc.lft.to/lastmile_qr_scan", "ios": "https://dc.lft.to/lastmile_qr_scan"}, "fusion_lon": 0.0, "is_reserved": 0, "is_disabled": 0, "fusion_lat": 0.0, "type": "electric_scooter", "name": "27888cb9abee6305bb5b2cc04488e321", "lat": 38.93755183333333, "bike_id": "27888cb9abee6305bb5b2cc04488e321"}, {"lon": -77.01996066666666, "rental_uris": {"android": "https://dc.lft.to/lastmile_qr_scan", "ios": "https://dc.lft.to/lastmile_qr_scan"}, "fusion_lon": 0.0, "is_reserved": 0, "is_disabled": 0, "fusion_lat": 0.0, "type": "electric_scooter", "name": "41193a34ab5ff36042152411d8a309e0", "lat": 38.964442, "bike_id": "41193a34ab5ff36042152411d8a309e0"}, {"lon": -77.04198116666667, "rental_uris": {"android": "https://dc.lft.to/lastmile_qr_scan", "ios": "https://dc.lft.to/lastmile_qr_scan"}, "fusion_lon": 0.0, "is_reserved": 0, "is_disabled": 0, "fusion_lat": 0.0, "type": "electric_scooter", "name": "b293200166c25bc1a08cb4829eea0a48", "lat": 38.8992535, "bike_id": "b293200166c25bc1a08cb4829eea0a48"}, {"lon": -77.02170266666667, "rental_uris": {"android": "https://dc.lft.to/lastmile_qr_scan", "ios": "https://dc.lft.to/lastmile_qr_scan"}, "fusion_lon": 0.0, "is_reserved": 0, "is_disabled": 0, "fusion_lat": 0.0, "type": "electric_scooter", "name": "6e09abdfc83fe4b9e28bd64a57b7e229", "lat": 38.887305166666664, "bike_id": "6e09abdfc83fe4b9e28bd64a57b7e229"}, {"lon": -76.95689483333334, "rental_uris": {"android": "https://dc.lft.to/lastmile_qr_scan", "ios": "https://dc.lft.to/lastmile_qr_scan"}, "fusion_lon": 0.0, "is_reserved": 0, "is_disabled": 0, "fusion_lat": 0.0, "type": "electric_bike", "name": "c2499ebd7376083b3d471e20fc2c8bf1", "lat": 38.850917333333335, "bike_id": "c2499ebd7376083b3d471e20fc2c8bf1"}, {"lon": -77.0155815, "rental_uris": {"android": "https://dc.lft.to/lastmile_qr_scan", "ios": "https://dc.lft.to/lastmile_qr_scan"}, "fusion_lon": 0.0, "is_reserved": 0, "is_disabled": 0, "fusion_lat": 0.0, "type": "electric_scooter", "name": "fbbbe8015aea94ba90aff799114abcbe", "lat": 38.914676166666666, "bike_id": "fbbbe8015aea94ba90aff799114abcbe"}, {"lon": -77.0194665, "rental_uris": {"android": "https://dc.lft.to/lastmile_qr_scan", "ios": "https://dc.lft.to/lastmile_qr_scan"}, "fusion_lon": 0.0, "is_reserved": 0, "is_disabled": 0, "fusion_lat": 0.0, "type": "electric_scooter", "name": "5f362c08d5f3316f51f0652e67cb1e57", "lat": 38.92271066666667, "bike_id": "5f362c08d5f3316f51f0652e67cb1e57"}, {"lon": -77.00178233333334, "rental_uris": {"android": "https://dc.lft.to/lastmile_qr_scan", "ios": "https://dc.lft.to/lastmile_qr_scan"}, "fusion_lon": 0.0, "is_reserved": 0, "is_disabled": 0, "fusion_lat": 0.0, "type": "electric_scooter", "name": "36cbad54dca2cc0c17a6f0bf2db6c89b", "lat": 38.873727333333335, "bike_id": "36cbad54dca2cc0c17a6f0bf2db6c89b"}, {"lon": -77.00788166666666, "rental_uris": {"android": "https://dc.lft.to/lastmile_qr_scan", "ios": "https://dc.lft.to/lastmile_qr_scan"}, "fusion_lon": 0.0, "is_reserved": 0, "is_disabled": 0, "fusion_lat": 0.0, "type": "electric_bike", "name": "a56b02bc25578fee65e5a39ab7c817f1", "lat": 38.874887666666666, "bike_id": "a56b02bc25578fee65e5a39ab7c817f1"}, {"lon": -77.02839383333334, "rental_uris": {"android": "https://dc.lft.to/lastmile_qr_scan", "ios": "https://dc.lft.to/lastmile_qr_scan"}, "fusion_lon": 0.0, "is_reserved": 0, "is_disabled": 0, "fusion_lat": 0.0, "type": "electric_bike", "name": "4d7208a3b5d25b69853ff11ccae2ad6b", "lat": 38.94261233333334, "bike_id": "4d7208a3b5d25b69853ff11ccae2ad6b"}, {"lon": -77.01224566666667, "rental_uris": {"android": "https://dc.lft.to/lastmile_qr_scan", "ios": "https://dc.lft.to/lastmile_qr_scan"}, "fusion_lon": 0.0, "is_reserved": 0, "is_disabled": 0, "fusion_lat": 0.0, "type": "electric_scooter", "name": "369cf5bfc90b73d9faf6fa4c89fdac36", "lat": 38.89342833333333, "bike_id": "369cf5bfc90b73d9faf6fa4c89fdac36"}, {"lon": -77.02171316666667, "rental_uris": {"android": "https://dc.lft.to/lastmile_qr_scan", "ios": "https://dc.lft.to/lastmile_qr_scan"}, "fusion_lon": 0.0, "is_reserved": 0, "is_disabled": 0, "fusion_lat": 0.0, "type": "electric_scooter", "name": "1cd2189f95847f291d680787195ece44", "lat": 38.94289833333333, "bike_id": "1cd2189f95847f291d680787195ece44"}, {"lon": -77.05145083333333, "rental_uris": {"android": "https://dc.lft.to/lastmile_qr_scan", "ios": "https://dc.lft.to/lastmile_qr_scan"}, "fusion_lon": 0.0, "is_reserved": 0, "is_disabled": 0, "fusion_lat": 0.0, "type": "electric_scooter", "name": "3420f87144258792d7a46435b809e436", "lat": 38.9062535, "bike_id": "3420f87144258792d7a46435b809e436"}, {"lon": -77.01959083333334, "rental_uris": {"android": "https://dc.lft.to/lastmile_qr_scan", "ios": "https://dc.lft.to/lastmile_qr_scan"}, "fusion_lon": 0.0, "is_reserved": 0, "is_disabled": 0, "fusion_lat": 0.0, "type": "electric_scooter", "name": "f5363a55d20da555236965239aef8659", "lat": 38.923146833333334, "bike_id": "f5363a55d20da555236965239aef8659"}, {"lon": -77.03185216666667, "rental_uris": {"android": "https://dc.lft.to/lastmile_qr_scan", "ios": "https://dc.lft.to/lastmile_qr_scan"}, "fusion_lon": 0.0, "is_reserved": 0, "is_disabled": 0, "fusion_lat": 0.0, "type": "electric_scooter", "name": "a3183408b983d1e474525aa381872c94", "lat": 38.911931333333335, "bike_id": "a3183408b983d1e474525aa381872c94"}, {"lon": -77.038595, "rental_uris": {"android": "https://dc.lft.to/lastmile_qr_scan", "ios": "https://dc.lft.to/lastmile_qr_scan"}, "fusion_lon": 0.0, "is_reserved": 0, "is_disabled": 0, "fusion_lat": 0.0, "type": "electric_scooter", "name": "03840b7cdf9208173d901d180388a094", "lat": 38.931983333333335, "bike_id": "03840b7cdf9208173d901d180388a094"}, {"lon": -77.029604, "rental_uris": {"android": "https://dc.lft.to/lastmile_qr_scan", "ios": "https://dc.lft.to/lastmile_qr_scan"}, "fusion_lon": 0.0, "is_reserved": 0, "is_disabled": 0, "fusion_lat": 0.0, "type": "electric_scooter", "name": "df961150177fcbaf9c9d707b8e79d245", "lat": 38.942191666666666, "bike_id": "df961150177fcbaf9c9d707b8e79d245"}, {"lon": -77.02477533333334, "rental_uris": {"android": "https://dc.lft.to/lastmile_qr_scan", "ios": "https://dc.lft.to/lastmile_qr_scan"}, "fusion_lon": 0.0, "is_reserved": 0, "is_disabled": 0, "fusion_lat": 0.0, "type": "electric_scooter", "name": "0910162c091fd74af9d4ea35ee95633c", "lat": 38.94191766666667, "bike_id": "0910162c091fd74af9d4ea35ee95633c"}, {"lon": -77.046802, "rental_uris": {"android": "https://dc.lft.to/lastmile_qr_scan", "ios": "https://dc.lft.to/lastmile_qr_scan"}, "fusion_lon": 0.0, "is_reserved": 0, "is_disabled": 0, "fusion_lat": 0.0, "type": "electric_scooter", "name": "21aded78aabbf92dbbe1882b8cdfbdcc", "lat": 38.90257783333333, "bike_id": "21aded78aabbf92dbbe1882b8cdfbdcc"}, {"lon": -77.022838, "rental_uris": {"android": "https://dc.lft.to/lastmile_qr_scan", "ios": "https://dc.lft.to/lastmile_qr_scan"}, "fusion_lon": 0.0, "is_reserved": 0, "is_disabled": 0, "fusion_lat": 0.0, "type": "electric_scooter", "name": "0c90f1f565d468a6e5177685a5cbd5ed", "lat": 38.926959833333335, "bike_id": "0c90f1f565d468a6e5177685a5cbd5ed"}, {"lon": -77.03791683333333, "rental_uris": {"android": "https://dc.lft.to/lastmile_qr_scan", "ios": "https://dc.lft.to/lastmile_qr_scan"}, "fusion_lon": 0.0, "is_reserved": 0, "is_disabled": 0, "fusion_lat": 0.0, "type": "electric_scooter", "name": "56ef0b8f91042aaa8ba7c56bf9916f44", "lat": 38.902287666666666, "bike_id": "56ef0b8f91042aaa8ba7c56bf9916f44"}, {"lon": -77.08858516666666, "rental_uris": {"android": "https://dc.lft.to/lastmile_qr_scan", "ios": "https://dc.lft.to/lastmile_qr_scan"}, "fusion_lon": 0.0, "is_reserved": 0, "is_disabled": 0, "fusion_lat": 0.0, "type": "electric_scooter", "name": "d545ae96b75feb39cc388f88526948b5", "lat": 38.9338105, "bike_id": "d545ae96b75feb39cc388f88526948b5"}, {"lon": -77.03141383333333, "rental_uris": {"android": "https://dc.lft.to/lastmile_qr_scan", "ios": "https://dc.lft.to/lastmile_qr_scan"}, "fusion_lon": 0.0, "is_reserved": 0, "is_disabled": 0, "fusion_lat": 0.0, "type": "electric_scooter", "name": "068a0d82c255ea1ebd2a73272a9d2a95", "lat": 38.899448166666666, "bike_id": "068a0d82c255ea1ebd2a73272a9d2a95"}, {"lon": -77.01360683333333, "rental_uris": {"android": "https://dc.lft.to/lastmile_qr_scan", "ios": "https://dc.lft.to/lastmile_qr_scan"}, "fusion_lon": 0.0, "is_reserved": 0, "is_disabled": 0, "fusion_lat": 0.0, "type": "electric_scooter", "name": "57588c065f88cff2534923867c24d450", "lat": 38.95676733333333, "bike_id": "57588c065f88cff2534923867c24d450"}, {"lon": -77.00322066666666, "rental_uris": {"android": "https://dc.lft.to/lastmile_qr_scan", "ios": "https://dc.lft.to/lastmile_qr_scan"}, "fusion_lon": 0.0, "is_reserved": 0, "is_disabled": 0, "fusion_lat": 0.0, "type": "electric_scooter", "name": "2c81f033fc099ea62fd4e92f6c7653a8", "lat": 38.87635816666667, "bike_id": "2c81f033fc099ea62fd4e92f6c7653a8"}, {"lon": -77.0484725, "rental_uris": {"android": "https://dc.lft.to/lastmile_qr_scan", "ios": "https://dc.lft.to/lastmile_qr_scan"}, "fusion_lon": 0.0, "is_reserved": 0, "is_disabled": 0, "fusion_lat": 0.0, "type": "electric_scooter", "name": "58cefab0aee82ff1f68df707ae971491", "lat": 38.900409, "bike_id": "58cefab0aee82ff1f68df707ae971491"}, {"lon": -77.040542, "rental_uris": {"android": "https://dc.lft.to/lastmile_qr_scan", "ios": "https://dc.lft.to/lastmile_qr_scan"}, "fusion_lon": 0.0, "is_reserved": 0, "is_disabled": 0, "fusion_lat": 0.0, "type": "electric_scooter", "name": "304da34eaadebb0e2fea119556f16a0b", "lat": 38.92796233333333, "bike_id": "304da34eaadebb0e2fea119556f16a0b"}, {"lon": -77.007011, "rental_uris": {"android": "https://dc.lft.to/lastmile_qr_scan", "ios": "https://dc.lft.to/lastmile_qr_scan"}, "fusion_lon": 0.0, "is_reserved": 0, "is_disabled": 0, "fusion_lat": 0.0, "type": "electric_scooter", "name": "3ae6d6256ddaf047f213a851a6a7b9c9", "lat": 38.91549783333333, "bike_id": "3ae6d6256ddaf047f213a851a6a7b9c9"}, {"lon": -77.01840766666666, "rental_uris": {"android": "https://dc.lft.to/lastmile_qr_scan", "ios": "https://dc.lft.to/lastmile_qr_scan"}, "fusion_lon": 0.0, "is_reserved": 0, "is_disabled": 0, "fusion_lat": 0.0, "type": "electric_scooter", "name": "b50d854b3a01d87aa6a0227efd155e8f", "lat": 38.922697666666664, "bike_id": "b50d854b3a01d87aa6a0227efd155e8f"}, {"lon": -77.04380083333334, "rental_uris": {"android": "https://dc.lft.to/lastmile_qr_scan", "ios": "https://dc.lft.to/lastmile_qr_scan"}, "fusion_lon": 0.0, "is_reserved": 0, "is_disabled": 0, "fusion_lat": 0.0, "type": "electric_scooter", "name": "600a50d4eeb5d610961b8deee1942bcb", "lat": 38.90020366666667, "bike_id": "600a50d4eeb5d610961b8deee1942bcb"}, {"lon": -77.03116516666667, "rental_uris": {"android": "https://dc.lft.to/lastmile_qr_scan", "ios": "https://dc.lft.to/lastmile_qr_scan"}, "fusion_lon": 0.0, "is_reserved": 0, "is_disabled": 0, "fusion_lat": 0.0, "type": "electric_scooter", "name": "9a8479a57e753df7fb7df8ee67513f7e", "lat": 38.920134166666664, "bike_id": "9a8479a57e753df7fb7df8ee67513f7e"}, {"lon": -77.02818633333334, "rental_uris": {"android": "https://dc.lft.to/lastmile_qr_scan", "ios": "https://dc.lft.to/lastmile_qr_scan"}, "fusion_lon": 0.0, "is_reserved": 0, "is_disabled": 0, "fusion_lat": 0.0, "type": "electric_scooter", "name": "8f83c476ee08d61915cd0415a1ac9dea", "lat": 38.9275945, "bike_id": "8f83c476ee08d61915cd0415a1ac9dea"}, {"lon": -77.0341125, "rental_uris": {"android": "https://dc.lft.to/lastmile_qr_scan", "ios": "https://dc.lft.to/lastmile_qr_scan"},