{"data": {"bikes": [{"rental_uris": {"ios": "https://dc.lft.to/lastmile_qr_scan", "android": "https://dc.lft.to/lastmile_qr_scan"}, "type": "electric_bike", "name": "9000bbdb54e352cc17d44fd2abf8a080", "is_reserved": 0, "lon": -77.002048, "is_disabled": 0, "fusion_lat": 0.0, "lat": 38.98846666666667, "bike_id": "9000bbdb54e352cc17d44fd2abf8a080", "fusion_lon": 0.0}, {"rental_uris": {"ios": "https://dc.lft.to/lastmile_qr_scan", "android": "https://dc.lft.to/lastmile_qr_scan"}, "type": "electric_scooter", "name": "f8941836cf6e48d4a64baba95f867702", "is_reserved": 0, "lon": -77.006028, "is_disabled": 0, "fusion_lat": 0.0, "lat": 38.8756275, "bike_id": "f8941836cf6e48d4a64baba95f867702", "fusion_lon": 0.0}, {"rental_uris": {"ios": "https://dc.lft.to/lastmile_qr_scan", "android": "https://dc.lft.to/lastmile_qr_scan"}, "type": "electric_scooter", "name": "52bec16712b0bf87caf95be6e8f3b054", "is_reserved": 0, "lon": -77.028185, "is_disabled": 0, "fusion_lat": 0.0, "lat": 38.956444, "bike_id": "52bec16712b0bf87caf95be6e8f3b054", "fusion_lon": 0.0}, {"rental_uris": {"ios": "https://dc.lft.to/lastmile_qr_scan", "android": "https://dc.lft.to/lastmile_qr_scan"}, "type": "electric_scooter", "name": "9320eed70b166b8487b439679c7ae785", "is_reserved": 0, "lon": -77.02303016666667, "is_disabled": 0, "fusion_lat": 0.0, "lat": 38.96133833333333, "bike_id": "9320eed70b166b8487b439679c7ae785", "fusion_lon": 0.0}, {"rental_uris": {"ios": "https://dc.lft.to/lastmile_qr_scan", "android": "https://dc.lft.to/lastmile_qr_scan"}, "type": "electric_scooter", "name": "0450e08df16eeef8110562edfa287756", "is_reserved": 0, "lon": -77.044458, "is_disabled": 0, "fusion_lat": 0.0, "lat": 38.8973515, "bike_id": "0450e08df16eeef8110562edfa287756", "fusion_lon": 0.0}, {"rental_uris": {"ios": "https://dc.lft.to/lastmile_qr_scan", "android": "https://dc.lft.to/lastmile_qr_scan"}, "type": "electric_scooter", "name": "2aba2a2ff7a4326bf58ad46086791d31", "is_reserved": 0, "lon": -77.03360016666667, "is_disabled": 0, "fusion_lat": 0.0, "lat": 38.902561166666665, "bike_id": "2aba2a2ff7a4326bf58ad46086791d31", "fusion_lon": 0.0}, {"rental_uris": {"ios": "https://dc.lft.to/lastmile_qr_scan", "android": "https://dc.lft.to/lastmile_qr_scan"}, "type": "electric_scooter", "name": "427345d5ba19d80b2a39e49be2eaa37f", "is_reserved": 0, "lon": -77.0344275, "is_disabled": 0, "fusion_lat": 0.0, "lat": 38.908451666666664, "bike_id": "427345d5ba19d80b2a39e49be2eaa37f", "fusion_lon": 0.0}, {"rental_uris": {"ios": "https://dc.lft.to/lastmile_qr_scan", "android": "https://dc.lft.to/lastmile_qr_scan"}, "type": "electric_scooter", "name": "55f231bee23fc97e8ec39b3d499d57a7", "is_reserved": 0, "lon": -77.033725, "is_disabled": 0, "fusion_lat": 0.0, "lat": 38.91031983333333, "bike_id": "55f231bee23fc97e8ec39b3d499d57a7", "fusion_lon": 0.0}, {"rental_uris": {"ios": "https://dc.lft.to/lastmile_qr_scan", "android": "https://dc.lft.to/lastmile_qr_scan"}, "type": "electric_scooter", "name": "a06b7c5a0905c10c2dc6a5aa4a2557c6", "is_reserved": 0, "lon": -77.0095535, "is_disabled": 0, "fusion_lat": 0.0, "lat": 38.87462766666667, "bike_id": "a06b7c5a0905c10c2dc6a5aa4a2557c6", "fusion_lon": 0.0}, {"rental_uris": {"ios": "https://dc.lft.to/lastmile_qr_scan", "android": "https://dc.lft.to/lastmile_qr_scan"}, "type": "electric_scooter", "name": "71c7a02131ae15f6b6699c2442e8c310", "is_reserved": 0, "lon": -77.00509683333334, "is_disabled": 0, "fusion_lat": 0.0, "lat": 38.87862, "bike_id": "71c7a02131ae15f6b6699c2442e8c310", "fusion_lon": 0.0}, {"rental_uris": {"ios": "https://dc.lft.to/lastmile_qr_scan", "android": "https://dc.lft.to/lastmile_qr_scan"}, "type": "electric_scooter", "name": "5bc10db2593d016cee43f22f622dd246", "is_reserved": 0, "lon": -77.05745, "is_disabled": 0, "fusion_lat": 0.0, "lat": 38.930358, "bike_id": "5bc10db2593d016cee43f22f622dd246", "fusion_lon": 0.0}, {"rental_uris": {"ios": "https://dc.lft.to/lastmile_qr_scan", "android": "https://dc.lft.to/lastmile_qr_scan"}, "type": "electric_bike", "name": "5bf3d0e3d3e03629d79d67f8700c144d", "is_reserved": 0, "lon": -77.0236155, "is_disabled": 0, "fusion_lat": 0.0, "lat": 38.91961083333333, "bike_id": "5bf3d0e3d3e03629d79d67f8700c144d", "fusion_lon": 0.0}, {"rental_uris": {"ios": "https://dc.lft.to/lastmile_qr_scan", "android": "https://dc.lft.to/lastmile_qr_scan"}, "type": "electric_scooter", "name": "3afed9d3500d0de83c890e0b20caeb4a", "is_reserved": 0, "lon": -77.07871933333334, "is_disabled": 0, "fusion_lat": 0.0, "lat": 38.931534666666664, "bike_id": "3afed9d3500d0de83c890e0b20caeb4a", "fusion_lon": 0.0}, {"rental_uris": {"ios": "https://dc.lft.to/lastmile_qr_scan", "android": "https://dc.lft.to/lastmile_qr_scan"}, "type": "electric_bike", "name": "a8662a8206ba0bcaf119a83d1adef83c", "is_reserved": 0, "lon": -77.09619166666667, "is_disabled": 0, "fusion_lat": 0.0, "lat": 38.97439766666667, "bike_id": "a8662a8206ba0bcaf119a83d1adef83c", "fusion_lon": 0.0}, {"rental_uris": {"ios": "https://dc.lft.to/lastmile_qr_scan", "android": "https://dc.lft.to/lastmile_qr_scan"}, "type": "electric_scooter", "name": "00a5e587d4f993488bf4d82dacfde5d7", "is_reserved": 0, "lon": -77.0297795, "is_disabled": 0, "fusion_lat": 0.0, "lat": 38.923559, "bike_id": "00a5e587d4f993488bf4d82dacfde5d7", "fusion_lon": 0.0}, {"rental_uris": {"ios": "https://dc.lft.to/lastmile_qr_scan", "android": "https://dc.lft.to/lastmile_qr_scan"}, "type": "electric_scooter", "name": "871002abd79dbdef10766e8f6a24d751", "is_reserved": 0, "lon": -76.94647416666666, "is_disabled": 0, "fusion_lat": 0.0, "lat": 38.8982735, "bike_id": "871002abd79dbdef10766e8f6a24d751", "fusion_lon": 0.0}, {"rental_uris": {"ios": "https://dc.lft.to/lastmile_qr_scan", "android": "https://dc.lft.to/lastmile_qr_scan"}, "type": "electric_scooter", "name": "edb8810e28de1de0c6c62d3c8677cf06", "is_reserved": 0, "lon": -77.0190575, "is_disabled": 0, "fusion_lat": 0.0, "lat": 38.905752, "bike_id": "edb8810e28de1de0c6c62d3c8677cf06", "fusion_lon": 0.0}, {"rental_uris": {"ios": "https://dc.lft.to/lastmile_qr_scan", "android": "https://dc.lft.to/lastmile_qr_scan"}, "type": "electric_bike", "name": "239b2a9f17e7959e82e95d3cdc8da599", "is_reserved": 0, "lon": -76.9332935, "is_disabled": 0, "fusion_lat": 0.0, "lat": 38.95153, "bike_id": "239b2a9f17e7959e82e95d3cdc8da599", "fusion_lon": 0.0}, {"rental_uris": {"ios": "https://dc.lft.to/lastmile_qr_scan", "android": "https://dc.lft.to/lastmile_qr_scan"}, "type": "electric_scooter", "name": "706b1ee3df555c71e26ed86112be2451", "is_reserved": 0, "lon": -77.04010666666667, "is_disabled": 0, "fusion_lat": 0.0, "lat": 38.922563, "bike_id": "706b1ee3df555c71e26ed86112be2451", "fusion_lon": 0.0}, {"rental_uris": {"ios": "https://dc.lft.to/lastmile_qr_scan", "android": "https://dc.lft.to/lastmile_qr_scan"}, "type": "electric_scooter", "name": "1cf0f0a97f018e875caeffd45d527c69", "is_reserved": 0, "lon": -77.0433705, "is_disabled": 0, "fusion_lat": 0.0, "lat": 38.907232, "bike_id": "1cf0f0a97f018e875caeffd45d527c69", "fusion_lon": 0.0}, {"rental_uris": {"ios": "https://dc.lft.to/lastmile_qr_scan", "android": "https://dc.lft.to/lastmile_qr_scan"}, "type": "electric_scooter", "name": "925d43322a0c358492b39a22b4c466e0", "is_reserved": 0, "lon": -77.04270566666666, "is_disabled": 0, "fusion_lat": 0.0, "lat": 38.9065125, "bike_id": "925d43322a0c358492b39a22b4c466e0", "fusion_lon": 0.0}, {"rental_uris": {"ios": "https://dc.lft.to/lastmile_qr_scan", "android": "https://dc.lft.to/lastmile_qr_scan"}, "type": "electric_scooter", "name": "7050da3708e9fc16f7274757854d4b75", "is_reserved": 0, "lon": -76.94876083333334, "is_disabled": 0, "fusion_lat": 0.0, "lat": 38.8957705, "bike_id": "7050da3708e9fc16f7274757854d4b75", "fusion_lon": 0.0}, {"rental_uris": {"ios": "https://dc.lft.to/lastmile_qr_scan", "android": "https://dc.lft.to/lastmile_qr_scan"}, "type": "electric_scooter", "name": "60b23311a63beffba7da2a370d0dea6c", "is_reserved": 0, "lon": -77.06520483333334, "is_disabled": 0, "fusion_lat": 0.0, "lat": 38.911120333333336, "bike_id": "60b23311a63beffba7da2a370d0dea6c", "fusion_lon": 0.0}, {"rental_uris": {"ios": "https://dc.lft.to/lastmile_qr_scan", "android": "https://dc.lft.to/lastmile_qr_scan"}, "type": "electric_scooter", "name": "1af10447547dcf660f92e7cb9c3a812b", "is_reserved": 0, "lon": -77.03458766666667, "is_disabled": 0, "fusion_lat": 0.0, "lat": 38.90271116666667, "bike_id": "1af10447547dcf660f92e7cb9c3a812b", "fusion_lon": 0.0}, {"rental_uris": {"ios": "https://dc.lft.to/lastmile_qr_scan", "android": "https://dc.lft.to/lastmile_qr_scan"}, "type": "electric_scooter", "name": "7918ec6608c13d30f5796d02e419d01d", "is_reserved": 0, "lon": -77.03850733333333, "is_disabled": 0, "fusion_lat": 0.0, "lat": 38.91544733333333, "bike_id": "7918ec6608c13d30f5796d02e419d01d", "fusion_lon": 0.0}, {"rental_uris": {"ios": "https://dc.lft.to/lastmile_qr_scan", "android": "https://dc.lft.to/lastmile_qr_scan"}, "type": "electric_bike", "name": "14c28021c307f89f63a3bb03921329dc", "is_reserved": 0, "lon": -76.96153416666667, "is_disabled": 0, "fusion_lat": 0.0, "lat": 38.85621966666667, "bike_id": "14c28021c307f89f63a3bb03921329dc", "fusion_lon": 0.0}, {"rental_uris": {"ios": "https://dc.lft.to/lastmile_qr_scan", "android": "https://dc.lft.to/lastmile_qr_scan"}, "type": "electric_scooter", "name": "7001a3a76fb3d60af6c19e45670f831a", "is_reserved": 0, "lon": -77.04099816666667, "is_disabled": 0, "fusion_lat": 0.0, "lat": 38.925347, "bike_id": "7001a3a76fb3d60af6c19e45670f831a", "fusion_lon": 0.0}, {"rental_uris": {"ios": "https://dc.lft.to/lastmile_qr_scan", "android": "https://dc.lft.to/lastmile_qr_scan"}, "type": "electric_scooter", "name": "1f73aa3e1acec03fab4c287fc6683ef1", "is_reserved": 0, "lon": -77.0433935, "is_disabled": 0, "fusion_lat": 0.0, "lat": 38.92223116666667, "bike_id": "1f73aa3e1acec03fab4c287fc6683ef1", "fusion_lon": 0.0}, {"rental_uris": {"ios": "https://dc.lft.to/lastmile_qr_scan", "android": "https://dc.lft.to/lastmile_qr_scan"}, "type": "electric_bike", "name": "c9384d301934ed7f142bd0935efd2420", "is_reserved": 0, "lon": -76.96258766666666, "is_disabled": 0, "fusion_lat": 0.0, "lat": 38.88246633333333, "bike_id": "c9384d301934ed7f142bd0935efd2420", "fusion_lon": 0.0}, {"rental_uris": {"ios": "https://dc.lft.to/lastmile_qr_scan", "android": "https://dc.lft.to/lastmile_qr_scan"}, "type": "electric_scooter", "name": "e238881b5694d027fbccbbe2e19b8b44", "is_reserved": 0, "lon": -77.06170833333333, "is_disabled": 0, "fusion_lat": 0.0, "lat": 38.9027445, "bike_id": "e238881b5694d027fbccbbe2e19b8b44", "fusion_lon": 0.0}, {"rental_uris": {"ios": "https://dc.lft.to/lastmile_qr_scan", "android": "https://dc.lft.to/lastmile_qr_scan"}, "type": "electric_scooter", "name": "f50412cd55de70f13dff11e8708129d9", "is_reserved": 0, "lon": -76.97719433333333, "is_disabled": 0, "fusion_lat": 0.0, "lat": 38.88819383333333, "bike_id": "f50412cd55de70f13dff11e8708129d9", "fusion_lon": 0.0}, {"rental_uris": {"ios": "https://dc.lft.to/lastmile_qr_scan", "android": "https://dc.lft.to/lastmile_qr_scan"}, "type": "electric_scooter", "name": "b3294db6a013271cff4cbaf62c842776", "is_reserved": 0, "lon": -77.02297633333333, "is_disabled": 0, "fusion_lat": 0.0, "lat": 38.918450166666666, "bike_id": "b3294db6a013271cff4cbaf62c842776", "fusion_lon": 0.0}, {"rental_uris": {"ios": "https://dc.lft.to/lastmile_qr_scan", "android": "https://dc.lft.to/lastmile_qr_scan"}, "type": "electric_scooter", "name": "8b6454b78e50e7e1a855622325e6c989", "is_reserved": 0, "lon": -76.99756266666667, "is_disabled": 0, "fusion_lat": 0.0, "lat": 38.88501566666667, "bike_id": "8b6454b78e50e7e1a855622325e6c989", "fusion_lon": 0.0}, {"rental_uris": {"ios": "https://dc.lft.to/lastmile_qr_scan", "android": "https://dc.lft.to/lastmile_qr_scan"}, "type": "electric_scooter", "name": "22a178c4f5d5724e3dabe0c93e3c253a", "is_reserved": 0, "lon": -77.02813066666667, "is_disabled": 0, "fusion_lat": 0.0, "lat": 38.909203166666664, "bike_id": "22a178c4f5d5724e3dabe0c93e3c253a", "fusion_lon": 0.0}, {"rental_uris": {"ios": "https://dc.lft.to/lastmile_qr_scan", "android": "https://dc.lft.to/lastmile_qr_scan"}, "type": "electric_scooter", "name": "d957a2e563c4650016484a881d2cd305", "is_reserved": 0, "lon": -77.03413183333333, "is_disabled": 0, "fusion_lat": 0.0, "lat": 38.927391166666666, "bike_id": "d957a2e563c4650016484a881d2cd305", "fusion_lon": 0.0}, {"rental_uris": {"ios": "https://dc.lft.to/lastmile_qr_scan", "android": "https://dc.lft.to/lastmile_qr_scan"}, "type": "electric_scooter", "name": "690955714ddb3d1d885ea160015348c0", "is_reserved": 0, "lon": -77.0271815, "is_disabled": 0, "fusion_lat": 0.0, "lat": 38.9101745, "bike_id": "690955714ddb3d1d885ea160015348c0", "fusion_lon": 0.0}, {"rental_uris": {"ios": "https://dc.lft.to/lastmile_qr_scan", "android": "https://dc.lft.to/lastmile_qr_scan"}, "type": "electric_scooter", "name": "8351323f2faa622b3cc80206e6e3fc7e", "is_reserved": 0, "lon": -77.04468633333333, "is_disabled": 0, "fusion_lat": 0.0, "lat": 38.9035395, "bike_id": "8351323f2faa622b3cc80206e6e3fc7e", "fusion_lon": 0.0}, {"rental_uris": {"ios": "https://dc.lft.to/lastmile_qr_scan", "android": "https://dc.lft.to/lastmile_qr_scan"}, "type": "electric_scooter", "name": "e7cacb2cdd5caff8fb8832ee9526d82b", "is_reserved": 0, "lon": -77.04355716666667, "is_disabled": 0, "fusion_lat": 0.0, "lat": 38.908315, "bike_id": "e7cacb2cdd5caff8fb8832ee9526d82b", "fusion_lon": 0.0}, {"rental_uris": {"ios": "https://dc.lft.to/lastmile_qr_scan", "android": "https://dc.lft.to/lastmile_qr_scan"}, "type": "electric_scooter", "name": "3bf9f77f2b10f6fc4cb09e45481e4752", "is_reserved": 0, "lon": -76.9854425, "is_disabled": 0, "fusion_lat": 0.0, "lat": 38.880016499999996, "bike_id": "3bf9f77f2b10f6fc4cb09e45481e4752", "fusion_lon": 0.0}, {"rental_uris": {"ios": "https://dc.lft.to/lastmile_qr_scan", "android": "https://dc.lft.to/lastmile_qr_scan"}, "type": "electric_scooter", "name": "d96ea441a88208605ff16c1f1315ac34", "is_reserved": 0, "lon": -77.081754, "is_disabled": 0, "fusion_lat": 0.0, "lat": 38.933353833333335, "bike_id": "d96ea441a88208605ff16c1f1315ac34", "fusion_lon": 0.0}, {"rental_uris": {"ios": "https://dc.lft.to/lastmile_qr_scan", "android": "https://dc.lft.to/lastmile_qr_scan"}, "type": "electric_scooter", "name": "d445cb4b504f4e29a62de405ed101e79", "is_reserved": 0, "lon": -76.98700833333334, "is_disabled": 0, "fusion_lat": 0.0, "lat": 38.85962283333333, "bike_id": "d445cb4b504f4e29a62de405ed101e79", "fusion_lon": 0.0}, {"rental_uris": {"ios": "https://dc.lft.to/lastmile_qr_scan", "android": "https://dc.lft.to/lastmile_qr_scan"}, "type": "electric_scooter", "name": "922d9856624eeddd2f86a18284e63726", "is_reserved": 0, "lon": -77.02476566666667, "is_disabled": 0, "fusion_lat": 0.0, "lat": 38.9362035, "bike_id": "922d9856624eeddd2f86a18284e63726", "fusion_lon": 0.0}, {"rental_uris": {"ios": "https://dc.lft.to/lastmile_qr_scan", "android": "https://dc.lft.to/lastmile_qr_scan"}, "type": "electric_scooter", "name": "00c28b01bc3dd110bbbd2146d82d2970", "is_reserved": 0, "lon": -76.995103, "is_disabled": 0, "fusion_lat": 0.0, "lat": 38.889916, "bike_id": "00c28b01bc3dd110bbbd2146d82d2970", "fusion_lon": 0.0}, {"rental_uris": {"ios": "https://dc.lft.to/lastmile_qr_scan", "android": "https://dc.lft.to/lastmile_qr_scan"}, "type": "electric_scooter", "name": "8ac07fbd2fa87c60da9c877ea6fcee22", "is_reserved": 0, "lon": -77.00128783333334, "is_disabled": 0, "fusion_lat": 0.0, "lat": 38.87797116666667, "bike_id": "8ac07fbd2fa87c60da9c877ea6fcee22", "fusion_lon": 0.0}, {"rental_uris": {"ios": "https://dc.lft.to/lastmile_qr_scan", "android": "https://dc.lft.to/lastmile_qr_scan"}, "type": "electric_scooter", "name": "ccdddf928009bba6bb877ad01c413211", "is_reserved": 0, "lon": -77.03188766666666, "is_disabled": 0, "fusion_lat": 0.0, "lat": 38.919264, "bike_id": "ccdddf928009bba6bb877ad01c413211", "fusion_lon": 0.0}, {"rental_uris": {"ios": "https://dc.lft.to/lastmile_qr_scan", "android": "https://dc.lft.to/lastmile_qr_scan"}, "type": "electric_scooter", "name": "2e4eabc2432314012091a9f04daa22f1", "is_reserved": 0, "lon": -77.01209216666666, "is_disabled": 0, "fusion_lat": 0.0, "lat": 38.901650333333336, "bike_id": "2e4eabc2432314012091a9f04daa22f1", "fusion_lon": 0.0}, {"rental_uris": {"ios": "https://dc.lft.to/lastmile_qr_scan", "android": "https://dc.lft.to/lastmile_qr_scan"}, "type": "electric_scooter", "name": "3f1b8fd34d5898f4f78dc8dc9d7858da", "is_reserved": 0, "lon": -77.0142595, "is_disabled": 0, "fusion_lat": 0.0, "lat": 38.92027866666667, "bike_id": "3f1b8fd34d5898f4f78dc8dc9d7858da", "fusion_lon": 0.0}, {"rental_uris": {"ios": "https://dc.lft.to/lastmile_qr_scan", "android": "https://dc.lft.to/lastmile_qr_scan"}, "type": "electric_scooter", "name": "33ce6311e64fe62469b7a27a1bf7f657", "is_reserved": 0, "lon": -77.04018833333333, "is_disabled": 0, "fusion_lat": 0.0, "lat": 38.91796166666666, "bike_id": "33ce6311e64fe62469b7a27a1bf7f657", "fusion_lon": 0.0}, {"rental_uris": {"ios": "https://dc.lft.to/lastmile_qr_scan", "android": "https://dc.lft.to/lastmile_qr_scan"}, "type": "electric_scooter", "name": "d2175d7bc462e11e2cf42bbfa6efa0b2", "is_reserved": 0, "lon": -77.04071933333333, "is_disabled": 0, "fusion_lat": 0.0, "lat": 38.91595933333333, "bike_id": "d2175d7bc462e11e2cf42bbfa6efa0b2", "fusion_lon": 0.0}, {"rental_uris": {"ios": "https://dc.lft.to/lastmile_qr_scan", "android": "https://dc.lft.to/lastmile_qr_scan"}, "type": "electric_scooter", "name": "af71e9a32b3d4a1b12931202d2c045f2", "is_reserved": 0, "lon": -76.99729866666667, "is_disabled": 0, "fusion_lat": 0.0, "lat": 38.92048116666667, "bike_id": "af71e9a32b3d4a1b12931202d2c045f2", "fusion_lon": 0.0}, {"rental_uris": {"ios": "https://dc.lft.to/lastmile_qr_scan", "android": "https://dc.lft.to/lastmile_qr_scan"}, "type": "electric_scooter", "name": "2e81b38795f6be1cf986ef1ffc900c3d", "is_reserved": 0, "lon": -77.0385775, "is_disabled": 0, "fusion_lat": 0.0, "lat": 38.92475133333333, "bike_id": "2e81b38795f6be1cf986ef1ffc900c3d", "fusion_lon": 0.0}, {"rental_uris": {"ios": "https://dc.lft.to/lastmile_qr_scan", "android": "https://dc.lft.to/lastmile_qr_scan"}, "type": "electric_bike", "name": "d25ae8ff065242c0e676dc676dae569c", "is_reserved": 0, "lon": -77.0836355, "is_disabled": 0, "fusion_lat": 0.0, "lat": 38.854187833333334, "bike_id": "d25ae8ff065242c0e676dc676dae569c", "fusion_lon": 0.0}, {"rental_uris": {"ios": "https://dc.lft.to/lastmile_qr_scan", "android": "https://dc.lft.to/lastmile_qr_scan"}, "type": "electric_scooter", "name": "61fe0d09e4836b5d6962c7e873db485a", "is_reserved": 0, "lon": -76.96546616666667, "is_disabled": 0, "fusion_lat": 0.0, "lat": 38.8788745, "bike_id": "61fe0d09e4836b5d6962c7e873db485a", "fusion_lon": 0.0}, {"rental_uris": {"ios": "https://dc.lft.to/lastmile_qr_scan", "android": "https://dc.lft.to/lastmile_qr_scan"}, "type": "electric_scooter", "name": "825347e213bcdbdee767db44e585c2fd", "is_reserved": 0, "lon": -77.03815716666666, "is_disabled": 0, "fusion_lat": 0.0, "lat": 38.930639166666666, "bike_id": "825347e213bcdbdee767db44e585c2fd", "fusion_lon": 0.0}, {"rental_uris": {"ios": "https://dc.lft.to/lastmile_qr_scan", "android": "https://dc.lft.to/lastmile_qr_scan"}, "type": "electric_scooter", "name": "e69d4b4e01d3102dd2887dcb8f388c26", "is_reserved": 0, "lon": -77.02299766666667, "is_disabled": 0, "fusion_lat": 0.0, "lat": 38.898584166666666, "bike_id": "e69d4b4e01d3102dd2887dcb8f388c26", "fusion_lon": 0.0}, {"rental_uris": {"ios": "https://dc.lft.to/lastmile_qr_scan", "android": "https://dc.lft.to/lastmile_qr_scan"}, "type": "electric_scooter", "name": "946433d5db9f85d3283a8e191a4a0888", "is_reserved": 0, "lon": -76.93740816666667, "is_disabled": 0, "fusion_lat": 0.0, "lat": 38.89008916666667, "bike_id": "946433d5db9f85d3283a8e191a4a0888", "fusion_lon": 0.0}, {"rental_uris": {"ios": "https://dc.lft.to/lastmile_qr_scan", "android": "https://dc.lft.to/lastmile_qr_scan"}, "type": "electric_bike", "name": "aca5c69e031b216b858f8f02d177e518", "is_reserved": 0, "lon": -76.97702916666667, "is_disabled": 0, "fusion_lat": 0.0, "lat": 38.822112, "bike_id": "aca5c69e031b216b858f8f02d177e518", "fusion_lon": 0.0}, {"rental_uris": {"ios": "https://dc.lft.to/lastmile_qr_scan", "android": "https://dc.lft.to/lastmile_qr_scan"}, "type": "electric_scooter", "name": "b46e42917f38371f8901ae4fe3e56460", "is_reserved": 0, "lon": -77.03424666666666, "is_disabled": 0, "fusion_lat": 0.0, "lat": 38.911915, "bike_id": "b46e42917f38371f8901ae4fe3e56460", "fusion_lon": 0.0}, {"rental_uris": {"ios": "https://dc.lft.to/lastmile_qr_scan", "android": "https://dc.lft.to/lastmile_qr_scan"}, "type": "electric_scooter", "name": "ea875e447978d29e65ba42bbeab00400", "is_reserved": 0, "lon": -77.028365, "is_disabled": 0, "fusion_lat": 0.0, "lat": 38.887386166666666, "bike_id": "ea875e447978d29e65ba42bbeab00400", "fusion_lon": 0.0}, {"rental_uris": {"ios": "https://dc.lft.to/lastmile_qr_scan", "android": "https://dc.lft.to/lastmile_qr_scan"}, "type": "electric_scooter", "name": "52516d0619773b880382d99a883dbcc0", "is_reserved": 0, "lon": -77.04843283333334, "is_disabled": 0, "fusion_lat": 0.0, "lat": 38.909667, "bike_id": "52516d0619773b880382d99a883dbcc0", "fusion_lon": 0.0}, {"rental_uris": {"ios": "https://dc.lft.to/lastmile_qr_scan", "android": "https://dc.lft.to/lastmile_qr_scan"}, "type": "electric_scooter", "name": "8595edaecca16476622d8df7e20add22", "is_reserved": 0, "lon": -77.01930833333333, "is_disabled": 0, "fusion_lat": 0.0, "lat": 38.90246716666667, "bike_id": "8595edaecca16476622d8df7e20add22", "fusion_lon": 0.0}, {"rental_uris": {"ios": "https://dc.lft.to/lastmile_qr_scan", "android": "https://dc.lft.to/lastmile_qr_scan"}, "type": "electric_scooter", "name": "c5af4ffc5dd59543c4f0e980b69ebffb", "is_reserved": 0, "lon": -76.9900555, "is_disabled": 0, "fusion_lat": 0.0, "lat": 38.90390566666667, "bike_id": "c5af4ffc5dd59543c4f0e980b69ebffb", "fusion_lon": 0.0}, {"rental_uris": {"ios": "https://dc.lft.to/lastmile_qr_scan", "android": "https://dc.lft.to/lastmile_qr_scan"}, "type": "electric_scooter", "name": "2276af2d8d1d3803f5bd8742f9ef8859", "is_reserved": 0, "lon": -77.03505233333334, "is_disabled": 0, "fusion_lat": 0.0, "lat": 38.918808, "bike_id": "2276af2d8d1d3803f5bd8742f9ef8859", "fusion_lon": 0.0}, {"rental_uris": {"ios": "https://dc.lft.to/lastmile_qr_scan", "android": "https://dc.lft.to/lastmile_qr_scan"}, "type": "electric_scooter", "name": "48b15af1d0baebef2d4dbf021eebacb3", "is_reserved": 0, "lon": -77.0371035, "is_disabled": 0, "fusion_lat": 0.0, "lat": 38.926485166666666, "bike_id": "48b15af1d0baebef2d4dbf021eebacb3", "fusion_lon": 0.0}, {"rental_uris": {"ios": "https://dc.lft.to/lastmile_qr_scan", "android": "https://dc.lft.to/lastmile_qr_scan"}, "type": "electric_scooter", "name": "cdeb853c3295972db2716a9d9eaff9ca", "is_reserved": 0, "lon": -77.00068883333333, "is_disabled": 0, "fusion_lat": 0.0, "lat": 38.8768855, "bike_id": "cdeb853c3295972db2716a9d9eaff9ca", "fusion_lon": 0.0}, {"rental_uris": {"ios": "https://dc.lft.to/lastmile_qr_scan", "android": "https://dc.lft.to/lastmile_qr_scan"}, "type": "electric_scooter", "name": "06de291b8bed1469fac51461cb8f9dd4", "is_reserved": 0, "lon": -76.94322433333333, "is_disabled": 0, "fusion_lat": 0.0, "lat": 38.87922733333333, "bike_id": "06de291b8bed1469fac51461cb8f9dd4", "fusion_lon": 0.0}, {"rental_uris": {"ios": "https://dc.lft.to/lastmile_qr_scan", "android": "https://dc.lft.to/lastmile_qr_scan"}, "type": "electric_scooter", "name": "0b4caa66b9d4014b26cee1414a375757", "is_reserved": 0, "lon": -77.02168883333333, "is_disabled": 0, "fusion_lat": 0.0, "lat": 38.92502866666667, "bike_id": "0b4caa66b9d4014b26cee1414a375757", "fusion_lon": 0.0}, {"rental_uris": {"ios": "https://dc.lft.to/lastmile_qr_scan", "android": "https://dc.lft.to/lastmile_qr_scan"}, "type": "electric_scooter", "name": "cdf008b49d8d144e871de77d99dada61", "is_reserved": 0, "lon": -77.0535635, "is_disabled": 0, "fusion_lat": 0.0, "lat": 38.898837, "bike_id": "cdf008b49d8d144e871de77d99dada61", "fusion_lon": 0.0}, {"rental_uris": {"ios": "https://dc.lft.to/lastmile_qr_scan", "android": "https://dc.lft.to/lastmile_qr_scan"}, "type": "electric_bike", "name": "462be4e91234615eaa995ba58b926a7f", "is_reserved": 0, "lon": -77.07246866666667, "is_disabled": 0, "fusion_lat": 0.0, "lat": 38.8136705, "bike_id": "462be4e91234615eaa995ba58b926a7f", "fusion_lon": 0.0}, {"rental_uris": {"ios": "https://dc.lft.to/lastmile_qr_scan", "android": "https://dc.lft.to/lastmile_qr_scan"}, "type": "electric_scooter", "name": "8b7ce524358d8cb667cbac6c61f66d92", "is_reserved": 0, "lon": -77.02361816666667, "is_disabled": 0, "fusion_lat": 0.0, "lat": 38.93284933333333, "bike_id": "8b7ce524358d8cb667cbac6c61f66d92", "fusion_lon": 0.0}, {"rental_uris": {"ios": "https://dc.lft.to/lastmile_qr_scan", "android": "https://dc.lft.to/lastmile_qr_scan"}, "type": "electric_scooter", "name": "e15843669dd6f174728108837cbe5121", "is_reserved": 0, "lon": -77.032106, "is_disabled": 0, "fusion_lat": 0.0, "lat": 38.916400333333335, "bike_id": "e15843669dd6f174728108837cbe5121", "fusion_lon": 0.0}, {"rental_uris": {"ios": "https://dc.lft.to/lastmile_qr_scan", "android": "https://dc.lft.to/lastmile_qr_scan"}, "type": "electric_scooter", "name": "c7e5c9ca27fc327837b548bea0b5a4ac", "is_reserved": 0, "lon": -77.03352683333334, "is_disabled": 0, "fusion_lat": 0.0, "lat": 38.92159083333333, "bike_id": "c7e5c9ca27fc327837b548bea0b5a4ac", "fusion_lon": 0.0}, {"rental_uris": {"ios": "https://dc.lft.to/lastmile_qr_scan", "android": "https://dc.lft.to/lastmile_qr_scan"}, "type": "electric_scooter", "name": "788dffb45c30b05eb5c3841aaa2d4616", "is_reserved": 0, "lon": -77.0150135, "is_disabled": 0, "fusion_lat": 0.0, "lat": 38.901436, "bike_id": "788dffb45c30b05eb5c3841aaa2d4616", "fusion_lon": 0.0}, {"rental_uris": {"ios": "https://dc.lft.to/lastmile_qr_scan", "android": "https://dc.lft.to/lastmile_qr_scan"}, "type": "electric_scooter", "name": "987bce6935b67efcb91a744d166dca13", "is_reserved": 0, "lon": -77.0071175, "is_disabled": 0, "fusion_lat": 0.0, "lat": 38.90622916666667, "bike_id": "987bce6935b67efcb91a744d166dca13", "fusion_lon": 0.0}, {"rental_uris": {"ios": "https://dc.lft.to/lastmile_qr_scan", "android": "https://dc.lft.to/lastmile_qr_scan"}, "type": "electric_scooter", "name": "09fd8595ade546ee245f8b34437e508b", "is_reserved": 0, "lon": -77.03772833333333, "is_disabled": 0, "fusion_lat": 0.0, "lat": 38.92569616666667, "bike_id": "09fd8595ade546ee245f8b34437e508b", "fusion_lon": 0.0}, {"rental_uris": {"ios": "https://dc.lft.to/lastmile_qr_scan", "android": "https://dc.lft.to/lastmile_qr_scan"}, "type": "electric_scooter", "name": "b39831f3af35e69cc926e3d9e716a1f7", "is_reserved": 0, "lon": -77.0441205, "is_disabled": 0, "fusion_lat": 0.0, "lat": 38.925782833333336, "bike_id": "b39831f3af35e69cc926e3d9e716a1f7", "fusion_lon": 0.0}, {"rental_uris": {"ios": "https://dc.lft.to/lastmile_qr_scan", "android": "https://dc.lft.to/lastmile_qr_scan"}, "type": "electric_scooter", "name": "f06a4371f4b759e1b8a08240853039ed", "is_reserved": 0, "lon": -77.03724416666667, "is_disabled": 0, "fusion_lat": 0.0, "lat": 38.9263665, "bike_id": "f06a4371f4b759e1b8a08240853039ed", "fusion_lon": 0.0}, {"rental_uris": {"ios": "https://dc.lft.to/lastmile_qr_scan", "android": "https://dc.lft.to/lastmile_qr_scan"}, "type": "electric_bike", "name": "3de5891e74ac567a601a8446b8b3aa4f", "is_reserved": 0, "lon": -77.0173585, "is_disabled": 0, "fusion_lat": 0.0, "lat": 38.946108333333335, "bike_id": "3de5891e74ac567a601a8446b8b3aa4f", "fusion_lon": 0.0}, {"rental_uris": {"ios": "https://dc.lft.to/lastmile_qr_scan", "android": "https://dc.lft.to/lastmile_qr_scan"}, "type": "electric_scooter", "name": "dccacb44c7a9272dbb3dc25d17d20c0d", "is_reserved": 0, "lon": -77.0222295, "is_disabled": 0, "fusion_lat": 0.0, "lat": 38.893559833333335, "bike_id": "dccacb44c7a9272dbb3dc25d17d20c0d", "fusion_lon": 0.0}, {"rental_uris": {"ios": "https://dc.lft.to/lastmile_qr_scan", "android": "https://dc.lft.to/lastmile_qr_scan"}, "type": "electric_scooter", "name": "8932084d6b457809548f13edbd5024ea", "is_reserved": 0, "lon": -77.0271855, "is_disabled": 0, "fusion_lat": 0.0, "lat": 38.895466666666664, "bike_id": "8932084d6b457809548f13edbd5024ea", "fusion_lon": 0.0}, {"rental_uris": {"ios": "https://dc.lft.to/lastmile_qr_scan", "android": "https://dc.lft.to/lastmile_qr_scan"}, "type": "electric_scooter", "name": "7ef5900be952cc931379b6e4df78af8c", "is_reserved": 0, "lon": -77.04453183333334, "is_disabled": 0, "fusion_lat": 0.0, "lat": 38.9246985, "bike_id": "7ef5900be952cc931379b6e4df78af8c", "fusion_lon": 0.0}, {"rental_uris": {"ios": "https://dc.lft.to/lastmile_qr_scan", "android": "https://dc.lft.to/lastmile_qr_scan"}, "type": "electric_bike", "name": "258b8ea3755dd710281e77d00876ed7d", "is_reserved": 0, "lon": -76.98765933333334, "is_disabled": 0, "fusion_lat": 0.0, "lat": 38.85769533333333, "bike_id": "258b8ea3755dd710281e77d00876ed7d", "fusion_lon": 0.0}, {"rental_uris": {"ios": "https://dc.lft.to/lastmile_qr_scan", "android": "https://dc.lft.to/lastmile_qr_scan"}, "type": "electric_scooter", "name": "9c55a644ed7cab26ce3ab5bd44d3e203", "is_reserved": 0, "lon": -77.04835733333333, "is_disabled": 0, "fusion_lat": 0.0, "lat": 38.909672666666665, "bike_id": "9c55a644ed7cab26ce3ab5bd44d3e203", "fusion_lon": 0.0}, {"rental_uris": {"ios": "https://dc.lft.to/lastmile_qr_scan", "android": "https://dc.lft.to/lastmile_qr_scan"}, "type": "electric_scooter", "name": "7bcd9ef9e46d2406cbc15fcea1b5f96d", "is_reserved": 0, "lon": -77.03438516666667, "is_disabled": 0, "fusion_lat": 0.0, "lat": 38.90844633333333, "bike_id": "7bcd9ef9e46d2406cbc15fcea1b5f96d", "fusion_lon": 0.0}, {"rental_uris": {"ios": "https://dc.lft.to/lastmile_qr_scan", "android": "https://dc.lft.to/lastmile_qr_scan"}, "type": "electric_scooter", "name": "3ef0b79f7c669d834d9caf90ecbd16a1", "is_reserved": 0, "lon": -77.03175283333333, "is_disabled": 0, "fusion_lat": 0.0, "lat": 38.89472883333333, "bike_id": "3ef0b79f7c669d834d9caf90ecbd16a1", "fusion_lon": 0.0}, {"rental_uris": {"ios": "https://dc.lft.to/lastmile_qr_scan", "android": "https://dc.lft.to/lastmile_qr_scan"}, "type": "electric_scooter", "name": "d7572497ae2f2c17ea03e1d446dda548", "is_reserved": 0, "lon": -77.0486265, "is_disabled": 0, "fusion_lat": 0.0, "lat": 38.906333333333336, "bike_id": "d7572497ae2f2c17ea03e1d446dda548", "fusion_lon": 0.0}, {"rental_uris": {"ios": "https://dc.lft.to/lastmile_qr_scan", "android": "https://dc.lft.to/lastmile_qr_scan"}, "type": "electric_scooter", "name": "c4463f68cda709024054dfd287f94b78", "is_reserved": 0, "lon": -77.04674216666666, "is_disabled": 0, "fusion_lat": 0.0, "lat": 38.89228083333333, "bike_id": "c4463f68cda709024054dfd287f94b78", "fusion_lon": 0.0}, {"rental_uris": {"ios": "https://dc.lft.to/lastmile_qr_scan", "android": "https://dc.lft.to/lastmile_qr_scan"}, "type": "electric_bike", "name": "c0da9799551b7241bd02addbc2fa9b78", "is_reserved": 0, "lon": -76.94535583333334, "is_disabled": 0, "fusion_lat": 0.0, "lat": 38.867553666666666, "bike_id": "c0da9799551b7241bd02addbc2fa9b78", "fusion_lon": 0.0}, {"rental_uris": {"ios": "https://dc.lft.to/lastmile_qr_scan", "android": "https://dc.lft.to/lastmile_qr_scan"}, "type": "electric_scooter", "name": "f669efd499e767f659b60ba79d500ce3", "is_reserved": 0, "lon": -77.02369816666666, "is_disabled": 0, "fusion_lat": 0.0, "lat": 38.902077166666665, "bike_id": "f669efd499e767f659b60ba79d500ce3", "fusion_lon": 0.0}, {"rental_uris": {"ios": "https://dc.lft.to/lastmile_qr_scan", "android": "https://dc.lft.to/lastmile_qr_scan"}, "type": "electric_scooter", "name": "562d158281911972452996f3c9c86021", "is_reserved": 0, "lon": -77.03334233333334, "is_disabled": 0, "fusion_lat": 0.0, "lat": 38.91918616666667, "bike_id": "562d158281911972452996f3c9c86021", "fusion_lon": 0.0}, {"rental_uris": {"ios": "https://dc.lft.to/lastmile_qr_scan", "android": "https://dc.lft.to/lastmile_qr_scan"}, "type": "electric_scooter", "name": "857d27d8c14cbf985564b6a513bab414", "is_reserved": 0, "lon": -77.04369316666667, "is_disabled": 0, "fusion_lat": 0.0, "lat": 38.89227616666667, "bike_id": "857d27d8c14cbf985564b6a513bab414", "fusion_lon": 0.0}, {"rental_uris": {"ios": "https://dc.lft.to/lastmile_qr_scan", "android": "https://dc.lft.to/lastmile_qr_scan"}, "type": "electric_scooter", "name": "9c0db193e853c2c390f84da8b7586712", "is_reserved": 0, "lon": -77.03440566666667, "is_disabled": 0, "fusion_lat": 0.0, "lat": 38.91801733333333, "bike_id": "9c0db193e853c2c390f84da8b7586712", "fusion_lon": 0.0}, {"rental_uris": {"ios": "https://dc.lft.to/lastmile_qr_scan", "android": "https://dc.lft.to/lastmile_qr_scan"}, "type": "electric_scooter", "name": "af66e493c527ce3cf546f33e32913dc9", "is_reserved": 0, "lon": -77.02108066666666, "is_disabled": 0, "fusion_lat": 0.0, "lat": 38.92686716666667, "bike_id": "af66e493c527ce3cf546f33e32913dc9", "fusion_lon": 0.0}, {"rental_uris": {"ios": "https://dc.lft.to/lastmile_qr_scan", "android": "https://dc.lft.to/lastmile_qr_scan"}, "type": "electric_scooter", "name": "4f08e929667d4d2ba7c41ed92b52d803", "is_reserved": 0, "lon": -77.02600033333333, "is_disabled": 0, "fusion_lat": 0.0, "lat": 38.92413166666667, "bike_id": "4f08e929667d4d2ba7c41ed92b52d803", "fusion_lon": 0.0}, {"rental_uris": {"ios": "https://dc.lft.to/lastmile_qr_scan", "android": "https://dc.lft.to/lastmile_qr_scan"}, "type": "electric_scooter", "name": "0a0565839fd582f575563a9abc683999", "is_reserved": 0, "lon": -76.98537216666666, "is_disabled": 0, "fusion_lat": 0.0, "lat": 38.912920166666666, "bike_id": "0a0565839fd582f575563a9abc683999", "fusion_lon": 0.0}, {"rental_uris": {"ios": "https://dc.lft.to/lastmile_qr_scan", "android": "https://dc.lft.to/lastmile_qr_scan"}, "type": "electric_scooter", "name": "0d5b90c70311d8a0c89fad8443db6766", "is_reserved": 0, "lon": -77.02941466666667, "is_disabled": 0, "fusion_lat": 0.0, "lat": 38.904228333333336, "bike_id": "0d5b90c70311d8a0c89fad8443db6766", "fusion_lon": 0.0}, {"rental_uris": {"ios": "https://dc.lft.to/lastmile_qr_scan", "android": "https://dc.lft.to/lastmile_qr_scan"}, "type": "electric_scooter", "name": "f2e912b073fb5c0de8728423cfa1c81c", "is_reserved": 0, "lon": -77.03366416666667, "is_disabled": 0, "fusion_lat": 0.0, "lat": 38.9110775, "bike_id": "f2e912b073fb5c0de8728423cfa1c81c", "fusion_lon": 0.0}, {"rental_uris": {"ios": "https://dc.lft.to/lastmile_qr_scan", "android": "https://dc.lft.to/lastmile_qr_scan"}, "type": "electric_bike", "name": "0fd9aafadccd8b9dcdc28a69eeb84934", "is_reserved": 0, "lon": -77.05172066666667, "is_disabled": 0, "fusion_lat": 0.0, "lat": 38.84492616666667, "bike_id": "0fd9aafadccd8b9dcdc28a69eeb84934", "fusion_lon": 0.0}, {"rental_uris": {"ios": "https://dc.lft.to/lastmile_qr_scan", "android": "https://dc.lft.to/lastmile_qr_scan"}, "type": "electric_scooter", "name": "4cf723b10574973b5b8e864c129d5d71", "is_reserved": 0, "lon": -77.04512666666666, "is_disabled": 0, "fusion_lat": 0.0, "lat": 38.92318783333333, "bike_id": "4cf723b10574973b5b8e864c129d5d71", "fusion_lon": 0.0}, {"rental_uris": {"ios": "https://dc.lft.to/lastmile_qr_scan", "android": "https://dc.lft.to/lastmile_qr_scan"}, "type": "electric_scooter", "name": "ddac1e5d84f2cc7ef5350201f7c4e9cc", "is_reserved": 0, "lon": -77.027896, "is_disabled": 0, "fusion_lat": 0.0, "lat": 38.89900316666667, "bike_id": "ddac1e5d84f2cc7ef5350201f7c4e9cc", "fusion_lon": 0.0}, {"rental_uris": {"ios": "https://dc.lft.to/lastmile_qr_scan", "android": "https://dc.lft.to/lastmile_qr_scan"}, "type": "electric_scooter", "name": "5c3773e655eee11a33d8978fbe78dd8a", "is_reserved": 0, "lon": -77.062829, "is_disabled": 0, "fusion_lat": 0.0, "lat": 38.912420166666664, "bike_id": "5c3773e655eee11a33d8978fbe78dd8a", "fusion_lon": 0.0}, {"rental_uris": {"ios": "https://dc.lft.to/lastmile_qr_scan", "android": "https://dc.lft.to/lastmile_qr_scan"}, "type": "electric_scooter", "name": "e72c9e334b3f682d1f84fc569188c53f", "is_reserved": 0, "lon": -77.03869866666666, "is_disabled": 0, "fusion_lat": 0.0, "lat": 38.921541, "bike_id": "e72c9e334b3f682d1f84fc569188c53f", "fusion_lon": 0.0}, {"rental_uris": {"ios": "https://dc.lft.to/lastmile_qr_scan", "android": "https://dc.lft.to/lastmile_qr_scan"}, "type": "electric_scooter", "name": "4e4ea4cabace1f7b503663792aca93d7", "is_reserved": 0, "lon": -77.0211625, "is_disabled": 0, "fusion_lat": 0.0, "lat": 38.9141615, "bike_id": "4e4ea4cabace1f7b503663792aca93d7", "fusion_lon": 0.0}, {"rental_uris": {"ios": "https://dc.lft.to/lastmile_qr_scan", "android": "https://dc.lft.to/lastmile_qr_scan"}, "type": "electric_scooter", "name": "dc0da196fd81006f02159646b9c0a0b2", "is_reserved": 0, "lon": -76.998979, "is_disabled": 0, "fusion_lat": 0.0, "lat": 38.9529725, "bike_id": "dc0da196fd81006f02159646b9c0a0b2", "fusion_lon": 0.0}, {"rental_uris": {"ios": "https://dc.lft.to/lastmile_qr_scan", "android": "https://dc.lft.to/lastmile_qr_scan"}, "type": "electric_scooter", "name": "b0f32bd93d7ae193b92ab83f578ed8aa", "is_reserved": 0, "lon": -77.02364083333333, "is_disabled": 0, "fusion_lat": 0.0, "lat": 38.90219616666667, "bike_id": "b0f32bd93d7ae193b92ab83f578ed8aa", "fusion_lon": 0.0}, {"rental_uris": {"ios": "https://dc.lft.to/lastmile_qr_scan", "android": "https://dc.lft.to/lastmile_qr_scan"}, "type": "electric_scooter", "name": "4603014efb2a651cae3a7585529ede1a", "is_reserved": 0, "lon": -76.948592, "is_disabled": 0, "fusion_lat": 0.0, "lat": 38.894762, "bike_id": "4603014efb2a651cae3a7585529ede1a", "fusion_lon": 0.0}, {"rental_uris": {"ios": "https://dc.lft.to/lastmile_qr_scan", "android": "https://dc.lft.to/lastmile_qr_scan"}, "type": "electric_scooter", "name": "e390fc29a56906a3f867286a38f874f1", "is_reserved": 0, "lon": -77.02967766666667, "is_disabled": 0, "fusion_lat": 0.0, "lat": 38.92329066666667, "bike_id": "e390fc29a56906a3f867286a38f874f1", "fusion_lon": 0.0}, {"rental_uris": {"ios": "https://dc.lft.to/lastmile_qr_scan", "android": "https://dc.lft.to/lastmile_qr_scan"}, "type": "electric_scooter", "name": "01e08e533fb4f1a7659c6843cf15435f", "is_reserved": 0, "lon": -77.03188533333334, "is_disabled": 0, "fusion_lat": 0.0, "lat": 38.919894666666664, "bike_id": "01e08e533fb4f1a7659c6843cf15435f", "fusion_lon": 0.0}, {"rental_uris": {"ios": "https://dc.lft.to/lastmile_qr_scan", "android": "https://dc.lft.to/lastmile_qr_scan"}, "type": "electric_scooter", "name": "e4c84d3e0a60e41184b459016748efb5", "is_reserved": 0, "lon": -77.0089455, "is_disabled": 0, "fusion_lat": 0.0, "lat": 38.92329866666667, "bike_id": "e4c84d3e0a60e41184b459016748efb5", "fusion_lon": 0.0}, {"rental_uris": {"ios": "https://dc.lft.to/lastmile_qr_scan", "android": "https://dc.lft.to/lastmile_qr_scan"}, "type": "electric_scooter", "name": "855274f3cbf8f5d4bcc00742c99f9dd1", "is_reserved": 0, "lon": -77.00574616666667, "is_disabled": 0, "fusion_lat": 0.0, "lat": 38.87662183333333, "bike_id": "855274f3cbf8f5d4bcc00742c99f9dd1", "fusion_lon": 0.0}, {"rental_uris": {"ios": "https://dc.lft.to/lastmile_qr_scan", "android": "https://dc.lft.to/lastmile_qr_scan"}, "type": "electric_scooter", "name": "ad91b21c7517e9e7402c59480f27c85c", "is_reserved": 0, "lon": -77.029386, "is_disabled": 0, "fusion_lat": 0.0, "lat": 38.90722733333333, "bike_id": "ad91b21c7517e9e7402c59480f27c85c", "fusion_lon": 0.0}, {"rental_uris": {"ios": "https://dc.lft.to/lastmile_qr_scan", "android": "https://dc.lft.to/lastmile_qr_scan"}, "type": "electric_scooter", "name": "ebb55a0bdd534cd6df4e533b08dce06e", "is_reserved": 0, "lon": -77.02069683333333, "is_disabled": 0, "fusion_lat": 0.0, "lat": 38.931212, "bike_id": "ebb55a0bdd534cd6df4e533b08dce06e", "fusion_lon": 0.0}, {"rental_uris": {"ios": "https://dc.lft.to/lastmile_qr_scan", "android": "https://dc.lft.to/lastmile_qr_scan"}, "type": "electric_scooter", "name": "21bc0749531471c2352f7188cf181652", "is_reserved": 0, "lon": -77.03497266666666, "is_disabled": 0, "fusion_lat": 0.0, "lat": 38.911887666666665, "bike_id": "21bc0749531471c2352f7188cf181652", "fusion_lon": 0.0}, {"rental_uris": {"ios": "https://dc.lft.to/lastmile_qr_scan", "android": "https://dc.lft.to/lastmile_qr_scan"}, "type": "electric_bike", "name": "fdec4a41f18d50d4cc59f2ec576d74ab", "is_reserved": 0, "lon": -77.1007645, "is_disabled": 0, "fusion_lat": 0.0, "lat": 38.85738116666667, "bike_id": "fdec4a41f18d50d4cc59f2ec576d74ab", "fusion_lon": 0.0}, {"rental_uris": {"ios": "https://dc.lft.to/lastmile_qr_scan", "android": "https://dc.lft.to/lastmile_qr_scan"}, "type": "electric_bike", "name": "26280d7715726f27cb89414147704541", "is_reserved": 0, "lon": -76.973293, "is_disabled": 0, "fusion_lat": 0.0, "lat": 38.865197, "bike_id": "26280d7715726f27cb89414147704541", "fusion_lon": 0.0}, {"rental_uris": {"ios": "https://dc.lft.to/lastmile_qr_scan", "android": "https://dc.lft.to/lastmile_qr_scan"}, "type": "electric_scooter", "name": "3ac814c8ac5d6f76ce079ef14a7c99e7", "is_reserved": 0, "lon": -77.0338715, "is_disabled": 0, "fusion_lat": 0.0, "lat": 38.9385465, "bike_id": "3ac814c8ac5d6f76ce079ef14a7c99e7", "fusion_lon": 0.0}, {"rental_uris": {"ios": "https://dc.lft.to/lastmile_qr_scan", "android": "https://dc.lft.to/lastmile_qr_scan"}, "type": "electric_scooter", "name": "57309be9d139814334d6da55c767fc06", "is_reserved": 0, "lon": -77.04447733333333, "is_disabled": 0, "fusion_lat": 0.0, "lat": 38.9159645, "bike_id": "57309be9d139814334d6da55c767fc06", "fusion_lon": 0.0}, {"rental_uris": {"ios": "https://dc.lft.to/lastmile_qr_scan", "android": "https://dc.lft.to/lastmile_qr_scan"}, "type": "electric_scooter", "name": "9c057aaedccac3a4f2a79b4dffbc1aac", "is_reserved": 0, "lon": -76.98533683333333, "is_disabled": 0, "fusion_lat": 0.0, "lat": 38.858546, "bike_id": "9c057aaedccac3a4f2a79b4dffbc1aac", "fusion_lon": 0.0}, {"rental_uris": {"ios": "https://dc.lft.to/lastmile_qr_scan", "android": "https://dc.lft.to/lastmile_qr_scan"}, "type": "electric_scooter", "name": "3d91388f9900d6e9af55c725ee2e1ed8", "is_reserved": 0, "lon": -77.02303183333333, "is_disabled": 0, "fusion_lat": 0.0, "lat": 38.8986465, "bike_id": "3d91388f9900d6e9af55c725ee2e1ed8", "fusion_lon": 0.0}, {"rental_uris": {"ios": "https://dc.lft.to/lastmile_qr_scan", "android": "https://dc.lft.to/lastmile_qr_scan"}, "type": "electric_scooter", "name": "4ea8ba2460c34beaa48c60587d2e4e6d", "is_reserved": 0, "lon": -77.03152416666667, "is_disabled": 0, "fusion_lat": 0.0, "lat": 38.90590533333334, "bike_id": "4ea8ba2460c34beaa48c60587d2e4e6d", "fusion_lon": 0.0}, {"rental_uris": {"ios": "https://dc.lft.to/lastmile_qr_scan", "android": "https://dc.lft.to/lastmile_qr_scan"}, "type": "electric_scooter", "name": "cc8ffa9e89b5e95aa2dbaa88c40a7687", "is_reserved": 0, "lon": -77.04526616666666, "is_disabled": 0, "fusion_lat": 0.0, "lat": 38.9111655, "bike_id": "cc8ffa9e89b5e95aa2dbaa88c40a7687", "fusion_lon": 0.0}, {"rental_uris": {"ios": "https://dc.lft.to/lastmile_qr_scan", "android": "https://dc.lft.to/lastmile_qr_scan"}, "type": "electric_scooter", "name": "b30a4d79424265cbff8caad2eade2a30", "is_reserved": 0, "lon": -77.00304366666667, "is_disabled": 0, "fusion_lat": 0.0, "lat": 38.876764666666666, "bike_id": "b30a4d79424265cbff8caad2eade2a30", "fusion_lon": 0.0}, {"rental_uris": {"ios": "https://dc.lft.to/lastmile_qr_scan", "android": "https://dc.lft.to/lastmile_qr_scan"}, "type": "electric_scooter", "name": "63fa2065e2960a5a7a2e4e987f05a486", "is_reserved": 0, "lon": -77.0027375, "is_disabled": 0, "fusion_lat": 0.0, "lat": 38.887683833333334, "bike_id": "63fa2065e2960a5a7a2e4e987f05a486", "fusion_lon": 0.0}, {"rental_uris": {"ios": "https://dc.lft.to/lastmile_qr_scan", "android": "https://dc.lft.to/lastmile_qr_scan"}, "type": "electric_scooter", "name": "0e023e4574abdfdc5133452587abd57b", "is_reserved": 0, "lon": -77.031851, "is_disabled": 0, "fusion_lat": 0.0, "lat": 38.92905583333334, "bike_id": "0e023e4574abdfdc5133452587abd57b", "fusion_lon": 0.0}, {"rental_uris": {"ios": "https://dc.lft.to/lastmile_qr_scan", "android": "https://dc.lft.to/lastmile_qr_scan"}, "type": "electric_scooter", "name": "43d90bd5b339c4423a49627687e8fcdf", "is_reserved": 0, "lon": -77.00214333333334, "is_disabled": 0, "fusion_lat": 0.0, "lat": 38.89449583333333, "bike_id": "43d90bd5b339c4423a49627687e8fcdf", "fusion_lon": 0.0}, {"rental_uris": {"ios": "https://dc.lft.to/lastmile_qr_scan", "android": "https://dc.lft.to/lastmile_qr_scan"}, "type": "electric_scooter", "name": "57e61b33b4e3bd2843c80ed4fc911551", "is_reserved": 0, "lon": -77.046946, "is_disabled": 0, "fusion_lat": 0.0, "lat": 38.92065066666667, "bike_id": "57e61b33b4e3bd2843c80ed4fc911551", "fusion_lon": 0.0}, {"rental_uris": {"ios": "https://dc.lft.to/lastmile_qr_scan", "android": "https://dc.lft.to/lastmile_qr_scan"}, "type": "electric_bike", "name": "044a0d3119c5fc84242243eb3f26b327", "is_reserved": 0, "lon": -77.01849016666667, "is_disabled": 0, "fusion_lat": 0.0, "lat": 38.931134, "bike_id": "044a0d3119c5fc84242243eb3f26b327", "fusion_lon": 0.0}, {"rental_uris": {"ios": "https://dc.lft.to/lastmile_qr_scan", "android": "https://dc.lft.to/lastmile_qr_scan"}, "type": "electric_scooter", "name": "0c02b64fb3c7456e8434f6e0febe31c1", "is_reserved": 0, "lon": -77.024014, "is_disabled": 0, "fusion_lat": 0.0, "lat": 38.9097935, "bike_id": "0c02b64fb3c7456e8434f6e0febe31c1", "fusion_lon": 0.0}, {"rental_uris": {"ios": "https://dc.lft.to/lastmile_qr_scan", "android": "https://dc.lft.to/lastmile_qr_scan"}, "type": "electric_bike", "name": "813c24cc0759e3d12188d9be62d7f8fe", "is_reserved": 0, "lon": -76.97541416666667, "is_disabled": 0, "fusion_lat": 0.0, "lat": 38.9043135, "bike_id": "813c24cc0759e3d12188d9be62d7f8fe", "fusion_lon": 0.0}, {"rental_uris": {"ios": "https://dc.lft.to/lastmile_qr_scan", "android": "https://dc.lft.to/lastmile_qr_scan"}, "type": "electric_scooter", "name": "19a8ccb0f02c28b136be61d97ba2c6c6", "is_reserved": 0, "lon": -77.01340133333333, "is_disabled": 0, "fusion_lat": 0.0, "lat": 38.91911983333333, "bike_id": "19a8ccb0f02c28b136be61d97ba2c6c6", "fusion_lon": 0.0}, {"rental_uris": {"ios": "https://dc.lft.to/lastmile_qr_scan", "android": "https://dc.lft.to/lastmile_qr_scan"}, "type": "electric_scooter", "name": "2491bedf357e5cef260ffd00a017097d", "is_reserved": 0, "lon": -77.011811, "is_disabled": 0, "fusion_lat": 0.0, "lat": 38.951564166666664, "bike_id": "2491bedf357e5cef260ffd00a017097d", "fusion_lon": 0.0}, {"rental_uris": {"ios": "https://dc.lft.to/lastmile_qr_scan", "android": "https://dc.lft.to/lastmile_qr_scan"}, "type": "electric_scooter", "name": "90348e70183c93529343f8e578709e18", "is_reserved": 0, "lon": -77.02035016666666, "is_disabled": 0, "fusion_lat": 0.0, "lat": 38.89414983333333, "bike_id": "90348e70183c93529343f8e578709e18", "fusion_lon": 0.0}, {"rental_uris": {"ios": "https://dc.lft.to/lastmile_qr_scan", "android": "https://dc.lft.to/lastmile_qr_scan"}, "type": "electric_scooter", "name": "d6b12ad7037ee4b80cf4351df6d247e8", "is_reserved": 0, "lon": -77.032701, "is_disabled": 0, "fusion_lat": 0.0, "lat": 38.9324845, "bike_id": "d6b12ad7037ee4b80cf4351df6d247e8", "fusion_lon": 0.0}, {"rental_uris": {"ios": "https://dc.lft.to/lastmile_qr_scan", "android": "https://dc.lft.to/lastmile_qr_scan"}, "type": "electric_bike", "name": "123f9dedef2f0e438245febc5f6177fc", "is_reserved": 0, "lon": -76.951569, "is_disabled": 0, "fusion_lat": 0.0, "lat": 39.084361, "bike_id": "123f9dedef2f0e438245febc5f6177fc", "fusion_lon": 0.0}, {"rental_uris": {"ios": "https://dc.lft.to/lastmile_qr_scan", "android": "https://dc.lft.to/lastmile_qr_scan"}, "type": "electric_scooter", "name": "b2fe13ef86fba218860934227dba4819", "is_reserved": 0, "lon": -77.00156816666667, "is_disabled": 0, "fusion_lat": 0.0, "lat": 38.82133783333333, "bike_id": "b2fe13ef86fba218860934227dba4819", "fusion_lon": 0.0}, {"rental_uris": {"ios": "https://dc.lft.to/lastmile_qr_scan", "android": "https://dc.lft.to/lastmile_qr_scan"}, "type": "electric_scooter", "name": "06db4d8f99e6f6d24a40b403bec414da", "is_reserved": 0, "lon": -77.0757455, "is_disabled": 0, "fusion_lat": 0.0, "lat": 38.906332666666664, "bike_id": "06db4d8f99e6f6d24a40b403bec414da", "fusion_lon": 0.0}, {"rental_uris": {"ios": "https://dc.lft.to/lastmile_qr_scan", "android": "https://dc.lft.to/lastmile_qr_scan"}, "type": "electric_scooter", "name": "e2d16268480633b424eb8b21bbf0a46b", "is_reserved": 0, "lon": -77.02229083333333, "is_disabled": 0, "fusion_lat": 0.0, "lat": 38.89195083333333, "bike_id": "e2d16268480633b424eb8b21bbf0a46b", "fusion_lon": 0.0}, {"rental_uris": {"ios": "https://dc.lft.to/lastmile_qr_scan", "android": "https://dc.lft.to/lastmile_qr_scan"}, "type": "electric_scooter", "name": "12fec7706f042362f3838257730c951b", "is_reserved": 0, "lon": -77.026456, "is_disabled": 0, "fusion_lat": 0.0, "lat": 38.89603533333333, "bike_id": "12fec7706f042362f3838257730c951b", "fusion_lon": 0.0}, {"rental_uris": {"ios": "https://dc.lft.to/lastmile_qr_scan", "android": "https://dc.lft.to/lastmile_qr_scan"}, "type": "electric_scooter", "name": "eeba30c93b12a06a069de152365eed7a", "is_reserved": 0, "lon": -77.07251333333333, "is_disabled": 0, "fusion_lat": 0.0, "lat": 38.93448816666667, "bike_id": "eeba30c93b12a06a069de152365eed7a", "fusion_lon": 0.0}, {"rental_uris": {"ios": "https://dc.lft.to/lastmile_qr_scan", "android": "https://dc.lft.to/lastmile_qr_scan"}, "type": "electric_scooter", "name": "b45d78c134fbd8ec092d6eb3fc5cd80c", "is_reserved": 0, "lon": -77.01951, "is_disabled": 0, "fusion_lat": 0.0, "lat": 38.9504495, "bike_id": "b45d78c134fbd8ec092d6eb3fc5cd80c", "fusion_lon": 0.0}, {"rental_uris": {"ios": "https://dc.lft.to/lastmile_qr_scan", "android": "https://dc.lft.to/lastmile_qr_scan"}, "type": "electric_scooter", "name": "41ebb776aed1fffcbdfb5429bf6e7682", "is_reserved": 0, "lon": -77.036659, "is_disabled": 0, "fusion_lat": 0.0, "lat": 38.932067, "bike_id": "41ebb776aed1fffcbdfb5429bf6e7682", "fusion_lon": 0.0}, {"rental_uris": {"ios": "https://dc.lft.to/lastmile_qr_scan", "android": "https://dc.lft.to/lastmile_qr_scan"}, "type": "electric_scooter", "name": "2898b83a25e5fce2921381241aef251d", "is_reserved": 0, "lon": -77.031876, "is_disabled": 0, "fusion_lat": 0.0, "lat": 38.91826116666667, "bike_id": "2898b83a25e5fce2921381241aef251d", "fusion_lon": 0.0}, {"rental_uris": {"ios": "https://dc.lft.to/lastmile_qr_scan", "android": "https://dc.lft.to/lastmile_qr_scan"}, "type": "electric_scooter", "name": "db7379286c86537c896b8cb5be879b4e", "is_reserved": 0, "lon": -76.98889966666667, "is_disabled": 0, "fusion_lat": 0.0, "lat": 38.906474, "bike_id": "db7379286c86537c896b8cb5be879b4e", "fusion_lon": 0.0}, {"rental_uris": {"ios": "https://dc.lft.to/lastmile_qr_scan", "android": "https://dc.lft.to/lastmile_qr_scan"}, "type": "electric_scooter", "name": "9ce63ed887d92203a342fafc18789a30", "is_reserved": 0, "lon": -77.00247483333334, "is_disabled": 0, "fusion_lat": 0.0, "lat": 38.900134, "bike_id": "9ce63ed887d92203a342fafc18789a30", "fusion_lon": 0.0}, {"rental_uris": {"ios": "https://dc.lft.to/lastmile_qr_scan", "android": "https://dc.lft.to/lastmile_qr_scan"}, "type": "electric_scooter", "name": "6c0b8f73cbdbf624e58d6e58f1d139c2", "is_reserved": 0, "lon": -77.02053883333333, "is_disabled": 0, "fusion_lat": 0.0, "lat": 38.92929733333333, "bike_id": "6c0b8f73cbdbf624e58d6e58f1d139c2", "fusion_lon": 0.0}, {"rental_uris": {"ios": "https://dc.lft.to/lastmile_qr_scan", "android": "https://dc.lft.to/lastmile_qr_scan"}, "type": "electric_scooter", "name": "706296703522da96a41323a9e65b1407", "is_reserved": 0, "lon": -77.04873283333333, "is_disabled": 0, "fusion_lat": 0.0, "lat": 38.912611, "bike_id": "706296703522da96a41323a9e65b1407", "fusion_lon": 0.0}, {"rental_uris": {"ios": "https://dc.lft.to/lastmile_qr_scan", "android": "https://dc.lft.to/lastmile_qr_scan"}, "type": "electric_scooter", "name": "291fa84bc89eacb8a291522aec0ec079", "is_reserved": 0, "lon": -77.03655266666667, "is_disabled": 0, "fusion_lat": 0.0, "lat": 38.92121983333333, "bike_id": "291fa84bc89eacb8a291522aec0ec079", "fusion_lon": 0.0}, {"rental_uris": {"ios": "https://dc.lft.to/lastmile_qr_scan", "android": "https://dc.lft.to/lastmile_qr_scan"}, "type": "electric_scooter", "name": "0537c64f931abf1eec893a33012d5486", "is_reserved": 0, "lon": -77.02153833333334, "is_disabled": 0, "fusion_lat": 0.0, "lat": 38.887454, "bike_id": "0537c64f931abf1eec893a33012d5486", "fusion_lon": 0.0}, {"rental_uris": {"ios": "https://dc.lft.to/lastmile_qr_scan", "android": "https://dc.lft.to/lastmile_qr_scan"}, "type": "electric_scooter", "name": "5b0559786223371f33c865b0bcac5bc4", "is_reserved": 0, "lon": -77.02535583333334, "is_disabled": 0, "fusion_lat": 0.0, "lat": 38.94533533333333, "bike_id": "5b0559786223371f33c865b0bcac5bc4", "fusion_lon": 0.0}, {"rental_uris": {"ios": "https://dc.lft.to/lastmile_qr_scan", "android": "https://dc.lft.to/lastmile_qr_scan"}, "type": "electric_scooter", "name": "610d7de7e1c73ebe06c9fa0c0a6449c4", "is_reserved": 0, "lon": -77.049391, "is_disabled": 0, "fusion_lat": 0.0, "lat": 38.909811, "bike_id": "610d7de7e1c73ebe06c9fa0c0a6449c4", "fusion_lon": 0.0}, {"rental_uris": {"ios": "https://dc.lft.to/lastmile_qr_scan", "android": "https://dc.lft.to/lastmile_qr_scan"}, "type": "electric_scooter", "name": "c62b1be1c3abce3fd4b1dcf2a64b2db5", "is_reserved": 0, "lon": -76.93376283333333, "is_disabled": 0, "fusion_lat": 0.0, "lat": 38.89868633333333, "bike_id": "c62b1be1c3abce3fd4b1dcf2a64b2db5", "fusion_lon": 0.0}, {"rental_uris": {"ios": "https://dc.lft.to/lastmile_qr_scan", "android": "https://dc.lft.to/lastmile_qr_scan"}, "type": "electric_bike", "name": "5bb214291f3f9c19b28c6c4440b7ab1c", "is_reserved": 0, "lon": -76.99442216666667, "is_disabled": 0, "fusion_lat": 0.0, "lat": 38.83108766666667, "bike_id": "5bb214291f3f9c19b28c6c4440b7ab1c", "fusion_lon": 0.0}, {"rental_uris": {"ios": "https://dc.lft.to/lastmile_qr_scan", "android": "https://dc.lft.to/lastmile_qr_scan"}, "type": "electric_scooter", "name": "5486fbef480215adcd81f08d3df1fc9d", "is_reserved": 0, "lon": -77.0384535, "is_disabled": 0, "fusion_lat": 0.0, "lat": 38.91658366666667, "bike_id": "5486fbef480215adcd81f08d3df1fc9d", "fusion_lon": 0.0}, {"rental_uris": {"ios": "https://dc.lft.to/lastmile_qr_scan", "android": "https://dc.lft.to/lastmile_qr_scan"}, "type": "electric_scooter", "name": "f9aa4b97b3958d143f2a20327376133e", "is_reserved": 0, "lon": -77.038568, "is_disabled": 0, "fusion_lat": 0.0, "lat": 38.91096833333334, "bike_id": "f9aa4b97b3958d143f2a20327376133e", "fusion_lon": 0.0}, {"rental_uris": {"ios": "https://dc.lft.to/lastmile_qr_scan", "android": "https://dc.lft.to/lastmile_qr_scan"}, "type": "electric_bike", "name": "c542c72adcd6afec824d1be3714607ca", "is_reserved": 0, "lon": -77.0701325, "is_disabled": 0, "fusion_lat": 0.0, "lat": 38.841121, "bike_id": "c542c72adcd6afec824d1be3714607ca", "fusion_lon": 0.0}, {"rental_uris": {"ios": "https://dc.lft.to/lastmile_qr_scan", "android": "https://dc.lft.to/lastmile_qr_scan"}, "type": "electric_scooter", "name": "17fe3b30393c31df2034840896f5864a", "is_reserved": 0, "lon": -77.06509466666667, "is_disabled": 0, "fusion_lat": 0.0, "lat": 38.905185, "bike_id": "17fe3b30393c31df2034840896f5864a", "fusion_lon": 0.0}, {"rental_uris": {"ios": "https://dc.lft.to/lastmile_qr_scan", "android": "https://dc.lft.to/lastmile_qr_scan"}, "type": "electric_scooter", "name": "c0970cad5e2394d1db8b8956758a93ee", "is_reserved": 0, "lon": -76.95256033333334, "is_disabled": 0, "fusion_lat": 0.0, "lat": 38.892753666666664, "bike_id": "c0970cad5e2394d1db8b8956758a93ee", "fusion_lon": 0.0}, {"rental_uris": {"ios": "https://dc.lft.to/lastmile_qr_scan", "android": "https://dc.lft.to/lastmile_qr_scan"}, "type": "electric_scooter", "name": "ebda92061fd9b00b0bfd91dc62f4c8a7", "is_reserved": 0, "lon": -77.02837566666666, "is_disabled": 0, "fusion_lat": 0.0, "lat": 38.893562833333334, "bike_id": "ebda92061fd9b00b0bfd91dc62f4c8a7", "fusion_lon": 0.0}, {"rental_uris": {"ios": "https://dc.lft.to/lastmile_qr_scan", "android": "https://dc.lft.to/lastmile_qr_scan"}, "type": "electric_scooter", "name": "eaf0e86e05912ef1cea962e3ea3bfe9f", "is_reserved": 0, "lon": -77.03618283333333, "is_disabled": 0, "fusion_lat": 0.0, "lat": 38.923380333333334, "bike_id": "eaf0e86e05912ef1cea962e3ea3bfe9f", "fusion_lon": 0.0}, {"rental_uris": {"ios": "https://dc.lft.to/lastmile_qr_scan", "android": "https://dc.lft.to/lastmile_qr_scan"}, "type": "electric_scooter", "name": "6e2a2d45ec469fca3ce984773ca0ee8d", "is_reserved": 0, "lon": -76.94378416666666, "is_disabled": 0, "fusion_lat": 0.0, "lat": 38.89116466666667, "bike_id": "6e2a2d45ec469fca3ce984773ca0ee8d", "fusion_lon": 0.0}, {"rental_uris": {"ios": "https://dc.lft.to/lastmile_qr_scan", "android": "https://dc.lft.to/lastmile_qr_scan"}, "type": "electric_scooter", "name": "bee3f717e602673a6f4d463c715416a4", "is_reserved": 0, "lon": -77.0417285, "is_disabled": 0, "fusion_lat": 0.0, "lat": 38.91196633333333, "bike_id": "bee3f717e602673a6f4d463c715416a4", "fusion_lon": 0.0}, {"rental_uris": {"ios": "https://dc.lft.to/lastmile_qr_scan", "android": "https://dc.lft.to/lastmile_qr_scan"}, "type": "electric_scooter", "name": "139a374c62e7067bc0a409082cb5e2a8", "is_reserved": 0, "lon": -77.03849916666667, "is_disabled": 0, "fusion_lat": 0.0, "lat": 38.926443166666665, "bike_id": "139a374c62e7067bc0a409082cb5e2a8", "fusion_lon": 0.0}, {"rental_uris": {"ios": "https://dc.lft.to/lastmile_qr_scan", "android": "https://dc.lft.to/lastmile_qr_scan"}, "type": "electric_scooter", "name": "be69b9137946f0e0fbde4104f0121b88", "is_reserved": 0, "lon": -77.01795216666666, "is_disabled": 0, "fusion_lat": 0.0, "lat": 38.88601116666667, "bike_id": "be69b9137946f0e0fbde4104f0121b88", "fusion_lon": 0.0}, {"rental_uris": {"ios": "https://dc.lft.to/lastmile_qr_scan", "android": "https://dc.lft.to/lastmile_qr_scan"}, "type": "electric_scooter", "name": "d8513163aa55bd24e4d3198ad8211f7b", "is_reserved": 0, "lon": -77.00627966666667, "is_disabled": 0, "fusion_lat": 0.0, "lat": 38.87173533333333, "bike_id": "d8513163aa55bd24e4d3198ad8211f7b", "fusion_lon": 0.0}, {"rental_uris": {"ios": "https://dc.lft.to/lastmile_qr_scan", "android": "https://dc.lft.to/lastmile_qr_scan"}, "type": "electric_bike", "name": "e4bf29a5396a35e43c6ce99aff075b37", "is_reserved": 0, "lon": -77.132319, "is_disabled": 0, "fusion_lat": 0.0, "lat": 38.80450183333333, "bike_id": "e4bf29a5396a35e43c6ce99aff075b37", "fusion_lon": 0.0}, {"rental_uris": {"ios": "https://dc.lft.to/lastmile_qr_scan", "android": "https://dc.lft.to/lastmile_qr_scan"}, "type": "electric_bike", "name": "365a51683a8247a89dbe32f208e3fcfd", "is_reserved": 0, "lon": -76.9834735, "is_disabled": 0, "fusion_lat": 0.0, "lat": 38.86261183333333, "bike_id": "365a51683a8247a89dbe32f208e3fcfd", "fusion_lon": 0.0}, {"rental_uris": {"ios": "https://dc.lft.to/lastmile_qr_scan", "android": "https://dc.lft.to/lastmile_qr_scan"}, "type": "electric_scooter", "name": "37daffa9ea4446dbcc9af97cda866a3f", "is_reserved": 0, "lon": -77.02690816666667, "is_disabled": 0, "fusion_lat": 0.0, "lat": 38.9084135, "bike_id": "37daffa9ea4446dbcc9af97cda866a3f", "fusion_lon": 0.0}, {"rental_uris": {"ios": "https://dc.lft.to/lastmile_qr_scan", "android": "https://dc.lft.to/lastmile_qr_scan"}, "type": "electric_scooter", "name": "60f18afa43abc86d3bb2f8049c3ccc0f", "is_reserved": 0, "lon": -77.0188365, "is_disabled": 0, "fusion_lat": 0.0, "lat": 38.9024195, "bike_id": "60f18afa43abc86d3bb2f8049c3ccc0f", "fusion_lon": 0.0}, {"rental_uris": {"ios": "https://dc.lft.to/lastmile_qr_scan", "android": "https://dc.lft.to/lastmile_qr_scan"}, "type": "electric_scooter", "name": "7228e30bb7904abf793e8c4a2993a112", "is_reserved": 0, "lon": -77.04747783333333, "is_disabled": 0, "fusion_lat": 0.0, "lat": 38.917674166666664, "bike_id": "7228e30bb7904abf793e8c4a2993a112", "fusion_lon": 0.0}, {"rental_uris": {"ios": "https://dc.lft.to/lastmile_qr_scan", "android": "https://dc.lft.to/lastmile_qr_scan"}, "type": "electric_scooter", "name": "217be945ac4e9b25c3737d3141d1cb08", "is_reserved": 0, "lon": -77.066745, "is_disabled": 0, "fusion_lat": 0.0, "lat": 38.9038335, "bike_id": "217be945ac4e9b25c3737d3141d1cb08", "fusion_lon": 0.0}, {"rental_uris": {"ios": "https://dc.lft.to/lastmile_qr_scan", "android": "https://dc.lft.to/lastmile_qr_scan"}, "type": "electric_scooter", "name": "cfee84e30dfae68ce9a29d8ed1bbb084", "is_reserved": 0, "lon": -77.01433066666667, "is_disabled": 0, "fusion_lat": 0.0, "lat": 38.91313983333333, "bike_id": "cfee84e30dfae68ce9a29d8ed1bbb084", "fusion_lon": 0.0}, {"rental_uris": {"ios": "https://dc.lft.to/lastmile_qr_scan", "android": "https://dc.lft.to/lastmile_qr_scan"}, "type": "electric_scooter", "name": "665627b0939dfa76536a87edd0a22142", "is_reserved": 0, "lon": -77.000495, "is_disabled": 0, "fusion_lat": 0.0, "lat": 38.879219, "bike_id": "665627b0939dfa76536a87edd0a22142", "fusion_lon": 0.0}, {"rental_uris": {"ios": "https://dc.lft.to/lastmile_qr_scan", "android": "https://dc.lft.to/lastmile_qr_scan"}, "type": "electric_scooter", "name": "4d287a2017e421500deb9d58c1f032af", "is_reserved": 0, "lon": -77.02635266666667, "is_disabled": 0, "fusion_lat": 0.0, "lat": 38.92480616666667, "bike_id": "4d287a2017e421500deb9d58c1f032af", "fusion_lon": 0.0}, {"rental_uris": {"ios": "https://dc.lft.to/lastmile_qr_scan", "android": "https://dc.lft.to/lastmile_qr_scan"}, "type": "electric_bike", "name": "bd94eca0b7ed7a9a5519b6053e7ac98e", "is_reserved": 0, "lon": -76.91802366666667, "is_disabled": 0, "fusion_lat": 0.0, "lat": 39.000018, "bike_id": "bd94eca0b7ed7a9a5519b6053e7ac98e", "fusion_lon": 0.0}, {"rental_uris": {"ios": "https://dc.lft.to/lastmile_qr_scan", "android": "https://dc.lft.to/lastmile_qr_scan"}, "type": "electric_scooter", "name": "7db593bec228384193dc3e8d855021e9", "is_reserved": 0, "lon": -77.02702933333333, "is_disabled": 0, "fusion_lat": 0.0, "lat": 38.9176475, "bike_id": "7db593bec228384193dc3e8d855021e9", "fusion_lon": 0.0}, {"rental_uris": {"ios": "https://dc.lft.to/lastmile_qr_scan", "android": "https://dc.lft.to/lastmile_qr_scan"}, "type": "electric_scooter", "name": "fcba15c9207eee095aa004204e6fe270", "is_reserved": 0, "lon": -77.04363516666666, "is_disabled": 0, "fusion_lat": 0.0, "lat": 38.9224475, "bike_id": "fcba15c9207eee095aa004204e6fe270", "fusion_lon": 0.0}, {"rental_uris": {"ios": "https://dc.lft.to/lastmile_qr_scan", "android": "https://dc.lft.to/lastmile_qr_scan"}, "type": "electric_scooter", "name": "6df53dccf8b55f66c9224786854d3038", "is_reserved": 0, "lon": -77.03949483333334, "is_disabled": 0, "fusion_lat": 0.0, "lat": 38.902612500000004, "bike_id": "6df53dccf8b55f66c9224786854d3038", "fusion_lon": 0.0}, {"rental_uris": {"ios": "https://dc.lft.to/lastmile_qr_scan", "android": "https://dc.lft.to/lastmile_qr_scan"}, "type": "electric_scooter", "name": "3e1deb0ec411ba923efb804a74a70189", "is_reserved": 0, "lon": -77.023199, "is_disabled": 0, "fusion_lat": 0.0, "lat": 38.9402085, "bike_id": "3e1deb0ec411ba923efb804a74a70189", "fusion_lon": 0.0}, {"rental_uris": {"ios": "https://dc.lft.to/lastmile_qr_scan", "android": "https://dc.lft.to/lastmile_qr_scan"}, "type": "electric_scooter", "name": "77ca59ab400053c036b21e952ee6da0c", "is_reserved": 0, "lon": -77.05217983333333, "is_disabled": 0, "fusion_lat": 0.0, "lat": 38.90331233333333, "bike_id": "77ca59ab400053c036b21e952ee6da0c", "fusion_lon": 0.0}, {"rental_uris": {"ios": "https://dc.lft.to/lastmile_qr_scan", "android": "https://dc.lft.to/lastmile_qr_scan"}, "type": "electric_scooter", "name": "efc4db51e43faf0b192d87550653e633", "is_reserved": 0, "lon": -77.01259633333333, "is_disabled": 0, "fusion_lat": 0.0, "lat": 38.897195833333335, "bike_id": "efc4db51e43faf0b192d87550653e633", "fusion_lon": 0.0}, {"rental_uris": {"ios": "https://dc.lft.to/lastmile_qr_scan", "android": "https://dc.lft.to/lastmile_qr_scan"}, "type": "electric_scooter", "name": "1d7137d34f8391ca2f5eb6a96fec2932", "is_reserved": 0, "lon": -77.07212483333333, "is_disabled": 0, "fusion_lat": 0.0, "lat": 38.906816666666664, "bike_id": "1d7137d34f8391ca2f5eb6a96fec2932", "fusion_lon": 0.0}, {"rental_uris": {"ios": "https://dc.lft.to/lastmile_qr_scan", "android": "https://dc.lft.to/lastmile_qr_scan"}, "type": "electric_scooter", "name": "41913169b23382d2f5c33c2e83f6e80f", "is_reserved": 0, "lon": -76.98666066666667, "is_disabled": 0, "fusion_lat": 0.0, "lat": 38.90611533333333, "bike_id": "41913169b23382d2f5c33c2e83f6e80f", "fusion_lon": 0.0}, {"rental_uris": {"ios": "https://dc.lft.to/lastmile_qr_scan", "android": "https://dc.lft.to/lastmile_qr_scan"}, "type": "electric_scooter", "name": "9c647bd59450e0fa8465a27cfa65da3f", "is_reserved": 0, "lon": -76.99144016666666, "is_disabled": 0, "fusion_lat": 0.0, "lat": 38.873377166666664, "bike_id": "9c647bd59450e0fa8465a27cfa65da3f", "fusion_lon": 0.0}, {"rental_uris": {"ios": "https://dc.lft.to/lastmile_qr_scan", "android": "https://dc.lft.to/lastmile_qr_scan"}, "type": "electric_scooter", "name": "3ff6c0ea562e8552345a687538189aba", "is_reserved": 0, "lon": -77.0639295, "is_disabled": 0, "fusion_lat": 0.0, "lat": 38.90859566666666, "bike_id": "3ff6c0ea562e8552345a687538189aba", "fusion_lon": 0.0}, {"rental_uris": {"ios": "https://dc.lft.to/lastmile_qr_scan", "android": "https://dc.lft.to/lastmile_qr_scan"}, "type": "electric_scooter", "name": "30a8cb6b5cb4365e1e9752f1d27564d2", "is_reserved": 0, "lon": -77.02462266666667, "is_disabled": 0, "fusion_lat": 0.0, "lat": 38.9032515, "bike_id": "30a8cb6b5cb4365e1e9752f1d27564d2", "fusion_lon": 0.0}, {"rental_uris": {"ios": "https://dc.lft.to/lastmile_qr_scan", "android": "https://dc.lft.to/lastmile_qr_scan"}, "type": "electric_scooter", "name": "30e854877c98f1b787849ee185c7dee7", "is_reserved": 0, "lon": -77.02177, "is_disabled": 0, "fusion_lat": 0.0, "lat": 38.9282955, "bike_id": "30e854877c98f1b787849ee185c7dee7", "fusion_lon": 0.0}, {"rental_uris": {"ios": "https://dc.lft.to/lastmile_qr_scan", "android": "https://dc.lft.to/lastmile_qr_scan"}, "type": "electric_scooter", "name": "f3c45cc8c408e9ad42a770892762fb34", "is_reserved": 0, "lon": -77.03558116666666, "is_disabled": 0, "fusion_lat": 0.0, "lat": 38.927417, "bike_id": "f3c45cc8c408e9ad42a770892762fb34", "fusion_lon": 0.0}, {"rental_uris": {"ios": "https://dc.lft.to/lastmile_qr_scan", "android": "https://dc.lft.to/lastmile_qr_scan"}, "type": "electric_scooter", "name": "95ddb7e1891acbc09a1cfeeff2a5adf2", "is_reserved": 0, "lon": -77.0207435, "is_disabled": 0, "fusion_lat": 0.0, "lat": 38.912559, "bike_id": "95ddb7e1891acbc09a1cfeeff2a5adf2", "fusion_lon": 0.0}, {"rental_uris": {"ios": "https://dc.lft.to/lastmile_qr_scan", "android": "https://dc.lft.to/lastmile_qr_scan"}, "type": "electric_scooter", "name": "5fa7934bfc470ba6207335d9ff2d50fd", "is_reserved": 0, "lon": -76.985491, "is_disabled": 0, "fusion_lat": 0.0, "lat": 38.879626, "bike_id": "5fa7934bfc470ba6207335d9ff2d50fd", "fusion_lon": 0.0}, {"rental_uris": {"ios": "https://dc.lft.to/lastmile_qr_scan", "android": "https://dc.lft.to/lastmile_qr_scan"}, "type": "electric_scooter", "name": "5ad1310b26de70147957db66b3aed5dd", "is_reserved": 0, "lon": -77.023797, "is_disabled": 0, "fusion_lat": 0.0, "lat": 38.903394166666665, "bike_id": "5ad1310b26de70147957db66b3aed5dd", "fusion_lon": 0.0}, {"rental_uris": {"ios": "https://dc.lft.to/lastmile_qr_scan", "android": "https://dc.lft.to/lastmile_qr_scan"}, "type": "electric_scooter", "name": "47108f21979b89574a8172749a2cad27", "is_reserved": 0, "lon": -77.018925, "is_disabled": 0, "fusion_lat": 0.0, "lat": 38.87469516666667, "bike_id": "47108f21979b89574a8172749a2cad27", "fusion_lon": 0.0}, {"rental_uris": {"ios": "https://dc.lft.to/lastmile_qr_scan", "android": "https://dc.lft.to/lastmile_qr_scan"}, "type": "electric_scooter", "name": "271cbe4891b5e756a37710253283969e", "is_reserved": 0, "lon": -77.04000366666666, "is_disabled": 0, "fusion_lat": 0.0, "lat": 38.934275166666666, "bike_id": "271cbe4891b5e756a37710253283969e", "fusion_lon": 0.0}, {"rental_uris": {"ios": "https://dc.lft.to/lastmile_qr_scan", "android": "https://dc.lft.to/lastmile_qr_scan"}, "type": "electric_bike", "name": "ba8589bbcfe57d60d7d05010fec114d3", "is_reserved": 0, "lon": -77.1287275, "is_disabled": 0, "fusion_lat": 0.0, "lat": 38.90613666666667, "bike_id": "ba8589bbcfe57d60d7d05010fec114d3", "fusion_lon": 0.0}, {"rental_uris": {"ios": "https://dc.lft.to/lastmile_qr_scan", "android": "https://dc.lft.to/lastmile_qr_scan"}, "type": "electric_scooter", "name": "5dec304046c53ccc4e77aef14ad9e8bd", "is_reserved": 0, "lon": -77.05317266666667, "is_disabled": 0, "fusion_lat": 0.0, "lat": 38.94098433333333, "bike_id": "5dec304046c53ccc4e77aef14ad9e8bd", "fusion_lon": 0.0}, {"rental_uris": {"ios": "https://dc.lft.to/lastmile_qr_scan", "android": "https://dc.lft.to/lastmile_qr_scan"}, "type": "electric_scooter", "name": "68db3718bfa36d87cb8f97c07c30fa29", "is_reserved": 0, "lon": -77.06724616666666, "is_disabled": 0, "fusion_lat": 0.0, "lat": 38.914622333333334, "bike_id": "68db3718bfa36d87cb8f97c07c30fa29", "fusion_lon": 0.0}, {"rental_uris": {"ios": "https://dc.lft.to/lastmile_qr_scan", "android": "https://dc.lft.to/lastmile_qr_scan"}, "type": "electric_bike", "name": "844cfe2ae0a0266830088059a0cc18b0", "is_reserved": 0, "lon": -76.968852, "is_disabled": 0, "fusion_lat": 0.0, "lat": 38.86985966666667, "bike_id": "844cfe2ae0a0266830088059a0cc18b0", "fusion_lon": 0.0}, {"rental_uris": {"ios": "https://dc.lft.to/lastmile_qr_scan", "android": "https://dc.lft.to/lastmile_qr_scan"}, "type": "electric_scooter", "name": "c65336d171ad904c9197231d188f28dc", "is_reserved": 0, "lon": -77.02737866666666, "is_disabled": 0, "fusion_lat": 0.0, "lat": 38.929656, "bike_id": "c65336d171ad904c9197231d188f28dc", "fusion_lon": 0.0}, {"rental_uris": {"ios": "https://dc.lft.to/lastmile_qr_scan", "android": "https://dc.lft.to/lastmile_qr_scan"}, "type": "electric_scooter", "name": "7eba8f146335f1930cfef089308e40a9", "is_reserved": 0, "lon": -77.041136, "is_disabled": 0, "fusion_lat": 0.0, "lat": 38.93401933333333, "bike_id": "7eba8f146335f1930cfef089308e40a9", "fusion_lon": 0.0}, {"rental_uris": {"ios": "https://dc.lft.to/lastmile_qr_scan", "android": "https://dc.lft.to/lastmile_qr_scan"}, "type": "electric_bike", "name": "e3588e85baff7b0ffb8f7b27381184cc", "is_reserved": 0, "lon": -76.963176, "is_disabled": 0, "fusion_lat": 0.0, "lat": 38.93896933333333, "bike_id": "e3588e85baff7b0ffb8f7b27381184cc", "fusion_lon": 0.0}, {"rental_uris": {"ios": "https://dc.lft.to/lastmile_qr_scan", "android": "https://dc.lft.to/lastmile_qr_scan"}, "type": "electric_scooter", "name": "15676856f0812cd6cb205481321ab32a", "is_reserved": 0, "lon": -77.016355, "is_disabled": 0, "fusion_lat": 0.0, "lat": 38.9025175, "bike_id": "15676856f0812cd6cb205481321ab32a", "fusion_lon": 0.0}, {"rental_uris": {"ios": "https://dc.lft.to/lastmile_qr_scan", "android": "https://dc.lft.to/lastmile_qr_scan"}, "type": "electric_bike", "name": "1779021eb3b5be326b955c5c359016e9", "is_reserved": 0, "lon": -77.08142383333333, "is_disabled": 0, "fusion_lat": 0.0, "lat": 38.822951333333336, "bike_id": "1779021eb3b5be326b955c5c359016e9", "fusion_lon": 0.0}, {"rental_uris": {"ios": "https://dc.lft.to/lastmile_qr_scan", "android": "https://dc.lft.to/lastmile_qr_scan"}, "type": "electric_bike", "name": "2157629f2c3573b3f3f4a5b215adce2e", "is_reserved": 0, "lon": -77.00377416666667, "is_disabled": 0, "fusion_lat": 0.0, "lat": 38.836039666666665, "bike_id": "2157629f2c3573b3f3f4a5b215adce2e", "fusion_lon": 0.0}, {"rental_uris": {"ios": "https://dc.lft.to/lastmile_qr_scan", "android": "https://dc.lft.to/lastmile_qr_scan"}, "type": "electric_scooter", "name": "cb7f4d4dba11c00192a190fe1526d03d", "is_reserved": 0, "lon": -77.03853216666667, "is_disabled": 0, "fusion_lat": 0.0, "lat": 38.90856766666667, "bike_id": "cb7f4d4dba11c00192a190fe1526d03d", "fusion_lon": 0.0}, {"rental_uris": {"ios": "https://dc.lft.to/lastmile_qr_scan", "android": "https://dc.lft.to/lastmile_qr_scan"}, "type": "electric_scooter", "name": "99ddee0a0177b9f7dd209eeb73a6dafb", "is_reserved": 0, "lon": -77.02308966666666, "is_disabled": 0, "fusion_lat": 0.0, "lat": 38.927848, "bike_id": "99ddee0a0177b9f7dd209eeb73a6dafb", "fusion_lon": 0.0}, {"rental_uris": {"ios": "https://dc.lft.to/lastmile_qr_scan", "android": "https://dc.lft.to/lastmile_qr_scan"}, "type": "electric_scooter", "name": "abed6b24ff2add65b1ad92a9f498e63a", "is_reserved": 0, "lon": -77.02074116666667, "is_disabled": 0, "fusion_lat": 0.0, "lat": 38.930268833333336, "bike_id": "abed6b24ff2add65b1ad92a9f498e63a", "fusion_lon": 0.0}, {"rental_uris": {"ios": "https://dc.lft.to/lastmile_qr_scan", "android": "https://dc.lft.to/lastmile_qr_scan"}, "type": "electric_scooter", "name": "fec112174f031d49a86925030771bd7a", "is_reserved": 0, "lon": -77.0209845, "is_disabled": 0, "fusion_lat": 0.0, "lat": 38.931156666666666, "bike_id": "fec112174f031d49a86925030771bd7a", "fusion_lon": 0.0}, {"rental_uris": {"ios": "https://dc.lft.to/lastmile_qr_scan", "android": "https://dc.lft.to/lastmile_qr_scan"}, "type": "electric_scooter", "name": "1a4cb2ea300058bcf1c442596e40b43d", "is_reserved": 0, "lon": -77.0283175, "is_disabled": 0, "fusion_lat": 0.0, "lat": 38.88736816666667, "bike_id": "1a4cb2ea300058bcf1c442596e40b43d", "fusion_lon": 0.0}, {"rental_uris": {"ios": "https://dc.lft.to/lastmile_qr_scan", "android": "https://dc.lft.to/lastmile_qr_scan"}, "type": "electric_scooter", "name": "55fb6fbfc2904e26c842a1568ca8c18c", "is_reserved": 0, "lon": -77.0017435, "is_disabled": 0, "fusion_lat": 0.0, "lat": 38.90781466666667, "bike_id": "55fb6fbfc2904e26c842a1568ca8c18c", "fusion_lon": 0.0}, {"rental_uris": {"ios": "https://dc.lft.to/lastmile_qr_scan", "android": "https://dc.lft.to/lastmile_qr_scan"}, "type": "electric_scooter", "name": "9617a120008d63410cd5b3a48ba2cdf7", "is_reserved": 0, "lon": -77.0152985, "is_disabled": 0, "fusion_lat": 0.0, "lat": 38.8873395, "bike_id": "9617a120008d63410cd5b3a48ba2cdf7", "fusion_lon": 0.0}, {"rental_uris": {"ios": "https://dc.lft.to/lastmile_qr_scan", "android": "https://dc.lft.to/lastmile_qr_scan"}, "type": "electric_scooter", "name": "300b080bc3483c26da4506e30e23e415", "is_reserved": 0, "lon": -77.05418683333333, "is_disabled": 0, "fusion_lat": 0.0, "lat": 38.92822, "bike_id": "300b080bc3483c26da4506e30e23e415", "fusion_lon": 0.0}, {"rental_uris": {"ios": "https://dc.lft.to/lastmile_qr_scan", "android": "https://dc.lft.to/lastmile_qr_scan"}, "type": "electric_scooter", "name": "54072748ab7b8687fb93a7840dda9acb", "is_reserved": 0, "lon": -77.02288066666667, "is_disabled": 0, "fusion_lat": 0.0, "lat": 38.926569, "bike_id": "54072748ab7b8687fb93a7840dda9acb", "fusion_lon": 0.0}, {"rental_uris": {"ios": "https://dc.lft.to/lastmile_qr_scan", "android": "https://dc.lft.to/lastmile_qr_scan"}, "type": "electric_scooter", "name": "0d7448bb1ca39f8f482e5b6f6fa7db95", "is_reserved": 0, "lon": -77.02194983333334, "is_disabled": 0, "fusion_lat": 0.0, "lat": 38.87899816666667, "bike_id": "0d7448bb1ca39f8f482e5b6f6fa7db95", "fusion_lon": 0.0}, {"rental_uris": {"ios": "https://dc.lft.to/lastmile_qr_scan", "android": "https://dc.lft.to/lastmile_qr_scan"}, "type": "electric_scooter", "name": "8cb2bc482d89b4a08fa09035da63d087", "is_reserved": 0, "lon": -77.03486816666667, "is_disabled": 0, "fusion_lat": 0.0, "lat": 38.93025883333333, "bike_id": "8cb2bc482d89b4a08fa09035da63d087", "fusion_lon": 0.0}, {"rental_uris": {"ios": "https://dc.lft.to/lastmile_qr_scan", "android": "https://dc.lft.to/lastmile_qr_scan"}, "type": "electric_scooter", "name": "5d4b8ddb938e605688fc0bd47f36f0d3", "is_reserved": 0, "lon": -77.03956116666667, "is_disabled": 0, "fusion_lat": 0.0, "lat": 38.9314925, "bike_id": "5d4b8ddb938e605688fc0bd47f36f0d3", "fusion_lon": 0.0}, {"rental_uris": {"ios": "https://dc.lft.to/lastmile_qr_scan", "android": "https://dc.lft.to/lastmile_qr_scan"}, "type": "electric_scooter", "name": "1b4a8dd6044875d3e656b51e69d155e2", "is_reserved": 0, "lon": -77.04234583333333, "is_disabled": 0, "fusion_lat": 0.0, "lat": 38.924330833333336, "bike_id": "1b4a8dd6044875d3e656b51e69d155e2", "fusion_lon": 0.0}, {"rental_uris": {"ios": "https://dc.lft.to/lastmile_qr_scan", "android": "https://dc.lft.to/lastmile_qr_scan"}, "type": "electric_scooter", "name": "916b61af67ba58dfaacf643cdf319a81", "is_reserved": 0, "lon": -77.02184883333334, "is_disabled": 0, "fusion_lat": 0.0, "lat": 38.92483333333333, "bike_id": "916b61af67ba58dfaacf643cdf319a81", "fusion_lon": 0.0}, {"rental_uris": {"ios": "https://dc.lft.to/lastmile_qr_scan", "android": "https://dc.lft.to/lastmile_qr_scan"}, "type": "electric_scooter", "name": "e873738b94faba169036d264960418b3", "is_reserved": 0, "lon": -77.00706566666666, "is_disabled": 0, "fusion_lat": 0.0, "lat": 38.878315, "bike_id": "e873738b94faba169036d264960418b3", "fusion_lon": 0.0}, {"rental_uris": {"ios": "https://dc.lft.to/lastmile_qr_scan", "android": "https://dc.lft.to/lastmile_qr_scan"}, "type": "electric_scooter", "name": "817324a494f1b81a8d62eab1b046f9e9", "is_reserved": 0, "lon": -76.94853833333333, "is_disabled": 0, "fusion_lat": 0.0, "lat": 38.883007166666665, "bike_id": "817324a494f1b81a8d62eab1b046f9e9", "fusion_lon": 0.0}, {"rental_uris": {"ios": "https://dc.lft.to/lastmile_qr_scan", "android": "https://dc.lft.to/lastmile_qr_scan"}, "type": "electric_scooter", "name": "a53d6fe6988319336c9704e40293429f", "is_reserved": 0, "lon": -77.02724116666667, "is_disabled": 0, "fusion_lat": 0.0, "lat": 38.92484116666667, "bike_id": "a53d6fe6988319336c9704e40293429f", "fusion_lon": 0.0}, {"rental_uris": {"ios": "https://dc.lft.to/lastmile_qr_scan", "android": "https://dc.lft.to/lastmile_qr_scan"}, "type": "electric_scooter", "name": "4da76550d43371ba3d37712020759595", "is_reserved": 0, "lon": -77.02080183333334, "is_disabled": 0, "fusion_lat": 0.0, "lat": 38.92410316666667, "bike_id": "4da76550d43371ba3d37712020759595", "fusion_lon": 0.0}, {"rental_uris": {"ios": "https://dc.lft.to/lastmile_qr_scan", "android": "https://dc.lft.to/lastmile_qr_scan"}, "type": "electric_scooter", "name": "bdaeb0481966f160dcffd2ae8084b60d", "is_reserved": 0, "lon": -77.02448183333334, "is_disabled": 0, "fusion_lat": 0.0, "lat": 38.917936, "bike_id": "bdaeb0481966f160dcffd2ae8084b60d", "fusion_lon": 0.0}, {"rental_uris": {"ios": "https://dc.lft.to/lastmile_qr_scan", "android": "https://dc.lft.to/lastmile_qr_scan"}, "type": "electric_scooter", "name": "feaefc32a4f8cb3dd46bae0f4ec99fe6", "is_reserved": 0, "lon": -77.04668416666667, "is_disabled": 0, "fusion_lat": 0.0, "lat": 38.89227183333333, "bike_id": "feaefc32a4f8cb3dd46bae0f4ec99fe6", "fusion_lon": 0.0}, {"rental_uris": {"ios": "https://dc.lft.to/lastmile_qr_scan", "android": "https://dc.lft.to/lastmile_qr_scan"}, "type": "electric_bike", "name": "06616ed65975523a0ed7c3ad42136a3d", "is_reserved": 0, "lon": -77.04355433333333, "is_disabled": 0, "fusion_lat": 0.0, "lat": 38.89729583333333, "bike_id": "06616ed65975523a0ed7c3ad42136a3d", "fusion_lon": 0.0}, {"rental_uris": {"ios": "https://dc.lft.to/lastmile_qr_scan", "android": "https://dc.lft.to/lastmile_qr_scan"}, "type": "electric_scooter", "name": "15ecf77c1a009f4d9d1c97aa30dcdb61", "is_reserved": 0, "lon": -76.98085783333333, "is_disabled": 0, "fusion_lat": 0.0, "lat": 38.904157833333336, "bike_id": "15ecf77c1a009f4d9d1c97aa30dcdb61", "fusion_lon": 0.0}, {"rental_uris": {"ios": "https://dc.lft.to/lastmile_qr_scan", "android": "https://dc.lft.to/lastmile_qr_scan"}, "type": "electric_scooter", "name": "4bfa9ef007d8c4af0ef7731c2bdf9cd1", "is_reserved": 0, "lon": -77.01460016666667, "is_disabled": 0, "fusion_lat": 0.0, "lat": 38.91770916666667, "bike_id": "4bfa9ef007d8c4af0ef7731c2bdf9cd1", "fusion_lon": 0.0}, {"rental_uris": {"ios": "https://dc.lft.to/lastmile_qr_scan", "android": "https://dc.lft.to/lastmile_qr_scan"}, "type": "electric_scooter", "name": "48c6430412eaca8a752d90f08a841f3d", "is_reserved": 0, "lon": -77.032427, "is_disabled": 0, "fusion_lat": 0.0, "lat": 38.9044305, "bike_id": "48c6430412eaca8a752d90f08a841f3d", "fusion_lon": 0.0}, {"rental_uris": {"ios": "https://dc.lft.to/lastmile_qr_scan", "android": "https://dc.lft.to/lastmile_qr_scan"}, "type": "electric_scooter", "name": "799e3924930cd4e919053c98fb41bd78", "is_reserved": 0, "lon": -77.02353883333333, "is_disabled": 0, "fusion_lat": 0.0, "lat": 38.9419935, "bike_id": "799e3924930cd4e919053c98fb41bd78", "fusion_lon": 0.0}, {"rental_uris": {"ios": "https://dc.lft.to/lastmile_qr_scan", "android": "https://dc.lft.to/lastmile_qr_scan"}, "type": "electric_scooter", "name": "79207df43bc6d94ca0049531754dbb2c", "is_reserved": 0, "lon": -77.00587266666666, "is_disabled": 0, "fusion_lat": 0.0, "lat": 38.9068725, "bike_id": "79207df43bc6d94ca0049531754dbb2c", "fusion_lon": 0.0}, {"rental_uris": {"ios": "https://dc.lft.to/lastmile_qr_scan", "android": "https://dc.lft.to/lastmile_qr_scan"}, "type": "electric_scooter", "name": "f2cffe3933a20a01c33d95257e52eb12", "is_reserved": 0, "lon": -76.9289435, "is_disabled": 0, "fusion_lat": 0.0, "lat": 38.879468333333335, "bike_id": "f2cffe3933a20a01c33d95257e52eb12", "fusion_lon": 0.0}, {"rental_uris": {"ios": "https://dc.lft.to/lastmile_qr_scan", "android": "https://dc.lft.to/lastmile_qr_scan"}, "type": "electric_scooter", "name": "dda685dcafe09c9523ba05a4fe4b08da", "is_reserved": 0, "lon": -77.03673833333333, "is_disabled": 0, "fusion_lat": 0.0, "lat": 38.92373166666667, "bike_id": "dda685dcafe09c9523ba05a4fe4b08da", "fusion_lon": 0.0}, {"rental_uris": {"ios": "https://dc.lft.to/lastmile_qr_scan", "android": "https://dc.lft.to/lastmile_qr_scan"}, "type": "electric_scooter", "name": "e5e6101152015801dce04ace8f04e719", "is_reserved": 0, "lon": -77.000409, "is_disabled": 0, "fusion_lat": 0.0, "lat": 38.900121166666665, "bike_id": "e5e6101152015801dce04ace8f04e719", "fusion_lon": 0.0}, {"rental_uris": {"ios": "https://dc.lft.to/lastmile_qr_scan", "android": "https://dc.lft.to/lastmile_qr_scan"}, "type": "electric_scooter", "name": "9923a3bbccc75fb30cfdd21097dfbdf4", "is_reserved": 0, "lon": -77.040352, "is_disabled": 0, "fusion_lat": 0.0, "lat": 38.924420833333336, "bike_id": "9923a3bbccc75fb30cfdd21097dfbdf4", "fusion_lon": 0.0}, {"rental_uris": {"ios": "https://dc.lft.to/lastmile_qr_scan", "android": "https://dc.lft.to/lastmile_qr_scan"}, "type": "electric_scooter", "name": "fac65a8800d2cbbd992cedf082589104", "is_reserved": 0, "lon": -77.02620583333334, "is_disabled": 0, "fusion_lat": 0.0, "lat": 38.93341233333334, "bike_id": "fac65a8800d2cbbd992cedf082589104", "fusion_lon": 0.0}, {"rental_uris": {"ios": "https://dc.lft.to/lastmile_qr_scan", "android": "https://dc.lft.to/lastmile_qr_scan"}, "type": "electric_scooter", "name": "9cfa8a35e15494e5ca8c665d77028ebd", "is_reserved": 0, "lon": -76.9849425, "is_disabled": 0, "fusion_lat": 0.0, "lat": 38.90366, "bike_id": "9cfa8a35e15494e5ca8c665d77028ebd", "fusion_lon": 0.0}, {"rental_uris": {"ios": "https://dc.lft.to/lastmile_qr_scan", "android": "https://dc.lft.to/lastmile_qr_scan"}, "type": "electric_scooter", "name": "bf13b850bcf37cd2f54d08e9d77d22df", "is_reserved": 0, "lon": -77.0113985, "is_disabled": 0, "fusion_lat": 0.0, "lat": 38.9064775, "bike_id": "bf13b850bcf37cd2f54d08e9d77d22df", "fusion_lon": 0.0}, {"rental_uris": {"ios": "https://dc.lft.to/lastmile_qr_scan", "android": "https://dc.lft.to/lastmile_qr_scan"}, "type": "electric_scooter", "name": "63f938bb1387b8d09c5f7270f6e16609", "is_reserved": 0, "lon": -77.01966533333334, "is_disabled": 0, "fusion_lat": 0.0, "lat": 38.92248883333333, "bike_id": "63f938bb1387b8d09c5f7270f6e16609", "fusion_lon": 0.0}, {"rental_uris": {"ios": "https://dc.lft.to/lastmile_qr_scan", "android": "https://dc.lft.to/lastmile_qr_scan"}, "type": "electric_scooter", "name": "1cd70d3f5a341d0e0d08d6e8c04b4e8f", "is_reserved": 0, "lon": -76.99156383333333, "is_disabled": 0, "fusion_lat": 0.0, "lat": 38.88820166666667, "bike_id": "1cd70d3f5a341d0e0d08d6e8c04b4e8f", "fusion_lon": 0.0}, {"rental_uris": {"ios": "https://dc.lft.to/lastmile_qr_scan", "android": "https://dc.lft.to/lastmile_qr_scan"}, "type": "electric_scooter", "name": "174c9e785734e5ca9ae16466a45df63b", "is_reserved": 0, "lon": -77.02399333333334, "is_disabled": 0, "fusion_lat": 0.0, "lat": 38.938132, "bike_id": "174c9e785734e5ca9ae16466a45df63b", "fusion_lon": 0.0}, {"rental_uris": {"ios": "https://dc.lft.to/lastmile_qr_scan", "android": "https://dc.lft.to/lastmile_qr_scan"}, "type": "electric_scooter", "name": "1b2521c04bb5a2f8456de33c86add1f6", "is_reserved": 0, "lon": -76.99869366666667, "is_disabled": 0, "fusion_lat": 0.0, "lat": 38.900303, "bike_id": "1b2521c04bb5a2f8456de33c86add1f6", "fusion_lon": 0.0}, {"rental_uris": {"ios": "https://dc.lft.to/lastmile_qr_scan", "android": "https://dc.lft.to/lastmile_qr_scan"}, "type": "electric_scooter", "name": "b727f96f9652969ca99e380002273fa7", "is_reserved": 0, "lon": -77.04228716666667, "is_disabled": 0, "fusion_lat": 0.0, "lat": 38.911098, "bike_id": "b727f96f9652969ca99e380002273fa7", "fusion_lon": 0.0}, {"rental_uris": {"ios": "https://dc.lft.to/lastmile_qr_scan", "android": "https://dc.lft.to/lastmile_qr_scan"}, "type": "electric_scooter", "name": "cc6e5c1d143ae208a3de00cacdfdfbae", "is_reserved": 0, "lon": -77.06483466666667, "is_disabled": 0, "fusion_lat": 0.0, "lat": 38.9270425, "bike_id": "cc6e5c1d143ae208a3de00cacdfdfbae", "fusion_lon": 0.0}, {"rental_uris": {"ios": "https://dc.lft.to/lastmile_qr_scan", "android": "https://dc.lft.to/lastmile_qr_scan"}, "type": "electric_scooter", "name": "8d202c9bd77ba2461ab18031dc57b294", "is_reserved": 0, "lon": -77.02694083333333, "is_disabled": 0, "fusion_lat": 0.0, "lat": 38.92486133333333, "bike_id": "8d202c9bd77ba2461ab18031dc57b294", "fusion_lon": 0.0}, {"rental_uris": {"ios": "https://dc.lft.to/lastmile_qr_scan", "android": "https://dc.lft.to/lastmile_qr_scan"}, "type": "electric_scooter", "name": "87e14da8bbcd35c0fa3d397825f31b04", "is_reserved": 0, "lon": -76.99173783333333, "is_disabled": 0, "fusion_lat": 0.0, "lat": 38.90259416666667, "bike_id": "87e14da8bbcd35c0fa3d397825f31b04", "fusion_lon": 0.0}, {"rental_uris": {"ios": "https://dc.lft.to/lastmile_qr_scan", "android": "https://dc.lft.to/lastmile_qr_scan"}, "type": "electric_scooter", "name": "4ed71b7aa17e69a1d37aa5dba1fdd3ab", "is_reserved": 0, "lon": -77.04528516666667, "is_disabled": 0, "fusion_lat": 0.0, "lat": 38.911123333333336, "bike_id": "4ed71b7aa17e69a1d37aa5dba1fdd3ab", "fusion_lon": 0.0}, {"rental_uris": {"ios": "https://dc.lft.to/lastmile_qr_scan", "android": "https://dc.lft.to/lastmile_qr_scan"}, "type": "electric_scooter", "name": "06bbb5060b21d13c5ae9d182340d3c75", "is_reserved": 0, "lon": -77.00617566666666, "is_disabled": 0, "fusion_lat": 0.0, "lat": 38.87848916666667, "bike_id": "06bbb5060b21d13c5ae9d182340d3c75", "fusion_lon": 0.0}, {"rental_uris": {"ios": "https://dc.lft.to/lastmile_qr_scan", "android": "https://dc.lft.to/lastmile_qr_scan"}, "type": "electric_scooter", "name": "9cc9d0c14c520fe14ad6da22e055ae6e", "is_reserved": 0, "lon": -76.9937305, "is_disabled": 0, "fusion_lat": 0.0, "lat": 38.89340416666667, "bike_id": "9cc9d0c14c520fe14ad6da22e055ae6e", "fusion_lon": 0.0}, {"rental_uris": {"ios": "https://dc.lft.to/lastmile_qr_scan", "android": "https://dc.lft.to/lastmile_qr_scan"}, "type": "electric_bike", "name": "9f11ebae19c98f1e138468a38db223c2", "is_reserved": 0, "lon": -76.91722066666667, "is_disabled": 0, "fusion_lat": 0.0, "lat": 38.8803045, "bike_id": "9f11ebae19c98f1e138468a38db223c2", "fusion_lon": 0.0}, {"rental_uris": {"ios": "https://dc.lft.to/lastmile_qr_scan", "android": "https://dc.lft.to/lastmile_qr_scan"}, "type": "electric_scooter", "name": "d860c160b4228348bedd8a394c2f15e1", "is_reserved": 0, "lon": -77.0364045, "is_disabled": 0, "fusion_lat": 0.0, "lat": 38.91619466666667, "bike_id": "d860c160b4228348bedd8a394c2f15e1", "fusion_lon": 0.0}, {"rental_uris": {"ios": "https://dc.lft.to/lastmile_qr_scan", "android": "https://dc.lft.to/lastmile_qr_scan"}, "type": "electric_bike", "name": "a12a7cd5bdfa2834f892b95fa2787a2d", "is_reserved": 0, "lon": -77.0317745, "is_disabled": 0, "fusion_lat": 0.0, "lat": 38.90888416666667, "bike_id": "a12a7cd5bdfa2834f892b95fa2787a2d", "fusion_lon": 0.0}, {"rental_uris": {"ios": "https://dc.lft.to/lastmile_qr_scan", "android": "https://dc.lft.to/lastmile_qr_scan"}, "type": "electric_scooter", "name": "8deacc322b17c356ee407f64140b7e30", "is_reserved": 0, "lon": -77.02181416666667, "is_disabled": 0, "fusion_lat": 0.0, "lat": 38.91126033333333, "bike_id": "8deacc322b17c356ee407f64140b7e30", "fusion_lon": 0.0}, {"rental_uris": {"ios": "https://dc.lft.to/lastmile_qr_scan", "android": "https://dc.lft.to/lastmile_qr_scan"}, "type": "electric_scooter", "name": "ac7f23b3954422215136a782753978a7", "is_reserved": 0, "lon": -77.034728, "is_disabled": 0, "fusion_lat": 0.0, "lat": 38.925405166666664, "bike_id": "ac7f23b3954422215136a782753978a7", "fusion_lon": 0.0}, {"rental_uris": {"ios": "https://dc.lft.to/lastmile_qr_scan", "android": "https://dc.lft.to/lastmile_qr_scan"}, "type": "electric_scooter", "name": "5b93bca23b7e84f72adaaefbb649d759", "is_reserved": 0, "lon": -77.026421, "is_disabled": 0, "fusion_lat": 0.0, "lat": 38.919134166666666, "bike_id": "5b93bca23b7e84f72adaaefbb649d759", "fusion_lon": 0.0}, {"rental_uris": {"ios": "https://dc.lft.to/lastmile_qr_scan", "android": "https://dc.lft.to/lastmile_qr_scan"}, "type": "electric_scooter", "name": "c455a56d4d96134e1a5a9bea6fb64e82", "is_reserved": 0, "lon": -76.99030933333333, "is_disabled": 0, "fusion_lat": 0.0, "lat": 38.8888345, "bike_id": "c455a56d4d96134e1a5a9bea6fb64e82", "fusion_lon": 0.0}, {"rental_uris": {"ios": "https://dc.lft.to/lastmile_qr_scan", "android": "https://dc.lft.to/lastmile_qr_scan"}, "type": "electric_scooter", "name": "6308a75d3fcb33252955465096877647", "is_reserved": 0, "lon": -77.01702033333333, "is_disabled": 0, "fusion_lat": 0.0, "lat": 38.9138565, "bike_id": "6308a75d3fcb33252955465096877647", "fusion_lon": 0.0}, {"rental_uris": {"ios": "https://dc.lft.to/lastmile_qr_scan", "android": "https://dc.lft.to/lastmile_qr_scan"}, "type": "electric_scooter", "name": "7e8a58fff3a0ead156d09705af45c2b3", "is_reserved": 0, "lon": -77.00342683333334, "is_disabled": 0, "fusion_lat": 0.0, "lat": 38.9177155, "bike_id": "7e8a58fff3a0ead156d09705af45c2b3", "fusion_lon": 0.0}, {"rental_uris": {"ios": "https://dc.lft.to/lastmile_qr_scan", "android": "https://dc.lft.to/lastmile_qr_scan"}, "type": "electric_bike", "name": "fb8b758eb4ce9a2e1e5f31fc7b563b2f", "is_reserved": 0, "lon": -76.98690333333333, "is_disabled": 0, "fusion_lat": 0.0, "lat": 38.9447535, "bike_id": "fb8b758eb4ce9a2e1e5f31fc7b563b2f", "fusion_lon": 0.0}, {"rental_uris": {"ios": "https://dc.lft.to/lastmile_qr_scan", "android": "https://dc.lft.to/lastmile_qr_scan"}, "type": "electric_bike", "name": "6e620515df1e37f459f3d59b4ec4a078", "is_reserved": 0, "lon": -77.10210133333334, "is_disabled": 0, "fusion_lat": 0.0, "lat": 38.9200125, "bike_id": "6e620515df1e37f459f3d59b4ec4a078", "fusion_lon": 0.0}, {"rental_uris": {"ios": "https://dc.lft.to/lastmile_qr_scan", "android": "https://dc.lft.to/lastmile_qr_scan"}, "type": "electric_scooter", "name": "0f56b56344b893889b38bc8791a0b07d", "is_reserved": 0, "lon": -76.9883675, "is_disabled": 0, "fusion_lat": 0.0, "lat": 38.84292933333333, "bike_id": "0f56b56344b893889b38bc8791a0b07d", "fusion_lon": 0.0}, {"rental_uris": {"ios": "https://dc.lft.to/lastmile_qr_scan", "android": "https://dc.lft.to/lastmile_qr_scan"}, "type": "electric_scooter", "name": "843825eb28b7a2e725405dcebd8815cc", "is_reserved": 0, "lon": -77.04344266666666, "is_disabled": 0, "fusion_lat": 0.0, "lat": 38.90735083333333, "bike_id": "843825eb28b7a2e725405dcebd8815cc", "fusion_lon": 0.0}, {"rental_uris": {"ios": "https://dc.lft.to/lastmile_qr_scan", "android": "https://dc.lft.to/lastmile_qr_scan"}, "type": "electric_bike", "name": "85255232c30d39235c98129f986c3cee", "is_reserved": 0, "lon": -77.03625116666667, "is_disabled": 0, "fusion_lat": 0.0, "lat": 38.972954333333334, "bike_id": "85255232c30d39235c98129f986c3cee", "fusion_lon": 0.0}, {"rental_uris": {"ios": "https://dc.lft.to/lastmile_qr_scan", "android": "https://dc.lft.to/lastmile_qr_scan"}, "type": "electric_scooter", "name": "5b3a248a1c8e4570dd36e39c1410c6f0", "is_reserved": 0, "lon": -77.04479983333333, "is_disabled": 0, "fusion_lat": 0.0, "lat": 38.90360183333333, "bike_id": "5b3a248a1c8e4570dd36e39c1410c6f0", "fusion_lon": 0.0}, {"rental_uris": {"ios": "https://dc.lft.to/lastmile_qr_scan", "android": "https://dc.lft.to/lastmile_qr_scan"}, "type": "electric_scooter", "name": "198308647c7a4e655465c4e2238a1363", "is_reserved": 0, "lon": -76.99621983333333, "is_disabled": 0, "fusion_lat": 0.0, "lat": 38.889669, "bike_id": "198308647c7a4e655465c4e2238a1363", "fusion_lon": 0.0}, {"rental_uris": {"ios": "https://dc.lft.to/lastmile_qr_scan", "android": "https://dc.lft.to/lastmile_qr_scan"}, "type": "electric_scooter", "name": "e1d917c12b013ce1a63932e659f75405", "is_reserved": 0, "lon": -77.03865583333334, "is_disabled": 0, "fusion_lat": 0.0, "lat": 38.911762, "bike_id": "e1d917c12b013ce1a63932e659f75405", "fusion_lon": 0.0}, {"rental_uris": {"ios": "https://dc.lft.to/lastmile_qr_scan", "android": "https://dc.lft.to/lastmile_qr_scan"}, "type": "electric_bike", "name": "128dba3eec661183d47762071d325b07", "is_reserved": 0, "lon": -76.96258933333333, "is_disabled": 0, "fusion_lat": 0.0, "lat": 38.96785066666666, "bike_id": "128dba3eec661183d47762071d325b07", "fusion_lon": 0.0}, {"rental_uris": {"ios": "https://dc.lft.to/lastmile_qr_scan", "android": "https://dc.lft.to/lastmile_qr_scan"}, "type": "electric_scooter", "name": "71df6afeb74c0a4b06af48930475beb4", "is_reserved": 0, "lon": -77.02591333333334, "is_disabled": 0, "fusion_lat": 0.0, "lat": 38.95820766666667, "bike_id": "71df6afeb74c0a4b06af48930475beb4", "fusion_lon": 0.0}, {"rental_uris": {"ios": "https://dc.lft.to/lastmile_qr_scan", "android": "https://dc.lft.to/lastmile_qr_scan"}, "type": "electric_bike", "name": "53d91e292a3bef80c0ba730119b6a3b7", "is_reserved": 0, "lon": -76.98138083333333, "is_disabled": 0, "fusion_lat": 0.0, "lat": 38.9349415, "bike_id": "53d91e292a3bef80c0ba730119b6a3b7", "fusion_lon": 0.0}, {"rental_uris": {"ios": "https://dc.lft.to/lastmile_qr_scan", "android": "https://dc.lft.to/lastmile_qr_scan"}, "type": "electric_scooter", "name": "acd26e3d271e034b95b14ddfd4c041bf", "is_reserved": 0, "lon": -77.0586855, "is_disabled": 0, "fusion_lat": 0.0, "lat": 38.90433616666667, "bike_id": "acd26e3d271e034b95b14ddfd4c041bf", "fusion_lon": 0.0}, {"rental_uris": {"ios": "https://dc.lft.to/lastmile_qr_scan", "android": "https://dc.lft.to/lastmile_qr_scan"}, "type": "electric_scooter", "name": "40df079271c24fb129f17bf96030a496", "is_reserved": 0, "lon": -77.034325, "is_disabled": 0, "fusion_lat": 0.0, "lat": 38.908447833333334, "bike_id": "40df079271c24fb129f17bf96030a496", "fusion_lon": 0.0}, {"rental_uris": {"ios": "https://dc.lft.to/lastmile_qr_scan", "android": "https://dc.lft.to/lastmile_qr_scan"}, "type": "electric_scooter", "name": "a17c82dd2e4c45eb251eb7cec1d533ff", "is_reserved": 0, "lon": -77.00770216666666, "is_disabled": 0, "fusion_lat": 0.0, "lat": 38.8784335, "bike_id": "a17c82dd2e4c45eb251eb7cec1d533ff", "fusion_lon": 0.0}, {"rental_uris": {"ios": "https://dc.lft.to/lastmile_qr_scan", "android": "https://dc.lft.to/lastmile_qr_scan"}, "type": "electric_scooter", "name": "f32aef35c43fa8dd44f80f2f15b64117", "is_reserved": 0, "lon": -77.03503433333333, "is_disabled": 0, "fusion_lat": 0.0, "lat": 38.918813666666665, "bike_id": "f32aef35c43fa8dd44f80f2f15b64117", "fusion_lon": 0.0}, {"rental_uris": {"ios": "https://dc.lft.to/lastmile_qr_scan", "android": "https://dc.lft.to/lastmile_qr_scan"}, "type": "electric_scooter", "name": "fe5662235299478aba3ba510ec73c495", "is_reserved": 0, "lon": -77.03151066666666, "is_disabled": 0, "fusion_lat": 0.0, "lat": 38.8875005, "bike_id": "fe5662235299478aba3ba510ec73c495", "fusion_lon": 0.0}, {"rental_uris": {"ios": "https://dc.lft.to/lastmile_qr_scan", "android": "https://dc.lft.to/lastmile_qr_scan"}, "type": "electric_scooter", "name": "94503553ed113d6840fabaa5f4a57178", "is_reserved": 0, "lon": -77.017611, "is_disabled": 0, "fusion_lat": 0.0, "lat": 38.90271516666667, "bike_id": "94503553ed113d6840fabaa5f4a57178", "fusion_lon": 0.0}, {"rental_uris": {"ios": "https://dc.lft.to/lastmile_qr_scan", "android": "https://dc.lft.to/lastmile_qr_scan"}, "type": "electric_scooter", "name": "1f0115f8177a814b54c71e6e8c99057b", "is_reserved": 0, "lon": -77.03983683333334, "is_disabled": 0, "fusion_lat": 0.0, "lat": 38.90966133333333, "bike_id": "1f0115f8177a814b54c71e6e8c99057b", "fusion_lon": 0.0}, {"rental_uris": {"ios": "https://dc.lft.to/lastmile_qr_scan", "android": "https://dc.lft.to/lastmile_qr_scan"}, "type": "electric_bike", "name": "183faf3d040367d791a55893895c157a", "is_reserved": 0, "lon": -76.96098683333334, "is_disabled": 0, "fusion_lat": 0.0, "lat": 38.949687, "bike_id": "183faf3d040367d791a55893895c157a", "fusion_lon": 0.0}, {"rental_uris": {"ios": "https://dc.lft.to/lastmile_qr_scan", "android": "https://dc.lft.to/lastmile_qr_scan"}, "type": "electric_scooter", "name": "3854ae28ace8084bd3a5a759d9cf2816", "is_reserved": 0, "lon": -77.01607916666667, "is_disabled": 0, "fusion_lat": 0.0, "lat": 38.91072316666666, "bike_id": "3854ae28ace8084bd3a5a759d9cf2816", "fusion_lon": 0.0}, {"rental_uris": {"ios": "https://dc.lft.to/lastmile_qr_scan", "android": "https://dc.lft.to/lastmile_qr_scan"}, "type": "electric_scooter", "name": "da288ef8ed45e81e84e7cb0022695e0b", "is_reserved": 0, "lon": -77.04640616666667, "is_disabled": 0, "fusion_lat": 0.0, "lat": 38.9006175, "bike_id": "da288ef8ed45e81e84e7cb0022695e0b", "fusion_lon": 0.0}, {"rental_uris": {"ios": "https://dc.lft.to/lastmile_qr_scan", "android": "https://dc.lft.to/lastmile_qr_scan"}, "type": "electric_scooter", "name": "ddb22fd507329ddb914826a8613e7d07", "is_reserved": 0, "lon": -77.0020435, "is_disabled": 0, "fusion_lat": 0.0, "lat": 38.901641166666664, "bike_id": "ddb22fd507329ddb914826a8613e7d07", "fusion_lon": 0.0}, {"rental_uris": {"ios": "https://dc.lft.to/lastmile_qr_scan", "android": "https://dc.lft.to/lastmile_qr_scan"}, "type": "electric_scooter", "name": "410c71cd383af55dd3d3067fff54b7e0", "is_reserved": 0, "lon": -77.06819083333333, "is_disabled": 0, "fusion_lat": 0.0, "lat": 38.952132166666665, "bike_id": "410c71cd383af55dd3d3067fff54b7e0", "fusion_lon": 0.0}, {"rental_uris": {"ios": "https://dc.lft.to/lastmile_qr_scan", "android": "https://dc.lft.to/lastmile_qr_scan"}, "type": "electric_scooter", "name": "d2854ff0cc877682fcb0967224c4aabe", "is_reserved": 0, "lon": -77.0222095, "is_disabled": 0, "fusion_lat": 0.0, "lat": 38.892205, "bike_id": "d2854ff0cc877682fcb0967224c4aabe", "fusion_lon": 0.0}, {"rental_uris": {"ios": "https://dc.lft.to/lastmile_qr_scan", "android": "https://dc.lft.to/lastmile_qr_scan"}, "type": "electric_scooter", "name": "498223f17f65ef474ff4e6947411c41a", "is_reserved": 0, "lon": -77.010977, "is_disabled": 0, "fusion_lat": 0.0, "lat": 38.8854015, "bike_id": "498223f17f65ef474ff4e6947411c41a", "fusion_lon": 0.0}, {"rental_uris": {"ios": "https://dc.lft.to/lastmile_qr_scan", "android": "https://dc.lft.to/lastmile_qr_scan"}, "type": "electric_scooter", "name": "1ff898f8d06018383d946b882423641f", "is_reserved": 0, "lon": -77.0207315, "is_disabled": 0, "fusion_lat": 0.0, "lat": 38.912564833333334, "bike_id": "1ff898f8d06018383d946b882423641f", "fusion_lon": 0.0}, {"rental_uris": {"ios": "https://dc.lft.to/lastmile_qr_scan", "android": "https://dc.lft.to/lastmile_qr_scan"}, "type": "electric_scooter", "name": "4166924def95e8806c8d9cfe3384337c", "is_reserved": 0, "lon": -76.98341016666667, "is_disabled": 0, "fusion_lat": 0.0, "lat": 38.90091866666667, "bike_id": "4166924def95e8806c8d9cfe3384337c", "fusion_lon": 0.0}, {"rental_uris": {"ios": "https://dc.lft.to/lastmile_qr_scan", "android": "https://dc.lft.to/lastmile_qr_scan"},