{"data": {"bikes": [{"lon": -77.05733966666666, "fusion_lon": 0.0, "bike_id": "93642b3eeb0c633ff764d120054df064", "type": "electric_scooter", "name": "93642b3eeb0c633ff764d120054df064", "rental_uris": {"android": "https://dc.lft.to/lastmile_qr_scan", "ios": "https://dc.lft.to/lastmile_qr_scan"}, "is_disabled": 0, "fusion_lat": 0.0, "lat": 38.9336005, "is_reserved": 0}, {"lon": -77.02288633333333, "fusion_lon": 0.0, "bike_id": "72bfbb09f9d78b41685d53906601bd45", "type": "electric_scooter", "name": "72bfbb09f9d78b41685d53906601bd45", "rental_uris": {"android": "https://dc.lft.to/lastmile_qr_scan", "ios": "https://dc.lft.to/lastmile_qr_scan"}, "is_disabled": 0, "fusion_lat": 0.0, "lat": 38.8970765, "is_reserved": 0}, {"lon": -77.078644, "fusion_lon": 0.0, "bike_id": "023e399b2b3c6a1a28a7162a71821d8b", "type": "electric_bike", "name": "023e399b2b3c6a1a28a7162a71821d8b", "rental_uris": {"android": "https://dc.lft.to/lastmile_qr_scan", "ios": "https://dc.lft.to/lastmile_qr_scan"}, "is_disabled": 0, "fusion_lat": 0.0, "lat": 38.893981, "is_reserved": 0}, {"lon": -77.0364815, "fusion_lon": 0.0, "bike_id": "039714ca62fa6b5451dd0bee1c30c9b9", "type": "electric_scooter", "name": "039714ca62fa6b5451dd0bee1c30c9b9", "rental_uris": {"android": "https://dc.lft.to/lastmile_qr_scan", "ios": "https://dc.lft.to/lastmile_qr_scan"}, "is_disabled": 0, "fusion_lat": 0.0, "lat": 38.91820766666667, "is_reserved": 0}, {"lon": -77.0334375, "fusion_lon": 0.0, "bike_id": "e361677eae1b18b616dbd05ce4be9524", "type": "electric_scooter", "name": "e361677eae1b18b616dbd05ce4be9524", "rental_uris": {"android": "https://dc.lft.to/lastmile_qr_scan", "ios": "https://dc.lft.to/lastmile_qr_scan"}, "is_disabled": 0, "fusion_lat": 0.0, "lat": 38.9029225, "is_reserved": 0}, {"lon": -77.02561266666666, "fusion_lon": 0.0, "bike_id": "404200692e206a0d0877d1bef6c70ac6", "type": "electric_scooter", "name": "404200692e206a0d0877d1bef6c70ac6", "rental_uris": {"android": "https://dc.lft.to/lastmile_qr_scan", "ios": "https://dc.lft.to/lastmile_qr_scan"}, "is_disabled": 0, "fusion_lat": 0.0, "lat": 38.909571, "is_reserved": 0}, {"lon": -76.9786035, "fusion_lon": 0.0, "bike_id": "049330d249ebdd34b5eed0b9d9303a46", "type": "electric_bike", "name": "049330d249ebdd34b5eed0b9d9303a46", "rental_uris": {"android": "https://dc.lft.to/lastmile_qr_scan", "ios": "https://dc.lft.to/lastmile_qr_scan"}, "is_disabled": 0, "fusion_lat": 0.0, "lat": 38.844694833333335, "is_reserved": 0}, {"lon": -77.00562716666667, "fusion_lon": 0.0, "bike_id": "94c1526763e78d28eb2e7969a772fe2c", "type": "electric_scooter", "name": "94c1526763e78d28eb2e7969a772fe2c", "rental_uris": {"android": "https://dc.lft.to/lastmile_qr_scan", "ios": "https://dc.lft.to/lastmile_qr_scan"}, "is_disabled": 0, "fusion_lat": 0.0, "lat": 38.87658533333333, "is_reserved": 0}, {"lon": -77.02496433333333, "fusion_lon": 0.0, "bike_id": "8b431dac83c77a793b01d56ea8c48787", "type": "electric_scooter", "name": "8b431dac83c77a793b01d56ea8c48787", "rental_uris": {"android": "https://dc.lft.to/lastmile_qr_scan", "ios": "https://dc.lft.to/lastmile_qr_scan"}, "is_disabled": 0, "fusion_lat": 0.0, "lat": 38.918044333333334, "is_reserved": 0}, {"lon": -76.99736833333333, "fusion_lon": 0.0, "bike_id": "18ac07fd5f6d3f78d0af2f9accb3df69", "type": "electric_scooter", "name": "18ac07fd5f6d3f78d0af2f9accb3df69", "rental_uris": {"android": "https://dc.lft.to/lastmile_qr_scan", "ios": "https://dc.lft.to/lastmile_qr_scan"}, "is_disabled": 0, "fusion_lat": 0.0, "lat": 38.90035966666667, "is_reserved": 0}, {"lon": -76.988438, "fusion_lon": 0.0, "bike_id": "18a9e757fe79cc4c555ed79863d9feb6", "type": "electric_bike", "name": "18a9e757fe79cc4c555ed79863d9feb6", "rental_uris": {"android": "https://dc.lft.to/lastmile_qr_scan", "ios": "https://dc.lft.to/lastmile_qr_scan"}, "is_disabled": 0, "fusion_lat": 0.0, "lat": 38.8427605, "is_reserved": 0}, {"lon": -77.0034525, "fusion_lon": 0.0, "bike_id": "905d7f5ba7e1f1b205aaa4bb3a44011e", "type": "electric_scooter", "name": "905d7f5ba7e1f1b205aaa4bb3a44011e", "rental_uris": {"android": "https://dc.lft.to/lastmile_qr_scan", "ios": "https://dc.lft.to/lastmile_qr_scan"}, "is_disabled": 0, "fusion_lat": 0.0, "lat": 38.89462966666667, "is_reserved": 0}, {"lon": -76.9952175, "fusion_lon": 0.0, "bike_id": "77a4f7b9208d3d50e110724038902bd7", "type": "electric_scooter", "name": "77a4f7b9208d3d50e110724038902bd7", "rental_uris": {"android": "https://dc.lft.to/lastmile_qr_scan", "ios": "https://dc.lft.to/lastmile_qr_scan"}, "is_disabled": 0, "fusion_lat": 0.0, "lat": 38.87924666666667, "is_reserved": 0}, {"lon": -76.96708366666667, "fusion_lon": 0.0, "bike_id": "abfd6975d90bbab53f45fe912b8c3bde", "type": "electric_scooter", "name": "abfd6975d90bbab53f45fe912b8c3bde", "rental_uris": {"android": "https://dc.lft.to/lastmile_qr_scan", "ios": "https://dc.lft.to/lastmile_qr_scan"}, "is_disabled": 0, "fusion_lat": 0.0, "lat": 38.86033116666667, "is_reserved": 0}, {"lon": -77.05655683333333, "fusion_lon": 0.0, "bike_id": "e87a6f851632571d96922a2247fff4c0", "type": "electric_scooter", "name": "e87a6f851632571d96922a2247fff4c0", "rental_uris": {"android": "https://dc.lft.to/lastmile_qr_scan", "ios": "https://dc.lft.to/lastmile_qr_scan"}, "is_disabled": 0, "fusion_lat": 0.0, "lat": 38.90607883333333, "is_reserved": 0}, {"lon": -77.03189216666667, "fusion_lon": 0.0, "bike_id": "dce7c66fac94c5afe5ffb178d8794182", "type": "electric_scooter", "name": "dce7c66fac94c5afe5ffb178d8794182", "rental_uris": {"android": "https://dc.lft.to/lastmile_qr_scan", "ios": "https://dc.lft.to/lastmile_qr_scan"}, "is_disabled": 0, "fusion_lat": 0.0, "lat": 38.91916533333333, "is_reserved": 0}, {"lon": -77.0416685, "fusion_lon": 0.0, "bike_id": "c9543eb99ee3390eb3670cd61895a78d", "type": "electric_scooter", "name": "c9543eb99ee3390eb3670cd61895a78d", "rental_uris": {"android": "https://dc.lft.to/lastmile_qr_scan", "ios": "https://dc.lft.to/lastmile_qr_scan"}, "is_disabled": 0, "fusion_lat": 0.0, "lat": 38.91834033333333, "is_reserved": 0}, {"lon": -77.0175205, "fusion_lon": 0.0, "bike_id": "2a9ab4634c5662c9e63e4e86cf03257f", "type": "electric_scooter", "name": "2a9ab4634c5662c9e63e4e86cf03257f", "rental_uris": {"android": "https://dc.lft.to/lastmile_qr_scan", "ios": "https://dc.lft.to/lastmile_qr_scan"}, "is_disabled": 0, "fusion_lat": 0.0, "lat": 38.90266033333333, "is_reserved": 0}, {"lon": -77.04368183333334, "fusion_lon": 0.0, "bike_id": "b82f2e5037bf18641ff4df9655c06ee0", "type": "electric_scooter", "name": "b82f2e5037bf18641ff4df9655c06ee0", "rental_uris": {"android": "https://dc.lft.to/lastmile_qr_scan", "ios": "https://dc.lft.to/lastmile_qr_scan"}, "is_disabled": 0, "fusion_lat": 0.0, "lat": 38.892176, "is_reserved": 0}, {"lon": -76.95588416666666, "fusion_lon": 0.0, "bike_id": "9cbfc7b8f307b4fa84c87c882c7d584e", "type": "electric_scooter", "name": "9cbfc7b8f307b4fa84c87c882c7d584e", "rental_uris": {"android": "https://dc.lft.to/lastmile_qr_scan", "ios": "https://dc.lft.to/lastmile_qr_scan"}, "is_disabled": 0, "fusion_lat": 0.0, "lat": 38.88613433333333, "is_reserved": 0}, {"lon": -77.01993016666667, "fusion_lon": 0.0, "bike_id": "190f1a41b068d1e844610f478f771a46", "type": "electric_scooter", "name": "190f1a41b068d1e844610f478f771a46", "rental_uris": {"android": "https://dc.lft.to/lastmile_qr_scan", "ios": "https://dc.lft.to/lastmile_qr_scan"}, "is_disabled": 0, "fusion_lat": 0.0, "lat": 38.89537133333333, "is_reserved": 0}, {"lon": -77.03639666666666, "fusion_lon": 0.0, "bike_id": "a641bbf9880aeaed0d8c1fde70b10984", "type": "electric_scooter", "name": "a641bbf9880aeaed0d8c1fde70b10984", "rental_uris": {"android": "https://dc.lft.to/lastmile_qr_scan", "ios": "https://dc.lft.to/lastmile_qr_scan"}, "is_disabled": 0, "fusion_lat": 0.0, "lat": 38.9269745, "is_reserved": 0}, {"lon": -77.0388895, "fusion_lon": 0.0, "bike_id": "ac39dba2aa924292ffb7b91b3c8c1f27", "type": "electric_scooter", "name": "ac39dba2aa924292ffb7b91b3c8c1f27", "rental_uris": {"android": "https://dc.lft.to/lastmile_qr_scan", "ios": "https://dc.lft.to/lastmile_qr_scan"}, "is_disabled": 0, "fusion_lat": 0.0, "lat": 38.922639, "is_reserved": 0}, {"lon": -76.99484766666667, "fusion_lon": 0.0, "bike_id": "66f10d814e20d025705cd87b9043f848", "type": "electric_scooter", "name": "66f10d814e20d025705cd87b9043f848", "rental_uris": {"android": "https://dc.lft.to/lastmile_qr_scan", "ios": "https://dc.lft.to/lastmile_qr_scan"}, "is_disabled": 0, "fusion_lat": 0.0, "lat": 38.862175, "is_reserved": 0}, {"lon": -77.0435645, "fusion_lon": 0.0, "bike_id": "4affbd416c5cd213c1ff5614d698b67d", "type": "electric_scooter", "name": "4affbd416c5cd213c1ff5614d698b67d", "rental_uris": {"android": "https://dc.lft.to/lastmile_qr_scan", "ios": "https://dc.lft.to/lastmile_qr_scan"}, "is_disabled": 0, "fusion_lat": 0.0, "lat": 38.90417733333334, "is_reserved": 0}, {"lon": -77.02736733333333, "fusion_lon": 0.0, "bike_id": "36a85dfbc507eceed304f547fb86ea88", "type": "electric_scooter", "name": "36a85dfbc507eceed304f547fb86ea88", "rental_uris": {"android": "https://dc.lft.to/lastmile_qr_scan", "ios": "https://dc.lft.to/lastmile_qr_scan"}, "is_disabled": 0, "fusion_lat": 0.0, "lat": 38.95234283333333, "is_reserved": 0}, {"lon": -77.022, "fusion_lon": 0.0, "bike_id": "81b722ba8d6d89b2e50ee431265171d0", "type": "electric_scooter", "name": "81b722ba8d6d89b2e50ee431265171d0", "rental_uris": {"android": "https://dc.lft.to/lastmile_qr_scan", "ios": "https://dc.lft.to/lastmile_qr_scan"}, "is_disabled": 0, "fusion_lat": 0.0, "lat": 38.9479545, "is_reserved": 0}, {"lon": -76.95759683333333, "fusion_lon": 0.0, "bike_id": "1d8eadf5b72f4c135233592bf5603c4d", "type": "electric_scooter", "name": "1d8eadf5b72f4c135233592bf5603c4d", "rental_uris": {"android": "https://dc.lft.to/lastmile_qr_scan", "ios": "https://dc.lft.to/lastmile_qr_scan"}, "is_disabled": 0, "fusion_lat": 0.0, "lat": 38.884331333333336, "is_reserved": 0}, {"lon": -77.00514333333334, "fusion_lon": 0.0, "bike_id": "c4697a6a801209df058d487b1430a798", "type": "electric_scooter", "name": "c4697a6a801209df058d487b1430a798", "rental_uris": {"android": "https://dc.lft.to/lastmile_qr_scan", "ios": "https://dc.lft.to/lastmile_qr_scan"}, "is_disabled": 0, "fusion_lat": 0.0, "lat": 38.89596566666667, "is_reserved": 0}, {"lon": -76.99806666666667, "fusion_lon": 0.0, "bike_id": "8b43a07f12ef967982891efea7d44fe6", "type": "electric_scooter", "name": "8b43a07f12ef967982891efea7d44fe6", "rental_uris": {"android": "https://dc.lft.to/lastmile_qr_scan", "ios": "https://dc.lft.to/lastmile_qr_scan"}, "is_disabled": 0, "fusion_lat": 0.0, "lat": 38.901371166666664, "is_reserved": 0}, {"lon": -76.986723, "fusion_lon": 0.0, "bike_id": "014f220926021ed75d37688876c5d0b3", "type": "electric_scooter", "name": "014f220926021ed75d37688876c5d0b3", "rental_uris": {"android": "https://dc.lft.to/lastmile_qr_scan", "ios": "https://dc.lft.to/lastmile_qr_scan"}, "is_disabled": 0, "fusion_lat": 0.0, "lat": 38.906791166666665, "is_reserved": 0}, {"lon": -77.03180416666666, "fusion_lon": 0.0, "bike_id": "47d34865021d6bea52e3f830325c0b73", "type": "electric_scooter", "name": "47d34865021d6bea52e3f830325c0b73", "rental_uris": {"android": "https://dc.lft.to/lastmile_qr_scan", "ios": "https://dc.lft.to/lastmile_qr_scan"}, "is_disabled": 0, "fusion_lat": 0.0, "lat": 38.91763383333333, "is_reserved": 0}, {"lon": -76.9953545, "fusion_lon": 0.0, "bike_id": "b1f5437ae9ddea5b92bee56831eceba2", "type": "electric_scooter", "name": "b1f5437ae9ddea5b92bee56831eceba2", "rental_uris": {"android": "https://dc.lft.to/lastmile_qr_scan", "ios": "https://dc.lft.to/lastmile_qr_scan"}, "is_disabled": 0, "fusion_lat": 0.0, "lat": 38.92669716666666, "is_reserved": 0}, {"lon": -77.04482733333333, "fusion_lon": 0.0, "bike_id": "acdc8b0bf923d9b027fcff299ef1bd44", "type": "electric_scooter", "name": "acdc8b0bf923d9b027fcff299ef1bd44", "rental_uris": {"android": "https://dc.lft.to/lastmile_qr_scan", "ios": "https://dc.lft.to/lastmile_qr_scan"}, "is_disabled": 0, "fusion_lat": 0.0, "lat": 38.89527, "is_reserved": 0}, {"lon": -77.01231933333334, "fusion_lon": 0.0, "bike_id": "f08e5fca31f869eb76a180abf1d149cf", "type": "electric_scooter", "name": "f08e5fca31f869eb76a180abf1d149cf", "rental_uris": {"android": "https://dc.lft.to/lastmile_qr_scan", "ios": "https://dc.lft.to/lastmile_qr_scan"}, "is_disabled": 0, "fusion_lat": 0.0, "lat": 38.911043666666664, "is_reserved": 0}, {"lon": -77.0326785, "fusion_lon": 0.0, "bike_id": "2c868b929c13e994d3f2bb1451ddadfa", "type": "electric_scooter", "name": "2c868b929c13e994d3f2bb1451ddadfa", "rental_uris": {"android": "https://dc.lft.to/lastmile_qr_scan", "ios": "https://dc.lft.to/lastmile_qr_scan"}, "is_disabled": 0, "fusion_lat": 0.0, "lat": 38.9198495, "is_reserved": 0}, {"lon": -77.01582233333333, "fusion_lon": 0.0, "bike_id": "0828f8fb474c6a78635126cba58b2080", "type": "electric_scooter", "name": "0828f8fb474c6a78635126cba58b2080", "rental_uris": {"android": "https://dc.lft.to/lastmile_qr_scan", "ios": "https://dc.lft.to/lastmile_qr_scan"}, "is_disabled": 0, "fusion_lat": 0.0, "lat": 38.915691, "is_reserved": 0}, {"lon": -77.031453, "fusion_lon": 0.0, "bike_id": "fcb218edac7c4d30230da6976e5ce948", "type": "electric_scooter", "name": "fcb218edac7c4d30230da6976e5ce948", "rental_uris": {"android": "https://dc.lft.to/lastmile_qr_scan", "ios": "https://dc.lft.to/lastmile_qr_scan"}, "is_disabled": 0, "fusion_lat": 0.0, "lat": 38.91564433333333, "is_reserved": 0}, {"lon": -77.0108795, "fusion_lon": 0.0, "bike_id": "f58a2b547cd5d401986571ff0d570fd6", "type": "electric_scooter", "name": "f58a2b547cd5d401986571ff0d570fd6", "rental_uris": {"android": "https://dc.lft.to/lastmile_qr_scan", "ios": "https://dc.lft.to/lastmile_qr_scan"}, "is_disabled": 0, "fusion_lat": 0.0, "lat": 38.91743733333333, "is_reserved": 0}, {"lon": -77.04720333333333, "fusion_lon": 0.0, "bike_id": "6e9a0fe0d36cadc2da7c0d23a6044687", "type": "electric_scooter", "name": "6e9a0fe0d36cadc2da7c0d23a6044687", "rental_uris": {"android": "https://dc.lft.to/lastmile_qr_scan", "ios": "https://dc.lft.to/lastmile_qr_scan"}, "is_disabled": 0, "fusion_lat": 0.0, "lat": 38.9038605, "is_reserved": 0}, {"lon": -77.05288, "fusion_lon": 0.0, "bike_id": "eb412df4c338716ef76d40a2a0cd3615", "type": "electric_scooter", "name": "eb412df4c338716ef76d40a2a0cd3615", "rental_uris": {"android": "https://dc.lft.to/lastmile_qr_scan", "ios": "https://dc.lft.to/lastmile_qr_scan"}, "is_disabled": 0, "fusion_lat": 0.0, "lat": 38.90501916666667, "is_reserved": 0}, {"lon": -77.03326666666666, "fusion_lon": 0.0, "bike_id": "edececa94771f07e2c9b9176aadf8dfa", "type": "electric_bike", "name": "edececa94771f07e2c9b9176aadf8dfa", "rental_uris": {"android": "https://dc.lft.to/lastmile_qr_scan", "ios": "https://dc.lft.to/lastmile_qr_scan"}, "is_disabled": 0, "fusion_lat": 0.0, "lat": 38.920454, "is_reserved": 0}, {"lon": -76.94654116666666, "fusion_lon": 0.0, "bike_id": "ef9c6e56e7811d09e3dc2490c6c8b79a", "type": "electric_scooter", "name": "ef9c6e56e7811d09e3dc2490c6c8b79a", "rental_uris": {"android": "https://dc.lft.to/lastmile_qr_scan", "ios": "https://dc.lft.to/lastmile_qr_scan"}, "is_disabled": 0, "fusion_lat": 0.0, "lat": 38.89828133333334, "is_reserved": 0}, {"lon": -77.0238835, "fusion_lon": 0.0, "bike_id": "1517ccd80e374f671a53017ffed30337", "type": "electric_scooter", "name": "1517ccd80e374f671a53017ffed30337", "rental_uris": {"android": "https://dc.lft.to/lastmile_qr_scan", "ios": "https://dc.lft.to/lastmile_qr_scan"}, "is_disabled": 0, "fusion_lat": 0.0, "lat": 38.912895666666664, "is_reserved": 0}, {"lon": -77.089698, "fusion_lon": 0.0, "bike_id": "fc442ea31f468d61464ea2db4d3d51bc", "type": "electric_scooter", "name": "fc442ea31f468d61464ea2db4d3d51bc", "rental_uris": {"android": "https://dc.lft.to/lastmile_qr_scan", "ios": "https://dc.lft.to/lastmile_qr_scan"}, "is_disabled": 0, "fusion_lat": 0.0, "lat": 38.934313333333336, "is_reserved": 0}, {"lon": -76.99407566666666, "fusion_lon": 0.0, "bike_id": "8fbfef84d3182cffb501100e44c61c0b", "type": "electric_scooter", "name": "8fbfef84d3182cffb501100e44c61c0b", "rental_uris": {"android": "https://dc.lft.to/lastmile_qr_scan", "ios": "https://dc.lft.to/lastmile_qr_scan"}, "is_disabled": 0, "fusion_lat": 0.0, "lat": 38.877849166666664, "is_reserved": 0}, {"lon": -77.04161133333334, "fusion_lon": 0.0, "bike_id": "782eef5cad61233a00c7036fc2f5db10", "type": "electric_scooter", "name": "782eef5cad61233a00c7036fc2f5db10", "rental_uris": {"android": "https://dc.lft.to/lastmile_qr_scan", "ios": "https://dc.lft.to/lastmile_qr_scan"}, "is_disabled": 0, "fusion_lat": 0.0, "lat": 38.914433333333335, "is_reserved": 0}, {"lon": -77.0043745, "fusion_lon": 0.0, "bike_id": "e44a790f435efc9d21be4c0935bfcc8b", "type": "electric_scooter", "name": "e44a790f435efc9d21be4c0935bfcc8b", "rental_uris": {"android": "https://dc.lft.to/lastmile_qr_scan", "ios": "https://dc.lft.to/lastmile_qr_scan"}, "is_disabled": 0, "fusion_lat": 0.0, "lat": 38.876596666666664, "is_reserved": 0}, {"lon": -76.9739835, "fusion_lon": 0.0, "bike_id": "36bcf70892e3a160e1d4349754950b35", "type": "electric_bike", "name": "36bcf70892e3a160e1d4349754950b35", "rental_uris": {"android": "https://dc.lft.to/lastmile_qr_scan", "ios": "https://dc.lft.to/lastmile_qr_scan"}, "is_disabled": 0, "fusion_lat": 0.0, "lat": 38.8452705, "is_reserved": 0}, {"lon": -77.02296266666667, "fusion_lon": 0.0, "bike_id": "5ee3a839f5ff82b956ef73f84ddb518e", "type": "electric_bike", "name": "5ee3a839f5ff82b956ef73f84ddb518e", "rental_uris": {"android": "https://dc.lft.to/lastmile_qr_scan", "ios": "https://dc.lft.to/lastmile_qr_scan"}, "is_disabled": 0, "fusion_lat": 0.0, "lat": 38.90176966666667, "is_reserved": 0}, {"lon": -77.048084, "fusion_lon": 0.0, "bike_id": "cb064cea64a671f2b5488a5d8dfc1829", "type": "electric_scooter", "name": "cb064cea64a671f2b5488a5d8dfc1829", "rental_uris": {"android": "https://dc.lft.to/lastmile_qr_scan", "ios": "https://dc.lft.to/lastmile_qr_scan"}, "is_disabled": 0, "fusion_lat": 0.0, "lat": 38.919436833333336, "is_reserved": 0}, {"lon": -77.04672816666667, "fusion_lon": 0.0, "bike_id": "0f5d75f577bb0b261c3b2d41cc139429", "type": "electric_scooter", "name": "0f5d75f577bb0b261c3b2d41cc139429", "rental_uris": {"android": "https://dc.lft.to/lastmile_qr_scan", "ios": "https://dc.lft.to/lastmile_qr_scan"}, "is_disabled": 0, "fusion_lat": 0.0, "lat": 38.894526166666665, "is_reserved": 0}, {"lon": -77.036695, "fusion_lon": 0.0, "bike_id": "8c0818faa2265e62456d4228f5caa08c", "type": "electric_scooter", "name": "8c0818faa2265e62456d4228f5caa08c", "rental_uris": {"android": "https://dc.lft.to/lastmile_qr_scan", "ios": "https://dc.lft.to/lastmile_qr_scan"}, "is_disabled": 0, "fusion_lat": 0.0, "lat": 38.92678433333333, "is_reserved": 0}, {"lon": -76.95418233333334, "fusion_lon": 0.0, "bike_id": "a9b016bfc59611962e62b98509625e42", "type": "electric_bike", "name": "a9b016bfc59611962e62b98509625e42", "rental_uris": {"android": "https://dc.lft.to/lastmile_qr_scan", "ios": "https://dc.lft.to/lastmile_qr_scan"}, "is_disabled": 0, "fusion_lat": 0.0, "lat": 38.88399716666667, "is_reserved": 0}, {"lon": -76.99788416666667, "fusion_lon": 0.0, "bike_id": "c9f30e154f1a1ed88334fdc0d3bb9926", "type": "electric_scooter", "name": "c9f30e154f1a1ed88334fdc0d3bb9926", "rental_uris": {"android": "https://dc.lft.to/lastmile_qr_scan", "ios": "https://dc.lft.to/lastmile_qr_scan"}, "is_disabled": 0, "fusion_lat": 0.0, "lat": 38.90871283333333, "is_reserved": 0}, {"lon": -77.05853833333333, "fusion_lon": 0.0, "bike_id": "5e2e7daf26538366aa71062020ad3f9a", "type": "electric_scooter", "name": "5e2e7daf26538366aa71062020ad3f9a", "rental_uris": {"android": "https://dc.lft.to/lastmile_qr_scan", "ios": "https://dc.lft.to/lastmile_qr_scan"}, "is_disabled": 0, "fusion_lat": 0.0, "lat": 38.930481, "is_reserved": 0}, {"lon": -76.98894483333333, "fusion_lon": 0.0, "bike_id": "9c982019e4bb7373a266dd91ea64def9", "type": "electric_scooter", "name": "9c982019e4bb7373a266dd91ea64def9", "rental_uris": {"android": "https://dc.lft.to/lastmile_qr_scan", "ios": "https://dc.lft.to/lastmile_qr_scan"}, "is_disabled": 0, "fusion_lat": 0.0, "lat": 38.866630666666666, "is_reserved": 0}, {"lon": -77.021866, "fusion_lon": 0.0, "bike_id": "c685f03e65a0f92f584c9ed30bc3495d", "type": "electric_scooter", "name": "c685f03e65a0f92f584c9ed30bc3495d", "rental_uris": {"android": "https://dc.lft.to/lastmile_qr_scan", "ios": "https://dc.lft.to/lastmile_qr_scan"}, "is_disabled": 0, "fusion_lat": 0.0, "lat": 38.912124, "is_reserved": 0}, {"lon": -77.029578, "fusion_lon": 0.0, "bike_id": "ae2ad2a38eef11a3b220709f8dddd4fe", "type": "electric_scooter", "name": "ae2ad2a38eef11a3b220709f8dddd4fe", "rental_uris": {"android": "https://dc.lft.to/lastmile_qr_scan", "ios": "https://dc.lft.to/lastmile_qr_scan"}, "is_disabled": 0, "fusion_lat": 0.0, "lat": 38.91656916666667, "is_reserved": 0}, {"lon": -77.034409, "fusion_lon": 0.0, "bike_id": "062d3e8044e84161be00dcf17de19655", "type": "electric_scooter", "name": "062d3e8044e84161be00dcf17de19655", "rental_uris": {"android": "https://dc.lft.to/lastmile_qr_scan", "ios": "https://dc.lft.to/lastmile_qr_scan"}, "is_disabled": 0, "fusion_lat": 0.0, "lat": 38.907037, "is_reserved": 0}, {"lon": -77.03041183333333, "fusion_lon": 0.0, "bike_id": "5a6415b495c88c3ac2bcb9b344bcfa4d", "type": "electric_scooter", "name": "5a6415b495c88c3ac2bcb9b344bcfa4d", "rental_uris": {"android": "https://dc.lft.to/lastmile_qr_scan", "ios": "https://dc.lft.to/lastmile_qr_scan"}, "is_disabled": 0, "fusion_lat": 0.0, "lat": 38.90512616666667, "is_reserved": 0}, {"lon": -77.03852533333334, "fusion_lon": 0.0, "bike_id": "7b6bd611d4e0791c6a1791b21c6a087f", "type": "electric_scooter", "name": "7b6bd611d4e0791c6a1791b21c6a087f", "rental_uris": {"android": "https://dc.lft.to/lastmile_qr_scan", "ios": "https://dc.lft.to/lastmile_qr_scan"}, "is_disabled": 0, "fusion_lat": 0.0, "lat": 38.915440333333336, "is_reserved": 0}, {"lon": -77.04156483333334, "fusion_lon": 0.0, "bike_id": "ac059ce5b42f9335b3019b725cb04357", "type": "electric_scooter", "name": "ac059ce5b42f9335b3019b725cb04357", "rental_uris": {"android": "https://dc.lft.to/lastmile_qr_scan", "ios": "https://dc.lft.to/lastmile_qr_scan"}, "is_disabled": 0, "fusion_lat": 0.0, "lat": 38.91904533333334, "is_reserved": 0}, {"lon": -77.021228, "fusion_lon": 0.0, "bike_id": "ab70830600aaac5a92f3e078b4b068e2", "type": "electric_scooter", "name": "ab70830600aaac5a92f3e078b4b068e2", "rental_uris": {"android": "https://dc.lft.to/lastmile_qr_scan", "ios": "https://dc.lft.to/lastmile_qr_scan"}, "is_disabled": 0, "fusion_lat": 0.0, "lat": 38.88503266666667, "is_reserved": 0}, {"lon": -77.027517, "fusion_lon": 0.0, "bike_id": "b6db1e13ad3cf3b592600bc387ead7ee", "type": "electric_scooter", "name": "b6db1e13ad3cf3b592600bc387ead7ee", "rental_uris": {"android": "https://dc.lft.to/lastmile_qr_scan", "ios": "https://dc.lft.to/lastmile_qr_scan"}, "is_disabled": 0, "fusion_lat": 0.0, "lat": 38.89500316666667, "is_reserved": 0}, {"lon": -77.02753433333334, "fusion_lon": 0.0, "bike_id": "81623b1b5b34e87b477d0cea59eea350", "type": "electric_scooter", "name": "81623b1b5b34e87b477d0cea59eea350", "rental_uris": {"android": "https://dc.lft.to/lastmile_qr_scan", "ios": "https://dc.lft.to/lastmile_qr_scan"}, "is_disabled": 0, "fusion_lat": 0.0, "lat": 38.9026885, "is_reserved": 0}, {"lon": -77.03841683333333, "fusion_lon": 0.0, "bike_id": "e617b08abf8b3f479a6c4fc6373985ca", "type": "electric_scooter", "name": "e617b08abf8b3f479a6c4fc6373985ca", "rental_uris": {"android": "https://dc.lft.to/lastmile_qr_scan", "ios": "https://dc.lft.to/lastmile_qr_scan"}, "is_disabled": 0, "fusion_lat": 0.0, "lat": 38.910144, "is_reserved": 0}, {"lon": -77.0618935, "fusion_lon": 0.0, "bike_id": "bd75ed0e7c9f0d5fff60ad30ba694e04", "type": "electric_scooter", "name": "bd75ed0e7c9f0d5fff60ad30ba694e04", "rental_uris": {"android": "https://dc.lft.to/lastmile_qr_scan", "ios": "https://dc.lft.to/lastmile_qr_scan"}, "is_disabled": 0, "fusion_lat": 0.0, "lat": 38.903371, "is_reserved": 0}, {"lon": -77.00935116666666, "fusion_lon": 0.0, "bike_id": "446d5180c85ca889d779a26c021e9c37", "type": "electric_scooter", "name": "446d5180c85ca889d779a26c021e9c37", "rental_uris": {"android": "https://dc.lft.to/lastmile_qr_scan", "ios": "https://dc.lft.to/lastmile_qr_scan"}, "is_disabled": 0, "fusion_lat": 0.0, "lat": 38.87941383333333, "is_reserved": 0}, {"lon": -77.04487833333333, "fusion_lon": 0.0, "bike_id": "caad70eef5ff505a1a0c6f4f0eadc424", "type": "electric_scooter", "name": "caad70eef5ff505a1a0c6f4f0eadc424", "rental_uris": {"android": "https://dc.lft.to/lastmile_qr_scan", "ios": "https://dc.lft.to/lastmile_qr_scan"}, "is_disabled": 0, "fusion_lat": 0.0, "lat": 38.908793333333335, "is_reserved": 0}, {"lon": -77.02356066666667, "fusion_lon": 0.0, "bike_id": "12f630a597d3df78eeb704daf196431c", "type": "electric_scooter", "name": "12f630a597d3df78eeb704daf196431c", "rental_uris": {"android": "https://dc.lft.to/lastmile_qr_scan", "ios": "https://dc.lft.to/lastmile_qr_scan"}, "is_disabled": 0, "fusion_lat": 0.0, "lat": 38.93047816666667, "is_reserved": 0}, {"lon": -77.0233395, "fusion_lon": 0.0, "bike_id": "12be98ceba68fea7310e923772866542", "type": "electric_scooter", "name": "12be98ceba68fea7310e923772866542", "rental_uris": {"android": "https://dc.lft.to/lastmile_qr_scan", "ios": "https://dc.lft.to/lastmile_qr_scan"}, "is_disabled": 0, "fusion_lat": 0.0, "lat": 38.922320666666664, "is_reserved": 0}, {"lon": -77.03309116666667, "fusion_lon": 0.0, "bike_id": "5cb948d630af602342ed5a542f817fc4", "type": "electric_scooter", "name": "5cb948d630af602342ed5a542f817fc4", "rental_uris": {"android": "https://dc.lft.to/lastmile_qr_scan", "ios": "https://dc.lft.to/lastmile_qr_scan"}, "is_disabled": 0, "fusion_lat": 0.0, "lat": 38.924556, "is_reserved": 0}, {"lon": -77.0316535, "fusion_lon": 0.0, "bike_id": "81175f57979e7f067f0d170bc7ea5dc8", "type": "electric_scooter", "name": "81175f57979e7f067f0d170bc7ea5dc8", "rental_uris": {"android": "https://dc.lft.to/lastmile_qr_scan", "ios": "https://dc.lft.to/lastmile_qr_scan"}, "is_disabled": 0, "fusion_lat": 0.0, "lat": 38.9202375, "is_reserved": 0}, {"lon": -77.0378915, "fusion_lon": 0.0, "bike_id": "3b1bfab03845bac8e90b4ce1c2afc7ee", "type": "electric_bike", "name": "3b1bfab03845bac8e90b4ce1c2afc7ee", "rental_uris": {"android": "https://dc.lft.to/lastmile_qr_scan", "ios": "https://dc.lft.to/lastmile_qr_scan"}, "is_disabled": 0, "fusion_lat": 0.0, "lat": 38.9966725, "is_reserved": 0}, {"lon": -77.01392016666667, "fusion_lon": 0.0, "bike_id": "7d5eb50013c60bd9fce2ce6df367d00c", "type": "electric_scooter", "name": "7d5eb50013c60bd9fce2ce6df367d00c", "rental_uris": {"android": "https://dc.lft.to/lastmile_qr_scan", "ios": "https://dc.lft.to/lastmile_qr_scan"}, "is_disabled": 0, "fusion_lat": 0.0, "lat": 38.94228966666667, "is_reserved": 0}, {"lon": -77.04836683333333, "fusion_lon": 0.0, "bike_id": "6d825dcec791dc6a078ad5cd4112852c", "type": "electric_scooter", "name": "6d825dcec791dc6a078ad5cd4112852c", "rental_uris": {"android": "https://dc.lft.to/lastmile_qr_scan", "ios": "https://dc.lft.to/lastmile_qr_scan"}, "is_disabled": 0, "fusion_lat": 0.0, "lat": 38.9184295, "is_reserved": 0}, {"lon": -77.0434335, "fusion_lon": 0.0, "bike_id": "709183b81485eb510cc6a0d19b9469eb", "type": "electric_scooter", "name": "709183b81485eb510cc6a0d19b9469eb", "rental_uris": {"android": "https://dc.lft.to/lastmile_qr_scan", "ios": "https://dc.lft.to/lastmile_qr_scan"}, "is_disabled": 0, "fusion_lat": 0.0, "lat": 38.9082045, "is_reserved": 0}, {"lon": -77.04439016666667, "fusion_lon": 0.0, "bike_id": "d6156b5db03caa8e6accf3749029353c", "type": "electric_scooter", "name": "d6156b5db03caa8e6accf3749029353c", "rental_uris": {"android": "https://dc.lft.to/lastmile_qr_scan", "ios": "https://dc.lft.to/lastmile_qr_scan"}, "is_disabled": 0, "fusion_lat": 0.0, "lat": 38.89617166666667, "is_reserved": 0}, {"lon": -77.03173566666666, "fusion_lon": 0.0, "bike_id": "3e60954eabe096fabcef31b4a4f5d4e4", "type": "electric_scooter", "name": "3e60954eabe096fabcef31b4a4f5d4e4", "rental_uris": {"android": "https://dc.lft.to/lastmile_qr_scan", "ios": "https://dc.lft.to/lastmile_qr_scan"}, "is_disabled": 0, "fusion_lat": 0.0, "lat": 38.8961745, "is_reserved": 0}, {"lon": -76.96379866666666, "fusion_lon": 0.0, "bike_id": "254bf706c375920d4798b81563eacf53", "type": "electric_bike", "name": "254bf706c375920d4798b81563eacf53", "rental_uris": {"android": "https://dc.lft.to/lastmile_qr_scan", "ios": "https://dc.lft.to/lastmile_qr_scan"}, "is_disabled": 0, "fusion_lat": 0.0, "lat": 38.94893316666667, "is_reserved": 0}, {"lon": -77.02706483333333, "fusion_lon": 0.0, "bike_id": "eab625a56ab49e4eadf20bea4e706674", "type": "electric_scooter", "name": "eab625a56ab49e4eadf20bea4e706674", "rental_uris": {"android": "https://dc.lft.to/lastmile_qr_scan", "ios": "https://dc.lft.to/lastmile_qr_scan"}, "is_disabled": 0, "fusion_lat": 0.0, "lat": 38.906699, "is_reserved": 0}, {"lon": -77.02828266666667, "fusion_lon": 0.0, "bike_id": "7e6d2f50c81dd42440e0130eb7559bf3", "type": "electric_scooter", "name": "7e6d2f50c81dd42440e0130eb7559bf3", "rental_uris": {"android": "https://dc.lft.to/lastmile_qr_scan", "ios": "https://dc.lft.to/lastmile_qr_scan"}, "is_disabled": 0, "fusion_lat": 0.0, "lat": 38.92231816666666, "is_reserved": 0}, {"lon": -77.04222766666666, "fusion_lon": 0.0, "bike_id": "9c592ea3767395e97e8a351e810e7463", "type": "electric_scooter", "name": "9c592ea3767395e97e8a351e810e7463", "rental_uris": {"android": "https://dc.lft.to/lastmile_qr_scan", "ios": "https://dc.lft.to/lastmile_qr_scan"}, "is_disabled": 0, "fusion_lat": 0.0, "lat": 38.923141333333334, "is_reserved": 0}, {"lon": -77.0344625, "fusion_lon": 0.0, "bike_id": "7db858f85f634af478e0a64db4ce95e6", "type": "electric_scooter", "name": "7db858f85f634af478e0a64db4ce95e6", "rental_uris": {"android": "https://dc.lft.to/lastmile_qr_scan", "ios": "https://dc.lft.to/lastmile_qr_scan"}, "is_disabled": 0, "fusion_lat": 0.0, "lat": 38.91795333333334, "is_reserved": 0}, {"lon": -76.9542625, "fusion_lon": 0.0, "bike_id": "f4f35cbd87e6fdef4f3f87fbf5ba9172", "type": "electric_scooter", "name": "f4f35cbd87e6fdef4f3f87fbf5ba9172", "rental_uris": {"android": "https://dc.lft.to/lastmile_qr_scan", "ios": "https://dc.lft.to/lastmile_qr_scan"}, "is_disabled": 0, "fusion_lat": 0.0, "lat": 38.88989816666667, "is_reserved": 0}, {"lon": -77.022838, "fusion_lon": 0.0, "bike_id": "a669feb73c979119bfbd0aea7d324ad7", "type": "electric_scooter", "name": "a669feb73c979119bfbd0aea7d324ad7", "rental_uris": {"android": "https://dc.lft.to/lastmile_qr_scan", "ios": "https://dc.lft.to/lastmile_qr_scan"}, "is_disabled": 0, "fusion_lat": 0.0, "lat": 38.915609833333335, "is_reserved": 0}, {"lon": -77.02972466666667, "fusion_lon": 0.0, "bike_id": "64cb5fb6a16274a912ce4367524ad084", "type": "electric_scooter", "name": "64cb5fb6a16274a912ce4367524ad084", "rental_uris": {"android": "https://dc.lft.to/lastmile_qr_scan", "ios": "https://dc.lft.to/lastmile_qr_scan"}, "is_disabled": 0, "fusion_lat": 0.0, "lat": 38.90516133333333, "is_reserved": 0}, {"lon": -77.03731216666667, "fusion_lon": 0.0, "bike_id": "b22dcb0525064dc40e0972e0b62681a4", "type": "electric_scooter", "name": "b22dcb0525064dc40e0972e0b62681a4", "rental_uris": {"android": "https://dc.lft.to/lastmile_qr_scan", "ios": "https://dc.lft.to/lastmile_qr_scan"}, "is_disabled": 0, "fusion_lat": 0.0, "lat": 38.926557833333334, "is_reserved": 0}, {"lon": -77.04874066666666, "fusion_lon": 0.0, "bike_id": "ef3942f1c8bd8b9f7b50cd8107eac887", "type": "electric_scooter", "name": "ef3942f1c8bd8b9f7b50cd8107eac887", "rental_uris": {"android": "https://dc.lft.to/lastmile_qr_scan", "ios": "https://dc.lft.to/lastmile_qr_scan"}, "is_disabled": 0, "fusion_lat": 0.0, "lat": 38.91236116666666, "is_reserved": 0}, {"lon": -77.0586245, "fusion_lon": 0.0, "bike_id": "fb02a727657aaab018bf308995c40a52", "type": "electric_scooter", "name": "fb02a727657aaab018bf308995c40a52", "rental_uris": {"android": "https://dc.lft.to/lastmile_qr_scan", "ios": "https://dc.lft.to/lastmile_qr_scan"}, "is_disabled": 0, "fusion_lat": 0.0, "lat": 38.936082666666664, "is_reserved": 0}, {"lon": -77.02154733333333, "fusion_lon": 0.0, "bike_id": "3bc2978fe2f1d135da0fffac3ad9ff67", "type": "electric_scooter", "name": "3bc2978fe2f1d135da0fffac3ad9ff67", "rental_uris": {"android": "https://dc.lft.to/lastmile_qr_scan", "ios": "https://dc.lft.to/lastmile_qr_scan"}, "is_disabled": 0, "fusion_lat": 0.0, "lat": 38.924554, "is_reserved": 0}, {"lon": -77.0411445, "fusion_lon": 0.0, "bike_id": "775619f9e25fe72e94a5c87b8406c677", "type": "electric_scooter", "name": "775619f9e25fe72e94a5c87b8406c677", "rental_uris": {"android": "https://dc.lft.to/lastmile_qr_scan", "ios": "https://dc.lft.to/lastmile_qr_scan"}, "is_disabled": 0, "fusion_lat": 0.0, "lat": 38.921351666666666, "is_reserved": 0}, {"lon": -77.02485483333334, "fusion_lon": 0.0, "bike_id": "99a79e492245898c494aba49df2c4b53", "type": "electric_scooter", "name": "99a79e492245898c494aba49df2c4b53", "rental_uris": {"android": "https://dc.lft.to/lastmile_qr_scan", "ios": "https://dc.lft.to/lastmile_qr_scan"}, "is_disabled": 0, "fusion_lat": 0.0, "lat": 38.95786483333333, "is_reserved": 0}, {"lon": -77.038135, "fusion_lon": 0.0, "bike_id": "a788607ba0bc47fb07bef501572c768f", "type": "electric_scooter", "name": "a788607ba0bc47fb07bef501572c768f", "rental_uris": {"android": "https://dc.lft.to/lastmile_qr_scan", "ios": "https://dc.lft.to/lastmile_qr_scan"}, "is_disabled": 0, "fusion_lat": 0.0, "lat": 38.920673666666666, "is_reserved": 0}, {"lon": -76.94647483333334, "fusion_lon": 0.0, "bike_id": "e3c88029e310f9adfbb3b48d88e8c6df", "type": "electric_scooter", "name": "e3c88029e310f9adfbb3b48d88e8c6df", "rental_uris": {"android": "https://dc.lft.to/lastmile_qr_scan", "ios": "https://dc.lft.to/lastmile_qr_scan"}, "is_disabled": 0, "fusion_lat": 0.0, "lat": 38.89865133333333, "is_reserved": 0}, {"lon": -77.0257005, "fusion_lon": 0.0, "bike_id": "5e6a1870c09cd04fad7615deb29599ab", "type": "electric_scooter", "name": "5e6a1870c09cd04fad7615deb29599ab", "rental_uris": {"android": "https://dc.lft.to/lastmile_qr_scan", "ios": "https://dc.lft.to/lastmile_qr_scan"}, "is_disabled": 0, "fusion_lat": 0.0, "lat": 38.88746833333333, "is_reserved": 0}, {"lon": -76.9373325, "fusion_lon": 0.0, "bike_id": "67d10cd8622b0ef2f18128a275e4e11f", "type": "electric_scooter", "name": "67d10cd8622b0ef2f18128a275e4e11f", "rental_uris": {"android": "https://dc.lft.to/lastmile_qr_scan", "ios": "https://dc.lft.to/lastmile_qr_scan"}, "is_disabled": 0, "fusion_lat": 0.0, "lat": 38.890229166666664, "is_reserved": 0}, {"lon": -77.04350633333334, "fusion_lon": 0.0, "bike_id": "74396c375d8dd0ee612fa95926e5e2a3", "type": "electric_scooter", "name": "74396c375d8dd0ee612fa95926e5e2a3", "rental_uris": {"android": "https://dc.lft.to/lastmile_qr_scan", "ios": "https://dc.lft.to/lastmile_qr_scan"}, "is_disabled": 0, "fusion_lat": 0.0, "lat": 38.9083205, "is_reserved": 0}, {"lon": -77.038453, "fusion_lon": 0.0, "bike_id": "b9d891ccba1a47c9bbf26c7c0733e02d", "type": "electric_scooter", "name": "b9d891ccba1a47c9bbf26c7c0733e02d", "rental_uris": {"android": "https://dc.lft.to/lastmile_qr_scan", "ios": "https://dc.lft.to/lastmile_qr_scan"}, "is_disabled": 0, "fusion_lat": 0.0, "lat": 38.90853766666667, "is_reserved": 0}, {"lon": -76.99704016666666, "fusion_lon": 0.0, "bike_id": "0b042d9e1b7f0a43a9ebb8a2c6ebf167", "type": "electric_scooter", "name": "0b042d9e1b7f0a43a9ebb8a2c6ebf167", "rental_uris": {"android": "https://dc.lft.to/lastmile_qr_scan", "ios": "https://dc.lft.to/lastmile_qr_scan"}, "is_disabled": 0, "fusion_lat": 0.0, "lat": 38.9110015, "is_reserved": 0}, {"lon": -77.0308425, "fusion_lon": 0.0, "bike_id": "2269d2b6f047a6af672d282c976d4e5a", "type": "electric_scooter", "name": "2269d2b6f047a6af672d282c976d4e5a", "rental_uris": {"android": "https://dc.lft.to/lastmile_qr_scan", "ios": "https://dc.lft.to/lastmile_qr_scan"}, "is_disabled": 0, "fusion_lat": 0.0, "lat": 38.92242533333334, "is_reserved": 0}, {"lon": -77.035703, "fusion_lon": 0.0, "bike_id": "6021a1b1653373fbacd0920583f29692", "type": "electric_scooter", "name": "6021a1b1653373fbacd0920583f29692", "rental_uris": {"android": "https://dc.lft.to/lastmile_qr_scan", "ios": "https://dc.lft.to/lastmile_qr_scan"}, "is_disabled": 0, "fusion_lat": 0.0, "lat": 38.90369, "is_reserved": 0}, {"lon": -77.026414, "fusion_lon": 0.0, "bike_id": "a3da26e4ed25a59f71a8b614e14dc806", "type": "electric_scooter", "name": "a3da26e4ed25a59f71a8b614e14dc806", "rental_uris": {"android": "https://dc.lft.to/lastmile_qr_scan", "ios": "https://dc.lft.to/lastmile_qr_scan"}, "is_disabled": 0, "fusion_lat": 0.0, "lat": 38.89438366666667, "is_reserved": 0}, {"lon": -77.01525183333334, "fusion_lon": 0.0, "bike_id": "549156b381ea25c031bddf8078170fb5", "type": "electric_bike", "name": "549156b381ea25c031bddf8078170fb5", "rental_uris": {"android": "https://dc.lft.to/lastmile_qr_scan", "ios": "https://dc.lft.to/lastmile_qr_scan"}, "is_disabled": 0, "fusion_lat": 0.0, "lat": 38.951193833333335, "is_reserved": 0}, {"lon": -76.93024433333333, "fusion_lon": 0.0, "bike_id": "971e744be1d40e30b5cacd16468aef9a", "type": "electric_scooter", "name": "971e744be1d40e30b5cacd16468aef9a", "rental_uris": {"android": "https://dc.lft.to/lastmile_qr_scan", "ios": "https://dc.lft.to/lastmile_qr_scan"}, "is_disabled": 0, "fusion_lat": 0.0, "lat": 38.90168716666667, "is_reserved": 0}, {"lon": -77.0014695, "fusion_lon": 0.0, "bike_id": "03aba484a49d94ae657886b176ec0f9d", "type": "electric_scooter", "name": "03aba484a49d94ae657886b176ec0f9d", "rental_uris": {"android": "https://dc.lft.to/lastmile_qr_scan", "ios": "https://dc.lft.to/lastmile_qr_scan"}, "is_disabled": 0, "fusion_lat": 0.0, "lat": 38.873099833333335, "is_reserved": 0}, {"lon": -77.04092116666666, "fusion_lon": 0.0, "bike_id": "845ac187b28f157731644fb3a034bd93", "type": "electric_scooter", "name": "845ac187b28f157731644fb3a034bd93", "rental_uris": {"android": "https://dc.lft.to/lastmile_qr_scan", "ios": "https://dc.lft.to/lastmile_qr_scan"}, "is_disabled": 0, "fusion_lat": 0.0, "lat": 38.907281, "is_reserved": 0}, {"lon": -76.9737005, "fusion_lon": 0.0, "bike_id": "38445866ab5f8b49b8732314c37ef58c", "type": "electric_bike", "name": "38445866ab5f8b49b8732314c37ef58c", "rental_uris": {"android": "https://dc.lft.to/lastmile_qr_scan", "ios": "https://dc.lft.to/lastmile_qr_scan"}, "is_disabled": 0, "fusion_lat": 0.0, "lat": 38.9631835, "is_reserved": 0}, {"lon": -77.083058, "fusion_lon": 0.0, "bike_id": "23d9a3d3f6ec8547197aa9758ab274c7", "type": "electric_scooter", "name": "23d9a3d3f6ec8547197aa9758ab274c7", "rental_uris": {"android": "https://dc.lft.to/lastmile_qr_scan", "ios": "https://dc.lft.to/lastmile_qr_scan"}, "is_disabled": 0, "fusion_lat": 0.0, "lat": 38.92850933333333, "is_reserved": 0}, {"lon": -77.03220666666667, "fusion_lon": 0.0, "bike_id": "f45fb03e11d121d214d21fd44a5ac118", "type": "electric_scooter", "name": "f45fb03e11d121d214d21fd44a5ac118", "rental_uris": {"android": "https://dc.lft.to/lastmile_qr_scan", "ios": "https://dc.lft.to/lastmile_qr_scan"}, "is_disabled": 0, "fusion_lat": 0.0, "lat": 38.92587, "is_reserved": 0}, {"lon": -77.016936, "fusion_lon": 0.0, "bike_id": "18feaa5a0a083fee94a890cc93534fad", "type": "electric_scooter", "name": "18feaa5a0a083fee94a890cc93534fad", "rental_uris": {"android": "https://dc.lft.to/lastmile_qr_scan", "ios": "https://dc.lft.to/lastmile_qr_scan"}, "is_disabled": 0, "fusion_lat": 0.0, "lat": 38.974964666666665, "is_reserved": 0}, {"lon": -77.034541, "fusion_lon": 0.0, "bike_id": "e8e8372b620439947ed813b9da6b0a14", "type": "electric_scooter", "name": "e8e8372b620439947ed813b9da6b0a14", "rental_uris": {"android": "https://dc.lft.to/lastmile_qr_scan", "ios": "https://dc.lft.to/lastmile_qr_scan"}, "is_disabled": 0, "fusion_lat": 0.0, "lat": 38.90429316666667, "is_reserved": 0}, {"lon": -76.97255416666667, "fusion_lon": 0.0, "bike_id": "b5b257fa034edb8d56bf9ed04647bdb6", "type": "electric_bike", "name": "b5b257fa034edb8d56bf9ed04647bdb6", "rental_uris": {"android": "https://dc.lft.to/lastmile_qr_scan", "ios": "https://dc.lft.to/lastmile_qr_scan"}, "is_disabled": 0, "fusion_lat": 0.0, "lat": 38.957433, "is_reserved": 0}, {"lon": -77.014024, "fusion_lon": 0.0, "bike_id": "9f7828fd73018aa2aa8a50c8d5ed1007", "type": "electric_scooter", "name": "9f7828fd73018aa2aa8a50c8d5ed1007", "rental_uris": {"android": "https://dc.lft.to/lastmile_qr_scan", "ios": "https://dc.lft.to/lastmile_qr_scan"}, "is_disabled": 0, "fusion_lat": 0.0, "lat": 38.9423305, "is_reserved": 0}, {"lon": -77.01983333333334, "fusion_lon": 0.0, "bike_id": "6c18f72a01c4cbd4058a6390681d1702", "type": "electric_scooter", "name": "6c18f72a01c4cbd4058a6390681d1702", "rental_uris": {"android": "https://dc.lft.to/lastmile_qr_scan", "ios": "https://dc.lft.to/lastmile_qr_scan"}, "is_disabled": 0, "fusion_lat": 0.0, "lat": 38.88718733333333, "is_reserved": 0}, {"lon": -77.01074366666667, "fusion_lon": 0.0, "bike_id": "5c68998f91d7d090c7a1caefa89ebd60", "type": "electric_scooter", "name": "5c68998f91d7d090c7a1caefa89ebd60", "rental_uris": {"android": "https://dc.lft.to/lastmile_qr_scan", "ios": "https://dc.lft.to/lastmile_qr_scan"}, "is_disabled": 0, "fusion_lat": 0.0, "lat": 38.90959133333333, "is_reserved": 0}, {"lon": -77.02850033333333, "fusion_lon": 0.0, "bike_id": "6e8b169f5f6accc5fe8f4020be68880a", "type": "electric_scooter", "name": "6e8b169f5f6accc5fe8f4020be68880a", "rental_uris": {"android": "https://dc.lft.to/lastmile_qr_scan", "ios": "https://dc.lft.to/lastmile_qr_scan"}, "is_disabled": 0, "fusion_lat": 0.0, "lat": 38.89353166666667, "is_reserved": 0}, {"lon": -77.09962733333333, "fusion_lon": 0.0, "bike_id": "e2ea945c9c8df0f0accf4659a8094b68", "type": "electric_bike", "name": "e2ea945c9c8df0f0accf4659a8094b68", "rental_uris": {"android": "https://dc.lft.to/lastmile_qr_scan", "ios": "https://dc.lft.to/lastmile_qr_scan"}, "is_disabled": 0, "fusion_lat": 0.0, "lat": 38.8579095, "is_reserved": 0}, {"lon": -76.97238216666666, "fusion_lon": 0.0, "bike_id": "8f9868db79ec153b12f41edfb8073477", "type": "electric_bike", "name": "8f9868db79ec153b12f41edfb8073477", "rental_uris": {"android": "https://dc.lft.to/lastmile_qr_scan", "ios": "https://dc.lft.to/lastmile_qr_scan"}, "is_disabled": 0, "fusion_lat": 0.0, "lat": 38.9042495, "is_reserved": 0}, {"lon": -76.9876985, "fusion_lon": 0.0, "bike_id": "df77b7fddabddbfce6e742bc01126ca4", "type": "electric_scooter", "name": "df77b7fddabddbfce6e742bc01126ca4", "rental_uris": {"android": "https://dc.lft.to/lastmile_qr_scan", "ios": "https://dc.lft.to/lastmile_qr_scan"}, "is_disabled": 0, "fusion_lat": 0.0, "lat": 38.90028516666667, "is_reserved": 0}, {"lon": -77.03130366666667, "fusion_lon": 0.0, "bike_id": "20cd17e7e93ed5c45d3c7400bdf74d63", "type": "electric_scooter", "name": "20cd17e7e93ed5c45d3c7400bdf74d63", "rental_uris": {"android": "https://dc.lft.to/lastmile_qr_scan", "ios": "https://dc.lft.to/lastmile_qr_scan"}, "is_disabled": 0, "fusion_lat": 0.0, "lat": 38.9169565, "is_reserved": 0}, {"lon": -77.0061055, "fusion_lon": 0.0, "bike_id": "5c7467d88075676e0b2b1e21a335e9c3", "type": "electric_scooter", "name": "5c7467d88075676e0b2b1e21a335e9c3", "rental_uris": {"android": "https://dc.lft.to/lastmile_qr_scan", "ios": "https://dc.lft.to/lastmile_qr_scan"}, "is_disabled": 0, "fusion_lat": 0.0, "lat": 38.871800666666665, "is_reserved": 0}, {"lon": -77.04538733333334, "fusion_lon": 0.0, "bike_id": "916ff665fd01f51483b91d20841cda8e", "type": "electric_bike", "name": "916ff665fd01f51483b91d20841cda8e", "rental_uris": {"android": "https://dc.lft.to/lastmile_qr_scan", "ios": "https://dc.lft.to/lastmile_qr_scan"}, "is_disabled": 0, "fusion_lat": 0.0, "lat": 39.0330565, "is_reserved": 0}, {"lon": -77.02099, "fusion_lon": 0.0, "bike_id": "7ec9c11e474d08f97984f423a0aa186a", "type": "electric_scooter", "name": "7ec9c11e474d08f97984f423a0aa186a", "rental_uris": {"android": "https://dc.lft.to/lastmile_qr_scan", "ios": "https://dc.lft.to/lastmile_qr_scan"}, "is_disabled": 0, "fusion_lat": 0.0, "lat": 38.966505833333336, "is_reserved": 0}, {"lon": -77.03934066666666, "fusion_lon": 0.0, "bike_id": "4d6ab574e9fe463bde7b72484b3d6c53", "type": "electric_scooter", "name": "4d6ab574e9fe463bde7b72484b3d6c53", "rental_uris": {"android": "https://dc.lft.to/lastmile_qr_scan", "ios": "https://dc.lft.to/lastmile_qr_scan"}, "is_disabled": 0, "fusion_lat": 0.0, "lat": 38.90373233333333, "is_reserved": 0}, {"lon": -77.04225333333333, "fusion_lon": 0.0, "bike_id": "6844efc56c3d1c8de7b0b7bcfe5b6687", "type": "electric_scooter", "name": "6844efc56c3d1c8de7b0b7bcfe5b6687", "rental_uris": {"android": "https://dc.lft.to/lastmile_qr_scan", "ios": "https://dc.lft.to/lastmile_qr_scan"}, "is_disabled": 0, "fusion_lat": 0.0, "lat": 38.91412283333333, "is_reserved": 0}, {"lon": -76.95837333333333, "fusion_lon": 0.0, "bike_id": "aec4eaef09aebe8fed7edf5282ad36fb", "type": "electric_bike", "name": "aec4eaef09aebe8fed7edf5282ad36fb", "rental_uris": {"android": "https://dc.lft.to/lastmile_qr_scan", "ios": "https://dc.lft.to/lastmile_qr_scan"}, "is_disabled": 0, "fusion_lat": 0.0, "lat": 38.9304545, "is_reserved": 0}, {"lon": -77.051541, "fusion_lon": 0.0, "bike_id": "8bbb2c51c8f2ceb418a6cdbb325f7488", "type": "electric_scooter", "name": "8bbb2c51c8f2ceb418a6cdbb325f7488", "rental_uris": {"android": "https://dc.lft.to/lastmile_qr_scan", "ios": "https://dc.lft.to/lastmile_qr_scan"}, "is_disabled": 0, "fusion_lat": 0.0, "lat": 38.92378433333333, "is_reserved": 0}, {"lon": -77.03618166666666, "fusion_lon": 0.0, "bike_id": "d1fe392bbafb1c0f07aefec63d6ed90b", "type": "electric_scooter", "name": "d1fe392bbafb1c0f07aefec63d6ed90b", "rental_uris": {"android": "https://dc.lft.to/lastmile_qr_scan", "ios": "https://dc.lft.to/lastmile_qr_scan"}, "is_disabled": 0, "fusion_lat": 0.0, "lat": 38.917075833333335, "is_reserved": 0}, {"lon": -77.03446283333334, "fusion_lon": 0.0, "bike_id": "0e69a228acee3c6694f976d280fe416a", "type": "electric_scooter", "name": "0e69a228acee3c6694f976d280fe416a", "rental_uris": {"android": "https://dc.lft.to/lastmile_qr_scan", "ios": "https://dc.lft.to/lastmile_qr_scan"}, "is_disabled": 0, "fusion_lat": 0.0, "lat": 38.907323166666664, "is_reserved": 0}, {"lon": -77.036301, "fusion_lon": 0.0, "bike_id": "2166bd43b58ac2115e81936dab4758ed", "type": "electric_scooter", "name": "2166bd43b58ac2115e81936dab4758ed", "rental_uris": {"android": "https://dc.lft.to/lastmile_qr_scan", "ios": "https://dc.lft.to/lastmile_qr_scan"}, "is_disabled": 0, "fusion_lat": 0.0, "lat": 38.93733816666666, "is_reserved": 0}, {"lon": -77.0073525, "fusion_lon": 0.0, "bike_id": "d5ff6ac5eaee7edf464586142e39971f", "type": "electric_scooter", "name": "d5ff6ac5eaee7edf464586142e39971f", "rental_uris": {"android": "https://dc.lft.to/lastmile_qr_scan", "ios": "https://dc.lft.to/lastmile_qr_scan"}, "is_disabled": 0, "fusion_lat": 0.0, "lat": 38.8983375, "is_reserved": 0}, {"lon": -76.976105, "fusion_lon": 0.0, "bike_id": "918efb5c9a2af3828d85bfb1b18ffdf3", "type": "electric_scooter", "name": "918efb5c9a2af3828d85bfb1b18ffdf3", "rental_uris": {"android": "https://dc.lft.to/lastmile_qr_scan", "ios": "https://dc.lft.to/lastmile_qr_scan"}, "is_disabled": 0, "fusion_lat": 0.0, "lat": 38.940174166666665, "is_reserved": 0}, {"lon": -77.0052065, "fusion_lon": 0.0, "bike_id": "f5e49ee13172838d3b188cd5ab543dfc", "type": "electric_scooter", "name": "f5e49ee13172838d3b188cd5ab543dfc", "rental_uris": {"android": "https://dc.lft.to/lastmile_qr_scan", "ios": "https://dc.lft.to/lastmile_qr_scan"}, "is_disabled": 0, "fusion_lat": 0.0, "lat": 38.87715716666666, "is_reserved": 0}, {"lon": -77.02181516666667, "fusion_lon": 0.0, "bike_id": "dd686b4b096919647a08030741414940", "type": "electric_scooter", "name": "dd686b4b096919647a08030741414940", "rental_uris": {"android": "https://dc.lft.to/lastmile_qr_scan", "ios": "https://dc.lft.to/lastmile_qr_scan"}, "is_disabled": 0, "fusion_lat": 0.0, "lat": 38.909818, "is_reserved": 0}, {"lon": -77.07760616666667, "fusion_lon": 0.0, "bike_id": "a2c083c011f7ab7d8f5be08bfa582643", "type": "electric_scooter", "name": "a2c083c011f7ab7d8f5be08bfa582643", "rental_uris": {"android": "https://dc.lft.to/lastmile_qr_scan", "ios": "https://dc.lft.to/lastmile_qr_scan"}, "is_disabled": 0, "fusion_lat": 0.0, "lat": 38.911692, "is_reserved": 0}, {"lon": -76.948593, "fusion_lon": 0.0, "bike_id": "26bd6f1a0be246b0fd79af257ec47178", "type": "electric_scooter", "name": "26bd6f1a0be246b0fd79af257ec47178", "rental_uris": {"android": "https://dc.lft.to/lastmile_qr_scan", "ios": "https://dc.lft.to/lastmile_qr_scan"}, "is_disabled": 0, "fusion_lat": 0.0, "lat": 38.89478416666667, "is_reserved": 0}, {"lon": -77.03096383333333, "fusion_lon": 0.0, "bike_id": "6087105079d567d79cf0c214b3e3d99b", "type": "electric_scooter", "name": "6087105079d567d79cf0c214b3e3d99b", "rental_uris": {"android": "https://dc.lft.to/lastmile_qr_scan", "ios": "https://dc.lft.to/lastmile_qr_scan"}, "is_disabled": 0, "fusion_lat": 0.0, "lat": 38.910594833333334, "is_reserved": 0}, {"lon": -77.01914683333334, "fusion_lon": 0.0, "bike_id": "21031aa9569d517bd59216cc18489756", "type": "electric_bike", "name": "21031aa9569d517bd59216cc18489756", "rental_uris": {"android": "https://dc.lft.to/lastmile_qr_scan", "ios": "https://dc.lft.to/lastmile_qr_scan"}, "is_disabled": 0, "fusion_lat": 0.0, "lat": 38.937714, "is_reserved": 0}, {"lon": -77.0259805, "fusion_lon": 0.0, "bike_id": "a96815f1d61bf9da408b5b7481e52cf0", "type": "electric_scooter", "name": "a96815f1d61bf9da408b5b7481e52cf0", "rental_uris": {"android": "https://dc.lft.to/lastmile_qr_scan", "ios": "https://dc.lft.to/lastmile_qr_scan"}, "is_disabled": 0, "fusion_lat": 0.0, "lat": 38.92799133333333, "is_reserved": 0}, {"lon": -77.01412983333333, "fusion_lon": 0.0, "bike_id": "ccfe939e201636d25c3d720705f96ddf", "type": "electric_scooter", "name": "ccfe939e201636d25c3d720705f96ddf", "rental_uris": {"android": "https://dc.lft.to/lastmile_qr_scan", "ios": "https://dc.lft.to/lastmile_qr_scan"}, "is_disabled": 0, "fusion_lat": 0.0, "lat": 38.91921, "is_reserved": 0}, {"lon": -77.02310266666667, "fusion_lon": 0.0, "bike_id": "f530c4be37f26c3f8201c2bc15c78553", "type": "electric_scooter", "name": "f530c4be37f26c3f8201c2bc15c78553", "rental_uris": {"android": "https://dc.lft.to/lastmile_qr_scan", "ios": "https://dc.lft.to/lastmile_qr_scan"}, "is_disabled": 0, "fusion_lat": 0.0, "lat": 38.91595216666666, "is_reserved": 0}, {"lon": -77.0230185, "fusion_lon": 0.0, "bike_id": "bead8fd1fa517cd6f73f89371dd3dca8", "type": "electric_scooter", "name": "bead8fd1fa517cd6f73f89371dd3dca8", "rental_uris": {"android": "https://dc.lft.to/lastmile_qr_scan", "ios": "https://dc.lft.to/lastmile_qr_scan"}, "is_disabled": 0, "fusion_lat": 0.0, "lat": 38.9179515, "is_reserved": 0}, {"lon": -77.034459, "fusion_lon": 0.0, "bike_id": "846a8016c7c47ff7d55e0d54f716074d", "type": "electric_scooter", "name": "846a8016c7c47ff7d55e0d54f716074d", "rental_uris": {"android": "https://dc.lft.to/lastmile_qr_scan", "ios": "https://dc.lft.to/lastmile_qr_scan"}, "is_disabled": 0, "fusion_lat": 0.0, "lat": 38.90977683333333, "is_reserved": 0}, {"lon": -77.06393516666667, "fusion_lon": 0.0, "bike_id": "c2e930e70c5cb1c508be3d26afd33e10", "type": "electric_scooter", "name": "c2e930e70c5cb1c508be3d26afd33e10", "rental_uris": {"android": "https://dc.lft.to/lastmile_qr_scan", "ios": "https://dc.lft.to/lastmile_qr_scan"}, "is_disabled": 0, "fusion_lat": 0.0, "lat": 38.94417266666667, "is_reserved": 0}, {"lon": -77.04884166666666, "fusion_lon": 0.0, "bike_id": "0d867c933330eafb41f9335ced65b025", "type": "electric_scooter", "name": "0d867c933330eafb41f9335ced65b025", "rental_uris": {"android": "https://dc.lft.to/lastmile_qr_scan", "ios": "https://dc.lft.to/lastmile_qr_scan"}, "is_disabled": 0, "fusion_lat": 0.0, "lat": 38.89986483333333, "is_reserved": 0}, {"lon": -76.93146916666667, "fusion_lon": 0.0, "bike_id": "7adb315d40496f12c2c4089822f7a350", "type": "electric_scooter", "name": "7adb315d40496f12c2c4089822f7a350", "rental_uris": {"android": "https://dc.lft.to/lastmile_qr_scan", "ios": "https://dc.lft.to/lastmile_qr_scan"}, "is_disabled": 0, "fusion_lat": 0.0, "lat": 38.897673166666664, "is_reserved": 0}, {"lon": -76.98795833333334, "fusion_lon": 0.0, "bike_id": "78dd2c3a4d101ea62a7a273d22f70183", "type": "electric_scooter", "name": "78dd2c3a4d101ea62a7a273d22f70183", "rental_uris": {"android": "https://dc.lft.to/lastmile_qr_scan", "ios": "https://dc.lft.to/lastmile_qr_scan"}, "is_disabled": 0, "fusion_lat": 0.0, "lat": 38.912343666666665, "is_reserved": 0}, {"lon": -77.02142, "fusion_lon": 0.0, "bike_id": "6eea25cdc7abe527405e95dd24efa435", "type": "electric_scooter", "name": "6eea25cdc7abe527405e95dd24efa435", "rental_uris": {"android": "https://dc.lft.to/lastmile_qr_scan", "ios": "https://dc.lft.to/lastmile_qr_scan"}, "is_disabled": 0, "fusion_lat": 0.0, "lat": 38.9111585, "is_reserved": 0}, {"lon": -77.0483305, "fusion_lon": 0.0, "bike_id": "57bfcbefab2b3d6251d530ab4eca725a", "type": "electric_scooter", "name": "57bfcbefab2b3d6251d530ab4eca725a", "rental_uris": {"android": "https://dc.lft.to/lastmile_qr_scan", "ios": "https://dc.lft.to/lastmile_qr_scan"}, "is_disabled": 0, "fusion_lat": 0.0, "lat": 38.903906, "is_reserved": 0}, {"lon": -77.01762166666667, "fusion_lon": 0.0, "bike_id": "d4362f338470772869030cd3d6049137", "type": "electric_scooter", "name": "d4362f338470772869030cd3d6049137", "rental_uris": {"android": "https://dc.lft.to/lastmile_qr_scan", "ios": "https://dc.lft.to/lastmile_qr_scan"}, "is_disabled": 0, "fusion_lat": 0.0, "lat": 38.90250366666667, "is_reserved": 0}, {"lon": -77.02613283333334, "fusion_lon": 0.0, "bike_id": "d305c0deb65e4432d4758dbc817eadf8", "type": "electric_scooter", "name": "d305c0deb65e4432d4758dbc817eadf8", "rental_uris": {"android": "https://dc.lft.to/lastmile_qr_scan", "ios": "https://dc.lft.to/lastmile_qr_scan"}, "is_disabled": 0, "fusion_lat": 0.0, "lat": 38.91415533333333, "is_reserved": 0}, {"lon": -77.03556116666667, "fusion_lon": 0.0, "bike_id": "317469be262cc56d963e687578e5c8fe", "type": "electric_scooter", "name": "317469be262cc56d963e687578e5c8fe", "rental_uris": {"android": "https://dc.lft.to/lastmile_qr_scan", "ios": "https://dc.lft.to/lastmile_qr_scan"}, "is_disabled": 0, "fusion_lat": 0.0, "lat": 38.90842116666666, "is_reserved": 0}, {"lon": -77.00757716666666, "fusion_lon": 0.0, "bike_id": "d2c6650c89d38aba45a48f07d5740e8e", "type": "electric_scooter", "name": "d2c6650c89d38aba45a48f07d5740e8e", "rental_uris": {"android": "https://dc.lft.to/lastmile_qr_scan", "ios": "https://dc.lft.to/lastmile_qr_scan"}, "is_disabled": 0, "fusion_lat": 0.0, "lat": 38.89592283333333, "is_reserved": 0}, {"lon": -76.98717333333333, "fusion_lon": 0.0, "bike_id": "3f1046caec670359885b2c5bb0fbdf6c", "type": "electric_scooter", "name": "3f1046caec670359885b2c5bb0fbdf6c", "rental_uris": {"android": "https://dc.lft.to/lastmile_qr_scan", "ios": "https://dc.lft.to/lastmile_qr_scan"}, "is_disabled": 0, "fusion_lat": 0.0, "lat": 38.86627583333333, "is_reserved": 0}, {"lon": -77.02200783333333, "fusion_lon": 0.0, "bike_id": "54e59f6f97f3676c876290a94f2c2911", "type": "electric_scooter", "name": "54e59f6f97f3676c876290a94f2c2911", "rental_uris": {"android": "https://dc.lft.to/lastmile_qr_scan", "ios": "https://dc.lft.to/lastmile_qr_scan"}, "is_disabled": 0, "fusion_lat": 0.0, "lat": 38.911246, "is_reserved": 0}, {"lon": -76.98658616666667, "fusion_lon": 0.0, "bike_id": "2b111e0c94e0799fcbac2c037edc0dcc", "type": "electric_scooter", "name": "2b111e0c94e0799fcbac2c037edc0dcc", "rental_uris": {"android": "https://dc.lft.to/lastmile_qr_scan", "ios": "https://dc.lft.to/lastmile_qr_scan"}, "is_disabled": 0, "fusion_lat": 0.0, "lat": 38.85805466666667, "is_reserved": 0}, {"lon": -76.98766716666667, "fusion_lon": 0.0, "bike_id": "1e1d06995068ad79a8dc1821bc13e550", "type": "electric_scooter", "name": "1e1d06995068ad79a8dc1821bc13e550", "rental_uris": {"android": "https://dc.lft.to/lastmile_qr_scan", "ios": "https://dc.lft.to/lastmile_qr_scan"}, "is_disabled": 0, "fusion_lat": 0.0, "lat": 38.90027083333333, "is_reserved": 0}, {"lon": -76.97270383333333, "fusion_lon": 0.0, "bike_id": "b52f818a5f8a66e61a120ccf7d767de5", "type": "electric_scooter", "name": "b52f818a5f8a66e61a120ccf7d767de5", "rental_uris": {"android": "https://dc.lft.to/lastmile_qr_scan", "ios": "https://dc.lft.to/lastmile_qr_scan"}, "is_disabled": 0, "fusion_lat": 0.0, "lat": 38.91451383333333, "is_reserved": 0}, {"lon": -77.02717283333334, "fusion_lon": 0.0, "bike_id": "4cb03120e97fd2542e4fdf0956e318dd", "type": "electric_scooter", "name": "4cb03120e97fd2542e4fdf0956e318dd", "rental_uris": {"android": "https://dc.lft.to/lastmile_qr_scan", "ios": "https://dc.lft.to/lastmile_qr_scan"}, "is_disabled": 0, "fusion_lat": 0.0, "lat": 38.9078875, "is_reserved": 0}, {"lon": -77.0262975, "fusion_lon": 0.0, "bike_id": "4c6e2902101de53f44d0c4f0d6687f1c", "type": "electric_scooter", "name": "4c6e2902101de53f44d0c4f0d6687f1c", "rental_uris": {"android": "https://dc.lft.to/lastmile_qr_scan", "ios": "https://dc.lft.to/lastmile_qr_scan"}, "is_disabled": 0, "fusion_lat": 0.0, "lat": 38.88768866666667, "is_reserved": 0}, {"lon": -77.05490866666666, "fusion_lon": 0.0, "bike_id": "ccb203aa63841ea35cba0e4cfaf3ff75", "type": "electric_scooter", "name": "ccb203aa63841ea35cba0e4cfaf3ff75", "rental_uris": {"android": "https://dc.lft.to/lastmile_qr_scan", "ios": "https://dc.lft.to/lastmile_qr_scan"}, "is_disabled": 0, "fusion_lat": 0.0, "lat": 38.90855333333333, "is_reserved": 0}, {"lon": -76.98717433333333, "fusion_lon": 0.0, "bike_id": "bdb381c9b8db0bc24bb633f1dbace59d", "type": "electric_scooter", "name": "bdb381c9b8db0bc24bb633f1dbace59d", "rental_uris": {"android": "https://dc.lft.to/lastmile_qr_scan", "ios": "https://dc.lft.to/lastmile_qr_scan"}, "is_disabled": 0, "fusion_lat": 0.0, "lat": 38.866256666666665, "is_reserved": 0}, {"lon": -77.05047583333334, "fusion_lon": 0.0, "bike_id": "ed481c3d647bc7a093d0e172204387e5", "type": "electric_scooter", "name": "ed481c3d647bc7a093d0e172204387e5", "rental_uris": {"android": "https://dc.lft.to/lastmile_qr_scan", "ios": "https://dc.lft.to/lastmile_qr_scan"}, "is_disabled": 0, "fusion_lat": 0.0, "lat": 38.92361283333334, "is_reserved": 0}, {"lon": -77.01375683333333, "fusion_lon": 0.0, "bike_id": "f9250fefd35fc2c5ef3ad6f78216ce8a", "type": "electric_scooter", "name": "f9250fefd35fc2c5ef3ad6f78216ce8a", "rental_uris": {"android": "https://dc.lft.to/lastmile_qr_scan", "ios": "https://dc.lft.to/lastmile_qr_scan"}, "is_disabled": 0, "fusion_lat": 0.0, "lat": 38.886421666666664, "is_reserved": 0}, {"lon": -77.03342633333334, "fusion_lon": 0.0, "bike_id": "3ddb2d7e227c96199c32b8301f124d41", "type": "electric_scooter", "name": "3ddb2d7e227c96199c32b8301f124d41", "rental_uris": {"android": "https://dc.lft.to/lastmile_qr_scan", "ios": "https://dc.lft.to/lastmile_qr_scan"}, "is_disabled": 0, "fusion_lat": 0.0, "lat": 38.892474166666666, "is_reserved": 0}, {"lon": -76.98575033333333, "fusion_lon": 0.0, "bike_id": "1df081c745c4d5f9213ea0292773732c", "type": "electric_scooter", "name": "1df081c745c4d5f9213ea0292773732c", "rental_uris": {"android": "https://dc.lft.to/lastmile_qr_scan", "ios": "https://dc.lft.to/lastmile_qr_scan"}, "is_disabled": 0, "fusion_lat": 0.0, "lat": 38.86682166666667, "is_reserved": 0}, {"lon": -76.9426415, "fusion_lon": 0.0, "bike_id": "6a293103742779e2e4cd10e0e62b0aa0", "type": "electric_bike", "name": "6a293103742779e2e4cd10e0e62b0aa0", "rental_uris": {"android": "https://dc.lft.to/lastmile_qr_scan", "ios": "https://dc.lft.to/lastmile_qr_scan"}, "is_disabled": 0, "fusion_lat": 0.0, "lat": 38.89727633333333, "is_reserved": 0}, {"lon": -77.0399865, "fusion_lon": 0.0, "bike_id": "d4fea36bd744c7a1a1591fb0e71ccd11", "type": "electric_scooter", "name": "d4fea36bd744c7a1a1591fb0e71ccd11", "rental_uris": {"android": "https://dc.lft.to/lastmile_qr_scan", "ios": "https://dc.lft.to/lastmile_qr_scan"}, "is_disabled": 0, "fusion_lat": 0.0, "lat": 38.9245515, "is_reserved": 0}, {"lon": -77.02721666666666, "fusion_lon": 0.0, "bike_id": "b3f9e41214fbfb4aaa02ef7b6f0e3e15", "type": "electric_scooter", "name": "b3f9e41214fbfb4aaa02ef7b6f0e3e15", "rental_uris": {"android": "https://dc.lft.to/lastmile_qr_scan", "ios": "https://dc.lft.to/lastmile_qr_scan"}, "is_disabled": 0, "fusion_lat": 0.0, "lat": 38.927898, "is_reserved": 0}, {"lon": -77.02370466666666, "fusion_lon": 0.0, "bike_id": "17c9660434955df00b84da779e656588", "type": "electric_scooter", "name": "17c9660434955df00b84da779e656588", "rental_uris": {"android": "https://dc.lft.to/lastmile_qr_scan", "ios": "https://dc.lft.to/lastmile_qr_scan"}, "is_disabled": 0, "fusion_lat": 0.0, "lat": 38.906854833333334, "is_reserved": 0}, {"lon": -77.03219916666667, "fusion_lon": 0.0, "bike_id": "eb534a082a66d0f4d1ef643678760f17", "type": "electric_scooter", "name": "eb534a082a66d0f4d1ef643678760f17", "rental_uris": {"android": "https://dc.lft.to/lastmile_qr_scan", "ios": "https://dc.lft.to/lastmile_qr_scan"}, "is_disabled": 0, "fusion_lat": 0.0, "lat": 38.92785133333334, "is_reserved": 0}, {"lon": -77.024966, "fusion_lon": 0.0, "bike_id": "5f73d738f183f8cc3fef134641fd34f7", "type": "electric_scooter", "name": "5f73d738f183f8cc3fef134641fd34f7", "rental_uris": {"android": "https://dc.lft.to/lastmile_qr_scan", "ios": "https://dc.lft.to/lastmile_qr_scan"}, "is_disabled": 0, "fusion_lat": 0.0, "lat": 38.94093266666667, "is_reserved": 0}, {"lon": -77.0388335, "fusion_lon": 0.0, "bike_id": "4c04cf3bf01de40e1f373d5f8e5ea4a4", "type": "electric_scooter", "name": "4c04cf3bf01de40e1f373d5f8e5ea4a4", "rental_uris": {"android": "https://dc.lft.to/lastmile_qr_scan", "ios": "https://dc.lft.to/lastmile_qr_scan"}, "is_disabled": 0, "fusion_lat": 0.0, "lat": 38.90466033333333, "is_reserved": 0}, {"lon": -77.0384025, "fusion_lon": 0.0, "bike_id": "2d24f7bf6cc2a15256624894f5cb04bf", "type": "electric_scooter", "name": "2d24f7bf6cc2a15256624894f5cb04bf", "rental_uris": {"android": "https://dc.lft.to/lastmile_qr_scan", "ios": "https://dc.lft.to/lastmile_qr_scan"}, "is_disabled": 0, "fusion_lat": 0.0, "lat": 38.915035833333334, "is_reserved": 0}, {"lon": -77.04017416666667, "fusion_lon": 0.0, "bike_id": "345dbcd7b8fb9672d58e3ef0a46b2dc2", "type": "electric_scooter", "name": "345dbcd7b8fb9672d58e3ef0a46b2dc2", "rental_uris": {"android": "https://dc.lft.to/lastmile_qr_scan", "ios": "https://dc.lft.to/lastmile_qr_scan"}, "is_disabled": 0, "fusion_lat": 0.0, "lat": 38.896408666666666, "is_reserved": 0}, {"lon": -77.0490645, "fusion_lon": 0.0, "bike_id": "d0088dab232a5a687ba0947e79d97448", "type": "electric_bike", "name": "d0088dab232a5a687ba0947e79d97448", "rental_uris": {"android": "https://dc.lft.to/lastmile_qr_scan", "ios": "https://dc.lft.to/lastmile_qr_scan"}, "is_disabled": 0, "fusion_lat": 0.0, "lat": 38.854525333333335, "is_reserved": 0}, {"lon": -77.024874, "fusion_lon": 0.0, "bike_id": "22731fa108d63fb949dab7da1dae6a59", "type": "electric_scooter", "name": "22731fa108d63fb949dab7da1dae6a59", "rental_uris": {"android": "https://dc.lft.to/lastmile_qr_scan", "ios": "https://dc.lft.to/lastmile_qr_scan"}, "is_disabled": 0, "fusion_lat": 0.0, "lat": 38.9169085, "is_reserved": 0}, {"lon": -77.023687, "fusion_lon": 0.0, "bike_id": "555842223b1f56bc559fee3d5a4f43a9", "type": "electric_scooter", "name": "555842223b1f56bc559fee3d5a4f43a9", "rental_uris": {"android": "https://dc.lft.to/lastmile_qr_scan", "ios": "https://dc.lft.to/lastmile_qr_scan"}, "is_disabled": 0, "fusion_lat": 0.0, "lat": 38.9373905, "is_reserved": 0}, {"lon": -77.04256783333334, "fusion_lon": 0.0, "bike_id": "028810be5495614d639d10b05415f581", "type": "electric_scooter", "name": "028810be5495614d639d10b05415f581", "rental_uris": {"android": "https://dc.lft.to/lastmile_qr_scan", "ios": "https://dc.lft.to/lastmile_qr_scan"}, "is_disabled": 0, "fusion_lat": 0.0, "lat": 38.922446, "is_reserved": 0}, {"lon": -77.0456765, "fusion_lon": 0.0, "bike_id": "0f637f1a182d0e8a08e1546830544f79", "type": "electric_scooter", "name": "0f637f1a182d0e8a08e1546830544f79", "rental_uris": {"android": "https://dc.lft.to/lastmile_qr_scan", "ios": "https://dc.lft.to/lastmile_qr_scan"}, "is_disabled": 0, "fusion_lat": 0.0, "lat": 38.92120633333333, "is_reserved": 0}, {"lon": -76.9606565, "fusion_lon": 0.0, "bike_id": "6f44ed1c54f842cd6fca15a7266ac182", "type": "electric_bike", "name": "6f44ed1c54f842cd6fca15a7266ac182", "rental_uris": {"android": "https://dc.lft.to/lastmile_qr_scan", "ios": "https://dc.lft.to/lastmile_qr_scan"}, "is_disabled": 0, "fusion_lat": 0.0, "lat": 38.883996, "is_reserved": 0}, {"lon": -77.117381, "fusion_lon": 0.0, "bike_id": "563737e3e7b5cb3829165ec5dc45a575", "type": "electric_bike", "name": "563737e3e7b5cb3829165ec5dc45a575", "rental_uris": {"android": "https://dc.lft.to/lastmile_qr_scan", "ios": "https://dc.lft.to/lastmile_qr_scan"}, "is_disabled": 0, "fusion_lat": 0.0, "lat": 39.051009666666666, "is_reserved": 0}, {"lon": -77.03851233333333, "fusion_lon": 0.0, "bike_id": "ddadd953cbd07f40683c885b17c08711", "type": "electric_scooter", "name": "ddadd953cbd07f40683c885b17c08711", "rental_uris": {"android": "https://dc.lft.to/lastmile_qr_scan", "ios": "https://dc.lft.to/lastmile_qr_scan"}, "is_disabled": 0, "fusion_lat": 0.0, "lat": 38.90279966666667, "is_reserved": 0}, {"lon": -77.04898783333333, "fusion_lon": 0.0, "bike_id": "34800962c9ad170313dbdc47a24e45d5", "type": "electric_scooter", "name": "34800962c9ad170313dbdc47a24e45d5", "rental_uris": {"android": "https://dc.lft.to/lastmile_qr_scan", "ios": "https://dc.lft.to/lastmile_qr_scan"}, "is_disabled": 0, "fusion_lat": 0.0, "lat": 38.890006166666666, "is_reserved": 0}, {"lon": -77.0398455, "fusion_lon": 0.0, "bike_id": "b6ebf431e9b5c4907968e6789378d33f", "type": "electric_scooter", "name": "b6ebf431e9b5c4907968e6789378d33f", "rental_uris": {"android": "https://dc.lft.to/lastmile_qr_scan", "ios": "https://dc.lft.to/lastmile_qr_scan"}, "is_disabled": 0, "fusion_lat": 0.0, "lat": 38.91812566666667, "is_reserved": 0}, {"lon": -76.94704083333333, "fusion_lon": 0.0, "bike_id": "bae1b51b27b6d275704670a85e737669", "type": "electric_scooter", "name": "bae1b51b27b6d275704670a85e737669", "rental_uris": {"android": "https://dc.lft.to/lastmile_qr_scan", "ios": "https://dc.lft.to/lastmile_qr_scan"}, "is_disabled": 0, "fusion_lat": 0.0, "lat": 38.897291333333335, "is_reserved": 0}, {"lon": -77.054703, "fusion_lon": 0.0, "bike_id": "1418c36491e60e872b0b9221a512f8b4", "type": "electric_scooter", "name": "1418c36491e60e872b0b9221a512f8b4", "rental_uris": {"android": "https://dc.lft.to/lastmile_qr_scan", "ios": "https://dc.lft.to/lastmile_qr_scan"}, "is_disabled": 0, "fusion_lat": 0.0, "lat": 38.90951116666667, "is_reserved": 0}, {"lon": -76.99040016666666, "fusion_lon": 0.0, "bike_id": "538e5fac7e259296b1d39b8bf7319d23", "type": "electric_scooter", "name": "538e5fac7e259296b1d39b8bf7319d23", "rental_uris": {"android": "https://dc.lft.to/lastmile_qr_scan", "ios": "https://dc.lft.to/lastmile_qr_scan"}, "is_disabled": 0, "fusion_lat": 0.0, "lat": 38.863901166666665, "is_reserved": 0}, {"lon": -77.00191616666666, "fusion_lon": 0.0, "bike_id": "22cd3d1f3965804021fc62e097e66d01", "type": "electric_scooter", "name": "22cd3d1f3965804021fc62e097e66d01", "rental_uris": {"android": "https://dc.lft.to/lastmile_qr_scan", "ios": "https://dc.lft.to/lastmile_qr_scan"}, "is_disabled": 0, "fusion_lat": 0.0, "lat": 38.900141, "is_reserved": 0}, {"lon": -77.044069, "fusion_lon": 0.0, "bike_id": "63394d95851538e595aa3d1718302c70", "type": "electric_scooter", "name": "63394d95851538e595aa3d1718302c70", "rental_uris": {"android": "https://dc.lft.to/lastmile_qr_scan", "ios": "https://dc.lft.to/lastmile_qr_scan"}, "is_disabled": 0, "fusion_lat": 0.0, "lat": 38.9295275, "is_reserved": 0}, {"lon": -77.0358785, "fusion_lon": 0.0, "bike_id": "08d92cce1fb348921d5b4f8c7a59ba66", "type": "electric_scooter", "name": "08d92cce1fb348921d5b4f8c7a59ba66", "rental_uris": {"android": "https://dc.lft.to/lastmile_qr_scan", "ios": "https://dc.lft.to/lastmile_qr_scan"}, "is_disabled": 0, "fusion_lat": 0.0, "lat": 38.99225833333333, "is_reserved": 0}, {"lon": -77.0258375, "fusion_lon": 0.0, "bike_id": "783c9412ab9ca5eb9f440804561721af", "type": "electric_scooter", "name": "783c9412ab9ca5eb9f440804561721af", "rental_uris": {"android": "https://dc.lft.to/lastmile_qr_scan", "ios": "https://dc.lft.to/lastmile_qr_scan"}, "is_disabled": 0, "fusion_lat": 0.0, "lat": 38.904195666666666, "is_reserved": 0}, {"lon": -76.990407, "fusion_lon": 0.0, "bike_id": "40c0c96c0ba8e07dba0c474a2fad5a0b", "type": "electric_scooter", "name": "40c0c96c0ba8e07dba0c474a2fad5a0b", "rental_uris": {"android": "https://dc.lft.to/lastmile_qr_scan", "ios": "https://dc.lft.to/lastmile_qr_scan"}, "is_disabled": 0, "fusion_lat": 0.0, "lat": 38.8638995, "is_reserved": 0}, {"lon": -77.02347183333333, "fusion_lon": 0.0, "bike_id": "704b9c233458c4989e2ea54ecbfe5b1e", "type": "electric_scooter", "name": "704b9c233458c4989e2ea54ecbfe5b1e", "rental_uris": {"android": "https://dc.lft.to/lastmile_qr_scan", "ios": "https://dc.lft.to/lastmile_qr_scan"}, "is_disabled": 0, "fusion_lat": 0.0, "lat": 38.90849266666667, "is_reserved": 0}, {"lon": -77.03385583333333, "fusion_lon": 0.0, "bike_id": "532a07572f49f05837e9db82be04ca30", "type": "electric_scooter", "name": "532a07572f49f05837e9db82be04ca30", "rental_uris": {"android": "https://dc.lft.to/lastmile_qr_scan", "ios": "https://dc.lft.to/lastmile_qr_scan"}, "is_disabled": 0, "fusion_lat": 0.0, "lat": 38.923597666666666, "is_reserved": 0}, {"lon": -77.03321066666666, "fusion_lon": 0.0, "bike_id": "fb2642f6a3060506284ee47a7ddd3314", "type": "electric_scooter", "name": "fb2642f6a3060506284ee47a7ddd3314", "rental_uris": {"android": "https://dc.lft.to/lastmile_qr_scan", "ios": "https://dc.lft.to/lastmile_qr_scan"}, "is_disabled": 0, "fusion_lat": 0.0, "lat": 38.938926333333335, "is_reserved": 0}, {"lon": -77.007084, "fusion_lon": 0.0, "bike_id": "599c18aae5b3959e5f65bfefc2a7d4a6", "type": "electric_scooter", "name": "599c18aae5b3959e5f65bfefc2a7d4a6", "rental_uris": {"android": "https://dc.lft.to/lastmile_qr_scan", "ios": "https://dc.lft.to/lastmile_qr_scan"}, "is_disabled": 0, "fusion_lat": 0.0, "lat": 38.884925833333334, "is_reserved": 0}, {"lon": -77.04406916666667, "fusion_lon": 0.0, "bike_id": "41c3a097fac3f2615ea1e31f9888bfca", "type": "electric_scooter", "name": "41c3a097fac3f2615ea1e31f9888bfca", "rental_uris": {"android": "https://dc.lft.to/lastmile_qr_scan", "ios": "https://dc.lft.to/lastmile_qr_scan"}, "is_disabled": 0, "fusion_lat": 0.0, "lat": 38.934219, "is_reserved": 0}, {"lon": -77.03328783333333, "fusion_lon": 0.0, "bike_id": "9c76236c91b51506c026495b12a5f18b", "type": "electric_scooter", "name": "9c76236c91b51506c026495b12a5f18b", "rental_uris": {"android": "https://dc.lft.to/lastmile_qr_scan", "ios": "https://dc.lft.to/lastmile_qr_scan"}, "is_disabled": 0, "fusion_lat": 0.0, "lat": 38.8982295, "is_reserved": 0}, {"lon": -77.01984166666666, "fusion_lon": 0.0, "bike_id": "f603bf39dcc246279d8329968db51c7a", "type": "electric_scooter", "name": "f603bf39dcc246279d8329968db51c7a", "rental_uris": {"android": "https://dc.lft.to/lastmile_qr_scan", "ios": "https://dc.lft.to/lastmile_qr_scan"}, "is_disabled": 0, "fusion_lat": 0.0, "lat": 38.9050175, "is_reserved": 0}, {"lon": -77.02053833333333, "fusion_lon": 0.0, "bike_id": "e49f540042f7fddfb94700beebea70c7", "type": "electric_scooter", "name": "e49f540042f7fddfb94700beebea70c7", "rental_uris": {"android": "https://dc.lft.to/lastmile_qr_scan", "ios": "https://dc.lft.to/lastmile_qr_scan"}, "is_disabled": 0, "fusion_lat": 0.0, "lat": 38.92330883333333, "is_reserved": 0}, {"lon": -77.03281083333333, "fusion_lon": 0.0, "bike_id": "6540fc067876c99da9158fc87b5904b4", "type": "electric_scooter", "name": "6540fc067876c99da9158fc87b5904b4", "rental_uris": {"android": "https://dc.lft.to/lastmile_qr_scan", "ios": "https://dc.lft.to/lastmile_qr_scan"}, "is_disabled": 0, "fusion_lat": 0.0, "lat": 38.901523833333336, "is_reserved": 0}, {"lon": -77.0322025, "fusion_lon": 0.0, "bike_id": "2685fc8d149e1c8ddcca4c5008aa398b", "type": "electric_scooter", "name": "2685fc8d149e1c8ddcca4c5008aa398b", "rental_uris": {"android": "https://dc.lft.to/lastmile_qr_scan", "ios": "https://dc.lft.to/lastmile_qr_scan"}, "is_disabled": 0, "fusion_lat": 0.0, "lat": 38.914030333333336, "is_reserved": 0}, {"lon": -77.013974, "fusion_lon": 0.0, "bike_id": "8479a7ba57114961423009cf2b1dcac5", "type": "electric_scooter", "name": "8479a7ba57114961423009cf2b1dcac5", "rental_uris": {"android": "https://dc.lft.to/lastmile_qr_scan", "ios": "https://dc.lft.to/lastmile_qr_scan"}, "is_disabled": 0, "fusion_lat": 0.0, "lat": 38.928484, "is_reserved": 0}, {"lon": -77.03099633333333, "fusion_lon": 0.0, "bike_id": "41167641177e1b6a2707a08bb7e2c815", "type": "electric_scooter", "name": "41167641177e1b6a2707a08bb7e2c815", "rental_uris": {"android": "https://dc.lft.to/lastmile_qr_scan", "ios": "https://dc.lft.to/lastmile_qr_scan"}, "is_disabled": 0, "fusion_lat": 0.0, "lat": 38.92380433333334, "is_reserved": 0}, {"lon": -77.0232075, "fusion_lon": 0.0, "bike_id": "07df742096b51ef6daa0e52586f3b393", "type": "electric_bike", "name": "07df742096b51ef6daa0e52586f3b393", "rental_uris": {"android": "https://dc.lft.to/lastmile_qr_scan", "ios": "https://dc.lft.to/lastmile_qr_scan"}, "is_disabled": 0, "fusion_lat": 0.0, "lat": 38.9020855, "is_reserved": 0}, {"lon": -77.02717783333334, "fusion_lon": 0.0, "bike_id": "16549c6ac2cc2c06c9c011f04fdb8186", "type": "electric_scooter", "name": "16549c6ac2cc2c06c9c011f04fdb8186", "rental_uris": {"android": "https://dc.lft.to/lastmile_qr_scan", "ios": "https://dc.lft.to/lastmile_qr_scan"}, "is_disabled": 0, "fusion_lat": 0.0, "lat": 38.92462183333333, "is_reserved": 0}, {"lon": -76.9888075, "fusion_lon": 0.0, "bike_id": "af107cab0d12ff542ce2a5f10d58cabe", "type": "electric_scooter", "name": "af107cab0d12ff542ce2a5f10d58cabe", "rental_uris": {"android": "https://dc.lft.to/lastmile_qr_scan", "ios": "https://dc.lft.to/lastmile_qr_scan"}, "is_disabled": 0, "fusion_lat": 0.0, "lat": 38.86659, "is_reserved": 0}, {"lon": -77.22888233333333, "fusion_lon": 0.0, "bike_id": "2d1d120a7b5b4deec5557aec87380b3f", "type": "electric_bike", "name": "2d1d120a7b5b4deec5557aec87380b3f", "rental_uris": {"android": "https://dc.lft.to/lastmile_qr_scan", "ios": "https://dc.lft.to/lastmile_qr_scan"}, "is_disabled": 0, "fusion_lat": 0.0, "lat": 38.9096035, "is_reserved": 0}, {"lon": -76.9783195, "fusion_lon": 0.0, "bike_id": "c573774a7c9cc07a9ba54987d7a7cf74", "type": "electric_scooter", "name": "c573774a7c9cc07a9ba54987d7a7cf74", "rental_uris": {"android": "https://dc.lft.to/lastmile_qr_scan", "ios": "https://dc.lft.to/lastmile_qr_scan"}, "is_disabled": 0, "fusion_lat": 0.0, "lat": 38.898436, "is_reserved": 0}, {"lon": -77.029702, "fusion_lon": 0.0, "bike_id": "84d14f1f33d59b388880944ee31f8376", "type": "electric_scooter", "name": "84d14f1f33d59b388880944ee31f8376", "rental_uris": {"android": "https://dc.lft.to/lastmile_qr_scan", "ios": "https://dc.lft.to/lastmile_qr_scan"}, "is_disabled": 0, "fusion_lat": 0.0, "lat": 38.923403, "is_reserved": 0}, {"lon": -77.0328225, "fusion_lon": 0.0, "bike_id": "22b22b9db9addb7ac8d9489b3cc5faed", "type": "electric_scooter", "name": "22b22b9db9addb7ac8d9489b3cc5faed", "rental_uris": {"android": "https://dc.lft.to/lastmile_qr_scan", "ios": "https://dc.lft.to/lastmile_qr_scan"}, "is_disabled": 0, "fusion_lat": 0.0, "lat": 38.937724, "is_reserved": 0}, {"lon": -77.036659, "fusion_lon": 0.0, "bike_id": "3cb2a71ccd8793f4a077c72f8c3b50e8", "type": "electric_scooter", "name": "3cb2a71ccd8793f4a077c72f8c3b50e8", "rental_uris": {"android": "https://dc.lft.to/lastmile_qr_scan", "ios": "https://dc.lft.to/lastmile_qr_scan"}, "is_disabled": 0, "fusion_lat": 0.0, "lat": 38.91133466666667, "is_reserved": 0}, {"lon": -77.037134, "fusion_lon": 0.0, "bike_id": "e25d1f0b3b4eb8869b02f556b4bb9843", "type": "electric_scooter", "name": "e25d1f0b3b4eb8869b02f556b4bb9843", "rental_uris": {"android": "https://dc.lft.to/lastmile_qr_scan", "ios": "https://dc.lft.to/lastmile_qr_scan"}, "is_disabled": 0, "fusion_lat": 0.0, "lat": 38.92861116666667, "is_reserved": 0}, {"lon": -77.02115016666667, "fusion_lon": 0.0, "bike_id": "5346f9d719ecc8ecb9aaa495a1394ca1", "type": "electric_bike", "name": "5346f9d719ecc8ecb9aaa495a1394ca1", "rental_uris": {"android": "https://dc.lft.to/lastmile_qr_scan", "ios": "https://dc.lft.to/lastmile_qr_scan"}, "is_disabled": 0, "fusion_lat": 0.0, "lat": 38.93598933333333, "is_reserved": 0}, {"lon": -77.0382805, "fusion_lon": 0.0, "bike_id": "7d1e2f5d57a0b7edb0188a31b5ad9f8b", "type": "electric_scooter", "name": "7d1e2f5d57a0b7edb0188a31b5ad9f8b", "rental_uris": {"android": "https://dc.lft.to/lastmile_qr_scan", "ios": "https://dc.lft.to/lastmile_qr_scan"}, "is_disabled": 0, "fusion_lat": 0.0, "lat": 38.911156, "is_reserved": 0}, {"lon": -77.02460816666667, "fusion_lon": 0.0, "bike_id": "34e9aa97763bdc5cc80bcffd3718c66c", "type": "electric_scooter", "name": "34e9aa97763bdc5cc80bcffd3718c66c", "rental_uris": {"android": "https://dc.lft.to/lastmile_qr_scan", "ios": "https://dc.lft.to/lastmile_qr_scan"}, "is_disabled": 0, "fusion_lat": 0.0, "lat": 38.91708416666667, "is_reserved": 0}, {"lon": -76.98714766666667, "fusion_lon": 0.0, "bike_id": "067c1904cfbb6c46435cec6876a7639d", "type": "electric_scooter", "name": "067c1904cfbb6c46435cec6876a7639d", "rental_uris": {"android": "https://dc.lft.to/lastmile_qr_scan", "ios": "https://dc.lft.to/lastmile_qr_scan"}, "is_disabled": 0, "fusion_lat": 0.0, "lat": 38.86626666666667, "is_reserved": 0}, {"lon": -77.03208783333334, "fusion_lon": 0.0, "bike_id": "bbf4dcfe85135c3550ab94bd38aa8246", "type": "electric_scooter", "name": "bbf4dcfe85135c3550ab94bd38aa8246", "rental_uris": {"android": "https://dc.lft.to/lastmile_qr_scan", "ios": "https://dc.lft.to/lastmile_qr_scan"}, "is_disabled": 0, "fusion_lat": 0.0, "lat": 38.89231433333333, "is_reserved": 0}, {"lon": -76.99821933333334, "fusion_lon": 0.0, "bike_id": "fc8cc6db92c31d95947b774dc8ef062a", "type": "electric_bike", "name": "fc8cc6db92c31d95947b774dc8ef062a", "rental_uris": {"android": "https://dc.lft.to/lastmile_qr_scan", "ios": "https://dc.lft.to/lastmile_qr_scan"}, "is_disabled": 0, "fusion_lat": 0.0, "lat": 38.81989466666667, "is_reserved": 0}, {"lon": -77.03331916666667, "fusion_lon": 0.0, "bike_id": "6a1bb61eecc06db2242e7de23d91e7e5", "type": "electric_scooter", "name": "6a1bb61eecc06db2242e7de23d91e7e5", "rental_uris": {"android": "https://dc.lft.to/lastmile_qr_scan", "ios": "https://dc.lft.to/lastmile_qr_scan"}, "is_disabled": 0, "fusion_lat": 0.0, "lat": 38.928837, "is_reserved": 0}, {"lon": -77.01974216666666, "fusion_lon": 0.0, "bike_id": "9385db0b070f0a8a31499532825d827b", "type": "electric_scooter", "name": "9385db0b070f0a8a31499532825d827b", "rental_uris": {"android": "https://dc.lft.to/lastmile_qr_scan", "ios": "https://dc.lft.to/lastmile_qr_scan"}, "is_disabled": 0, "fusion_lat": 0.0, "lat": 38.977493833333334, "is_reserved": 0}, {"lon": -76.99065316666666, "fusion_lon": 0.0, "bike_id": "b9ed93d62ccd0fbd43220d4619c2eb4d", "type": "electric_scooter", "name": "b9ed93d62ccd0fbd43220d4619c2eb4d", "rental_uris": {"android": "https://dc.lft.to/lastmile_qr_scan", "ios": "https://dc.lft.to/lastmile_qr_scan"}, "is_disabled": 0, "fusion_lat": 0.0, "lat": 38.863723666666665, "is_reserved": 0}, {"lon": -76.949629, "fusion_lon": 0.0, "bike_id": "ee31f57b95cbadc2a40f286756a38e10", "type": "electric_scooter", "name": "ee31f57b95cbadc2a40f286756a38e10", "rental_uris": {"android": "https://dc.lft.to/lastmile_qr_scan", "ios": "https://dc.lft.to/lastmile_qr_scan"}, "is_disabled": 0, "fusion_lat": 0.0, "lat": 38.89465883333333, "is_reserved": 0}, {"lon": -76.99256966666667, "fusion_lon": 0.0, "bike_id": "3e4b55a675312eb4180a172de3a5e116", "type": "electric_scooter", "name": "3e4b55a675312eb4180a172de3a5e116", "rental_uris": {"android": "https://dc.lft.to/lastmile_qr_scan", "ios": "https://dc.lft.to/lastmile_qr_scan"}, "is_disabled": 0, "fusion_lat": 0.0, "lat": 38.89271983333333, "is_reserved": 0}, {"lon": -76.99548416666667, "fusion_lon": 0.0, "bike_id": "8bb203985f2099047bf3ae6a613a105a", "type": "electric_bike", "name": "8bb203985f2099047bf3ae6a613a105a", "rental_uris": {"android": "https://dc.lft.to/lastmile_qr_scan", "ios": "https://dc.lft.to/lastmile_qr_scan"}, "is_disabled": 0, "fusion_lat": 0.0, "lat": 38.83158683333333, "is_reserved": 0}, {"lon": -77.0222415, "fusion_lon": 0.0, "bike_id": "119884c1a61245eede9aa441d0c13f32", "type": "electric_scooter", "name": "119884c1a61245eede9aa441d0c13f32", "rental_uris": {"android": "https://dc.lft.to/lastmile_qr_scan", "ios": "https://dc.lft.to/lastmile_qr_scan"}, "is_disabled": 0, "fusion_lat": 0.0, "lat": 38.9141695, "is_reserved": 0}, {"lon": -77.03952616666666, "fusion_lon": 0.0, "bike_id": "17f427a45959e6d5aa8e78cdcfb94d2f", "type": "electric_scooter", "name": "17f427a45959e6d5aa8e78cdcfb94d2f", "rental_uris": {"android": "https://dc.lft.to/lastmile_qr_scan", "ios": "https://dc.lft.to/lastmile_qr_scan"}, "is_disabled": 0, "fusion_lat": 0.0, "lat": 38.90293533333333, "is_reserved": 0}, {"lon": -77.04839516666667, "fusion_lon": 0.0, "bike_id": "174833f84462eaf3e5c1217c8fd4724c", "type": "electric_scooter", "name": "174833f84462eaf3e5c1217c8fd4724c", "rental_uris": {"android": "https://dc.lft.to/lastmile_qr_scan", "ios": "https://dc.lft.to/lastmile_qr_scan"}, "is_disabled": 0, "fusion_lat": 0.0, "lat": 38.911724666666665, "is_reserved": 0}, {"lon": -77.0335825, "fusion_lon": 0.0, "bike_id": "bfdd6f8d5103f773e363a9d4c2c0dfdb", "type": "electric_scooter", "name": "bfdd6f8d5103f773e363a9d4c2c0dfdb", "rental_uris": {"android": "https://dc.lft.to/lastmile_qr_scan", "ios": "https://dc.lft.to/lastmile_qr_scan"}, "is_disabled": 0, "fusion_lat": 0.0, "lat": 38.93831083333333, "is_reserved": 0}, {"lon": -77.02277916666667, "fusion_lon": 0.0, "bike_id": "86d196cd02d9ef44db0e7f4fe4e4852f", "type": "electric_scooter", "name": "86d196cd02d9ef44db0e7f4fe4e4852f", "rental_uris": {"android": "https://dc.lft.to/lastmile_qr_scan", "ios": "https://dc.lft.to/lastmile_qr_scan"}, "is_disabled": 0, "fusion_lat": 0.0, "lat": 38.9272485, "is_reserved": 0}, {"lon": -77.02410266666666, "fusion_lon": 0.0, "bike_id": "7064f491598fec3a5244d52e7fed53e0", "type": "electric_scooter", "name": "7064f491598fec3a5244d52e7fed53e0", "rental_uris": {"android": "https://dc.lft.to/lastmile_qr_scan", "ios": "https://dc.lft.to/lastmile_qr_scan"}, "is_disabled": 0, "fusion_lat": 0.0, "lat": 38.905742000000004, "is_reserved": 0}, {"lon": -77.02372233333334, "fusion_lon": 0.0, "bike_id": "cf61d9c66c2e61e1719d8a2fed639980", "type": "electric_scooter", "name": "cf61d9c66c2e61e1719d8a2fed639980", "rental_uris": {"android": "https://dc.lft.to/lastmile_qr_scan", "ios": "https://dc.lft.to/lastmile_qr_scan"}, "is_disabled": 0, "fusion_lat": 0.0, "lat": 38.90202416666666, "is_reserved": 0}, {"lon": -76.96529133333334, "fusion_lon": 0.0, "bike_id": "848db4ca5e65a691b3bd7b6da942e6ba", "type": "electric_scooter", "name": "848db4ca5e65a691b3bd7b6da942e6ba", "rental_uris": {"android": "https://dc.lft.to/lastmile_qr_scan", "ios": "https://dc.lft.to/lastmile_qr_scan"}, "is_disabled": 0, "fusion_lat": 0.0, "lat": 38.876273, "is_reserved": 0}, {"lon": -77.02196766666667, "fusion_lon": 0.0, "bike_id": "1b74ffa749d03eab8ab3e79b2fe4eb61", "type": "electric_scooter", "name": "1b74ffa749d03eab8ab3e79b2fe4eb61", "rental_uris": {"android": "https://dc.lft.to/lastmile_qr_scan", "ios": "https://dc.lft.to/lastmile_qr_scan"}, "is_disabled": 0, "fusion_lat": 0.0, "lat": 38.89521116666667, "is_reserved": 0}, {"lon": -77.0331085, "fusion_lon": 0.0, "bike_id": "c8d601fea8a62f9b0f64cc420bef2305", "type": "electric_scooter", "name": "c8d601fea8a62f9b0f64cc420bef2305", "rental_uris": {"android": "https://dc.lft.to/lastmile_qr_scan", "ios": "https://dc.lft.to/lastmile_qr_scan"}, "is_disabled": 0, "fusion_lat": 0.0, "lat": 38.911040166666666, "is_reserved": 0}, {"lon": -77.01210583333334, "fusion_lon": 0.0, "bike_id": "01cc0c86bc972332b1f479559a576fe3", "type": "electric_scooter", "name": "01cc0c86bc972332b1f479559a576fe3", "rental_uris": {"android": "https://dc.lft.to/lastmile_qr_scan", "ios": "https://dc.lft.to/lastmile_qr_scan"}, "is_disabled": 0, "fusion_lat": 0.0, "lat": 38.874722166666665, "is_reserved": 0}, {"lon": -77.06333983333333, "fusion_lon": 0.0, "bike_id": "4250ad8c31c66d26eede185aa22f11d7", "type": "electric_scooter", "name": "4250ad8c31c66d26eede185aa22f11d7", "rental_uris": {"android": "https://dc.lft.to/lastmile_qr_scan", "ios": "https://dc.lft.to/lastmile_qr_scan"}, "is_disabled": 0, "fusion_lat": 0.0, "lat": 38.921070666666665, "is_reserved": 0}, {"lon": -77.009141, "fusion_lon": 0.0, "bike_id": "37384acf8987acc324bb664b00a3e496", "type": "electric_scooter", "name": "37384acf8987acc324bb664b00a3e496", "rental_uris": {"android": "https://dc.lft.to/lastmile_qr_scan", "ios": "https://dc.lft.to/lastmile_qr_scan"}, "is_disabled": 0, "fusion_lat": 0.0, "lat": 38.9227545, "is_reserved": 0}, {"lon": -77.04272283333333, "fusion_lon": 0.0, "bike_id": "d7e6700989e3be40a2476df30cf2cd14", "type": "electric_scooter", "name": "d7e6700989e3be40a2476df30cf2cd14", "rental_uris": {"android": "https://dc.lft.to/lastmile_qr_scan", "ios": "https://dc.lft.to/lastmile_qr_scan"}, "is_disabled": 0, "fusion_lat": 0.0, "lat": 38.925444, "is_reserved": 0}, {"lon": -77.046941, "fusion_lon": 0.0, "bike_id": "f99a0a03b444b20d869f460cff10e195", "type": "electric_scooter", "name": "f99a0a03b444b20d869f460cff10e195", "rental_uris": {"android": "https://dc.lft.to/lastmile_qr_scan", "ios": "https://dc.lft.to/lastmile_qr_scan"}, "is_disabled": 0, "fusion_lat": 0.0, "lat": 38.92177383333333, "is_reserved": 0}, {"lon": -77.04273333333333, "fusion_lon": 0.0, "bike_id": "7f283f5c9ed461965577e46fcad70930", "type": "electric_scooter", "name": "7f283f5c9ed461965577e46fcad70930", "rental_uris": {"android": "https://dc.lft.to/lastmile_qr_scan", "ios": "https://dc.lft.to/lastmile_qr_scan"}, "is_disabled": 0, "fusion_lat": 0.0, "lat": 38.9073945, "is_reserved": 0}, {"lon": -77.03567916666667, "fusion_lon": 0.0, "bike_id": "d9758bc84538914553cf87ac966d7263", "type": "electric_scooter", "name": "d9758bc84538914553cf87ac966d7263", "rental_uris": {"android": "https://dc.lft.to/lastmile_qr_scan", "ios": "https://dc.lft.to/lastmile_qr_scan"}, "is_disabled": 0, "fusion_lat": 0.0, "lat": 38.926958, "is_reserved": 0}, {"lon": -76.98381666666667, "fusion_lon": 0.0, "bike_id": "7cb60a9940589b8d2056c32316f5c3eb", "type": "electric_scooter", "name": "7cb60a9940589b8d2056c32316f5c3eb", "rental_uris": {"android": "https://dc.lft.to/lastmile_qr_scan", "ios": "https://dc.lft.to/lastmile_qr_scan"}, "is_disabled": 0, "fusion_lat": 0.0, "lat": 38.9064465, "is_reserved": 0}, {"lon": -77.03175933333333, "fusion_lon": 0.0, "bike_id": "310fb18c7c8c09ba9d128f2d85223e96", "type": "electric_scooter", "name": "310fb18c7c8c09ba9d128f2d85223e96", "rental_uris": {"android": "https://dc.lft.to/lastmile_qr_scan", "ios": "https://dc.lft.to/lastmile_qr_scan"}, "is_disabled": 0, "fusion_lat": 0.0, "lat": 38.9175485, "is_reserved": 0}, {"lon": -76.98656533333333, "fusion_lon": 0.0, "bike_id": "ec79fd9775e445df3e40a4e98a967ab4", "type": "electric_scooter", "name": "ec79fd9775e445df3e40a4e98a967ab4", "rental_uris": {"android": "https://dc.lft.to/lastmile_qr_scan", "ios": "https://dc.lft.to/lastmile_qr_scan"}, "is_disabled": 0, "fusion_lat": 0.0, "lat": 38.8580695, "is_reserved": 0}, {"lon": -77.07885383333333, "fusion_lon": 0.0, "bike_id": "efa45d5ff6747beb72d2aae56ee5023d", "type": "electric_bike", "name": "efa45d5ff6747beb72d2aae56ee5023d", "rental_uris": {"android": "https://dc.lft.to/lastmile_qr_scan", "ios": "https://dc.lft.to/lastmile_qr_scan"}, "is_disabled": 0, "fusion_lat": 0.0, "lat": 38.84253616666667, "is_reserved": 0}, {"lon": -77.05012816666667, "fusion_lon": 0.0, "bike_id": "7595aa99b31b145f9a3d3960f7582aea", "type": "electric_scooter", "name": "7595aa99b31b145f9a3d3960f7582aea", "rental_uris": {"android": "https://dc.lft.to/lastmile_qr_scan", "ios": "https://dc.lft.to/lastmile_qr_scan"}, "is_disabled": 0, "fusion_lat": 0.0, "lat": 38.897500666666666, "is_reserved": 0}, {"lon": -76.96259633333334, "fusion_lon": 0.0, "bike_id": "3593ef257a95dd39a06080d812e0c178", "type": "electric_bike", "name": "3593ef257a95dd39a06080d812e0c178", "rental_uris": {"android": "https://dc.lft.to/lastmile_qr_scan", "ios": "https://dc.lft.to/lastmile_qr_scan"}, "is_disabled": 0, "fusion_lat": 0.0, "lat": 38.8824655, "is_reserved": 0}, {"lon": -76.97761966666667, "fusion_lon": 0.0, "bike_id": "83c04549c962e7b7c4e3a56931b035d6", "type": "electric_scooter", "name": "83c04549c962e7b7c4e3a56931b035d6", "rental_uris": {"android": "https://dc.lft.to/lastmile_qr_scan", "ios": "https://dc.lft.to/lastmile_qr_scan"}, "is_disabled": 0, "fusion_lat": 0.0, "lat": 38.9285855, "is_reserved": 0}, {"lon": -77.0121245, "fusion_lon": 0.0, "bike_id": "45299dbc65531d91f90726728211f39a", "type": "electric_scooter", "name": "45299dbc65531d91f90726728211f39a", "rental_uris": {"android": "https://dc.lft.to/lastmile_qr_scan", "ios": "https://dc.lft.to/lastmile_qr_scan"}, "is_disabled": 0, "fusion_lat": 0.0, "lat": 38.9211795, "is_reserved": 0}, {"lon": -76.98089366666666, "fusion_lon": 0.0, "bike_id": "7df29280cb003b91807892093649fa7f", "type": "electric_scooter", "name": "7df29280cb003b91807892093649fa7f", "rental_uris": {"android": "https://dc.lft.to/lastmile_qr_scan", "ios": "https://dc.lft.to/lastmile_qr_scan"}, "is_disabled": 0, "fusion_lat": 0.0, "lat": 38.92246333333333, "is_reserved": 0}, {"lon": -76.99502716666667, "fusion_lon": 0.0, "bike_id": "273fdd2879dd2d46ac017154d48f4036", "type": "electric_scooter", "name": "273fdd2879dd2d46ac017154d48f4036", "rental_uris": {"android": "https://dc.lft.to/lastmile_qr_scan", "ios": "https://dc.lft.to/lastmile_qr_scan"}, "is_disabled": 0, "fusion_lat": 0.0, "lat": 38.90979866666667, "is_reserved": 0}, {"lon": -77.03387666666667, "fusion_lon": 0.0, "bike_id": "94da0cbf4d12f8d0f40bd37e2a0bdd03", "type": "electric_scooter", "name": "94da0cbf4d12f8d0f40bd37e2a0bdd03", "rental_uris": {"android": "https://dc.lft.to/lastmile_qr_scan", "ios": "https://dc.lft.to/lastmile_qr_scan"}, "is_disabled": 0, "fusion_lat": 0.0, "lat": 38.921564833333335, "is_reserved": 0}, {"lon": -77.03441533333333, "fusion_lon": 0.0, "bike_id": "8d30ce484a2d2f2198d7b2737c54e6bb", "type": "electric_scooter", "name": "8d30ce484a2d2f2198d7b2737c54e6bb", "rental_uris": {"android": "https://dc.lft.to/lastmile_qr_scan", "ios": "https://dc.lft.to/lastmile_qr_scan"}, "is_disabled": 0, "fusion_lat": 0.0, "lat": 38.90270966666667, "is_reserved": 0}, {"lon": -77.00786116666667, "fusion_lon": 0.0, "bike_id": "b095ba7a47ebf25ed6f048bba9d55b15", "type": "electric_scooter", "name": "b095ba7a47ebf25ed6f048bba9d55b15", "rental_uris": {"android": "https://dc.lft.to/lastmile_qr_scan", "ios": "https://dc.lft.to/lastmile_qr_scan"}, "is_disabled": 0, "fusion_lat": 0.0, "lat": 38.907304, "is_reserved": 0}, {"lon": -77.0319515, "fusion_lon": 0.0, "bike_id": "e6a3ae3305252248053eaca3060ee186", "type": "electric_scooter", "name": "e6a3ae3305252248053eaca3060ee186", "rental_uris": {"android": "https://dc.lft.to/lastmile_qr_scan", "ios": "https://dc.lft.to/lastmile_qr_scan"}, "is_disabled": 0, "fusion_lat": 0.0, "lat": 38.91000433333333, "is_reserved": 0}, {"lon": -77.032615, "fusion_lon": 0.0, "bike_id": "533c49855130ebb8e82d00684d78965b", "type": "electric_scooter", "name": "533c49855130ebb8e82d00684d78965b", "rental_uris": {"android": "https://dc.lft.to/lastmile_qr_scan", "ios": "https://dc.lft.to/lastmile_qr_scan"}, "is_disabled": 0, "fusion_lat": 0.0, "lat": 38.901559, "is_reserved": 0}, {"lon": -76.99599716666667, "fusion_lon": 0.0, "bike_id": "54143bffb88608321873c914be256d09", "type": "electric_scooter", "name": "54143bffb88608321873c914be256d09", "rental_uris": {"android": "https://dc.lft.to/lastmile_qr_scan", "ios": "https://dc.lft.to/lastmile_qr_scan"}, "is_disabled": 0, "fusion_lat": 0.0, "lat": 38.85689283333333, "is_reserved": 0}, {"lon": -77.0235285, "fusion_lon": 0.0, "bike_id": "b8919712d6d69d28e581895ed721b4e3", "type": "electric_scooter", "name": "b8919712d6d69d28e581895ed721b4e3", "rental_uris": {"android": "https://dc.lft.to/lastmile_qr_scan", "ios": "https://dc.lft.to/lastmile_qr_scan"}, "is_disabled": 0, "fusion_lat": 0.0, "lat": 38.893922, "is_reserved": 0}, {"lon": -76.93378683333333, "fusion_lon": 0.0, "bike_id": "82adeff2c37ab30a09c179ec4c4a40ae", "type": "electric_scooter", "name": "82adeff2c37ab30a09c179ec4c4a40ae", "rental_uris": {"android": "https://dc.lft.to/lastmile_qr_scan", "ios": "https://dc.lft.to/lastmile_qr_scan"}, "is_disabled": 0, "fusion_lat": 0.0, "lat": 38.89902716666667, "is_reserved": 0}, {"lon": -77.00461, "fusion_lon": 0.0, "bike_id": "93c00ab4a05acc2c809b7152dc7ad729", "type": "electric_bike", "name": "93c00ab4a05acc2c809b7152dc7ad729", "rental_uris": {"android": "https://dc.lft.to/lastmile_qr_scan", "ios": "https://dc.lft.to/lastmile_qr_scan"}, "is_disabled": 0, "fusion_lat": 0.0, "lat": 38.91194016666667, "is_reserved": 0}, {"lon": -77.04164466666667, "fusion_lon": 0.0, "bike_id": "e95d575c97643e30cdc50af8b314ec74", "type": "electric_scooter", "name": "e95d575c97643e30cdc50af8b314ec74", "rental_uris": {"android": "https://dc.lft.to/lastmile_qr_scan", "ios": "https://dc.lft.to/lastmile_qr_scan"}, "is_disabled": 0, "fusion_lat": 0.0, "lat": 38.91900116666667, "is_reserved": 0}, {"lon": -77.00064516666667, "fusion_lon": 0.0, "bike_id": "b47b8cadf1b6d2bd32b520698681a9ec", "type": "electric_scooter", "name": "b47b8cadf1b6d2bd32b520698681a9ec", "rental_uris": {"android": "https://dc.lft.to/lastmile_qr_scan", "ios": "https://dc.lft.to/lastmile_qr_scan"}, "is_disabled": 0, "fusion_lat": 0.0, "lat": 38.8388775, "is_reserved": 0}, {"lon": -77.0694975, "fusion_lon": 0.0, "bike_id": "44be6d9f6c7bc7659647523e8e9a2b3f", "type": "electric_bike", "name": "44be6d9f6c7bc7659647523e8e9a2b3f", "rental_uris": {"android": "https://dc.lft.to/lastmile_qr_scan", "ios": "https://dc.lft.to/lastmile_qr_scan"}, "is_disabled": 0, "fusion_lat": 0.0, "lat": 38.99524816666667, "is_reserved": 0}, {"lon": -77.04250633333334, "fusion_lon": 0.0, "bike_id": "464467ed19287318dea3e354aa4d21f4", "type": "electric_scooter", "name": "464467ed19287318dea3e354aa4d21f4", "rental_uris": {"android": "https://dc.lft.to/lastmile_qr_scan", "ios": "https://dc.lft.to/lastmile_qr_scan"}, "is_disabled": 0, "fusion_lat": 0.0, "lat": 38.9224625, "is_reserved": 0}, {"lon": -77.0271235, "fusion_lon": 0.0, "bike_id": "d85d58f5145a28bafde3fe38aea67f86", "type": "electric_scooter", "name": "d85d58f5145a28bafde3fe38aea67f86", "rental_uris": {"android": "https://dc.lft.to/lastmile_qr_scan", "ios": "https://dc.lft.to/lastmile_qr_scan"}, "is_disabled": 0, "fusion_lat": 0.0, "lat": 38.91718433333333, "is_reserved": 0}, {"lon": -77.02978116666667, "fusion_lon": 0.0, "bike_id": "91d9966564c18528639d1eb1aad4b78f", "type": "electric_scooter", "name": "91d9966564c18528639d1eb1aad4b78f", "rental_uris": {"android": "https://dc.lft.to/lastmile_qr_scan", "ios": "https://dc.lft.to/lastmile_qr_scan"}, "is_disabled": 0, "fusion_lat": 0.0, "lat": 38.91781833333334, "is_reserved": 0}, {"lon": -76.9340375, "fusion_lon": 0.0, "bike_id": "3d01925e9ea6a6ab7c26b8f47fa6d603", "type": "electric_scooter", "name": "3d01925e9ea6a6ab7c26b8f47fa6d603", "rental_uris": {"android": "https://dc.lft.to/lastmile_qr_scan", "ios": "https://dc.lft.to/lastmile_qr_scan"}, "is_disabled": 0, "fusion_lat": 0.0, "lat": 38.898951333333336, "is_reserved": 0}, {"lon": -77.03445766666667, "fusion_lon": 0.0, "bike_id": "9ef8fa1dbacdf7ad80f757b925b1870a", "type": "electric_scooter", "name": "9ef8fa1dbacdf7ad80f757b925b1870a", "rental_uris": {"android": "https://dc.lft.to/lastmile_qr_scan", "ios": "https://dc.lft.to/lastmile_qr_scan"}, "is_disabled": 0, "fusion_lat": 0.0, "lat": 38.90979266666667, "is_reserved": 0}, {"lon": -77.0248875, "fusion_lon": 0.0, "bike_id": "5112c53a0d01351d7d8a6182385ea506", "type": "electric_scooter", "name": "5112c53a0d01351d7d8a6182385ea506", "rental_uris": {"android": "https://dc.lft.to/lastmile_qr_scan", "ios": "https://dc.lft.to/lastmile_qr_scan"}, "is_disabled": 0, "fusion_lat": 0.0, "lat": 38.941847, "is_reserved": 0}, {"lon": -77.03409083333334, "fusion_lon": 0.0, "bike_id": "654e2ce0daec7a3dd9b0e3916d73fefc", "type": "electric_scooter", "name": "654e2ce0daec7a3dd9b0e3916d73fefc", "rental_uris": {"android": "https://dc.lft.to/lastmile_qr_scan", "ios": "https://dc.lft.to/lastmile_qr_scan"}, "is_disabled": 0, "fusion_lat": 0.0, "lat": 38.903738833333335, "is_reserved": 0}, {"lon": -77.01868883333333, "fusion_lon": 0.0, "bike_id": "1f6966c912d99bf55dc6f8206c250880", "type": "electric_scooter", "name": "1f6966c912d99bf55dc6f8206c250880", "rental_uris": {"android": "https://dc.lft.to/lastmile_qr_scan", "ios": "https://dc.lft.to/lastmile_qr_scan"}, "is_disabled": 0, "fusion_lat": 0.0, "lat": 38.89971716666667, "is_reserved": 0}, {"lon": -76.987779, "fusion_lon": 0.0, "bike_id": "7055dfd68e2889b360af23effb6258bf", "type": "electric_scooter", "name": "7055dfd68e2889b360af23effb6258bf", "rental_uris": {"android": "https://dc.lft.to/lastmile_qr_scan", "ios": "https://dc.lft.to/lastmile_qr_scan"}, "is_disabled": 0, "fusion_lat": 0.0, "lat": 38.9001745, "is_reserved": 0}, {"lon": -77.02407, "fusion_lon": 0.0, "bike_id": "3b32e9f0714e4df30fee8765850de1d9", "type": "electric_scooter", "name": "3b32e9f0714e4df30fee8765850de1d9", "rental_uris": {"android": "https://dc.lft.to/lastmile_qr_scan", "ios": "https://dc.lft.to/lastmile_qr_scan"}, "is_disabled": 0, "fusion_lat": 0.0, "lat": 38.93701316666667, "is_reserved": 0}, {"lon": -76.99775833333334, "fusion_lon": 0.0, "bike_id": "62189effdb0bdef54e160cd0769d6807", "type": "electric_scooter", "name": "62189effdb0bdef54e160cd0769d6807", "rental_uris": {"android": "https://dc.lft.to/lastmile_qr_scan", "ios": "https://dc.lft.to/lastmile_qr_scan"}, "is_disabled": 0, "fusion_lat": 0.0, "lat": 38.84436933333333, "is_reserved": 0}, {"lon": -77.04664133333333, "fusion_lon": 0.0, "bike_id": "bbbc4df4b20e84f9159b8344e432e116", "type": "electric_scooter", "name": "bbbc4df4b20e84f9159b8344e432e116", "rental_uris": {"android": "https://dc.lft.to/lastmile_qr_scan", "ios": "https://dc.lft.to/lastmile_qr_scan"}, "is_disabled": 0, "fusion_lat": 0.0, "lat": 38.898776, "is_reserved": 0}, {"lon": -77.02473583333334, "fusion_lon": 0.0, "bike_id": "8de47b8c2185a62bcaa28d7e15332906", "type": "electric_scooter", "name": "8de47b8c2185a62bcaa28d7e15332906", "rental_uris": {"android": "https://dc.lft.to/lastmile_qr_scan", "ios": "https://dc.lft.to/lastmile_qr_scan"}, "is_disabled": 0, "fusion_lat": 0.0, "lat": 38.93100666666667, "is_reserved": 0}, {"lon": -77.0220935, "fusion_lon": 0.0, "bike_id": "fb7d97899e18c51845c3394861dce309", "type": "electric_scooter", "name": "fb7d97899e18c51845c3394861dce309", "rental_uris": {"android": "https://dc.lft.to/lastmile_qr_scan", "ios": "https://dc.lft.to/lastmile_qr_scan"}, "is_disabled": 0, "fusion_lat": 0.0, "lat": 38.896045, "is_reserved": 0}, {"lon": -77.02398266666667, "fusion_lon": 0.0, "bike_id": "7831044a7fc8d8b80b1708fce6ecc27e", "type": "electric_scooter", "name": "7831044a7fc8d8b80b1708fce6ecc27e", "rental_uris": {"android": "https://dc.lft.to/lastmile_qr_scan", "ios": "https://dc.lft.to/lastmile_qr_scan"}, "is_disabled": 0, "fusion_lat": 0.0, "lat": 38.91667833333333, "is_reserved": 0}, {"lon": -77.0356165, "fusion_lon": 0.0, "bike_id": "7b0ce36b5f7f6de3f0cf0bf9b121ab5f", "type": "electric_scooter", "name": "7b0ce36b5f7f6de3f0cf0bf9b121ab5f", "rental_uris": {"android": "https://dc.lft.to/lastmile_qr_scan", "ios": "https://dc.lft.to/lastmile_qr_scan"},