{"data": {"bikes": [{"lon": -77.04769033333334, "rental_uris": {"ios": "https://dc.lft.to/lastmile_qr_scan", "android": "https://dc.lft.to/lastmile_qr_scan"}, "bike_id": "8c1c00c12854b82f3a16f8f5e7438378", "fusion_lon": 0.0, "type": "electric_bike", "fusion_lat": 0.0, "lat": 38.897333, "is_disabled": 0, "name": "8c1c00c12854b82f3a16f8f5e7438378", "is_reserved": 0}, {"lon": -77.045258, "rental_uris": {"ios": "https://dc.lft.to/lastmile_qr_scan", "android": "https://dc.lft.to/lastmile_qr_scan"}, "bike_id": "ac51476abed8764f55d587e90abbe8be", "fusion_lon": 0.0, "type": "electric_scooter", "fusion_lat": 0.0, "lat": 38.89961983333333, "is_disabled": 0, "name": "ac51476abed8764f55d587e90abbe8be", "is_reserved": 0}, {"lon": -77.02819983333333, "rental_uris": {"ios": "https://dc.lft.to/lastmile_qr_scan", "android": "https://dc.lft.to/lastmile_qr_scan"}, "bike_id": "305a6b5378cd38f309068d88e270fa14", "fusion_lon": 0.0, "type": "electric_scooter", "fusion_lat": 0.0, "lat": 38.90260683333333, "is_disabled": 0, "name": "305a6b5378cd38f309068d88e270fa14", "is_reserved": 0}, {"lon": -76.95700933333333, "rental_uris": {"ios": "https://dc.lft.to/lastmile_qr_scan", "android": "https://dc.lft.to/lastmile_qr_scan"}, "bike_id": "34dc7c674af93907fbc5bf983d95b960", "fusion_lon": 0.0, "type": "electric_bike", "fusion_lat": 0.0, "lat": 38.88871066666667, "is_disabled": 0, "name": "34dc7c674af93907fbc5bf983d95b960", "is_reserved": 0}, {"lon": -77.00594783333334, "rental_uris": {"ios": "https://dc.lft.to/lastmile_qr_scan", "android": "https://dc.lft.to/lastmile_qr_scan"}, "bike_id": "8402af93664aeceee698d18b578dafa3", "fusion_lon": 0.0, "type": "electric_scooter", "fusion_lat": 0.0, "lat": 38.8818405, "is_disabled": 0, "name": "8402af93664aeceee698d18b578dafa3", "is_reserved": 0}, {"lon": -77.01196816666666, "rental_uris": {"ios": "https://dc.lft.to/lastmile_qr_scan", "android": "https://dc.lft.to/lastmile_qr_scan"}, "bike_id": "c08f53c7bc87e328b608067cd13ad762", "fusion_lon": 0.0, "type": "electric_scooter", "fusion_lat": 0.0, "lat": 38.91699416666667, "is_disabled": 0, "name": "c08f53c7bc87e328b608067cd13ad762", "is_reserved": 0}, {"lon": -77.017676, "rental_uris": {"ios": "https://dc.lft.to/lastmile_qr_scan", "android": "https://dc.lft.to/lastmile_qr_scan"}, "bike_id": "895cbaee8d05cbda0196c53a895a14e0", "fusion_lon": 0.0, "type": "electric_scooter", "fusion_lat": 0.0, "lat": 38.94041933333333, "is_disabled": 0, "name": "895cbaee8d05cbda0196c53a895a14e0", "is_reserved": 0}, {"lon": -77.05423133333333, "rental_uris": {"ios": "https://dc.lft.to/lastmile_qr_scan", "android": "https://dc.lft.to/lastmile_qr_scan"}, "bike_id": "eb1e9401a356b9593d49965f48611654", "fusion_lon": 0.0, "type": "electric_scooter", "fusion_lat": 0.0, "lat": 38.928399, "is_disabled": 0, "name": "eb1e9401a356b9593d49965f48611654", "is_reserved": 0}, {"lon": -77.03580566666666, "rental_uris": {"ios": "https://dc.lft.to/lastmile_qr_scan", "android": "https://dc.lft.to/lastmile_qr_scan"}, "bike_id": "095df719ef369793d1c52b40a9f190a9", "fusion_lon": 0.0, "type": "electric_scooter", "fusion_lat": 0.0, "lat": 38.9075995, "is_disabled": 0, "name": "095df719ef369793d1c52b40a9f190a9", "is_reserved": 0}, {"lon": -77.02269116666666, "rental_uris": {"ios": "https://dc.lft.to/lastmile_qr_scan", "android": "https://dc.lft.to/lastmile_qr_scan"}, "bike_id": "fa68b0761887ba2284ec27fc3ea126f1", "fusion_lon": 0.0, "type": "electric_scooter", "fusion_lat": 0.0, "lat": 38.92729383333333, "is_disabled": 0, "name": "fa68b0761887ba2284ec27fc3ea126f1", "is_reserved": 0}, {"lon": -77.01959483333333, "rental_uris": {"ios": "https://dc.lft.to/lastmile_qr_scan", "android": "https://dc.lft.to/lastmile_qr_scan"}, "bike_id": "c5ab85bbd64ff7df840c0886ed85c976", "fusion_lon": 0.0, "type": "electric_scooter", "fusion_lat": 0.0, "lat": 38.92331266666667, "is_disabled": 0, "name": "c5ab85bbd64ff7df840c0886ed85c976", "is_reserved": 0}, {"lon": -77.03502783333333, "rental_uris": {"ios": "https://dc.lft.to/lastmile_qr_scan", "android": "https://dc.lft.to/lastmile_qr_scan"}, "bike_id": "630f80398a0c4d25d01acb68c173b5d4", "fusion_lon": 0.0, "type": "electric_scooter", "fusion_lat": 0.0, "lat": 38.9187745, "is_disabled": 0, "name": "630f80398a0c4d25d01acb68c173b5d4", "is_reserved": 0}, {"lon": -77.032622, "rental_uris": {"ios": "https://dc.lft.to/lastmile_qr_scan", "android": "https://dc.lft.to/lastmile_qr_scan"}, "bike_id": "c4ebc7ec13dcb0a6e6761bbb372caeef", "fusion_lon": 0.0, "type": "electric_scooter", "fusion_lat": 0.0, "lat": 38.93750816666667, "is_disabled": 0, "name": "c4ebc7ec13dcb0a6e6761bbb372caeef", "is_reserved": 0}, {"lon": -77.04995933333333, "rental_uris": {"ios": "https://dc.lft.to/lastmile_qr_scan", "android": "https://dc.lft.to/lastmile_qr_scan"}, "bike_id": "5f64537ef3f0cb690b803887c81e4f68", "fusion_lon": 0.0, "type": "electric_bike", "fusion_lat": 0.0, "lat": 38.901077, "is_disabled": 0, "name": "5f64537ef3f0cb690b803887c81e4f68", "is_reserved": 0}, {"lon": -76.95056316666667, "rental_uris": {"ios": "https://dc.lft.to/lastmile_qr_scan", "android": "https://dc.lft.to/lastmile_qr_scan"}, "bike_id": "d2cf2fdae579236cca6de6f79e0cd4da", "fusion_lon": 0.0, "type": "electric_bike", "fusion_lat": 0.0, "lat": 39.0849915, "is_disabled": 0, "name": "d2cf2fdae579236cca6de6f79e0cd4da", "is_reserved": 0}, {"lon": -77.01908016666667, "rental_uris": {"ios": "https://dc.lft.to/lastmile_qr_scan", "android": "https://dc.lft.to/lastmile_qr_scan"}, "bike_id": "628638a0a2fe5575456c7d9d0e3c811a", "fusion_lon": 0.0, "type": "electric_scooter", "fusion_lat": 0.0, "lat": 38.92375966666667, "is_disabled": 0, "name": "628638a0a2fe5575456c7d9d0e3c811a", "is_reserved": 0}, {"lon": -76.9718125, "rental_uris": {"ios": "https://dc.lft.to/lastmile_qr_scan", "android": "https://dc.lft.to/lastmile_qr_scan"}, "bike_id": "4aef01cd8867c39d38266d4a53eaec6b", "fusion_lon": 0.0, "type": "electric_scooter", "fusion_lat": 0.0, "lat": 38.8979995, "is_disabled": 0, "name": "4aef01cd8867c39d38266d4a53eaec6b", "is_reserved": 0}, {"lon": -77.02472966666667, "rental_uris": {"ios": "https://dc.lft.to/lastmile_qr_scan", "android": "https://dc.lft.to/lastmile_qr_scan"}, "bike_id": "12f01f6f1a340b77ab8c5bccdbe9064c", "fusion_lon": 0.0, "type": "electric_scooter", "fusion_lat": 0.0, "lat": 38.89198016666667, "is_disabled": 0, "name": "12f01f6f1a340b77ab8c5bccdbe9064c", "is_reserved": 0}, {"lon": -77.023998, "rental_uris": {"ios": "https://dc.lft.to/lastmile_qr_scan", "android": "https://dc.lft.to/lastmile_qr_scan"}, "bike_id": "61438642fe5c4ddb4e2b0d15a4e6cf6f", "fusion_lon": 0.0, "type": "electric_scooter", "fusion_lat": 0.0, "lat": 38.8963955, "is_disabled": 0, "name": "61438642fe5c4ddb4e2b0d15a4e6cf6f", "is_reserved": 0}, {"lon": -77.08148633333333, "rental_uris": {"ios": "https://dc.lft.to/lastmile_qr_scan", "android": "https://dc.lft.to/lastmile_qr_scan"}, "bike_id": "085c4827e4e2ab02e2a50fd71872cb91", "fusion_lon": 0.0, "type": "electric_scooter", "fusion_lat": 0.0, "lat": 38.9534525, "is_disabled": 0, "name": "085c4827e4e2ab02e2a50fd71872cb91", "is_reserved": 0}, {"lon": -77.01659283333333, "rental_uris": {"ios": "https://dc.lft.to/lastmile_qr_scan", "android": "https://dc.lft.to/lastmile_qr_scan"}, "bike_id": "fb79ed2cbe10718c1e9bfa7d80f10569", "fusion_lon": 0.0, "type": "electric_bike", "fusion_lat": 0.0, "lat": 39.034772333333336, "is_disabled": 0, "name": "fb79ed2cbe10718c1e9bfa7d80f10569", "is_reserved": 0}, {"lon": -77.02374666666667, "rental_uris": {"ios": "https://dc.lft.to/lastmile_qr_scan", "android": "https://dc.lft.to/lastmile_qr_scan"}, "bike_id": "df946cdb96482ed59138a802feae8376", "fusion_lon": 0.0, "type": "electric_scooter", "fusion_lat": 0.0, "lat": 38.93351, "is_disabled": 0, "name": "df946cdb96482ed59138a802feae8376", "is_reserved": 0}, {"lon": -77.02249533333334, "rental_uris": {"ios": "https://dc.lft.to/lastmile_qr_scan", "android": "https://dc.lft.to/lastmile_qr_scan"}, "bike_id": "acfff2798f363597de5a0dd7bcfabb5c", "fusion_lon": 0.0, "type": "electric_scooter", "fusion_lat": 0.0, "lat": 38.90205233333333, "is_disabled": 0, "name": "acfff2798f363597de5a0dd7bcfabb5c", "is_reserved": 0}, {"lon": -77.03210983333334, "rental_uris": {"ios": "https://dc.lft.to/lastmile_qr_scan", "android": "https://dc.lft.to/lastmile_qr_scan"}, "bike_id": "79aae8da6eeb1864c89e1d5e5640c128", "fusion_lon": 0.0, "type": "electric_scooter", "fusion_lat": 0.0, "lat": 38.917477, "is_disabled": 0, "name": "79aae8da6eeb1864c89e1d5e5640c128", "is_reserved": 0}, {"lon": -77.04316116666666, "rental_uris": {"ios": "https://dc.lft.to/lastmile_qr_scan", "android": "https://dc.lft.to/lastmile_qr_scan"}, "bike_id": "562dc9f80bbf1f5659e0e5c3e4070f86", "fusion_lon": 0.0, "type": "electric_scooter", "fusion_lat": 0.0, "lat": 38.9235775, "is_disabled": 0, "name": "562dc9f80bbf1f5659e0e5c3e4070f86", "is_reserved": 0}, {"lon": -77.0687415, "rental_uris": {"ios": "https://dc.lft.to/lastmile_qr_scan", "android": "https://dc.lft.to/lastmile_qr_scan"}, "bike_id": "6a52eafbdf261853e9b2ef0b1e41b2e0", "fusion_lon": 0.0, "type": "electric_bike", "fusion_lat": 0.0, "lat": 38.8292725, "is_disabled": 0, "name": "6a52eafbdf261853e9b2ef0b1e41b2e0", "is_reserved": 0}, {"lon": -76.93385583333334, "rental_uris": {"ios": "https://dc.lft.to/lastmile_qr_scan", "android": "https://dc.lft.to/lastmile_qr_scan"}, "bike_id": "e881e773068d041b95a7c8b1f12b5961", "fusion_lon": 0.0, "type": "electric_scooter", "fusion_lat": 0.0, "lat": 38.89912133333333, "is_disabled": 0, "name": "e881e773068d041b95a7c8b1f12b5961", "is_reserved": 0}, {"lon": -76.97424416666667, "rental_uris": {"ios": "https://dc.lft.to/lastmile_qr_scan", "android": "https://dc.lft.to/lastmile_qr_scan"}, "bike_id": "b9c6b56fe651cc1d95bd1e779a447191", "fusion_lon": 0.0, "type": "electric_scooter", "fusion_lat": 0.0, "lat": 38.901529, "is_disabled": 0, "name": "b9c6b56fe651cc1d95bd1e779a447191", "is_reserved": 0}, {"lon": -76.99018816666667, "rental_uris": {"ios": "https://dc.lft.to/lastmile_qr_scan", "android": "https://dc.lft.to/lastmile_qr_scan"}, "bike_id": "3797cf74f75e3fa9ab6ffce4b6b5637e", "fusion_lon": 0.0, "type": "electric_bike", "fusion_lat": 0.0, "lat": 38.87873666666667, "is_disabled": 0, "name": "3797cf74f75e3fa9ab6ffce4b6b5637e", "is_reserved": 0}, {"lon": -77.02948683333334, "rental_uris": {"ios": "https://dc.lft.to/lastmile_qr_scan", "android": "https://dc.lft.to/lastmile_qr_scan"}, "bike_id": "7e41277aabc9d244ac22a07e37a8dde0", "fusion_lon": 0.0, "type": "electric_scooter", "fusion_lat": 0.0, "lat": 38.901359666666664, "is_disabled": 0, "name": "7e41277aabc9d244ac22a07e37a8dde0", "is_reserved": 0}, {"lon": -77.00600466666667, "rental_uris": {"ios": "https://dc.lft.to/lastmile_qr_scan", "android": "https://dc.lft.to/lastmile_qr_scan"}, "bike_id": "7a629238ccc4d541876e3867f3225b73", "fusion_lon": 0.0, "type": "electric_scooter", "fusion_lat": 0.0, "lat": 38.90589083333333, "is_disabled": 0, "name": "7a629238ccc4d541876e3867f3225b73", "is_reserved": 0}, {"lon": -76.92722683333334, "rental_uris": {"ios": "https://dc.lft.to/lastmile_qr_scan", "android": "https://dc.lft.to/lastmile_qr_scan"}, "bike_id": "132efe2b77fa9439394c13a86f9820c1", "fusion_lon": 0.0, "type": "electric_scooter", "fusion_lat": 0.0, "lat": 38.88041966666667, "is_disabled": 0, "name": "132efe2b77fa9439394c13a86f9820c1", "is_reserved": 0}, {"lon": -77.04109116666666, "rental_uris": {"ios": "https://dc.lft.to/lastmile_qr_scan", "android": "https://dc.lft.to/lastmile_qr_scan"}, "bike_id": "3af06c43a1af87e61b5458c12dfa286a", "fusion_lon": 0.0, "type": "electric_scooter", "fusion_lat": 0.0, "lat": 38.91059416666667, "is_disabled": 0, "name": "3af06c43a1af87e61b5458c12dfa286a", "is_reserved": 0}, {"lon": -77.0199825, "rental_uris": {"ios": "https://dc.lft.to/lastmile_qr_scan", "android": "https://dc.lft.to/lastmile_qr_scan"}, "bike_id": "24935c0fdc0f9b919f42abba2780ad47", "fusion_lon": 0.0, "type": "electric_scooter", "fusion_lat": 0.0, "lat": 38.915765, "is_disabled": 0, "name": "24935c0fdc0f9b919f42abba2780ad47", "is_reserved": 0}, {"lon": -77.050041, "rental_uris": {"ios": "https://dc.lft.to/lastmile_qr_scan", "android": "https://dc.lft.to/lastmile_qr_scan"}, "bike_id": "cbd01ed08491c3bf5131549236bc09cd", "fusion_lon": 0.0, "type": "electric_scooter", "fusion_lat": 0.0, "lat": 38.89226566666667, "is_disabled": 0, "name": "cbd01ed08491c3bf5131549236bc09cd", "is_reserved": 0}, {"lon": -77.031644, "rental_uris": {"ios": "https://dc.lft.to/lastmile_qr_scan", "android": "https://dc.lft.to/lastmile_qr_scan"}, "bike_id": "5709ee66fafd3d70862445cc86fa005b", "fusion_lon": 0.0, "type": "electric_scooter", "fusion_lat": 0.0, "lat": 38.892306, "is_disabled": 0, "name": "5709ee66fafd3d70862445cc86fa005b", "is_reserved": 0}, {"lon": -77.01370083333333, "rental_uris": {"ios": "https://dc.lft.to/lastmile_qr_scan", "android": "https://dc.lft.to/lastmile_qr_scan"}, "bike_id": "dd5a389d995deeb8a38ff6d6bb0e306f", "fusion_lon": 0.0, "type": "electric_scooter", "fusion_lat": 0.0, "lat": 38.892235166666666, "is_disabled": 0, "name": "dd5a389d995deeb8a38ff6d6bb0e306f", "is_reserved": 0}, {"lon": -76.9373265, "rental_uris": {"ios": "https://dc.lft.to/lastmile_qr_scan", "android": "https://dc.lft.to/lastmile_qr_scan"}, "bike_id": "e6c9c4d35d4c503a80ebc5f976ce15d4", "fusion_lon": 0.0, "type": "electric_scooter", "fusion_lat": 0.0, "lat": 38.89015033333333, "is_disabled": 0, "name": "e6c9c4d35d4c503a80ebc5f976ce15d4", "is_reserved": 0}, {"lon": -77.0077125, "rental_uris": {"ios": "https://dc.lft.to/lastmile_qr_scan", "android": "https://dc.lft.to/lastmile_qr_scan"}, "bike_id": "328e8b6a3bce61083a31f36a6733f101", "fusion_lon": 0.0, "type": "electric_scooter", "fusion_lat": 0.0, "lat": 38.907436, "is_disabled": 0, "name": "328e8b6a3bce61083a31f36a6733f101", "is_reserved": 0}, {"lon": -77.03906466666666, "rental_uris": {"ios": "https://dc.lft.to/lastmile_qr_scan", "android": "https://dc.lft.to/lastmile_qr_scan"}, "bike_id": "c3f154b8d489f778ebcce830aba6399d", "fusion_lon": 0.0, "type": "electric_scooter", "fusion_lat": 0.0, "lat": 38.91764583333333, "is_disabled": 0, "name": "c3f154b8d489f778ebcce830aba6399d", "is_reserved": 0}, {"lon": -77.05003583333334, "rental_uris": {"ios": "https://dc.lft.to/lastmile_qr_scan", "android": "https://dc.lft.to/lastmile_qr_scan"}, "bike_id": "9a5a8a92b174d4b4b5c4e3aef289eb06", "fusion_lon": 0.0, "type": "electric_scooter", "fusion_lat": 0.0, "lat": 38.89232783333333, "is_disabled": 0, "name": "9a5a8a92b174d4b4b5c4e3aef289eb06", "is_reserved": 0}, {"lon": -76.9576995, "rental_uris": {"ios": "https://dc.lft.to/lastmile_qr_scan", "android": "https://dc.lft.to/lastmile_qr_scan"}, "bike_id": "fdc5d6bb2e66773b1afaea65485e8276", "fusion_lon": 0.0, "type": "electric_scooter", "fusion_lat": 0.0, "lat": 38.8835545, "is_disabled": 0, "name": "fdc5d6bb2e66773b1afaea65485e8276", "is_reserved": 0}, {"lon": -77.0270155, "rental_uris": {"ios": "https://dc.lft.to/lastmile_qr_scan", "android": "https://dc.lft.to/lastmile_qr_scan"}, "bike_id": "da023dfcac369fd260e4d7923297bc1b", "fusion_lon": 0.0, "type": "electric_scooter", "fusion_lat": 0.0, "lat": 38.91812566666667, "is_disabled": 0, "name": "da023dfcac369fd260e4d7923297bc1b", "is_reserved": 0}, {"lon": -77.04746666666666, "rental_uris": {"ios": "https://dc.lft.to/lastmile_qr_scan", "android": "https://dc.lft.to/lastmile_qr_scan"}, "bike_id": "7ad5e773a468b27670a78893fce4b94b", "fusion_lon": 0.0, "type": "electric_scooter", "fusion_lat": 0.0, "lat": 38.920007166666664, "is_disabled": 0, "name": "7ad5e773a468b27670a78893fce4b94b", "is_reserved": 0}, {"lon": -76.942517, "rental_uris": {"ios": "https://dc.lft.to/lastmile_qr_scan", "android": "https://dc.lft.to/lastmile_qr_scan"}, "bike_id": "b51f6200d631f70ec391c41bd85d93e2", "fusion_lon": 0.0, "type": "electric_bike", "fusion_lat": 0.0, "lat": 38.898474, "is_disabled": 0, "name": "b51f6200d631f70ec391c41bd85d93e2", "is_reserved": 0}, {"lon": -77.03182133333334, "rental_uris": {"ios": "https://dc.lft.to/lastmile_qr_scan", "android": "https://dc.lft.to/lastmile_qr_scan"}, "bike_id": "083abbd530e7d318902e738950549727", "fusion_lon": 0.0, "type": "electric_scooter", "fusion_lat": 0.0, "lat": 38.91546833333334, "is_disabled": 0, "name": "083abbd530e7d318902e738950549727", "is_reserved": 0}, {"lon": -76.9485285, "rental_uris": {"ios": "https://dc.lft.to/lastmile_qr_scan", "android": "https://dc.lft.to/lastmile_qr_scan"}, "bike_id": "2c01ab2999b26f8c25684ab033f4dfae", "fusion_lon": 0.0, "type": "electric_scooter", "fusion_lat": 0.0, "lat": 38.86683633333333, "is_disabled": 0, "name": "2c01ab2999b26f8c25684ab033f4dfae", "is_reserved": 0}, {"lon": -77.05742366666666, "rental_uris": {"ios": "https://dc.lft.to/lastmile_qr_scan", "android": "https://dc.lft.to/lastmile_qr_scan"}, "bike_id": "2ba34c7567ad8926061e72cc41e35270", "fusion_lon": 0.0, "type": "electric_bike", "fusion_lat": 0.0, "lat": 38.807703, "is_disabled": 0, "name": "2ba34c7567ad8926061e72cc41e35270", "is_reserved": 0}, {"lon": -77.01903683333333, "rental_uris": {"ios": "https://dc.lft.to/lastmile_qr_scan", "android": "https://dc.lft.to/lastmile_qr_scan"}, "bike_id": "b6fc29d4c014523acece9becc4e02e3a", "fusion_lon": 0.0, "type": "electric_scooter", "fusion_lat": 0.0, "lat": 38.921336, "is_disabled": 0, "name": "b6fc29d4c014523acece9becc4e02e3a", "is_reserved": 0}, {"lon": -76.94957433333333, "rental_uris": {"ios": "https://dc.lft.to/lastmile_qr_scan", "android": "https://dc.lft.to/lastmile_qr_scan"}, "bike_id": "e5a3f3541f2d732b4a6be779b1bf2e9d", "fusion_lon": 0.0, "type": "electric_scooter", "fusion_lat": 0.0, "lat": 38.90491383333333, "is_disabled": 0, "name": "e5a3f3541f2d732b4a6be779b1bf2e9d", "is_reserved": 0}, {"lon": -77.04251533333333, "rental_uris": {"ios": "https://dc.lft.to/lastmile_qr_scan", "android": "https://dc.lft.to/lastmile_qr_scan"}, "bike_id": "e15b921049e1b63d37ec84ee181e8766", "fusion_lon": 0.0, "type": "electric_scooter", "fusion_lat": 0.0, "lat": 38.907522666666665, "is_disabled": 0, "name": "e15b921049e1b63d37ec84ee181e8766", "is_reserved": 0}, {"lon": -77.00421666666666, "rental_uris": {"ios": "https://dc.lft.to/lastmile_qr_scan", "android": "https://dc.lft.to/lastmile_qr_scan"}, "bike_id": "fcc968999f5bfccf9356ee2205e1a9a6", "fusion_lon": 0.0, "type": "electric_scooter", "fusion_lat": 0.0, "lat": 38.8765455, "is_disabled": 0, "name": "fcc968999f5bfccf9356ee2205e1a9a6", "is_reserved": 0}, {"lon": -76.98220766666667, "rental_uris": {"ios": "https://dc.lft.to/lastmile_qr_scan", "android": "https://dc.lft.to/lastmile_qr_scan"}, "bike_id": "83ef89f3374f32d133d31f6613145d27", "fusion_lon": 0.0, "type": "electric_scooter", "fusion_lat": 0.0, "lat": 38.856292333333336, "is_disabled": 0, "name": "83ef89f3374f32d133d31f6613145d27", "is_reserved": 0}, {"lon": -77.023709, "rental_uris": {"ios": "https://dc.lft.to/lastmile_qr_scan", "android": "https://dc.lft.to/lastmile_qr_scan"}, "bike_id": "2075cd6fe51940979ffad92b45317596", "fusion_lon": 0.0, "type": "electric_scooter", "fusion_lat": 0.0, "lat": 38.892225833333335, "is_disabled": 0, "name": "2075cd6fe51940979ffad92b45317596", "is_reserved": 0}, {"lon": -77.02641666666666, "rental_uris": {"ios": "https://dc.lft.to/lastmile_qr_scan", "android": "https://dc.lft.to/lastmile_qr_scan"}, "bike_id": "608b47d3608a4e8d5eefb2ebf950a7ae", "fusion_lon": 0.0, "type": "electric_scooter", "fusion_lat": 0.0, "lat": 38.884715166666666, "is_disabled": 0, "name": "608b47d3608a4e8d5eefb2ebf950a7ae", "is_reserved": 0}, {"lon": -77.045011, "rental_uris": {"ios": "https://dc.lft.to/lastmile_qr_scan", "android": "https://dc.lft.to/lastmile_qr_scan"}, "bike_id": "a81eb2535dd4b40087f959abeac3026f", "fusion_lon": 0.0, "type": "electric_scooter", "fusion_lat": 0.0, "lat": 38.90778916666667, "is_disabled": 0, "name": "a81eb2535dd4b40087f959abeac3026f", "is_reserved": 0}, {"lon": -77.03996616666667, "rental_uris": {"ios": "https://dc.lft.to/lastmile_qr_scan", "android": "https://dc.lft.to/lastmile_qr_scan"}, "bike_id": "7110c7db4ce4f50e29723d4235075270", "fusion_lon": 0.0, "type": "electric_scooter", "fusion_lat": 0.0, "lat": 38.9015925, "is_disabled": 0, "name": "7110c7db4ce4f50e29723d4235075270", "is_reserved": 0}, {"lon": -77.00707616666666, "rental_uris": {"ios": "https://dc.lft.to/lastmile_qr_scan", "android": "https://dc.lft.to/lastmile_qr_scan"}, "bike_id": "de809ced5a22b5b708b83d9b2ffcaf79", "fusion_lon": 0.0, "type": "electric_scooter", "fusion_lat": 0.0, "lat": 38.905689, "is_disabled": 0, "name": "de809ced5a22b5b708b83d9b2ffcaf79", "is_reserved": 0}, {"lon": -77.0450145, "rental_uris": {"ios": "https://dc.lft.to/lastmile_qr_scan", "android": "https://dc.lft.to/lastmile_qr_scan"}, "bike_id": "811737c53c2b608e3f6bc277a032bfe5", "fusion_lon": 0.0, "type": "electric_scooter", "fusion_lat": 0.0, "lat": 38.90780216666667, "is_disabled": 0, "name": "811737c53c2b608e3f6bc277a032bfe5", "is_reserved": 0}, {"lon": -77.0231275, "rental_uris": {"ios": "https://dc.lft.to/lastmile_qr_scan", "android": "https://dc.lft.to/lastmile_qr_scan"}, "bike_id": "fb633967a382612af748b4bf67b573ac", "fusion_lon": 0.0, "type": "electric_scooter", "fusion_lat": 0.0, "lat": 38.94923283333333, "is_disabled": 0, "name": "fb633967a382612af748b4bf67b573ac", "is_reserved": 0}, {"lon": -77.02406516666667, "rental_uris": {"ios": "https://dc.lft.to/lastmile_qr_scan", "android": "https://dc.lft.to/lastmile_qr_scan"}, "bike_id": "e33679c788e507d99fdfce222aca33ab", "fusion_lon": 0.0, "type": "electric_scooter", "fusion_lat": 0.0, "lat": 38.9208655, "is_disabled": 0, "name": "e33679c788e507d99fdfce222aca33ab", "is_reserved": 0}, {"lon": -77.00199966666666, "rental_uris": {"ios": "https://dc.lft.to/lastmile_qr_scan", "android": "https://dc.lft.to/lastmile_qr_scan"}, "bike_id": "885dba131b5ffa835a66debbdfe60350", "fusion_lon": 0.0, "type": "electric_scooter", "fusion_lat": 0.0, "lat": 38.902424833333335, "is_disabled": 0, "name": "885dba131b5ffa835a66debbdfe60350", "is_reserved": 0}, {"lon": -76.99876133333333, "rental_uris": {"ios": "https://dc.lft.to/lastmile_qr_scan", "android": "https://dc.lft.to/lastmile_qr_scan"}, "bike_id": "2057de68da69a8caf8dabe13dbc46bf0", "fusion_lon": 0.0, "type": "electric_scooter", "fusion_lat": 0.0, "lat": 38.92337666666667, "is_disabled": 0, "name": "2057de68da69a8caf8dabe13dbc46bf0", "is_reserved": 0}, {"lon": -76.97181133333333, "rental_uris": {"ios": "https://dc.lft.to/lastmile_qr_scan", "android": "https://dc.lft.to/lastmile_qr_scan"}, "bike_id": "731bbe4c4d68aeaa8af721e5dc4b8ef2", "fusion_lon": 0.0, "type": "electric_scooter", "fusion_lat": 0.0, "lat": 38.897979666666664, "is_disabled": 0, "name": "731bbe4c4d68aeaa8af721e5dc4b8ef2", "is_reserved": 0}, {"lon": -77.03206066666667, "rental_uris": {"ios": "https://dc.lft.to/lastmile_qr_scan", "android": "https://dc.lft.to/lastmile_qr_scan"}, "bike_id": "2e5f0ef05fc2db368481053ffd43090f", "fusion_lon": 0.0, "type": "electric_scooter", "fusion_lat": 0.0, "lat": 38.89237333333333, "is_disabled": 0, "name": "2e5f0ef05fc2db368481053ffd43090f", "is_reserved": 0}, {"lon": -77.02166583333333, "rental_uris": {"ios": "https://dc.lft.to/lastmile_qr_scan", "android": "https://dc.lft.to/lastmile_qr_scan"}, "bike_id": "e7d71fa80c3ab964a4f8ecf4d57dc436", "fusion_lon": 0.0, "type": "electric_scooter", "fusion_lat": 0.0, "lat": 38.93072633333333, "is_disabled": 0, "name": "e7d71fa80c3ab964a4f8ecf4d57dc436", "is_reserved": 0}, {"lon": -77.00547016666667, "rental_uris": {"ios": "https://dc.lft.to/lastmile_qr_scan", "android": "https://dc.lft.to/lastmile_qr_scan"}, "bike_id": "92c2275eb0d4a74ce17153450232737a", "fusion_lon": 0.0, "type": "electric_scooter", "fusion_lat": 0.0, "lat": 38.9030275, "is_disabled": 0, "name": "92c2275eb0d4a74ce17153450232737a", "is_reserved": 0}, {"lon": -77.02155983333333, "rental_uris": {"ios": "https://dc.lft.to/lastmile_qr_scan", "android": "https://dc.lft.to/lastmile_qr_scan"}, "bike_id": "dcd65fa7c9fad99e42110c82780325d3", "fusion_lon": 0.0, "type": "electric_scooter", "fusion_lat": 0.0, "lat": 38.9260485, "is_disabled": 0, "name": "dcd65fa7c9fad99e42110c82780325d3", "is_reserved": 0}, {"lon": -76.97229933333334, "rental_uris": {"ios": "https://dc.lft.to/lastmile_qr_scan", "android": "https://dc.lft.to/lastmile_qr_scan"}, "bike_id": "4f0677247dd82c60e57e2bd7d5f4e041", "fusion_lon": 0.0, "type": "electric_bike", "fusion_lat": 0.0, "lat": 38.900366, "is_disabled": 0, "name": "4f0677247dd82c60e57e2bd7d5f4e041", "is_reserved": 0}, {"lon": -77.00048866666667, "rental_uris": {"ios": "https://dc.lft.to/lastmile_qr_scan", "android": "https://dc.lft.to/lastmile_qr_scan"}, "bike_id": "6e42f1896fa8c8e54f85723bd7cc3602", "fusion_lon": 0.0, "type": "electric_scooter", "fusion_lat": 0.0, "lat": 38.874283166666665, "is_disabled": 0, "name": "6e42f1896fa8c8e54f85723bd7cc3602", "is_reserved": 0}, {"lon": -77.05033666666667, "rental_uris": {"ios": "https://dc.lft.to/lastmile_qr_scan", "android": "https://dc.lft.to/lastmile_qr_scan"}, "bike_id": "71ac51cc422af5cda5598b0cd2f0c421", "fusion_lon": 0.0, "type": "electric_scooter", "fusion_lat": 0.0, "lat": 38.91583883333333, "is_disabled": 0, "name": "71ac51cc422af5cda5598b0cd2f0c421", "is_reserved": 0}, {"lon": -77.00918283333333, "rental_uris": {"ios": "https://dc.lft.to/lastmile_qr_scan", "android": "https://dc.lft.to/lastmile_qr_scan"}, "bike_id": "8e2d5a24070ecd5a8a8b920881a21818", "fusion_lon": 0.0, "type": "electric_scooter", "fusion_lat": 0.0, "lat": 38.89554166666667, "is_disabled": 0, "name": "8e2d5a24070ecd5a8a8b920881a21818", "is_reserved": 0}, {"lon": -76.98999483333333, "rental_uris": {"ios": "https://dc.lft.to/lastmile_qr_scan", "android": "https://dc.lft.to/lastmile_qr_scan"}, "bike_id": "8810b8039c57cb61c60ed666cfeec51e", "fusion_lon": 0.0, "type": "electric_scooter", "fusion_lat": 0.0, "lat": 38.8689015, "is_disabled": 0, "name": "8810b8039c57cb61c60ed666cfeec51e", "is_reserved": 0}, {"lon": -77.02824783333334, "rental_uris": {"ios": "https://dc.lft.to/lastmile_qr_scan", "android": "https://dc.lft.to/lastmile_qr_scan"}, "bike_id": "de9edf689fc62de326ad66430fd9dc24", "fusion_lon": 0.0, "type": "electric_scooter", "fusion_lat": 0.0, "lat": 38.886569333333334, "is_disabled": 0, "name": "de9edf689fc62de326ad66430fd9dc24", "is_reserved": 0}, {"lon": -77.005743, "rental_uris": {"ios": "https://dc.lft.to/lastmile_qr_scan", "android": "https://dc.lft.to/lastmile_qr_scan"}, "bike_id": "3c5d6cf09b2d3e929e3fdd44fe323fdf", "fusion_lon": 0.0, "type": "electric_scooter", "fusion_lat": 0.0, "lat": 38.87466366666666, "is_disabled": 0, "name": "3c5d6cf09b2d3e929e3fdd44fe323fdf", "is_reserved": 0}, {"lon": -76.98318516666667, "rental_uris": {"ios": "https://dc.lft.to/lastmile_qr_scan", "android": "https://dc.lft.to/lastmile_qr_scan"}, "bike_id": "0334a540014fc45c761da799ffc68484", "fusion_lon": 0.0, "type": "electric_scooter", "fusion_lat": 0.0, "lat": 38.89598616666667, "is_disabled": 0, "name": "0334a540014fc45c761da799ffc68484", "is_reserved": 0}, {"lon": -77.03145733333334, "rental_uris": {"ios": "https://dc.lft.to/lastmile_qr_scan", "android": "https://dc.lft.to/lastmile_qr_scan"}, "bike_id": "ac2d9ccd994d733f9cc602d0a4b456bf", "fusion_lon": 0.0, "type": "electric_scooter", "fusion_lat": 0.0, "lat": 38.91626433333333, "is_disabled": 0, "name": "ac2d9ccd994d733f9cc602d0a4b456bf", "is_reserved": 0}, {"lon": -77.04414383333334, "rental_uris": {"ios": "https://dc.lft.to/lastmile_qr_scan", "android": "https://dc.lft.to/lastmile_qr_scan"}, "bike_id": "57ae1840161d04b7a0baff637159373a", "fusion_lon": 0.0, "type": "electric_scooter", "fusion_lat": 0.0, "lat": 38.8961775, "is_disabled": 0, "name": "57ae1840161d04b7a0baff637159373a", "is_reserved": 0}, {"lon": -76.99150333333333, "rental_uris": {"ios": "https://dc.lft.to/lastmile_qr_scan", "android": "https://dc.lft.to/lastmile_qr_scan"}, "bike_id": "b42f90c77a7fbd5462b6f2375946d5b7", "fusion_lon": 0.0, "type": "electric_scooter", "fusion_lat": 0.0, "lat": 38.9004935, "is_disabled": 0, "name": "b42f90c77a7fbd5462b6f2375946d5b7", "is_reserved": 0}, {"lon": -77.03661866666667, "rental_uris": {"ios": "https://dc.lft.to/lastmile_qr_scan", "android": "https://dc.lft.to/lastmile_qr_scan"}, "bike_id": "38d6bd72df8356939dafc4cdc6ae480e", "fusion_lon": 0.0, "type": "electric_scooter", "fusion_lat": 0.0, "lat": 38.918328833333334, "is_disabled": 0, "name": "38d6bd72df8356939dafc4cdc6ae480e", "is_reserved": 0}, {"lon": -77.03711033333333, "rental_uris": {"ios": "https://dc.lft.to/lastmile_qr_scan", "android": "https://dc.lft.to/lastmile_qr_scan"}, "bike_id": "38bd41dc4a4b2cfda1a0809e2f9e0820", "fusion_lon": 0.0, "type": "electric_scooter", "fusion_lat": 0.0, "lat": 38.926323333333336, "is_disabled": 0, "name": "38bd41dc4a4b2cfda1a0809e2f9e0820", "is_reserved": 0}, {"lon": -77.02596266666667, "rental_uris": {"ios": "https://dc.lft.to/lastmile_qr_scan", "android": "https://dc.lft.to/lastmile_qr_scan"}, "bike_id": "175289357a0028abfe74f1b123053850", "fusion_lon": 0.0, "type": "electric_scooter", "fusion_lat": 0.0, "lat": 38.89636633333333, "is_disabled": 0, "name": "175289357a0028abfe74f1b123053850", "is_reserved": 0}, {"lon": -77.048028, "rental_uris": {"ios": "https://dc.lft.to/lastmile_qr_scan", "android": "https://dc.lft.to/lastmile_qr_scan"}, "bike_id": "049af0be2b6b2ee90b2a0543b73ffe9a", "fusion_lon": 0.0, "type": "electric_scooter", "fusion_lat": 0.0, "lat": 38.897424666666666, "is_disabled": 0, "name": "049af0be2b6b2ee90b2a0543b73ffe9a", "is_reserved": 0}, {"lon": -77.03219316666667, "rental_uris": {"ios": "https://dc.lft.to/lastmile_qr_scan", "android": "https://dc.lft.to/lastmile_qr_scan"}, "bike_id": "765edaa2323a25b8ce51e8874691da88", "fusion_lon": 0.0, "type": "electric_scooter", "fusion_lat": 0.0, "lat": 38.89220666666667, "is_disabled": 0, "name": "765edaa2323a25b8ce51e8874691da88", "is_reserved": 0}, {"lon": -77.02145533333334, "rental_uris": {"ios": "https://dc.lft.to/lastmile_qr_scan", "android": "https://dc.lft.to/lastmile_qr_scan"}, "bike_id": "e951dd418f994d9fdc6dce7344e97d11", "fusion_lon": 0.0, "type": "electric_scooter", "fusion_lat": 0.0, "lat": 38.924458333333334, "is_disabled": 0, "name": "e951dd418f994d9fdc6dce7344e97d11", "is_reserved": 0}, {"lon": -77.02418933333334, "rental_uris": {"ios": "https://dc.lft.to/lastmile_qr_scan", "android": "https://dc.lft.to/lastmile_qr_scan"}, "bike_id": "e6db63d565ed7f75f4299e84d68d0941", "fusion_lon": 0.0, "type": "electric_scooter", "fusion_lat": 0.0, "lat": 38.892206, "is_disabled": 0, "name": "e6db63d565ed7f75f4299e84d68d0941", "is_reserved": 0}, {"lon": -77.040924, "rental_uris": {"ios": "https://dc.lft.to/lastmile_qr_scan", "android": "https://dc.lft.to/lastmile_qr_scan"}, "bike_id": "a0ec4df4bb14a692043d5a178ce159a8", "fusion_lon": 0.0, "type": "electric_scooter", "fusion_lat": 0.0, "lat": 38.90533516666667, "is_disabled": 0, "name": "a0ec4df4bb14a692043d5a178ce159a8", "is_reserved": 0}, {"lon": -77.03497083333333, "rental_uris": {"ios": "https://dc.lft.to/lastmile_qr_scan", "android": "https://dc.lft.to/lastmile_qr_scan"}, "bike_id": "0c2722609e099efd19ecb8321fbc12ae", "fusion_lon": 0.0, "type": "electric_scooter", "fusion_lat": 0.0, "lat": 38.92862983333333, "is_disabled": 0, "name": "0c2722609e099efd19ecb8321fbc12ae", "is_reserved": 0}, {"lon": -76.99503833333333, "rental_uris": {"ios": "https://dc.lft.to/lastmile_qr_scan", "android": "https://dc.lft.to/lastmile_qr_scan"}, "bike_id": "b9f3422ff64c9f68ded0da96588ddf37", "fusion_lon": 0.0, "type": "electric_scooter", "fusion_lat": 0.0, "lat": 38.89513216666667, "is_disabled": 0, "name": "b9f3422ff64c9f68ded0da96588ddf37", "is_reserved": 0}, {"lon": -77.0469045, "rental_uris": {"ios": "https://dc.lft.to/lastmile_qr_scan", "android": "https://dc.lft.to/lastmile_qr_scan"}, "bike_id": "2d1cee60a8d55dbeab810d0f729724f0", "fusion_lon": 0.0, "type": "electric_scooter", "fusion_lat": 0.0, "lat": 38.916561333333334, "is_disabled": 0, "name": "2d1cee60a8d55dbeab810d0f729724f0", "is_reserved": 0}, {"lon": -77.02431783333333, "rental_uris": {"ios": "https://dc.lft.to/lastmile_qr_scan", "android": "https://dc.lft.to/lastmile_qr_scan"}, "bike_id": "357dff412b474499412efae07b254a6b", "fusion_lon": 0.0, "type": "electric_scooter", "fusion_lat": 0.0, "lat": 38.908597666666665, "is_disabled": 0, "name": "357dff412b474499412efae07b254a6b", "is_reserved": 0}, {"lon": -77.04883933333333, "rental_uris": {"ios": "https://dc.lft.to/lastmile_qr_scan", "android": "https://dc.lft.to/lastmile_qr_scan"}, "bike_id": "ea33821dbc7eb1f55737142324a5a2c0", "fusion_lon": 0.0, "type": "electric_scooter", "fusion_lat": 0.0, "lat": 38.89910016666666, "is_disabled": 0, "name": "ea33821dbc7eb1f55737142324a5a2c0", "is_reserved": 0}, {"lon": -76.98557666666666, "rental_uris": {"ios": "https://dc.lft.to/lastmile_qr_scan", "android": "https://dc.lft.to/lastmile_qr_scan"}, "bike_id": "62bff9f6671edede8289b44e8cf51fc0", "fusion_lon": 0.0, "type": "electric_scooter", "fusion_lat": 0.0, "lat": 38.90042666666667, "is_disabled": 0, "name": "62bff9f6671edede8289b44e8cf51fc0", "is_reserved": 0}, {"lon": -77.0035065, "rental_uris": {"ios": "https://dc.lft.to/lastmile_qr_scan", "android": "https://dc.lft.to/lastmile_qr_scan"}, "bike_id": "74234b8bb58a821b5c415b1baec62d95", "fusion_lon": 0.0, "type": "electric_scooter", "fusion_lat": 0.0, "lat": 38.8927235, "is_disabled": 0, "name": "74234b8bb58a821b5c415b1baec62d95", "is_reserved": 0}, {"lon": -77.02440983333334, "rental_uris": {"ios": "https://dc.lft.to/lastmile_qr_scan", "android": "https://dc.lft.to/lastmile_qr_scan"}, "bike_id": "e240c30bfd1082d3ac5bd833201cdff9", "fusion_lon": 0.0, "type": "electric_scooter", "fusion_lat": 0.0, "lat": 38.956425333333335, "is_disabled": 0, "name": "e240c30bfd1082d3ac5bd833201cdff9", "is_reserved": 0}, {"lon": -77.01492416666666, "rental_uris": {"ios": "https://dc.lft.to/lastmile_qr_scan", "android": "https://dc.lft.to/lastmile_qr_scan"}, "bike_id": "104d0ed4c18abbbed71abf03dd6f257a", "fusion_lon": 0.0, "type": "electric_scooter", "fusion_lat": 0.0, "lat": 38.92729716666667, "is_disabled": 0, "name": "104d0ed4c18abbbed71abf03dd6f257a", "is_reserved": 0}, {"lon": -76.99867616666667, "rental_uris": {"ios": "https://dc.lft.to/lastmile_qr_scan", "android": "https://dc.lft.to/lastmile_qr_scan"}, "bike_id": "05636f690346094342fac2169e471f47", "fusion_lon": 0.0, "type": "electric_scooter", "fusion_lat": 0.0, "lat": 38.90032883333333, "is_disabled": 0, "name": "05636f690346094342fac2169e471f47", "is_reserved": 0}, {"lon": -77.00673583333334, "rental_uris": {"ios": "https://dc.lft.to/lastmile_qr_scan", "android": "https://dc.lft.to/lastmile_qr_scan"}, "bike_id": "466f04dcce8315daf968303e8ad96085", "fusion_lon": 0.0, "type": "electric_scooter", "fusion_lat": 0.0, "lat": 38.929316, "is_disabled": 0, "name": "466f04dcce8315daf968303e8ad96085", "is_reserved": 0}, {"lon": -77.02970066666667, "rental_uris": {"ios": "https://dc.lft.to/lastmile_qr_scan", "android": "https://dc.lft.to/lastmile_qr_scan"}, "bike_id": "c70faf447da6f5dd59a23351bb50b27b", "fusion_lon": 0.0, "type": "electric_scooter", "fusion_lat": 0.0, "lat": 38.91684166666667, "is_disabled": 0, "name": "c70faf447da6f5dd59a23351bb50b27b", "is_reserved": 0}, {"lon": -76.98373966666666, "rental_uris": {"ios": "https://dc.lft.to/lastmile_qr_scan", "android": "https://dc.lft.to/lastmile_qr_scan"}, "bike_id": "d8c9c39b4caa3059d82db0c7667e7079", "fusion_lon": 0.0, "type": "electric_scooter", "fusion_lat": 0.0, "lat": 38.8953845, "is_disabled": 0, "name": "d8c9c39b4caa3059d82db0c7667e7079", "is_reserved": 0}, {"lon": -77.0136605, "rental_uris": {"ios": "https://dc.lft.to/lastmile_qr_scan", "android": "https://dc.lft.to/lastmile_qr_scan"}, "bike_id": "088196c06ddcf5b5934ee9a0b47711d3", "fusion_lon": 0.0, "type": "electric_scooter", "fusion_lat": 0.0, "lat": 38.8870645, "is_disabled": 0, "name": "088196c06ddcf5b5934ee9a0b47711d3", "is_reserved": 0}, {"lon": -77.0231745, "rental_uris": {"ios": "https://dc.lft.to/lastmile_qr_scan", "android": "https://dc.lft.to/lastmile_qr_scan"}, "bike_id": "253e7115d5e2de11d68aaae60cebd9bc", "fusion_lon": 0.0, "type": "electric_bike", "fusion_lat": 0.0, "lat": 38.9940525, "is_disabled": 0, "name": "253e7115d5e2de11d68aaae60cebd9bc", "is_reserved": 0}, {"lon": -77.03177433333333, "rental_uris": {"ios": "https://dc.lft.to/lastmile_qr_scan", "android": "https://dc.lft.to/lastmile_qr_scan"}, "bike_id": "2057a46e477d96121c1a053c3a96c285", "fusion_lon": 0.0, "type": "electric_scooter", "fusion_lat": 0.0, "lat": 38.91416866666667, "is_disabled": 0, "name": "2057a46e477d96121c1a053c3a96c285", "is_reserved": 0}, {"lon": -76.98272733333333, "rental_uris": {"ios": "https://dc.lft.to/lastmile_qr_scan", "android": "https://dc.lft.to/lastmile_qr_scan"}, "bike_id": "a7bb0c3a08387c45c1d809b6f26dbbca", "fusion_lon": 0.0, "type": "electric_scooter", "fusion_lat": 0.0, "lat": 38.903474333333335, "is_disabled": 0, "name": "a7bb0c3a08387c45c1d809b6f26dbbca", "is_reserved": 0}, {"lon": -77.015507, "rental_uris": {"ios": "https://dc.lft.to/lastmile_qr_scan", "android": "https://dc.lft.to/lastmile_qr_scan"}, "bike_id": "fb62fe952fd0b40a8e771fb708b1df1c", "fusion_lon": 0.0, "type": "electric_scooter", "fusion_lat": 0.0, "lat": 38.891748166666666, "is_disabled": 0, "name": "fb62fe952fd0b40a8e771fb708b1df1c", "is_reserved": 0}, {"lon": -77.02704383333334, "rental_uris": {"ios": "https://dc.lft.to/lastmile_qr_scan", "android": "https://dc.lft.to/lastmile_qr_scan"}, "bike_id": "570f8b41f207c21bd161961d11bff87e", "fusion_lon": 0.0, "type": "electric_scooter", "fusion_lat": 0.0, "lat": 38.8813855, "is_disabled": 0, "name": "570f8b41f207c21bd161961d11bff87e", "is_reserved": 0}, {"lon": -77.0186825, "rental_uris": {"ios": "https://dc.lft.to/lastmile_qr_scan", "android": "https://dc.lft.to/lastmile_qr_scan"}, "bike_id": "c2514755ce786406aba01d84859dda97", "fusion_lon": 0.0, "type": "electric_scooter", "fusion_lat": 0.0, "lat": 38.975821833333335, "is_disabled": 0, "name": "c2514755ce786406aba01d84859dda97", "is_reserved": 0}, {"lon": -77.03863766666667, "rental_uris": {"ios": "https://dc.lft.to/lastmile_qr_scan", "android": "https://dc.lft.to/lastmile_qr_scan"}, "bike_id": "4b5ab4790ab63ef8a524b84c53a50fbd", "fusion_lon": 0.0, "type": "electric_scooter", "fusion_lat": 0.0, "lat": 38.9125965, "is_disabled": 0, "name": "4b5ab4790ab63ef8a524b84c53a50fbd", "is_reserved": 0}, {"lon": -77.063841, "rental_uris": {"ios": "https://dc.lft.to/lastmile_qr_scan", "android": "https://dc.lft.to/lastmile_qr_scan"}, "bike_id": "9045249c96c01b446491e5b084e9173a", "fusion_lon": 0.0, "type": "electric_bike", "fusion_lat": 0.0, "lat": 38.842895, "is_disabled": 0, "name": "9045249c96c01b446491e5b084e9173a", "is_reserved": 0}, {"lon": -77.05742433333333, "rental_uris": {"ios": "https://dc.lft.to/lastmile_qr_scan", "android": "https://dc.lft.to/lastmile_qr_scan"}, "bike_id": "593d4c2d73517b9711b633bf7b8be36a", "fusion_lon": 0.0, "type": "electric_scooter", "fusion_lat": 0.0, "lat": 38.93395316666667, "is_disabled": 0, "name": "593d4c2d73517b9711b633bf7b8be36a", "is_reserved": 0}, {"lon": -76.97816833333333, "rental_uris": {"ios": "https://dc.lft.to/lastmile_qr_scan", "android": "https://dc.lft.to/lastmile_qr_scan"}, "bike_id": "82f1941416755d7223ede9639cab56c9", "fusion_lon": 0.0, "type": "electric_bike", "fusion_lat": 0.0, "lat": 38.9820735, "is_disabled": 0, "name": "82f1941416755d7223ede9639cab56c9", "is_reserved": 0}, {"lon": -77.0404975, "rental_uris": {"ios": "https://dc.lft.to/lastmile_qr_scan", "android": "https://dc.lft.to/lastmile_qr_scan"}, "bike_id": "0a845cb8f42e8e877a6770e52fbae3ec", "fusion_lon": 0.0, "type": "electric_scooter", "fusion_lat": 0.0, "lat": 38.930661666666666, "is_disabled": 0, "name": "0a845cb8f42e8e877a6770e52fbae3ec", "is_reserved": 0}, {"lon": -76.98839816666667, "rental_uris": {"ios": "https://dc.lft.to/lastmile_qr_scan", "android": "https://dc.lft.to/lastmile_qr_scan"}, "bike_id": "d413ae7c4cf9910292e7da7184435987", "fusion_lon": 0.0, "type": "electric_scooter", "fusion_lat": 0.0, "lat": 38.89667766666667, "is_disabled": 0, "name": "d413ae7c4cf9910292e7da7184435987", "is_reserved": 0}, {"lon": -77.06626433333334, "rental_uris": {"ios": "https://dc.lft.to/lastmile_qr_scan", "android": "https://dc.lft.to/lastmile_qr_scan"}, "bike_id": "d5844be7d5363ef34d721e4b3e813da0", "fusion_lon": 0.0, "type": "electric_bike", "fusion_lat": 0.0, "lat": 38.86782766666666, "is_disabled": 0, "name": "d5844be7d5363ef34d721e4b3e813da0", "is_reserved": 0}, {"lon": -77.0066125, "rental_uris": {"ios": "https://dc.lft.to/lastmile_qr_scan", "android": "https://dc.lft.to/lastmile_qr_scan"}, "bike_id": "efaa1a0234bf356206f9865fc8b96ef0", "fusion_lon": 0.0, "type": "electric_scooter", "fusion_lat": 0.0, "lat": 38.87630566666667, "is_disabled": 0, "name": "efaa1a0234bf356206f9865fc8b96ef0", "is_reserved": 0}, {"lon": -77.0451775, "rental_uris": {"ios": "https://dc.lft.to/lastmile_qr_scan", "android": "https://dc.lft.to/lastmile_qr_scan"}, "bike_id": "5797f3e38b6732d5af7d752f4849ab50", "fusion_lon": 0.0, "type": "electric_scooter", "fusion_lat": 0.0, "lat": 38.9098035, "is_disabled": 0, "name": "5797f3e38b6732d5af7d752f4849ab50", "is_reserved": 0}, {"lon": -77.0364755, "rental_uris": {"ios": "https://dc.lft.to/lastmile_qr_scan", "android": "https://dc.lft.to/lastmile_qr_scan"}, "bike_id": "ae94435bdda07e57d8c79f2531e8960b", "fusion_lon": 0.0, "type": "electric_scooter", "fusion_lat": 0.0, "lat": 38.92151533333333, "is_disabled": 0, "name": "ae94435bdda07e57d8c79f2531e8960b", "is_reserved": 0}, {"lon": -77.05585183333334, "rental_uris": {"ios": "https://dc.lft.to/lastmile_qr_scan", "android": "https://dc.lft.to/lastmile_qr_scan"}, "bike_id": "8b53613e8b46aae9f4630c171fb2100c", "fusion_lon": 0.0, "type": "electric_scooter", "fusion_lat": 0.0, "lat": 38.93599866666667, "is_disabled": 0, "name": "8b53613e8b46aae9f4630c171fb2100c", "is_reserved": 0}, {"lon": -77.0525765, "rental_uris": {"ios": "https://dc.lft.to/lastmile_qr_scan", "android": "https://dc.lft.to/lastmile_qr_scan"}, "bike_id": "ba58bacd07904ee1e2a752507660548c", "fusion_lon": 0.0, "type": "electric_scooter", "fusion_lat": 0.0, "lat": 38.927785, "is_disabled": 0, "name": "ba58bacd07904ee1e2a752507660548c", "is_reserved": 0}, {"lon": -77.02229833333334, "rental_uris": {"ios": "https://dc.lft.to/lastmile_qr_scan", "android": "https://dc.lft.to/lastmile_qr_scan"}, "bike_id": "b15016baee44d3a5bda3be94599618b1", "fusion_lon": 0.0, "type": "electric_scooter", "fusion_lat": 0.0, "lat": 38.912704, "is_disabled": 0, "name": "b15016baee44d3a5bda3be94599618b1", "is_reserved": 0}, {"lon": -76.9799665, "rental_uris": {"ios": "https://dc.lft.to/lastmile_qr_scan", "android": "https://dc.lft.to/lastmile_qr_scan"}, "bike_id": "ae5f466753af65cea88f6f774c613644", "fusion_lon": 0.0, "type": "electric_scooter", "fusion_lat": 0.0, "lat": 38.8943875, "is_disabled": 0, "name": "ae5f466753af65cea88f6f774c613644", "is_reserved": 0}, {"lon": -77.03429866666667, "rental_uris": {"ios": "https://dc.lft.to/lastmile_qr_scan", "android": "https://dc.lft.to/lastmile_qr_scan"}, "bike_id": "451f257bbfafef0a672951af74f0bc6d", "fusion_lon": 0.0, "type": "electric_scooter", "fusion_lat": 0.0, "lat": 38.93970816666667, "is_disabled": 0, "name": "451f257bbfafef0a672951af74f0bc6d", "is_reserved": 0}, {"lon": -77.06298116666666, "rental_uris": {"ios": "https://dc.lft.to/lastmile_qr_scan", "android": "https://dc.lft.to/lastmile_qr_scan"}, "bike_id": "2f26368c399c1390153f59dcbcfb83e4", "fusion_lon": 0.0, "type": "electric_scooter", "fusion_lat": 0.0, "lat": 38.903973666666666, "is_disabled": 0, "name": "2f26368c399c1390153f59dcbcfb83e4", "is_reserved": 0}, {"lon": -77.00340466666667, "rental_uris": {"ios": "https://dc.lft.to/lastmile_qr_scan", "android": "https://dc.lft.to/lastmile_qr_scan"}, "bike_id": "49d9ae5d4fe514816c17b0d067a4f92b", "fusion_lon": 0.0, "type": "electric_scooter", "fusion_lat": 0.0, "lat": 38.8994865, "is_disabled": 0, "name": "49d9ae5d4fe514816c17b0d067a4f92b", "is_reserved": 0}, {"lon": -77.0280885, "rental_uris": {"ios": "https://dc.lft.to/lastmile_qr_scan", "android": "https://dc.lft.to/lastmile_qr_scan"}, "bike_id": "200f2abd7847874beafea8daadc3083d", "fusion_lon": 0.0, "type": "electric_scooter", "fusion_lat": 0.0, "lat": 38.91791533333333, "is_disabled": 0, "name": "200f2abd7847874beafea8daadc3083d", "is_reserved": 0}, {"lon": -77.03270333333333, "rental_uris": {"ios": "https://dc.lft.to/lastmile_qr_scan", "android": "https://dc.lft.to/lastmile_qr_scan"}, "bike_id": "0c2ca6326aeb8e00d1d266dd63921365", "fusion_lon": 0.0, "type": "electric_scooter", "fusion_lat": 0.0, "lat": 38.929874, "is_disabled": 0, "name": "0c2ca6326aeb8e00d1d266dd63921365", "is_reserved": 0}, {"lon": -77.0128035, "rental_uris": {"ios": "https://dc.lft.to/lastmile_qr_scan", "android": "https://dc.lft.to/lastmile_qr_scan"}, "bike_id": "fda39828a3db555fde38bc3c84216bf7", "fusion_lon": 0.0, "type": "electric_bike", "fusion_lat": 0.0, "lat": 39.003820833333336, "is_disabled": 0, "name": "fda39828a3db555fde38bc3c84216bf7", "is_reserved": 0}, {"lon": -77.01557733333334, "rental_uris": {"ios": "https://dc.lft.to/lastmile_qr_scan", "android": "https://dc.lft.to/lastmile_qr_scan"}, "bike_id": "68f04e49d2b85ef93c163ab59d3ca76e", "fusion_lon": 0.0, "type": "electric_scooter", "fusion_lat": 0.0, "lat": 38.8917415, "is_disabled": 0, "name": "68f04e49d2b85ef93c163ab59d3ca76e", "is_reserved": 0}, {"lon": -77.0295095, "rental_uris": {"ios": "https://dc.lft.to/lastmile_qr_scan", "android": "https://dc.lft.to/lastmile_qr_scan"}, "bike_id": "240f64e4ccc83941a0a08b9628fecc15", "fusion_lon": 0.0, "type": "electric_scooter", "fusion_lat": 0.0, "lat": 38.907741333333334, "is_disabled": 0, "name": "240f64e4ccc83941a0a08b9628fecc15", "is_reserved": 0}, {"lon": -76.99857533333333, "rental_uris": {"ios": "https://dc.lft.to/lastmile_qr_scan", "android": "https://dc.lft.to/lastmile_qr_scan"}, "bike_id": "e97c0f8a5e15f34b37a0154690d526bc", "fusion_lon": 0.0, "type": "electric_scooter", "fusion_lat": 0.0, "lat": 38.837664, "is_disabled": 0, "name": "e97c0f8a5e15f34b37a0154690d526bc", "is_reserved": 0}, {"lon": -76.97572766666667, "rental_uris": {"ios": "https://dc.lft.to/lastmile_qr_scan", "android": "https://dc.lft.to/lastmile_qr_scan"}, "bike_id": "42f420385f995dd76dd8eb6f521d622b", "fusion_lon": 0.0, "type": "electric_scooter", "fusion_lat": 0.0, "lat": 38.9033885, "is_disabled": 0, "name": "42f420385f995dd76dd8eb6f521d622b", "is_reserved": 0}, {"lon": -76.94294916666666, "rental_uris": {"ios": "https://dc.lft.to/lastmile_qr_scan", "android": "https://dc.lft.to/lastmile_qr_scan"}, "bike_id": "dc0d29ea02a649d9255177b2b42a86aa", "fusion_lon": 0.0, "type": "electric_bike", "fusion_lat": 0.0, "lat": 38.953625833333334, "is_disabled": 0, "name": "dc0d29ea02a649d9255177b2b42a86aa", "is_reserved": 0}, {"lon": -77.0552145, "rental_uris": {"ios": "https://dc.lft.to/lastmile_qr_scan", "android": "https://dc.lft.to/lastmile_qr_scan"}, "bike_id": "70ec4a1e69d1e2bebd19cd4c3bb4277c", "fusion_lon": 0.0, "type": "electric_scooter", "fusion_lat": 0.0, "lat": 38.92961833333333, "is_disabled": 0, "name": "70ec4a1e69d1e2bebd19cd4c3bb4277c", "is_reserved": 0}, {"lon": -76.9969585, "rental_uris": {"ios": "https://dc.lft.to/lastmile_qr_scan", "android": "https://dc.lft.to/lastmile_qr_scan"}, "bike_id": "ed6207f55fc6a3512578dadd62357146", "fusion_lon": 0.0, "type": "electric_scooter", "fusion_lat": 0.0, "lat": 38.884273666666665, "is_disabled": 0, "name": "ed6207f55fc6a3512578dadd62357146", "is_reserved": 0}, {"lon": -77.03846783333333, "rental_uris": {"ios": "https://dc.lft.to/lastmile_qr_scan", "android": "https://dc.lft.to/lastmile_qr_scan"}, "bike_id": "572797f40f06aeffb35213a6001b9ebd", "fusion_lon": 0.0, "type": "electric_scooter", "fusion_lat": 0.0, "lat": 38.9084725, "is_disabled": 0, "name": "572797f40f06aeffb35213a6001b9ebd", "is_reserved": 0}, {"lon": -77.03669433333333, "rental_uris": {"ios": "https://dc.lft.to/lastmile_qr_scan", "android": "https://dc.lft.to/lastmile_qr_scan"}, "bike_id": "4d7481315124bf835608f03c5b2936b6", "fusion_lon": 0.0, "type": "electric_scooter", "fusion_lat": 0.0, "lat": 38.922739, "is_disabled": 0, "name": "4d7481315124bf835608f03c5b2936b6", "is_reserved": 0}, {"lon": -77.01969583333333, "rental_uris": {"ios": "https://dc.lft.to/lastmile_qr_scan", "android": "https://dc.lft.to/lastmile_qr_scan"}, "bike_id": "1d1c1bb3ac156a3be8845c3457461969", "fusion_lon": 0.0, "type": "electric_scooter", "fusion_lat": 0.0, "lat": 38.88403183333333, "is_disabled": 0, "name": "1d1c1bb3ac156a3be8845c3457461969", "is_reserved": 0}, {"lon": -77.04828916666666, "rental_uris": {"ios": "https://dc.lft.to/lastmile_qr_scan", "android": "https://dc.lft.to/lastmile_qr_scan"}, "bike_id": "929b38712223a9dd6b746ce5bc76126e", "fusion_lon": 0.0, "type": "electric_scooter", "fusion_lat": 0.0, "lat": 38.9006165, "is_disabled": 0, "name": "929b38712223a9dd6b746ce5bc76126e", "is_reserved": 0}, {"lon": -77.040302, "rental_uris": {"ios": "https://dc.lft.to/lastmile_qr_scan", "android": "https://dc.lft.to/lastmile_qr_scan"}, "bike_id": "76a1082bf14ccff20f36d2708eb61a37", "fusion_lon": 0.0, "type": "electric_scooter", "fusion_lat": 0.0, "lat": 38.93070816666667, "is_disabled": 0, "name": "76a1082bf14ccff20f36d2708eb61a37", "is_reserved": 0}, {"lon": -77.0195405, "rental_uris": {"ios": "https://dc.lft.to/lastmile_qr_scan", "android": "https://dc.lft.to/lastmile_qr_scan"}, "bike_id": "28b7a174a12a9b505d361a5a41df4531", "fusion_lon": 0.0, "type": "electric_scooter", "fusion_lat": 0.0, "lat": 38.9232855, "is_disabled": 0, "name": "28b7a174a12a9b505d361a5a41df4531", "is_reserved": 0}, {"lon": -77.03439083333333, "rental_uris": {"ios": "https://dc.lft.to/lastmile_qr_scan", "android": "https://dc.lft.to/lastmile_qr_scan"}, "bike_id": "084ff11740624b7b0d5b72838ee510f6", "fusion_lon": 0.0, "type": "electric_scooter", "fusion_lat": 0.0, "lat": 38.92164316666667, "is_disabled": 0, "name": "084ff11740624b7b0d5b72838ee510f6", "is_reserved": 0}, {"lon": -77.0022535, "rental_uris": {"ios": "https://dc.lft.to/lastmile_qr_scan", "android": "https://dc.lft.to/lastmile_qr_scan"}, "bike_id": "45f5eb3a51a8a3280933bb84d32f1ce3", "fusion_lon": 0.0, "type": "electric_scooter", "fusion_lat": 0.0, "lat": 38.925102333333335, "is_disabled": 0, "name": "45f5eb3a51a8a3280933bb84d32f1ce3", "is_reserved": 0}, {"lon": -77.06610716666667, "rental_uris": {"ios": "https://dc.lft.to/lastmile_qr_scan", "android": "https://dc.lft.to/lastmile_qr_scan"}, "bike_id": "aedaab360fa13ee273a323dad3d707ab", "fusion_lon": 0.0, "type": "electric_scooter", "fusion_lat": 0.0, "lat": 38.93662616666667, "is_disabled": 0, "name": "aedaab360fa13ee273a323dad3d707ab", "is_reserved": 0}, {"lon": -77.03476316666666, "rental_uris": {"ios": "https://dc.lft.to/lastmile_qr_scan", "android": "https://dc.lft.to/lastmile_qr_scan"}, "bike_id": "169406215996dd5ddcef8a248f6be4fe", "fusion_lon": 0.0, "type": "electric_scooter", "fusion_lat": 0.0, "lat": 38.92249666666667, "is_disabled": 0, "name": "169406215996dd5ddcef8a248f6be4fe", "is_reserved": 0}, {"lon": -77.00068966666667, "rental_uris": {"ios": "https://dc.lft.to/lastmile_qr_scan", "android": "https://dc.lft.to/lastmile_qr_scan"}, "bike_id": "0f3059983e6d255e0f582bb427a39dde", "fusion_lon": 0.0, "type": "electric_scooter", "fusion_lat": 0.0, "lat": 38.882627666666664, "is_disabled": 0, "name": "0f3059983e6d255e0f582bb427a39dde", "is_reserved": 0}, {"lon": -77.03795916666667, "rental_uris": {"ios": "https://dc.lft.to/lastmile_qr_scan", "android": "https://dc.lft.to/lastmile_qr_scan"}, "bike_id": "916011049ebd5aa3136ca67b67b3c2b7", "fusion_lon": 0.0, "type": "electric_scooter", "fusion_lat": 0.0, "lat": 38.9238145, "is_disabled": 0, "name": "916011049ebd5aa3136ca67b67b3c2b7", "is_reserved": 0}, {"lon": -77.0446495, "rental_uris": {"ios": "https://dc.lft.to/lastmile_qr_scan", "android": "https://dc.lft.to/lastmile_qr_scan"}, "bike_id": "41d46e1b4e19682716eb597ede534794", "fusion_lon": 0.0, "type": "electric_scooter", "fusion_lat": 0.0, "lat": 38.918733, "is_disabled": 0, "name": "41d46e1b4e19682716eb597ede534794", "is_reserved": 0}, {"lon": -77.04410133333333, "rental_uris": {"ios": "https://dc.lft.to/lastmile_qr_scan", "android": "https://dc.lft.to/lastmile_qr_scan"}, "bike_id": "9314a86b899f52364379633cb96e2724", "fusion_lon": 0.0, "type": "electric_scooter", "fusion_lat": 0.0, "lat": 38.8961355, "is_disabled": 0, "name": "9314a86b899f52364379633cb96e2724", "is_reserved": 0}, {"lon": -77.00371416666667, "rental_uris": {"ios": "https://dc.lft.to/lastmile_qr_scan", "android": "https://dc.lft.to/lastmile_qr_scan"}, "bike_id": "176b5e468f63fedd40a601d0b4a5a43b", "fusion_lon": 0.0, "type": "electric_scooter", "fusion_lat": 0.0, "lat": 38.90862033333333, "is_disabled": 0, "name": "176b5e468f63fedd40a601d0b4a5a43b", "is_reserved": 0}, {"lon": -77.04330983333334, "rental_uris": {"ios": "https://dc.lft.to/lastmile_qr_scan", "android": "https://dc.lft.to/lastmile_qr_scan"}, "bike_id": "463700c7804fbc8f769c913d0f076399", "fusion_lon": 0.0, "type": "electric_scooter", "fusion_lat": 0.0, "lat": 38.9013375, "is_disabled": 0, "name": "463700c7804fbc8f769c913d0f076399", "is_reserved": 0}, {"lon": -76.99164616666667, "rental_uris": {"ios": "https://dc.lft.to/lastmile_qr_scan", "android": "https://dc.lft.to/lastmile_qr_scan"}, "bike_id": "1e3be0847c7f08ae320618abae2df6df", "fusion_lon": 0.0, "type": "electric_scooter", "fusion_lat": 0.0, "lat": 38.873407, "is_disabled": 0, "name": "1e3be0847c7f08ae320618abae2df6df", "is_reserved": 0}, {"lon": -77.02943566666667, "rental_uris": {"ios": "https://dc.lft.to/lastmile_qr_scan", "android": "https://dc.lft.to/lastmile_qr_scan"}, "bike_id": "66efd9e2ca4ed9e42ffc7d76b3f13ec7", "fusion_lon": 0.0, "type": "electric_scooter", "fusion_lat": 0.0, "lat": 38.899247833333334, "is_disabled": 0, "name": "66efd9e2ca4ed9e42ffc7d76b3f13ec7", "is_reserved": 0}, {"lon": -77.02229766666666, "rental_uris": {"ios": "https://dc.lft.to/lastmile_qr_scan", "android": "https://dc.lft.to/lastmile_qr_scan"}, "bike_id": "46ec8771761ad0a47edb59525dff581c", "fusion_lon": 0.0, "type": "electric_scooter", "fusion_lat": 0.0, "lat": 38.891978, "is_disabled": 0, "name": "46ec8771761ad0a47edb59525dff581c", "is_reserved": 0}, {"lon": -77.00710966666666, "rental_uris": {"ios": "https://dc.lft.to/lastmile_qr_scan", "android": "https://dc.lft.to/lastmile_qr_scan"}, "bike_id": "42873458b9013c78acbe4f6d91fb9b74", "fusion_lon": 0.0, "type": "electric_scooter", "fusion_lat": 0.0, "lat": 38.884931, "is_disabled": 0, "name": "42873458b9013c78acbe4f6d91fb9b74", "is_reserved": 0}, {"lon": -77.005446, "rental_uris": {"ios": "https://dc.lft.to/lastmile_qr_scan", "android": "https://dc.lft.to/lastmile_qr_scan"}, "bike_id": "a9c125c4f282eaa6de246e6e05b27b2f", "fusion_lon": 0.0, "type": "electric_scooter", "fusion_lat": 0.0, "lat": 38.92754083333333, "is_disabled": 0, "name": "a9c125c4f282eaa6de246e6e05b27b2f", "is_reserved": 0}, {"lon": -77.0072365, "rental_uris": {"ios": "https://dc.lft.to/lastmile_qr_scan", "android": "https://dc.lft.to/lastmile_qr_scan"}, "bike_id": "2434c3d4f4b2e169208d56cd7337caa5", "fusion_lon": 0.0, "type": "electric_scooter", "fusion_lat": 0.0, "lat": 38.87645116666667, "is_disabled": 0, "name": "2434c3d4f4b2e169208d56cd7337caa5", "is_reserved": 0}, {"lon": -77.096899, "rental_uris": {"ios": "https://dc.lft.to/lastmile_qr_scan", "android": "https://dc.lft.to/lastmile_qr_scan"}, "bike_id": "5a573811f4403e636f354e660816a88b", "fusion_lon": 0.0, "type": "electric_bike", "fusion_lat": 0.0, "lat": 38.807385833333335, "is_disabled": 0, "name": "5a573811f4403e636f354e660816a88b", "is_reserved": 0}, {"lon": -77.028498, "rental_uris": {"ios": "https://dc.lft.to/lastmile_qr_scan", "android": "https://dc.lft.to/lastmile_qr_scan"}, "bike_id": "6c847194105bb0238f69fd70c4abf410", "fusion_lon": 0.0, "type": "electric_scooter", "fusion_lat": 0.0, "lat": 38.881901166666665, "is_disabled": 0, "name": "6c847194105bb0238f69fd70c4abf410", "is_reserved": 0}, {"lon": -77.02852616666667, "rental_uris": {"ios": "https://dc.lft.to/lastmile_qr_scan", "android": "https://dc.lft.to/lastmile_qr_scan"}, "bike_id": "4f466632ca98af51ec5309eb95aeaf86", "fusion_lon": 0.0, "type": "electric_scooter", "fusion_lat": 0.0, "lat": 38.941985833333334, "is_disabled": 0, "name": "4f466632ca98af51ec5309eb95aeaf86", "is_reserved": 0}, {"lon": -76.96261833333334, "rental_uris": {"ios": "https://dc.lft.to/lastmile_qr_scan", "android": "https://dc.lft.to/lastmile_qr_scan"}, "bike_id": "f3df3b25fedab75b6858e66183ebcf72", "fusion_lon": 0.0, "type": "electric_bike", "fusion_lat": 0.0, "lat": 38.88246683333333, "is_disabled": 0, "name": "f3df3b25fedab75b6858e66183ebcf72", "is_reserved": 0}, {"lon": -77.00760366666667, "rental_uris": {"ios": "https://dc.lft.to/lastmile_qr_scan", "android": "https://dc.lft.to/lastmile_qr_scan"}, "bike_id": "72e9a612e87607e36ec55cf6ab9cb23c", "fusion_lon": 0.0, "type": "electric_scooter", "fusion_lat": 0.0, "lat": 38.9006175, "is_disabled": 0, "name": "72e9a612e87607e36ec55cf6ab9cb23c", "is_reserved": 0}, {"lon": -77.0281015, "rental_uris": {"ios": "https://dc.lft.to/lastmile_qr_scan", "android": "https://dc.lft.to/lastmile_qr_scan"}, "bike_id": "777913292500fd90557b0af9c859504c", "fusion_lon": 0.0, "type": "electric_scooter", "fusion_lat": 0.0, "lat": 38.89562866666667, "is_disabled": 0, "name": "777913292500fd90557b0af9c859504c", "is_reserved": 0}, {"lon": -77.0326035, "rental_uris": {"ios": "https://dc.lft.to/lastmile_qr_scan", "android": "https://dc.lft.to/lastmile_qr_scan"}, "bike_id": "6179a9f13b003f6fb3f1c8f4c4bf3987", "fusion_lon": 0.0, "type": "electric_bike", "fusion_lat": 0.0, "lat": 38.88079583333333, "is_disabled": 0, "name": "6179a9f13b003f6fb3f1c8f4c4bf3987", "is_reserved": 0}, {"lon": -77.0329355, "rental_uris": {"ios": "https://dc.lft.to/lastmile_qr_scan", "android": "https://dc.lft.to/lastmile_qr_scan"}, "bike_id": "0a4187fddec9325b90f75fc994ba73a0", "fusion_lon": 0.0, "type": "electric_scooter", "fusion_lat": 0.0, "lat": 38.905752, "is_disabled": 0, "name": "0a4187fddec9325b90f75fc994ba73a0", "is_reserved": 0}, {"lon": -77.02167466666667, "rental_uris": {"ios": "https://dc.lft.to/lastmile_qr_scan", "android": "https://dc.lft.to/lastmile_qr_scan"}, "bike_id": "c4371413483ebe5285f722f207c70692", "fusion_lon": 0.0, "type": "electric_scooter", "fusion_lat": 0.0, "lat": 38.942505, "is_disabled": 0, "name": "c4371413483ebe5285f722f207c70692", "is_reserved": 0}, {"lon": -77.04851516666666, "rental_uris": {"ios": "https://dc.lft.to/lastmile_qr_scan", "android": "https://dc.lft.to/lastmile_qr_scan"}, "bike_id": "4bd69a506b20e77c3628dc7c39532755", "fusion_lon": 0.0, "type": "electric_scooter", "fusion_lat": 0.0, "lat": 38.9004895, "is_disabled": 0, "name": "4bd69a506b20e77c3628dc7c39532755", "is_reserved": 0}, {"lon": -77.03261566666667, "rental_uris": {"ios": "https://dc.lft.to/lastmile_qr_scan", "android": "https://dc.lft.to/lastmile_qr_scan"}, "bike_id": "d664d37485878f5ca98ab5f051c571a6", "fusion_lon": 0.0, "type": "electric_scooter", "fusion_lat": 0.0, "lat": 38.935250333333336, "is_disabled": 0, "name": "d664d37485878f5ca98ab5f051c571a6", "is_reserved": 0}, {"lon": -77.00066583333333, "rental_uris": {"ios": "https://dc.lft.to/lastmile_qr_scan", "android": "https://dc.lft.to/lastmile_qr_scan"}, "bike_id": "2112e52ac6d362078fe974ddb2163830", "fusion_lon": 0.0, "type": "electric_scooter", "fusion_lat": 0.0, "lat": 38.9240035, "is_disabled": 0, "name": "2112e52ac6d362078fe974ddb2163830", "is_reserved": 0}, {"lon": -77.022943, "rental_uris": {"ios": "https://dc.lft.to/lastmile_qr_scan", "android": "https://dc.lft.to/lastmile_qr_scan"}, "bike_id": "2aa7a2ba2569e51856430fdc1107adf9", "fusion_lon": 0.0, "type": "electric_scooter", "fusion_lat": 0.0, "lat": 38.8971025, "is_disabled": 0, "name": "2aa7a2ba2569e51856430fdc1107adf9", "is_reserved": 0}, {"lon": -77.03388816666667, "rental_uris": {"ios": "https://dc.lft.to/lastmile_qr_scan", "android": "https://dc.lft.to/lastmile_qr_scan"}, "bike_id": "a619ebd5c5cbc84bdd88ae069a06b97c", "fusion_lon": 0.0, "type": "electric_scooter", "fusion_lat": 0.0, "lat": 38.90973, "is_disabled": 0, "name": "a619ebd5c5cbc84bdd88ae069a06b97c", "is_reserved": 0}, {"lon": -77.0317555, "rental_uris": {"ios": "https://dc.lft.to/lastmile_qr_scan", "android": "https://dc.lft.to/lastmile_qr_scan"}, "bike_id": "f9027bc71c6da5bf7b9e5ae875a6adc8", "fusion_lon": 0.0, "type": "electric_scooter", "fusion_lat": 0.0, "lat": 38.892083666666664, "is_disabled": 0, "name": "f9027bc71c6da5bf7b9e5ae875a6adc8", "is_reserved": 0}, {"lon": -76.990027, "rental_uris": {"ios": "https://dc.lft.to/lastmile_qr_scan", "android": "https://dc.lft.to/lastmile_qr_scan"}, "bike_id": "bab797d63860fddaa1569301d6576464", "fusion_lon": 0.0, "type": "electric_scooter", "fusion_lat": 0.0, "lat": 38.903932833333336, "is_disabled": 0, "name": "bab797d63860fddaa1569301d6576464", "is_reserved": 0}, {"lon": -77.0269965, "rental_uris": {"ios": "https://dc.lft.to/lastmile_qr_scan", "android": "https://dc.lft.to/lastmile_qr_scan"}, "bike_id": "1401235756a3f8ffdcb66ad5b8c45b94", "fusion_lon": 0.0, "type": "electric_scooter", "fusion_lat": 0.0, "lat": 38.896996333333334, "is_disabled": 0, "name": "1401235756a3f8ffdcb66ad5b8c45b94", "is_reserved": 0}, {"lon": -77.00561216666667, "rental_uris": {"ios": "https://dc.lft.to/lastmile_qr_scan", "android": "https://dc.lft.to/lastmile_qr_scan"}, "bike_id": "2284862a25d874e3d86d8f95dc044168", "fusion_lon": 0.0, "type": "electric_scooter", "fusion_lat": 0.0, "lat": 38.885048833333336, "is_disabled": 0, "name": "2284862a25d874e3d86d8f95dc044168", "is_reserved": 0}, {"lon": -77.04529866666667, "rental_uris": {"ios": "https://dc.lft.to/lastmile_qr_scan", "android": "https://dc.lft.to/lastmile_qr_scan"}, "bike_id": "e6d26c8d648ea031b582b43e9d60d5fd", "fusion_lon": 0.0, "type": "electric_scooter", "fusion_lat": 0.0, "lat": 38.900691, "is_disabled": 0, "name": "e6d26c8d648ea031b582b43e9d60d5fd", "is_reserved": 0}, {"lon": -77.0280625, "rental_uris": {"ios": "https://dc.lft.to/lastmile_qr_scan", "android": "https://dc.lft.to/lastmile_qr_scan"}, "bike_id": "3ca67c20422a28e1e73023197fc808ca", "fusion_lon": 0.0, "type": "electric_scooter", "fusion_lat": 0.0, "lat": 38.9445955, "is_disabled": 0, "name": "3ca67c20422a28e1e73023197fc808ca", "is_reserved": 0}, {"lon": -77.0433255, "rental_uris": {"ios": "https://dc.lft.to/lastmile_qr_scan", "android": "https://dc.lft.to/lastmile_qr_scan"}, "bike_id": "cd26866e9b1976bb1f6aba28c150adcc", "fusion_lon": 0.0, "type": "electric_scooter", "fusion_lat": 0.0, "lat": 38.8922555, "is_disabled": 0, "name": "cd26866e9b1976bb1f6aba28c150adcc", "is_reserved": 0}, {"lon": -77.05332916666667, "rental_uris": {"ios": "https://dc.lft.to/lastmile_qr_scan", "android": "https://dc.lft.to/lastmile_qr_scan"}, "bike_id": "56c893fbb5dcf1ebe8660b80daa55205", "fusion_lon": 0.0, "type": "electric_scooter", "fusion_lat": 0.0, "lat": 38.904221666666665, "is_disabled": 0, "name": "56c893fbb5dcf1ebe8660b80daa55205", "is_reserved": 0}, {"lon": -77.02799583333334, "rental_uris": {"ios": "https://dc.lft.to/lastmile_qr_scan", "android": "https://dc.lft.to/lastmile_qr_scan"}, "bike_id": "b383ffcd008499722aa84d8df8fd2143", "fusion_lon": 0.0, "type": "electric_scooter", "fusion_lat": 0.0, "lat": 38.892272, "is_disabled": 0, "name": "b383ffcd008499722aa84d8df8fd2143", "is_reserved": 0}, {"lon": -76.97929483333333, "rental_uris": {"ios": "https://dc.lft.to/lastmile_qr_scan", "android": "https://dc.lft.to/lastmile_qr_scan"}, "bike_id": "01564f208e26711aa9283d940129dbd8", "fusion_lon": 0.0, "type": "electric_scooter", "fusion_lat": 0.0, "lat": 38.906781333333335, "is_disabled": 0, "name": "01564f208e26711aa9283d940129dbd8", "is_reserved": 0}, {"lon": -77.03091533333334, "rental_uris": {"ios": "https://dc.lft.to/lastmile_qr_scan", "android": "https://dc.lft.to/lastmile_qr_scan"}, "bike_id": "93a73c9a20e4025635ad4a7dec9274af", "fusion_lon": 0.0, "type": "electric_scooter", "fusion_lat": 0.0, "lat": 38.959245833333334, "is_disabled": 0, "name": "93a73c9a20e4025635ad4a7dec9274af", "is_reserved": 0}, {"lon": -77.00921133333334, "rental_uris": {"ios": "https://dc.lft.to/lastmile_qr_scan", "android": "https://dc.lft.to/lastmile_qr_scan"}, "bike_id": "cf6b89da66bbc3e1b7d73bd7e26067bc", "fusion_lon": 0.0, "type": "electric_scooter", "fusion_lat": 0.0, "lat": 38.914741, "is_disabled": 0, "name": "cf6b89da66bbc3e1b7d73bd7e26067bc", "is_reserved": 0}, {"lon": -76.99561733333333, "rental_uris": {"ios": "https://dc.lft.to/lastmile_qr_scan", "android": "https://dc.lft.to/lastmile_qr_scan"}, "bike_id": "9e09b05761c53be407bb9dc5cc32ab0d", "fusion_lon": 0.0, "type": "electric_scooter", "fusion_lat": 0.0, "lat": 38.92514883333333, "is_disabled": 0, "name": "9e09b05761c53be407bb9dc5cc32ab0d", "is_reserved": 0}, {"lon": -77.02948866666667, "rental_uris": {"ios": "https://dc.lft.to/lastmile_qr_scan", "android": "https://dc.lft.to/lastmile_qr_scan"}, "bike_id": "81d6efefe6e7d94771212ebe4c6b4577", "fusion_lon": 0.0, "type": "electric_scooter", "fusion_lat": 0.0, "lat": 38.898074333333334, "is_disabled": 0, "name": "81d6efefe6e7d94771212ebe4c6b4577", "is_reserved": 0}, {"lon": -76.95195266666667, "rental_uris": {"ios": "https://dc.lft.to/lastmile_qr_scan", "android": "https://dc.lft.to/lastmile_qr_scan"}, "bike_id": "acc78724f50dae982213eb8c8d075f1c", "fusion_lon": 0.0, "type": "electric_scooter", "fusion_lat": 0.0, "lat": 38.9050895, "is_disabled": 0, "name": "acc78724f50dae982213eb8c8d075f1c", "is_reserved": 0}, {"lon": -77.0521065, "rental_uris": {"ios": "https://dc.lft.to/lastmile_qr_scan", "android": "https://dc.lft.to/lastmile_qr_scan"}, "bike_id": "50c5453ede227b12a5b2c3b77e30f108", "fusion_lon": 0.0, "type": "electric_scooter", "fusion_lat": 0.0, "lat": 38.91412866666667, "is_disabled": 0, "name": "50c5453ede227b12a5b2c3b77e30f108", "is_reserved": 0}, {"lon": -76.92636666666667, "rental_uris": {"ios": "https://dc.lft.to/lastmile_qr_scan", "android": "https://dc.lft.to/lastmile_qr_scan"}, "bike_id": "4e516c8144b502d75970a6e22af78a1b", "fusion_lon": 0.0, "type": "electric_scooter", "fusion_lat": 0.0, "lat": 38.88621533333333, "is_disabled": 0, "name": "4e516c8144b502d75970a6e22af78a1b", "is_reserved": 0}, {"lon": -77.026894, "rental_uris": {"ios": "https://dc.lft.to/lastmile_qr_scan", "android": "https://dc.lft.to/lastmile_qr_scan"}, "bike_id": "8480c34e8193bb0d83f44de119f99642", "fusion_lon": 0.0, "type": "electric_scooter", "fusion_lat": 0.0, "lat": 38.943312, "is_disabled": 0, "name": "8480c34e8193bb0d83f44de119f99642", "is_reserved": 0}, {"lon": -77.043348, "rental_uris": {"ios": "https://dc.lft.to/lastmile_qr_scan", "android": "https://dc.lft.to/lastmile_qr_scan"}, "bike_id": "fc47a79cb4eefaa89c6049126f29293f", "fusion_lon": 0.0, "type": "electric_scooter", "fusion_lat": 0.0, "lat": 38.892246666666665, "is_disabled": 0, "name": "fc47a79cb4eefaa89c6049126f29293f", "is_reserved": 0}, {"lon": -77.0368405, "rental_uris": {"ios": "https://dc.lft.to/lastmile_qr_scan", "android": "https://dc.lft.to/lastmile_qr_scan"}, "bike_id": "731bb86c48c031a80720b3c2bc3573bc", "fusion_lon": 0.0, "type": "electric_bike", "fusion_lat": 0.0, "lat": 39.02646583333333, "is_disabled": 0, "name": "731bb86c48c031a80720b3c2bc3573bc", "is_reserved": 0}, {"lon": -77.0266525, "rental_uris": {"ios": "https://dc.lft.to/lastmile_qr_scan", "android": "https://dc.lft.to/lastmile_qr_scan"}, "bike_id": "a6f8b10d9b5405644c7912e49247a70b", "fusion_lon": 0.0, "type": "electric_scooter", "fusion_lat": 0.0, "lat": 38.89622716666667, "is_disabled": 0, "name": "a6f8b10d9b5405644c7912e49247a70b", "is_reserved": 0}, {"lon": -77.02713716666666, "rental_uris": {"ios": "https://dc.lft.to/lastmile_qr_scan", "android": "https://dc.lft.to/lastmile_qr_scan"}, "bike_id": "755113f34bb463723cc54c34225e4bb0", "fusion_lon": 0.0, "type": "electric_scooter", "fusion_lat": 0.0, "lat": 38.90011966666667, "is_disabled": 0, "name": "755113f34bb463723cc54c34225e4bb0", "is_reserved": 0}, {"lon": -77.02148883333334, "rental_uris": {"ios": "https://dc.lft.to/lastmile_qr_scan", "android": "https://dc.lft.to/lastmile_qr_scan"}, "bike_id": "9af71060d8846e89e2a4fa3a9f0050a8", "fusion_lon": 0.0, "type": "electric_scooter", "fusion_lat": 0.0, "lat": 38.92359533333333, "is_disabled": 0, "name": "9af71060d8846e89e2a4fa3a9f0050a8", "is_reserved": 0}, {"lon": -77.0405215, "rental_uris": {"ios": "https://dc.lft.to/lastmile_qr_scan", "android": "https://dc.lft.to/lastmile_qr_scan"}, "bike_id": "a2e2ac22bcf587289c9d3d397ecca6f6", "fusion_lon": 0.0, "type": "electric_scooter", "fusion_lat": 0.0, "lat": 38.930607333333334, "is_disabled": 0, "name": "a2e2ac22bcf587289c9d3d397ecca6f6", "is_reserved": 0}, {"lon": -77.02793716666666, "rental_uris": {"ios": "https://dc.lft.to/lastmile_qr_scan", "android": "https://dc.lft.to/lastmile_qr_scan"}, "bike_id": "ac1ffcdc32cd3a18d7e5b037a9b7e1bf", "fusion_lon": 0.0, "type": "electric_scooter", "fusion_lat": 0.0, "lat": 38.907195333333334, "is_disabled": 0, "name": "ac1ffcdc32cd3a18d7e5b037a9b7e1bf", "is_reserved": 0}, {"lon": -77.12898166666666, "rental_uris": {"ios": "https://dc.lft.to/lastmile_qr_scan", "android": "https://dc.lft.to/lastmile_qr_scan"}, "bike_id": "6666da2e92c6ea5bd034c4d9d2fde1eb", "fusion_lon": 0.0, "type": "electric_bike", "fusion_lat": 0.0, "lat": 38.90604833333333, "is_disabled": 0, "name": "6666da2e92c6ea5bd034c4d9d2fde1eb", "is_reserved": 0}, {"lon": -77.00563316666667, "rental_uris": {"ios": "https://dc.lft.to/lastmile_qr_scan", "android": "https://dc.lft.to/lastmile_qr_scan"}, "bike_id": "8cdd80f47ff3400ad9bf030a42484497", "fusion_lon": 0.0, "type": "electric_scooter", "fusion_lat": 0.0, "lat": 38.8850665, "is_disabled": 0, "name": "8cdd80f47ff3400ad9bf030a42484497", "is_reserved": 0}, {"lon": -77.00192016666666, "rental_uris": {"ios": "https://dc.lft.to/lastmile_qr_scan", "android": "https://dc.lft.to/lastmile_qr_scan"}, "bike_id": "b6349c0a4c48d8ce6e4b92e9214faf1d", "fusion_lon": 0.0, "type": "electric_scooter", "fusion_lat": 0.0, "lat": 38.88765316666667, "is_disabled": 0, "name": "b6349c0a4c48d8ce6e4b92e9214faf1d", "is_reserved": 0}, {"lon": -77.028006, "rental_uris": {"ios": "https://dc.lft.to/lastmile_qr_scan", "android": "https://dc.lft.to/lastmile_qr_scan"}, "bike_id": "027b38a896ad7f130b724d7c8fc2e727", "fusion_lon": 0.0, "type": "electric_scooter", "fusion_lat": 0.0, "lat": 38.90366066666667, "is_disabled": 0, "name": "027b38a896ad7f130b724d7c8fc2e727", "is_reserved": 0}, {"lon": -77.02974116666667, "rental_uris": {"ios": "https://dc.lft.to/lastmile_qr_scan", "android": "https://dc.lft.to/lastmile_qr_scan"}, "bike_id": "65e57c833326513c94927bc17dbc4b07", "fusion_lon": 0.0, "type": "electric_scooter", "fusion_lat": 0.0, "lat": 38.934467, "is_disabled": 0, "name": "65e57c833326513c94927bc17dbc4b07", "is_reserved": 0}, {"lon": -77.02600566666666, "rental_uris": {"ios": "https://dc.lft.to/lastmile_qr_scan", "android": "https://dc.lft.to/lastmile_qr_scan"}, "bike_id": "083d5411b522e84ec7dc187cce503af1", "fusion_lon": 0.0, "type": "electric_scooter", "fusion_lat": 0.0, "lat": 38.92063366666667, "is_disabled": 0, "name": "083d5411b522e84ec7dc187cce503af1", "is_reserved": 0}, {"lon": -77.03929883333333, "rental_uris": {"ios": "https://dc.lft.to/lastmile_qr_scan", "android": "https://dc.lft.to/lastmile_qr_scan"}, "bike_id": "63983efc576e669aa1900f942225b60c", "fusion_lon": 0.0, "type": "electric_scooter", "fusion_lat": 0.0, "lat": 38.902636333333334, "is_disabled": 0, "name": "63983efc576e669aa1900f942225b60c", "is_reserved": 0}, {"lon": -77.031637, "rental_uris": {"ios": "https://dc.lft.to/lastmile_qr_scan", "android": "https://dc.lft.to/lastmile_qr_scan"}, "bike_id": "10a71a0bb759a73c236a8ecdce9ae6bd", "fusion_lon": 0.0, "type": "electric_scooter", "fusion_lat": 0.0, "lat": 38.9202895, "is_disabled": 0, "name": "10a71a0bb759a73c236a8ecdce9ae6bd", "is_reserved": 0}, {"lon": -77.051466, "rental_uris": {"ios": "https://dc.lft.to/lastmile_qr_scan", "android": "https://dc.lft.to/lastmile_qr_scan"}, "bike_id": "c944835d7621d7e47ebe506e769fcbe2", "fusion_lon": 0.0, "type": "electric_scooter", "fusion_lat": 0.0, "lat": 38.905114, "is_disabled": 0, "name": "c944835d7621d7e47ebe506e769fcbe2", "is_reserved": 0}, {"lon": -77.019661, "rental_uris": {"ios": "https://dc.lft.to/lastmile_qr_scan", "android": "https://dc.lft.to/lastmile_qr_scan"}, "bike_id": "a5703b2a8cd05ea5580c4ad9e1b2f0d0", "fusion_lon": 0.0, "type": "electric_scooter", "fusion_lat": 0.0, "lat": 38.8952, "is_disabled": 0, "name": "a5703b2a8cd05ea5580c4ad9e1b2f0d0", "is_reserved": 0}, {"lon": -77.0241985, "rental_uris": {"ios": "https://dc.lft.to/lastmile_qr_scan", "android": "https://dc.lft.to/lastmile_qr_scan"}, "bike_id": "ae9c26960121f365c9c9339513f7dd1b", "fusion_lon": 0.0, "type": "electric_scooter", "fusion_lat": 0.0, "lat": 38.89222516666667, "is_disabled": 0, "name": "ae9c26960121f365c9c9339513f7dd1b", "is_reserved": 0}, {"lon": -77.03440616666667, "rental_uris": {"ios": "https://dc.lft.to/lastmile_qr_scan", "android": "https://dc.lft.to/lastmile_qr_scan"}, "bike_id": "c9d1b4d8b2d5a9786a09ec63c8778ff6", "fusion_lon": 0.0, "type": "electric_scooter", "fusion_lat": 0.0, "lat": 38.91807283333333, "is_disabled": 0, "name": "c9d1b4d8b2d5a9786a09ec63c8778ff6", "is_reserved": 0}, {"lon": -77.03841316666667, "rental_uris": {"ios": "https://dc.lft.to/lastmile_qr_scan", "android": "https://dc.lft.to/lastmile_qr_scan"}, "bike_id": "971c803aa9959ddadb31be3113dc723d", "fusion_lon": 0.0, "type": "electric_scooter", "fusion_lat": 0.0, "lat": 38.90073316666667, "is_disabled": 0, "name": "971c803aa9959ddadb31be3113dc723d", "is_reserved": 0}, {"lon": -77.02372216666667, "rental_uris": {"ios": "https://dc.lft.to/lastmile_qr_scan", "android": "https://dc.lft.to/lastmile_qr_scan"}, "bike_id": "358913f00d89fedd91315b67c4800322", "fusion_lon": 0.0, "type": "electric_scooter", "fusion_lat": 0.0, "lat": 38.892212, "is_disabled": 0, "name": "358913f00d89fedd91315b67c4800322", "is_reserved": 0}, {"lon": -77.0431905, "rental_uris": {"ios": "https://dc.lft.to/lastmile_qr_scan", "android": "https://dc.lft.to/lastmile_qr_scan"}, "bike_id": "64a8f6bc0223b613a177cc51b17628d3", "fusion_lon": 0.0, "type": "electric_scooter", "fusion_lat": 0.0, "lat": 38.923251666666665, "is_disabled": 0, "name": "64a8f6bc0223b613a177cc51b17628d3", "is_reserved": 0}, {"lon": -77.026336, "rental_uris": {"ios": "https://dc.lft.to/lastmile_qr_scan", "android": "https://dc.lft.to/lastmile_qr_scan"}, "bike_id": "5a2a0b3c752dc7e337433cc1859c6a3f", "fusion_lon": 0.0, "type": "electric_scooter", "fusion_lat": 0.0, "lat": 38.898429, "is_disabled": 0, "name": "5a2a0b3c752dc7e337433cc1859c6a3f", "is_reserved": 0}, {"lon": -77.06832733333333, "rental_uris": {"ios": "https://dc.lft.to/lastmile_qr_scan", "android": "https://dc.lft.to/lastmile_qr_scan"}, "bike_id": "1cffe3e869bdcb84eba8d2af6efafd66", "fusion_lon": 0.0, "type": "electric_bike", "fusion_lat": 0.0, "lat": 38.856395666666664, "is_disabled": 0, "name": "1cffe3e869bdcb84eba8d2af6efafd66", "is_reserved": 0}, {"lon": -77.04229933333333, "rental_uris": {"ios": "https://dc.lft.to/lastmile_qr_scan", "android": "https://dc.lft.to/lastmile_qr_scan"}, "bike_id": "1b067391cae97e2c9068daa76cf4b16a", "fusion_lon": 0.0, "type": "electric_scooter", "fusion_lat": 0.0, "lat": 38.921734, "is_disabled": 0, "name": "1b067391cae97e2c9068daa76cf4b16a", "is_reserved": 0}, {"lon": -77.0076765, "rental_uris": {"ios": "https://dc.lft.to/lastmile_qr_scan", "android": "https://dc.lft.to/lastmile_qr_scan"}, "bike_id": "ded4ea14a8f584e67fa3dbf8a5486d49", "fusion_lon": 0.0, "type": "electric_scooter", "fusion_lat": 0.0, "lat": 38.876535, "is_disabled": 0, "name": "ded4ea14a8f584e67fa3dbf8a5486d49", "is_reserved": 0}, {"lon": -76.997345, "rental_uris": {"ios": "https://dc.lft.to/lastmile_qr_scan", "android": "https://dc.lft.to/lastmile_qr_scan"}, "bike_id": "87ed49795c577d20720601df3198aa8c", "fusion_lon": 0.0, "type": "electric_scooter", "fusion_lat": 0.0, "lat": 38.882194166666665, "is_disabled": 0, "name": "87ed49795c577d20720601df3198aa8c", "is_reserved": 0}, {"lon": -76.9746545, "rental_uris": {"ios": "https://dc.lft.to/lastmile_qr_scan", "android": "https://dc.lft.to/lastmile_qr_scan"}, "bike_id": "fd1c9b603d293db0c0d9e2aa0af4c336", "fusion_lon": 0.0, "type": "electric_bike", "fusion_lat": 0.0, "lat": 38.865552666666666, "is_disabled": 0, "name": "fd1c9b603d293db0c0d9e2aa0af4c336", "is_reserved": 0}, {"lon": -77.06482883333334, "rental_uris": {"ios": "https://dc.lft.to/lastmile_qr_scan", "android": "https://dc.lft.to/lastmile_qr_scan"}, "bike_id": "dd7b0b3dd8f015bf42257fdd1bde2784", "fusion_lon": 0.0, "type": "electric_scooter", "fusion_lat": 0.0, "lat": 38.90511383333333, "is_disabled": 0, "name": "dd7b0b3dd8f015bf42257fdd1bde2784", "is_reserved": 0}, {"lon": -77.12037933333333, "rental_uris": {"ios": "https://dc.lft.to/lastmile_qr_scan", "android": "https://dc.lft.to/lastmile_qr_scan"}, "bike_id": "d6a8bb9276c93c572fae6614608b4060", "fusion_lon": 0.0, "type": "electric_bike", "fusion_lat": 0.0, "lat": 38.824295666666664, "is_disabled": 0, "name": "d6a8bb9276c93c572fae6614608b4060", "is_reserved": 0}, {"lon": -77.0205085, "rental_uris": {"ios": "https://dc.lft.to/lastmile_qr_scan", "android": "https://dc.lft.to/lastmile_qr_scan"}, "bike_id": "98dc798eac509682839f0e251a818b06", "fusion_lon": 0.0, "type": "electric_scooter", "fusion_lat": 0.0, "lat": 38.92362766666667, "is_disabled": 0, "name": "98dc798eac509682839f0e251a818b06", "is_reserved": 0}, {"lon": -76.98746283333334, "rental_uris": {"ios": "https://dc.lft.to/lastmile_qr_scan", "android": "https://dc.lft.to/lastmile_qr_scan"}, "bike_id": "3c5ca3ff9dfa27ba895297ed312e9306", "fusion_lon": 0.0, "type": "electric_bike", "fusion_lat": 0.0, "lat": 38.857968166666666, "is_disabled": 0, "name": "3c5ca3ff9dfa27ba895297ed312e9306", "is_reserved": 0}, {"lon": -77.03879, "rental_uris": {"ios": "https://dc.lft.to/lastmile_qr_scan", "android": "https://dc.lft.to/lastmile_qr_scan"}, "bike_id": "c2d7d8b0e1667f05a75c51ac3625f275", "fusion_lon": 0.0, "type": "electric_bike", "fusion_lat": 0.0, "lat": 39.02625233333333, "is_disabled": 0, "name": "c2d7d8b0e1667f05a75c51ac3625f275", "is_reserved": 0}, {"lon": -77.05121366666667, "rental_uris": {"ios": "https://dc.lft.to/lastmile_qr_scan", "android": "https://dc.lft.to/lastmile_qr_scan"}, "bike_id": "07f7d0222a86701c973ee25f5b8ddea7", "fusion_lon": 0.0, "type": "electric_scooter", "fusion_lat": 0.0, "lat": 38.90215466666667, "is_disabled": 0, "name": "07f7d0222a86701c973ee25f5b8ddea7", "is_reserved": 0}, {"lon": -77.01957766666666, "rental_uris": {"ios": "https://dc.lft.to/lastmile_qr_scan", "android": "https://dc.lft.to/lastmile_qr_scan"}, "bike_id": "250208cf2f30a4a32719aaab73241508", "fusion_lon": 0.0, "type": "electric_scooter", "fusion_lat": 0.0, "lat": 38.896903333333334, "is_disabled": 0, "name": "250208cf2f30a4a32719aaab73241508", "is_reserved": 0}, {"lon": -77.0324925, "rental_uris": {"ios": "https://dc.lft.to/lastmile_qr_scan", "android": "https://dc.lft.to/lastmile_qr_scan"}, "bike_id": "00fe89ad6143febf6ddeb058375ca85d", "fusion_lon": 0.0, "type": "electric_scooter", "fusion_lat": 0.0, "lat": 38.91990416666667, "is_disabled": 0, "name": "00fe89ad6143febf6ddeb058375ca85d", "is_reserved": 0}, {"lon": -77.03278933333333, "rental_uris": {"ios": "https://dc.lft.to/lastmile_qr_scan", "android": "https://dc.lft.to/lastmile_qr_scan"}, "bike_id": "d4086c23fd05438ab3621a277a6e7aa9", "fusion_lon": 0.0, "type": "electric_scooter", "fusion_lat": 0.0, "lat": 38.92930033333333, "is_disabled": 0, "name": "d4086c23fd05438ab3621a277a6e7aa9", "is_reserved": 0}, {"lon": -77.014307, "rental_uris": {"ios": "https://dc.lft.to/lastmile_qr_scan", "android": "https://dc.lft.to/lastmile_qr_scan"}, "bike_id": "006cacb356bc861e1686f09de2633423", "fusion_lon": 0.0, "type": "electric_scooter", "fusion_lat": 0.0, "lat": 38.900343666666664, "is_disabled": 0, "name": "006cacb356bc861e1686f09de2633423", "is_reserved": 0}, {"lon": -77.03856033333334, "rental_uris": {"ios": "https://dc.lft.to/lastmile_qr_scan", "android": "https://dc.lft.to/lastmile_qr_scan"}, "bike_id": "6c16347c560baf6882be7277b08a814a", "fusion_lon": 0.0, "type": "electric_scooter", "fusion_lat": 0.0, "lat": 38.903719, "is_disabled": 0, "name": "6c16347c560baf6882be7277b08a814a", "is_reserved": 0}, {"lon": -77.03770633333333, "rental_uris": {"ios": "https://dc.lft.to/lastmile_qr_scan", "android": "https://dc.lft.to/lastmile_qr_scan"}, "bike_id": "8580f9a099d2bc9f029a5c081351cce4", "fusion_lon": 0.0, "type": "electric_scooter", "fusion_lat": 0.0, "lat": 38.91691566666667, "is_disabled": 0, "name": "8580f9a099d2bc9f029a5c081351cce4", "is_reserved": 0}, {"lon": -77.03931483333334, "rental_uris": {"ios": "https://dc.lft.to/lastmile_qr_scan", "android": "https://dc.lft.to/lastmile_qr_scan"}, "bike_id": "38dafa7dcea58879c48b91c43d15771b", "fusion_lon": 0.0, "type": "electric_scooter", "fusion_lat": 0.0, "lat": 38.90143916666667, "is_disabled": 0, "name": "38dafa7dcea58879c48b91c43d15771b", "is_reserved": 0}, {"lon": -77.019042, "rental_uris": {"ios": "https://dc.lft.to/lastmile_qr_scan", "android": "https://dc.lft.to/lastmile_qr_scan"}, "bike_id": "ecb1a662027547092aeebc3ce9e0d438", "fusion_lon": 0.0, "type": "electric_scooter", "fusion_lat": 0.0, "lat": 38.92138033333333, "is_disabled": 0, "name": "ecb1a662027547092aeebc3ce9e0d438", "is_reserved": 0}, {"lon": -77.00213633333334, "rental_uris": {"ios": "https://dc.lft.to/lastmile_qr_scan", "android": "https://dc.lft.to/lastmile_qr_scan"}, "bike_id": "7fbc49c47a92e459c056eac2d8aaf719", "fusion_lon": 0.0, "type": "electric_scooter", "fusion_lat": 0.0, "lat": 38.877775666666665, "is_disabled": 0, "name": "7fbc49c47a92e459c056eac2d8aaf719", "is_reserved": 0}, {"lon": -76.95359416666666, "rental_uris": {"ios": "https://dc.lft.to/lastmile_qr_scan", "android": "https://dc.lft.to/lastmile_qr_scan"}, "bike_id": "d00bfc8cb4d62e0fc16fcbed57ffb74c", "fusion_lon": 0.0, "type": "electric_bike", "fusion_lat": 0.0, "lat": 38.88800633333334, "is_disabled": 0, "name": "d00bfc8cb4d62e0fc16fcbed57ffb74c", "is_reserved": 0}, {"lon": -77.01205, "rental_uris": {"ios": "https://dc.lft.to/lastmile_qr_scan", "android": "https://dc.lft.to/lastmile_qr_scan"}, "bike_id": "c1e93e0685ee3c665c7fb502e86eb149", "fusion_lon": 0.0, "type": "electric_scooter", "fusion_lat": 0.0, "lat": 38.90012, "is_disabled": 0, "name": "c1e93e0685ee3c665c7fb502e86eb149", "is_reserved": 0}, {"lon": -77.0318055, "rental_uris": {"ios": "https://dc.lft.to/lastmile_qr_scan", "android": "https://dc.lft.to/lastmile_qr_scan"}, "bike_id": "8ecc6eb73924a1cb5465a36aba198cd8", "fusion_lon": 0.0, "type": "electric_scooter", "fusion_lat": 0.0, "lat": 38.89600683333333, "is_disabled": 0, "name": "8ecc6eb73924a1cb5465a36aba198cd8", "is_reserved": 0}, {"lon": -77.03630666666666, "rental_uris": {"ios": "https://dc.lft.to/lastmile_qr_scan", "android": "https://dc.lft.to/lastmile_qr_scan"}, "bike_id": "cea3a0feb449e67a1237f14af6de9261", "fusion_lon": 0.0, "type": "electric_scooter", "fusion_lat": 0.0, "lat": 38.95668883333333, "is_disabled": 0, "name": "cea3a0feb449e67a1237f14af6de9261", "is_reserved": 0}, {"lon": -77.00661433333333, "rental_uris": {"ios": "https://dc.lft.to/lastmile_qr_scan", "android": "https://dc.lft.to/lastmile_qr_scan"}, "bike_id": "7cf3269a88193eca8348a7e8eb947bf1", "fusion_lon": 0.0, "type": "electric_scooter", "fusion_lat": 0.0, "lat": 38.9119325, "is_disabled": 0, "name": "7cf3269a88193eca8348a7e8eb947bf1", "is_reserved": 0}, {"lon": -76.99478216666667, "rental_uris": {"ios": "https://dc.lft.to/lastmile_qr_scan", "android": "https://dc.lft.to/lastmile_qr_scan"}, "bike_id": "4115f0a592f574b108e99c7558271128", "fusion_lon": 0.0, "type": "electric_scooter", "fusion_lat": 0.0, "lat": 38.8621495, "is_disabled": 0, "name": "4115f0a592f574b108e99c7558271128", "is_reserved": 0}, {"lon": -77.04341116666667, "rental_uris": {"ios": "https://dc.lft.to/lastmile_qr_scan", "android": "https://dc.lft.to/lastmile_qr_scan"}, "bike_id": "4ffe03255b305742645aa38fba105371", "fusion_lon": 0.0, "type": "electric_scooter", "fusion_lat": 0.0, "lat": 38.90885216666667, "is_disabled": 0, "name": "4ffe03255b305742645aa38fba105371", "is_reserved": 0}, {"lon": -77.00565566666667, "rental_uris": {"ios": "https://dc.lft.to/lastmile_qr_scan", "android": "https://dc.lft.to/lastmile_qr_scan"}, "bike_id": "a0c561d27149347573429573c4a77e75", "fusion_lon": 0.0, "type": "electric_scooter", "fusion_lat": 0.0, "lat": 38.90646316666667, "is_disabled": 0, "name": "a0c561d27149347573429573c4a77e75", "is_reserved": 0}, {"lon": -77.0414325, "rental_uris": {"ios": "https://dc.lft.to/lastmile_qr_scan", "android": "https://dc.lft.to/lastmile_qr_scan"}, "bike_id": "71eb819d1fa037f6882630aa0c0065e0", "fusion_lon": 0.0, "type": "electric_scooter", "fusion_lat": 0.0, "lat": 38.9340085, "is_disabled": 0, "name": "71eb819d1fa037f6882630aa0c0065e0", "is_reserved": 0}, {"lon": -77.02080733333334, "rental_uris": {"ios": "https://dc.lft.to/lastmile_qr_scan", "android": "https://dc.lft.to/lastmile_qr_scan"}, "bike_id": "a6095a31fef3ea3b3df796887c8d2142", "fusion_lon": 0.0, "type": "electric_scooter", "fusion_lat": 0.0, "lat": 38.876453166666664, "is_disabled": 0, "name": "a6095a31fef3ea3b3df796887c8d2142", "is_reserved": 0}, {"lon": -77.02954683333333, "rental_uris": {"ios": "https://dc.lft.to/lastmile_qr_scan", "android": "https://dc.lft.to/lastmile_qr_scan"}, "bike_id": "a024ad619383ef5e7364e47aa4a04657", "fusion_lon": 0.0, "type": "electric_scooter", "fusion_lat": 0.0, "lat": 38.9168845, "is_disabled": 0, "name": "a024ad619383ef5e7364e47aa4a04657", "is_reserved": 0}, {"lon": -76.99863566666667, "rental_uris": {"ios": "https://dc.lft.to/lastmile_qr_scan", "android": "https://dc.lft.to/lastmile_qr_scan"}, "bike_id": "08b9d082d32e627af1d5d143e29900c3", "fusion_lon": 0.0, "type": "electric_scooter", "fusion_lat": 0.0, "lat": 38.90029366666667, "is_disabled": 0, "name": "08b9d082d32e627af1d5d143e29900c3", "is_reserved": 0}, {"lon": -76.988388, "rental_uris": {"ios": "https://dc.lft.to/lastmile_qr_scan", "android": "https://dc.lft.to/lastmile_qr_scan"}, "bike_id": "49e3082cd0a442492ac6032d07050bd9", "fusion_lon": 0.0, "type": "electric_bike", "fusion_lat": 0.0, "lat": 38.842826333333335, "is_disabled": 0, "name": "49e3082cd0a442492ac6032d07050bd9", "is_reserved": 0}, {"lon": -77.05316416666666, "rental_uris": {"ios": "https://dc.lft.to/lastmile_qr_scan", "android": "https://dc.lft.to/lastmile_qr_scan"}, "bike_id": "d7f029539ecc329ca4c5dc7d433b85c7", "fusion_lon": 0.0, "type": "electric_scooter", "fusion_lat": 0.0, "lat": 38.91838716666667, "is_disabled": 0, "name": "d7f029539ecc329ca4c5dc7d433b85c7", "is_reserved": 0}, {"lon": -77.02211216666667, "rental_uris": {"ios": "https://dc.lft.to/lastmile_qr_scan", "android": "https://dc.lft.to/lastmile_qr_scan"}, "bike_id": "7865c0970d043c7f0ba9772dc4cd58e3", "fusion_lon": 0.0, "type": "electric_scooter", "fusion_lat": 0.0, "lat": 38.90219833333333, "is_disabled": 0, "name": "7865c0970d043c7f0ba9772dc4cd58e3", "is_reserved": 0}, {"lon": -77.0200585, "rental_uris": {"ios": "https://dc.lft.to/lastmile_qr_scan", "android": "https://dc.lft.to/lastmile_qr_scan"}, "bike_id": "70a333562e7a6dfda71878d4cc146914", "fusion_lon": 0.0, "type": "electric_scooter", "fusion_lat": 0.0, "lat": 38.919113833333334, "is_disabled": 0, "name": "70a333562e7a6dfda71878d4cc146914", "is_reserved": 0}, {"lon": -77.04683516666667, "rental_uris": {"ios": "https://dc.lft.to/lastmile_qr_scan", "android": "https://dc.lft.to/lastmile_qr_scan"}, "bike_id": "6aa2c5c1ef81a789603acbeaec32b184", "fusion_lon": 0.0, "type": "electric_scooter", "fusion_lat": 0.0, "lat": 38.91658233333333, "is_disabled": 0, "name": "6aa2c5c1ef81a789603acbeaec32b184", "is_reserved": 0}, {"lon": -77.03437083333333, "rental_uris": {"ios": "https://dc.lft.to/lastmile_qr_scan", "android": "https://dc.lft.to/lastmile_qr_scan"}, "bike_id": "3d2ebb82b84e1f7053ae5e338355c1c2", "fusion_lon": 0.0, "type": "electric_scooter", "fusion_lat": 0.0, "lat": 38.922511666666665, "is_disabled": 0, "name": "3d2ebb82b84e1f7053ae5e338355c1c2", "is_reserved": 0}, {"lon": -77.04473833333333, "rental_uris": {"ios": "https://dc.lft.to/lastmile_qr_scan", "android": "https://dc.lft.to/lastmile_qr_scan"}, "bike_id": "78028f609fc7e756222426dd80a0ef97", "fusion_lon": 0.0, "type": "electric_scooter", "fusion_lat": 0.0, "lat": 38.899824333333335, "is_disabled": 0, "name": "78028f609fc7e756222426dd80a0ef97", "is_reserved": 0}, {"lon": -76.96548733333333, "rental_uris": {"ios": "https://dc.lft.to/lastmile_qr_scan", "android": "https://dc.lft.to/lastmile_qr_scan"}, "bike_id": "8ef2951b2424241bb4dce9d949516845", "fusion_lon": 0.0, "type": "electric_scooter", "fusion_lat": 0.0, "lat": 38.87888016666667, "is_disabled": 0, "name": "8ef2951b2424241bb4dce9d949516845", "is_reserved": 0}, {"lon": -77.03789666666667, "rental_uris": {"ios": "https://dc.lft.to/lastmile_qr_scan", "android": "https://dc.lft.to/lastmile_qr_scan"}, "bike_id": "a3a25bdea8d10dba649ff71b342d0e37", "fusion_lon": 0.0, "type": "electric_scooter", "fusion_lat": 0.0, "lat": 38.925057333333335, "is_disabled": 0, "name": "a3a25bdea8d10dba649ff71b342d0e37", "is_reserved": 0}, {"lon": -76.90748816666667, "rental_uris": {"ios": "https://dc.lft.to/lastmile_qr_scan", "android": "https://dc.lft.to/lastmile_qr_scan"}, "bike_id": "00daa1750bc090992e222227b4a54b16", "fusion_lon": 0.0, "type": "electric_bike", "fusion_lat": 0.0, "lat": 38.8962545, "is_disabled": 0, "name": "00daa1750bc090992e222227b4a54b16", "is_reserved": 0}, {"lon": -77.03934533333333, "rental_uris": {"ios": "https://dc.lft.to/lastmile_qr_scan", "android": "https://dc.lft.to/lastmile_qr_scan"}, "bike_id": "6f399072693973dc5224c84c71cc4027", "fusion_lon": 0.0, "type": "electric_scooter", "fusion_lat": 0.0, "lat": 38.9026295, "is_disabled": 0, "name": "6f399072693973dc5224c84c71cc4027", "is_reserved": 0}, {"lon": -77.01402366666667, "rental_uris": {"ios": "https://dc.lft.to/lastmile_qr_scan", "android": "https://dc.lft.to/lastmile_qr_scan"}, "bike_id": "5c450b39aede793806b8bea308232768", "fusion_lon": 0.0, "type": "electric_bike", "fusion_lat": 0.0, "lat": 38.958772, "is_disabled": 0, "name": "5c450b39aede793806b8bea308232768", "is_reserved": 0}, {"lon": -77.0223375, "rental_uris": {"ios": "https://dc.lft.to/lastmile_qr_scan", "android": "https://dc.lft.to/lastmile_qr_scan"}, "bike_id": "17b02697430d8f6b51a84efa641ffcdf", "fusion_lon": 0.0, "type": "electric_scooter", "fusion_lat": 0.0, "lat": 38.956839333333335, "is_disabled": 0, "name": "17b02697430d8f6b51a84efa641ffcdf", "is_reserved": 0}, {"lon": -77.0230815, "rental_uris": {"ios": "https://dc.lft.to/lastmile_qr_scan", "android": "https://dc.lft.to/lastmile_qr_scan"}, "bike_id": "9003c633d746c6ba8f0117181ca09db6", "fusion_lon": 0.0, "type": "electric_scooter", "fusion_lat": 0.0, "lat": 38.91777966666667, "is_disabled": 0, "name": "9003c633d746c6ba8f0117181ca09db6", "is_reserved": 0}, {"lon": -77.0484655, "rental_uris": {"ios": "https://dc.lft.to/lastmile_qr_scan", "android": "https://dc.lft.to/lastmile_qr_scan"}, "bike_id": "d6012227062a8bb9aaa33cdc0e08add8", "fusion_lon": 0.0, "type": "electric_scooter", "fusion_lat": 0.0, "lat": 38.90390933333333, "is_disabled": 0, "name": "d6012227062a8bb9aaa33cdc0e08add8", "is_reserved": 0}, {"lon": -77.02601, "rental_uris": {"ios": "https://dc.lft.to/lastmile_qr_scan", "android": "https://dc.lft.to/lastmile_qr_scan"}, "bike_id": "2267da91c127918f03390547b8145356", "fusion_lon": 0.0, "type": "electric_scooter", "fusion_lat": 0.0, "lat": 38.904348166666665, "is_disabled": 0, "name": "2267da91c127918f03390547b8145356", "is_reserved": 0}, {"lon": -77.00196383333333, "rental_uris": {"ios": "https://dc.lft.to/lastmile_qr_scan", "android": "https://dc.lft.to/lastmile_qr_scan"}, "bike_id": "81ff78a00993b0bce303af653981270f", "fusion_lon": 0.0, "type": "electric_scooter", "fusion_lat": 0.0, "lat": 38.90040833333333, "is_disabled": 0, "name": "81ff78a00993b0bce303af653981270f", "is_reserved": 0}, {"lon": -76.93743216666667, "rental_uris": {"ios": "https://dc.lft.to/lastmile_qr_scan", "android": "https://dc.lft.to/lastmile_qr_scan"}, "bike_id": "2a5c2682526d5e1bdd49c622a1fed8dc", "fusion_lon": 0.0, "type": "electric_scooter", "fusion_lat": 0.0, "lat": 38.890497, "is_disabled": 0, "name": "2a5c2682526d5e1bdd49c622a1fed8dc", "is_reserved": 0}, {"lon": -77.02956883333333, "rental_uris": {"ios": "https://dc.lft.to/lastmile_qr_scan", "android": "https://dc.lft.to/lastmile_qr_scan"}, "bike_id": "0b929864747673903576a064b11580f4", "fusion_lon": 0.0, "type": "electric_scooter", "fusion_lat": 0.0, "lat": 38.9225405, "is_disabled": 0, "name": "0b929864747673903576a064b11580f4", "is_reserved": 0}, {"lon": -76.994607, "rental_uris": {"ios": "https://dc.lft.to/lastmile_qr_scan", "android": "https://dc.lft.to/lastmile_qr_scan"}, "bike_id": "7faf8ddf382584d224514234fa21ebfe", "fusion_lon": 0.0, "type": "electric_scooter", "fusion_lat": 0.0, "lat": 38.953146333333336, "is_disabled": 0, "name": "7faf8ddf382584d224514234fa21ebfe", "is_reserved": 0}, {"lon": -77.02197816666667, "rental_uris": {"ios": "https://dc.lft.to/lastmile_qr_scan", "android": "https://dc.lft.to/lastmile_qr_scan"}, "bike_id": "f441055bf951ff834e5dac6f91c2d16c", "fusion_lon": 0.0, "type": "electric_scooter", "fusion_lat": 0.0, "lat": 38.886174, "is_disabled": 0, "name": "f441055bf951ff834e5dac6f91c2d16c", "is_reserved": 0}, {"lon": -77.03446216666667, "rental_uris": {"ios": "https://dc.lft.to/lastmile_qr_scan", "android": "https://dc.lft.to/lastmile_qr_scan"}, "bike_id": "5d20d63d473b931d9290b4c636e50240", "fusion_lon": 0.0, "type": "electric_scooter", "fusion_lat": 0.0, "lat": 38.930933833333334, "is_disabled": 0, "name": "5d20d63d473b931d9290b4c636e50240", "is_reserved": 0}, {"lon": -77.01383216666666, "rental_uris": {"ios": "https://dc.lft.to/lastmile_qr_scan", "android": "https://dc.lft.to/lastmile_qr_scan"}, "bike_id": "1cec669dd9ed3e750c6b1ed708993107", "fusion_lon": 0.0, "type": "electric_bike", "fusion_lat": 0.0, "lat": 38.94429983333333, "is_disabled": 0, "name": "1cec669dd9ed3e750c6b1ed708993107", "is_reserved": 0}, {"lon": -77.0385125, "rental_uris": {"ios": "https://dc.lft.to/lastmile_qr_scan", "android": "https://dc.lft.to/lastmile_qr_scan"}, "bike_id": "45fae6f68f0fe5179eada1bd79e3b3e5", "fusion_lon": 0.0, "type": "electric_scooter", "fusion_lat": 0.0, "lat": 38.92645483333333, "is_disabled": 0, "name": "45fae6f68f0fe5179eada1bd79e3b3e5", "is_reserved": 0}, {"lon": -77.0297945, "rental_uris": {"ios": "https://dc.lft.to/lastmile_qr_scan", "android": "https://dc.lft.to/lastmile_qr_scan"}, "bike_id": "5c3c277b4f32076e14581c7dfd67b667", "fusion_lon": 0.0, "type": "electric_scooter", "fusion_lat": 0.0, "lat": 38.906003, "is_disabled": 0, "name": "5c3c277b4f32076e14581c7dfd67b667", "is_reserved": 0}, {"lon": -77.032703, "rental_uris": {"ios": "https://dc.lft.to/lastmile_qr_scan", "android": "https://dc.lft.to/lastmile_qr_scan"}, "bike_id": "80881f7db7af67ddb59cf255bb7f2d0b", "fusion_lon": 0.0, "type": "electric_scooter", "fusion_lat": 0.0, "lat": 38.89896066666667, "is_disabled": 0, "name": "80881f7db7af67ddb59cf255bb7f2d0b", "is_reserved": 0}, {"lon": -77.23391583333333, "rental_uris": {"ios": "https://dc.lft.to/lastmile_qr_scan", "android": "https://dc.lft.to/lastmile_qr_scan"}, "bike_id": "5b584a946434a6b3fdc7a2e0e9cf389e", "fusion_lon": 0.0, "type": "electric_bike", "fusion_lat": 0.0, "lat": 38.871757333333335, "is_disabled": 0, "name": "5b584a946434a6b3fdc7a2e0e9cf389e", "is_reserved": 0}, {"lon": -76.94235333333333, "rental_uris": {"ios": "https://dc.lft.to/lastmile_qr_scan", "android": "https://dc.lft.to/lastmile_qr_scan"}, "bike_id": "5438db13a9e46b625708aad6181d1d94", "fusion_lon": 0.0, "type": "electric_bike", "fusion_lat": 0.0, "lat": 38.98031366666667, "is_disabled": 0, "name": "5438db13a9e46b625708aad6181d1d94", "is_reserved": 0}, {"lon": -76.9770865, "rental_uris": {"ios": "https://dc.lft.to/lastmile_qr_scan", "android": "https://dc.lft.to/lastmile_qr_scan"}, "bike_id": "a01f7a3b40deb34cefee64a624cae8df", "fusion_lon": 0.0, "type": "electric_scooter", "fusion_lat": 0.0, "lat": 38.886191, "is_disabled": 0, "name": "a01f7a3b40deb34cefee64a624cae8df", "is_reserved": 0}, {"lon": -77.05600916666667, "rental_uris": {"ios": "https://dc.lft.to/lastmile_qr_scan", "android": "https://dc.lft.to/lastmile_qr_scan"}, "bike_id": "6b29f7ef5b53da532c100fa8c47c967d", "fusion_lon": 0.0, "type": "electric_scooter", "fusion_lat": 0.0, "lat": 38.93701166666666, "is_disabled": 0, "name": "6b29f7ef5b53da532c100fa8c47c967d", "is_reserved": 0}, {"lon": -77.01354583333334, "rental_uris": {"ios": "https://dc.lft.to/lastmile_qr_scan", "android": "https://dc.lft.to/lastmile_qr_scan"}, "bike_id": "f20806d80789b68ba15b30c14e2d3853", "fusion_lon": 0.0, "type": "electric_bike", "fusion_lat": 0.0, "lat": 38.90383333333333, "is_disabled": 0, "name": "f20806d80789b68ba15b30c14e2d3853", "is_reserved": 0}, {"lon": -77.01973016666666, "rental_uris": {"ios": "https://dc.lft.to/lastmile_qr_scan", "android": "https://dc.lft.to/lastmile_qr_scan"}, "bike_id": "2143690fc22db99856f8c664bf10e0cc", "fusion_lon": 0.0, "type": "electric_scooter", "fusion_lat": 0.0, "lat": 38.893751333333334, "is_disabled": 0, "name": "2143690fc22db99856f8c664bf10e0cc", "is_reserved": 0}, {"lon": -77.02518616666667, "rental_uris": {"ios": "https://dc.lft.to/lastmile_qr_scan", "android": "https://dc.lft.to/lastmile_qr_scan"}, "bike_id": "8d47ee86196eb8bc655e62b400a0f83c", "fusion_lon": 0.0, "type": "electric_scooter", "fusion_lat": 0.0, "lat": 38.9249475, "is_disabled": 0, "name": "8d47ee86196eb8bc655e62b400a0f83c", "is_reserved": 0}, {"lon": -77.04178666666667, "rental_uris": {"ios": "https://dc.lft.to/lastmile_qr_scan", "android": "https://dc.lft.to/lastmile_qr_scan"}, "bike_id": "8efe92f78568e8f4879901586c2b3054", "fusion_lon": 0.0, "type": "electric_scooter", "fusion_lat": 0.0, "lat": 38.90007133333334, "is_disabled": 0, "name": "8efe92f78568e8f4879901586c2b3054", "is_reserved": 0}, {"lon": -77.04467266666667, "rental_uris": {"ios": "https://dc.lft.to/lastmile_qr_scan", "android": "https://dc.lft.to/lastmile_qr_scan"}, "bike_id": "5bb7b6b808098283802ac251b87f2ce2", "fusion_lon": 0.0, "type": "electric_bike", "fusion_lat": 0.0, "lat": 38.90587716666667, "is_disabled": 0, "name": "5bb7b6b808098283802ac251b87f2ce2", "is_reserved": 0}, {"lon": -77.04194033333333, "rental_uris": {"ios": "https://dc.lft.to/lastmile_qr_scan", "android": "https://dc.lft.to/lastmile_qr_scan"}, "bike_id": "2418e0099f485efa917917bae090e5f3", "fusion_lon": 0.0, "type": "electric_scooter", "fusion_lat": 0.0, "lat": 38.92335933333333, "is_disabled": 0, "name": "2418e0099f485efa917917bae090e5f3", "is_reserved": 0}, {"lon": -76.9793715, "rental_uris": {"ios": "https://dc.lft.to/lastmile_qr_scan", "android": "https://dc.lft.to/lastmile_qr_scan"}, "bike_id": "38b6d4ea6c0b40ae1e0c7951a37a7f28", "fusion_lon": 0.0, "type": "electric_scooter", "fusion_lat": 0.0, "lat": 38.90653316666667, "is_disabled": 0, "name": "38b6d4ea6c0b40ae1e0c7951a37a7f28", "is_reserved": 0}, {"lon": -77.07152183333334, "rental_uris": {"ios": "https://dc.lft.to/lastmile_qr_scan", "android": "https://dc.lft.to/lastmile_qr_scan"}, "bike_id": "a6fe7bde53b60814cb774f423cb6db0f", "fusion_lon": 0.0, "type": "electric_scooter", "fusion_lat": 0.0, "lat": 38.90675783333333, "is_disabled": 0, "name": "a6fe7bde53b60814cb774f423cb6db0f", "is_reserved": 0}, {"lon": -77.07306433333333, "rental_uris": {"ios": "https://dc.lft.to/lastmile_qr_scan", "android": "https://dc.lft.to/lastmile_qr_scan"}, "bike_id": "1e324ec3f450a86847c4fa60e03dca15", "fusion_lon": 0.0, "type": "electric_scooter", "fusion_lat": 0.0, "lat": 38.935429166666665, "is_disabled": 0, "name": "1e324ec3f450a86847c4fa60e03dca15", "is_reserved": 0}, {"lon": -77.03120033333333, "rental_uris": {"ios": "https://dc.lft.to/lastmile_qr_scan", "android": "https://dc.lft.to/lastmile_qr_scan"},