{"data": {"bikes": [{"bike_id": "bc0715be6e7b0e0d76b42cbdc5cf082e", "is_reserved": 0, "fusion_lon": 0.0, "lat": 38.905697333333336, "is_disabled": 0, "name": "bc0715be6e7b0e0d76b42cbdc5cf082e", "fusion_lat": 0.0, "rental_uris": {"ios": "https://dc.lft.to/lastmile_qr_scan", "android": "https://dc.lft.to/lastmile_qr_scan"}, "lon": -77.01504933333334, "type": "electric_scooter"}, {"bike_id": "b3e362b238d002f331e6d5e8ea9944f8", "is_reserved": 0, "fusion_lon": 0.0, "lat": 38.86159933333333, "is_disabled": 0, "name": "b3e362b238d002f331e6d5e8ea9944f8", "fusion_lat": 0.0, "rental_uris": {"ios": "https://dc.lft.to/lastmile_qr_scan", "android": "https://dc.lft.to/lastmile_qr_scan"}, "lon": -77.130902, "type": "electric_bike"}, {"bike_id": "a4553e79276079083fda510976085746", "is_reserved": 0, "fusion_lon": 0.0, "lat": 38.91725483333333, "is_disabled": 0, "name": "a4553e79276079083fda510976085746", "fusion_lat": 0.0, "rental_uris": {"ios": "https://dc.lft.to/lastmile_qr_scan", "android": "https://dc.lft.to/lastmile_qr_scan"}, "lon": -77.036603, "type": "electric_scooter"}, {"bike_id": "109aaa52f3b50bdf4514ff985e8be238", "is_reserved": 0, "fusion_lon": 0.0, "lat": 38.908053333333335, "is_disabled": 0, "name": "109aaa52f3b50bdf4514ff985e8be238", "fusion_lat": 0.0, "rental_uris": {"ios": "https://dc.lft.to/lastmile_qr_scan", "android": "https://dc.lft.to/lastmile_qr_scan"}, "lon": -77.03431916666666, "type": "electric_scooter"}, {"bike_id": "0ea0ced1e1bd616598f1e87743e291ec", "is_reserved": 0, "fusion_lon": 0.0, "lat": 38.90468216666667, "is_disabled": 0, "name": "0ea0ced1e1bd616598f1e87743e291ec", "fusion_lat": 0.0, "rental_uris": {"ios": "https://dc.lft.to/lastmile_qr_scan", "android": "https://dc.lft.to/lastmile_qr_scan"}, "lon": -77.02942133333333, "type": "electric_scooter"}, {"bike_id": "c2140dcd06d3f1f0e83ee2a35ff6ef74", "is_reserved": 0, "fusion_lon": 0.0, "lat": 38.909568166666666, "is_disabled": 0, "name": "c2140dcd06d3f1f0e83ee2a35ff6ef74", "fusion_lat": 0.0, "rental_uris": {"ios": "https://dc.lft.to/lastmile_qr_scan", "android": "https://dc.lft.to/lastmile_qr_scan"}, "lon": -76.98468966666667, "type": "electric_scooter"}, {"bike_id": "919293e7e52a1e222ff1a4f45f2b196e", "is_reserved": 0, "fusion_lon": 0.0, "lat": 38.90031066666667, "is_disabled": 0, "name": "919293e7e52a1e222ff1a4f45f2b196e", "fusion_lat": 0.0, "rental_uris": {"ios": "https://dc.lft.to/lastmile_qr_scan", "android": "https://dc.lft.to/lastmile_qr_scan"}, "lon": -76.9879745, "type": "electric_scooter"}, {"bike_id": "ea297cc0d65af718cb83a802c032a245", "is_reserved": 0, "fusion_lon": 0.0, "lat": 38.90976083333334, "is_disabled": 0, "name": "ea297cc0d65af718cb83a802c032a245", "fusion_lat": 0.0, "rental_uris": {"ios": "https://dc.lft.to/lastmile_qr_scan", "android": "https://dc.lft.to/lastmile_qr_scan"}, "lon": -77.02716266666667, "type": "electric_scooter"}, {"bike_id": "2c9725d37cbe8bfe005e3eac17392d2a", "is_reserved": 0, "fusion_lon": 0.0, "lat": 38.967623, "is_disabled": 0, "name": "2c9725d37cbe8bfe005e3eac17392d2a", "fusion_lat": 0.0, "rental_uris": {"ios": "https://dc.lft.to/lastmile_qr_scan", "android": "https://dc.lft.to/lastmile_qr_scan"}, "lon": -77.09161966666667, "type": "electric_bike"}, {"bike_id": "db7b2c4624e18284f96c1ba694eb9cbc", "is_reserved": 0, "fusion_lon": 0.0, "lat": 38.94185783333333, "is_disabled": 0, "name": "db7b2c4624e18284f96c1ba694eb9cbc", "fusion_lat": 0.0, "rental_uris": {"ios": "https://dc.lft.to/lastmile_qr_scan", "android": "https://dc.lft.to/lastmile_qr_scan"}, "lon": -77.01695033333333, "type": "electric_scooter"}, {"bike_id": "adb96e40458ba6d4df7f42e26c955cc4", "is_reserved": 0, "fusion_lon": 0.0, "lat": 38.90008866666667, "is_disabled": 0, "name": "adb96e40458ba6d4df7f42e26c955cc4", "fusion_lat": 0.0, "rental_uris": {"ios": "https://dc.lft.to/lastmile_qr_scan", "android": "https://dc.lft.to/lastmile_qr_scan"}, "lon": -77.043841, "type": "electric_scooter"}, {"bike_id": "c8ef465b45f2471e99365192a4e0f9dc", "is_reserved": 0, "fusion_lon": 0.0, "lat": 38.9023565, "is_disabled": 0, "name": "c8ef465b45f2471e99365192a4e0f9dc", "fusion_lat": 0.0, "rental_uris": {"ios": "https://dc.lft.to/lastmile_qr_scan", "android": "https://dc.lft.to/lastmile_qr_scan"}, "lon": -76.97412466666667, "type": "electric_scooter"}, {"bike_id": "8fd9343c997733b52992f00660ecf141", "is_reserved": 0, "fusion_lon": 0.0, "lat": 38.92581916666666, "is_disabled": 0, "name": "8fd9343c997733b52992f00660ecf141", "fusion_lat": 0.0, "rental_uris": {"ios": "https://dc.lft.to/lastmile_qr_scan", "android": "https://dc.lft.to/lastmile_qr_scan"}, "lon": -77.00460233333334, "type": "electric_scooter"}, {"bike_id": "253d945db0356a9f178085c5c478e659", "is_reserved": 0, "fusion_lon": 0.0, "lat": 38.892228, "is_disabled": 0, "name": "253d945db0356a9f178085c5c478e659", "fusion_lat": 0.0, "rental_uris": {"ios": "https://dc.lft.to/lastmile_qr_scan", "android": "https://dc.lft.to/lastmile_qr_scan"}, "lon": -77.033416, "type": "electric_scooter"}, {"bike_id": "05b7db552491d6cbf5e7f648ebe3a334", "is_reserved": 0, "fusion_lon": 0.0, "lat": 38.903304166666665, "is_disabled": 0, "name": "05b7db552491d6cbf5e7f648ebe3a334", "fusion_lat": 0.0, "rental_uris": {"ios": "https://dc.lft.to/lastmile_qr_scan", "android": "https://dc.lft.to/lastmile_qr_scan"}, "lon": -76.97537283333334, "type": "electric_bike"}, {"bike_id": "016b2d2124778edc061bd0e456679467", "is_reserved": 0, "fusion_lon": 0.0, "lat": 38.91592, "is_disabled": 0, "name": "016b2d2124778edc061bd0e456679467", "fusion_lat": 0.0, "rental_uris": {"ios": "https://dc.lft.to/lastmile_qr_scan", "android": "https://dc.lft.to/lastmile_qr_scan"}, "lon": -77.04172133333333, "type": "electric_scooter"}, {"bike_id": "8dbb08e203d2c696201dfdde21fb457a", "is_reserved": 0, "fusion_lon": 0.0, "lat": 38.937523166666665, "is_disabled": 0, "name": "8dbb08e203d2c696201dfdde21fb457a", "fusion_lat": 0.0, "rental_uris": {"ios": "https://dc.lft.to/lastmile_qr_scan", "android": "https://dc.lft.to/lastmile_qr_scan"}, "lon": -77.035768, "type": "electric_scooter"}, {"bike_id": "82d5a6aa9f2b3b434082bcaa3723eef4", "is_reserved": 0, "fusion_lon": 0.0, "lat": 38.92239683333333, "is_disabled": 0, "name": "82d5a6aa9f2b3b434082bcaa3723eef4", "fusion_lat": 0.0, "rental_uris": {"ios": "https://dc.lft.to/lastmile_qr_scan", "android": "https://dc.lft.to/lastmile_qr_scan"}, "lon": -77.03074583333333, "type": "electric_scooter"}, {"bike_id": "60f0a75070b0e5273531d894b35f2ed9", "is_reserved": 0, "fusion_lon": 0.0, "lat": 38.9066285, "is_disabled": 0, "name": "60f0a75070b0e5273531d894b35f2ed9", "fusion_lat": 0.0, "rental_uris": {"ios": "https://dc.lft.to/lastmile_qr_scan", "android": "https://dc.lft.to/lastmile_qr_scan"}, "lon": -77.0385985, "type": "electric_scooter"}, {"bike_id": "cd7abb0761e43a762827ceda0c0d746f", "is_reserved": 0, "fusion_lon": 0.0, "lat": 38.83804333333333, "is_disabled": 0, "name": "cd7abb0761e43a762827ceda0c0d746f", "fusion_lat": 0.0, "rental_uris": {"ios": "https://dc.lft.to/lastmile_qr_scan", "android": "https://dc.lft.to/lastmile_qr_scan"}, "lon": -76.99836666666667, "type": "electric_bike"}, {"bike_id": "9efa1ab584b8222ab2f9adec640abcd2", "is_reserved": 0, "fusion_lon": 0.0, "lat": 38.92263333333333, "is_disabled": 0, "name": "9efa1ab584b8222ab2f9adec640abcd2", "fusion_lat": 0.0, "rental_uris": {"ios": "https://dc.lft.to/lastmile_qr_scan", "android": "https://dc.lft.to/lastmile_qr_scan"}, "lon": -77.0421565, "type": "electric_scooter"}, {"bike_id": "a932b89c3c687ae0adaa6b2d112c9be8", "is_reserved": 0, "fusion_lon": 0.0, "lat": 38.906614833333336, "is_disabled": 0, "name": "a932b89c3c687ae0adaa6b2d112c9be8", "fusion_lat": 0.0, "rental_uris": {"ios": "https://dc.lft.to/lastmile_qr_scan", "android": "https://dc.lft.to/lastmile_qr_scan"}, "lon": -77.038622, "type": "electric_scooter"}, {"bike_id": "7ebf2868a6b406a93e5a4c10b0a29f0f", "is_reserved": 0, "fusion_lon": 0.0, "lat": 39.015946166666666, "is_disabled": 0, "name": "7ebf2868a6b406a93e5a4c10b0a29f0f", "fusion_lat": 0.0, "rental_uris": {"ios": "https://dc.lft.to/lastmile_qr_scan", "android": "https://dc.lft.to/lastmile_qr_scan"}, "lon": -77.0442735, "type": "electric_bike"}, {"bike_id": "d38bc1b04d2488f895f3395d202f7f5b", "is_reserved": 0, "fusion_lon": 0.0, "lat": 38.90538266666667, "is_disabled": 0, "name": "d38bc1b04d2488f895f3395d202f7f5b", "fusion_lat": 0.0, "rental_uris": {"ios": "https://dc.lft.to/lastmile_qr_scan", "android": "https://dc.lft.to/lastmile_qr_scan"}, "lon": -77.00214783333334, "type": "electric_bike"}, {"bike_id": "cd9f3ae286d3a60e5c25e100b1dd3075", "is_reserved": 0, "fusion_lon": 0.0, "lat": 38.90085966666667, "is_disabled": 0, "name": "cd9f3ae286d3a60e5c25e100b1dd3075", "fusion_lat": 0.0, "rental_uris": {"ios": "https://dc.lft.to/lastmile_qr_scan", "android": "https://dc.lft.to/lastmile_qr_scan"}, "lon": -77.0477155, "type": "electric_scooter"}, {"bike_id": "a4b3aa4588d3273df0e1631d1602a967", "is_reserved": 0, "fusion_lon": 0.0, "lat": 38.905804833333335, "is_disabled": 0, "name": "a4b3aa4588d3273df0e1631d1602a967", "fusion_lat": 0.0, "rental_uris": {"ios": "https://dc.lft.to/lastmile_qr_scan", "android": "https://dc.lft.to/lastmile_qr_scan"}, "lon": -77.034426, "type": "electric_scooter"}, {"bike_id": "50fcd9f981b5f269bda4d06baeabb9a8", "is_reserved": 0, "fusion_lon": 0.0, "lat": 38.901955, "is_disabled": 0, "name": "50fcd9f981b5f269bda4d06baeabb9a8", "fusion_lat": 0.0, "rental_uris": {"ios": "https://dc.lft.to/lastmile_qr_scan", "android": "https://dc.lft.to/lastmile_qr_scan"}, "lon": -77.023689, "type": "electric_scooter"}, {"bike_id": "938ae01149cd9e99753b05b2a2564400", "is_reserved": 0, "fusion_lon": 0.0, "lat": 38.926727, "is_disabled": 0, "name": "938ae01149cd9e99753b05b2a2564400", "fusion_lat": 0.0, "rental_uris": {"ios": "https://dc.lft.to/lastmile_qr_scan", "android": "https://dc.lft.to/lastmile_qr_scan"}, "lon": -77.036347, "type": "electric_scooter"}, {"bike_id": "599a4658f6430c84d9136f20115ee8dc", "is_reserved": 0, "fusion_lon": 0.0, "lat": 38.913213999999996, "is_disabled": 0, "name": "599a4658f6430c84d9136f20115ee8dc", "fusion_lat": 0.0, "rental_uris": {"ios": "https://dc.lft.to/lastmile_qr_scan", "android": "https://dc.lft.to/lastmile_qr_scan"}, "lon": -77.01512083333333, "type": "electric_scooter"}, {"bike_id": "878177206e9865c38b99e540ce1b17c1", "is_reserved": 0, "fusion_lon": 0.0, "lat": 38.908623166666665, "is_disabled": 0, "name": "878177206e9865c38b99e540ce1b17c1", "fusion_lat": 0.0, "rental_uris": {"ios": "https://dc.lft.to/lastmile_qr_scan", "android": "https://dc.lft.to/lastmile_qr_scan"}, "lon": -77.0425755, "type": "electric_scooter"}, {"bike_id": "39e5cc6b6656893c70da4fa62f1da2cf", "is_reserved": 0, "fusion_lon": 0.0, "lat": 38.938933666666664, "is_disabled": 0, "name": "39e5cc6b6656893c70da4fa62f1da2cf", "fusion_lat": 0.0, "rental_uris": {"ios": "https://dc.lft.to/lastmile_qr_scan", "android": "https://dc.lft.to/lastmile_qr_scan"}, "lon": -77.029742, "type": "electric_scooter"}, {"bike_id": "473d7d4eeeabd4a09fbc10027bda1b73", "is_reserved": 0, "fusion_lon": 0.0, "lat": 38.90296516666667, "is_disabled": 0, "name": "473d7d4eeeabd4a09fbc10027bda1b73", "fusion_lat": 0.0, "rental_uris": {"ios": "https://dc.lft.to/lastmile_qr_scan", "android": "https://dc.lft.to/lastmile_qr_scan"}, "lon": -76.94439266666667, "type": "electric_bike"}, {"bike_id": "0a3258a932aa79730f223cd103349ed3", "is_reserved": 0, "fusion_lon": 0.0, "lat": 38.90535, "is_disabled": 0, "name": "0a3258a932aa79730f223cd103349ed3", "fusion_lat": 0.0, "rental_uris": {"ios": "https://dc.lft.to/lastmile_qr_scan", "android": "https://dc.lft.to/lastmile_qr_scan"}, "lon": -77.05131016666667, "type": "electric_scooter"}, {"bike_id": "b6ac4775aecc5a7bcad35b2bf1fbd7f7", "is_reserved": 0, "fusion_lon": 0.0, "lat": 38.932521, "is_disabled": 0, "name": "b6ac4775aecc5a7bcad35b2bf1fbd7f7", "fusion_lat": 0.0, "rental_uris": {"ios": "https://dc.lft.to/lastmile_qr_scan", "android": "https://dc.lft.to/lastmile_qr_scan"}, "lon": -77.03285383333333, "type": "electric_scooter"}, {"bike_id": "ed3ded4020aeff1aaf6a4f42b807462c", "is_reserved": 0, "fusion_lon": 0.0, "lat": 38.887389, "is_disabled": 0, "name": "ed3ded4020aeff1aaf6a4f42b807462c", "fusion_lat": 0.0, "rental_uris": {"ios": "https://dc.lft.to/lastmile_qr_scan", "android": "https://dc.lft.to/lastmile_qr_scan"}, "lon": -77.02971816666667, "type": "electric_scooter"}, {"bike_id": "bb7292f1434abef99f4effa62c6b5f7f", "is_reserved": 0, "fusion_lon": 0.0, "lat": 38.900781333333335, "is_disabled": 0, "name": "bb7292f1434abef99f4effa62c6b5f7f", "fusion_lat": 0.0, "rental_uris": {"ios": "https://dc.lft.to/lastmile_qr_scan", "android": "https://dc.lft.to/lastmile_qr_scan"}, "lon": -76.93864566666667, "type": "electric_scooter"}, {"bike_id": "6ef721b2b32630740830119a7ef4a112", "is_reserved": 0, "fusion_lon": 0.0, "lat": 38.91965116666667, "is_disabled": 0, "name": "6ef721b2b32630740830119a7ef4a112", "fusion_lat": 0.0, "rental_uris": {"ios": "https://dc.lft.to/lastmile_qr_scan", "android": "https://dc.lft.to/lastmile_qr_scan"}, "lon": -77.03200333333334, "type": "electric_scooter"}, {"bike_id": "1fd8e16b0250bbaef027fc46f054ba6c", "is_reserved": 0, "fusion_lon": 0.0, "lat": 38.897381, "is_disabled": 0, "name": "1fd8e16b0250bbaef027fc46f054ba6c", "fusion_lat": 0.0, "rental_uris": {"ios": "https://dc.lft.to/lastmile_qr_scan", "android": "https://dc.lft.to/lastmile_qr_scan"}, "lon": -77.0557885, "type": "electric_scooter"}, {"bike_id": "879519c3ca389f984aab718b78ca026c", "is_reserved": 0, "fusion_lon": 0.0, "lat": 38.949713, "is_disabled": 0, "name": "879519c3ca389f984aab718b78ca026c", "fusion_lat": 0.0, "rental_uris": {"ios": "https://dc.lft.to/lastmile_qr_scan", "android": "https://dc.lft.to/lastmile_qr_scan"}, "lon": -76.97280266666667, "type": "electric_bike"}, {"bike_id": "14229f644d8ef1480f7f341c9545a969", "is_reserved": 0, "fusion_lon": 0.0, "lat": 38.903837333333335, "is_disabled": 0, "name": "14229f644d8ef1480f7f341c9545a969", "fusion_lat": 0.0, "rental_uris": {"ios": "https://dc.lft.to/lastmile_qr_scan", "android": "https://dc.lft.to/lastmile_qr_scan"}, "lon": -77.04497816666667, "type": "electric_scooter"}, {"bike_id": "6f3b22ce5b5da1158c61a67bd8f82e49", "is_reserved": 0, "fusion_lon": 0.0, "lat": 38.88846266666667, "is_disabled": 0, "name": "6f3b22ce5b5da1158c61a67bd8f82e49", "fusion_lat": 0.0, "rental_uris": {"ios": "https://dc.lft.to/lastmile_qr_scan", "android": "https://dc.lft.to/lastmile_qr_scan"}, "lon": -76.92678133333334, "type": "electric_scooter"}, {"bike_id": "8f7b3886c4b2682cf020086ea9c568f9", "is_reserved": 0, "fusion_lon": 0.0, "lat": 38.903792833333334, "is_disabled": 0, "name": "8f7b3886c4b2682cf020086ea9c568f9", "fusion_lat": 0.0, "rental_uris": {"ios": "https://dc.lft.to/lastmile_qr_scan", "android": "https://dc.lft.to/lastmile_qr_scan"}, "lon": -76.99566916666667, "type": "electric_scooter"}, {"bike_id": "98a7ea7c8383fe8b4c5160a67375d1f3", "is_reserved": 0, "fusion_lon": 0.0, "lat": 38.948059, "is_disabled": 0, "name": "98a7ea7c8383fe8b4c5160a67375d1f3", "fusion_lat": 0.0, "rental_uris": {"ios": "https://dc.lft.to/lastmile_qr_scan", "android": "https://dc.lft.to/lastmile_qr_scan"}, "lon": -77.07907433333334, "type": "electric_scooter"}, {"bike_id": "dd59fc217a5053b0ef5cadd156ee54b4", "is_reserved": 0, "fusion_lon": 0.0, "lat": 38.866153833333335, "is_disabled": 0, "name": "dd59fc217a5053b0ef5cadd156ee54b4", "fusion_lat": 0.0, "rental_uris": {"ios": "https://dc.lft.to/lastmile_qr_scan", "android": "https://dc.lft.to/lastmile_qr_scan"}, "lon": -76.945698, "type": "electric_bike"}, {"bike_id": "90cde2d853d4bc21200533995543a021", "is_reserved": 0, "fusion_lon": 0.0, "lat": 38.860126666666666, "is_disabled": 0, "name": "90cde2d853d4bc21200533995543a021", "fusion_lat": 0.0, "rental_uris": {"ios": "https://dc.lft.to/lastmile_qr_scan", "android": "https://dc.lft.to/lastmile_qr_scan"}, "lon": -77.05770233333334, "type": "electric_bike"}, {"bike_id": "bb3d4d1bbb1574b3a05420bb1ee0cb71", "is_reserved": 0, "fusion_lon": 0.0, "lat": 38.828735, "is_disabled": 0, "name": "bb3d4d1bbb1574b3a05420bb1ee0cb71", "fusion_lat": 0.0, "rental_uris": {"ios": "https://dc.lft.to/lastmile_qr_scan", "android": "https://dc.lft.to/lastmile_qr_scan"}, "lon": -77.11217866666667, "type": "electric_bike"}, {"bike_id": "ad601fd1595e23a9bf6d900a6d7d9f67", "is_reserved": 0, "fusion_lon": 0.0, "lat": 38.92000733333333, "is_disabled": 0, "name": "ad601fd1595e23a9bf6d900a6d7d9f67", "fusion_lat": 0.0, "rental_uris": {"ios": "https://dc.lft.to/lastmile_qr_scan", "android": "https://dc.lft.to/lastmile_qr_scan"}, "lon": -77.03220316666666, "type": "electric_scooter"}, {"bike_id": "ea255bb9c71aa3174f2d3a8e4f3c3a42", "is_reserved": 0, "fusion_lon": 0.0, "lat": 38.93603433333333, "is_disabled": 0, "name": "ea255bb9c71aa3174f2d3a8e4f3c3a42", "fusion_lat": 0.0, "rental_uris": {"ios": "https://dc.lft.to/lastmile_qr_scan", "android": "https://dc.lft.to/lastmile_qr_scan"}, "lon": -77.0586125, "type": "electric_scooter"}, {"bike_id": "9fde85e8c27af93fee3043581ec90a6e", "is_reserved": 0, "fusion_lon": 0.0, "lat": 38.900194, "is_disabled": 0, "name": "9fde85e8c27af93fee3043581ec90a6e", "fusion_lat": 0.0, "rental_uris": {"ios": "https://dc.lft.to/lastmile_qr_scan", "android": "https://dc.lft.to/lastmile_qr_scan"}, "lon": -77.01356966666667, "type": "electric_scooter"}, {"bike_id": "a3a03d492822c4a941ed3dae5153d059", "is_reserved": 0, "fusion_lon": 0.0, "lat": 38.900934, "is_disabled": 0, "name": "a3a03d492822c4a941ed3dae5153d059", "fusion_lat": 0.0, "rental_uris": {"ios": "https://dc.lft.to/lastmile_qr_scan", "android": "https://dc.lft.to/lastmile_qr_scan"}, "lon": -77.04862383333334, "type": "electric_scooter"}, {"bike_id": "ea3ae96f1f2c1d71761892e91e731890", "is_reserved": 0, "fusion_lon": 0.0, "lat": 38.9179675, "is_disabled": 0, "name": "ea3ae96f1f2c1d71761892e91e731890", "fusion_lat": 0.0, "rental_uris": {"ios": "https://dc.lft.to/lastmile_qr_scan", "android": "https://dc.lft.to/lastmile_qr_scan"}, "lon": -77.03433133333333, "type": "electric_scooter"}, {"bike_id": "5f3e67fee018e03c229dc11344240231", "is_reserved": 0, "fusion_lon": 0.0, "lat": 38.91093466666667, "is_disabled": 0, "name": "5f3e67fee018e03c229dc11344240231", "fusion_lat": 0.0, "rental_uris": {"ios": "https://dc.lft.to/lastmile_qr_scan", "android": "https://dc.lft.to/lastmile_qr_scan"}, "lon": -77.0344655, "type": "electric_scooter"}, {"bike_id": "aa37c3062ff4b20e4b9bac1db5eed458", "is_reserved": 0, "fusion_lon": 0.0, "lat": 38.990884, "is_disabled": 0, "name": "aa37c3062ff4b20e4b9bac1db5eed458", "fusion_lat": 0.0, "rental_uris": {"ios": "https://dc.lft.to/lastmile_qr_scan", "android": "https://dc.lft.to/lastmile_qr_scan"}, "lon": -76.874922, "type": "electric_bike"}, {"bike_id": "94196eb9e3f2cadb5cbb154ce1550db5", "is_reserved": 0, "fusion_lon": 0.0, "lat": 38.88409516666667, "is_disabled": 0, "name": "94196eb9e3f2cadb5cbb154ce1550db5", "fusion_lat": 0.0, "rental_uris": {"ios": "https://dc.lft.to/lastmile_qr_scan", "android": "https://dc.lft.to/lastmile_qr_scan"}, "lon": -77.01532883333333, "type": "electric_scooter"}, {"bike_id": "93f559b17a342ec0c1e70be3c2bba807", "is_reserved": 0, "fusion_lon": 0.0, "lat": 38.90176866666667, "is_disabled": 0, "name": "93f559b17a342ec0c1e70be3c2bba807", "fusion_lat": 0.0, "rental_uris": {"ios": "https://dc.lft.to/lastmile_qr_scan", "android": "https://dc.lft.to/lastmile_qr_scan"}, "lon": -77.02167483333334, "type": "electric_scooter"}, {"bike_id": "fae417effe57de145630d0e60ab25958", "is_reserved": 0, "fusion_lon": 0.0, "lat": 38.919731666666664, "is_disabled": 0, "name": "fae417effe57de145630d0e60ab25958", "fusion_lat": 0.0, "rental_uris": {"ios": "https://dc.lft.to/lastmile_qr_scan", "android": "https://dc.lft.to/lastmile_qr_scan"}, "lon": -77.02387666666667, "type": "electric_scooter"}, {"bike_id": "449c06254091bd1433a7089fe3940d27", "is_reserved": 0, "fusion_lon": 0.0, "lat": 38.91675716666666, "is_disabled": 0, "name": "449c06254091bd1433a7089fe3940d27", "fusion_lat": 0.0, "rental_uris": {"ios": "https://dc.lft.to/lastmile_qr_scan", "android": "https://dc.lft.to/lastmile_qr_scan"}, "lon": -77.03634233333334, "type": "electric_scooter"}, {"bike_id": "a0575bb01b64a5912ced5adacc085f31", "is_reserved": 0, "fusion_lon": 0.0, "lat": 38.92670016666667, "is_disabled": 0, "name": "a0575bb01b64a5912ced5adacc085f31", "fusion_lat": 0.0, "rental_uris": {"ios": "https://dc.lft.to/lastmile_qr_scan", "android": "https://dc.lft.to/lastmile_qr_scan"}, "lon": -76.99530883333334, "type": "electric_scooter"}, {"bike_id": "355c0311d0f3d5f778f2f703c9668536", "is_reserved": 0, "fusion_lon": 0.0, "lat": 38.91777033333334, "is_disabled": 0, "name": "355c0311d0f3d5f778f2f703c9668536", "fusion_lat": 0.0, "rental_uris": {"ios": "https://dc.lft.to/lastmile_qr_scan", "android": "https://dc.lft.to/lastmile_qr_scan"}, "lon": -77.04750483333333, "type": "electric_scooter"}, {"bike_id": "1702de051f8a1aec00c08d0fa00bba70", "is_reserved": 0, "fusion_lon": 0.0, "lat": 38.90172183333333, "is_disabled": 0, "name": "1702de051f8a1aec00c08d0fa00bba70", "fusion_lat": 0.0, "rental_uris": {"ios": "https://dc.lft.to/lastmile_qr_scan", "android": "https://dc.lft.to/lastmile_qr_scan"}, "lon": -76.98074333333334, "type": "electric_scooter"}, {"bike_id": "d42c2f280be8a94d77c16c6520372649", "is_reserved": 0, "fusion_lon": 0.0, "lat": 38.876271333333335, "is_disabled": 0, "name": "d42c2f280be8a94d77c16c6520372649", "fusion_lat": 0.0, "rental_uris": {"ios": "https://dc.lft.to/lastmile_qr_scan", "android": "https://dc.lft.to/lastmile_qr_scan"}, "lon": -76.96523683333334, "type": "electric_scooter"}, {"bike_id": "83d7f5410d86e38fc6c9633dadb43595", "is_reserved": 0, "fusion_lon": 0.0, "lat": 38.907219833333336, "is_disabled": 0, "name": "83d7f5410d86e38fc6c9633dadb43595", "fusion_lat": 0.0, "rental_uris": {"ios": "https://dc.lft.to/lastmile_qr_scan", "android": "https://dc.lft.to/lastmile_qr_scan"}, "lon": -77.02938183333333, "type": "electric_scooter"}, {"bike_id": "cd66c0ee8a18a69587d86c543f62bb29", "is_reserved": 0, "fusion_lon": 0.0, "lat": 38.90275583333333, "is_disabled": 0, "name": "cd66c0ee8a18a69587d86c543f62bb29", "fusion_lat": 0.0, "rental_uris": {"ios": "https://dc.lft.to/lastmile_qr_scan", "android": "https://dc.lft.to/lastmile_qr_scan"}, "lon": -77.039757, "type": "electric_scooter"}, {"bike_id": "e7b47c4e1f24b4fd3369a754c87475d3", "is_reserved": 0, "fusion_lon": 0.0, "lat": 38.893279, "is_disabled": 0, "name": "e7b47c4e1f24b4fd3369a754c87475d3", "fusion_lat": 0.0, "rental_uris": {"ios": "https://dc.lft.to/lastmile_qr_scan", "android": "https://dc.lft.to/lastmile_qr_scan"}, "lon": -76.929933, "type": "electric_scooter"}, {"bike_id": "778d9a171f9dc3db15e194642249bd78", "is_reserved": 0, "fusion_lon": 0.0, "lat": 38.89979, "is_disabled": 0, "name": "778d9a171f9dc3db15e194642249bd78", "fusion_lat": 0.0, "rental_uris": {"ios": "https://dc.lft.to/lastmile_qr_scan", "android": "https://dc.lft.to/lastmile_qr_scan"}, "lon": -76.99148916666667, "type": "electric_scooter"}, {"bike_id": "18218b3b4ef69024c1e79cea6cc1a78d", "is_reserved": 0, "fusion_lon": 0.0, "lat": 38.92320616666667, "is_disabled": 0, "name": "18218b3b4ef69024c1e79cea6cc1a78d", "fusion_lat": 0.0, "rental_uris": {"ios": "https://dc.lft.to/lastmile_qr_scan", "android": "https://dc.lft.to/lastmile_qr_scan"}, "lon": -77.02963633333333, "type": "electric_scooter"}, {"bike_id": "5df87dc0d802ec60051824f6e1b34527", "is_reserved": 0, "fusion_lon": 0.0, "lat": 38.96507866666666, "is_disabled": 0, "name": "5df87dc0d802ec60051824f6e1b34527", "fusion_lat": 0.0, "rental_uris": {"ios": "https://dc.lft.to/lastmile_qr_scan", "android": "https://dc.lft.to/lastmile_qr_scan"}, "lon": -77.0281085, "type": "electric_bike"}, {"bike_id": "7b7bba025b310eae8758c3505f80beb9", "is_reserved": 0, "fusion_lon": 0.0, "lat": 38.90728883333333, "is_disabled": 0, "name": "7b7bba025b310eae8758c3505f80beb9", "fusion_lat": 0.0, "rental_uris": {"ios": "https://dc.lft.to/lastmile_qr_scan", "android": "https://dc.lft.to/lastmile_qr_scan"}, "lon": -77.032101, "type": "electric_scooter"}, {"bike_id": "c6ff8f334577d021834710987bcb2be8", "is_reserved": 0, "fusion_lon": 0.0, "lat": 38.90378366666667, "is_disabled": 0, "name": "c6ff8f334577d021834710987bcb2be8", "fusion_lat": 0.0, "rental_uris": {"ios": "https://dc.lft.to/lastmile_qr_scan", "android": "https://dc.lft.to/lastmile_qr_scan"}, "lon": -77.04346216666667, "type": "electric_scooter"}, {"bike_id": "81be38c765f546b297fc78028f356b56", "is_reserved": 0, "fusion_lon": 0.0, "lat": 38.90679266666667, "is_disabled": 0, "name": "81be38c765f546b297fc78028f356b56", "fusion_lat": 0.0, "rental_uris": {"ios": "https://dc.lft.to/lastmile_qr_scan", "android": "https://dc.lft.to/lastmile_qr_scan"}, "lon": -77.03768716666667, "type": "electric_scooter"}, {"bike_id": "e3b17af3132eaf6f6eaefa7ec5e17fe4", "is_reserved": 0, "fusion_lon": 0.0, "lat": 38.905775166666665, "is_disabled": 0, "name": "e3b17af3132eaf6f6eaefa7ec5e17fe4", "fusion_lat": 0.0, "rental_uris": {"ios": "https://dc.lft.to/lastmile_qr_scan", "android": "https://dc.lft.to/lastmile_qr_scan"}, "lon": -77.005802, "type": "electric_scooter"}, {"bike_id": "c36930cea4e0b8af53706414d7afaeda", "is_reserved": 0, "fusion_lon": 0.0, "lat": 38.91111883333333, "is_disabled": 0, "name": "c36930cea4e0b8af53706414d7afaeda", "fusion_lat": 0.0, "rental_uris": {"ios": "https://dc.lft.to/lastmile_qr_scan", "android": "https://dc.lft.to/lastmile_qr_scan"}, "lon": -77.00270116666667, "type": "electric_scooter"}, {"bike_id": "bedd55c58bc0523baeceb654dac5fe7a", "is_reserved": 0, "fusion_lon": 0.0, "lat": 38.907058166666665, "is_disabled": 0, "name": "bedd55c58bc0523baeceb654dac5fe7a", "fusion_lat": 0.0, "rental_uris": {"ios": "https://dc.lft.to/lastmile_qr_scan", "android": "https://dc.lft.to/lastmile_qr_scan"}, "lon": -77.03203716666667, "type": "electric_scooter"}, {"bike_id": "c0d8e8daecd9976ddffb2ddcc40c30da", "is_reserved": 0, "fusion_lon": 0.0, "lat": 38.915844, "is_disabled": 0, "name": "c0d8e8daecd9976ddffb2ddcc40c30da", "fusion_lat": 0.0, "rental_uris": {"ios": "https://dc.lft.to/lastmile_qr_scan", "android": "https://dc.lft.to/lastmile_qr_scan"}, "lon": -77.01240333333334, "type": "electric_scooter"}, {"bike_id": "19eea58d5e4c8fb21f5a7b54de509af4", "is_reserved": 0, "fusion_lon": 0.0, "lat": 38.879224666666666, "is_disabled": 0, "name": "19eea58d5e4c8fb21f5a7b54de509af4", "fusion_lat": 0.0, "rental_uris": {"ios": "https://dc.lft.to/lastmile_qr_scan", "android": "https://dc.lft.to/lastmile_qr_scan"}, "lon": -77.013425, "type": "electric_scooter"}, {"bike_id": "272365fb5bea007024489ec71d260ca9", "is_reserved": 0, "fusion_lon": 0.0, "lat": 38.885068, "is_disabled": 0, "name": "272365fb5bea007024489ec71d260ca9", "fusion_lat": 0.0, "rental_uris": {"ios": "https://dc.lft.to/lastmile_qr_scan", "android": "https://dc.lft.to/lastmile_qr_scan"}, "lon": -77.00566483333333, "type": "electric_scooter"}, {"bike_id": "691e36aecedf4814c1a08cefb3e4301d", "is_reserved": 0, "fusion_lon": 0.0, "lat": 38.912500333333334, "is_disabled": 0, "name": "691e36aecedf4814c1a08cefb3e4301d", "fusion_lat": 0.0, "rental_uris": {"ios": "https://dc.lft.to/lastmile_qr_scan", "android": "https://dc.lft.to/lastmile_qr_scan"}, "lon": -77.03639533333333, "type": "electric_scooter"}, {"bike_id": "fc1ac15ff6ea772ab788c2a21efa3d1c", "is_reserved": 0, "fusion_lon": 0.0, "lat": 38.91173416666667, "is_disabled": 0, "name": "fc1ac15ff6ea772ab788c2a21efa3d1c", "fusion_lat": 0.0, "rental_uris": {"ios": "https://dc.lft.to/lastmile_qr_scan", "android": "https://dc.lft.to/lastmile_qr_scan"}, "lon": -77.002843, "type": "electric_bike"}, {"bike_id": "65bcbecc843b99292b358275d16db1af", "is_reserved": 0, "fusion_lon": 0.0, "lat": 38.907816, "is_disabled": 0, "name": "65bcbecc843b99292b358275d16db1af", "fusion_lat": 0.0, "rental_uris": {"ios": "https://dc.lft.to/lastmile_qr_scan", "android": "https://dc.lft.to/lastmile_qr_scan"}, "lon": -77.038657, "type": "electric_scooter"}, {"bike_id": "f9539d717510735e971ca84e07e1e157", "is_reserved": 0, "fusion_lon": 0.0, "lat": 38.9214145, "is_disabled": 0, "name": "f9539d717510735e971ca84e07e1e157", "fusion_lat": 0.0, "rental_uris": {"ios": "https://dc.lft.to/lastmile_qr_scan", "android": "https://dc.lft.to/lastmile_qr_scan"}, "lon": -77.041306, "type": "electric_scooter"}, {"bike_id": "de80090edfa4cbf48dcd26148d9dc7cb", "is_reserved": 0, "fusion_lon": 0.0, "lat": 38.87729616666667, "is_disabled": 0, "name": "de80090edfa4cbf48dcd26148d9dc7cb", "fusion_lat": 0.0, "rental_uris": {"ios": "https://dc.lft.to/lastmile_qr_scan", "android": "https://dc.lft.to/lastmile_qr_scan"}, "lon": -77.11847216666666, "type": "electric_bike"}, {"bike_id": "b735ca76035e63698f711daec2975bc0", "is_reserved": 0, "fusion_lon": 0.0, "lat": 38.9173505, "is_disabled": 0, "name": "b735ca76035e63698f711daec2975bc0", "fusion_lat": 0.0, "rental_uris": {"ios": "https://dc.lft.to/lastmile_qr_scan", "android": "https://dc.lft.to/lastmile_qr_scan"}, "lon": -77.007948, "type": "electric_scooter"}, {"bike_id": "101fde041b687f5d4233c377653cc370", "is_reserved": 0, "fusion_lon": 0.0, "lat": 38.9237305, "is_disabled": 0, "name": "101fde041b687f5d4233c377653cc370", "fusion_lat": 0.0, "rental_uris": {"ios": "https://dc.lft.to/lastmile_qr_scan", "android": "https://dc.lft.to/lastmile_qr_scan"}, "lon": -77.05178016666666, "type": "electric_scooter"}, {"bike_id": "593a025c92e4d817ac9f686af586cbd8", "is_reserved": 0, "fusion_lon": 0.0, "lat": 38.922367333333334, "is_disabled": 0, "name": "593a025c92e4d817ac9f686af586cbd8", "fusion_lat": 0.0, "rental_uris": {"ios": "https://dc.lft.to/lastmile_qr_scan", "android": "https://dc.lft.to/lastmile_qr_scan"}, "lon": -77.03087183333334, "type": "electric_scooter"}, {"bike_id": "614f5dc931aa1816e2d6f03e54eb221a", "is_reserved": 0, "fusion_lon": 0.0, "lat": 38.90288316666667, "is_disabled": 0, "name": "614f5dc931aa1816e2d6f03e54eb221a", "fusion_lat": 0.0, "rental_uris": {"ios": "https://dc.lft.to/lastmile_qr_scan", "android": "https://dc.lft.to/lastmile_qr_scan"}, "lon": -77.039557, "type": "electric_scooter"}, {"bike_id": "9cb117d6cb9dbbcbecc662477724d621", "is_reserved": 0, "fusion_lon": 0.0, "lat": 38.90290383333333, "is_disabled": 0, "name": "9cb117d6cb9dbbcbecc662477724d621", "fusion_lat": 0.0, "rental_uris": {"ios": "https://dc.lft.to/lastmile_qr_scan", "android": "https://dc.lft.to/lastmile_qr_scan"}, "lon": -77.03440866666666, "type": "electric_scooter"}, {"bike_id": "b5f40d0b68aad67d30813d50bbebfca1", "is_reserved": 0, "fusion_lon": 0.0, "lat": 38.88348166666667, "is_disabled": 0, "name": "b5f40d0b68aad67d30813d50bbebfca1", "fusion_lat": 0.0, "rental_uris": {"ios": "https://dc.lft.to/lastmile_qr_scan", "android": "https://dc.lft.to/lastmile_qr_scan"}, "lon": -76.98543833333333, "type": "electric_scooter"}, {"bike_id": "713976fd5943dbbdeed0f4a3303bdddc", "is_reserved": 0, "fusion_lon": 0.0, "lat": 38.928856333333336, "is_disabled": 0, "name": "713976fd5943dbbdeed0f4a3303bdddc", "fusion_lat": 0.0, "rental_uris": {"ios": "https://dc.lft.to/lastmile_qr_scan", "android": "https://dc.lft.to/lastmile_qr_scan"}, "lon": -77.03295083333333, "type": "electric_scooter"}, {"bike_id": "a38ecd17134f6f62cb01acea9720ed82", "is_reserved": 0, "fusion_lon": 0.0, "lat": 38.9327515, "is_disabled": 0, "name": "a38ecd17134f6f62cb01acea9720ed82", "fusion_lat": 0.0, "rental_uris": {"ios": "https://dc.lft.to/lastmile_qr_scan", "android": "https://dc.lft.to/lastmile_qr_scan"}, "lon": -77.03632883333333, "type": "electric_scooter"}, {"bike_id": "306591730a995cefdd38f2dcb3a24483", "is_reserved": 0, "fusion_lon": 0.0, "lat": 38.90970016666667, "is_disabled": 0, "name": "306591730a995cefdd38f2dcb3a24483", "fusion_lat": 0.0, "rental_uris": {"ios": "https://dc.lft.to/lastmile_qr_scan", "android": "https://dc.lft.to/lastmile_qr_scan"}, "lon": -77.03870083333334, "type": "electric_scooter"}, {"bike_id": "772f23ed39f5724f07c7b4d0cd95e3af", "is_reserved": 0, "fusion_lon": 0.0, "lat": 38.9060205, "is_disabled": 0, "name": "772f23ed39f5724f07c7b4d0cd95e3af", "fusion_lat": 0.0, "rental_uris": {"ios": "https://dc.lft.to/lastmile_qr_scan", "android": "https://dc.lft.to/lastmile_qr_scan"}, "lon": -77.05124033333334, "type": "electric_scooter"}, {"bike_id": "394c33b84f936f70aae1a66564d18aa8", "is_reserved": 0, "fusion_lon": 0.0, "lat": 38.90047933333334, "is_disabled": 0, "name": "394c33b84f936f70aae1a66564d18aa8", "fusion_lat": 0.0, "rental_uris": {"ios": "https://dc.lft.to/lastmile_qr_scan", "android": "https://dc.lft.to/lastmile_qr_scan"}, "lon": -77.002089, "type": "electric_scooter"}, {"bike_id": "bdf12e3ddc6fcac7102049fe5dae887b", "is_reserved": 0, "fusion_lon": 0.0, "lat": 38.9127015, "is_disabled": 0, "name": "bdf12e3ddc6fcac7102049fe5dae887b", "fusion_lat": 0.0, "rental_uris": {"ios": "https://dc.lft.to/lastmile_qr_scan", "android": "https://dc.lft.to/lastmile_qr_scan"}, "lon": -77.02690983333333, "type": "electric_scooter"}, {"bike_id": "67b625c77273ed9e3486739e946be636", "is_reserved": 0, "fusion_lon": 0.0, "lat": 38.91563166666667, "is_disabled": 0, "name": "67b625c77273ed9e3486739e946be636", "fusion_lat": 0.0, "rental_uris": {"ios": "https://dc.lft.to/lastmile_qr_scan", "android": "https://dc.lft.to/lastmile_qr_scan"}, "lon": -77.0402115, "type": "electric_scooter"}, {"bike_id": "f7b82dbb78e982884e1cc900a0d6f5db", "is_reserved": 0, "fusion_lon": 0.0, "lat": 38.9095825, "is_disabled": 0, "name": "f7b82dbb78e982884e1cc900a0d6f5db", "fusion_lat": 0.0, "rental_uris": {"ios": "https://dc.lft.to/lastmile_qr_scan", "android": "https://dc.lft.to/lastmile_qr_scan"}, "lon": -77.0368395, "type": "electric_scooter"}, {"bike_id": "e9cb4c1e1d7647e32f0f9a3361bae281", "is_reserved": 0, "fusion_lon": 0.0, "lat": 38.9155715, "is_disabled": 0, "name": "e9cb4c1e1d7647e32f0f9a3361bae281", "fusion_lat": 0.0, "rental_uris": {"ios": "https://dc.lft.to/lastmile_qr_scan", "android": "https://dc.lft.to/lastmile_qr_scan"}, "lon": -77.0386645, "type": "electric_scooter"}, {"bike_id": "7cd6373ffcd5954fc3f51915c97b8596", "is_reserved": 0, "fusion_lon": 0.0, "lat": 38.923596, "is_disabled": 0, "name": "7cd6373ffcd5954fc3f51915c97b8596", "fusion_lat": 0.0, "rental_uris": {"ios": "https://dc.lft.to/lastmile_qr_scan", "android": "https://dc.lft.to/lastmile_qr_scan"}, "lon": -77.05227483333333, "type": "electric_scooter"}, {"bike_id": "25315a5b0bf079a254d6e7742ec9639a", "is_reserved": 0, "fusion_lon": 0.0, "lat": 38.89886083333333, "is_disabled": 0, "name": "25315a5b0bf079a254d6e7742ec9639a", "fusion_lat": 0.0, "rental_uris": {"ios": "https://dc.lft.to/lastmile_qr_scan", "android": "https://dc.lft.to/lastmile_qr_scan"}, "lon": -77.03957616666666, "type": "electric_scooter"}, {"bike_id": "35e1dde1409ebf18f726f5b07caffc90", "is_reserved": 0, "fusion_lon": 0.0, "lat": 38.924018833333335, "is_disabled": 0, "name": "35e1dde1409ebf18f726f5b07caffc90", "fusion_lat": 0.0, "rental_uris": {"ios": "https://dc.lft.to/lastmile_qr_scan", "android": "https://dc.lft.to/lastmile_qr_scan"}, "lon": -77.052468, "type": "electric_scooter"}, {"bike_id": "cdc7f3a14f79f41d25b2cd5e720f9322", "is_reserved": 0, "fusion_lon": 0.0, "lat": 38.925679, "is_disabled": 0, "name": "cdc7f3a14f79f41d25b2cd5e720f9322", "fusion_lat": 0.0, "rental_uris": {"ios": "https://dc.lft.to/lastmile_qr_scan", "android": "https://dc.lft.to/lastmile_qr_scan"}, "lon": -77.04048466666667, "type": "electric_scooter"}, {"bike_id": "213457ebf1599765791f393bce2e27d2", "is_reserved": 0, "fusion_lon": 0.0, "lat": 38.895298, "is_disabled": 0, "name": "213457ebf1599765791f393bce2e27d2", "fusion_lat": 0.0, "rental_uris": {"ios": "https://dc.lft.to/lastmile_qr_scan", "android": "https://dc.lft.to/lastmile_qr_scan"}, "lon": -76.94888016666667, "type": "electric_scooter"}, {"bike_id": "f2939c8438f2b4fefc7d374e425cbec9", "is_reserved": 0, "fusion_lon": 0.0, "lat": 38.94829433333334, "is_disabled": 0, "name": "f2939c8438f2b4fefc7d374e425cbec9", "fusion_lat": 0.0, "rental_uris": {"ios": "https://dc.lft.to/lastmile_qr_scan", "android": "https://dc.lft.to/lastmile_qr_scan"}, "lon": -77.0241895, "type": "electric_scooter"}, {"bike_id": "424d1a0ec5fbc940adcb2ffb183e562a", "is_reserved": 0, "fusion_lon": 0.0, "lat": 38.92854166666667, "is_disabled": 0, "name": "424d1a0ec5fbc940adcb2ffb183e562a", "fusion_lat": 0.0, "rental_uris": {"ios": "https://dc.lft.to/lastmile_qr_scan", "android": "https://dc.lft.to/lastmile_qr_scan"}, "lon": -77.106782, "type": "electric_bike"}, {"bike_id": "e80b15a8220a2b4cde529b31405ab045", "is_reserved": 0, "fusion_lon": 0.0, "lat": 38.89876, "is_disabled": 0, "name": "e80b15a8220a2b4cde529b31405ab045", "fusion_lat": 0.0, "rental_uris": {"ios": "https://dc.lft.to/lastmile_qr_scan", "android": "https://dc.lft.to/lastmile_qr_scan"}, "lon": -76.93158433333333, "type": "electric_scooter"}, {"bike_id": "727b5ab838691e276620ad89cb05f2a1", "is_reserved": 0, "fusion_lon": 0.0, "lat": 38.90708, "is_disabled": 0, "name": "727b5ab838691e276620ad89cb05f2a1", "fusion_lat": 0.0, "rental_uris": {"ios": "https://dc.lft.to/lastmile_qr_scan", "android": "https://dc.lft.to/lastmile_qr_scan"}, "lon": -77.031982, "type": "electric_scooter"}, {"bike_id": "35453a962ee3781bb2b29bb9d3eaa399", "is_reserved": 0, "fusion_lon": 0.0, "lat": 38.88387216666667, "is_disabled": 0, "name": "35453a962ee3781bb2b29bb9d3eaa399", "fusion_lat": 0.0, "rental_uris": {"ios": "https://dc.lft.to/lastmile_qr_scan", "android": "https://dc.lft.to/lastmile_qr_scan"}, "lon": -77.02377983333334, "type": "electric_scooter"}, {"bike_id": "5e17f9ab4e6dc0af1b405ceee9027514", "is_reserved": 0, "fusion_lon": 0.0, "lat": 38.918749166666665, "is_disabled": 0, "name": "5e17f9ab4e6dc0af1b405ceee9027514", "fusion_lat": 0.0, "rental_uris": {"ios": "https://dc.lft.to/lastmile_qr_scan", "android": "https://dc.lft.to/lastmile_qr_scan"}, "lon": -77.035055, "type": "electric_scooter"}, {"bike_id": "760e6e32e56739448fe081cafa79d03a", "is_reserved": 0, "fusion_lon": 0.0, "lat": 38.908005833333334, "is_disabled": 0, "name": "760e6e32e56739448fe081cafa79d03a", "fusion_lat": 0.0, "rental_uris": {"ios": "https://dc.lft.to/lastmile_qr_scan", "android": "https://dc.lft.to/lastmile_qr_scan"}, "lon": -77.034603, "type": "electric_scooter"}, {"bike_id": "461e0d2f5a09122eb90e16732cfd47ca", "is_reserved": 0, "fusion_lon": 0.0, "lat": 38.92046166666667, "is_disabled": 0, "name": "461e0d2f5a09122eb90e16732cfd47ca", "fusion_lat": 0.0, "rental_uris": {"ios": "https://dc.lft.to/lastmile_qr_scan", "android": "https://dc.lft.to/lastmile_qr_scan"}, "lon": -76.9981385, "type": "electric_scooter"}, {"bike_id": "65df432051446583df3e8b7494fe700b", "is_reserved": 0, "fusion_lon": 0.0, "lat": 38.99062083333333, "is_disabled": 0, "name": "65df432051446583df3e8b7494fe700b", "fusion_lat": 0.0, "rental_uris": {"ios": "https://dc.lft.to/lastmile_qr_scan", "android": "https://dc.lft.to/lastmile_qr_scan"}, "lon": -77.1002875, "type": "electric_bike"}, {"bike_id": "73de668536a1ad40379a699541b8bf9b", "is_reserved": 0, "fusion_lon": 0.0, "lat": 38.8723715, "is_disabled": 0, "name": "73de668536a1ad40379a699541b8bf9b", "fusion_lat": 0.0, "rental_uris": {"ios": "https://dc.lft.to/lastmile_qr_scan", "android": "https://dc.lft.to/lastmile_qr_scan"}, "lon": -77.011704, "type": "electric_bike"}, {"bike_id": "517018d922cee97659e08d0396cdbb33", "is_reserved": 0, "fusion_lon": 0.0, "lat": 38.92414683333333, "is_disabled": 0, "name": "517018d922cee97659e08d0396cdbb33", "fusion_lat": 0.0, "rental_uris": {"ios": "https://dc.lft.to/lastmile_qr_scan", "android": "https://dc.lft.to/lastmile_qr_scan"}, "lon": -77.03550033333333, "type": "electric_scooter"}, {"bike_id": "ea014dff70e246cc6e65659026ae0e7b", "is_reserved": 0, "fusion_lon": 0.0, "lat": 38.91806416666667, "is_disabled": 0, "name": "ea014dff70e246cc6e65659026ae0e7b", "fusion_lat": 0.0, "rental_uris": {"ios": "https://dc.lft.to/lastmile_qr_scan", "android": "https://dc.lft.to/lastmile_qr_scan"}, "lon": -77.03434116666666, "type": "electric_scooter"}, {"bike_id": "0b586bb872ea8788f711bd3f1343cbac", "is_reserved": 0, "fusion_lon": 0.0, "lat": 38.90010316666667, "is_disabled": 0, "name": "0b586bb872ea8788f711bd3f1343cbac", "fusion_lat": 0.0, "rental_uris": {"ios": "https://dc.lft.to/lastmile_qr_scan", "android": "https://dc.lft.to/lastmile_qr_scan"}, "lon": -77.001768, "type": "electric_scooter"}, {"bike_id": "ea1a8981cfecb2095b839a58e099fd52", "is_reserved": 0, "fusion_lon": 0.0, "lat": 38.89230033333333, "is_disabled": 0, "name": "ea1a8981cfecb2095b839a58e099fd52", "fusion_lat": 0.0, "rental_uris": {"ios": "https://dc.lft.to/lastmile_qr_scan", "android": "https://dc.lft.to/lastmile_qr_scan"}, "lon": -77.02179416666667, "type": "electric_scooter"}, {"bike_id": "f403436d68392943cb16d6c8742dd6ab", "is_reserved": 0, "fusion_lon": 0.0, "lat": 38.939542333333335, "is_disabled": 0, "name": "f403436d68392943cb16d6c8742dd6ab", "fusion_lat": 0.0, "rental_uris": {"ios": "https://dc.lft.to/lastmile_qr_scan", "android": "https://dc.lft.to/lastmile_qr_scan"}, "lon": -77.03263816666667, "type": "electric_scooter"}, {"bike_id": "15566702752f0408e210373c66e30123", "is_reserved": 0, "fusion_lon": 0.0, "lat": 38.899617666666664, "is_disabled": 0, "name": "15566702752f0408e210373c66e30123", "fusion_lat": 0.0, "rental_uris": {"ios": "https://dc.lft.to/lastmile_qr_scan", "android": "https://dc.lft.to/lastmile_qr_scan"}, "lon": -77.01622066666667, "type": "electric_scooter"}, {"bike_id": "33fb4976cf2de9f661e782795251495a", "is_reserved": 0, "fusion_lon": 0.0, "lat": 38.934014833333336, "is_disabled": 0, "name": "33fb4976cf2de9f661e782795251495a", "fusion_lat": 0.0, "rental_uris": {"ios": "https://dc.lft.to/lastmile_qr_scan", "android": "https://dc.lft.to/lastmile_qr_scan"}, "lon": -77.0206765, "type": "electric_scooter"}, {"bike_id": "c88e0a4abf256f059614a4e1d3f9fea9", "is_reserved": 0, "fusion_lon": 0.0, "lat": 38.952808, "is_disabled": 0, "name": "c88e0a4abf256f059614a4e1d3f9fea9", "fusion_lat": 0.0, "rental_uris": {"ios": "https://dc.lft.to/lastmile_qr_scan", "android": "https://dc.lft.to/lastmile_qr_scan"}, "lon": -77.00789266666666, "type": "electric_scooter"}, {"bike_id": "168e6496bfc805aab559ef6fd57d24bc", "is_reserved": 0, "fusion_lon": 0.0, "lat": 38.90026983333333, "is_disabled": 0, "name": "168e6496bfc805aab559ef6fd57d24bc", "fusion_lat": 0.0, "rental_uris": {"ios": "https://dc.lft.to/lastmile_qr_scan", "android": "https://dc.lft.to/lastmile_qr_scan"}, "lon": -76.99789083333333, "type": "electric_scooter"}, {"bike_id": "f4d522d385ccae7769471c6ea8d14dce", "is_reserved": 0, "fusion_lon": 0.0, "lat": 38.9243115, "is_disabled": 0, "name": "f4d522d385ccae7769471c6ea8d14dce", "fusion_lat": 0.0, "rental_uris": {"ios": "https://dc.lft.to/lastmile_qr_scan", "android": "https://dc.lft.to/lastmile_qr_scan"}, "lon": -77.039993, "type": "electric_scooter"}, {"bike_id": "4e81b00aab487a0c345d9d366fed3b68", "is_reserved": 0, "fusion_lon": 0.0, "lat": 38.85325133333333, "is_disabled": 0, "name": "4e81b00aab487a0c345d9d366fed3b68", "fusion_lat": 0.0, "rental_uris": {"ios": "https://dc.lft.to/lastmile_qr_scan", "android": "https://dc.lft.to/lastmile_qr_scan"}, "lon": -76.98007183333333, "type": "electric_scooter"}, {"bike_id": "cc4f9afa90633be62dc1ec709db759d0", "is_reserved": 0, "fusion_lon": 0.0, "lat": 38.940455166666666, "is_disabled": 0, "name": "cc4f9afa90633be62dc1ec709db759d0", "fusion_lat": 0.0, "rental_uris": {"ios": "https://dc.lft.to/lastmile_qr_scan", "android": "https://dc.lft.to/lastmile_qr_scan"}, "lon": -77.02977383333334, "type": "electric_scooter"}, {"bike_id": "e402de34dc74a42093e1cea835095577", "is_reserved": 0, "fusion_lon": 0.0, "lat": 38.922711166666666, "is_disabled": 0, "name": "e402de34dc74a42093e1cea835095577", "fusion_lat": 0.0, "rental_uris": {"ios": "https://dc.lft.to/lastmile_qr_scan", "android": "https://dc.lft.to/lastmile_qr_scan"}, "lon": -77.04134166666667, "type": "electric_scooter"}, {"bike_id": "2dd2e7e84dcb3b19dbee37cf4c16aca1", "is_reserved": 0, "fusion_lon": 0.0, "lat": 38.920896166666665, "is_disabled": 0, "name": "2dd2e7e84dcb3b19dbee37cf4c16aca1", "fusion_lat": 0.0, "rental_uris": {"ios": "https://dc.lft.to/lastmile_qr_scan", "android": "https://dc.lft.to/lastmile_qr_scan"}, "lon": -76.99891983333333, "type": "electric_scooter"}, {"bike_id": "fdd657e6af7006074e939cda1bd681fc", "is_reserved": 0, "fusion_lon": 0.0, "lat": 38.9021655, "is_disabled": 0, "name": "fdd657e6af7006074e939cda1bd681fc", "fusion_lat": 0.0, "rental_uris": {"ios": "https://dc.lft.to/lastmile_qr_scan", "android": "https://dc.lft.to/lastmile_qr_scan"}, "lon": -76.94577966666667, "type": "electric_scooter"}, {"bike_id": "a9820b3d6c5e06cbd28d2023abde78bc", "is_reserved": 0, "fusion_lon": 0.0, "lat": 38.91554683333333, "is_disabled": 0, "name": "a9820b3d6c5e06cbd28d2023abde78bc", "fusion_lat": 0.0, "rental_uris": {"ios": "https://dc.lft.to/lastmile_qr_scan", "android": "https://dc.lft.to/lastmile_qr_scan"}, "lon": -77.04670666666667, "type": "electric_scooter"}, {"bike_id": "31bb31124cb4ad63010e5f59d3813d4b", "is_reserved": 0, "fusion_lon": 0.0, "lat": 38.86200316666667, "is_disabled": 0, "name": "31bb31124cb4ad63010e5f59d3813d4b", "fusion_lat": 0.0, "rental_uris": {"ios": "https://dc.lft.to/lastmile_qr_scan", "android": "https://dc.lft.to/lastmile_qr_scan"}, "lon": -76.99462933333334, "type": "electric_scooter"}, {"bike_id": "333e776da6a0e32c602d9dffdb884669", "is_reserved": 0, "fusion_lon": 0.0, "lat": 38.90589333333333, "is_disabled": 0, "name": "333e776da6a0e32c602d9dffdb884669", "fusion_lat": 0.0, "rental_uris": {"ios": "https://dc.lft.to/lastmile_qr_scan", "android": "https://dc.lft.to/lastmile_qr_scan"}, "lon": -77.0467545, "type": "electric_scooter"}, {"bike_id": "32721fff10ebdbb01d6ffb6b9a3391f8", "is_reserved": 0, "fusion_lon": 0.0, "lat": 38.935675, "is_disabled": 0, "name": "32721fff10ebdbb01d6ffb6b9a3391f8", "fusion_lat": 0.0, "rental_uris": {"ios": "https://dc.lft.to/lastmile_qr_scan", "android": "https://dc.lft.to/lastmile_qr_scan"}, "lon": -77.03694533333334, "type": "electric_bike"}, {"bike_id": "1834369da84fb696f8a9f1533e994861", "is_reserved": 0, "fusion_lon": 0.0, "lat": 38.928969333333335, "is_disabled": 0, "name": "1834369da84fb696f8a9f1533e994861", "fusion_lat": 0.0, "rental_uris": {"ios": "https://dc.lft.to/lastmile_qr_scan", "android": "https://dc.lft.to/lastmile_qr_scan"}, "lon": -77.03220366666666, "type": "electric_bike"}, {"bike_id": "683709a712c37850421dc168bab4796a", "is_reserved": 0, "fusion_lon": 0.0, "lat": 38.91965116666667, "is_disabled": 0, "name": "683709a712c37850421dc168bab4796a", "fusion_lat": 0.0, "rental_uris": {"ios": "https://dc.lft.to/lastmile_qr_scan", "android": "https://dc.lft.to/lastmile_qr_scan"}, "lon": -76.9726365, "type": "electric_bike"}, {"bike_id": "bae2550265e4d9690629d9c8005811f8", "is_reserved": 0, "fusion_lon": 0.0, "lat": 38.931636166666664, "is_disabled": 0, "name": "bae2550265e4d9690629d9c8005811f8", "fusion_lat": 0.0, "rental_uris": {"ios": "https://dc.lft.to/lastmile_qr_scan", "android": "https://dc.lft.to/lastmile_qr_scan"}, "lon": -77.036242, "type": "electric_scooter"}, {"bike_id": "ee348e517e328755d110d7e1b7266db8", "is_reserved": 0, "fusion_lon": 0.0, "lat": 38.90308983333333, "is_disabled": 0, "name": "ee348e517e328755d110d7e1b7266db8", "fusion_lat": 0.0, "rental_uris": {"ios": "https://dc.lft.to/lastmile_qr_scan", "android": "https://dc.lft.to/lastmile_qr_scan"}, "lon": -77.03811466666667, "type": "electric_scooter"}, {"bike_id": "60201713d2b9c7f6f41948e538a4c98a", "is_reserved": 0, "fusion_lon": 0.0, "lat": 38.90534783333333, "is_disabled": 0, "name": "60201713d2b9c7f6f41948e538a4c98a", "fusion_lat": 0.0, "rental_uris": {"ios": "https://dc.lft.to/lastmile_qr_scan", "android": "https://dc.lft.to/lastmile_qr_scan"}, "lon": -77.00567933333333, "type": "electric_scooter"}, {"bike_id": "22afcf750d6b244b6ff31b667e8a517f", "is_reserved": 0, "fusion_lon": 0.0, "lat": 38.92551566666667, "is_disabled": 0, "name": "22afcf750d6b244b6ff31b667e8a517f", "fusion_lat": 0.0, "rental_uris": {"ios": "https://dc.lft.to/lastmile_qr_scan", "android": "https://dc.lft.to/lastmile_qr_scan"}, "lon": -77.0013795, "type": "electric_bike"}, {"bike_id": "b04d6aec73bdd1072ff071affda41bca", "is_reserved": 0, "fusion_lon": 0.0, "lat": 38.9552975, "is_disabled": 0, "name": "b04d6aec73bdd1072ff071affda41bca", "fusion_lat": 0.0, "rental_uris": {"ios": "https://dc.lft.to/lastmile_qr_scan", "android": "https://dc.lft.to/lastmile_qr_scan"}, "lon": -77.0241405, "type": "electric_bike"}, {"bike_id": "b2c1285586fecfb7b482bd84b7345547", "is_reserved": 0, "fusion_lon": 0.0, "lat": 38.949498, "is_disabled": 0, "name": "b2c1285586fecfb7b482bd84b7345547", "fusion_lat": 0.0, "rental_uris": {"ios": "https://dc.lft.to/lastmile_qr_scan", "android": "https://dc.lft.to/lastmile_qr_scan"}, "lon": -77.01616483333333, "type": "electric_scooter"}, {"bike_id": "dc9a053e474a1ceca7cab10e90268afd", "is_reserved": 0, "fusion_lon": 0.0, "lat": 38.907776, "is_disabled": 0, "name": "dc9a053e474a1ceca7cab10e90268afd", "fusion_lat": 0.0, "rental_uris": {"ios": "https://dc.lft.to/lastmile_qr_scan", "android": "https://dc.lft.to/lastmile_qr_scan"}, "lon": -77.03826916666667, "type": "electric_scooter"}, {"bike_id": "05c3874b037a2db491de7d4d41f8bb02", "is_reserved": 0, "fusion_lon": 0.0, "lat": 38.8995465, "is_disabled": 0, "name": "05c3874b037a2db491de7d4d41f8bb02", "fusion_lat": 0.0, "rental_uris": {"ios": "https://dc.lft.to/lastmile_qr_scan", "android": "https://dc.lft.to/lastmile_qr_scan"}, "lon": -77.03331966666667, "type": "electric_scooter"}, {"bike_id": "a4813503e351893d48d746a1556e3df3", "is_reserved": 0, "fusion_lon": 0.0, "lat": 38.89875416666667, "is_disabled": 0, "name": "a4813503e351893d48d746a1556e3df3", "fusion_lat": 0.0, "rental_uris": {"ios": "https://dc.lft.to/lastmile_qr_scan", "android": "https://dc.lft.to/lastmile_qr_scan"}, "lon": -76.93159766666666, "type": "electric_scooter"}, {"bike_id": "9482a867cc3ae44554e4d589d5a640a2", "is_reserved": 0, "fusion_lon": 0.0, "lat": 38.93431116666667, "is_disabled": 0, "name": "9482a867cc3ae44554e4d589d5a640a2", "fusion_lat": 0.0, "rental_uris": {"ios": "https://dc.lft.to/lastmile_qr_scan", "android": "https://dc.lft.to/lastmile_qr_scan"}, "lon": -77.03436, "type": "electric_scooter"}, {"bike_id": "a25a20845853256d5a316ad1aa4172fc", "is_reserved": 0, "fusion_lon": 0.0, "lat": 38.8952865, "is_disabled": 0, "name": "a25a20845853256d5a316ad1aa4172fc", "fusion_lat": 0.0, "rental_uris": {"ios": "https://dc.lft.to/lastmile_qr_scan", "android": "https://dc.lft.to/lastmile_qr_scan"}, "lon": -76.94884083333334, "type": "electric_scooter"}, {"bike_id": "91d46942af21c8bfd403522134b9c345", "is_reserved": 0, "fusion_lon": 0.0, "lat": 38.9066685, "is_disabled": 0, "name": "91d46942af21c8bfd403522134b9c345", "fusion_lat": 0.0, "rental_uris": {"ios": "https://dc.lft.to/lastmile_qr_scan", "android": "https://dc.lft.to/lastmile_qr_scan"}, "lon": -77.0270895, "type": "electric_scooter"}, {"bike_id": "69013c86016e4502ba9c37dc185be452", "is_reserved": 0, "fusion_lon": 0.0, "lat": 38.925004333333334, "is_disabled": 0, "name": "69013c86016e4502ba9c37dc185be452", "fusion_lat": 0.0, "rental_uris": {"ios": "https://dc.lft.to/lastmile_qr_scan", "android": "https://dc.lft.to/lastmile_qr_scan"}, "lon": -77.00887633333333, "type": "electric_scooter"}, {"bike_id": "12d072f577ced74bd8a1bc90d05c16ab", "is_reserved": 0, "fusion_lon": 0.0, "lat": 38.89363766666666, "is_disabled": 0, "name": "12d072f577ced74bd8a1bc90d05c16ab", "fusion_lat": 0.0, "rental_uris": {"ios": "https://dc.lft.to/lastmile_qr_scan", "android": "https://dc.lft.to/lastmile_qr_scan"}, "lon": -76.985184, "type": "electric_bike"}, {"bike_id": "09bd296a71b46ab98b9e578f47f5e267", "is_reserved": 0, "fusion_lon": 0.0, "lat": 38.95075083333333, "is_disabled": 0, "name": "09bd296a71b46ab98b9e578f47f5e267", "fusion_lat": 0.0, "rental_uris": {"ios": "https://dc.lft.to/lastmile_qr_scan", "android": "https://dc.lft.to/lastmile_qr_scan"}, "lon": -77.01198133333334, "type": "electric_bike"}, {"bike_id": "8fb2e25c750931235b89112759ec58fe", "is_reserved": 0, "fusion_lon": 0.0, "lat": 38.919143166666665, "is_disabled": 0, "name": "8fb2e25c750931235b89112759ec58fe", "fusion_lat": 0.0, "rental_uris": {"ios": "https://dc.lft.to/lastmile_qr_scan", "android": "https://dc.lft.to/lastmile_qr_scan"}, "lon": -77.03425733333333, "type": "electric_scooter"}, {"bike_id": "9f53671b20bd12d7f70b76da7d0d45e0", "is_reserved": 0, "fusion_lon": 0.0, "lat": 38.95810483333333, "is_disabled": 0, "name": "9f53671b20bd12d7f70b76da7d0d45e0", "fusion_lat": 0.0, "rental_uris": {"ios": "https://dc.lft.to/lastmile_qr_scan", "android": "https://dc.lft.to/lastmile_qr_scan"}, "lon": -77.013808, "type": "electric_bike"}, {"bike_id": "06509d8b64269d521464a92242ae6f6f", "is_reserved": 0, "fusion_lon": 0.0, "lat": 38.90448833333333, "is_disabled": 0, "name": "06509d8b64269d521464a92242ae6f6f", "fusion_lat": 0.0, "rental_uris": {"ios": "https://dc.lft.to/lastmile_qr_scan", "android": "https://dc.lft.to/lastmile_qr_scan"}, "lon": -77.05922783333334, "type": "electric_scooter"}, {"bike_id": "753d2afbd539bd4797622a9d6491259c", "is_reserved": 0, "fusion_lon": 0.0, "lat": 38.864192, "is_disabled": 0, "name": "753d2afbd539bd4797622a9d6491259c", "fusion_lat": 0.0, "rental_uris": {"ios": "https://dc.lft.to/lastmile_qr_scan", "android": "https://dc.lft.to/lastmile_qr_scan"}, "lon": -77.0134705, "type": "electric_scooter"}, {"bike_id": "04758f0e238d374490e9dd397c0d22c5", "is_reserved": 0, "fusion_lon": 0.0, "lat": 38.95731633333333, "is_disabled": 0, "name": "04758f0e238d374490e9dd397c0d22c5", "fusion_lat": 0.0, "rental_uris": {"ios": "https://dc.lft.to/lastmile_qr_scan", "android": "https://dc.lft.to/lastmile_qr_scan"}, "lon": -77.02419033333334, "type": "electric_scooter"}, {"bike_id": "aa996373d6da9daa6f14ee196261fd0a", "is_reserved": 0, "fusion_lon": 0.0, "lat": 38.8843265, "is_disabled": 0, "name": "aa996373d6da9daa6f14ee196261fd0a", "fusion_lat": 0.0, "rental_uris": {"ios": "https://dc.lft.to/lastmile_qr_scan", "android": "https://dc.lft.to/lastmile_qr_scan"}, "lon": -77.03031816666666, "type": "electric_scooter"}, {"bike_id": "e9f1f55881616d2905daa51cc5d4d711", "is_reserved": 0, "fusion_lon": 0.0, "lat": 38.9017215, "is_disabled": 0, "name": "e9f1f55881616d2905daa51cc5d4d711", "fusion_lat": 0.0, "rental_uris": {"ios": "https://dc.lft.to/lastmile_qr_scan", "android": "https://dc.lft.to/lastmile_qr_scan"}, "lon": -77.00011083333334, "type": "electric_scooter"}, {"bike_id": "620d5f2a6c107e8e1db641366fa31f4c", "is_reserved": 0, "fusion_lon": 0.0, "lat": 38.91411516666667, "is_disabled": 0, "name": "620d5f2a6c107e8e1db641366fa31f4c", "fusion_lat": 0.0, "rental_uris": {"ios": "https://dc.lft.to/lastmile_qr_scan", "android": "https://dc.lft.to/lastmile_qr_scan"}, "lon": -77.03812683333334, "type": "electric_scooter"}, {"bike_id": "fd665ea2489c133f6406012dcfcb44ba", "is_reserved": 0, "fusion_lon": 0.0, "lat": 38.86354333333333, "is_disabled": 0, "name": "fd665ea2489c133f6406012dcfcb44ba", "fusion_lat": 0.0, "rental_uris": {"ios": "https://dc.lft.to/lastmile_qr_scan", "android": "https://dc.lft.to/lastmile_qr_scan"}, "lon": -76.9906375, "type": "electric_scooter"}, {"bike_id": "834a0def98acb636c4ec29eea57e8578", "is_reserved": 0, "fusion_lon": 0.0, "lat": 38.88491, "is_disabled": 0, "name": "834a0def98acb636c4ec29eea57e8578", "fusion_lat": 0.0, "rental_uris": {"ios": "https://dc.lft.to/lastmile_qr_scan", "android": "https://dc.lft.to/lastmile_qr_scan"}, "lon": -77.007231, "type": "electric_scooter"}, {"bike_id": "82ba0baded242c268e73d83e0cd2cbcf", "is_reserved": 0, "fusion_lon": 0.0, "lat": 38.88042083333333, "is_disabled": 0, "name": "82ba0baded242c268e73d83e0cd2cbcf", "fusion_lat": 0.0, "rental_uris": {"ios": "https://dc.lft.to/lastmile_qr_scan", "android": "https://dc.lft.to/lastmile_qr_scan"}, "lon": -77.013244, "type": "electric_bike"}, {"bike_id": "ce1099ea921d8dfc7eab0e832548d1d6", "is_reserved": 0, "fusion_lon": 0.0, "lat": 38.839273, "is_disabled": 0, "name": "ce1099ea921d8dfc7eab0e832548d1d6", "fusion_lat": 0.0, "rental_uris": {"ios": "https://dc.lft.to/lastmile_qr_scan", "android": "https://dc.lft.to/lastmile_qr_scan"}, "lon": -77.07900633333334, "type": "electric_bike"}, {"bike_id": "5b0723ad7d66bdc8b0bda9a60324a509", "is_reserved": 0, "fusion_lon": 0.0, "lat": 38.90310916666667, "is_disabled": 0, "name": "5b0723ad7d66bdc8b0bda9a60324a509", "fusion_lat": 0.0, "rental_uris": {"ios": "https://dc.lft.to/lastmile_qr_scan", "android": "https://dc.lft.to/lastmile_qr_scan"}, "lon": -77.0332255, "type": "electric_scooter"}, {"bike_id": "1fa1755e096fab4e7a2c5123e4af6301", "is_reserved": 0, "fusion_lon": 0.0, "lat": 38.915941333333336, "is_disabled": 0, "name": "1fa1755e096fab4e7a2c5123e4af6301", "fusion_lat": 0.0, "rental_uris": {"ios": "https://dc.lft.to/lastmile_qr_scan", "android": "https://dc.lft.to/lastmile_qr_scan"}, "lon": -77.03190316666667, "type": "electric_scooter"}, {"bike_id": "944bfa6385cc286d5375379d0cee5db2", "is_reserved": 0, "fusion_lon": 0.0, "lat": 38.842697333333334, "is_disabled": 0, "name": "944bfa6385cc286d5375379d0cee5db2", "fusion_lat": 0.0, "rental_uris": {"ios": "https://dc.lft.to/lastmile_qr_scan", "android": "https://dc.lft.to/lastmile_qr_scan"}, "lon": -76.988408, "type": "electric_bike"}, {"bike_id": "bc66af033aff5ed590a187cedc2b5f96", "is_reserved": 0, "fusion_lon": 0.0, "lat": 38.9142635, "is_disabled": 0, "name": "bc66af033aff5ed590a187cedc2b5f96", "fusion_lat": 0.0, "rental_uris": {"ios": "https://dc.lft.to/lastmile_qr_scan", "android": "https://dc.lft.to/lastmile_qr_scan"}, "lon": -77.04158633333333, "type": "electric_scooter"}, {"bike_id": "9293e4d60fe722bf982a39f011275c62", "is_reserved": 0, "fusion_lon": 0.0, "lat": 38.898259833333334, "is_disabled": 0, "name": "9293e4d60fe722bf982a39f011275c62", "fusion_lat": 0.0, "rental_uris": {"ios": "https://dc.lft.to/lastmile_qr_scan", "android": "https://dc.lft.to/lastmile_qr_scan"}, "lon": -77.03347183333334, "type": "electric_scooter"}, {"bike_id": "1e00139c80026528f661e3903e918ca4", "is_reserved": 0, "fusion_lon": 0.0, "lat": 38.8922675, "is_disabled": 0, "name": "1e00139c80026528f661e3903e918ca4", "fusion_lat": 0.0, "rental_uris": {"ios": "https://dc.lft.to/lastmile_qr_scan", "android": "https://dc.lft.to/lastmile_qr_scan"}, "lon": -77.022011, "type": "electric_scooter"}, {"bike_id": "5737220f53663c3dc526dfe6d88e3d79", "is_reserved": 0, "fusion_lon": 0.0, "lat": 38.900278666666665, "is_disabled": 0, "name": "5737220f53663c3dc526dfe6d88e3d79", "fusion_lat": 0.0, "rental_uris": {"ios": "https://dc.lft.to/lastmile_qr_scan", "android": "https://dc.lft.to/lastmile_qr_scan"}, "lon": -77.01163233333334, "type": "electric_scooter"}, {"bike_id": "5fef0aeefa903cea52505380026dc2e3", "is_reserved": 0, "fusion_lon": 0.0, "lat": 38.8981365, "is_disabled": 0, "name": "5fef0aeefa903cea52505380026dc2e3", "fusion_lat": 0.0, "rental_uris": {"ios": "https://dc.lft.to/lastmile_qr_scan", "android": "https://dc.lft.to/lastmile_qr_scan"}, "lon": -77.0330765, "type": "electric_scooter"}, {"bike_id": "31ca02f8e1a8eb9b70b3beddfe4e18c3", "is_reserved": 0, "fusion_lon": 0.0, "lat": 38.934257, "is_disabled": 0, "name": "31ca02f8e1a8eb9b70b3beddfe4e18c3", "fusion_lat": 0.0, "rental_uris": {"ios": "https://dc.lft.to/lastmile_qr_scan", "android": "https://dc.lft.to/lastmile_qr_scan"}, "lon": -77.0431505, "type": "electric_scooter"}, {"bike_id": "7595e39e05e88444ed5862444eec7e7c", "is_reserved": 0, "fusion_lon": 0.0, "lat": 38.89194, "is_disabled": 0, "name": "7595e39e05e88444ed5862444eec7e7c", "fusion_lat": 0.0, "rental_uris": {"ios": "https://dc.lft.to/lastmile_qr_scan", "android": "https://dc.lft.to/lastmile_qr_scan"}, "lon": -77.02979633333334, "type": "electric_scooter"}, {"bike_id": "91add34a2ba91b48014d0d5af0a613d4", "is_reserved": 0, "fusion_lon": 0.0, "lat": 38.9119265, "is_disabled": 0, "name": "91add34a2ba91b48014d0d5af0a613d4", "fusion_lat": 0.0, "rental_uris": {"ios": "https://dc.lft.to/lastmile_qr_scan", "android": "https://dc.lft.to/lastmile_qr_scan"}, "lon": -77.00185966666666, "type": "electric_scooter"}, {"bike_id": "e4274429ecfb24e7fa067f5ebba11f5b", "is_reserved": 0, "fusion_lon": 0.0, "lat": 38.898100166666666, "is_disabled": 0, "name": "e4274429ecfb24e7fa067f5ebba11f5b", "fusion_lat": 0.0, "rental_uris": {"ios": "https://dc.lft.to/lastmile_qr_scan", "android": "https://dc.lft.to/lastmile_qr_scan"}, "lon": -77.03288416666666, "type": "electric_scooter"}, {"bike_id": "51bf205bc525fdd059414612355994ce", "is_reserved": 0, "fusion_lon": 0.0, "lat": 38.92247, "is_disabled": 0, "name": "51bf205bc525fdd059414612355994ce", "fusion_lat": 0.0, "rental_uris": {"ios": "https://dc.lft.to/lastmile_qr_scan", "android": "https://dc.lft.to/lastmile_qr_scan"}, "lon": -77.01009833333333, "type": "electric_scooter"}, {"bike_id": "7186d2769036cf7a5b501a6bd4a657bc", "is_reserved": 0, "fusion_lon": 0.0, "lat": 38.891987666666665, "is_disabled": 0, "name": "7186d2769036cf7a5b501a6bd4a657bc", "fusion_lat": 0.0, "rental_uris": {"ios": "https://dc.lft.to/lastmile_qr_scan", "android": "https://dc.lft.to/lastmile_qr_scan"}, "lon": -77.00240616666666, "type": "electric_bike"}, {"bike_id": "ef3c31d8e149cd7cdb0301df47e00cfb", "is_reserved": 0, "fusion_lon": 0.0, "lat": 38.90728716666667, "is_disabled": 0, "name": "ef3c31d8e149cd7cdb0301df47e00cfb", "fusion_lat": 0.0, "rental_uris": {"ios": "https://dc.lft.to/lastmile_qr_scan", "android": "https://dc.lft.to/lastmile_qr_scan"}, "lon": -77.046438, "type": "electric_scooter"}, {"bike_id": "7918c42ecb8889dd11e80cc106de987d", "is_reserved": 0, "fusion_lon": 0.0, "lat": 38.92855616666667, "is_disabled": 0, "name": "7918c42ecb8889dd11e80cc106de987d", "fusion_lat": 0.0, "rental_uris": {"ios": "https://dc.lft.to/lastmile_qr_scan", "android": "https://dc.lft.to/lastmile_qr_scan"}, "lon": -77.05434416666667, "type": "electric_scooter"}, {"bike_id": "33feeb011d4d4620e54eab107597be37", "is_reserved": 0, "fusion_lon": 0.0, "lat": 38.89492583333333, "is_disabled": 0, "name": "33feeb011d4d4620e54eab107597be37", "fusion_lat": 0.0, "rental_uris": {"ios": "https://dc.lft.to/lastmile_qr_scan", "android": "https://dc.lft.to/lastmile_qr_scan"}, "lon": -77.02305933333334, "type": "electric_scooter"}, {"bike_id": "89226ddcc8819475fe5d7ab37e5a1c2d", "is_reserved": 0, "fusion_lon": 0.0, "lat": 38.89620166666667, "is_disabled": 0, "name": "89226ddcc8819475fe5d7ab37e5a1c2d", "fusion_lat": 0.0, "rental_uris": {"ios": "https://dc.lft.to/lastmile_qr_scan", "android": "https://dc.lft.to/lastmile_qr_scan"}, "lon": -76.9984765, "type": "electric_scooter"}, {"bike_id": "c532348c37e56b210a2761d40256c4a9", "is_reserved": 0, "fusion_lon": 0.0, "lat": 38.902770333333336, "is_disabled": 0, "name": "c532348c37e56b210a2761d40256c4a9", "fusion_lat": 0.0, "rental_uris": {"ios": "https://dc.lft.to/lastmile_qr_scan", "android": "https://dc.lft.to/lastmile_qr_scan"}, "lon": -77.059211, "type": "electric_scooter"}, {"bike_id": "7fe00977574cb9afbf9dbe6706a91248", "is_reserved": 0, "fusion_lon": 0.0, "lat": 38.90729116666667, "is_disabled": 0, "name": "7fe00977574cb9afbf9dbe6706a91248", "fusion_lat": 0.0, "rental_uris": {"ios": "https://dc.lft.to/lastmile_qr_scan", "android": "https://dc.lft.to/lastmile_qr_scan"}, "lon": -77.04356233333333, "type": "electric_scooter"}, {"bike_id": "9cdcc3eac366df38f7e979b385f48b79", "is_reserved": 0, "fusion_lon": 0.0, "lat": 38.89610966666667, "is_disabled": 0, "name": "9cdcc3eac366df38f7e979b385f48b79", "fusion_lat": 0.0, "rental_uris": {"ios": "https://dc.lft.to/lastmile_qr_scan", "android": "https://dc.lft.to/lastmile_qr_scan"}, "lon": -77.02848516666667, "type": "electric_scooter"}, {"bike_id": "1eae9e68c1292f4176d8a92d09de4e79", "is_reserved": 0, "fusion_lon": 0.0, "lat": 38.90784, "is_disabled": 0, "name": "1eae9e68c1292f4176d8a92d09de4e79", "fusion_lat": 0.0, "rental_uris": {"ios": "https://dc.lft.to/lastmile_qr_scan", "android": "https://dc.lft.to/lastmile_qr_scan"}, "lon": -77.00967383333334, "type": "electric_scooter"}, {"bike_id": "1093fee7e808b6f28e3699eb2a8bbda6", "is_reserved": 0, "fusion_lon": 0.0, "lat": 38.928873833333334, "is_disabled": 0, "name": "1093fee7e808b6f28e3699eb2a8bbda6", "fusion_lat": 0.0, "rental_uris": {"ios": "https://dc.lft.to/lastmile_qr_scan", "android": "https://dc.lft.to/lastmile_qr_scan"}, "lon": -77.03161, "type": "electric_scooter"}, {"bike_id": "1795888f0a8f9fdfe6d90e26d7066c27", "is_reserved": 0, "fusion_lon": 0.0, "lat": 38.893874333333336, "is_disabled": 0, "name": "1795888f0a8f9fdfe6d90e26d7066c27", "fusion_lat": 0.0, "rental_uris": {"ios": "https://dc.lft.to/lastmile_qr_scan", "android": "https://dc.lft.to/lastmile_qr_scan"}, "lon": -77.022536, "type": "electric_bike"}, {"bike_id": "7ebc3da492b13af25e129f991d6d0a49", "is_reserved": 0, "fusion_lon": 0.0, "lat": 38.92781733333333, "is_disabled": 0, "name": "7ebc3da492b13af25e129f991d6d0a49", "fusion_lat": 0.0, "rental_uris": {"ios": "https://dc.lft.to/lastmile_qr_scan", "android": "https://dc.lft.to/lastmile_qr_scan"}, "lon": -77.0319735, "type": "electric_scooter"}, {"bike_id": "a6efe3dc8d5eb57bbd2eb2222d3ab246", "is_reserved": 0, "fusion_lon": 0.0, "lat": 38.889982833333335, "is_disabled": 0, "name": "a6efe3dc8d5eb57bbd2eb2222d3ab246", "fusion_lat": 0.0, "rental_uris": {"ios": "https://dc.lft.to/lastmile_qr_scan", "android": "https://dc.lft.to/lastmile_qr_scan"}, "lon": -77.04892616666666, "type": "electric_scooter"}, {"bike_id": "48083b10db80be829d031c2d0bef0334", "is_reserved": 0, "fusion_lon": 0.0, "lat": 38.9068755, "is_disabled": 0, "name": "48083b10db80be829d031c2d0bef0334", "fusion_lat": 0.0, "rental_uris": {"ios": "https://dc.lft.to/lastmile_qr_scan", "android": "https://dc.lft.to/lastmile_qr_scan"}, "lon": -77.01339183333333, "type": "electric_scooter"}, {"bike_id": "eeb062b4abb08ae5cdcf02b2955dd4f5", "is_reserved": 0, "fusion_lon": 0.0, "lat": 38.91542666666667, "is_disabled": 0, "name": "eeb062b4abb08ae5cdcf02b2955dd4f5", "fusion_lat": 0.0, "rental_uris": {"ios": "https://dc.lft.to/lastmile_qr_scan", "android": "https://dc.lft.to/lastmile_qr_scan"}, "lon": -77.038495, "type": "electric_scooter"}, {"bike_id": "9f34ecb77b55cf0ca9ebee94ad9f8604", "is_reserved": 0, "fusion_lon": 0.0, "lat": 38.86908283333333, "is_disabled": 0, "name": "9f34ecb77b55cf0ca9ebee94ad9f8604", "fusion_lat": 0.0, "rental_uris": {"ios": "https://dc.lft.to/lastmile_qr_scan", "android": "https://dc.lft.to/lastmile_qr_scan"}, "lon": -77.13176716666666, "type": "electric_bike"}, {"bike_id": "55ed3e9fe509d864c78a9c0aa3d1f608", "is_reserved": 0, "fusion_lon": 0.0, "lat": 38.999405333333335, "is_disabled": 0, "name": "55ed3e9fe509d864c78a9c0aa3d1f608", "fusion_lat": 0.0, "rental_uris": {"ios": "https://dc.lft.to/lastmile_qr_scan", "android": "https://dc.lft.to/lastmile_qr_scan"}, "lon": -77.01766866666667, "type": "electric_bike"}, {"bike_id": "0e5bac7a7958a2d192856381ff5b7952", "is_reserved": 0, "fusion_lon": 0.0, "lat": 38.86697366666667, "is_disabled": 0, "name": "0e5bac7a7958a2d192856381ff5b7952", "fusion_lat": 0.0, "rental_uris": {"ios": "https://dc.lft.to/lastmile_qr_scan", "android": "https://dc.lft.to/lastmile_qr_scan"}, "lon": -76.98713033333334, "type": "electric_scooter"}, {"bike_id": "5ca443a6f126108945218ee4880066d7", "is_reserved": 0, "fusion_lon": 0.0, "lat": 38.95265633333333, "is_disabled": 0, "name": "5ca443a6f126108945218ee4880066d7", "fusion_lat": 0.0, "rental_uris": {"ios": "https://dc.lft.to/lastmile_qr_scan", "android": "https://dc.lft.to/lastmile_qr_scan"}, "lon": -77.02565516666667, "type": "electric_scooter"}, {"bike_id": "3c936146963b6f98e976ef2ca8aede1c", "is_reserved": 0, "fusion_lon": 0.0, "lat": 38.89937283333333, "is_disabled": 0, "name": "3c936146963b6f98e976ef2ca8aede1c", "fusion_lat": 0.0, "rental_uris": {"ios": "https://dc.lft.to/lastmile_qr_scan", "android": "https://dc.lft.to/lastmile_qr_scan"}, "lon": -77.03180383333333, "type": "electric_scooter"}, {"bike_id": "e40f7994ebaa07935bd0fa3ee60a70d6", "is_reserved": 0, "fusion_lon": 0.0, "lat": 38.89223466666667, "is_disabled": 0, "name": "e40f7994ebaa07935bd0fa3ee60a70d6", "fusion_lat": 0.0, "rental_uris": {"ios": "https://dc.lft.to/lastmile_qr_scan", "android": "https://dc.lft.to/lastmile_qr_scan"}, "lon": -77.03216616666667, "type": "electric_scooter"}, {"bike_id": "82c8acabbb26cc304c90669cc9de7365", "is_reserved": 0, "fusion_lon": 0.0, "lat": 38.909719333333335, "is_disabled": 0, "name": "82c8acabbb26cc304c90669cc9de7365", "fusion_lat": 0.0, "rental_uris": {"ios": "https://dc.lft.to/lastmile_qr_scan", "android": "https://dc.lft.to/lastmile_qr_scan"}, "lon": -77.03867133333334, "type": "electric_scooter"}, {"bike_id": "9c2a71e545158fe736c3b2d8aa19ab99", "is_reserved": 0, "fusion_lon": 0.0, "lat": 38.907645333333335, "is_disabled": 0, "name": "9c2a71e545158fe736c3b2d8aa19ab99", "fusion_lat": 0.0, "rental_uris": {"ios": "https://dc.lft.to/lastmile_qr_scan", "android": "https://dc.lft.to/lastmile_qr_scan"}, "lon": -77.0691345, "type": "electric_scooter"}, {"bike_id": "f75e88004153aad3c22f5d8c4b645e2c", "is_reserved": 0, "fusion_lon": 0.0, "lat": 38.96618816666667, "is_disabled": 0, "name": "f75e88004153aad3c22f5d8c4b645e2c", "fusion_lat": 0.0, "rental_uris": {"ios": "https://dc.lft.to/lastmile_qr_scan", "android": "https://dc.lft.to/lastmile_qr_scan"}, "lon": -76.97662466666667, "type": "electric_bike"}, {"bike_id": "de7d99b891d5a0436071781975f065d6", "is_reserved": 0, "fusion_lon": 0.0, "lat": 38.9336375, "is_disabled": 0, "name": "de7d99b891d5a0436071781975f065d6", "fusion_lat": 0.0, "rental_uris": {"ios": "https://dc.lft.to/lastmile_qr_scan", "android": "https://dc.lft.to/lastmile_qr_scan"}, "lon": -77.02643616666667, "type": "electric_scooter"}, {"bike_id": "5a194dbd23b250e775df373e300e6156", "is_reserved": 0, "fusion_lon": 0.0, "lat": 38.91662, "is_disabled": 0, "name": "5a194dbd23b250e775df373e300e6156", "fusion_lat": 0.0, "rental_uris": {"ios": "https://dc.lft.to/lastmile_qr_scan", "android": "https://dc.lft.to/lastmile_qr_scan"}, "lon": -77.02308416666666, "type": "electric_scooter"}, {"bike_id": "4df9a6cd6a8d4237fdb7e8c9304b17dd", "is_reserved": 0, "fusion_lon": 0.0, "lat": 38.939825666666664, "is_disabled": 0, "name": "4df9a6cd6a8d4237fdb7e8c9304b17dd", "fusion_lat": 0.0, "rental_uris": {"ios": "https://dc.lft.to/lastmile_qr_scan", "android": "https://dc.lft.to/lastmile_qr_scan"}, "lon": -77.02891683333333, "type": "electric_scooter"}, {"bike_id": "515cd39fd3d2f3de472867e72bf7dc66", "is_reserved": 0, "fusion_lon": 0.0, "lat": 38.92057416666667, "is_disabled": 0, "name": "515cd39fd3d2f3de472867e72bf7dc66", "fusion_lat": 0.0, "rental_uris": {"ios": "https://dc.lft.to/lastmile_qr_scan", "android": "https://dc.lft.to/lastmile_qr_scan"}, "lon": -77.03399383333333, "type": "electric_scooter"}, {"bike_id": "958e339b2226aa155236541a10a8d521", "is_reserved": 0, "fusion_lon": 0.0, "lat": 38.91874333333333, "is_disabled": 0, "name": "958e339b2226aa155236541a10a8d521", "fusion_lat": 0.0, "rental_uris": {"ios": "https://dc.lft.to/lastmile_qr_scan", "android": "https://dc.lft.to/lastmile_qr_scan"}, "lon": -77.04469616666667, "type": "electric_scooter"}, {"bike_id": "c06af402ebc55cfb763180938e352d3e", "is_reserved": 0, "fusion_lon": 0.0, "lat": 38.8947545, "is_disabled": 0, "name": "c06af402ebc55cfb763180938e352d3e", "fusion_lat": 0.0, "rental_uris": {"ios": "https://dc.lft.to/lastmile_qr_scan", "android": "https://dc.lft.to/lastmile_qr_scan"}, "lon": -76.9953755, "type": "electric_scooter"}, {"bike_id": "80e2ba4aa89f10dd80e0b394d211ba71", "is_reserved": 0, "fusion_lon": 0.0, "lat": 38.884094, "is_disabled": 0, "name": "80e2ba4aa89f10dd80e0b394d211ba71", "fusion_lat": 0.0, "rental_uris": {"ios": "https://dc.lft.to/lastmile_qr_scan", "android": "https://dc.lft.to/lastmile_qr_scan"}, "lon": -77.017328, "type": "electric_scooter"}, {"bike_id": "8f0d1c22affebc2272f79d73b699772c", "is_reserved": 0, "fusion_lon": 0.0, "lat": 38.92472633333333, "is_disabled": 0, "name": "8f0d1c22affebc2272f79d73b699772c", "fusion_lat": 0.0, "rental_uris": {"ios": "https://dc.lft.to/lastmile_qr_scan", "android": "https://dc.lft.to/lastmile_qr_scan"}, "lon": -77.02834766666666, "type": "electric_scooter"}, {"bike_id": "57f7d5884e9292b6b2f3ab9a0c6ff762", "is_reserved": 0, "fusion_lon": 0.0, "lat": 38.90523266666667, "is_disabled": 0, "name": "57f7d5884e9292b6b2f3ab9a0c6ff762", "fusion_lat": 0.0, "rental_uris": {"ios": "https://dc.lft.to/lastmile_qr_scan", "android": "https://dc.lft.to/lastmile_qr_scan"}, "lon": -77.0653175, "type": "electric_scooter"}, {"bike_id": "d6cefc97b9c9928b26d7c973a48bdd57", "is_reserved": 0, "fusion_lon": 0.0, "lat": 38.904712833333335, "is_disabled": 0, "name": "d6cefc97b9c9928b26d7c973a48bdd57", "fusion_lat": 0.0, "rental_uris": {"ios": "https://dc.lft.to/lastmile_qr_scan", "android": "https://dc.lft.to/lastmile_qr_scan"}, "lon": -77.04668, "type": "electric_scooter"}, {"bike_id": "b1d3bdb723520de0e1ac13b5adba0e9a", "is_reserved": 0, "fusion_lon": 0.0, "lat": 38.897611166666664, "is_disabled": 0, "name": "b1d3bdb723520de0e1ac13b5adba0e9a", "fusion_lat": 0.0, "rental_uris": {"ios": "https://dc.lft.to/lastmile_qr_scan", "android": "https://dc.lft.to/lastmile_qr_scan"}, "lon": -77.03174766666666, "type": "electric_scooter"}, {"bike_id": "0485e1092946640c08e1caf6d1ff0009", "is_reserved": 0, "fusion_lon": 0.0, "lat": 38.93099633333333, "is_disabled": 0, "name": "0485e1092946640c08e1caf6d1ff0009", "fusion_lat": 0.0, "rental_uris": {"ios": "https://dc.lft.to/lastmile_qr_scan", "android": "https://dc.lft.to/lastmile_qr_scan"}, "lon": -77.02473816666667, "type": "electric_scooter"}, {"bike_id": "e1f8272012451b9a39592ddd0f153f7b", "is_reserved": 0, "fusion_lon": 0.0, "lat": 38.900187, "is_disabled": 0, "name": "e1f8272012451b9a39592ddd0f153f7b", "fusion_lat": 0.0, "rental_uris": {"ios": "https://dc.lft.to/lastmile_qr_scan", "android": "https://dc.lft.to/lastmile_qr_scan"}, "lon": -77.03020083333334, "type": "electric_scooter"}, {"bike_id": "6b416f1061ecda41b67bc6d255753d2a", "is_reserved": 0, "fusion_lon": 0.0, "lat": 38.86289716666667, "is_disabled": 0, "name": "6b416f1061ecda41b67bc6d255753d2a", "fusion_lat": 0.0, "rental_uris": {"ios": "https://dc.lft.to/lastmile_qr_scan", "android": "https://dc.lft.to/lastmile_qr_scan"}, "lon": -76.9923515, "type": "electric_scooter"}, {"bike_id": "6f5d1610275fc761b8670ee821b7a6c2", "is_reserved": 0, "fusion_lon": 0.0, "lat": 38.941795, "is_disabled": 0, "name": "6f5d1610275fc761b8670ee821b7a6c2", "fusion_lat": 0.0, "rental_uris": {"ios": "https://dc.lft.to/lastmile_qr_scan", "android": "https://dc.lft.to/lastmile_qr_scan"}, "lon": -77.02529566666666, "type": "electric_scooter"}, {"bike_id": "6c9ee3902da6d712dd01410b57cad460", "is_reserved": 0, "fusion_lon": 0.0, "lat": 38.930825166666665, "is_disabled": 0, "name": "6c9ee3902da6d712dd01410b57cad460", "fusion_lat": 0.0, "rental_uris": {"ios": "https://dc.lft.to/lastmile_qr_scan", "android": "https://dc.lft.to/lastmile_qr_scan"}, "lon": -77.02792216666667, "type": "electric_scooter"}, {"bike_id": "58412f51b42aa856670a5cf5c31224d4", "is_reserved": 0, "fusion_lon": 0.0, "lat": 38.92359966666667, "is_disabled": 0, "name": "58412f51b42aa856670a5cf5c31224d4", "fusion_lat": 0.0, "rental_uris": {"ios": "https://dc.lft.to/lastmile_qr_scan", "android": "https://dc.lft.to/lastmile_qr_scan"}, "lon": -77.05239966666667, "type": "electric_scooter"}, {"bike_id": "424477219029ded22a09707f397dbfd5", "is_reserved": 0, "fusion_lon": 0.0, "lat": 38.902382333333335, "is_disabled": 0, "name": "424477219029ded22a09707f397dbfd5", "fusion_lat": 0.0, "rental_uris": {"ios": "https://dc.lft.to/lastmile_qr_scan", "android": "https://dc.lft.to/lastmile_qr_scan"}, "lon": -77.012114, "type": "electric_scooter"}, {"bike_id": "f48ee458fd0884971274ae749fd91dbb", "is_reserved": 0, "fusion_lon": 0.0, "lat": 38.9345905, "is_disabled": 0, "name": "f48ee458fd0884971274ae749fd91dbb", "fusion_lat": 0.0, "rental_uris": {"ios": "https://dc.lft.to/lastmile_qr_scan", "android": "https://dc.lft.to/lastmile_qr_scan"}, "lon": -77.02337566666667, "type": "electric_scooter"}, {"bike_id": "ba1273078f025a2f70b48864c65bcd7f", "is_reserved": 0, "fusion_lon": 0.0, "lat": 38.9156635, "is_disabled": 0, "name": "ba1273078f025a2f70b48864c65bcd7f", "fusion_lat": 0.0, "rental_uris": {"ios": "https://dc.lft.to/lastmile_qr_scan", "android": "https://dc.lft.to/lastmile_qr_scan"}, "lon": -77.03951816666667, "type": "electric_scooter"}, {"bike_id": "b871622dd93b043dd0c7fa54c9b375d6", "is_reserved": 0, "fusion_lon": 0.0, "lat": 38.90394166666667, "is_disabled": 0, "name": "b871622dd93b043dd0c7fa54c9b375d6", "fusion_lat": 0.0, "rental_uris": {"ios": "https://dc.lft.to/lastmile_qr_scan", "android": "https://dc.lft.to/lastmile_qr_scan"}, "lon": -77.030173, "type": "electric_scooter"}, {"bike_id": "9935d0b9076aa7f5287fc574f6279098", "is_reserved": 0, "fusion_lon": 0.0, "lat": 38.92656483333333, "is_disabled": 0, "name": "9935d0b9076aa7f5287fc574f6279098", "fusion_lat": 0.0, "rental_uris": {"ios": "https://dc.lft.to/lastmile_qr_scan", "android": "https://dc.lft.to/lastmile_qr_scan"}, "lon": -77.03709516666666, "type": "electric_scooter"}, {"bike_id": "3e89a6b6c46ae04c9c025e81fc09009a", "is_reserved": 0, "fusion_lon": 0.0, "lat": 38.90801283333333, "is_disabled": 0, "name": "3e89a6b6c46ae04c9c025e81fc09009a", "fusion_lat": 0.0, "rental_uris": {"ios": "https://dc.lft.to/lastmile_qr_scan", "android": "https://dc.lft.to/lastmile_qr_scan"}, "lon": -77.00019266666666, "type": "electric_scooter"}, {"bike_id": "10e828c03e8e32d2ed5d958b05519698", "is_reserved": 0, "fusion_lon": 0.0, "lat": 38.914150666666664, "is_disabled": 0, "name": "10e828c03e8e32d2ed5d958b05519698", "fusion_lat": 0.0, "rental_uris": {"ios": "https://dc.lft.to/lastmile_qr_scan", "android": "https://dc.lft.to/lastmile_qr_scan"}, "lon": -77.026778, "type": "electric_scooter"}, {"bike_id": "8eca960b4108aa99a27ec376b8c74e95", "is_reserved": 0, "fusion_lon": 0.0, "lat": 38.909738, "is_disabled": 0, "name": "8eca960b4108aa99a27ec376b8c74e95", "fusion_lat": 0.0, "rental_uris": {"ios": "https://dc.lft.to/lastmile_qr_scan", "android": "https://dc.lft.to/lastmile_qr_scan"}, "lon": -77.03463716666667, "type": "electric_scooter"}, {"bike_id": "c07ba4eb722a1dafdb8c6ff9d9461a09", "is_reserved": 0, "fusion_lon": 0.0, "lat": 38.91639333333333, "is_disabled": 0, "name": "c07ba4eb722a1dafdb8c6ff9d9461a09", "fusion_lat": 0.0, "rental_uris": {"ios": "https://dc.lft.to/lastmile_qr_scan", "android": "https://dc.lft.to/lastmile_qr_scan"}, "lon": -77.03190783333334, "type": "electric_scooter"}, {"bike_id": "f483b917f3df842256864506fbd7d091", "is_reserved": 0, "fusion_lon": 0.0, "lat": 38.924034, "is_disabled": 0, "name": "f483b917f3df842256864506fbd7d091", "fusion_lat": 0.0, "rental_uris": {"ios": "https://dc.lft.to/lastmile_qr_scan", "android": "https://dc.lft.to/lastmile_qr_scan"}, "lon": -77.02966083333334, "type": "electric_scooter"}, {"bike_id": "c2982731fe4803c29f3ac6fd2ffac1ed", "is_reserved": 0, "fusion_lon": 0.0, "lat": 38.853133, "is_disabled": 0, "name": "c2982731fe4803c29f3ac6fd2ffac1ed", "fusion_lat": 0.0, "rental_uris": {"ios": "https://dc.lft.to/lastmile_qr_scan", "android": "https://dc.lft.to/lastmile_qr_scan"}, "lon": -76.98021183333333, "type": "electric_bike"}, {"bike_id": "a5e180a496c959e22a824bda845a3ad0", "is_reserved": 0, "fusion_lon": 0.0, "lat": 38.86509433333333, "is_disabled": 0, "name": "a5e180a496c959e22a824bda845a3ad0", "fusion_lat": 0.0, "rental_uris": {"ios": "https://dc.lft.to/lastmile_qr_scan", "android": "https://dc.lft.to/lastmile_qr_scan"}, "lon": -76.9897885, "type": "electric_scooter"}, {"bike_id": "713351bf910d239163102c917d39f42c", "is_reserved": 0, "fusion_lon": 0.0, "lat": 38.92628633333333, "is_disabled": 0, "name": "713351bf910d239163102c917d39f42c", "fusion_lat": 0.0, "rental_uris": {"ios": "https://dc.lft.to/lastmile_qr_scan", "android": "https://dc.lft.to/lastmile_qr_scan"}, "lon": -77.03783416666667, "type": "electric_scooter"}, {"bike_id": "8f98a35e43220758998ffb21c1cae5db", "is_reserved": 0, "fusion_lon": 0.0, "lat": 38.925831, "is_disabled": 0, "name": "8f98a35e43220758998ffb21c1cae5db", "fusion_lat": 0.0, "rental_uris": {"ios": "https://dc.lft.to/lastmile_qr_scan", "android": "https://dc.lft.to/lastmile_qr_scan"}, "lon": -77.00470666666666, "type": "electric_scooter"}, {"bike_id": "086d4e87887797c807a0f4d94d06b08f", "is_reserved": 0, "fusion_lon": 0.0, "lat": 38.93584933333333, "is_disabled": 0, "name": "086d4e87887797c807a0f4d94d06b08f", "fusion_lat": 0.0, "rental_uris": {"ios": "https://dc.lft.to/lastmile_qr_scan", "android": "https://dc.lft.to/lastmile_qr_scan"}, "lon": -77.0276425, "type": "electric_scooter"}, {"bike_id": "2845533d68390b611009b09a67956826", "is_reserved": 0, "fusion_lon": 0.0, "lat": 38.893372166666666, "is_disabled": 0, "name": "2845533d68390b611009b09a67956826", "fusion_lat": 0.0, "rental_uris": {"ios": "https://dc.lft.to/lastmile_qr_scan", "android": "https://dc.lft.to/lastmile_qr_scan"}, "lon": -76.984588, "type": "electric_scooter"}, {"bike_id": "0ce35806bf05daeff6583919c83a81b9", "is_reserved": 0, "fusion_lon": 0.0, "lat": 38.885034, "is_disabled": 0, "name": "0ce35806bf05daeff6583919c83a81b9", "fusion_lat": 0.0, "rental_uris": {"ios": "https://dc.lft.to/lastmile_qr_scan", "android": "https://dc.lft.to/lastmile_qr_scan"}, "lon": -77.01549616666667, "type": "electric_scooter"}, {"bike_id": "d6d184e334f582e05978043faeae63ed", "is_reserved": 0, "fusion_lon": 0.0, "lat": 38.913317166666666, "is_disabled": 0, "name": "d6d184e334f582e05978043faeae63ed", "fusion_lat": 0.0, "rental_uris": {"ios": "https://dc.lft.to/lastmile_qr_scan", "android": "https://dc.lft.to/lastmile_qr_scan"}, "lon": -77.04863933333333, "type": "electric_scooter"}, {"bike_id": "cb9db10e327e78112badf687d0ac08e2", "is_reserved": 0, "fusion_lon": 0.0, "lat": 38.91715383333333, "is_disabled": 0, "name": "cb9db10e327e78112badf687d0ac08e2", "fusion_lat": 0.0, "rental_uris": {"ios": "https://dc.lft.to/lastmile_qr_scan", "android": "https://dc.lft.to/lastmile_qr_scan"}, "lon": -77.034636, "type": "electric_scooter"}, {"bike_id": "84ee50b68affc3041798f656d153e8fd", "is_reserved": 0, "fusion_lon": 0.0, "lat": 38.92655366666666, "is_disabled": 0, "name": "84ee50b68affc3041798f656d153e8fd", "fusion_lat": 0.0, "rental_uris": {"ios": "https://dc.lft.to/lastmile_qr_scan", "android": "https://dc.lft.to/lastmile_qr_scan"}, "lon": -77.03702466666667, "type": "electric_scooter"}, {"bike_id": "ef14f7a7309137b02a19151be2802c4c", "is_reserved": 0, "fusion_lon": 0.0, "lat": 38.878521, "is_disabled": 0, "name": "ef14f7a7309137b02a19151be2802c4c", "fusion_lat": 0.0, "rental_uris": {"ios": "https://dc.lft.to/lastmile_qr_scan", "android": "https://dc.lft.to/lastmile_qr_scan"}, "lon": -77.00507483333334, "type": "electric_scooter"}, {"bike_id": "f7627243930ee4687098b09e17f7d8c5", "is_reserved": 0, "fusion_lon": 0.0, "lat": 38.97087833333333, "is_disabled": 0, "name": "f7627243930ee4687098b09e17f7d8c5", "fusion_lat": 0.0, "rental_uris": {"ios": "https://dc.lft.to/lastmile_qr_scan", "android": "https://dc.lft.to/lastmile_qr_scan"}, "lon": -77.06964966666666, "type": "electric_bike"}, {"bike_id": "030445615e349265082a46a080ef4bc1", "is_reserved": 0, "fusion_lon": 0.0, "lat": 38.927730833333335, "is_disabled": 0, "name": "030445615e349265082a46a080ef4bc1", "fusion_lat": 0.0, "rental_uris": {"ios": "https://dc.lft.to/lastmile_qr_scan", "android": "https://dc.lft.to/lastmile_qr_scan"}, "lon": -77.0267235, "type": "electric_scooter"}, {"bike_id": "966c3b260d22bd10160a7664c9b8683f", "is_reserved": 0, "fusion_lon": 0.0, "lat": 38.890317833333334, "is_disabled": 0, "name": "966c3b260d22bd10160a7664c9b8683f", "fusion_lat": 0.0, "rental_uris": {"ios": "https://dc.lft.to/lastmile_qr_scan", "android": "https://dc.lft.to/lastmile_qr_scan"}, "lon": -76.93618666666667, "type": "electric_scooter"}, {"bike_id": "3f5a59b919cd67b917c94900a5d49e2a", "is_reserved": 0, "fusion_lon": 0.0, "lat": 38.898732333333335, "is_disabled": 0, "name": "3f5a59b919cd67b917c94900a5d49e2a", "fusion_lat": 0.0, "rental_uris": {"ios": "https://dc.lft.to/lastmile_qr_scan", "android": "https://dc.lft.to/lastmile_qr_scan"}, "lon": -77.03274233333333, "type": "electric_scooter"}, {"bike_id": "96017a55df735bbdd954acc96e9dbf61", "is_reserved": 0, "fusion_lon": 0.0, "lat": 38.932339666666664, "is_disabled": 0, "name": "96017a55df735bbdd954acc96e9dbf61", "fusion_lat": 0.0, "rental_uris": {"ios": "https://dc.lft.to/lastmile_qr_scan", "android": "https://dc.lft.to/lastmile_qr_scan"}, "lon": -77.03824983333334, "type": "electric_scooter"}, {"bike_id": "2eafc14727a6df2e9bb79c0a82dca595", "is_reserved": 0, "fusion_lon": 0.0, "lat": 38.90277966666667, "is_disabled": 0, "name": "2eafc14727a6df2e9bb79c0a82dca595", "fusion_lat": 0.0, "rental_uris": {"ios": "https://dc.lft.to/lastmile_qr_scan", "android": "https://dc.lft.to/lastmile_qr_scan"}, "lon": -77.03933766666667, "type": "electric_scooter"}, {"bike_id": "dc2f89da3ca1c39bdf4c9d72f7ac8017", "is_reserved": 0, "fusion_lon": 0.0, "lat": 38.90065, "is_disabled": 0, "name": "dc2f89da3ca1c39bdf4c9d72f7ac8017", "fusion_lat": 0.0, "rental_uris": {"ios": "https://dc.lft.to/lastmile_qr_scan", "android": "https://dc.lft.to/lastmile_qr_scan"}, "lon": -76.98710933333334, "type": "electric_scooter"}, {"bike_id": "cb75c23a4c0a2c355c5c93cbd841b039", "is_reserved": 0, "fusion_lon": 0.0, "lat": 38.862401, "is_disabled": 0, "name": "cb75c23a4c0a2c355c5c93cbd841b039", "fusion_lat": 0.0, "rental_uris": {"ios": "https://dc.lft.to/lastmile_qr_scan", "android": "https://dc.lft.to/lastmile_qr_scan"}, "lon": -76.99491066666667, "type": "electric_scooter"}, {"bike_id": "8c0bc55b985b526412d02e3304569768", "is_reserved": 0, "fusion_lon": 0.0, "lat": 38.869832, "is_disabled": 0, "name": "8c0bc55b985b526412d02e3304569768", "fusion_lat": 0.0, "rental_uris": {"ios": "https://dc.lft.to/lastmile_qr_scan", "android": "https://dc.lft.to/lastmile_qr_scan"}, "lon": -76.95987033333333, "type": "electric_bike"}, {"bike_id": "c824f88e73776783143e39aa8d482475", "is_reserved": 0, "fusion_lon": 0.0, "lat": 38.8938595, "is_disabled": 0, "name": "c824f88e73776783143e39aa8d482475", "fusion_lat": 0.0, "rental_uris": {"ios": "https://dc.lft.to/lastmile_qr_scan", "android": "https://dc.lft.to/lastmile_qr_scan"}, "lon": -77.005974, "type": "electric_scooter"}, {"bike_id": "dc17a903fc882add283c41b49d2a93b6", "is_reserved": 0, "fusion_lon": 0.0, "lat": 38.90790716666667, "is_disabled": 0, "name": "dc17a903fc882add283c41b49d2a93b6", "fusion_lat": 0.0, "rental_uris": {"ios": "https://dc.lft.to/lastmile_qr_scan", "android": "https://dc.lft.to/lastmile_qr_scan"}, "lon": -77.0363755, "type": "electric_scooter"}, {"bike_id": "7213f9a60ed144d971e120447340c741", "is_reserved": 0, "fusion_lon": 0.0, "lat": 38.91660133333333, "is_disabled": 0, "name": "7213f9a60ed144d971e120447340c741", "fusion_lat": 0.0, "rental_uris": {"ios": "https://dc.lft.to/lastmile_qr_scan", "android": "https://dc.lft.to/lastmile_qr_scan"}, "lon": -77.02710566666667, "type": "electric_scooter"}, {"bike_id": "063b54cd3a2797c41e2ec570634ae925", "is_reserved": 0, "fusion_lon": 0.0, "lat": 38.82265316666667, "is_disabled": 0, "name": "063b54cd3a2797c41e2ec570634ae925", "fusion_lat": 0.0, "rental_uris": {"ios": "https://dc.lft.to/lastmile_qr_scan", "android": "https://dc.lft.to/lastmile_qr_scan"}, "lon": -77.05808766666667, "type": "electric_bike"}, {"bike_id": "db35a8c0eaa0881d011bd059b64a4867", "is_reserved": 0, "fusion_lon": 0.0, "lat": 38.98505866666667, "is_disabled": 0, "name": "db35a8c0eaa0881d011bd059b64a4867", "fusion_lat": 0.0, "rental_uris": {"ios": "https://dc.lft.to/lastmile_qr_scan", "android": "https://dc.lft.to/lastmile_qr_scan"}, "lon": -76.982126, "type": "electric_bike"}, {"bike_id": "2defc6494a58064a6eabaf935c79bda7", "is_reserved": 0, "fusion_lon": 0.0, "lat": 38.9112315, "is_disabled": 0, "name": "2defc6494a58064a6eabaf935c79bda7", "fusion_lat": 0.0, "rental_uris": {"ios": "https://dc.lft.to/lastmile_qr_scan", "android": "https://dc.lft.to/lastmile_qr_scan"}, "lon": -77.03730566666667, "type": "electric_scooter"}, {"bike_id": "2f149804350d0f8f8a49f3a2026e2a39", "is_reserved": 0, "fusion_lon": 0.0, "lat": 38.90665716666667, "is_disabled": 0, "name": "2f149804350d0f8f8a49f3a2026e2a39", "fusion_lat": 0.0, "rental_uris": {"ios": "https://dc.lft.to/lastmile_qr_scan", "android": "https://dc.lft.to/lastmile_qr_scan"}, "lon": -77.02705733333333, "type": "electric_scooter"}, {"bike_id": "76fade0d3df34d1b8270b8c51f499708", "is_reserved": 0, "fusion_lon": 0.0, "lat": 38.8947865, "is_disabled": 0, "name": "76fade0d3df34d1b8270b8c51f499708", "fusion_lat": 0.0, "rental_uris": {"ios": "https://dc.lft.to/lastmile_qr_scan", "android": "https://dc.lft.to/lastmile_qr_scan"}, "lon": -77.022988, "type": "electric_scooter"}, {"bike_id": "1b4155893aa47ce9ed7d95e511889851", "is_reserved": 0, "fusion_lon": 0.0, "lat": 38.91414133333333, "is_disabled": 0, "name": "1b4155893aa47ce9ed7d95e511889851", "fusion_lat": 0.0, "rental_uris": {"ios": "https://dc.lft.to/lastmile_qr_scan", "android": "https://dc.lft.to/lastmile_qr_scan"}, "lon": -77.038132, "type": "electric_scooter"}, {"bike_id": "2ed42af325d3bcde6ae25917c45ab528", "is_reserved": 0, "fusion_lon": 0.0, "lat": 38.91673816666667, "is_disabled": 0, "name": "2ed42af325d3bcde6ae25917c45ab528", "fusion_lat": 0.0, "rental_uris": {"ios": "https://dc.lft.to/lastmile_qr_scan", "android": "https://dc.lft.to/lastmile_qr_scan"}, "lon": -77.02953883333333, "type": "electric_scooter"}, {"bike_id": "0008ddfcb3d73b6f9a78ed10f866b92f", "is_reserved": 0, "fusion_lon": 0.0, "lat": 38.90149816666667, "is_disabled": 0, "name": "0008ddfcb3d73b6f9a78ed10f866b92f", "fusion_lat": 0.0, "rental_uris": {"ios": "https://dc.lft.to/lastmile_qr_scan", "android": "https://dc.lft.to/lastmile_qr_scan"}, "lon": -77.02848266666666, "type": "electric_scooter"}, {"bike_id": "f07382d4ab599eb0a15be293f7e6b9e8", "is_reserved": 0, "fusion_lon": 0.0, "lat": 38.930821, "is_disabled": 0, "name": "f07382d4ab599eb0a15be293f7e6b9e8", "fusion_lat": 0.0, "rental_uris": {"ios": "https://dc.lft.to/lastmile_qr_scan", "android": "https://dc.lft.to/lastmile_qr_scan"}, "lon": -77.027947, "type": "electric_scooter"}, {"bike_id": "5e235f3fbbfcfc2939792a0ac6b7d444", "is_reserved": 0, "fusion_lon": 0.0, "lat": 38.90299533333334, "is_disabled": 0, "name": "5e235f3fbbfcfc2939792a0ac6b7d444", "fusion_lat": 0.0, "rental_uris": {"ios": "https://dc.lft.to/lastmile_qr_scan", "android": "https://dc.lft.to/lastmile_qr_scan"}, "lon": -77.03954066666667, "type": "electric_scooter"}, {"bike_id": "f14553ed44e3919dcfd1b825eb7dd065", "is_reserved": 0, "fusion_lon": 0.0, "lat": 38.866575, "is_disabled": 0, "name": "f14553ed44e3919dcfd1b825eb7dd065", "fusion_lat": 0.0, "rental_uris": {"ios": "https://dc.lft.to/lastmile_qr_scan", "android": "https://dc.lft.to/lastmile_qr_scan"}, "lon": -76.990131, "type": "electric_scooter"}, {"bike_id": "1943791ce4ab483af27d9937f6739eab", "is_reserved": 0, "fusion_lon": 0.0, "lat": 38.9004085, "is_disabled": 0, "name": "1943791ce4ab483af27d9937f6739eab", "fusion_lat": 0.0, "rental_uris": {"ios": "https://dc.lft.to/lastmile_qr_scan", "android": "https://dc.lft.to/lastmile_qr_scan"}, "lon": -77.05058066666666, "type": "electric_scooter"}, {"bike_id": "bf7337380e68da1bf567aefe525701d1", "is_reserved": 0, "fusion_lon": 0.0, "lat": 38.89826866666667, "is_disabled": 0, "name": "bf7337380e68da1bf567aefe525701d1", "fusion_lat": 0.0, "rental_uris": {"ios": "https://dc.lft.to/lastmile_qr_scan", "android": "https://dc.lft.to/lastmile_qr_scan"}, "lon": -76.94650033333333, "type": "electric_scooter"}, {"bike_id": "460a76c41b7fd3018063768f1ea0917f", "is_reserved": 0, "fusion_lon": 0.0, "lat": 38.904952, "is_disabled": 0, "name": "460a76c41b7fd3018063768f1ea0917f", "fusion_lat": 0.0, "rental_uris": {"ios": "https://dc.lft.to/lastmile_qr_scan", "android": "https://dc.lft.to/lastmile_qr_scan"}, "lon": -77.05744166666666, "type": "electric_scooter"}, {"bike_id": "9f0361f88efdd7da5c63e634f4c996e3", "is_reserved": 0, "fusion_lon": 0.0, "lat": 38.83990333333333, "is_disabled": 0, "name": "9f0361f88efdd7da5c63e634f4c996e3", "fusion_lat": 0.0, "rental_uris": {"ios": "https://dc.lft.to/lastmile_qr_scan", "android": "https://dc.lft.to/lastmile_qr_scan"}, "lon": -77.0056365, "type": "electric_bike"}, {"bike_id": "03bcbbcbf680f69556f92422b21c4445", "is_reserved": 0, "fusion_lon": 0.0, "lat": 38.9143085, "is_disabled": 0, "name": "03bcbbcbf680f69556f92422b21c4445", "fusion_lat": 0.0, "rental_uris": {"ios": "https://dc.lft.to/lastmile_qr_scan", "android": "https://dc.lft.to/lastmile_qr_scan"}, "lon": -77.04153716666667, "type": "electric_scooter"}, {"bike_id": "7035f944878be74fad5cbea623a48250", "is_reserved": 0, "fusion_lon": 0.0, "lat": 38.88130683333333, "is_disabled": 0, "name": "7035f944878be74fad5cbea623a48250", "fusion_lat": 0.0, "rental_uris": {"ios": "https://dc.lft.to/lastmile_qr_scan", "android": "https://dc.lft.to/lastmile_qr_scan"}, "lon": -76.98087316666667, "type": "electric_bike"}, {"bike_id": "b66e8f60b9ff14bdd48879d6e6a0307b", "is_reserved": 0, "fusion_lon": 0.0, "lat": 38.900521, "is_disabled": 0, "name": "b66e8f60b9ff14bdd48879d6e6a0307b", "fusion_lat": 0.0, "rental_uris": {"ios": "https://dc.lft.to/lastmile_qr_scan", "android": "https://dc.lft.to/lastmile_qr_scan"}, "lon": -77.0513635, "type": "electric_scooter"}, {"bike_id": "d7a426501248f817814ad6209c78792e", "is_reserved": 0, "fusion_lon": 0.0, "lat": 38.935283, "is_disabled": 0, "name": "d7a426501248f817814ad6209c78792e", "fusion_lat": 0.0, "rental_uris": {"ios": "https://dc.lft.to/lastmile_qr_scan", "android": "https://dc.lft.to/lastmile_qr_scan"}, "lon": -77.02856016666667, "type": "electric_scooter"}, {"bike_id": "e6b7e6d55cb4d69bbbf38d61aa24b6a8", "is_reserved": 0, "fusion_lon": 0.0, "lat": 38.8976385, "is_disabled": 0, "name": "e6b7e6d55cb4d69bbbf38d61aa24b6a8", "fusion_lat": 0.0, "rental_uris": {"ios": "https://dc.lft.to/lastmile_qr_scan", "android": "https://dc.lft.to/lastmile_qr_scan"}, "lon": -76.93912, "type": "electric_scooter"}, {"bike_id": "c326e0f192cd96b6cbbe1a4f5b7c5310", "is_reserved": 0, "fusion_lon": 0.0, "lat": 38.89232033333333, "is_disabled": 0, "name": "c326e0f192cd96b6cbbe1a4f5b7c5310", "fusion_lat": 0.0, "rental_uris": {"ios": "https://dc.lft.to/lastmile_qr_scan", "android": "https://dc.lft.to/lastmile_qr_scan"}, "lon": -77.0500135, "type": "electric_scooter"}, {"bike_id": "8e0a4676c899a5ee8c693c1e6cff85f4", "is_reserved": 0, "fusion_lon": 0.0, "lat": 38.92590966666667, "is_disabled": 0, "name": "8e0a4676c899a5ee8c693c1e6cff85f4", "fusion_lat": 0.0, "rental_uris": {"ios": "https://dc.lft.to/lastmile_qr_scan", "android": "https://dc.lft.to/lastmile_qr_scan"}, "lon": -77.00484983333334, "type": "electric_scooter"}, {"bike_id": "dc8985a32ca9f814a0a91279d5ecc8a7", "is_reserved": 0, "fusion_lon": 0.0, "lat": 38.908527, "is_disabled": 0, "name": "dc8985a32ca9f814a0a91279d5ecc8a7", "fusion_lat": 0.0, "rental_uris": {"ios": "https://dc.lft.to/lastmile_qr_scan", "android": "https://dc.lft.to/lastmile_qr_scan"}, "lon": -77.08531516666666, "type": "electric_scooter"}, {"bike_id": "367a25cc165ff87e4e0ee93bafca901b", "is_reserved": 0, "fusion_lon": 0.0, "lat": 38.892354, "is_disabled": 0, "name": "367a25cc165ff87e4e0ee93bafca901b", "fusion_lat": 0.0, "rental_uris": {"ios": "https://dc.lft.to/lastmile_qr_scan", "android": "https://dc.lft.to/lastmile_qr_scan"}, "lon": -77.027984, "type": "electric_scooter"}, {"bike_id": "110d57829ded598c2d3b0ef3054e2b93", "is_reserved": 0, "fusion_lon": 0.0, "lat": 38.8836175, "is_disabled": 0, "name": "110d57829ded598c2d3b0ef3054e2b93", "fusion_lat": 0.0, "rental_uris": {"ios": "https://dc.lft.to/lastmile_qr_scan", "android": "https://dc.lft.to/lastmile_qr_scan"}, "lon": -77.03174166666666, "type": "electric_scooter"}, {"bike_id": "26727f8162dcc33e924550b5e944feba", "is_reserved": 0, "fusion_lon": 0.0, "lat": 38.9215225, "is_disabled": 0, "name": "26727f8162dcc33e924550b5e944feba", "fusion_lat": 0.0, "rental_uris": {"ios": "https://dc.lft.to/lastmile_qr_scan", "android": "https://dc.lft.to/lastmile_qr_scan"}, "lon": -77.03379016666666, "type": "electric_scooter"}, {"bike_id": "b7abd7d1e77bbe47c311b4feb0388d1f", "is_reserved": 0, "fusion_lon": 0.0, "lat": 38.862895, "is_disabled": 0, "name": "b7abd7d1e77bbe47c311b4feb0388d1f", "fusion_lat": 0.0, "rental_uris": {"ios": "https://dc.lft.to/lastmile_qr_scan", "android": "https://dc.lft.to/lastmile_qr_scan"}, "lon": -76.99237933333333, "type": "electric_scooter"}, {"bike_id": "41af9c2e3924d125ad3fdf4a152efbeb", "is_reserved": 0, "fusion_lon": 0.0, "lat": 38.89874416666667, "is_disabled": 0, "name": "41af9c2e3924d125ad3fdf4a152efbeb", "fusion_lat": 0.0, "rental_uris": {"ios": "https://dc.lft.to/lastmile_qr_scan", "android": "https://dc.lft.to/lastmile_qr_scan"}, "lon": -76.931844, "type": "electric_scooter"}, {"bike_id": "8820f76825b6a48498d17beea54845b7", "is_reserved": 0, "fusion_lon": 0.0, "lat": 38.98461433333333, "is_disabled": 0, "name": "8820f76825b6a48498d17beea54845b7", "fusion_lat": 0.0, "rental_uris": {"ios": "https://dc.lft.to/lastmile_qr_scan", "android": "https://dc.lft.to/lastmile_qr_scan"}, "lon": -77.09455433333333, "type": "electric_bike"}, {"bike_id": "809e93ea71215a7cef70b1e5f203aafc", "is_reserved": 0, "fusion_lon": 0.0, "lat": 38.92606716666667, "is_disabled": 0, "name": "809e93ea71215a7cef70b1e5f203aafc", "fusion_lat": 0.0, "rental_uris": {"ios": "https://dc.lft.to/lastmile_qr_scan", "android": "https://dc.lft.to/lastmile_qr_scan"}, "lon": -77.04409383333333, "type": "electric_scooter"}, {"bike_id": "986ba15fdf1a4b2850a3a60724053128", "is_reserved": 0, "fusion_lon": 0.0, "lat": 38.90269516666667, "is_disabled": 0, "name": "986ba15fdf1a4b2850a3a60724053128", "fusion_lat": 0.0, "rental_uris": {"ios": "https://dc.lft.to/lastmile_qr_scan", "android": "https://dc.lft.to/lastmile_qr_scan"}, "lon": -77.05314833333334, "type": "electric_scooter"}, {"bike_id": "3646b44e91a329099b0fa7f3ec44be66", "is_reserved": 0, "fusion_lon": 0.0, "lat": 38.927636, "is_disabled": 0, "name": "3646b44e91a329099b0fa7f3ec44be66", "fusion_lat": 0.0, "rental_uris": {"ios": "https://dc.lft.to/lastmile_qr_scan", "android": "https://dc.lft.to/lastmile_qr_scan"}, "lon": -77.03242916666666, "type": "electric_scooter"}, {"bike_id": "b2a7ad83b7a7e6336208fcacdeaca26d", "is_reserved": 0, "fusion_lon": 0.0, "lat": 38.912511, "is_disabled": 0, "name": "b2a7ad83b7a7e6336208fcacdeaca26d", "fusion_lat": 0.0, "rental_uris": {"ios": "https://dc.lft.to/lastmile_qr_scan", "android": "https://dc.lft.to/lastmile_qr_scan"}, "lon": -77.036427, "type": "electric_scooter"}, {"bike_id": "181c2ce8945f3ad2ebf8e84a9ed80ca0", "is_reserved": 0, "fusion_lon": 0.0, "lat": 38.93296266666667, "is_disabled": 0, "name": "181c2ce8945f3ad2ebf8e84a9ed80ca0", "fusion_lat": 0.0, "rental_uris": {"ios": "https://dc.lft.to/lastmile_qr_scan", "android": "https://dc.lft.to/lastmile_qr_scan"}, "lon": -77.02839983333334, "type": "electric_scooter"}, {"bike_id": "c0e7be5fd7fc55527b4de36fb3474e1d", "is_reserved": 0, "fusion_lon": 0.0, "lat": 38.932379833333336, "is_disabled": 0, "name": "c0e7be5fd7fc55527b4de36fb3474e1d", "fusion_lat": 0.0, "rental_uris": {"ios": "https://dc.lft.to/lastmile_qr_scan", "android": "https://dc.lft.to/lastmile_qr_scan"}, "lon": -77.03891133333333, "type": "electric_scooter"}, {"bike_id": "6d50d0ef0147b43e8a77ddc9992f9ef0", "is_reserved": 0, "fusion_lon": 0.0, "lat": 38.905001666666664, "is_disabled": 0, "name": "6d50d0ef0147b43e8a77ddc9992f9ef0", "fusion_lat": 0.0, "rental_uris": {"ios": "https://dc.lft.to/lastmile_qr_scan", "android": "https://dc.lft.to/lastmile_qr_scan"}, "lon": -77.067552, "type": "electric_scooter"}, {"bike_id": "2a7bf24a178c04e8e335de27d2fa91f0", "is_reserved": 0, "fusion_lon": 0.0, "lat": 38.93392166666667, "is_disabled": 0, "name": "2a7bf24a178c04e8e335de27d2fa91f0", "fusion_lat": 0.0, "rental_uris": {"ios": "https://dc.lft.to/lastmile_qr_scan", "android": "https://dc.lft.to/lastmile_qr_scan"},