{"data": {"bikes": [{"rental_uris": {"ios": "https://dc.lft.to/lastmile_qr_scan", "android": "https://dc.lft.to/lastmile_qr_scan"}, "fusion_lon": 0.0, "lon": -77.02958166666667, "lat": 38.907662333333334, "is_reserved": 0, "name": "81f3c408422717cbeff79fb6576fb1eb", "is_disabled": 0, "type": "electric_scooter", "fusion_lat": 0.0, "bike_id": "81f3c408422717cbeff79fb6576fb1eb"}, {"rental_uris": {"ios": "https://dc.lft.to/lastmile_qr_scan", "android": "https://dc.lft.to/lastmile_qr_scan"}, "fusion_lon": 0.0, "lon": -77.01562866666667, "lat": 38.8917445, "is_reserved": 0, "name": "78c46074fa82d2cbf61bb7e854d18d84", "is_disabled": 0, "type": "electric_scooter", "fusion_lat": 0.0, "bike_id": "78c46074fa82d2cbf61bb7e854d18d84"}, {"rental_uris": {"ios": "https://dc.lft.to/lastmile_qr_scan", "android": "https://dc.lft.to/lastmile_qr_scan"}, "fusion_lon": 0.0, "lon": -76.99858933333333, "lat": 38.8376995, "is_reserved": 0, "name": "9d44591418657e1bd94357e48852c107", "is_disabled": 0, "type": "electric_scooter", "fusion_lat": 0.0, "bike_id": "9d44591418657e1bd94357e48852c107"}, {"rental_uris": {"ios": "https://dc.lft.to/lastmile_qr_scan", "android": "https://dc.lft.to/lastmile_qr_scan"}, "fusion_lon": 0.0, "lon": -77.02711716666667, "lat": 38.92325916666667, "is_reserved": 0, "name": "f4db7509e3f15c95843873edbbe29c5b", "is_disabled": 0, "type": "electric_scooter", "fusion_lat": 0.0, "bike_id": "f4db7509e3f15c95843873edbbe29c5b"}, {"rental_uris": {"ios": "https://dc.lft.to/lastmile_qr_scan", "android": "https://dc.lft.to/lastmile_qr_scan"}, "fusion_lon": 0.0, "lon": -77.01292983333333, "lat": 39.00373883333334, "is_reserved": 0, "name": "95d5b147486e0769b0c29ffdd67faaed", "is_disabled": 0, "type": "electric_bike", "fusion_lat": 0.0, "bike_id": "95d5b147486e0769b0c29ffdd67faaed"}, {"rental_uris": {"ios": "https://dc.lft.to/lastmile_qr_scan", "android": "https://dc.lft.to/lastmile_qr_scan"}, "fusion_lon": 0.0, "lon": -76.94295166666667, "lat": 38.95363366666667, "is_reserved": 0, "name": "4ac514963348d7867ad2c2e4e16427ea", "is_disabled": 0, "type": "electric_bike", "fusion_lat": 0.0, "bike_id": "4ac514963348d7867ad2c2e4e16427ea"}, {"rental_uris": {"ios": "https://dc.lft.to/lastmile_qr_scan", "android": "https://dc.lft.to/lastmile_qr_scan"}, "fusion_lon": 0.0, "lon": -77.05507283333333, "lat": 38.929579833333335, "is_reserved": 0, "name": "9008a68b987c0cb16f0b03748a078c97", "is_disabled": 0, "type": "electric_scooter", "fusion_lat": 0.0, "bike_id": "9008a68b987c0cb16f0b03748a078c97"}, {"rental_uris": {"ios": "https://dc.lft.to/lastmile_qr_scan", "android": "https://dc.lft.to/lastmile_qr_scan"}, "fusion_lon": 0.0, "lon": -76.99697066666667, "lat": 38.88427816666667, "is_reserved": 0, "name": "5189907e007613fdd2b941dd337a84a3", "is_disabled": 0, "type": "electric_scooter", "fusion_lat": 0.0, "bike_id": "5189907e007613fdd2b941dd337a84a3"}, {"rental_uris": {"ios": "https://dc.lft.to/lastmile_qr_scan", "android": "https://dc.lft.to/lastmile_qr_scan"}, "fusion_lon": 0.0, "lon": -76.975731, "lat": 38.90338033333333, "is_reserved": 0, "name": "bde209db9857ee1e4543d27198e00860", "is_disabled": 0, "type": "electric_scooter", "fusion_lat": 0.0, "bike_id": "bde209db9857ee1e4543d27198e00860"}, {"rental_uris": {"ios": "https://dc.lft.to/lastmile_qr_scan", "android": "https://dc.lft.to/lastmile_qr_scan"}, "fusion_lon": 0.0, "lon": -77.03266483333333, "lat": 38.92978516666667, "is_reserved": 0, "name": "6d980ab91224cded5a0d2af5fcd62a37", "is_disabled": 0, "type": "electric_scooter", "fusion_lat": 0.0, "bike_id": "6d980ab91224cded5a0d2af5fcd62a37"}, {"rental_uris": {"ios": "https://dc.lft.to/lastmile_qr_scan", "android": "https://dc.lft.to/lastmile_qr_scan"}, "fusion_lon": 0.0, "lon": -77.0629655, "lat": 38.90395383333333, "is_reserved": 0, "name": "9acb7e13fdd7298d57bc033ace04c0c7", "is_disabled": 0, "type": "electric_scooter", "fusion_lat": 0.0, "bike_id": "9acb7e13fdd7298d57bc033ace04c0c7"}, {"rental_uris": {"ios": "https://dc.lft.to/lastmile_qr_scan", "android": "https://dc.lft.to/lastmile_qr_scan"}, "fusion_lon": 0.0, "lon": -77.00347633333334, "lat": 38.899445166666666, "is_reserved": 0, "name": "e2e31ed1cb3c419defd6bc0e72b7f61c", "is_disabled": 0, "type": "electric_scooter", "fusion_lat": 0.0, "bike_id": "e2e31ed1cb3c419defd6bc0e72b7f61c"}, {"rental_uris": {"ios": "https://dc.lft.to/lastmile_qr_scan", "android": "https://dc.lft.to/lastmile_qr_scan"}, "fusion_lon": 0.0, "lon": -77.03434316666667, "lat": 38.939766166666665, "is_reserved": 0, "name": "b2d28718845190b004b5d61680386681", "is_disabled": 0, "type": "electric_scooter", "fusion_lat": 0.0, "bike_id": "b2d28718845190b004b5d61680386681"}, {"rental_uris": {"ios": "https://dc.lft.to/lastmile_qr_scan", "android": "https://dc.lft.to/lastmile_qr_scan"}, "fusion_lon": 0.0, "lon": -77.05998133333334, "lat": 38.9271375, "is_reserved": 0, "name": "93ccc9f0de04172433b65897ee332c3b", "is_disabled": 0, "type": "electric_bike", "fusion_lat": 0.0, "bike_id": "93ccc9f0de04172433b65897ee332c3b"}, {"rental_uris": {"ios": "https://dc.lft.to/lastmile_qr_scan", "android": "https://dc.lft.to/lastmile_qr_scan"}, "fusion_lon": 0.0, "lon": -77.03208983333333, "lat": 38.91645583333333, "is_reserved": 0, "name": "fcd092a0ef868a70d12456b0e5e49851", "is_disabled": 0, "type": "electric_scooter", "fusion_lat": 0.0, "bike_id": "fcd092a0ef868a70d12456b0e5e49851"}, {"rental_uris": {"ios": "https://dc.lft.to/lastmile_qr_scan", "android": "https://dc.lft.to/lastmile_qr_scan"}, "fusion_lon": 0.0, "lon": -77.01209266666666, "lat": 38.91184633333334, "is_reserved": 0, "name": "287e33668c1f799d0f86700d57223100", "is_disabled": 0, "type": "electric_scooter", "fusion_lat": 0.0, "bike_id": "287e33668c1f799d0f86700d57223100"}, {"rental_uris": {"ios": "https://dc.lft.to/lastmile_qr_scan", "android": "https://dc.lft.to/lastmile_qr_scan"}, "fusion_lon": 0.0, "lon": -77.02641616666666, "lat": 38.89596866666667, "is_reserved": 0, "name": "3f117a8cd3b94a30b64ec22308e7fe10", "is_disabled": 0, "type": "electric_scooter", "fusion_lat": 0.0, "bike_id": "3f117a8cd3b94a30b64ec22308e7fe10"}, {"rental_uris": {"ios": "https://dc.lft.to/lastmile_qr_scan", "android": "https://dc.lft.to/lastmile_qr_scan"}, "fusion_lon": 0.0, "lon": -77.04806933333333, "lat": 38.91625533333333, "is_reserved": 0, "name": "a8f23a4167a9dc68aaf9ce7e857e33d5", "is_disabled": 0, "type": "electric_scooter", "fusion_lat": 0.0, "bike_id": "a8f23a4167a9dc68aaf9ce7e857e33d5"}, {"rental_uris": {"ios": "https://dc.lft.to/lastmile_qr_scan", "android": "https://dc.lft.to/lastmile_qr_scan"}, "fusion_lon": 0.0, "lon": -77.04683033333333, "lat": 38.897292, "is_reserved": 0, "name": "c4ad2be554c8326f5395b9cc79d4687a", "is_disabled": 0, "type": "electric_scooter", "fusion_lat": 0.0, "bike_id": "c4ad2be554c8326f5395b9cc79d4687a"}, {"rental_uris": {"ios": "https://dc.lft.to/lastmile_qr_scan", "android": "https://dc.lft.to/lastmile_qr_scan"}, "fusion_lon": 0.0, "lon": -76.99342133333333, "lat": 38.916244, "is_reserved": 0, "name": "19093ac134fb5a2ba7c559906dbc89e5", "is_disabled": 0, "type": "electric_scooter", "fusion_lat": 0.0, "bike_id": "19093ac134fb5a2ba7c559906dbc89e5"}, {"rental_uris": {"ios": "https://dc.lft.to/lastmile_qr_scan", "android": "https://dc.lft.to/lastmile_qr_scan"}, "fusion_lon": 0.0, "lon": -76.98179216666666, "lat": 38.889722166666665, "is_reserved": 0, "name": "3835e0ef9de224f0762d1d20aa4f4465", "is_disabled": 0, "type": "electric_scooter", "fusion_lat": 0.0, "bike_id": "3835e0ef9de224f0762d1d20aa4f4465"}, {"rental_uris": {"ios": "https://dc.lft.to/lastmile_qr_scan", "android": "https://dc.lft.to/lastmile_qr_scan"}, "fusion_lon": 0.0, "lon": -77.03186183333334, "lat": 38.921057166666664, "is_reserved": 0, "name": "980a34c5fa121913c4fe5ebae115af0a", "is_disabled": 0, "type": "electric_scooter", "fusion_lat": 0.0, "bike_id": "980a34c5fa121913c4fe5ebae115af0a"}, {"rental_uris": {"ios": "https://dc.lft.to/lastmile_qr_scan", "android": "https://dc.lft.to/lastmile_qr_scan"}, "fusion_lon": 0.0, "lon": -77.04149683333333, "lat": 38.90736033333334, "is_reserved": 0, "name": "2f9b4b976374102f534a51e4fc548d3b", "is_disabled": 0, "type": "electric_scooter", "fusion_lat": 0.0, "bike_id": "2f9b4b976374102f534a51e4fc548d3b"}, {"rental_uris": {"ios": "https://dc.lft.to/lastmile_qr_scan", "android": "https://dc.lft.to/lastmile_qr_scan"}, "fusion_lon": 0.0, "lon": -76.98679666666666, "lat": 38.898812, "is_reserved": 0, "name": "b4a362f1d7e3213a9060bf8f6e687c19", "is_disabled": 0, "type": "electric_scooter", "fusion_lat": 0.0, "bike_id": "b4a362f1d7e3213a9060bf8f6e687c19"}, {"rental_uris": {"ios": "https://dc.lft.to/lastmile_qr_scan", "android": "https://dc.lft.to/lastmile_qr_scan"}, "fusion_lon": 0.0, "lon": -77.05028533333333, "lat": 38.923649166666664, "is_reserved": 0, "name": "632bb8691a79ebc9dab0ae64e9a7d0d5", "is_disabled": 0, "type": "electric_scooter", "fusion_lat": 0.0, "bike_id": "632bb8691a79ebc9dab0ae64e9a7d0d5"}, {"rental_uris": {"ios": "https://dc.lft.to/lastmile_qr_scan", "android": "https://dc.lft.to/lastmile_qr_scan"}, "fusion_lon": 0.0, "lon": -77.0373815, "lat": 38.9028175, "is_reserved": 0, "name": "8fe6212903ff85823e2492b1a72f69f7", "is_disabled": 0, "type": "electric_scooter", "fusion_lat": 0.0, "bike_id": "8fe6212903ff85823e2492b1a72f69f7"}, {"rental_uris": {"ios": "https://dc.lft.to/lastmile_qr_scan", "android": "https://dc.lft.to/lastmile_qr_scan"}, "fusion_lon": 0.0, "lon": -76.92804133333334, "lat": 38.896426166666664, "is_reserved": 0, "name": "68c2b1e22f10e9ae04927d8ecd91ee79", "is_disabled": 0, "type": "electric_scooter", "fusion_lat": 0.0, "bike_id": "68c2b1e22f10e9ae04927d8ecd91ee79"}, {"rental_uris": {"ios": "https://dc.lft.to/lastmile_qr_scan", "android": "https://dc.lft.to/lastmile_qr_scan"}, "fusion_lon": 0.0, "lon": -77.066648, "lat": 38.949542666666666, "is_reserved": 0, "name": "ca62fe6757b7b740ac7ac597d5a50c5a", "is_disabled": 0, "type": "electric_scooter", "fusion_lat": 0.0, "bike_id": "ca62fe6757b7b740ac7ac597d5a50c5a"}, {"rental_uris": {"ios": "https://dc.lft.to/lastmile_qr_scan", "android": "https://dc.lft.to/lastmile_qr_scan"}, "fusion_lon": 0.0, "lon": -77.02097183333333, "lat": 38.9326285, "is_reserved": 0, "name": "4a53dfc0e25c3343783c862e8ad5a147", "is_disabled": 0, "type": "electric_scooter", "fusion_lat": 0.0, "bike_id": "4a53dfc0e25c3343783c862e8ad5a147"}, {"rental_uris": {"ios": "https://dc.lft.to/lastmile_qr_scan", "android": "https://dc.lft.to/lastmile_qr_scan"}, "fusion_lon": 0.0, "lon": -77.00655, "lat": 38.876748666666664, "is_reserved": 0, "name": "49ef31bbf404849570f2ce8ceaacf149", "is_disabled": 0, "type": "electric_scooter", "fusion_lat": 0.0, "bike_id": "49ef31bbf404849570f2ce8ceaacf149"}, {"rental_uris": {"ios": "https://dc.lft.to/lastmile_qr_scan", "android": "https://dc.lft.to/lastmile_qr_scan"}, "fusion_lon": 0.0, "lon": -77.03762316666666, "lat": 38.91692366666667, "is_reserved": 0, "name": "c54b5dcc37af9c3e3ca01da2373989fc", "is_disabled": 0, "type": "electric_scooter", "fusion_lat": 0.0, "bike_id": "c54b5dcc37af9c3e3ca01da2373989fc"}, {"rental_uris": {"ios": "https://dc.lft.to/lastmile_qr_scan", "android": "https://dc.lft.to/lastmile_qr_scan"}, "fusion_lon": 0.0, "lon": -77.02514966666666, "lat": 38.89744433333333, "is_reserved": 0, "name": "4f013851f4b50a1c56be3971245e0927", "is_disabled": 0, "type": "electric_scooter", "fusion_lat": 0.0, "bike_id": "4f013851f4b50a1c56be3971245e0927"}, {"rental_uris": {"ios": "https://dc.lft.to/lastmile_qr_scan", "android": "https://dc.lft.to/lastmile_qr_scan"}, "fusion_lon": 0.0, "lon": -77.05585833333333, "lat": 38.92789766666667, "is_reserved": 0, "name": "d808a202cf3791ac36c5ea4071818af7", "is_disabled": 0, "type": "electric_scooter", "fusion_lat": 0.0, "bike_id": "d808a202cf3791ac36c5ea4071818af7"}, {"rental_uris": {"ios": "https://dc.lft.to/lastmile_qr_scan", "android": "https://dc.lft.to/lastmile_qr_scan"}, "fusion_lon": 0.0, "lon": -77.03249916666667, "lat": 38.919881833333335, "is_reserved": 0, "name": "1fba8803d2805515d7388920455a7221", "is_disabled": 0, "type": "electric_scooter", "fusion_lat": 0.0, "bike_id": "1fba8803d2805515d7388920455a7221"}, {"rental_uris": {"ios": "https://dc.lft.to/lastmile_qr_scan", "android": "https://dc.lft.to/lastmile_qr_scan"}, "fusion_lon": 0.0, "lon": -77.029633, "lat": 38.89834966666667, "is_reserved": 0, "name": "53df8e742799f7aa83d4501dcee33cde", "is_disabled": 0, "type": "electric_scooter", "fusion_lat": 0.0, "bike_id": "53df8e742799f7aa83d4501dcee33cde"}, {"rental_uris": {"ios": "https://dc.lft.to/lastmile_qr_scan", "android": "https://dc.lft.to/lastmile_qr_scan"}, "fusion_lon": 0.0, "lon": -77.02795633333334, "lat": 38.90718483333333, "is_reserved": 0, "name": "2b045dc11a2508e8dfa2040486b04649", "is_disabled": 0, "type": "electric_scooter", "fusion_lat": 0.0, "bike_id": "2b045dc11a2508e8dfa2040486b04649"}, {"rental_uris": {"ios": "https://dc.lft.to/lastmile_qr_scan", "android": "https://dc.lft.to/lastmile_qr_scan"}, "fusion_lon": 0.0, "lon": -77.03753866666666, "lat": 38.928711166666666, "is_reserved": 0, "name": "63ade4f243dd3b90e6ebe277daf4a76f", "is_disabled": 0, "type": "electric_scooter", "fusion_lat": 0.0, "bike_id": "63ade4f243dd3b90e6ebe277daf4a76f"}, {"rental_uris": {"ios": "https://dc.lft.to/lastmile_qr_scan", "android": "https://dc.lft.to/lastmile_qr_scan"}, "fusion_lon": 0.0, "lon": -77.03669816666667, "lat": 38.922739666666665, "is_reserved": 0, "name": "baefb532d54aaa128a800960a86ccbb8", "is_disabled": 0, "type": "electric_scooter", "fusion_lat": 0.0, "bike_id": "baefb532d54aaa128a800960a86ccbb8"}, {"rental_uris": {"ios": "https://dc.lft.to/lastmile_qr_scan", "android": "https://dc.lft.to/lastmile_qr_scan"}, "fusion_lon": 0.0, "lon": -77.04343083333333, "lat": 38.90036883333333, "is_reserved": 0, "name": "3e2a4ac3b6ef88582d40174977a9fb9d", "is_disabled": 0, "type": "electric_scooter", "fusion_lat": 0.0, "bike_id": "3e2a4ac3b6ef88582d40174977a9fb9d"}, {"rental_uris": {"ios": "https://dc.lft.to/lastmile_qr_scan", "android": "https://dc.lft.to/lastmile_qr_scan"}, "fusion_lon": 0.0, "lon": -77.042115, "lat": 38.909155166666665, "is_reserved": 0, "name": "b0c67a4402b1a3cc9755de62e7de3f3c", "is_disabled": 0, "type": "electric_scooter", "fusion_lat": 0.0, "bike_id": "b0c67a4402b1a3cc9755de62e7de3f3c"}, {"rental_uris": {"ios": "https://dc.lft.to/lastmile_qr_scan", "android": "https://dc.lft.to/lastmile_qr_scan"}, "fusion_lon": 0.0, "lon": -77.03223383333334, "lat": 38.89919866666666, "is_reserved": 0, "name": "95f6522b5dd620496212e5e0d916aa1b", "is_disabled": 0, "type": "electric_scooter", "fusion_lat": 0.0, "bike_id": "95f6522b5dd620496212e5e0d916aa1b"}, {"rental_uris": {"ios": "https://dc.lft.to/lastmile_qr_scan", "android": "https://dc.lft.to/lastmile_qr_scan"}, "fusion_lon": 0.0, "lon": -77.03674783333334, "lat": 38.915645, "is_reserved": 0, "name": "4fd6a3ab9653a674ba3748ea7c3c1ae9", "is_disabled": 0, "type": "electric_scooter", "fusion_lat": 0.0, "bike_id": "4fd6a3ab9653a674ba3748ea7c3c1ae9"}, {"rental_uris": {"ios": "https://dc.lft.to/lastmile_qr_scan", "android": "https://dc.lft.to/lastmile_qr_scan"}, "fusion_lon": 0.0, "lon": -77.01437983333334, "lat": 38.91314766666667, "is_reserved": 0, "name": "a0f7a7b3c7451e7a0a2612aa7531f4f1", "is_disabled": 0, "type": "electric_scooter", "fusion_lat": 0.0, "bike_id": "a0f7a7b3c7451e7a0a2612aa7531f4f1"}, {"rental_uris": {"ios": "https://dc.lft.to/lastmile_qr_scan", "android": "https://dc.lft.to/lastmile_qr_scan"}, "fusion_lon": 0.0, "lon": -76.98708633333334, "lat": 38.90060066666667, "is_reserved": 0, "name": "773944d5524cd3993cc8711169f96547", "is_disabled": 0, "type": "electric_scooter", "fusion_lat": 0.0, "bike_id": "773944d5524cd3993cc8711169f96547"}, {"rental_uris": {"ios": "https://dc.lft.to/lastmile_qr_scan", "android": "https://dc.lft.to/lastmile_qr_scan"}, "fusion_lon": 0.0, "lon": -77.04240266666666, "lat": 38.921954666666664, "is_reserved": 0, "name": "c8aa0229bf5200704de93f6effcf5328", "is_disabled": 0, "type": "electric_scooter", "fusion_lat": 0.0, "bike_id": "c8aa0229bf5200704de93f6effcf5328"}, {"rental_uris": {"ios": "https://dc.lft.to/lastmile_qr_scan", "android": "https://dc.lft.to/lastmile_qr_scan"}, "fusion_lon": 0.0, "lon": -77.04491266666666, "lat": 38.903044666666666, "is_reserved": 0, "name": "be727051d66f8ddc624d008c7a54061d", "is_disabled": 0, "type": "electric_scooter", "fusion_lat": 0.0, "bike_id": "be727051d66f8ddc624d008c7a54061d"}, {"rental_uris": {"ios": "https://dc.lft.to/lastmile_qr_scan", "android": "https://dc.lft.to/lastmile_qr_scan"}, "fusion_lon": 0.0, "lon": -76.99522283333333, "lat": 38.88374966666667, "is_reserved": 0, "name": "e4815a47c6870db2e74826d4e701c11f", "is_disabled": 0, "type": "electric_scooter", "fusion_lat": 0.0, "bike_id": "e4815a47c6870db2e74826d4e701c11f"}, {"rental_uris": {"ios": "https://dc.lft.to/lastmile_qr_scan", "android": "https://dc.lft.to/lastmile_qr_scan"}, "fusion_lon": 0.0, "lon": -77.02653516666666, "lat": 38.8983145, "is_reserved": 0, "name": "04cb8d06bbc6057712c58252800c9911", "is_disabled": 0, "type": "electric_scooter", "fusion_lat": 0.0, "bike_id": "04cb8d06bbc6057712c58252800c9911"}, {"rental_uris": {"ios": "https://dc.lft.to/lastmile_qr_scan", "android": "https://dc.lft.to/lastmile_qr_scan"}, "fusion_lon": 0.0, "lon": -77.11323066666667, "lat": 38.80409233333334, "is_reserved": 0, "name": "3c4fabac70ad3f911b0731152fbdffb4", "is_disabled": 0, "type": "electric_bike", "fusion_lat": 0.0, "bike_id": "3c4fabac70ad3f911b0731152fbdffb4"}, {"rental_uris": {"ios": "https://dc.lft.to/lastmile_qr_scan", "android": "https://dc.lft.to/lastmile_qr_scan"}, "fusion_lon": 0.0, "lon": -77.08576583333334, "lat": 38.8742475, "is_reserved": 0, "name": "a07480b76a629aa02a96b44157a54e55", "is_disabled": 0, "type": "electric_bike", "fusion_lat": 0.0, "bike_id": "a07480b76a629aa02a96b44157a54e55"}, {"rental_uris": {"ios": "https://dc.lft.to/lastmile_qr_scan", "android": "https://dc.lft.to/lastmile_qr_scan"}, "fusion_lon": 0.0, "lon": -77.05375233333334, "lat": 38.84758333333333, "is_reserved": 0, "name": "5cb68f3fda301a234e9539cabfb45092", "is_disabled": 0, "type": "electric_bike", "fusion_lat": 0.0, "bike_id": "5cb68f3fda301a234e9539cabfb45092"}, {"rental_uris": {"ios": "https://dc.lft.to/lastmile_qr_scan", "android": "https://dc.lft.to/lastmile_qr_scan"}, "fusion_lon": 0.0, "lon": -77.03213966666667, "lat": 38.892375333333334, "is_reserved": 0, "name": "a4f46c548eb024f6686d5b2d891859c4", "is_disabled": 0, "type": "electric_scooter", "fusion_lat": 0.0, "bike_id": "a4f46c548eb024f6686d5b2d891859c4"}, {"rental_uris": {"ios": "https://dc.lft.to/lastmile_qr_scan", "android": "https://dc.lft.to/lastmile_qr_scan"}, "fusion_lon": 0.0, "lon": -77.05019766666666, "lat": 38.9018905, "is_reserved": 0, "name": "2ce2bdf636b9d007284173936c8fd60f", "is_disabled": 0, "type": "electric_scooter", "fusion_lat": 0.0, "bike_id": "2ce2bdf636b9d007284173936c8fd60f"}, {"rental_uris": {"ios": "https://dc.lft.to/lastmile_qr_scan", "android": "https://dc.lft.to/lastmile_qr_scan"}, "fusion_lon": 0.0, "lon": -77.0365395, "lat": 38.90675266666667, "is_reserved": 0, "name": "f52880a4ab6f64f6016b20c51c8146f0", "is_disabled": 0, "type": "electric_scooter", "fusion_lat": 0.0, "bike_id": "f52880a4ab6f64f6016b20c51c8146f0"}, {"rental_uris": {"ios": "https://dc.lft.to/lastmile_qr_scan", "android": "https://dc.lft.to/lastmile_qr_scan"}, "fusion_lon": 0.0, "lon": -76.941563, "lat": 38.901785333333336, "is_reserved": 0, "name": "4216def8a07d6f0388848873a0ea232e", "is_disabled": 0, "type": "electric_scooter", "fusion_lat": 0.0, "bike_id": "4216def8a07d6f0388848873a0ea232e"}, {"rental_uris": {"ios": "https://dc.lft.to/lastmile_qr_scan", "android": "https://dc.lft.to/lastmile_qr_scan"}, "fusion_lon": 0.0, "lon": -77.00762133333333, "lat": 38.92677316666666, "is_reserved": 0, "name": "3b54b6c02e8e1eff0b50f19741085e77", "is_disabled": 0, "type": "electric_scooter", "fusion_lat": 0.0, "bike_id": "3b54b6c02e8e1eff0b50f19741085e77"}, {"rental_uris": {"ios": "https://dc.lft.to/lastmile_qr_scan", "android": "https://dc.lft.to/lastmile_qr_scan"}, "fusion_lon": 0.0, "lon": -77.06251266666666, "lat": 38.9022595, "is_reserved": 0, "name": "be08d3dfb4112619cb8974b54d46a962", "is_disabled": 0, "type": "electric_scooter", "fusion_lat": 0.0, "bike_id": "be08d3dfb4112619cb8974b54d46a962"}, {"rental_uris": {"ios": "https://dc.lft.to/lastmile_qr_scan", "android": "https://dc.lft.to/lastmile_qr_scan"}, "fusion_lon": 0.0, "lon": -77.03379916666667, "lat": 38.90958933333334, "is_reserved": 0, "name": "1c349d6dec300ec29c5a7503e06f34c9", "is_disabled": 0, "type": "electric_scooter", "fusion_lat": 0.0, "bike_id": "1c349d6dec300ec29c5a7503e06f34c9"}, {"rental_uris": {"ios": "https://dc.lft.to/lastmile_qr_scan", "android": "https://dc.lft.to/lastmile_qr_scan"}, "fusion_lon": 0.0, "lon": -77.024535, "lat": 38.9319795, "is_reserved": 0, "name": "143d52fc08191ea753ab902e95fd6722", "is_disabled": 0, "type": "electric_scooter", "fusion_lat": 0.0, "bike_id": "143d52fc08191ea753ab902e95fd6722"}, {"rental_uris": {"ios": "https://dc.lft.to/lastmile_qr_scan", "android": "https://dc.lft.to/lastmile_qr_scan"}, "fusion_lon": 0.0, "lon": -77.01300383333333, "lat": 38.92983783333333, "is_reserved": 0, "name": "adb31290cfa9da2588f7375a0507965f", "is_disabled": 0, "type": "electric_scooter", "fusion_lat": 0.0, "bike_id": "adb31290cfa9da2588f7375a0507965f"}, {"rental_uris": {"ios": "https://dc.lft.to/lastmile_qr_scan", "android": "https://dc.lft.to/lastmile_qr_scan"}, "fusion_lon": 0.0, "lon": -77.01677466666666, "lat": 38.9204205, "is_reserved": 0, "name": "6053618fe29140f7016ab517bb09e609", "is_disabled": 0, "type": "electric_scooter", "fusion_lat": 0.0, "bike_id": "6053618fe29140f7016ab517bb09e609"}, {"rental_uris": {"ios": "https://dc.lft.to/lastmile_qr_scan", "android": "https://dc.lft.to/lastmile_qr_scan"}, "fusion_lon": 0.0, "lon": -77.020867, "lat": 38.92155666666667, "is_reserved": 0, "name": "25741ef6ff19616b3202c40926d6e598", "is_disabled": 0, "type": "electric_scooter", "fusion_lat": 0.0, "bike_id": "25741ef6ff19616b3202c40926d6e598"}, {"rental_uris": {"ios": "https://dc.lft.to/lastmile_qr_scan", "android": "https://dc.lft.to/lastmile_qr_scan"}, "fusion_lon": 0.0, "lon": -77.0028195, "lat": 38.911692, "is_reserved": 0, "name": "6fdf9e79083b1172918ee2076ea03795", "is_disabled": 0, "type": "electric_bike", "fusion_lat": 0.0, "bike_id": "6fdf9e79083b1172918ee2076ea03795"}, {"rental_uris": {"ios": "https://dc.lft.to/lastmile_qr_scan", "android": "https://dc.lft.to/lastmile_qr_scan"}, "fusion_lon": 0.0, "lon": -77.04177466666667, "lat": 38.9053685, "is_reserved": 0, "name": "146fe19a0ae3d036bbea95fe89c89a8f", "is_disabled": 0, "type": "electric_scooter", "fusion_lat": 0.0, "bike_id": "146fe19a0ae3d036bbea95fe89c89a8f"}, {"rental_uris": {"ios": "https://dc.lft.to/lastmile_qr_scan", "android": "https://dc.lft.to/lastmile_qr_scan"}, "fusion_lon": 0.0, "lon": -76.9970645, "lat": 38.838652, "is_reserved": 0, "name": "77c090f3fb4bda38728718cdafdd32c7", "is_disabled": 0, "type": "electric_bike", "fusion_lat": 0.0, "bike_id": "77c090f3fb4bda38728718cdafdd32c7"}, {"rental_uris": {"ios": "https://dc.lft.to/lastmile_qr_scan", "android": "https://dc.lft.to/lastmile_qr_scan"}, "fusion_lon": 0.0, "lon": -77.0271235, "lat": 38.9246625, "is_reserved": 0, "name": "0c1e5f65c5b374967742f088cd674e78", "is_disabled": 0, "type": "electric_scooter", "fusion_lat": 0.0, "bike_id": "0c1e5f65c5b374967742f088cd674e78"}, {"rental_uris": {"ios": "https://dc.lft.to/lastmile_qr_scan", "android": "https://dc.lft.to/lastmile_qr_scan"}, "fusion_lon": 0.0, "lon": -76.97934416666666, "lat": 38.90682816666666, "is_reserved": 0, "name": "aef0254ea5bf76c3487ac6570c8fd32f", "is_disabled": 0, "type": "electric_scooter", "fusion_lat": 0.0, "bike_id": "aef0254ea5bf76c3487ac6570c8fd32f"}, {"rental_uris": {"ios": "https://dc.lft.to/lastmile_qr_scan", "android": "https://dc.lft.to/lastmile_qr_scan"}, "fusion_lon": 0.0, "lon": -77.038171, "lat": 38.924725333333335, "is_reserved": 0, "name": "286f13ce34bd1c6a9a92d4a3bb0ca237", "is_disabled": 0, "type": "electric_scooter", "fusion_lat": 0.0, "bike_id": "286f13ce34bd1c6a9a92d4a3bb0ca237"}, {"rental_uris": {"ios": "https://dc.lft.to/lastmile_qr_scan", "android": "https://dc.lft.to/lastmile_qr_scan"}, "fusion_lon": 0.0, "lon": -77.03277033333333, "lat": 38.93110016666667, "is_reserved": 0, "name": "00ece29a607ed27903cefe3ca6491b73", "is_disabled": 0, "type": "electric_scooter", "fusion_lat": 0.0, "bike_id": "00ece29a607ed27903cefe3ca6491b73"}, {"rental_uris": {"ios": "https://dc.lft.to/lastmile_qr_scan", "android": "https://dc.lft.to/lastmile_qr_scan"}, "fusion_lon": 0.0, "lon": -76.931789, "lat": 38.902172666666665, "is_reserved": 0, "name": "db3b0307d37397237f9815fe946c8f59", "is_disabled": 0, "type": "electric_bike", "fusion_lat": 0.0, "bike_id": "db3b0307d37397237f9815fe946c8f59"}, {"rental_uris": {"ios": "https://dc.lft.to/lastmile_qr_scan", "android": "https://dc.lft.to/lastmile_qr_scan"}, "fusion_lon": 0.0, "lon": -77.00924983333333, "lat": 38.897311, "is_reserved": 0, "name": "10744d12204451d1c7023c8113b8fd9a", "is_disabled": 0, "type": "electric_scooter", "fusion_lat": 0.0, "bike_id": "10744d12204451d1c7023c8113b8fd9a"}, {"rental_uris": {"ios": "https://dc.lft.to/lastmile_qr_scan", "android": "https://dc.lft.to/lastmile_qr_scan"}, "fusion_lon": 0.0, "lon": -77.03184916666666, "lat": 38.9181695, "is_reserved": 0, "name": "f45fd76118a8882d67d612da9e40345d", "is_disabled": 0, "type": "electric_scooter", "fusion_lat": 0.0, "bike_id": "f45fd76118a8882d67d612da9e40345d"}, {"rental_uris": {"ios": "https://dc.lft.to/lastmile_qr_scan", "android": "https://dc.lft.to/lastmile_qr_scan"}, "fusion_lon": 0.0, "lon": -77.00584416666666, "lat": 38.907136333333334, "is_reserved": 0, "name": "3a65635bf5e1547993d1984029e2a119", "is_disabled": 0, "type": "electric_scooter", "fusion_lat": 0.0, "bike_id": "3a65635bf5e1547993d1984029e2a119"}, {"rental_uris": {"ios": "https://dc.lft.to/lastmile_qr_scan", "android": "https://dc.lft.to/lastmile_qr_scan"}, "fusion_lon": 0.0, "lon": -77.03891666666667, "lat": 38.922143166666665, "is_reserved": 0, "name": "345c24dc19ca850c460a5fabaf980810", "is_disabled": 0, "type": "electric_scooter", "fusion_lat": 0.0, "bike_id": "345c24dc19ca850c460a5fabaf980810"}, {"rental_uris": {"ios": "https://dc.lft.to/lastmile_qr_scan", "android": "https://dc.lft.to/lastmile_qr_scan"}, "fusion_lon": 0.0, "lon": -77.034782, "lat": 38.92343833333334, "is_reserved": 0, "name": "279ce0b640fe40e330b20ffe408af7d7", "is_disabled": 0, "type": "electric_scooter", "fusion_lat": 0.0, "bike_id": "279ce0b640fe40e330b20ffe408af7d7"}, {"rental_uris": {"ios": "https://dc.lft.to/lastmile_qr_scan", "android": "https://dc.lft.to/lastmile_qr_scan"}, "fusion_lon": 0.0, "lon": -77.02316916666666, "lat": 38.91792366666667, "is_reserved": 0, "name": "4ea30a9ff6373fc80f08da4b997456be", "is_disabled": 0, "type": "electric_scooter", "fusion_lat": 0.0, "bike_id": "4ea30a9ff6373fc80f08da4b997456be"}, {"rental_uris": {"ios": "https://dc.lft.to/lastmile_qr_scan", "android": "https://dc.lft.to/lastmile_qr_scan"}, "fusion_lon": 0.0, "lon": -76.93531166666666, "lat": 38.878949, "is_reserved": 0, "name": "b497755bf0819c2461760b4e1b0131b7", "is_disabled": 0, "type": "electric_scooter", "fusion_lat": 0.0, "bike_id": "b497755bf0819c2461760b4e1b0131b7"}, {"rental_uris": {"ios": "https://dc.lft.to/lastmile_qr_scan", "android": "https://dc.lft.to/lastmile_qr_scan"}, "fusion_lon": 0.0, "lon": -77.04226233333333, "lat": 38.9214895, "is_reserved": 0, "name": "269ca090cc15c1fe4d822f85303995e2", "is_disabled": 0, "type": "electric_scooter", "fusion_lat": 0.0, "bike_id": "269ca090cc15c1fe4d822f85303995e2"}, {"rental_uris": {"ios": "https://dc.lft.to/lastmile_qr_scan", "android": "https://dc.lft.to/lastmile_qr_scan"}, "fusion_lon": 0.0, "lon": -76.989174, "lat": 38.858154166666665, "is_reserved": 0, "name": "8011493819d68a8232b68b38c466135a", "is_disabled": 0, "type": "electric_scooter", "fusion_lat": 0.0, "bike_id": "8011493819d68a8232b68b38c466135a"}, {"rental_uris": {"ios": "https://dc.lft.to/lastmile_qr_scan", "android": "https://dc.lft.to/lastmile_qr_scan"}, "fusion_lon": 0.0, "lon": -76.96985766666667, "lat": 38.8648975, "is_reserved": 0, "name": "ab37c149ea9a3b03eae0e42284264e5b", "is_disabled": 0, "type": "electric_bike", "fusion_lat": 0.0, "bike_id": "ab37c149ea9a3b03eae0e42284264e5b"}, {"rental_uris": {"ios": "https://dc.lft.to/lastmile_qr_scan", "android": "https://dc.lft.to/lastmile_qr_scan"}, "fusion_lon": 0.0, "lon": -77.00805683333333, "lat": 38.87584416666667, "is_reserved": 0, "name": "89783ebeaf99ba95a5d1d4654c68330e", "is_disabled": 0, "type": "electric_bike", "fusion_lat": 0.0, "bike_id": "89783ebeaf99ba95a5d1d4654c68330e"}, {"rental_uris": {"ios": "https://dc.lft.to/lastmile_qr_scan", "android": "https://dc.lft.to/lastmile_qr_scan"}, "fusion_lon": 0.0, "lon": -77.116907, "lat": 38.88541016666667, "is_reserved": 0, "name": "315f3b13c8d0bdcec85d07be226e9fb0", "is_disabled": 0, "type": "electric_bike", "fusion_lat": 0.0, "bike_id": "315f3b13c8d0bdcec85d07be226e9fb0"}, {"rental_uris": {"ios": "https://dc.lft.to/lastmile_qr_scan", "android": "https://dc.lft.to/lastmile_qr_scan"}, "fusion_lon": 0.0, "lon": -77.040487, "lat": 38.89617666666667, "is_reserved": 0, "name": "805b4597115bc9e0e0c500f0845c89e3", "is_disabled": 0, "type": "electric_scooter", "fusion_lat": 0.0, "bike_id": "805b4597115bc9e0e0c500f0845c89e3"}, {"rental_uris": {"ios": "https://dc.lft.to/lastmile_qr_scan", "android": "https://dc.lft.to/lastmile_qr_scan"}, "fusion_lon": 0.0, "lon": -77.03740766666667, "lat": 38.925705, "is_reserved": 0, "name": "7d729bed502ea75e1cf41fccaaa4810a", "is_disabled": 0, "type": "electric_scooter", "fusion_lat": 0.0, "bike_id": "7d729bed502ea75e1cf41fccaaa4810a"}, {"rental_uris": {"ios": "https://dc.lft.to/lastmile_qr_scan", "android": "https://dc.lft.to/lastmile_qr_scan"}, "fusion_lon": 0.0, "lon": -77.01903083333333, "lat": 38.923425, "is_reserved": 0, "name": "f6d913811a6c1037862d5604f35dc3a8", "is_disabled": 0, "type": "electric_scooter", "fusion_lat": 0.0, "bike_id": "f6d913811a6c1037862d5604f35dc3a8"}, {"rental_uris": {"ios": "https://dc.lft.to/lastmile_qr_scan", "android": "https://dc.lft.to/lastmile_qr_scan"}, "fusion_lon": 0.0, "lon": -77.02982416666667, "lat": 38.92555216666667, "is_reserved": 0, "name": "cc81cffcd5231dad7fd1544bb4270e73", "is_disabled": 0, "type": "electric_scooter", "fusion_lat": 0.0, "bike_id": "cc81cffcd5231dad7fd1544bb4270e73"}, {"rental_uris": {"ios": "https://dc.lft.to/lastmile_qr_scan", "android": "https://dc.lft.to/lastmile_qr_scan"}, "fusion_lon": 0.0, "lon": -77.02960766666666, "lat": 38.919064166666665, "is_reserved": 0, "name": "296a4cc21bcbd63f5c5bab97e6c14ebe", "is_disabled": 0, "type": "electric_scooter", "fusion_lat": 0.0, "bike_id": "296a4cc21bcbd63f5c5bab97e6c14ebe"}, {"rental_uris": {"ios": "https://dc.lft.to/lastmile_qr_scan", "android": "https://dc.lft.to/lastmile_qr_scan"}, "fusion_lon": 0.0, "lon": -77.03220616666667, "lat": 38.89240066666667, "is_reserved": 0, "name": "4536c2082e345f036d10e1baec523e69", "is_disabled": 0, "type": "electric_scooter", "fusion_lat": 0.0, "bike_id": "4536c2082e345f036d10e1baec523e69"}, {"rental_uris": {"ios": "https://dc.lft.to/lastmile_qr_scan", "android": "https://dc.lft.to/lastmile_qr_scan"}, "fusion_lon": 0.0, "lon": -76.98858033333333, "lat": 38.84033, "is_reserved": 0, "name": "93223364961648635c4ba74c9e321c52", "is_disabled": 0, "type": "electric_bike", "fusion_lat": 0.0, "bike_id": "93223364961648635c4ba74c9e321c52"}, {"rental_uris": {"ios": "https://dc.lft.to/lastmile_qr_scan", "android": "https://dc.lft.to/lastmile_qr_scan"}, "fusion_lon": 0.0, "lon": -77.00295783333334, "lat": 38.89198016666667, "is_reserved": 0, "name": "890e3b60f05ba8668a8ea159d0d62156", "is_disabled": 0, "type": "electric_scooter", "fusion_lat": 0.0, "bike_id": "890e3b60f05ba8668a8ea159d0d62156"}, {"rental_uris": {"ios": "https://dc.lft.to/lastmile_qr_scan", "android": "https://dc.lft.to/lastmile_qr_scan"}, "fusion_lon": 0.0, "lon": -77.03678983333333, "lat": 38.9156395, "is_reserved": 0, "name": "c1cc23eba4662a1329432a3fbb509650", "is_disabled": 0, "type": "electric_scooter", "fusion_lat": 0.0, "bike_id": "c1cc23eba4662a1329432a3fbb509650"}, {"rental_uris": {"ios": "https://dc.lft.to/lastmile_qr_scan", "android": "https://dc.lft.to/lastmile_qr_scan"}, "fusion_lon": 0.0, "lon": -77.025179, "lat": 38.901806666666666, "is_reserved": 0, "name": "b1a10f1c28058b79870ea401e92750fd", "is_disabled": 0, "type": "electric_scooter", "fusion_lat": 0.0, "bike_id": "b1a10f1c28058b79870ea401e92750fd"}, {"rental_uris": {"ios": "https://dc.lft.to/lastmile_qr_scan", "android": "https://dc.lft.to/lastmile_qr_scan"}, "fusion_lon": 0.0, "lon": -77.00961366666667, "lat": 38.876598666666666, "is_reserved": 0, "name": "680410fb4eb92419275eca8152cdf94f", "is_disabled": 0, "type": "electric_scooter", "fusion_lat": 0.0, "bike_id": "680410fb4eb92419275eca8152cdf94f"}, {"rental_uris": {"ios": "https://dc.lft.to/lastmile_qr_scan", "android": "https://dc.lft.to/lastmile_qr_scan"}, "fusion_lon": 0.0, "lon": -77.04686533333333, "lat": 38.892235, "is_reserved": 0, "name": "31219c5d6bcf127892016bfc6a41393d", "is_disabled": 0, "type": "electric_scooter", "fusion_lat": 0.0, "bike_id": "31219c5d6bcf127892016bfc6a41393d"}, {"rental_uris": {"ios": "https://dc.lft.to/lastmile_qr_scan", "android": "https://dc.lft.to/lastmile_qr_scan"}, "fusion_lon": 0.0, "lon": -77.029756, "lat": 38.925184, "is_reserved": 0, "name": "6aae7ceb9d90588e9b16af953ba3d1dd", "is_disabled": 0, "type": "electric_scooter", "fusion_lat": 0.0, "bike_id": "6aae7ceb9d90588e9b16af953ba3d1dd"}, {"rental_uris": {"ios": "https://dc.lft.to/lastmile_qr_scan", "android": "https://dc.lft.to/lastmile_qr_scan"}, "fusion_lon": 0.0, "lon": -77.04056616666666, "lat": 38.901285333333334, "is_reserved": 0, "name": "eb0f071d641b872fadf012fb056cb1ab", "is_disabled": 0, "type": "electric_scooter", "fusion_lat": 0.0, "bike_id": "eb0f071d641b872fadf012fb056cb1ab"}, {"rental_uris": {"ios": "https://dc.lft.to/lastmile_qr_scan", "android": "https://dc.lft.to/lastmile_qr_scan"}, "fusion_lon": 0.0, "lon": -77.09902066666666, "lat": 38.9618595, "is_reserved": 0, "name": "a73a001a6345d0dd3fdf8aef7ad2e516", "is_disabled": 0, "type": "electric_bike", "fusion_lat": 0.0, "bike_id": "a73a001a6345d0dd3fdf8aef7ad2e516"}, {"rental_uris": {"ios": "https://dc.lft.to/lastmile_qr_scan", "android": "https://dc.lft.to/lastmile_qr_scan"}, "fusion_lon": 0.0, "lon": -77.02966633333334, "lat": 38.905877, "is_reserved": 0, "name": "97b1f5a3ea374c2d021d6508d1479c82", "is_disabled": 0, "type": "electric_scooter", "fusion_lat": 0.0, "bike_id": "97b1f5a3ea374c2d021d6508d1479c82"}, {"rental_uris": {"ios": "https://dc.lft.to/lastmile_qr_scan", "android": "https://dc.lft.to/lastmile_qr_scan"}, "fusion_lon": 0.0, "lon": -77.04215566666667, "lat": 38.91115666666666, "is_reserved": 0, "name": "b21cd8b69a939b7b5eb918a9adf1fe05", "is_disabled": 0, "type": "electric_scooter", "fusion_lat": 0.0, "bike_id": "b21cd8b69a939b7b5eb918a9adf1fe05"}, {"rental_uris": {"ios": "https://dc.lft.to/lastmile_qr_scan", "android": "https://dc.lft.to/lastmile_qr_scan"}, "fusion_lon": 0.0, "lon": -77.02272916666666, "lat": 38.8872995, "is_reserved": 0, "name": "8f206bc1cc48b4724d82172b2d5dc71a", "is_disabled": 0, "type": "electric_scooter", "fusion_lat": 0.0, "bike_id": "8f206bc1cc48b4724d82172b2d5dc71a"}, {"rental_uris": {"ios": "https://dc.lft.to/lastmile_qr_scan", "android": "https://dc.lft.to/lastmile_qr_scan"}, "fusion_lon": 0.0, "lon": -77.05108733333333, "lat": 38.915485333333336, "is_reserved": 0, "name": "690317ee01dfa74295c38dbaa760e33a", "is_disabled": 0, "type": "electric_scooter", "fusion_lat": 0.0, "bike_id": "690317ee01dfa74295c38dbaa760e33a"}, {"rental_uris": {"ios": "https://dc.lft.to/lastmile_qr_scan", "android": "https://dc.lft.to/lastmile_qr_scan"}, "fusion_lon": 0.0, "lon": -77.010014, "lat": 38.910406, "is_reserved": 0, "name": "12de4f92bc5daff14550bd9dd1d6b5c5", "is_disabled": 0, "type": "electric_scooter", "fusion_lat": 0.0, "bike_id": "12de4f92bc5daff14550bd9dd1d6b5c5"}, {"rental_uris": {"ios": "https://dc.lft.to/lastmile_qr_scan", "android": "https://dc.lft.to/lastmile_qr_scan"}, "fusion_lon": 0.0, "lon": -77.13934816666666, "lat": 38.84677883333333, "is_reserved": 0, "name": "314bc3dc75b07555f3f174927af5c6c8", "is_disabled": 0, "type": "electric_bike", "fusion_lat": 0.0, "bike_id": "314bc3dc75b07555f3f174927af5c6c8"}, {"rental_uris": {"ios": "https://dc.lft.to/lastmile_qr_scan", "android": "https://dc.lft.to/lastmile_qr_scan"}, "fusion_lon": 0.0, "lon": -77.03443216666666, "lat": 38.919078666666664, "is_reserved": 0, "name": "f8fbb3ca06ee4580752265af37e0a6da", "is_disabled": 0, "type": "electric_scooter", "fusion_lat": 0.0, "bike_id": "f8fbb3ca06ee4580752265af37e0a6da"}, {"rental_uris": {"ios": "https://dc.lft.to/lastmile_qr_scan", "android": "https://dc.lft.to/lastmile_qr_scan"}, "fusion_lon": 0.0, "lon": -77.02265916666667, "lat": 38.924852666666666, "is_reserved": 0, "name": "315da7b80159fad4b68163fe9096e334", "is_disabled": 0, "type": "electric_scooter", "fusion_lat": 0.0, "bike_id": "315da7b80159fad4b68163fe9096e334"}, {"rental_uris": {"ios": "https://dc.lft.to/lastmile_qr_scan", "android": "https://dc.lft.to/lastmile_qr_scan"}, "fusion_lon": 0.0, "lon": -77.0223095, "lat": 38.9141635, "is_reserved": 0, "name": "6357b886a624b44a934016f6f9d32c3c", "is_disabled": 0, "type": "electric_scooter", "fusion_lat": 0.0, "bike_id": "6357b886a624b44a934016f6f9d32c3c"}, {"rental_uris": {"ios": "https://dc.lft.to/lastmile_qr_scan", "android": "https://dc.lft.to/lastmile_qr_scan"}, "fusion_lon": 0.0, "lon": -77.02620133333333, "lat": 38.892218, "is_reserved": 0, "name": "195cecd544b6a16ba371bc63465f5f44", "is_disabled": 0, "type": "electric_scooter", "fusion_lat": 0.0, "bike_id": "195cecd544b6a16ba371bc63465f5f44"}, {"rental_uris": {"ios": "https://dc.lft.to/lastmile_qr_scan", "android": "https://dc.lft.to/lastmile_qr_scan"}, "fusion_lon": 0.0, "lon": -77.054196, "lat": 38.928391833333336, "is_reserved": 0, "name": "6b60cef4d9d3d6725560f71f483d182d", "is_disabled": 0, "type": "electric_scooter", "fusion_lat": 0.0, "bike_id": "6b60cef4d9d3d6725560f71f483d182d"}, {"rental_uris": {"ios": "https://dc.lft.to/lastmile_qr_scan", "android": "https://dc.lft.to/lastmile_qr_scan"}, "fusion_lon": 0.0, "lon": -76.98035416666667, "lat": 38.889653, "is_reserved": 0, "name": "d09306a7bb68719afb6ed2b9c571c0dc", "is_disabled": 0, "type": "electric_scooter", "fusion_lat": 0.0, "bike_id": "d09306a7bb68719afb6ed2b9c571c0dc"}, {"rental_uris": {"ios": "https://dc.lft.to/lastmile_qr_scan", "android": "https://dc.lft.to/lastmile_qr_scan"}, "fusion_lon": 0.0, "lon": -77.02177033333334, "lat": 38.898682, "is_reserved": 0, "name": "500fe544ab19bbc4fd1dffb0936709be", "is_disabled": 0, "type": "electric_scooter", "fusion_lat": 0.0, "bike_id": "500fe544ab19bbc4fd1dffb0936709be"}, {"rental_uris": {"ios": "https://dc.lft.to/lastmile_qr_scan", "android": "https://dc.lft.to/lastmile_qr_scan"}, "fusion_lon": 0.0, "lon": -76.9452505, "lat": 38.86283566666667, "is_reserved": 0, "name": "f8fd102be84cfd116cb31795226f518a", "is_disabled": 0, "type": "electric_bike", "fusion_lat": 0.0, "bike_id": "f8fd102be84cfd116cb31795226f518a"}, {"rental_uris": {"ios": "https://dc.lft.to/lastmile_qr_scan", "android": "https://dc.lft.to/lastmile_qr_scan"}, "fusion_lon": 0.0, "lon": -77.02313766666667, "lat": 38.91909866666666, "is_reserved": 0, "name": "19e9d146588e1bd71f80005284ef185a", "is_disabled": 0, "type": "electric_scooter", "fusion_lat": 0.0, "bike_id": "19e9d146588e1bd71f80005284ef185a"}, {"rental_uris": {"ios": "https://dc.lft.to/lastmile_qr_scan", "android": "https://dc.lft.to/lastmile_qr_scan"}, "fusion_lon": 0.0, "lon": -77.0305175, "lat": 38.91268866666667, "is_reserved": 0, "name": "f8ab39abe5c8c2b7c1af11f4f4e5aba2", "is_disabled": 0, "type": "electric_scooter", "fusion_lat": 0.0, "bike_id": "f8ab39abe5c8c2b7c1af11f4f4e5aba2"}, {"rental_uris": {"ios": "https://dc.lft.to/lastmile_qr_scan", "android": "https://dc.lft.to/lastmile_qr_scan"}, "fusion_lon": 0.0, "lon": -76.99146283333333, "lat": 38.9005805, "is_reserved": 0, "name": "df95e3ffe1b607c41f06e68f2d91961c", "is_disabled": 0, "type": "electric_scooter", "fusion_lat": 0.0, "bike_id": "df95e3ffe1b607c41f06e68f2d91961c"}, {"rental_uris": {"ios": "https://dc.lft.to/lastmile_qr_scan", "android": "https://dc.lft.to/lastmile_qr_scan"}, "fusion_lon": 0.0, "lon": -77.02697566666667, "lat": 38.8961405, "is_reserved": 0, "name": "ff737649a9e27338b14c482055ad5b06", "is_disabled": 0, "type": "electric_scooter", "fusion_lat": 0.0, "bike_id": "ff737649a9e27338b14c482055ad5b06"}, {"rental_uris": {"ios": "https://dc.lft.to/lastmile_qr_scan", "android": "https://dc.lft.to/lastmile_qr_scan"}, "fusion_lon": 0.0, "lon": -76.9849, "lat": 38.90993116666667, "is_reserved": 0, "name": "2a8f511d267bcd2e804ae8033a3378bf", "is_disabled": 0, "type": "electric_scooter", "fusion_lat": 0.0, "bike_id": "2a8f511d267bcd2e804ae8033a3378bf"}, {"rental_uris": {"ios": "https://dc.lft.to/lastmile_qr_scan", "android": "https://dc.lft.to/lastmile_qr_scan"}, "fusion_lon": 0.0, "lon": -77.03066416666667, "lat": 38.9398785, "is_reserved": 0, "name": "f8a62a45082f1de9f9d55b20cdd185c2", "is_disabled": 0, "type": "electric_scooter", "fusion_lat": 0.0, "bike_id": "f8a62a45082f1de9f9d55b20cdd185c2"}, {"rental_uris": {"ios": "https://dc.lft.to/lastmile_qr_scan", "android": "https://dc.lft.to/lastmile_qr_scan"}, "fusion_lon": 0.0, "lon": -76.97280533333333, "lat": 38.855926833333335, "is_reserved": 0, "name": "c2d6a3a2e35ab0de8da18837b86ef95c", "is_disabled": 0, "type": "electric_bike", "fusion_lat": 0.0, "bike_id": "c2d6a3a2e35ab0de8da18837b86ef95c"}, {"rental_uris": {"ios": "https://dc.lft.to/lastmile_qr_scan", "android": "https://dc.lft.to/lastmile_qr_scan"}, "fusion_lon": 0.0, "lon": -77.11525966666666, "lat": 39.07469483333333, "is_reserved": 0, "name": "946036bb971d8ae129cccbbcca06e8b0", "is_disabled": 0, "type": "electric_bike", "fusion_lat": 0.0, "bike_id": "946036bb971d8ae129cccbbcca06e8b0"}, {"rental_uris": {"ios": "https://dc.lft.to/lastmile_qr_scan", "android": "https://dc.lft.to/lastmile_qr_scan"}, "fusion_lon": 0.0, "lon": -77.0316065, "lat": 38.9169945, "is_reserved": 0, "name": "76923dce59376169a715bc5902786bba", "is_disabled": 0, "type": "electric_scooter", "fusion_lat": 0.0, "bike_id": "76923dce59376169a715bc5902786bba"}, {"rental_uris": {"ios": "https://dc.lft.to/lastmile_qr_scan", "android": "https://dc.lft.to/lastmile_qr_scan"}, "fusion_lon": 0.0, "lon": -77.02360566666667, "lat": 38.94743866666666, "is_reserved": 0, "name": "29b95f8e972e14e1b7d6d943f96c9a57", "is_disabled": 0, "type": "electric_scooter", "fusion_lat": 0.0, "bike_id": "29b95f8e972e14e1b7d6d943f96c9a57"}, {"rental_uris": {"ios": "https://dc.lft.to/lastmile_qr_scan", "android": "https://dc.lft.to/lastmile_qr_scan"}, "fusion_lon": 0.0, "lon": -77.021992, "lat": 38.901985333333336, "is_reserved": 0, "name": "502b5b8926b43722687891264a90594a", "is_disabled": 0, "type": "electric_scooter", "fusion_lat": 0.0, "bike_id": "502b5b8926b43722687891264a90594a"}, {"rental_uris": {"ios": "https://dc.lft.to/lastmile_qr_scan", "android": "https://dc.lft.to/lastmile_qr_scan"}, "fusion_lon": 0.0, "lon": -77.04655816666667, "lat": 38.89247666666667, "is_reserved": 0, "name": "a35269cd28cfc4a71d06753baf337d9a", "is_disabled": 0, "type": "electric_scooter", "fusion_lat": 0.0, "bike_id": "a35269cd28cfc4a71d06753baf337d9a"}, {"rental_uris": {"ios": "https://dc.lft.to/lastmile_qr_scan", "android": "https://dc.lft.to/lastmile_qr_scan"}, "fusion_lon": 0.0, "lon": -77.02885, "lat": 38.901399833333336, "is_reserved": 0, "name": "93037350c67cbc74f0e0d3e7e9702c0b", "is_disabled": 0, "type": "electric_scooter", "fusion_lat": 0.0, "bike_id": "93037350c67cbc74f0e0d3e7e9702c0b"}, {"rental_uris": {"ios": "https://dc.lft.to/lastmile_qr_scan", "android": "https://dc.lft.to/lastmile_qr_scan"}, "fusion_lon": 0.0, "lon": -77.026905, "lat": 38.89657716666667, "is_reserved": 0, "name": "fbfb8f83670cf5eae43bf07a9b90bfe1", "is_disabled": 0, "type": "electric_scooter", "fusion_lat": 0.0, "bike_id": "fbfb8f83670cf5eae43bf07a9b90bfe1"}, {"rental_uris": {"ios": "https://dc.lft.to/lastmile_qr_scan", "android": "https://dc.lft.to/lastmile_qr_scan"}, "fusion_lon": 0.0, "lon": -77.03834266666667, "lat": 38.911204833333336, "is_reserved": 0, "name": "bb039f2e1f890cc585dc31fdb59b3ea2", "is_disabled": 0, "type": "electric_scooter", "fusion_lat": 0.0, "bike_id": "bb039f2e1f890cc585dc31fdb59b3ea2"}, {"rental_uris": {"ios": "https://dc.lft.to/lastmile_qr_scan", "android": "https://dc.lft.to/lastmile_qr_scan"}, "fusion_lon": 0.0, "lon": -77.0178145, "lat": 38.87741283333333, "is_reserved": 0, "name": "6375028471a4ccb6b9908c2f8bf3eb39", "is_disabled": 0, "type": "electric_scooter", "fusion_lat": 0.0, "bike_id": "6375028471a4ccb6b9908c2f8bf3eb39"}, {"rental_uris": {"ios": "https://dc.lft.to/lastmile_qr_scan", "android": "https://dc.lft.to/lastmile_qr_scan"}, "fusion_lon": 0.0, "lon": -77.01619983333333, "lat": 38.89963, "is_reserved": 0, "name": "5c279eef349dccfdea1eafe759a6a465", "is_disabled": 0, "type": "electric_scooter", "fusion_lat": 0.0, "bike_id": "5c279eef349dccfdea1eafe759a6a465"}, {"rental_uris": {"ios": "https://dc.lft.to/lastmile_qr_scan", "android": "https://dc.lft.to/lastmile_qr_scan"}, "fusion_lon": 0.0, "lon": -77.06263583333333, "lat": 38.80635066666667, "is_reserved": 0, "name": "5864d285242ca32b97c1d81ab8619c5e", "is_disabled": 0, "type": "electric_bike", "fusion_lat": 0.0, "bike_id": "5864d285242ca32b97c1d81ab8619c5e"}, {"rental_uris": {"ios": "https://dc.lft.to/lastmile_qr_scan", "android": "https://dc.lft.to/lastmile_qr_scan"}, "fusion_lon": 0.0, "lon": -77.0417945, "lat": 38.919897, "is_reserved": 0, "name": "aeb269790a597e7b9a230631205eeea6", "is_disabled": 0, "type": "electric_scooter", "fusion_lat": 0.0, "bike_id": "aeb269790a597e7b9a230631205eeea6"}, {"rental_uris": {"ios": "https://dc.lft.to/lastmile_qr_scan", "android": "https://dc.lft.to/lastmile_qr_scan"}, "fusion_lon": 0.0, "lon": -77.02784083333333, "lat": 38.8922145, "is_reserved": 0, "name": "b484bd574c0075d862ea8c443a213a51", "is_disabled": 0, "type": "electric_scooter", "fusion_lat": 0.0, "bike_id": "b484bd574c0075d862ea8c443a213a51"}, {"rental_uris": {"ios": "https://dc.lft.to/lastmile_qr_scan", "android": "https://dc.lft.to/lastmile_qr_scan"}, "fusion_lon": 0.0, "lon": -77.11760533333333, "lat": 38.8751775, "is_reserved": 0, "name": "11f67eea814a23ab417703906f0b7805", "is_disabled": 0, "type": "electric_bike", "fusion_lat": 0.0, "bike_id": "11f67eea814a23ab417703906f0b7805"}, {"rental_uris": {"ios": "https://dc.lft.to/lastmile_qr_scan", "android": "https://dc.lft.to/lastmile_qr_scan"}, "fusion_lon": 0.0, "lon": -77.00463616666667, "lat": 38.91149166666667, "is_reserved": 0, "name": "fd8202b9f7b59fe5ec380a7340f37286", "is_disabled": 0, "type": "electric_scooter", "fusion_lat": 0.0, "bike_id": "fd8202b9f7b59fe5ec380a7340f37286"}, {"rental_uris": {"ios": "https://dc.lft.to/lastmile_qr_scan", "android": "https://dc.lft.to/lastmile_qr_scan"}, "fusion_lon": 0.0, "lon": -77.0348245, "lat": 38.923433, "is_reserved": 0, "name": "1c82cf257bcbd9760bf918706835a0fa", "is_disabled": 0, "type": "electric_scooter", "fusion_lat": 0.0, "bike_id": "1c82cf257bcbd9760bf918706835a0fa"}, {"rental_uris": {"ios": "https://dc.lft.to/lastmile_qr_scan", "android": "https://dc.lft.to/lastmile_qr_scan"}, "fusion_lon": 0.0, "lon": -77.00736083333334, "lat": 38.90482, "is_reserved": 0, "name": "f387cdfe3a60888d200a08eb04be1dbe", "is_disabled": 0, "type": "electric_scooter", "fusion_lat": 0.0, "bike_id": "f387cdfe3a60888d200a08eb04be1dbe"}, {"rental_uris": {"ios": "https://dc.lft.to/lastmile_qr_scan", "android": "https://dc.lft.to/lastmile_qr_scan"}, "fusion_lon": 0.0, "lon": -77.05014883333334, "lat": 38.901462333333335, "is_reserved": 0, "name": "bfdf357ad87c2fcaeb706dcf7668af1f", "is_disabled": 0, "type": "electric_scooter", "fusion_lat": 0.0, "bike_id": "bfdf357ad87c2fcaeb706dcf7668af1f"}, {"rental_uris": {"ios": "https://dc.lft.to/lastmile_qr_scan", "android": "https://dc.lft.to/lastmile_qr_scan"}, "fusion_lon": 0.0, "lon": -76.9505725, "lat": 38.904731, "is_reserved": 0, "name": "b1c550e5e3f754059ca576a28f7e3945", "is_disabled": 0, "type": "electric_scooter", "fusion_lat": 0.0, "bike_id": "b1c550e5e3f754059ca576a28f7e3945"}, {"rental_uris": {"ios": "https://dc.lft.to/lastmile_qr_scan", "android": "https://dc.lft.to/lastmile_qr_scan"}, "fusion_lon": 0.0, "lon": -77.08749116666667, "lat": 38.985677833333334, "is_reserved": 0, "name": "13c073e829c1693450de3c46a33848f3", "is_disabled": 0, "type": "electric_bike", "fusion_lat": 0.0, "bike_id": "13c073e829c1693450de3c46a33848f3"}, {"rental_uris": {"ios": "https://dc.lft.to/lastmile_qr_scan", "android": "https://dc.lft.to/lastmile_qr_scan"}, "fusion_lon": 0.0, "lon": -76.99183016666667, "lat": 38.85528683333333, "is_reserved": 0, "name": "3c9c30af590a83cf8bad850da1b875a6", "is_disabled": 0, "type": "electric_scooter", "fusion_lat": 0.0, "bike_id": "3c9c30af590a83cf8bad850da1b875a6"}, {"rental_uris": {"ios": "https://dc.lft.to/lastmile_qr_scan", "android": "https://dc.lft.to/lastmile_qr_scan"}, "fusion_lon": 0.0, "lon": -77.02404083333333, "lat": 38.9176495, "is_reserved": 0, "name": "24f0664715c7e2a41f2ae18654751efa", "is_disabled": 0, "type": "electric_scooter", "fusion_lat": 0.0, "bike_id": "24f0664715c7e2a41f2ae18654751efa"}, {"rental_uris": {"ios": "https://dc.lft.to/lastmile_qr_scan", "android": "https://dc.lft.to/lastmile_qr_scan"}, "fusion_lon": 0.0, "lon": -77.04673716666667, "lat": 38.90776566666667, "is_reserved": 0, "name": "243d3ddc3c3d69bd5d73c1cd066829b0", "is_disabled": 0, "type": "electric_scooter", "fusion_lat": 0.0, "bike_id": "243d3ddc3c3d69bd5d73c1cd066829b0"}, {"rental_uris": {"ios": "https://dc.lft.to/lastmile_qr_scan", "android": "https://dc.lft.to/lastmile_qr_scan"}, "fusion_lon": 0.0, "lon": -77.03167116666667, "lat": 38.92075283333333, "is_reserved": 0, "name": "00f4701ee022916c74d64f66f3dbafd6", "is_disabled": 0, "type": "electric_scooter", "fusion_lat": 0.0, "bike_id": "00f4701ee022916c74d64f66f3dbafd6"}, {"rental_uris": {"ios": "https://dc.lft.to/lastmile_qr_scan", "android": "https://dc.lft.to/lastmile_qr_scan"}, "fusion_lon": 0.0, "lon": -77.01568983333334, "lat": 38.891793666666665, "is_reserved": 0, "name": "797a7597eb88f7eb4f10c65c9224dae3", "is_disabled": 0, "type": "electric_scooter", "fusion_lat": 0.0, "bike_id": "797a7597eb88f7eb4f10c65c9224dae3"}, {"rental_uris": {"ios": "https://dc.lft.to/lastmile_qr_scan", "android": "https://dc.lft.to/lastmile_qr_scan"}, "fusion_lon": 0.0, "lon": -76.99909383333333, "lat": 38.90032, "is_reserved": 0, "name": "8b9178ae6f8da3fb9aac12077f8703d3", "is_disabled": 0, "type": "electric_scooter", "fusion_lat": 0.0, "bike_id": "8b9178ae6f8da3fb9aac12077f8703d3"}, {"rental_uris": {"ios": "https://dc.lft.to/lastmile_qr_scan", "android": "https://dc.lft.to/lastmile_qr_scan"}, "fusion_lon": 0.0, "lon": -77.07016783333333, "lat": 38.9051195, "is_reserved": 0, "name": "af2bd1446f045679f1af7eb8718d49fe", "is_disabled": 0, "type": "electric_scooter", "fusion_lat": 0.0, "bike_id": "af2bd1446f045679f1af7eb8718d49fe"}, {"rental_uris": {"ios": "https://dc.lft.to/lastmile_qr_scan", "android": "https://dc.lft.to/lastmile_qr_scan"}, "fusion_lon": 0.0, "lon": -77.02464966666666, "lat": 38.90646916666667, "is_reserved": 0, "name": "15bd71c8e51eb533247f70c0df099ec1", "is_disabled": 0, "type": "electric_scooter", "fusion_lat": 0.0, "bike_id": "15bd71c8e51eb533247f70c0df099ec1"}, {"rental_uris": {"ios": "https://dc.lft.to/lastmile_qr_scan", "android": "https://dc.lft.to/lastmile_qr_scan"}, "fusion_lon": 0.0, "lon": -77.03873633333333, "lat": 38.93625183333333, "is_reserved": 0, "name": "58446311fb916660120cf75c5aac3786", "is_disabled": 0, "type": "electric_scooter", "fusion_lat": 0.0, "bike_id": "58446311fb916660120cf75c5aac3786"}, {"rental_uris": {"ios": "https://dc.lft.to/lastmile_qr_scan", "android": "https://dc.lft.to/lastmile_qr_scan"}, "fusion_lon": 0.0, "lon": -77.01773183333333, "lat": 38.898256, "is_reserved": 0, "name": "e7b4cacd9d3b816eee518c4d54022314", "is_disabled": 0, "type": "electric_scooter", "fusion_lat": 0.0, "bike_id": "e7b4cacd9d3b816eee518c4d54022314"}, {"rental_uris": {"ios": "https://dc.lft.to/lastmile_qr_scan", "android": "https://dc.lft.to/lastmile_qr_scan"}, "fusion_lon": 0.0, "lon": -76.99028733333333, "lat": 38.835851166666664, "is_reserved": 0, "name": "2f195f7ae7e03a365ba51a5be711c85f", "is_disabled": 0, "type": "electric_bike", "fusion_lat": 0.0, "bike_id": "2f195f7ae7e03a365ba51a5be711c85f"}, {"rental_uris": {"ios": "https://dc.lft.to/lastmile_qr_scan", "android": "https://dc.lft.to/lastmile_qr_scan"}, "fusion_lon": 0.0, "lon": -77.0418385, "lat": 38.90521733333333, "is_reserved": 0, "name": "93c5cecbf9e663f4fd0875768a88f2c9", "is_disabled": 0, "type": "electric_scooter", "fusion_lat": 0.0, "bike_id": "93c5cecbf9e663f4fd0875768a88f2c9"}, {"rental_uris": {"ios": "https://dc.lft.to/lastmile_qr_scan", "android": "https://dc.lft.to/lastmile_qr_scan"}, "fusion_lon": 0.0, "lon": -77.021321, "lat": 38.9241565, "is_reserved": 0, "name": "904c0d3a6630102e30519be9013785e7", "is_disabled": 0, "type": "electric_scooter", "fusion_lat": 0.0, "bike_id": "904c0d3a6630102e30519be9013785e7"}, {"rental_uris": {"ios": "https://dc.lft.to/lastmile_qr_scan", "android": "https://dc.lft.to/lastmile_qr_scan"}, "fusion_lon": 0.0, "lon": -77.0081345, "lat": 38.89888883333333, "is_reserved": 0, "name": "9721c854c19e62a889c0deda1aa93778", "is_disabled": 0, "type": "electric_scooter", "fusion_lat": 0.0, "bike_id": "9721c854c19e62a889c0deda1aa93778"}, {"rental_uris": {"ios": "https://dc.lft.to/lastmile_qr_scan", "android": "https://dc.lft.to/lastmile_qr_scan"}, "fusion_lon": 0.0, "lon": -77.10185216666666, "lat": 38.91906183333333, "is_reserved": 0, "name": "db06c831a73ac7fa2ba4f8bc76d862ee", "is_disabled": 0, "type": "electric_bike", "fusion_lat": 0.0, "bike_id": "db06c831a73ac7fa2ba4f8bc76d862ee"}, {"rental_uris": {"ios": "https://dc.lft.to/lastmile_qr_scan", "android": "https://dc.lft.to/lastmile_qr_scan"}, "fusion_lon": 0.0, "lon": -77.02228116666667, "lat": 38.924701, "is_reserved": 0, "name": "335639bfa4357be92b2b8545f869392a", "is_disabled": 0, "type": "electric_scooter", "fusion_lat": 0.0, "bike_id": "335639bfa4357be92b2b8545f869392a"}, {"rental_uris": {"ios": "https://dc.lft.to/lastmile_qr_scan", "android": "https://dc.lft.to/lastmile_qr_scan"}, "fusion_lon": 0.0, "lon": -77.03835483333333, "lat": 38.903011, "is_reserved": 0, "name": "f2fd6b4140485ee4e1e1d0a6abceb91e", "is_disabled": 0, "type": "electric_scooter", "fusion_lat": 0.0, "bike_id": "f2fd6b4140485ee4e1e1d0a6abceb91e"}, {"rental_uris": {"ios": "https://dc.lft.to/lastmile_qr_scan", "android": "https://dc.lft.to/lastmile_qr_scan"}, "fusion_lon": 0.0, "lon": -76.92550266666667, "lat": 38.89255816666667, "is_reserved": 0, "name": "8ac0f1006b0fe6ddd56b9cfcc64f4845", "is_disabled": 0, "type": "electric_scooter", "fusion_lat": 0.0, "bike_id": "8ac0f1006b0fe6ddd56b9cfcc64f4845"}, {"rental_uris": {"ios": "https://dc.lft.to/lastmile_qr_scan", "android": "https://dc.lft.to/lastmile_qr_scan"}, "fusion_lon": 0.0, "lon": -76.96088283333333, "lat": 38.918643333333335, "is_reserved": 0, "name": "69f7ba16965d12d611a5067ef6208438", "is_disabled": 0, "type": "electric_scooter", "fusion_lat": 0.0, "bike_id": "69f7ba16965d12d611a5067ef6208438"}, {"rental_uris": {"ios": "https://dc.lft.to/lastmile_qr_scan", "android": "https://dc.lft.to/lastmile_qr_scan"}, "fusion_lon": 0.0, "lon": -77.0176745, "lat": 38.877032, "is_reserved": 0, "name": "e903cb2a24bf7c210ae0b53a62521e97", "is_disabled": 0, "type": "electric_scooter", "fusion_lat": 0.0, "bike_id": "e903cb2a24bf7c210ae0b53a62521e97"}, {"rental_uris": {"ios": "https://dc.lft.to/lastmile_qr_scan", "android": "https://dc.lft.to/lastmile_qr_scan"}, "fusion_lon": 0.0, "lon": -77.0367035, "lat": 38.91831616666666, "is_reserved": 0, "name": "7b962cf33fd876305b85ba97cab6cca2", "is_disabled": 0, "type": "electric_scooter", "fusion_lat": 0.0, "bike_id": "7b962cf33fd876305b85ba97cab6cca2"}, {"rental_uris": {"ios": "https://dc.lft.to/lastmile_qr_scan", "android": "https://dc.lft.to/lastmile_qr_scan"}, "fusion_lon": 0.0, "lon": -77.00202883333333, "lat": 38.90238216666667, "is_reserved": 0, "name": "66a0b650d2ff822effb757d9cdce6fe8", "is_disabled": 0, "type": "electric_scooter", "fusion_lat": 0.0, "bike_id": "66a0b650d2ff822effb757d9cdce6fe8"}, {"rental_uris": {"ios": "https://dc.lft.to/lastmile_qr_scan", "android": "https://dc.lft.to/lastmile_qr_scan"}, "fusion_lon": 0.0, "lon": -77.01363366666666, "lat": 38.9192915, "is_reserved": 0, "name": "11424973e09089e07ab85d117cb0f2b2", "is_disabled": 0, "type": "electric_scooter", "fusion_lat": 0.0, "bike_id": "11424973e09089e07ab85d117cb0f2b2"}, {"rental_uris": {"ios": "https://dc.lft.to/lastmile_qr_scan", "android": "https://dc.lft.to/lastmile_qr_scan"}, "fusion_lon": 0.0, "lon": -76.96853033333333, "lat": 38.8468665, "is_reserved": 0, "name": "fbad8b87a398ab8e8a60dbd4532cf8d7", "is_disabled": 0, "type": "electric_scooter", "fusion_lat": 0.0, "bike_id": "fbad8b87a398ab8e8a60dbd4532cf8d7"}, {"rental_uris": {"ios": "https://dc.lft.to/lastmile_qr_scan", "android": "https://dc.lft.to/lastmile_qr_scan"}, "fusion_lon": 0.0, "lon": -77.02995366666667, "lat": 38.92245916666667, "is_reserved": 0, "name": "7e0849a39df11f88b6693a734ee4c613", "is_disabled": 0, "type": "electric_scooter", "fusion_lat": 0.0, "bike_id": "7e0849a39df11f88b6693a734ee4c613"}, {"rental_uris": {"ios": "https://dc.lft.to/lastmile_qr_scan", "android": "https://dc.lft.to/lastmile_qr_scan"}, "fusion_lon": 0.0, "lon": -77.00821433333333, "lat": 38.83047966666667, "is_reserved": 0, "name": "28b3492bad1e80612c3b1862f5bb5ea7", "is_disabled": 0, "type": "electric_bike", "fusion_lat": 0.0, "bike_id": "28b3492bad1e80612c3b1862f5bb5ea7"}, {"rental_uris": {"ios": "https://dc.lft.to/lastmile_qr_scan", "android": "https://dc.lft.to/lastmile_qr_scan"}, "fusion_lon": 0.0, "lon": -77.0338525, "lat": 38.9090095, "is_reserved": 0, "name": "7534c22688af9b46cb3f698fdc0befe5", "is_disabled": 0, "type": "electric_scooter", "fusion_lat": 0.0, "bike_id": "7534c22688af9b46cb3f698fdc0befe5"}, {"rental_uris": {"ios": "https://dc.lft.to/lastmile_qr_scan", "android": "https://dc.lft.to/lastmile_qr_scan"}, "fusion_lon": 0.0, "lon": -77.05028783333333, "lat": 38.8927665, "is_reserved": 0, "name": "852b7352b6be5c94efdd2ded601dac65", "is_disabled": 0, "type": "electric_scooter", "fusion_lat": 0.0, "bike_id": "852b7352b6be5c94efdd2ded601dac65"}, {"rental_uris": {"ios": "https://dc.lft.to/lastmile_qr_scan", "android": "https://dc.lft.to/lastmile_qr_scan"}, "fusion_lon": 0.0, "lon": -77.01136783333334, "lat": 38.909568, "is_reserved": 0, "name": "536177c784305b64887cd12289e6495e", "is_disabled": 0, "type": "electric_scooter", "fusion_lat": 0.0, "bike_id": "536177c784305b64887cd12289e6495e"}, {"rental_uris": {"ios": "https://dc.lft.to/lastmile_qr_scan", "android": "https://dc.lft.to/lastmile_qr_scan"}, "fusion_lon": 0.0, "lon": -77.07286466666666, "lat": 38.93520266666667, "is_reserved": 0, "name": "6609c1e031d073aa4ddd4912464fe97f", "is_disabled": 0, "type": "electric_scooter", "fusion_lat": 0.0, "bike_id": "6609c1e031d073aa4ddd4912464fe97f"}, {"rental_uris": {"ios": "https://dc.lft.to/lastmile_qr_scan", "android": "https://dc.lft.to/lastmile_qr_scan"}, "fusion_lon": 0.0, "lon": -77.0466525, "lat": 38.917886833333334, "is_reserved": 0, "name": "5de44c55a364d13622e164d1a652dbe4", "is_disabled": 0, "type": "electric_scooter", "fusion_lat": 0.0, "bike_id": "5de44c55a364d13622e164d1a652dbe4"}, {"rental_uris": {"ios": "https://dc.lft.to/lastmile_qr_scan", "android": "https://dc.lft.to/lastmile_qr_scan"}, "fusion_lon": 0.0, "lon": -77.06464316666667, "lat": 38.92749333333333, "is_reserved": 0, "name": "8fdb68b00b428c60b1c06f35f9d60d82", "is_disabled": 0, "type": "electric_scooter", "fusion_lat": 0.0, "bike_id": "8fdb68b00b428c60b1c06f35f9d60d82"}, {"rental_uris": {"ios": "https://dc.lft.to/lastmile_qr_scan", "android": "https://dc.lft.to/lastmile_qr_scan"}, "fusion_lon": 0.0, "lon": -77.0229725, "lat": 38.916167333333334, "is_reserved": 0, "name": "9d0e5cf20dbd09d981c911dd4289d562", "is_disabled": 0, "type": "electric_scooter", "fusion_lat": 0.0, "bike_id": "9d0e5cf20dbd09d981c911dd4289d562"}, {"rental_uris": {"ios": "https://dc.lft.to/lastmile_qr_scan", "android": "https://dc.lft.to/lastmile_qr_scan"}, "fusion_lon": 0.0, "lon": -77.015256, "lat": 38.92679366666667, "is_reserved": 0, "name": "408d123ce47eb56aa69029616d0ba94c", "is_disabled": 0, "type": "electric_scooter", "fusion_lat": 0.0, "bike_id": "408d123ce47eb56aa69029616d0ba94c"}, {"rental_uris": {"ios": "https://dc.lft.to/lastmile_qr_scan", "android": "https://dc.lft.to/lastmile_qr_scan"}, "fusion_lon": 0.0, "lon": -77.04796233333333, "lat": 38.886806666666665, "is_reserved": 0, "name": "1f8482ebff24b9e4f93dca9247b14c35", "is_disabled": 0, "type": "electric_scooter", "fusion_lat": 0.0, "bike_id": "1f8482ebff24b9e4f93dca9247b14c35"}, {"rental_uris": {"ios": "https://dc.lft.to/lastmile_qr_scan", "android": "https://dc.lft.to/lastmile_qr_scan"}, "fusion_lon": 0.0, "lon": -77.01605466666666, "lat": 38.8996765, "is_reserved": 0, "name": "7a05c2d2789a63f404ba893da1744ce4", "is_disabled": 0, "type": "electric_scooter", "fusion_lat": 0.0, "bike_id": "7a05c2d2789a63f404ba893da1744ce4"}, {"rental_uris": {"ios": "https://dc.lft.to/lastmile_qr_scan", "android": "https://dc.lft.to/lastmile_qr_scan"}, "fusion_lon": 0.0, "lon": -77.023234, "lat": 38.930225166666666, "is_reserved": 0, "name": "0ae3260d16b89a25ddff4fd519dd7b90", "is_disabled": 0, "type": "electric_scooter", "fusion_lat": 0.0, "bike_id": "0ae3260d16b89a25ddff4fd519dd7b90"}, {"rental_uris": {"ios": "https://dc.lft.to/lastmile_qr_scan", "android": "https://dc.lft.to/lastmile_qr_scan"}, "fusion_lon": 0.0, "lon": -77.0222935, "lat": 38.88746283333333, "is_reserved": 0, "name": "2a4a8354caeff69bbac109dff5841b4d", "is_disabled": 0, "type": "electric_scooter", "fusion_lat": 0.0, "bike_id": "2a4a8354caeff69bbac109dff5841b4d"}, {"rental_uris": {"ios": "https://dc.lft.to/lastmile_qr_scan", "android": "https://dc.lft.to/lastmile_qr_scan"}, "fusion_lon": 0.0, "lon": -77.01777016666666, "lat": 38.9211745, "is_reserved": 0, "name": "415f4720cb68603fdff08b1a76adeb4c", "is_disabled": 0, "type": "electric_scooter", "fusion_lat": 0.0, "bike_id": "415f4720cb68603fdff08b1a76adeb4c"}, {"rental_uris": {"ios": "https://dc.lft.to/lastmile_qr_scan", "android": "https://dc.lft.to/lastmile_qr_scan"}, "fusion_lon": 0.0, "lon": -77.03442933333334, "lat": 38.96365616666667, "is_reserved": 0, "name": "2106191a5c2af52859d4194a3f7e9d19", "is_disabled": 0, "type": "electric_scooter", "fusion_lat": 0.0, "bike_id": "2106191a5c2af52859d4194a3f7e9d19"}, {"rental_uris": {"ios": "https://dc.lft.to/lastmile_qr_scan", "android": "https://dc.lft.to/lastmile_qr_scan"}, "fusion_lon": 0.0, "lon": -76.97309116666666, "lat": 38.90444516666667, "is_reserved": 0, "name": "149d583d14f0b67241eeeaf93062361b", "is_disabled": 0, "type": "electric_scooter", "fusion_lat": 0.0, "bike_id": "149d583d14f0b67241eeeaf93062361b"}, {"rental_uris": {"ios": "https://dc.lft.to/lastmile_qr_scan", "android": "https://dc.lft.to/lastmile_qr_scan"}, "fusion_lon": 0.0, "lon": -77.0657145, "lat": 38.9051735, "is_reserved": 0, "name": "d9eaf204552f180b5ae95abc7ccd369f", "is_disabled": 0, "type": "electric_scooter", "fusion_lat": 0.0, "bike_id": "d9eaf204552f180b5ae95abc7ccd369f"}, {"rental_uris": {"ios": "https://dc.lft.to/lastmile_qr_scan", "android": "https://dc.lft.to/lastmile_qr_scan"}, "fusion_lon": 0.0, "lon": -77.02466366666667, "lat": 38.9009025, "is_reserved": 0, "name": "155939a0f1a72f6147fe2f19077a0918", "is_disabled": 0, "type": "electric_scooter", "fusion_lat": 0.0, "bike_id": "155939a0f1a72f6147fe2f19077a0918"}, {"rental_uris": {"ios": "https://dc.lft.to/lastmile_qr_scan", "android": "https://dc.lft.to/lastmile_qr_scan"}, "fusion_lon": 0.0, "lon": -77.01972433333333, "lat": 38.898701833333334, "is_reserved": 0, "name": "bc35422bac08de0a5789c9e2eada04f2", "is_disabled": 0, "type": "electric_scooter", "fusion_lat": 0.0, "bike_id": "bc35422bac08de0a5789c9e2eada04f2"}, {"rental_uris": {"ios": "https://dc.lft.to/lastmile_qr_scan", "android": "https://dc.lft.to/lastmile_qr_scan"}, "fusion_lon": 0.0, "lon": -77.041885, "lat": 38.923308166666665, "is_reserved": 0, "name": "e86fb838513bc4abe0e3d61ab843d461", "is_disabled": 0, "type": "electric_scooter", "fusion_lat": 0.0, "bike_id": "e86fb838513bc4abe0e3d61ab843d461"}, {"rental_uris": {"ios": "https://dc.lft.to/lastmile_qr_scan", "android": "https://dc.lft.to/lastmile_qr_scan"}, "fusion_lon": 0.0, "lon": -77.0730205, "lat": 38.935457, "is_reserved": 0, "name": "322b52807aaeb800027573cfc421eb53", "is_disabled": 0, "type": "electric_scooter", "fusion_lat": 0.0, "bike_id": "322b52807aaeb800027573cfc421eb53"}, {"rental_uris": {"ios": "https://dc.lft.to/lastmile_qr_scan", "android": "https://dc.lft.to/lastmile_qr_scan"}, "fusion_lon": 0.0, "lon": -77.031237, "lat": 38.92391116666667, "is_reserved": 0, "name": "267af128dac1c7623a1144684e53cc94", "is_disabled": 0, "type": "electric_scooter", "fusion_lat": 0.0, "bike_id": "267af128dac1c7623a1144684e53cc94"}, {"rental_uris": {"ios": "https://dc.lft.to/lastmile_qr_scan", "android": "https://dc.lft.to/lastmile_qr_scan"}, "fusion_lon": 0.0, "lon": -77.01875616666666, "lat": 38.91778816666667, "is_reserved": 0, "name": "adb91e28845fab0d652954cf9e2db0e1", "is_disabled": 0, "type": "electric_scooter", "fusion_lat": 0.0, "bike_id": "adb91e28845fab0d652954cf9e2db0e1"}, {"rental_uris": {"ios": "https://dc.lft.to/lastmile_qr_scan", "android": "https://dc.lft.to/lastmile_qr_scan"}, "fusion_lon": 0.0, "lon": -77.02690233333334, "lat": 38.97550866666667, "is_reserved": 0, "name": "40f7e65ff95f0854f74027b1a68c2f4a", "is_disabled": 0, "type": "electric_scooter", "fusion_lat": 0.0, "bike_id": "40f7e65ff95f0854f74027b1a68c2f4a"}, {"rental_uris": {"ios": "https://dc.lft.to/lastmile_qr_scan", "android": "https://dc.lft.to/lastmile_qr_scan"}, "fusion_lon": 0.0, "lon": -76.945199, "lat": 38.86288283333333, "is_reserved": 0, "name": "719e8ee6a8a26b8ab62bae94485bbce9", "is_disabled": 0, "type": "electric_bike", "fusion_lat": 0.0, "bike_id": "719e8ee6a8a26b8ab62bae94485bbce9"}, {"rental_uris": {"ios": "https://dc.lft.to/lastmile_qr_scan", "android": "https://dc.lft.to/lastmile_qr_scan"}, "fusion_lon": 0.0, "lon": -77.07524416666666, "lat": 38.906716, "is_reserved": 0, "name": "6d7e6c94cbe8ed052dd2d55041de873b", "is_disabled": 0, "type": "electric_scooter", "fusion_lat": 0.0, "bike_id": "6d7e6c94cbe8ed052dd2d55041de873b"}, {"rental_uris": {"ios": "https://dc.lft.to/lastmile_qr_scan", "android": "https://dc.lft.to/lastmile_qr_scan"}, "fusion_lon": 0.0, "lon": -77.0200005, "lat": 38.893706333333334, "is_reserved": 0, "name": "6175ef936761d9fcc75e1db3d3e755fb", "is_disabled": 0, "type": "electric_scooter", "fusion_lat": 0.0, "bike_id": "6175ef936761d9fcc75e1db3d3e755fb"}, {"rental_uris": {"ios": "https://dc.lft.to/lastmile_qr_scan", "android": "https://dc.lft.to/lastmile_qr_scan"}, "fusion_lon": 0.0, "lon": -77.03270933333333, "lat": 38.92835933333333, "is_reserved": 0, "name": "1b1e49d9e83f5840a44ebd1b945eae2a", "is_disabled": 0, "type": "electric_scooter", "fusion_lat": 0.0, "bike_id": "1b1e49d9e83f5840a44ebd1b945eae2a"}, {"rental_uris": {"ios": "https://dc.lft.to/lastmile_qr_scan", "android": "https://dc.lft.to/lastmile_qr_scan"}, "fusion_lon": 0.0, "lon": -77.04177916666667, "lat": 38.90012983333333, "is_reserved": 0, "name": "e721643cfa758275776746b484bcedc5", "is_disabled": 0, "type": "electric_scooter", "fusion_lat": 0.0, "bike_id": "e721643cfa758275776746b484bcedc5"}, {"rental_uris": {"ios": "https://dc.lft.to/lastmile_qr_scan", "android": "https://dc.lft.to/lastmile_qr_scan"}, "fusion_lon": 0.0, "lon": -77.046737, "lat": 38.909616166666666, "is_reserved": 0, "name": "4cc8621474201980341efde1d2143235", "is_disabled": 0, "type": "electric_scooter", "fusion_lat": 0.0, "bike_id": "4cc8621474201980341efde1d2143235"}, {"rental_uris": {"ios": "https://dc.lft.to/lastmile_qr_scan", "android": "https://dc.lft.to/lastmile_qr_scan"}, "fusion_lon": 0.0, "lon": -76.97941683333333, "lat": 38.906536833333334, "is_reserved": 0, "name": "36f6007bb7a533b2b2225c9f0cd6ed6e", "is_disabled": 0, "type": "electric_scooter", "fusion_lat": 0.0, "bike_id": "36f6007bb7a533b2b2225c9f0cd6ed6e"}, {"rental_uris": {"ios": "https://dc.lft.to/lastmile_qr_scan", "android": "https://dc.lft.to/lastmile_qr_scan"}, "fusion_lon": 0.0, "lon": -77.02620066666667, "lat": 38.892189, "is_reserved": 0, "name": "8c3d3c78ce3e4ef1ebecf154cbd0cf00", "is_disabled": 0, "type": "electric_scooter", "fusion_lat": 0.0, "bike_id": "8c3d3c78ce3e4ef1ebecf154cbd0cf00"}, {"rental_uris": {"ios": "https://dc.lft.to/lastmile_qr_scan", "android": "https://dc.lft.to/lastmile_qr_scan"}, "fusion_lon": 0.0, "lon": -77.0487645, "lat": 38.90078033333333, "is_reserved": 0, "name": "293d2faecd2c50506038e261e932034d", "is_disabled": 0, "type": "electric_scooter", "fusion_lat": 0.0, "bike_id": "293d2faecd2c50506038e261e932034d"}, {"rental_uris": {"ios": "https://dc.lft.to/lastmile_qr_scan", "android": "https://dc.lft.to/lastmile_qr_scan"}, "fusion_lon": 0.0, "lon": -77.04806533333333, "lat": 38.89594266666667, "is_reserved": 0, "name": "46b02be90df15ae36b18cdcf442eaa27", "is_disabled": 0, "type": "electric_scooter", "fusion_lat": 0.0, "bike_id": "46b02be90df15ae36b18cdcf442eaa27"}, {"rental_uris": {"ios": "https://dc.lft.to/lastmile_qr_scan", "android": "https://dc.lft.to/lastmile_qr_scan"}, "fusion_lon": 0.0, "lon": -77.08307766666667, "lat": 38.93037233333333, "is_reserved": 0, "name": "10c6505c7be0ab14c98bb0a028ca54e9", "is_disabled": 0, "type": "electric_bike", "fusion_lat": 0.0, "bike_id": "10c6505c7be0ab14c98bb0a028ca54e9"}, {"rental_uris": {"ios": "https://dc.lft.to/lastmile_qr_scan", "android": "https://dc.lft.to/lastmile_qr_scan"}, "fusion_lon": 0.0, "lon": -77.02802883333334, "lat": 38.892304, "is_reserved": 0, "name": "0eb1f053af122abfd25db7d01f1facf9", "is_disabled": 0, "type": "electric_scooter", "fusion_lat": 0.0, "bike_id": "0eb1f053af122abfd25db7d01f1facf9"}, {"rental_uris": {"ios": "https://dc.lft.to/lastmile_qr_scan", "android": "https://dc.lft.to/lastmile_qr_scan"}, "fusion_lon": 0.0, "lon": -77.02229683333333, "lat": 38.887448166666665, "is_reserved": 0, "name": "b4a0e8b6e67be7403dbd6fdc0e382d39", "is_disabled": 0, "type": "electric_scooter", "fusion_lat": 0.0, "bike_id": "b4a0e8b6e67be7403dbd6fdc0e382d39"}, {"rental_uris": {"ios": "https://dc.lft.to/lastmile_qr_scan", "android": "https://dc.lft.to/lastmile_qr_scan"}, "fusion_lon": 0.0, "lon": -76.996019, "lat": 38.88510016666667, "is_reserved": 0, "name": "1a7d24167b92d841ec8fa70f589d5cd9", "is_disabled": 0, "type": "electric_scooter", "fusion_lat": 0.0, "bike_id": "1a7d24167b92d841ec8fa70f589d5cd9"}, {"rental_uris": {"ios": "https://dc.lft.to/lastmile_qr_scan", "android": "https://dc.lft.to/lastmile_qr_scan"}, "fusion_lon": 0.0, "lon": -77.01866366666667, "lat": 38.97369466666667, "is_reserved": 0, "name": "06738848bd922b255a3af7cf7310e162", "is_disabled": 0, "type": "electric_scooter", "fusion_lat": 0.0, "bike_id": "06738848bd922b255a3af7cf7310e162"}, {"rental_uris": {"ios": "https://dc.lft.to/lastmile_qr_scan", "android": "https://dc.lft.to/lastmile_qr_scan"}, "fusion_lon": 0.0, "lon": -77.04880466666667, "lat": 38.90530183333333, "is_reserved": 0, "name": "53ae64e384bd27fdd22ad071c79882da", "is_disabled": 0, "type": "electric_scooter", "fusion_lat": 0.0, "bike_id": "53ae64e384bd27fdd22ad071c79882da"}, {"rental_uris": {"ios": "https://dc.lft.to/lastmile_qr_scan", "android": "https://dc.lft.to/lastmile_qr_scan"}, "fusion_lon": 0.0, "lon": -77.02822716666667, "lat": 38.96558983333333, "is_reserved": 0, "name": "ecd690c6f6d94edf34d47e52ab7a551c", "is_disabled": 0, "type": "electric_bike", "fusion_lat": 0.0, "bike_id": "ecd690c6f6d94edf34d47e52ab7a551c"}, {"rental_uris": {"ios": "https://dc.lft.to/lastmile_qr_scan", "android": "https://dc.lft.to/lastmile_qr_scan"}, "fusion_lon": 0.0, "lon": -77.10402216666667, "lat": 39.00533383333333, "is_reserved": 0, "name": "9a4a36f25814605a0cd3103b872f5cd2", "is_disabled": 0, "type": "electric_bike", "fusion_lat": 0.0, "bike_id": "9a4a36f25814605a0cd3103b872f5cd2"}, {"rental_uris": {"ios": "https://dc.lft.to/lastmile_qr_scan", "android": "https://dc.lft.to/lastmile_qr_scan"}, "fusion_lon": 0.0, "lon": -76.99005366666667, "lat": 38.868929, "is_reserved": 0, "name": "512f48bb538b9c2e893808de1a089194", "is_disabled": 0, "type": "electric_scooter", "fusion_lat": 0.0, "bike_id": "512f48bb538b9c2e893808de1a089194"}, {"rental_uris": {"ios": "https://dc.lft.to/lastmile_qr_scan", "android": "https://dc.lft.to/lastmile_qr_scan"}, "fusion_lon": 0.0, "lon": -77.02843366666667, "lat": 38.8865885, "is_reserved": 0, "name": "68ac82b9cfc7113d68711bd07c4810ad", "is_disabled": 0, "type": "electric_scooter", "fusion_lat": 0.0, "bike_id": "68ac82b9cfc7113d68711bd07c4810ad"}, {"rental_uris": {"ios": "https://dc.lft.to/lastmile_qr_scan", "android": "https://dc.lft.to/lastmile_qr_scan"}, "fusion_lon": 0.0, "lon": -77.00572583333333, "lat": 38.87468, "is_reserved": 0, "name": "33300396bd7d9730fd5681c2ad765a9d", "is_disabled": 0, "type": "electric_scooter", "fusion_lat": 0.0, "bike_id": "33300396bd7d9730fd5681c2ad765a9d"}, {"rental_uris": {"ios": "https://dc.lft.to/lastmile_qr_scan", "android": "https://dc.lft.to/lastmile_qr_scan"}, "fusion_lon": 0.0, "lon": -76.98323833333333, "lat": 38.896027, "is_reserved": 0, "name": "3bcf7acd8808bf15d88d3e470edfbeb9", "is_disabled": 0, "type": "electric_scooter", "fusion_lat": 0.0, "bike_id": "3bcf7acd8808bf15d88d3e470edfbeb9"}, {"rental_uris": {"ios": "https://dc.lft.to/lastmile_qr_scan", "android": "https://dc.lft.to/lastmile_qr_scan"}, "fusion_lon": 0.0, "lon": -77.0315155, "lat": 38.916198666666666, "is_reserved": 0, "name": "7979b8daf7cc975319cfc9b37b97ff1d", "is_disabled": 0, "type": "electric_scooter", "fusion_lat": 0.0, "bike_id": "7979b8daf7cc975319cfc9b37b97ff1d"}, {"rental_uris": {"ios": "https://dc.lft.to/lastmile_qr_scan", "android": "https://dc.lft.to/lastmile_qr_scan"}, "fusion_lon": 0.0, "lon": -77.05031316666667, "lat": 38.915747333333336, "is_reserved": 0, "name": "a093ed6c5741845111e113016e3e419a", "is_disabled": 0, "type": "electric_scooter", "fusion_lat": 0.0, "bike_id": "a093ed6c5741845111e113016e3e419a"}, {"rental_uris": {"ios": "https://dc.lft.to/lastmile_qr_scan", "android": "https://dc.lft.to/lastmile_qr_scan"}, "fusion_lon": 0.0, "lon": -77.00918783333333, "lat": 38.895547666666666, "is_reserved": 0, "name": "a08f0dc5eae0e124239ce199c55abf2e", "is_disabled": 0, "type": "electric_scooter", "fusion_lat": 0.0, "bike_id": "a08f0dc5eae0e124239ce199c55abf2e"}, {"rental_uris": {"ios": "https://dc.lft.to/lastmile_qr_scan", "android": "https://dc.lft.to/lastmile_qr_scan"}, "fusion_lon": 0.0, "lon": -76.9781035, "lat": 38.98219016666667, "is_reserved": 0, "name": "e1c7b2d5892fbe26cd8bca706eb1869b", "is_disabled": 0, "type": "electric_bike", "fusion_lat": 0.0, "bike_id": "e1c7b2d5892fbe26cd8bca706eb1869b"}, {"rental_uris": {"ios": "https://dc.lft.to/lastmile_qr_scan", "android": "https://dc.lft.to/lastmile_qr_scan"}, "fusion_lon": 0.0, "lon": -77.066261, "lat": 38.867832666666665, "is_reserved": 0, "name": "3d1b101926b109e791aaab1ff8811c8b", "is_disabled": 0, "type": "electric_bike", "fusion_lat": 0.0, "bike_id": "3d1b101926b109e791aaab1ff8811c8b"}, {"rental_uris": {"ios": "https://dc.lft.to/lastmile_qr_scan", "android": "https://dc.lft.to/lastmile_qr_scan"}, "fusion_lon": 0.0, "lon": -77.04049433333333, "lat": 38.93069416666667, "is_reserved": 0, "name": "e7bbec82f4d9038bf26ad6f7d419d764", "is_disabled": 0, "type": "electric_scooter", "fusion_lat": 0.0, "bike_id": "e7bbec82f4d9038bf26ad6f7d419d764"}, {"rental_uris": {"ios": "https://dc.lft.to/lastmile_qr_scan", "android": "https://dc.lft.to/lastmile_qr_scan"}, "fusion_lon": 0.0, "lon": -77.04518066666667, "lat": 38.90974633333333, "is_reserved": 0, "name": "1a95ba1a5295660005cb350064379e4b", "is_disabled": 0, "type": "electric_scooter", "fusion_lat": 0.0, "bike_id": "1a95ba1a5295660005cb350064379e4b"}, {"rental_uris": {"ios": "https://dc.lft.to/lastmile_qr_scan", "android": "https://dc.lft.to/lastmile_qr_scan"}, "fusion_lon": 0.0, "lon": -77.0558475, "lat": 38.936067666666666, "is_reserved": 0, "name": "2b7f43f0bade20f6b4c5c4326745b102", "is_disabled": 0, "type": "electric_scooter", "fusion_lat": 0.0, "bike_id": "2b7f43f0bade20f6b4c5c4326745b102"}, {"rental_uris": {"ios": "https://dc.lft.to/lastmile_qr_scan", "android": "https://dc.lft.to/lastmile_qr_scan"}, "fusion_lon": 0.0, "lon": -77.05272, "lat": 38.9278035, "is_reserved": 0, "name": "8b9fabb4ff4132ff6b0f571060c33491", "is_disabled": 0, "type": "electric_scooter", "fusion_lat": 0.0, "bike_id": "8b9fabb4ff4132ff6b0f571060c33491"}, {"rental_uris": {"ios": "https://dc.lft.to/lastmile_qr_scan", "android": "https://dc.lft.to/lastmile_qr_scan"}, "fusion_lon": 0.0, "lon": -77.00687266666667, "lat": 38.876213166666666, "is_reserved": 0, "name": "a720ec2df63b2213f405aa097cce92d5", "is_disabled": 0, "type": "electric_scooter", "fusion_lat": 0.0, "bike_id": "a720ec2df63b2213f405aa097cce92d5"}, {"rental_uris": {"ios": "https://dc.lft.to/lastmile_qr_scan", "android": "https://dc.lft.to/lastmile_qr_scan"}, "fusion_lon": 0.0, "lon": -77.01805383333334, "lat": 38.90241183333333, "is_reserved": 0, "name": "b4ab7aaf98f3adf62e78020c5ab5b6bf", "is_disabled": 0, "type": "electric_scooter", "fusion_lat": 0.0, "bike_id": "b4ab7aaf98f3adf62e78020c5ab5b6bf"}, {"rental_uris": {"ios": "https://dc.lft.to/lastmile_qr_scan", "android": "https://dc.lft.to/lastmile_qr_scan"}, "fusion_lon": 0.0, "lon": -77.05745183333333, "lat": 38.933947, "is_reserved": 0, "name": "efff8a1b02382acfe8113e31e7634e97", "is_disabled": 0, "type": "electric_scooter", "fusion_lat": 0.0, "bike_id": "efff8a1b02382acfe8113e31e7634e97"}, {"rental_uris": {"ios": "https://dc.lft.to/lastmile_qr_scan", "android": "https://dc.lft.to/lastmile_qr_scan"}, "fusion_lon": 0.0, "lon": -77.02675433333333, "lat": 38.9297985, "is_reserved": 0, "name": "52bbde3747972a865956a081ae9e27ac", "is_disabled": 0, "type": "electric_bike", "fusion_lat": 0.0, "bike_id": "52bbde3747972a865956a081ae9e27ac"}, {"rental_uris": {"ios": "https://dc.lft.to/lastmile_qr_scan", "android": "https://dc.lft.to/lastmile_qr_scan"}, "fusion_lon": 0.0, "lon": -77.0216595, "lat": 38.91252, "is_reserved": 0, "name": "5d4af15832b44596da3902de2ec81500", "is_disabled": 0, "type": "electric_scooter", "fusion_lat": 0.0, "bike_id": "5d4af15832b44596da3902de2ec81500"}, {"rental_uris": {"ios": "https://dc.lft.to/lastmile_qr_scan", "android": "https://dc.lft.to/lastmile_qr_scan"}, "fusion_lon": 0.0, "lon": -77.02307716666667, "lat": 38.9028265, "is_reserved": 0, "name": "bee8813fb978cb461b0787a8ee6dd243", "is_disabled": 0, "type": "electric_scooter", "fusion_lat": 0.0, "bike_id": "bee8813fb978cb461b0787a8ee6dd243"}, {"rental_uris": {"ios": "https://dc.lft.to/lastmile_qr_scan", "android": "https://dc.lft.to/lastmile_qr_scan"}, "fusion_lon": 0.0, "lon": -77.02895216666667, "lat": 38.93982716666667, "is_reserved": 0, "name": "345bb15d8d42640f2f4011b286b2a6cc", "is_disabled": 0, "type": "electric_scooter", "fusion_lat": 0.0, "bike_id": "345bb15d8d42640f2f4011b286b2a6cc"}, {"rental_uris": {"ios": "https://dc.lft.to/lastmile_qr_scan", "android": "https://dc.lft.to/lastmile_qr_scan"}, "fusion_lon": 0.0, "lon": -77.0414695, "lat": 38.923004, "is_reserved": 0, "name": "bd32f9302649a8e9973ce4d075a92379", "is_disabled": 0, "type": "electric_scooter", "fusion_lat": 0.0, "bike_id": "bd32f9302649a8e9973ce4d075a92379"}, {"rental_uris": {"ios": "https://dc.lft.to/lastmile_qr_scan", "android": "https://dc.lft.to/lastmile_qr_scan"}, "fusion_lon": 0.0, "lon": -77.03255483333334, "lat": 38.91188183333333, "is_reserved": 0, "name": "1f6485bf738c900af8b030153258a4ba", "is_disabled": 0, "type": "electric_scooter", "fusion_lat": 0.0, "bike_id": "1f6485bf738c900af8b030153258a4ba"}, {"rental_uris": {"ios": "https://dc.lft.to/lastmile_qr_scan", "android": "https://dc.lft.to/lastmile_qr_scan"}, "fusion_lon": 0.0, "lon": -77.0515645, "lat": 38.92139783333333, "is_reserved": 0, "name": "28585acca5caa629b20df3ac511edcdd", "is_disabled": 0, "type": "electric_scooter", "fusion_lat": 0.0, "bike_id": "28585acca5caa629b20df3ac511edcdd"}, {"rental_uris": {"ios": "https://dc.lft.to/lastmile_qr_scan", "android": "https://dc.lft.to/lastmile_qr_scan"}, "fusion_lon": 0.0, "lon": -76.93276816666666, "lat": 38.904568, "is_reserved": 0, "name": "6c0cb29a41a7b1a40703e297d8ff85df", "is_disabled": 0, "type": "electric_scooter", "fusion_lat": 0.0, "bike_id": "6c0cb29a41a7b1a40703e297d8ff85df"}, {"rental_uris": {"ios": "https://dc.lft.to/lastmile_qr_scan", "android": "https://dc.lft.to/lastmile_qr_scan"}, "fusion_lon": 0.0, "lon": -77.02596716666666, "lat": 38.918512166666666, "is_reserved": 0, "name": "acdff8bf1703885ca93c48db4c8bbb91", "is_disabled": 0, "type": "electric_scooter", "fusion_lat": 0.0, "bike_id": "acdff8bf1703885ca93c48db4c8bbb91"}, {"rental_uris": {"ios": "https://dc.lft.to/lastmile_qr_scan", "android": "https://dc.lft.to/lastmile_qr_scan"}, "fusion_lon": 0.0, "lon": -77.0774975, "lat": 38.91228483333333, "is_reserved": 0, "name": "9716848807edebf4d0c7e1d08f175aef", "is_disabled": 0, "type": "electric_scooter", "fusion_lat": 0.0, "bike_id": "9716848807edebf4d0c7e1d08f175aef"}, {"rental_uris": {"ios": "https://dc.lft.to/lastmile_qr_scan", "android": "https://dc.lft.to/lastmile_qr_scan"}, "fusion_lon": 0.0, "lon": -77.05075166666667, "lat": 38.90180683333333, "is_reserved": 0, "name": "470482f906109faa9a1ac7d2f4fbf71e", "is_disabled": 0, "type": "electric_scooter", "fusion_lat": 0.0, "bike_id": "470482f906109faa9a1ac7d2f4fbf71e"}, {"rental_uris": {"ios": "https://dc.lft.to/lastmile_qr_scan", "android": "https://dc.lft.to/lastmile_qr_scan"}, "fusion_lon": 0.0, "lon": -77.03259833333334, "lat": 38.926471, "is_reserved": 0, "name": "9f0527177f4b3a5f1b35a1fda6103446", "is_disabled": 0, "type": "electric_scooter", "fusion_lat": 0.0, "bike_id": "9f0527177f4b3a5f1b35a1fda6103446"}, {"rental_uris": {"ios": "https://dc.lft.to/lastmile_qr_scan", "android": "https://dc.lft.to/lastmile_qr_scan"}, "fusion_lon": 0.0, "lon": -77.02404516666667, "lat": 38.917637666666664, "is_reserved": 0, "name": "87f4c2f54ade8baf1a09f79544e37ced", "is_disabled": 0, "type": "electric_scooter", "fusion_lat": 0.0, "bike_id": "87f4c2f54ade8baf1a09f79544e37ced"}, {"rental_uris": {"ios": "https://dc.lft.to/lastmile_qr_scan", "android": "https://dc.lft.to/lastmile_qr_scan"}, "fusion_lon": 0.0, "lon": -77.0420205, "lat": 38.929685166666665, "is_reserved": 0, "name": "38e9ece6acb0682d657022d22f924a04", "is_disabled": 0, "type": "electric_scooter", "fusion_lat": 0.0, "bike_id": "38e9ece6acb0682d657022d22f924a04"}, {"rental_uris": {"ios": "https://dc.lft.to/lastmile_qr_scan", "android": "https://dc.lft.to/lastmile_qr_scan"}, "fusion_lon": 0.0, "lon": -77.03250183333333, "lat": 38.91987783333333, "is_reserved": 0, "name": "917e14797872460a7dd30720058f4929", "is_disabled": 0, "type": "electric_scooter", "fusion_lat": 0.0, "bike_id": "917e14797872460a7dd30720058f4929"}, {"rental_uris": {"ios": "https://dc.lft.to/lastmile_qr_scan", "android": "https://dc.lft.to/lastmile_qr_scan"}, "fusion_lon": 0.0, "lon": -77.022408, "lat": 38.92453483333333, "is_reserved": 0, "name": "95880b1d131e930587ade864a580100f", "is_disabled": 0, "type": "electric_scooter", "fusion_lat": 0.0, "bike_id": "95880b1d131e930587ade864a580100f"}, {"rental_uris": {"ios": "https://dc.lft.to/lastmile_qr_scan", "android": "https://dc.lft.to/lastmile_qr_scan"}, "fusion_lon": 0.0, "lon": -77.02353883333333, "lat": 38.947235666666664, "is_reserved": 0, "name": "3be6920ef71c6bdc12acef8ed5ca9a94", "is_disabled": 0, "type": "electric_scooter", "fusion_lat": 0.0, "bike_id": "3be6920ef71c6bdc12acef8ed5ca9a94"}, {"rental_uris": {"ios": "https://dc.lft.to/lastmile_qr_scan", "android": "https://dc.lft.to/lastmile_qr_scan"}, "fusion_lon": 0.0, "lon": -77.04675933333333, "lat": 38.90135566666667, "is_reserved": 0, "name": "1525ed0e8ee13a0edef41612ac30bcb7", "is_disabled": 0, "type": "electric_scooter", "fusion_lat": 0.0, "bike_id": "1525ed0e8ee13a0edef41612ac30bcb7"}, {"rental_uris": {"ios": "https://dc.lft.to/lastmile_qr_scan", "android": "https://dc.lft.to/lastmile_qr_scan"}, "fusion_lon": 0.0, "lon": -77.02514166666667, "lat": 38.89586083333333, "is_reserved": 0, "name": "7312ac9cab573883f66fec9fb1ad930e", "is_disabled": 0, "type": "electric_scooter", "fusion_lat": 0.0, "bike_id": "7312ac9cab573883f66fec9fb1ad930e"}, {"rental_uris": {"ios": "https://dc.lft.to/lastmile_qr_scan", "android": "https://dc.lft.to/lastmile_qr_scan"}, "fusion_lon": 0.0, "lon": -77.03373133333334, "lat": 38.90955183333333, "is_reserved": 0, "name": "4d7d9349a4f81a9ee8768234c7b094bc", "is_disabled": 0, "type": "electric_scooter", "fusion_lat": 0.0, "bike_id": "4d7d9349a4f81a9ee8768234c7b094bc"}, {"rental_uris": {"ios": "https://dc.lft.to/lastmile_qr_scan", "android": "https://dc.lft.to/lastmile_qr_scan"}, "fusion_lon": 0.0, "lon": -77.00200466666666, "lat": 38.90239416666667, "is_reserved": 0, "name": "07fa06dcb289e67aef403d1dbb3605b7", "is_disabled": 0, "type": "electric_scooter", "fusion_lat": 0.0, "bike_id": "07fa06dcb289e67aef403d1dbb3605b7"}, {"rental_uris": {"ios": "https://dc.lft.to/lastmile_qr_scan", "android": "https://dc.lft.to/lastmile_qr_scan"}, "fusion_lon": 0.0, "lon": -76.99868816666667, "lat": 38.9234415, "is_reserved": 0, "name": "4d6f353de023f443dae5faaa5fba6024", "is_disabled": 0, "type": "electric_scooter", "fusion_lat": 0.0, "bike_id": "4d6f353de023f443dae5faaa5fba6024"}, {"rental_uris": {"ios": "https://dc.lft.to/lastmile_qr_scan", "android": "https://dc.lft.to/lastmile_qr_scan"}, "fusion_lon": 0.0, "lon": -77.03217316666667, "lat": 38.89238366666667, "is_reserved": 0, "name": "3e3a55206d053830cb8aaa6ab2665782", "is_disabled": 0, "type": "electric_scooter", "fusion_lat": 0.0, "bike_id": "3e3a55206d053830cb8aaa6ab2665782"}, {"rental_uris": {"ios": "https://dc.lft.to/lastmile_qr_scan", "android": "https://dc.lft.to/lastmile_qr_scan"}, "fusion_lon": 0.0, "lon": -77.03666316666667, "lat": 38.92273383333333, "is_reserved": 0, "name": "0b4618dd072e133d66acb7db9636348d", "is_disabled": 0, "type": "electric_scooter", "fusion_lat": 0.0, "bike_id": "0b4618dd072e133d66acb7db9636348d"}, {"rental_uris": {"ios": "https://dc.lft.to/lastmile_qr_scan", "android": "https://dc.lft.to/lastmile_qr_scan"}, "fusion_lon": 0.0, "lon": -77.0213995, "lat": 38.93116, "is_reserved": 0, "name": "c4d990af1bc862b95075f84b688b5f7d", "is_disabled": 0, "type": "electric_scooter", "fusion_lat": 0.0, "bike_id": "c4d990af1bc862b95075f84b688b5f7d"}, {"rental_uris": {"ios": "https://dc.lft.to/lastmile_qr_scan", "android": "https://dc.lft.to/lastmile_qr_scan"}, "fusion_lon": 0.0, "lon": -77.00052166666667, "lat": 38.874260666666665, "is_reserved": 0, "name": "81b738b907cb87b2e85d64ff45823ce2", "is_disabled": 0, "type": "electric_scooter", "fusion_lat": 0.0, "bike_id": "81b738b907cb87b2e85d64ff45823ce2"}, {"rental_uris": {"ios": "https://dc.lft.to/lastmile_qr_scan", "android": "https://dc.lft.to/lastmile_qr_scan"}, "fusion_lon": 0.0, "lon": -76.97226366666666, "lat": 38.9003815, "is_reserved": 0, "name": "ea2971ff8322bd529c8038baac89d34a", "is_disabled": 0, "type": "electric_bike", "fusion_lat": 0.0, "bike_id": "ea2971ff8322bd529c8038baac89d34a"}, {"rental_uris": {"ios": "https://dc.lft.to/lastmile_qr_scan", "android": "https://dc.lft.to/lastmile_qr_scan"}, "fusion_lon": 0.0, "lon": -76.95202566666667, "lat": 38.90510866666666, "is_reserved": 0, "name": "63606684b02bbc6997808e91fc6c358c", "is_disabled": 0, "type": "electric_scooter", "fusion_lat": 0.0, "bike_id": "63606684b02bbc6997808e91fc6c358c"}, {"rental_uris": {"ios": "https://dc.lft.to/lastmile_qr_scan", "android": "https://dc.lft.to/lastmile_qr_scan"}, "fusion_lon": 0.0, "lon": -77.0368775, "lat": 39.02646216666667, "is_reserved": 0, "name": "7392d682a467425a1ed4deaacfb65a55", "is_disabled": 0, "type": "electric_bike", "fusion_lat": 0.0, "bike_id": "7392d682a467425a1ed4deaacfb65a55"}, {"rental_uris": {"ios": "https://dc.lft.to/lastmile_qr_scan", "android": "https://dc.lft.to/lastmile_qr_scan"}, "fusion_lon": 0.0, "lon": -77.05213416666666, "lat": 38.91417933333334, "is_reserved": 0, "name": "be68d1ff95dd8d6f554e286fdf5cf1a7", "is_disabled": 0, "type": "electric_scooter", "fusion_lat": 0.0, "bike_id": "be68d1ff95dd8d6f554e286fdf5cf1a7"}, {"rental_uris": {"ios": "https://dc.lft.to/lastmile_qr_scan", "android": "https://dc.lft.to/lastmile_qr_scan"}, "fusion_lon": 0.0, "lon": -76.92640566666667, "lat": 38.886202, "is_reserved": 0, "name": "8f07a3facfc42d2550d299b884f6ce58", "is_disabled": 0, "type": "electric_scooter", "fusion_lat": 0.0, "bike_id": "8f07a3facfc42d2550d299b884f6ce58"}, {"rental_uris": {"ios": "https://dc.lft.to/lastmile_qr_scan", "android": "https://dc.lft.to/lastmile_qr_scan"}, "fusion_lon": 0.0, "lon": -77.0433535, "lat": 38.892259, "is_reserved": 0, "name": "2629742d83a62c96ab71aad7c7a2a455", "is_disabled": 0, "type": "electric_scooter", "fusion_lat": 0.0, "bike_id": "2629742d83a62c96ab71aad7c7a2a455"}, {"rental_uris": {"ios": "https://dc.lft.to/lastmile_qr_scan", "android": "https://dc.lft.to/lastmile_qr_scan"}, "fusion_lon": 0.0, "lon": -77.02692533333334, "lat": 38.9433, "is_reserved": 0, "name": "c32a7cbb6d19abb93d66c3abcc63b7a2", "is_disabled": 0, "type": "electric_scooter", "fusion_lat": 0.0, "bike_id": "c32a7cbb6d19abb93d66c3abcc63b7a2"}, {"rental_uris": {"ios": "https://dc.lft.to/lastmile_qr_scan", "android": "https://dc.lft.to/lastmile_qr_scan"}, "fusion_lon": 0.0, "lon": -77.027028, "lat": 38.89987933333333, "is_reserved": 0, "name": "9b073a857690f11c24e2993fb96502dc", "is_disabled": 0, "type": "electric_scooter", "fusion_lat": 0.0, "bike_id": "9b073a857690f11c24e2993fb96502dc"}, {"rental_uris": {"ios": "https://dc.lft.to/lastmile_qr_scan", "android": "https://dc.lft.to/lastmile_qr_scan"}, "fusion_lon": 0.0, "lon": -77.0405575, "lat": 38.9307055, "is_reserved": 0, "name": "d4b82fe3b70b1d56bf1512c569908c78", "is_disabled": 0, "type": "electric_scooter", "fusion_lat": 0.0, "bike_id": "d4b82fe3b70b1d56bf1512c569908c78"}, {"rental_uris": {"ios": "https://dc.lft.to/lastmile_qr_scan", "android": "https://dc.lft.to/lastmile_qr_scan"}, "fusion_lon": 0.0, "lon": -77.00921466666667, "lat": 38.91474133333333, "is_reserved": 0, "name": "4954c1c5b8905978653c047d8104c486", "is_disabled": 0, "type": "electric_scooter", "fusion_lat": 0.0, "bike_id": "4954c1c5b8905978653c047d8104c486"}, {"rental_uris": {"ios": "https://dc.lft.to/lastmile_qr_scan", "android": "https://dc.lft.to/lastmile_qr_scan"}, "fusion_lon": 0.0, "lon": -76.99569616666666, "lat": 38.925091333333334, "is_reserved": 0, "name": "a20290b6fd33ec57ed42abfad58243e9", "is_disabled": 0, "type": "electric_scooter", "fusion_lat": 0.0, "bike_id": "a20290b6fd33ec57ed42abfad58243e9"}, {"rental_uris": {"ios": "https://dc.lft.to/lastmile_qr_scan", "android": "https://dc.lft.to/lastmile_qr_scan"}, "fusion_lon": 0.0, "lon": -77.0363725, "lat": 38.9002155, "is_reserved": 0, "name": "936950c8dcebe821751308928f0d4064", "is_disabled": 0, "type": "electric_scooter", "fusion_lat": 0.0, "bike_id": "936950c8dcebe821751308928f0d4064"}, {"rental_uris": {"ios": "https://dc.lft.to/lastmile_qr_scan", "android": "https://dc.lft.to/lastmile_qr_scan"}, "fusion_lon": 0.0, "lon": -77.02220033333333, "lat": 38.89629133333333, "is_reserved": 0, "name": "4e2ece1951c79381ac849ced1cd62ae8", "is_disabled": 0, "type": "electric_scooter", "fusion_lat": 0.0, "bike_id": "4e2ece1951c79381ac849ced1cd62ae8"}, {"rental_uris": {"ios": "https://dc.lft.to/lastmile_qr_scan", "android": "https://dc.lft.to/lastmile_qr_scan"}, "fusion_lon": 0.0, "lon": -77.02383083333334, "lat": 38.899084, "is_reserved": 0, "name": "e7ff66345ef877e7c5b2f080e0991d91", "is_disabled": 0, "type": "electric_scooter", "fusion_lat": 0.0, "bike_id": "e7ff66345ef877e7c5b2f080e0991d91"}, {"rental_uris": {"ios": "https://dc.lft.to/lastmile_qr_scan", "android": "https://dc.lft.to/lastmile_qr_scan"}, "fusion_lon": 0.0, "lon": -77.02008516666666, "lat": 38.9158535, "is_reserved": 0, "name": "bddb9e7e4084c13077968992d653980d", "is_disabled": 0, "type": "electric_scooter", "fusion_lat": 0.0, "bike_id": "bddb9e7e4084c13077968992d653980d"}, {"rental_uris": {"ios": "https://dc.lft.to/lastmile_qr_scan", "android": "https://dc.lft.to/lastmile_qr_scan"}, "fusion_lon": 0.0, "lon": -77.0286005, "lat": 38.898430166666664, "is_reserved": 0, "name": "826bd7a0cc5a590ed95cb4809f804de8", "is_disabled": 0, "type": "electric_scooter", "fusion_lat": 0.0, "bike_id": "826bd7a0cc5a590ed95cb4809f804de8"}, {"rental_uris": {"ios": "https://dc.lft.to/lastmile_qr_scan", "android": "https://dc.lft.to/lastmile_qr_scan"}, "fusion_lon": 0.0, "lon": -77.03075916666667, "lat": 38.9224605, "is_reserved": 0, "name": "8313a867b515dc4f22fea08e6d3e1120", "is_disabled": 0, "type": "electric_scooter", "fusion_lat": 0.0, "bike_id": "8313a867b515dc4f22fea08e6d3e1120"}, {"rental_uris": {"ios": "https://dc.lft.to/lastmile_qr_scan", "android": "https://dc.lft.to/lastmile_qr_scan"}, "fusion_lon": 0.0, "lon": -76.910615, "lat": 39.01075866666667, "is_reserved": 0, "name": "565c4987f9c007f360e86061afdcbbc4", "is_disabled": 0, "type": "electric_bike", "fusion_lat": 0.0, "bike_id": "565c4987f9c007f360e86061afdcbbc4"}, {"rental_uris": {"ios": "https://dc.lft.to/lastmile_qr_scan", "android": "https://dc.lft.to/lastmile_qr_scan"}, "fusion_lon": 0.0, "lon": -77.0320575, "lat": 38.91640266666667, "is_reserved": 0, "name": "baa5ea76dd5962a14cc5f4f3d14d665c", "is_disabled": 0, "type": "electric_scooter", "fusion_lat": 0.0, "bike_id": "baa5ea76dd5962a14cc5f4f3d14d665c"}, {"rental_uris": {"ios": "https://dc.lft.to/lastmile_qr_scan", "android": "https://dc.lft.to/lastmile_qr_scan"}, "fusion_lon": 0.0, "lon": -76.99834883333334, "lat": 38.9071215, "is_reserved": 0, "name": "4012dbf589c9e9a30af44915b69f33a7", "is_disabled": 0, "type": "electric_scooter", "fusion_lat": 0.0, "bike_id": "4012dbf589c9e9a30af44915b69f33a7"}, {"rental_uris": {"ios": "https://dc.lft.to/lastmile_qr_scan", "android": "https://dc.lft.to/lastmile_qr_scan"}, "fusion_lon": 0.0, "lon": -77.22905716666666, "lat": 38.87039383333333, "is_reserved": 0, "name": "a3c3b01910537e9019f6da6f0b3de3c2", "is_disabled": 0, "type": "electric_bike", "fusion_lat": 0.0, "bike_id": "a3c3b01910537e9019f6da6f0b3de3c2"}, {"rental_uris": {"ios": "https://dc.lft.to/lastmile_qr_scan", "android": "https://dc.lft.to/lastmile_qr_scan"}, "fusion_lon": 0.0, "lon": -76.994977, "lat": 38.89402616666667, "is_reserved": 0, "name": "825cf84fa6e8eb022e2eb6070e2f76c4", "is_disabled": 0, "type": "electric_scooter", "fusion_lat": 0.0, "bike_id": "825cf84fa6e8eb022e2eb6070e2f76c4"}, {"rental_uris": {"ios": "https://dc.lft.to/lastmile_qr_scan", "android": "https://dc.lft.to/lastmile_qr_scan"}, "fusion_lon": 0.0, "lon": -77.02164683333334, "lat": 38.926147, "is_reserved": 0, "name": "d10af36f6588b052a84ffc8a7bb78b42", "is_disabled": 0, "type": "electric_scooter", "fusion_lat": 0.0, "bike_id": "d10af36f6588b052a84ffc8a7bb78b42"}, {"rental_uris": {"ios": "https://dc.lft.to/lastmile_qr_scan", "android": "https://dc.lft.to/lastmile_qr_scan"}, "fusion_lon": 0.0, "lon": -77.0281095, "lat": 38.90129233333333, "is_reserved": 0, "name": "a1cc95fa1a88cdbbd2002bf17d3291df", "is_disabled": 0, "type": "electric_scooter", "fusion_lat": 0.0, "bike_id": "a1cc95fa1a88cdbbd2002bf17d3291df"}, {"rental_uris": {"ios": "https://dc.lft.to/lastmile_qr_scan", "android": "https://dc.lft.to/lastmile_qr_scan"}, "fusion_lon": 0.0, "lon": -77.0528785, "lat": 38.910587666666665, "is_reserved": 0, "name": "55a724eeef1f82d9741cfcf08dae1193", "is_disabled": 0, "type": "electric_scooter", "fusion_lat": 0.0, "bike_id": "55a724eeef1f82d9741cfcf08dae1193"}, {"rental_uris": {"ios": "https://dc.lft.to/lastmile_qr_scan", "android": "https://dc.lft.to/lastmile_qr_scan"}, "fusion_lon": 0.0, "lon": -77.0217385, "lat": 38.9141635, "is_reserved": 0, "name": "8bebc7e2d9e2902eba03667b721e1807", "is_disabled": 0, "type": "electric_scooter", "fusion_lat": 0.0, "bike_id": "8bebc7e2d9e2902eba03667b721e1807"}, {"rental_uris": {"ios": "https://dc.lft.to/lastmile_qr_scan", "android": "https://dc.lft.to/lastmile_qr_scan"}, "fusion_lon": 0.0, "lon": -77.0403155, "lat": 38.9306055, "is_reserved": 0, "name": "9ff98521305907cb314db72bad5de9c9", "is_disabled": 0, "type": "electric_scooter", "fusion_lat": 0.0, "bike_id": "9ff98521305907cb314db72bad5de9c9"}, {"rental_uris": {"ios": "https://dc.lft.to/lastmile_qr_scan", "android": "https://dc.lft.to/lastmile_qr_scan"}, "fusion_lon": 0.0, "lon": -77.048349, "lat": 38.90028266666667, "is_reserved": 0, "name": "d3bd1ffd34ae3922b0c7af55679e40ee", "is_disabled": 0, "type": "electric_scooter", "fusion_lat": 0.0, "bike_id": "d3bd1ffd34ae3922b0c7af55679e40ee"}, {"rental_uris": {"ios": "https://dc.lft.to/lastmile_qr_scan", "android": "https://dc.lft.to/lastmile_qr_scan"}, "fusion_lon": 0.0, "lon": -77.00228783333333, "lat": 38.925115166666664, "is_reserved": 0, "name": "870b8de8c60545d9a889f9fd259b1fef", "is_disabled": 0, "type": "electric_scooter", "fusion_lat": 0.0, "bike_id": "870b8de8c60545d9a889f9fd259b1fef"}, {"rental_uris": {"ios": "https://dc.lft.to/lastmile_qr_scan", "android": "https://dc.lft.to/lastmile_qr_scan"}, "fusion_lon": 0.0, "lon": -77.03444983333333, "lat": 38.921552166666665, "is_reserved": 0, "name": "868e909b0bf7efd8d55c984fe0893ab0", "is_disabled": 0, "type": "electric_scooter", "fusion_lat": 0.0, "bike_id": "868e909b0bf7efd8d55c984fe0893ab0"}, {"rental_uris": {"ios": "https://dc.lft.to/lastmile_qr_scan", "android": "https://dc.lft.to/lastmile_qr_scan"}, "fusion_lon": 0.0, "lon": -77.06609283333333, "lat": 38.93659533333334, "is_reserved": 0, "name": "e7071860f03e9605623c76ecf5989653", "is_disabled": 0, "type": "electric_scooter", "fusion_lat": 0.0, "bike_id": "e7071860f03e9605623c76ecf5989653"}, {"rental_uris": {"ios": "https://dc.lft.to/lastmile_qr_scan", "android": "https://dc.lft.to/lastmile_qr_scan"}, "fusion_lon": 0.0, "lon": -77.00631733333333, "lat": 38.87171133333333, "is_reserved": 0, "name": "392d38dd87567d61bdb4a51b15c1268e", "is_disabled": 0, "type": "electric_scooter", "fusion_lat": 0.0, "bike_id": "392d38dd87567d61bdb4a51b15c1268e"}, {"rental_uris": {"ios": "https://dc.lft.to/lastmile_qr_scan", "android": "https://dc.lft.to/lastmile_qr_scan"}, "fusion_lon": 0.0, "lon": -77.0007245, "lat": 38.882633, "is_reserved": 0, "name": "6e78ab4123e53b540c2d9f0c327557e0", "is_disabled": 0, "type": "electric_scooter", "fusion_lat": 0.0, "bike_id": "6e78ab4123e53b540c2d9f0c327557e0"}, {"rental_uris": {"ios": "https://dc.lft.to/lastmile_qr_scan", "android": "https://dc.lft.to/lastmile_qr_scan"}, "fusion_lon": 0.0, "lon": -77.03471883333333, "lat": 38.922528166666666, "is_reserved": 0, "name": "ce3255de6a993e9fecd3cc744df50347", "is_disabled": 0, "type": "electric_scooter", "fusion_lat": 0.0, "bike_id": "ce3255de6a993e9fecd3cc744df50347"}, {"rental_uris": {"ios": "https://dc.lft.to/lastmile_qr_scan", "android": "https://dc.lft.to/lastmile_qr_scan"}, "fusion_lon": 0.0, "lon": -77.037892, "lat": 38.92377833333333, "is_reserved": 0, "name": "e0f8fc40632d88e4bbce6c9b91516fb9", "is_disabled": 0, "type": "electric_scooter", "fusion_lat": 0.0, "bike_id": "e0f8fc40632d88e4bbce6c9b91516fb9"}, {"rental_uris": {"ios": "https://dc.lft.to/lastmile_qr_scan", "android": "https://dc.lft.to/lastmile_qr_scan"},