{"data": {"bikes": [{"fusion_lat": 0.0, "type": "electric_scooter", "name": "cf1d69a6dec296134109748efab90a77", "fusion_lon": 0.0, "bike_id": "cf1d69a6dec296134109748efab90a77", "is_reserved": 0, "rental_uris": {"android": "https://dc.lft.to/lastmile_qr_scan", "ios": "https://dc.lft.to/lastmile_qr_scan"}, "lat": 38.90120966666667, "is_disabled": 0, "lon": -77.043388}, {"fusion_lat": 0.0, "type": "electric_scooter", "name": "7904eb4f800c4b904a31c4dfa0edd400", "fusion_lon": 0.0, "bike_id": "7904eb4f800c4b904a31c4dfa0edd400", "is_reserved": 0, "rental_uris": {"android": "https://dc.lft.to/lastmile_qr_scan", "ios": "https://dc.lft.to/lastmile_qr_scan"}, "lat": 38.93337533333333, "is_disabled": 0, "lon": -77.0571075}, {"fusion_lat": 0.0, "type": "electric_scooter", "name": "898ecb72a4711aa88ade08fb26f4c6ed", "fusion_lon": 0.0, "bike_id": "898ecb72a4711aa88ade08fb26f4c6ed", "is_reserved": 0, "rental_uris": {"android": "https://dc.lft.to/lastmile_qr_scan", "ios": "https://dc.lft.to/lastmile_qr_scan"}, "lat": 38.870780833333335, "is_disabled": 0, "lon": -76.9890915}, {"fusion_lat": 0.0, "type": "electric_bike", "name": "5b69eaab577ff7777ea77e46081d335f", "fusion_lon": 0.0, "bike_id": "5b69eaab577ff7777ea77e46081d335f", "is_reserved": 0, "rental_uris": {"android": "https://dc.lft.to/lastmile_qr_scan", "ios": "https://dc.lft.to/lastmile_qr_scan"}, "lat": 38.936430666666666, "is_disabled": 0, "lon": -77.036904}, {"fusion_lat": 0.0, "type": "electric_scooter", "name": "3885efca6c0368655769767ea8b0b938", "fusion_lon": 0.0, "bike_id": "3885efca6c0368655769767ea8b0b938", "is_reserved": 0, "rental_uris": {"android": "https://dc.lft.to/lastmile_qr_scan", "ios": "https://dc.lft.to/lastmile_qr_scan"}, "lat": 38.885909166666664, "is_disabled": 0, "lon": -77.0174955}, {"fusion_lat": 0.0, "type": "electric_bike", "name": "4418dc4795d106f97647ed856e297be0", "fusion_lon": 0.0, "bike_id": "4418dc4795d106f97647ed856e297be0", "is_reserved": 0, "rental_uris": {"android": "https://dc.lft.to/lastmile_qr_scan", "ios": "https://dc.lft.to/lastmile_qr_scan"}, "lat": 38.878390333333336, "is_disabled": 0, "lon": -76.98378483333333}, {"fusion_lat": 0.0, "type": "electric_scooter", "name": "af9d5e9d96abbfd24a3766d23fc4de84", "fusion_lon": 0.0, "bike_id": "af9d5e9d96abbfd24a3766d23fc4de84", "is_reserved": 0, "rental_uris": {"android": "https://dc.lft.to/lastmile_qr_scan", "ios": "https://dc.lft.to/lastmile_qr_scan"}, "lat": 38.95841816666667, "is_disabled": 0, "lon": -77.06861333333333}, {"fusion_lat": 0.0, "type": "electric_scooter", "name": "4d9d07af16b2b30d1c87dee2584e90d7", "fusion_lon": 0.0, "bike_id": "4d9d07af16b2b30d1c87dee2584e90d7", "is_reserved": 0, "rental_uris": {"android": "https://dc.lft.to/lastmile_qr_scan", "ios": "https://dc.lft.to/lastmile_qr_scan"}, "lat": 38.90671666666667, "is_disabled": 0, "lon": -77.005956}, {"fusion_lat": 0.0, "type": "electric_scooter", "name": "d11592c88c5ba498308f92222e712c00", "fusion_lon": 0.0, "bike_id": "d11592c88c5ba498308f92222e712c00", "is_reserved": 0, "rental_uris": {"android": "https://dc.lft.to/lastmile_qr_scan", "ios": "https://dc.lft.to/lastmile_qr_scan"}, "lat": 38.92856583333333, "is_disabled": 0, "lon": -77.03093316666667}, {"fusion_lat": 0.0, "type": "electric_scooter", "name": "cd37468a288a7a3ba6dcd45120889253", "fusion_lon": 0.0, "bike_id": "cd37468a288a7a3ba6dcd45120889253", "is_reserved": 0, "rental_uris": {"android": "https://dc.lft.to/lastmile_qr_scan", "ios": "https://dc.lft.to/lastmile_qr_scan"}, "lat": 38.9147925, "is_disabled": 0, "lon": -77.02583616666666}, {"fusion_lat": 0.0, "type": "electric_scooter", "name": "19c50ed18309c17982e77a339f5311a7", "fusion_lon": 0.0, "bike_id": "19c50ed18309c17982e77a339f5311a7", "is_reserved": 0, "rental_uris": {"android": "https://dc.lft.to/lastmile_qr_scan", "ios": "https://dc.lft.to/lastmile_qr_scan"}, "lat": 38.92487033333333, "is_disabled": 0, "lon": -77.02141333333333}, {"fusion_lat": 0.0, "type": "electric_scooter", "name": "9329990305a089de16207d154c09fc56", "fusion_lon": 0.0, "bike_id": "9329990305a089de16207d154c09fc56", "is_reserved": 0, "rental_uris": {"android": "https://dc.lft.to/lastmile_qr_scan", "ios": "https://dc.lft.to/lastmile_qr_scan"}, "lat": 38.907394333333336, "is_disabled": 0, "lon": -77.00120283333334}, {"fusion_lat": 0.0, "type": "electric_bike", "name": "f50b2384f5d2003c9abdf953d663c509", "fusion_lon": 0.0, "bike_id": "f50b2384f5d2003c9abdf953d663c509", "is_reserved": 0, "rental_uris": {"android": "https://dc.lft.to/lastmile_qr_scan", "ios": "https://dc.lft.to/lastmile_qr_scan"}, "lat": 38.9339795, "is_disabled": 0, "lon": -77.03542966666667}, {"fusion_lat": 0.0, "type": "electric_scooter", "name": "a2383f1ba418e8ab635c9ff3d5d7c18c", "fusion_lon": 0.0, "bike_id": "a2383f1ba418e8ab635c9ff3d5d7c18c", "is_reserved": 0, "rental_uris": {"android": "https://dc.lft.to/lastmile_qr_scan", "ios": "https://dc.lft.to/lastmile_qr_scan"}, "lat": 38.920296, "is_disabled": 0, "lon": -77.011161}, {"fusion_lat": 0.0, "type": "electric_scooter", "name": "044f30a455436a17ace466bf281c1364", "fusion_lon": 0.0, "bike_id": "044f30a455436a17ace466bf281c1364", "is_reserved": 0, "rental_uris": {"android": "https://dc.lft.to/lastmile_qr_scan", "ios": "https://dc.lft.to/lastmile_qr_scan"}, "lat": 38.92794933333333, "is_disabled": 0, "lon": -77.02479166666667}, {"fusion_lat": 0.0, "type": "electric_scooter", "name": "a380b0dd7e17783735a4ae821aa2715c", "fusion_lon": 0.0, "bike_id": "a380b0dd7e17783735a4ae821aa2715c", "is_reserved": 0, "rental_uris": {"android": "https://dc.lft.to/lastmile_qr_scan", "ios": "https://dc.lft.to/lastmile_qr_scan"}, "lat": 38.920582833333334, "is_disabled": 0, "lon": -77.039982}, {"fusion_lat": 0.0, "type": "electric_scooter", "name": "e66c5740a9ad92f4128f89db21fb0950", "fusion_lon": 0.0, "bike_id": "e66c5740a9ad92f4128f89db21fb0950", "is_reserved": 0, "rental_uris": {"android": "https://dc.lft.to/lastmile_qr_scan", "ios": "https://dc.lft.to/lastmile_qr_scan"}, "lat": 38.97368133333333, "is_disabled": 0, "lon": -77.01864733333333}, {"fusion_lat": 0.0, "type": "electric_scooter", "name": "f84c1da1b550a61b2a49b5f3ce93369d", "fusion_lon": 0.0, "bike_id": "f84c1da1b550a61b2a49b5f3ce93369d", "is_reserved": 0, "rental_uris": {"android": "https://dc.lft.to/lastmile_qr_scan", "ios": "https://dc.lft.to/lastmile_qr_scan"}, "lat": 38.920061833333335, "is_disabled": 0, "lon": -77.03212483333333}, {"fusion_lat": 0.0, "type": "electric_scooter", "name": "4ee7c4d425f661bdbf18f27c9817e9cc", "fusion_lon": 0.0, "bike_id": "4ee7c4d425f661bdbf18f27c9817e9cc", "is_reserved": 0, "rental_uris": {"android": "https://dc.lft.to/lastmile_qr_scan", "ios": "https://dc.lft.to/lastmile_qr_scan"}, "lat": 38.921484666666665, "is_disabled": 0, "lon": -77.0387835}, {"fusion_lat": 0.0, "type": "electric_scooter", "name": "a488cf1986c4734b8ba21797ea4e4d84", "fusion_lon": 0.0, "bike_id": "a488cf1986c4734b8ba21797ea4e4d84", "is_reserved": 0, "rental_uris": {"android": "https://dc.lft.to/lastmile_qr_scan", "ios": "https://dc.lft.to/lastmile_qr_scan"}, "lat": 38.92912283333333, "is_disabled": 0, "lon": -77.02190566666667}, {"fusion_lat": 0.0, "type": "electric_scooter", "name": "d440cb660f26a2eca91f2bee7bd66ec2", "fusion_lon": 0.0, "bike_id": "d440cb660f26a2eca91f2bee7bd66ec2", "is_reserved": 0, "rental_uris": {"android": "https://dc.lft.to/lastmile_qr_scan", "ios": "https://dc.lft.to/lastmile_qr_scan"}, "lat": 38.899122166666665, "is_disabled": 0, "lon": -76.9337115}, {"fusion_lat": 0.0, "type": "electric_scooter", "name": "b9bf7daf9169f532f0a4d91afb2a16ae", "fusion_lon": 0.0, "bike_id": "b9bf7daf9169f532f0a4d91afb2a16ae", "is_reserved": 0, "rental_uris": {"android": "https://dc.lft.to/lastmile_qr_scan", "ios": "https://dc.lft.to/lastmile_qr_scan"}, "lat": 38.90007966666667, "is_disabled": 0, "lon": -77.026245}, {"fusion_lat": 0.0, "type": "electric_scooter", "name": "7cfe576e7acf94d2e2145b4b9fcde8f4", "fusion_lon": 0.0, "bike_id": "7cfe576e7acf94d2e2145b4b9fcde8f4", "is_reserved": 0, "rental_uris": {"android": "https://dc.lft.to/lastmile_qr_scan", "ios": "https://dc.lft.to/lastmile_qr_scan"}, "lat": 38.914030833333335, "is_disabled": 0, "lon": -77.02022883333333}, {"fusion_lat": 0.0, "type": "electric_scooter", "name": "5e570c2ac644b3f8651066711c085e7a", "fusion_lon": 0.0, "bike_id": "5e570c2ac644b3f8651066711c085e7a", "is_reserved": 0, "rental_uris": {"android": "https://dc.lft.to/lastmile_qr_scan", "ios": "https://dc.lft.to/lastmile_qr_scan"}, "lat": 38.896057, "is_disabled": 0, "lon": -77.04467466666667}, {"fusion_lat": 0.0, "type": "electric_scooter", "name": "35618fe7da9dbe21e43d3e0c54a0ddf4", "fusion_lon": 0.0, "bike_id": "35618fe7da9dbe21e43d3e0c54a0ddf4", "is_reserved": 0, "rental_uris": {"android": "https://dc.lft.to/lastmile_qr_scan", "ios": "https://dc.lft.to/lastmile_qr_scan"}, "lat": 38.90273633333334, "is_disabled": 0, "lon": -77.00325383333333}, {"fusion_lat": 0.0, "type": "electric_bike", "name": "c0dafafc9763a4733eeb3f16b99f8ba3", "fusion_lon": 0.0, "bike_id": "c0dafafc9763a4733eeb3f16b99f8ba3", "is_reserved": 0, "rental_uris": {"android": "https://dc.lft.to/lastmile_qr_scan", "ios": "https://dc.lft.to/lastmile_qr_scan"}, "lat": 38.9191135, "is_disabled": 0, "lon": -77.07042466666667}, {"fusion_lat": 0.0, "type": "electric_scooter", "name": "3e88a0d3ca5fc44e0dcd2229c12418aa", "fusion_lon": 0.0, "bike_id": "3e88a0d3ca5fc44e0dcd2229c12418aa", "is_reserved": 0, "rental_uris": {"android": "https://dc.lft.to/lastmile_qr_scan", "ios": "https://dc.lft.to/lastmile_qr_scan"}, "lat": 38.8972805, "is_disabled": 0, "lon": -77.04313566666667}, {"fusion_lat": 0.0, "type": "electric_scooter", "name": "b16b9dd0237e4ab0e8088a8a61630f86", "fusion_lon": 0.0, "bike_id": "b16b9dd0237e4ab0e8088a8a61630f86", "is_reserved": 0, "rental_uris": {"android": "https://dc.lft.to/lastmile_qr_scan", "ios": "https://dc.lft.to/lastmile_qr_scan"}, "lat": 38.89729616666666, "is_disabled": 0, "lon": -77.04369683333333}, {"fusion_lat": 0.0, "type": "electric_scooter", "name": "100717e16264b5c4ce390ae1b0b5d5b3", "fusion_lon": 0.0, "bike_id": "100717e16264b5c4ce390ae1b0b5d5b3", "is_reserved": 0, "rental_uris": {"android": "https://dc.lft.to/lastmile_qr_scan", "ios": "https://dc.lft.to/lastmile_qr_scan"}, "lat": 38.89180483333333, "is_disabled": 0, "lon": -76.990328}, {"fusion_lat": 0.0, "type": "electric_scooter", "name": "e2d9a743dc095208fd4c0196e84f9441", "fusion_lon": 0.0, "bike_id": "e2d9a743dc095208fd4c0196e84f9441", "is_reserved": 0, "rental_uris": {"android": "https://dc.lft.to/lastmile_qr_scan", "ios": "https://dc.lft.to/lastmile_qr_scan"}, "lat": 38.91102016666667, "is_disabled": 0, "lon": -77.00462833333333}, {"fusion_lat": 0.0, "type": "electric_bike", "name": "f0e58c5deec4f7b3c81a3e50834defba", "fusion_lon": 0.0, "bike_id": "f0e58c5deec4f7b3c81a3e50834defba", "is_reserved": 0, "rental_uris": {"android": "https://dc.lft.to/lastmile_qr_scan", "ios": "https://dc.lft.to/lastmile_qr_scan"}, "lat": 38.95956266666666, "is_disabled": 0, "lon": -77.10089916666666}, {"fusion_lat": 0.0, "type": "electric_scooter", "name": "c356d221582011da135fe75859472244", "fusion_lon": 0.0, "bike_id": "c356d221582011da135fe75859472244", "is_reserved": 0, "rental_uris": {"android": "https://dc.lft.to/lastmile_qr_scan", "ios": "https://dc.lft.to/lastmile_qr_scan"}, "lat": 38.92364383333334, "is_disabled": 0, "lon": -77.05054133333333}, {"fusion_lat": 0.0, "type": "electric_scooter", "name": "050d879ef7a72741a22d0978e480a3e2", "fusion_lon": 0.0, "bike_id": "050d879ef7a72741a22d0978e480a3e2", "is_reserved": 0, "rental_uris": {"android": "https://dc.lft.to/lastmile_qr_scan", "ios": "https://dc.lft.to/lastmile_qr_scan"}, "lat": 38.933472333333334, "is_disabled": 0, "lon": -77.04119233333333}, {"fusion_lat": 0.0, "type": "electric_bike", "name": "3a34f5c84843518cdd8395c35c0714f3", "fusion_lon": 0.0, "bike_id": "3a34f5c84843518cdd8395c35c0714f3", "is_reserved": 0, "rental_uris": {"android": "https://dc.lft.to/lastmile_qr_scan", "ios": "https://dc.lft.to/lastmile_qr_scan"}, "lat": 38.831582166666664, "is_disabled": 0, "lon": -76.99544816666666}, {"fusion_lat": 0.0, "type": "electric_scooter", "name": "dec054356a17af030683cfa65d79a2d9", "fusion_lon": 0.0, "bike_id": "dec054356a17af030683cfa65d79a2d9", "is_reserved": 0, "rental_uris": {"android": "https://dc.lft.to/lastmile_qr_scan", "ios": "https://dc.lft.to/lastmile_qr_scan"}, "lat": 38.865785833333334, "is_disabled": 0, "lon": -76.989153}, {"fusion_lat": 0.0, "type": "electric_bike", "name": "029425e4ec9b375c00f6bf5c55e58e92", "fusion_lon": 0.0, "bike_id": "029425e4ec9b375c00f6bf5c55e58e92", "is_reserved": 0, "rental_uris": {"android": "https://dc.lft.to/lastmile_qr_scan", "ios": "https://dc.lft.to/lastmile_qr_scan"}, "lat": 38.812025166666665, "is_disabled": 0, "lon": -77.10833466666666}, {"fusion_lat": 0.0, "type": "electric_scooter", "name": "f0298e9aed7cb9d5cc4f6300ee0f8d1b", "fusion_lon": 0.0, "bike_id": "f0298e9aed7cb9d5cc4f6300ee0f8d1b", "is_reserved": 0, "rental_uris": {"android": "https://dc.lft.to/lastmile_qr_scan", "ios": "https://dc.lft.to/lastmile_qr_scan"}, "lat": 38.92140833333333, "is_disabled": 0, "lon": -77.02874016666667}, {"fusion_lat": 0.0, "type": "electric_scooter", "name": "358c2f080a83b961e3f0128cac53534b", "fusion_lon": 0.0, "bike_id": "358c2f080a83b961e3f0128cac53534b", "is_reserved": 0, "rental_uris": {"android": "https://dc.lft.to/lastmile_qr_scan", "ios": "https://dc.lft.to/lastmile_qr_scan"}, "lat": 38.92339616666667, "is_disabled": 0, "lon": -77.02114033333334}, {"fusion_lat": 0.0, "type": "electric_scooter", "name": "93a82f2d1fb96ccf142726865ce324dc", "fusion_lon": 0.0, "bike_id": "93a82f2d1fb96ccf142726865ce324dc", "is_reserved": 0, "rental_uris": {"android": "https://dc.lft.to/lastmile_qr_scan", "ios": "https://dc.lft.to/lastmile_qr_scan"}, "lat": 38.88458, "is_disabled": 0, "lon": -76.92620566666666}, {"fusion_lat": 0.0, "type": "electric_bike", "name": "edc78b75c4555f6acfa15a6500bf4403", "fusion_lon": 0.0, "bike_id": "edc78b75c4555f6acfa15a6500bf4403", "is_reserved": 0, "rental_uris": {"android": "https://dc.lft.to/lastmile_qr_scan", "ios": "https://dc.lft.to/lastmile_qr_scan"}, "lat": 38.96223333333333, "is_disabled": 0, "lon": -77.0262465}, {"fusion_lat": 0.0, "type": "electric_scooter", "name": "41c2fa482098c2b8e8c31fe6869d45e6", "fusion_lon": 0.0, "bike_id": "41c2fa482098c2b8e8c31fe6869d45e6", "is_reserved": 0, "rental_uris": {"android": "https://dc.lft.to/lastmile_qr_scan", "ios": "https://dc.lft.to/lastmile_qr_scan"}, "lat": 38.93458033333334, "is_disabled": 0, "lon": -77.02220983333333}, {"fusion_lat": 0.0, "type": "electric_bike", "name": "55f8f00aa35807558a4149f885bd9d6a", "fusion_lon": 0.0, "bike_id": "55f8f00aa35807558a4149f885bd9d6a", "is_reserved": 0, "rental_uris": {"android": "https://dc.lft.to/lastmile_qr_scan", "ios": "https://dc.lft.to/lastmile_qr_scan"}, "lat": 38.93867133333333, "is_disabled": 0, "lon": -76.94293883333333}, {"fusion_lat": 0.0, "type": "electric_scooter", "name": "27a4549957e890dcb07624fb35f2b733", "fusion_lon": 0.0, "bike_id": "27a4549957e890dcb07624fb35f2b733", "is_reserved": 0, "rental_uris": {"android": "https://dc.lft.to/lastmile_qr_scan", "ios": "https://dc.lft.to/lastmile_qr_scan"}, "lat": 38.90157266666667, "is_disabled": 0, "lon": -77.05108066666666}, {"fusion_lat": 0.0, "type": "electric_scooter", "name": "ffe2ce4724217c2569a09525b39d3d20", "fusion_lon": 0.0, "bike_id": "ffe2ce4724217c2569a09525b39d3d20", "is_reserved": 0, "rental_uris": {"android": "https://dc.lft.to/lastmile_qr_scan", "ios": "https://dc.lft.to/lastmile_qr_scan"}, "lat": 38.886237, "is_disabled": 0, "lon": -77.01978883333334}, {"fusion_lat": 0.0, "type": "electric_scooter", "name": "f2353480dee100eafe4ac7e2f2a239f8", "fusion_lon": 0.0, "bike_id": "f2353480dee100eafe4ac7e2f2a239f8", "is_reserved": 0, "rental_uris": {"android": "https://dc.lft.to/lastmile_qr_scan", "ios": "https://dc.lft.to/lastmile_qr_scan"}, "lat": 38.871858833333334, "is_disabled": 0, "lon": -77.00580866666667}, {"fusion_lat": 0.0, "type": "electric_scooter", "name": "c23ebd5145e865cf6428aeea1c97240f", "fusion_lon": 0.0, "bike_id": "c23ebd5145e865cf6428aeea1c97240f", "is_reserved": 0, "rental_uris": {"android": "https://dc.lft.to/lastmile_qr_scan", "ios": "https://dc.lft.to/lastmile_qr_scan"}, "lat": 38.8951035, "is_disabled": 0, "lon": -76.94884766666667}, {"fusion_lat": 0.0, "type": "electric_scooter", "name": "2e9993d253286f8bd62e7531ee592d4b", "fusion_lon": 0.0, "bike_id": "2e9993d253286f8bd62e7531ee592d4b", "is_reserved": 0, "rental_uris": {"android": "https://dc.lft.to/lastmile_qr_scan", "ios": "https://dc.lft.to/lastmile_qr_scan"}, "lat": 38.9113495, "is_disabled": 0, "lon": -77.04411783333333}, {"fusion_lat": 0.0, "type": "electric_scooter", "name": "3091d486459936b91d0593dee12f0df4", "fusion_lon": 0.0, "bike_id": "3091d486459936b91d0593dee12f0df4", "is_reserved": 0, "rental_uris": {"android": "https://dc.lft.to/lastmile_qr_scan", "ios": "https://dc.lft.to/lastmile_qr_scan"}, "lat": 38.942032833333336, "is_disabled": 0, "lon": -77.02501516666666}, {"fusion_lat": 0.0, "type": "electric_scooter", "name": "6ebb1a681ec62020d0a64da4237cce87", "fusion_lon": 0.0, "bike_id": "6ebb1a681ec62020d0a64da4237cce87", "is_reserved": 0, "rental_uris": {"android": "https://dc.lft.to/lastmile_qr_scan", "ios": "https://dc.lft.to/lastmile_qr_scan"}, "lat": 38.8650545, "is_disabled": 0, "lon": -76.99000966666667}, {"fusion_lat": 0.0, "type": "electric_bike", "name": "74374fad49921f82f30ed4347ae069cd", "fusion_lon": 0.0, "bike_id": "74374fad49921f82f30ed4347ae069cd", "is_reserved": 0, "rental_uris": {"android": "https://dc.lft.to/lastmile_qr_scan", "ios": "https://dc.lft.to/lastmile_qr_scan"}, "lat": 38.957641333333335, "is_disabled": 0, "lon": -77.00708466666667}, {"fusion_lat": 0.0, "type": "electric_scooter", "name": "9b9bf834b18f70b48bfd113732d0bded", "fusion_lon": 0.0, "bike_id": "9b9bf834b18f70b48bfd113732d0bded", "is_reserved": 0, "rental_uris": {"android": "https://dc.lft.to/lastmile_qr_scan", "ios": "https://dc.lft.to/lastmile_qr_scan"}, "lat": 38.928937833333336, "is_disabled": 0, "lon": -77.01936316666666}, {"fusion_lat": 0.0, "type": "electric_scooter", "name": "dae3c80dff7496cd74a662ce65ca82be", "fusion_lon": 0.0, "bike_id": "dae3c80dff7496cd74a662ce65ca82be", "is_reserved": 0, "rental_uris": {"android": "https://dc.lft.to/lastmile_qr_scan", "ios": "https://dc.lft.to/lastmile_qr_scan"}, "lat": 38.8987775, "is_disabled": 0, "lon": -76.9318895}, {"fusion_lat": 0.0, "type": "electric_scooter", "name": "242af2a6f363c60c2b96226e21b34e27", "fusion_lon": 0.0, "bike_id": "242af2a6f363c60c2b96226e21b34e27", "is_reserved": 0, "rental_uris": {"android": "https://dc.lft.to/lastmile_qr_scan", "ios": "https://dc.lft.to/lastmile_qr_scan"}, "lat": 38.94988566666667, "is_disabled": 0, "lon": -77.02703616666666}, {"fusion_lat": 0.0, "type": "electric_scooter", "name": "7d2b42ba4fe6bb8fff9dff3c0c98cce9", "fusion_lon": 0.0, "bike_id": "7d2b42ba4fe6bb8fff9dff3c0c98cce9", "is_reserved": 0, "rental_uris": {"android": "https://dc.lft.to/lastmile_qr_scan", "ios": "https://dc.lft.to/lastmile_qr_scan"}, "lat": 38.93606283333333, "is_disabled": 0, "lon": -77.05893416666666}, {"fusion_lat": 0.0, "type": "electric_scooter", "name": "9b152e22d042e64b9ada4e8b4d945023", "fusion_lon": 0.0, "bike_id": "9b152e22d042e64b9ada4e8b4d945023", "is_reserved": 0, "rental_uris": {"android": "https://dc.lft.to/lastmile_qr_scan", "ios": "https://dc.lft.to/lastmile_qr_scan"}, "lat": 38.8919645, "is_disabled": 0, "lon": -76.93302233333333}, {"fusion_lat": 0.0, "type": "electric_scooter", "name": "555a1ce0f7b6f2ad08252c85a9e2328f", "fusion_lon": 0.0, "bike_id": "555a1ce0f7b6f2ad08252c85a9e2328f", "is_reserved": 0, "rental_uris": {"android": "https://dc.lft.to/lastmile_qr_scan", "ios": "https://dc.lft.to/lastmile_qr_scan"}, "lat": 38.92656983333333, "is_disabled": 0, "lon": -77.0242965}, {"fusion_lat": 0.0, "type": "electric_scooter", "name": "63e67fbe62bdf2ccbffb82aa941346ef", "fusion_lon": 0.0, "bike_id": "63e67fbe62bdf2ccbffb82aa941346ef", "is_reserved": 0, "rental_uris": {"android": "https://dc.lft.to/lastmile_qr_scan", "ios": "https://dc.lft.to/lastmile_qr_scan"}, "lat": 38.907332333333336, "is_disabled": 0, "lon": -76.9869675}, {"fusion_lat": 0.0, "type": "electric_scooter", "name": "84dac44c01172d6fde86b87cb3cc26a1", "fusion_lon": 0.0, "bike_id": "84dac44c01172d6fde86b87cb3cc26a1", "is_reserved": 0, "rental_uris": {"android": "https://dc.lft.to/lastmile_qr_scan", "ios": "https://dc.lft.to/lastmile_qr_scan"}, "lat": 38.923698, "is_disabled": 0, "lon": -77.01920616666666}, {"fusion_lat": 0.0, "type": "electric_scooter", "name": "21116c63ec9a92d45a0e93c1311a851f", "fusion_lon": 0.0, "bike_id": "21116c63ec9a92d45a0e93c1311a851f", "is_reserved": 0, "rental_uris": {"android": "https://dc.lft.to/lastmile_qr_scan", "ios": "https://dc.lft.to/lastmile_qr_scan"}, "lat": 38.89245233333333, "is_disabled": 0, "lon": -77.022058}, {"fusion_lat": 0.0, "type": "electric_scooter", "name": "ccae700f4d2748924cf4b821a41ae2bc", "fusion_lon": 0.0, "bike_id": "ccae700f4d2748924cf4b821a41ae2bc", "is_reserved": 0, "rental_uris": {"android": "https://dc.lft.to/lastmile_qr_scan", "ios": "https://dc.lft.to/lastmile_qr_scan"}, "lat": 38.90737416666666, "is_disabled": 0, "lon": -77.0269405}, {"fusion_lat": 0.0, "type": "electric_scooter", "name": "7c7f2414dbb9edf73e4e855b2cb2ca48", "fusion_lon": 0.0, "bike_id": "7c7f2414dbb9edf73e4e855b2cb2ca48", "is_reserved": 0, "rental_uris": {"android": "https://dc.lft.to/lastmile_qr_scan", "ios": "https://dc.lft.to/lastmile_qr_scan"}, "lat": 38.905130166666666, "is_disabled": 0, "lon": -76.99608333333333}, {"fusion_lat": 0.0, "type": "electric_scooter", "name": "aab06d07942ef4a102cdb1f76402339b", "fusion_lon": 0.0, "bike_id": "aab06d07942ef4a102cdb1f76402339b", "is_reserved": 0, "rental_uris": {"android": "https://dc.lft.to/lastmile_qr_scan", "ios": "https://dc.lft.to/lastmile_qr_scan"}, "lat": 38.899017666666666, "is_disabled": 0, "lon": -77.0392885}, {"fusion_lat": 0.0, "type": "electric_scooter", "name": "9f5aaf25e5f78d2dc77b54278d5796ce", "fusion_lon": 0.0, "bike_id": "9f5aaf25e5f78d2dc77b54278d5796ce", "is_reserved": 0, "rental_uris": {"android": "https://dc.lft.to/lastmile_qr_scan", "ios": "https://dc.lft.to/lastmile_qr_scan"}, "lat": 38.9118465, "is_disabled": 0, "lon": -77.03498283333333}, {"fusion_lat": 0.0, "type": "electric_scooter", "name": "baf16e75bc3dbdf4b7a1e165fb097ba2", "fusion_lon": 0.0, "bike_id": "baf16e75bc3dbdf4b7a1e165fb097ba2", "is_reserved": 0, "rental_uris": {"android": "https://dc.lft.to/lastmile_qr_scan", "ios": "https://dc.lft.to/lastmile_qr_scan"}, "lat": 38.922511166666666, "is_disabled": 0, "lon": -77.02981283333334}, {"fusion_lat": 0.0, "type": "electric_scooter", "name": "1eec7fdf44e5b099593fa1628d28f32b", "fusion_lon": 0.0, "bike_id": "1eec7fdf44e5b099593fa1628d28f32b", "is_reserved": 0, "rental_uris": {"android": "https://dc.lft.to/lastmile_qr_scan", "ios": "https://dc.lft.to/lastmile_qr_scan"}, "lat": 38.89790566666667, "is_disabled": 0, "lon": -77.050233}, {"fusion_lat": 0.0, "type": "electric_scooter", "name": "2d1a8f60689498c6029e18bfaa258491", "fusion_lon": 0.0, "bike_id": "2d1a8f60689498c6029e18bfaa258491", "is_reserved": 0, "rental_uris": {"android": "https://dc.lft.to/lastmile_qr_scan", "ios": "https://dc.lft.to/lastmile_qr_scan"}, "lat": 38.896119, "is_disabled": 0, "lon": -76.99972866666667}, {"fusion_lat": 0.0, "type": "electric_scooter", "name": "7528ac370c112669b92463507623ee89", "fusion_lon": 0.0, "bike_id": "7528ac370c112669b92463507623ee89", "is_reserved": 0, "rental_uris": {"android": "https://dc.lft.to/lastmile_qr_scan", "ios": "https://dc.lft.to/lastmile_qr_scan"}, "lat": 38.953986666666665, "is_disabled": 0, "lon": -77.02782466666666}, {"fusion_lat": 0.0, "type": "electric_scooter", "name": "03a568bb68719216d7f462e7fd507a75", "fusion_lon": 0.0, "bike_id": "03a568bb68719216d7f462e7fd507a75", "is_reserved": 0, "rental_uris": {"android": "https://dc.lft.to/lastmile_qr_scan", "ios": "https://dc.lft.to/lastmile_qr_scan"}, "lat": 38.873406333333335, "is_disabled": 0, "lon": -76.99163966666667}, {"fusion_lat": 0.0, "type": "electric_scooter", "name": "c1ae992da691736ad0e817803b73fdc1", "fusion_lon": 0.0, "bike_id": "c1ae992da691736ad0e817803b73fdc1", "is_reserved": 0, "rental_uris": {"android": "https://dc.lft.to/lastmile_qr_scan", "ios": "https://dc.lft.to/lastmile_qr_scan"}, "lat": 38.92037083333334, "is_disabled": 0, "lon": -77.01219566666667}, {"fusion_lat": 0.0, "type": "electric_scooter", "name": "ee77187f98951acc8cc4d56eb31ff70d", "fusion_lon": 0.0, "bike_id": "ee77187f98951acc8cc4d56eb31ff70d", "is_reserved": 0, "rental_uris": {"android": "https://dc.lft.to/lastmile_qr_scan", "ios": "https://dc.lft.to/lastmile_qr_scan"}, "lat": 38.93092716666666, "is_disabled": 0, "lon": -77.02535583333334}, {"fusion_lat": 0.0, "type": "electric_scooter", "name": "a5917c05a1898a824e3625a639d93770", "fusion_lon": 0.0, "bike_id": "a5917c05a1898a824e3625a639d93770", "is_reserved": 0, "rental_uris": {"android": "https://dc.lft.to/lastmile_qr_scan", "ios": "https://dc.lft.to/lastmile_qr_scan"}, "lat": 38.9117115, "is_disabled": 0, "lon": -77.00444183333333}, {"fusion_lat": 0.0, "type": "electric_bike", "name": "0edef3a1bda884d024db75a9f343c4b1", "fusion_lon": 0.0, "bike_id": "0edef3a1bda884d024db75a9f343c4b1", "is_reserved": 0, "rental_uris": {"android": "https://dc.lft.to/lastmile_qr_scan", "ios": "https://dc.lft.to/lastmile_qr_scan"}, "lat": 38.906243333333336, "is_disabled": 0, "lon": -76.98601733333334}, {"fusion_lat": 0.0, "type": "electric_bike", "name": "ec6c84127f8df26b2f773572ccc2f81d", "fusion_lon": 0.0, "bike_id": "ec6c84127f8df26b2f773572ccc2f81d", "is_reserved": 0, "rental_uris": {"android": "https://dc.lft.to/lastmile_qr_scan", "ios": "https://dc.lft.to/lastmile_qr_scan"}, "lat": 39.043048666666664, "is_disabled": 0, "lon": -77.05157716666666}, {"fusion_lat": 0.0, "type": "electric_scooter", "name": "74329d062cf4cae5ff57f7283d368094", "fusion_lon": 0.0, "bike_id": "74329d062cf4cae5ff57f7283d368094", "is_reserved": 0, "rental_uris": {"android": "https://dc.lft.to/lastmile_qr_scan", "ios": "https://dc.lft.to/lastmile_qr_scan"}, "lat": 38.9004605, "is_disabled": 0, "lon": -77.03206316666666}, {"fusion_lat": 0.0, "type": "electric_scooter", "name": "89e72eb271a08e381c541fa503f2170e", "fusion_lon": 0.0, "bike_id": "89e72eb271a08e381c541fa503f2170e", "is_reserved": 0, "rental_uris": {"android": "https://dc.lft.to/lastmile_qr_scan", "ios": "https://dc.lft.to/lastmile_qr_scan"}, "lat": 38.922453, "is_disabled": 0, "lon": -77.03087}, {"fusion_lat": 0.0, "type": "electric_scooter", "name": "8c373d5fb2697766b76dc1ea28446fd7", "fusion_lon": 0.0, "bike_id": "8c373d5fb2697766b76dc1ea28446fd7", "is_reserved": 0, "rental_uris": {"android": "https://dc.lft.to/lastmile_qr_scan", "ios": "https://dc.lft.to/lastmile_qr_scan"}, "lat": 38.920561, "is_disabled": 0, "lon": -77.03389016666667}, {"fusion_lat": 0.0, "type": "electric_scooter", "name": "7a42526f06b8fa69e2ba9f11cd3ca6af", "fusion_lon": 0.0, "bike_id": "7a42526f06b8fa69e2ba9f11cd3ca6af", "is_reserved": 0, "rental_uris": {"android": "https://dc.lft.to/lastmile_qr_scan", "ios": "https://dc.lft.to/lastmile_qr_scan"}, "lat": 38.92351983333333, "is_disabled": 0, "lon": -77.03413}, {"fusion_lat": 0.0, "type": "electric_scooter", "name": "3d7ec5c6dbf790d82c4cc4360fa673d4", "fusion_lon": 0.0, "bike_id": "3d7ec5c6dbf790d82c4cc4360fa673d4", "is_reserved": 0, "rental_uris": {"android": "https://dc.lft.to/lastmile_qr_scan", "ios": "https://dc.lft.to/lastmile_qr_scan"}, "lat": 38.92428433333333, "is_disabled": 0, "lon": -77.05182983333333}, {"fusion_lat": 0.0, "type": "electric_scooter", "name": "652d2bb0878a43f76e223a1f21996fbf", "fusion_lon": 0.0, "bike_id": "652d2bb0878a43f76e223a1f21996fbf", "is_reserved": 0, "rental_uris": {"android": "https://dc.lft.to/lastmile_qr_scan", "ios": "https://dc.lft.to/lastmile_qr_scan"}, "lat": 38.93383033333333, "is_disabled": 0, "lon": -77.02963966666667}, {"fusion_lat": 0.0, "type": "electric_scooter", "name": "58b4da5a3e9a5c09ad0ff14eb3070262", "fusion_lon": 0.0, "bike_id": "58b4da5a3e9a5c09ad0ff14eb3070262", "is_reserved": 0, "rental_uris": {"android": "https://dc.lft.to/lastmile_qr_scan", "ios": "https://dc.lft.to/lastmile_qr_scan"}, "lat": 38.91712116666667, "is_disabled": 0, "lon": -77.03415283333334}, {"fusion_lat": 0.0, "type": "electric_scooter", "name": "8b3040d1de2166d97bfe9d18efdbe848", "fusion_lon": 0.0, "bike_id": "8b3040d1de2166d97bfe9d18efdbe848", "is_reserved": 0, "rental_uris": {"android": "https://dc.lft.to/lastmile_qr_scan", "ios": "https://dc.lft.to/lastmile_qr_scan"}, "lat": 38.9258595, "is_disabled": 0, "lon": -77.03984766666666}, {"fusion_lat": 0.0, "type": "electric_scooter", "name": "517a73d2ab8616c4e6d65f8f0cd4e719", "fusion_lon": 0.0, "bike_id": "517a73d2ab8616c4e6d65f8f0cd4e719", "is_reserved": 0, "rental_uris": {"android": "https://dc.lft.to/lastmile_qr_scan", "ios": "https://dc.lft.to/lastmile_qr_scan"}, "lat": 38.934465333333335, "is_disabled": 0, "lon": -77.02984366666666}, {"fusion_lat": 0.0, "type": "electric_scooter", "name": "c876f468114411cf7d69bf5dcaad5c18", "fusion_lon": 0.0, "bike_id": "c876f468114411cf7d69bf5dcaad5c18", "is_reserved": 0, "rental_uris": {"android": "https://dc.lft.to/lastmile_qr_scan", "ios": "https://dc.lft.to/lastmile_qr_scan"}, "lat": 38.928806, "is_disabled": 0, "lon": -77.03654216666666}, {"fusion_lat": 0.0, "type": "electric_bike", "name": "b7bd5b30fbdf0b002ab7b24bd784ecb6", "fusion_lon": 0.0, "bike_id": "b7bd5b30fbdf0b002ab7b24bd784ecb6", "is_reserved": 0, "rental_uris": {"android": "https://dc.lft.to/lastmile_qr_scan", "ios": "https://dc.lft.to/lastmile_qr_scan"}, "lat": 38.96320733333334, "is_disabled": 0, "lon": -76.973629}, {"fusion_lat": 0.0, "type": "electric_bike", "name": "2a1579ae56a464311f3d103b3b68278a", "fusion_lon": 0.0, "bike_id": "2a1579ae56a464311f3d103b3b68278a", "is_reserved": 0, "rental_uris": {"android": "https://dc.lft.to/lastmile_qr_scan", "ios": "https://dc.lft.to/lastmile_qr_scan"}, "lat": 38.866214666666664, "is_disabled": 0, "lon": -76.9457145}, {"fusion_lat": 0.0, "type": "electric_scooter", "name": "14de1db7e11f2f226ec07487cba97918", "fusion_lon": 0.0, "bike_id": "14de1db7e11f2f226ec07487cba97918", "is_reserved": 0, "rental_uris": {"android": "https://dc.lft.to/lastmile_qr_scan", "ios": "https://dc.lft.to/lastmile_qr_scan"}, "lat": 38.908677, "is_disabled": 0, "lon": -77.08586283333334}, {"fusion_lat": 0.0, "type": "electric_bike", "name": "771fddf9134625296ab915a0f9dff348", "fusion_lon": 0.0, "bike_id": "771fddf9134625296ab915a0f9dff348", "is_reserved": 0, "rental_uris": {"android": "https://dc.lft.to/lastmile_qr_scan", "ios": "https://dc.lft.to/lastmile_qr_scan"}, "lat": 38.96906933333333, "is_disabled": 0, "lon": -76.99497883333333}, {"fusion_lat": 0.0, "type": "electric_scooter", "name": "b7a00e4df6e7af31d08d02e130492758", "fusion_lon": 0.0, "bike_id": "b7a00e4df6e7af31d08d02e130492758", "is_reserved": 0, "rental_uris": {"android": "https://dc.lft.to/lastmile_qr_scan", "ios": "https://dc.lft.to/lastmile_qr_scan"}, "lat": 38.952274, "is_disabled": 0, "lon": -77.01426566666666}, {"fusion_lat": 0.0, "type": "electric_scooter", "name": "b01f119a9d3279d44fe7bc40420760a5", "fusion_lon": 0.0, "bike_id": "b01f119a9d3279d44fe7bc40420760a5", "is_reserved": 0, "rental_uris": {"android": "https://dc.lft.to/lastmile_qr_scan", "ios": "https://dc.lft.to/lastmile_qr_scan"}, "lat": 38.93089366666667, "is_disabled": 0, "lon": -77.00400316666666}, {"fusion_lat": 0.0, "type": "electric_scooter", "name": "750d44e5a4f56212b65e10825582841f", "fusion_lon": 0.0, "bike_id": "750d44e5a4f56212b65e10825582841f", "is_reserved": 0, "rental_uris": {"android": "https://dc.lft.to/lastmile_qr_scan", "ios": "https://dc.lft.to/lastmile_qr_scan"}, "lat": 38.929890666666665, "is_disabled": 0, "lon": -77.03471683333333}, {"fusion_lat": 0.0, "type": "electric_scooter", "name": "a36277a8beb08102a024fcf2d35989d2", "fusion_lon": 0.0, "bike_id": "a36277a8beb08102a024fcf2d35989d2", "is_reserved": 0, "rental_uris": {"android": "https://dc.lft.to/lastmile_qr_scan", "ios": "https://dc.lft.to/lastmile_qr_scan"}, "lat": 38.88988066666667, "is_disabled": 0, "lon": -76.983318}, {"fusion_lat": 0.0, "type": "electric_bike", "name": "9ac4b506eff5b888a49e1ed0b3051692", "fusion_lon": 0.0, "bike_id": "9ac4b506eff5b888a49e1ed0b3051692", "is_reserved": 0, "rental_uris": {"android": "https://dc.lft.to/lastmile_qr_scan", "ios": "https://dc.lft.to/lastmile_qr_scan"}, "lat": 38.898136666666666, "is_disabled": 0, "lon": -77.00607783333334}, {"fusion_lat": 0.0, "type": "electric_scooter", "name": "1f2886a18ffda61740667047991b1ad4", "fusion_lon": 0.0, "bike_id": "1f2886a18ffda61740667047991b1ad4", "is_reserved": 0, "rental_uris": {"android": "https://dc.lft.to/lastmile_qr_scan", "ios": "https://dc.lft.to/lastmile_qr_scan"}, "lat": 38.9286115, "is_disabled": 0, "lon": -77.03283866666666}, {"fusion_lat": 0.0, "type": "electric_scooter", "name": "f1e576d3c860f8b93c1d1b621d9ab4a5", "fusion_lon": 0.0, "bike_id": "f1e576d3c860f8b93c1d1b621d9ab4a5", "is_reserved": 0, "rental_uris": {"android": "https://dc.lft.to/lastmile_qr_scan", "ios": "https://dc.lft.to/lastmile_qr_scan"}, "lat": 38.92062333333333, "is_disabled": 0, "lon": -77.00495833333333}, {"fusion_lat": 0.0, "type": "electric_scooter", "name": "9863fe90f37decfe7e1c9751ba75d387", "fusion_lon": 0.0, "bike_id": "9863fe90f37decfe7e1c9751ba75d387", "is_reserved": 0, "rental_uris": {"android": "https://dc.lft.to/lastmile_qr_scan", "ios": "https://dc.lft.to/lastmile_qr_scan"}, "lat": 38.913259833333335, "is_disabled": 0, "lon": -77.0453775}, {"fusion_lat": 0.0, "type": "electric_scooter", "name": "7c377c50628c775b4cd60c68f6f01d39", "fusion_lon": 0.0, "bike_id": "7c377c50628c775b4cd60c68f6f01d39", "is_reserved": 0, "rental_uris": {"android": "https://dc.lft.to/lastmile_qr_scan", "ios": "https://dc.lft.to/lastmile_qr_scan"}, "lat": 38.90019433333333, "is_disabled": 0, "lon": -77.04494833333334}, {"fusion_lat": 0.0, "type": "electric_scooter", "name": "65d40a26a75f4a6af63249349fa15197", "fusion_lon": 0.0, "bike_id": "65d40a26a75f4a6af63249349fa15197", "is_reserved": 0, "rental_uris": {"android": "https://dc.lft.to/lastmile_qr_scan", "ios": "https://dc.lft.to/lastmile_qr_scan"}, "lat": 38.927113166666665, "is_disabled": 0, "lon": -77.04131716666667}, {"fusion_lat": 0.0, "type": "electric_scooter", "name": "59055bbceb43d382d867887e9662c152", "fusion_lon": 0.0, "bike_id": "59055bbceb43d382d867887e9662c152", "is_reserved": 0, "rental_uris": {"android": "https://dc.lft.to/lastmile_qr_scan", "ios": "https://dc.lft.to/lastmile_qr_scan"}, "lat": 38.9281485, "is_disabled": 0, "lon": -77.05527216666667}, {"fusion_lat": 0.0, "type": "electric_scooter", "name": "c7da7a43a9ab27ec09bc7f6f666cc861", "fusion_lon": 0.0, "bike_id": "c7da7a43a9ab27ec09bc7f6f666cc861", "is_reserved": 0, "rental_uris": {"android": "https://dc.lft.to/lastmile_qr_scan", "ios": "https://dc.lft.to/lastmile_qr_scan"}, "lat": 38.92853, "is_disabled": 0, "lon": -77.03297283333333}, {"fusion_lat": 0.0, "type": "electric_scooter", "name": "07fc458ad0b0867538366cfbd6b6fae6", "fusion_lon": 0.0, "bike_id": "07fc458ad0b0867538366cfbd6b6fae6", "is_reserved": 0, "rental_uris": {"android": "https://dc.lft.to/lastmile_qr_scan", "ios": "https://dc.lft.to/lastmile_qr_scan"}, "lat": 38.87364566666667, "is_disabled": 0, "lon": -76.97008466666666}, {"fusion_lat": 0.0, "type": "electric_scooter", "name": "0c62a1f1a7fe15d04f029db6ba752f38", "fusion_lon": 0.0, "bike_id": "0c62a1f1a7fe15d04f029db6ba752f38", "is_reserved": 0, "rental_uris": {"android": "https://dc.lft.to/lastmile_qr_scan", "ios": "https://dc.lft.to/lastmile_qr_scan"}, "lat": 38.906462833333336, "is_disabled": 0, "lon": -77.05123266666666}, {"fusion_lat": 0.0, "type": "electric_scooter", "name": "ee1d4d5311542d22a122ab156da1d786", "fusion_lon": 0.0, "bike_id": "ee1d4d5311542d22a122ab156da1d786", "is_reserved": 0, "rental_uris": {"android": "https://dc.lft.to/lastmile_qr_scan", "ios": "https://dc.lft.to/lastmile_qr_scan"}, "lat": 38.959347666666666, "is_disabled": 0, "lon": -77.03126633333333}, {"fusion_lat": 0.0, "type": "electric_scooter", "name": "435603cee09a3ac945b1d03cefa3eb96", "fusion_lon": 0.0, "bike_id": "435603cee09a3ac945b1d03cefa3eb96", "is_reserved": 0, "rental_uris": {"android": "https://dc.lft.to/lastmile_qr_scan", "ios": "https://dc.lft.to/lastmile_qr_scan"}, "lat": 38.94294283333333, "is_disabled": 0, "lon": -77.021699}, {"fusion_lat": 0.0, "type": "electric_scooter", "name": "ac8f8cf22fb19a1a2e9e8a6a0f8752c3", "fusion_lon": 0.0, "bike_id": "ac8f8cf22fb19a1a2e9e8a6a0f8752c3", "is_reserved": 0, "rental_uris": {"android": "https://dc.lft.to/lastmile_qr_scan", "ios": "https://dc.lft.to/lastmile_qr_scan"}, "lat": 38.927107666666664, "is_disabled": 0, "lon": -77.02409383333334}, {"fusion_lat": 0.0, "type": "electric_bike", "name": "44536326f88bc7e77ca36c15a9df3bf8", "fusion_lon": 0.0, "bike_id": "44536326f88bc7e77ca36c15a9df3bf8", "is_reserved": 0, "rental_uris": {"android": "https://dc.lft.to/lastmile_qr_scan", "ios": "https://dc.lft.to/lastmile_qr_scan"}, "lat": 38.846137, "is_disabled": 0, "lon": -76.96914316666667}, {"fusion_lat": 0.0, "type": "electric_scooter", "name": "6ceb694ce945d82ceb2bf4accd0d9072", "fusion_lon": 0.0, "bike_id": "6ceb694ce945d82ceb2bf4accd0d9072", "is_reserved": 0, "rental_uris": {"android": "https://dc.lft.to/lastmile_qr_scan", "ios": "https://dc.lft.to/lastmile_qr_scan"}, "lat": 38.913406, "is_disabled": 0, "lon": -77.03645116666667}, {"fusion_lat": 0.0, "type": "electric_scooter", "name": "2fad0dce6d44e49ad84c2b4a06d79d20", "fusion_lon": 0.0, "bike_id": "2fad0dce6d44e49ad84c2b4a06d79d20", "is_reserved": 0, "rental_uris": {"android": "https://dc.lft.to/lastmile_qr_scan", "ios": "https://dc.lft.to/lastmile_qr_scan"}, "lat": 38.90756533333333, "is_disabled": 0, "lon": -77.00093333333334}, {"fusion_lat": 0.0, "type": "electric_scooter", "name": "8cf3d6a8968879f50db9e1bf0abb245b", "fusion_lon": 0.0, "bike_id": "8cf3d6a8968879f50db9e1bf0abb245b", "is_reserved": 0, "rental_uris": {"android": "https://dc.lft.to/lastmile_qr_scan", "ios": "https://dc.lft.to/lastmile_qr_scan"}, "lat": 38.905567166666664, "is_disabled": 0, "lon": -77.0394035}, {"fusion_lat": 0.0, "type": "electric_scooter", "name": "8e7e9087ad69c70f69e83e0c7b15657d", "fusion_lon": 0.0, "bike_id": "8e7e9087ad69c70f69e83e0c7b15657d", "is_reserved": 0, "rental_uris": {"android": "https://dc.lft.to/lastmile_qr_scan", "ios": "https://dc.lft.to/lastmile_qr_scan"}, "lat": 38.92056433333333, "is_disabled": 0, "lon": -77.033492}, {"fusion_lat": 0.0, "type": "electric_bike", "name": "1cab390712e7a75e3b39067942002440", "fusion_lon": 0.0, "bike_id": "1cab390712e7a75e3b39067942002440", "is_reserved": 0, "rental_uris": {"android": "https://dc.lft.to/lastmile_qr_scan", "ios": "https://dc.lft.to/lastmile_qr_scan"}, "lat": 38.893512666666666, "is_disabled": 0, "lon": -77.1873775}, {"fusion_lat": 0.0, "type": "electric_scooter", "name": "6e8a01ce5c102be3714c80ba651664e8", "fusion_lon": 0.0, "bike_id": "6e8a01ce5c102be3714c80ba651664e8", "is_reserved": 0, "rental_uris": {"android": "https://dc.lft.to/lastmile_qr_scan", "ios": "https://dc.lft.to/lastmile_qr_scan"}, "lat": 38.8991685, "is_disabled": 0, "lon": -76.93383183333333}, {"fusion_lat": 0.0, "type": "electric_scooter", "name": "7402a227e3f3b56cbf468c5eec2c5613", "fusion_lon": 0.0, "bike_id": "7402a227e3f3b56cbf468c5eec2c5613", "is_reserved": 0, "rental_uris": {"android": "https://dc.lft.to/lastmile_qr_scan", "ios": "https://dc.lft.to/lastmile_qr_scan"}, "lat": 38.92166316666667, "is_disabled": 0, "lon": -77.03845633333333}, {"fusion_lat": 0.0, "type": "electric_scooter", "name": "e7dda3c2eb951afdab701c444c093d61", "fusion_lon": 0.0, "bike_id": "e7dda3c2eb951afdab701c444c093d61", "is_reserved": 0, "rental_uris": {"android": "https://dc.lft.to/lastmile_qr_scan", "ios": "https://dc.lft.to/lastmile_qr_scan"}, "lat": 38.902404, "is_disabled": 0, "lon": -77.0264705}, {"fusion_lat": 0.0, "type": "electric_scooter", "name": "7957efaa034d80cbba648bdc8fd9161e", "fusion_lon": 0.0, "bike_id": "7957efaa034d80cbba648bdc8fd9161e", "is_reserved": 0, "rental_uris": {"android": "https://dc.lft.to/lastmile_qr_scan", "ios": "https://dc.lft.to/lastmile_qr_scan"}, "lat": 38.911771333333334, "is_disabled": 0, "lon": -77.04917433333334}, {"fusion_lat": 0.0, "type": "electric_scooter", "name": "c9822679e22d47a01910862574eae765", "fusion_lon": 0.0, "bike_id": "c9822679e22d47a01910862574eae765", "is_reserved": 0, "rental_uris": {"android": "https://dc.lft.to/lastmile_qr_scan", "ios": "https://dc.lft.to/lastmile_qr_scan"}, "lat": 38.9236155, "is_disabled": 0, "lon": -77.0504835}, {"fusion_lat": 0.0, "type": "electric_scooter", "name": "d94bfbff10472e24a7553d9b6225deed", "fusion_lon": 0.0, "bike_id": "d94bfbff10472e24a7553d9b6225deed", "is_reserved": 0, "rental_uris": {"android": "https://dc.lft.to/lastmile_qr_scan", "ios": "https://dc.lft.to/lastmile_qr_scan"}, "lat": 38.91227583333333, "is_disabled": 0, "lon": -77.02274816666667}, {"fusion_lat": 0.0, "type": "electric_bike", "name": "06f5e960ea9c2d7027d32578a4116745", "fusion_lon": 0.0, "bike_id": "06f5e960ea9c2d7027d32578a4116745", "is_reserved": 0, "rental_uris": {"android": "https://dc.lft.to/lastmile_qr_scan", "ios": "https://dc.lft.to/lastmile_qr_scan"}, "lat": 38.85424966666667, "is_disabled": 0, "lon": -77.12077716666667}, {"fusion_lat": 0.0, "type": "electric_scooter", "name": "9c08dc653e21767fce8433f9dc6190e7", "fusion_lon": 0.0, "bike_id": "9c08dc653e21767fce8433f9dc6190e7", "is_reserved": 0, "rental_uris": {"android": "https://dc.lft.to/lastmile_qr_scan", "ios": "https://dc.lft.to/lastmile_qr_scan"}, "lat": 38.893227, "is_disabled": 0, "lon": -76.9438075}, {"fusion_lat": 0.0, "type": "electric_scooter", "name": "aea8e62a7b99844cfd03f0be2a81cba4", "fusion_lon": 0.0, "bike_id": "aea8e62a7b99844cfd03f0be2a81cba4", "is_reserved": 0, "rental_uris": {"android": "https://dc.lft.to/lastmile_qr_scan", "ios": "https://dc.lft.to/lastmile_qr_scan"}, "lat": 38.8988275, "is_disabled": 0, "lon": -76.93175983333333}, {"fusion_lat": 0.0, "type": "electric_scooter", "name": "ad33a79437379c28a72366099c7eeb43", "fusion_lon": 0.0, "bike_id": "ad33a79437379c28a72366099c7eeb43", "is_reserved": 0, "rental_uris": {"android": "https://dc.lft.to/lastmile_qr_scan", "ios": "https://dc.lft.to/lastmile_qr_scan"}, "lat": 38.932430833333335, "is_disabled": 0, "lon": -77.03414816666667}, {"fusion_lat": 0.0, "type": "electric_scooter", "name": "a21bdc40796dc53cd13fea54516b0836", "fusion_lon": 0.0, "bike_id": "a21bdc40796dc53cd13fea54516b0836", "is_reserved": 0, "rental_uris": {"android": "https://dc.lft.to/lastmile_qr_scan", "ios": "https://dc.lft.to/lastmile_qr_scan"}, "lat": 38.8875175, "is_disabled": 0, "lon": -77.00878183333333}, {"fusion_lat": 0.0, "type": "electric_scooter", "name": "e21c23552ce931d6cc51b43126845330", "fusion_lon": 0.0, "bike_id": "e21c23552ce931d6cc51b43126845330", "is_reserved": 0, "rental_uris": {"android": "https://dc.lft.to/lastmile_qr_scan", "ios": "https://dc.lft.to/lastmile_qr_scan"}, "lat": 38.90506033333333, "is_disabled": 0, "lon": -76.97922633333333}, {"fusion_lat": 0.0, "type": "electric_scooter", "name": "af11e930ce0d6e231f7efad021a77c8f", "fusion_lon": 0.0, "bike_id": "af11e930ce0d6e231f7efad021a77c8f", "is_reserved": 0, "rental_uris": {"android": "https://dc.lft.to/lastmile_qr_scan", "ios": "https://dc.lft.to/lastmile_qr_scan"}, "lat": 38.905565833333334, "is_disabled": 0, "lon": -76.97390266666666}, {"fusion_lat": 0.0, "type": "electric_scooter", "name": "fb3d1cebcbaf1d00076899fb350aa69d", "fusion_lon": 0.0, "bike_id": "fb3d1cebcbaf1d00076899fb350aa69d", "is_reserved": 0, "rental_uris": {"android": "https://dc.lft.to/lastmile_qr_scan", "ios": "https://dc.lft.to/lastmile_qr_scan"}, "lat": 38.924594, "is_disabled": 0, "lon": -77.07810133333334}, {"fusion_lat": 0.0, "type": "electric_scooter", "name": "e6c52fe037d6b830165c902525576b79", "fusion_lon": 0.0, "bike_id": "e6c52fe037d6b830165c902525576b79", "is_reserved": 0, "rental_uris": {"android": "https://dc.lft.to/lastmile_qr_scan", "ios": "https://dc.lft.to/lastmile_qr_scan"}, "lat": 38.9201705, "is_disabled": 0, "lon": -77.01304766666667}, {"fusion_lat": 0.0, "type": "electric_scooter", "name": "794cb48d328a343cfc8f143cb5c68408", "fusion_lon": 0.0, "bike_id": "794cb48d328a343cfc8f143cb5c68408", "is_reserved": 0, "rental_uris": {"android": "https://dc.lft.to/lastmile_qr_scan", "ios": "https://dc.lft.to/lastmile_qr_scan"}, "lat": 38.86416666666667, "is_disabled": 0, "lon": -77.01222733333333}, {"fusion_lat": 0.0, "type": "electric_scooter", "name": "864fbab6d6d59c8872c53b85b24bee33", "fusion_lon": 0.0, "bike_id": "864fbab6d6d59c8872c53b85b24bee33", "is_reserved": 0, "rental_uris": {"android": "https://dc.lft.to/lastmile_qr_scan", "ios": "https://dc.lft.to/lastmile_qr_scan"}, "lat": 38.92247066666667, "is_disabled": 0, "lon": -77.00924016666667}, {"fusion_lat": 0.0, "type": "electric_scooter", "name": "2725deb7a0ccbaffce8e37a67ce93fdf", "fusion_lon": 0.0, "bike_id": "2725deb7a0ccbaffce8e37a67ce93fdf", "is_reserved": 0, "rental_uris": {"android": "https://dc.lft.to/lastmile_qr_scan", "ios": "https://dc.lft.to/lastmile_qr_scan"}, "lat": 38.87359383333333, "is_disabled": 0, "lon": -77.00598933333333}, {"fusion_lat": 0.0, "type": "electric_scooter", "name": "b8418e68160fad80351205510dc145ab", "fusion_lon": 0.0, "bike_id": "b8418e68160fad80351205510dc145ab", "is_reserved": 0, "rental_uris": {"android": "https://dc.lft.to/lastmile_qr_scan", "ios": "https://dc.lft.to/lastmile_qr_scan"}, "lat": 38.91563, "is_disabled": 0, "lon": -77.02582483333333}, {"fusion_lat": 0.0, "type": "electric_bike", "name": "844c69c6dbaae20b6e476f9bf11a7c49", "fusion_lon": 0.0, "bike_id": "844c69c6dbaae20b6e476f9bf11a7c49", "is_reserved": 0, "rental_uris": {"android": "https://dc.lft.to/lastmile_qr_scan", "ios": "https://dc.lft.to/lastmile_qr_scan"}, "lat": 38.95751033333333, "is_disabled": 0, "lon": -77.02297966666667}, {"fusion_lat": 0.0, "type": "electric_scooter", "name": "2dfbeb7986ac6659cffd35a7bb8792ba", "fusion_lon": 0.0, "bike_id": "2dfbeb7986ac6659cffd35a7bb8792ba", "is_reserved": 0, "rental_uris": {"android": "https://dc.lft.to/lastmile_qr_scan", "ios": "https://dc.lft.to/lastmile_qr_scan"}, "lat": 38.913601166666666, "is_disabled": 0, "lon": -77.06924266666667}, {"fusion_lat": 0.0, "type": "electric_bike", "name": "9458934be91dd121b013520d9db7efc1", "fusion_lon": 0.0, "bike_id": "9458934be91dd121b013520d9db7efc1", "is_reserved": 0, "rental_uris": {"android": "https://dc.lft.to/lastmile_qr_scan", "ios": "https://dc.lft.to/lastmile_qr_scan"}, "lat": 38.800158333333336, "is_disabled": 0, "lon": -77.054828}, {"fusion_lat": 0.0, "type": "electric_scooter", "name": "b214f9bc241d8de7e17807b3a2754e81", "fusion_lon": 0.0, "bike_id": "b214f9bc241d8de7e17807b3a2754e81", "is_reserved": 0, "rental_uris": {"android": "https://dc.lft.to/lastmile_qr_scan", "ios": "https://dc.lft.to/lastmile_qr_scan"}, "lat": 38.89985166666666, "is_disabled": 0, "lon": -77.026109}, {"fusion_lat": 0.0, "type": "electric_scooter", "name": "3417375c6f1bfbd3e6e835699aa9431d", "fusion_lon": 0.0, "bike_id": "3417375c6f1bfbd3e6e835699aa9431d", "is_reserved": 0, "rental_uris": {"android": "https://dc.lft.to/lastmile_qr_scan", "ios": "https://dc.lft.to/lastmile_qr_scan"}, "lat": 38.892255666666664, "is_disabled": 0, "lon": -77.023416}, {"fusion_lat": 0.0, "type": "electric_scooter", "name": "8c9df0132c790213750ab80f76ef11ee", "fusion_lon": 0.0, "bike_id": "8c9df0132c790213750ab80f76ef11ee", "is_reserved": 0, "rental_uris": {"android": "https://dc.lft.to/lastmile_qr_scan", "ios": "https://dc.lft.to/lastmile_qr_scan"}, "lat": 38.905192166666666, "is_disabled": 0, "lon": -77.04829616666666}, {"fusion_lat": 0.0, "type": "electric_scooter", "name": "36228d56b288bd35bb71088107493bfa", "fusion_lon": 0.0, "bike_id": "36228d56b288bd35bb71088107493bfa", "is_reserved": 0, "rental_uris": {"android": "https://dc.lft.to/lastmile_qr_scan", "ios": "https://dc.lft.to/lastmile_qr_scan"}, "lat": 38.93561116666667, "is_disabled": 0, "lon": -77.08203533333334}, {"fusion_lat": 0.0, "type": "electric_scooter", "name": "61e546293dd21c2a8773a064b2e4df49", "fusion_lon": 0.0, "bike_id": "61e546293dd21c2a8773a064b2e4df49", "is_reserved": 0, "rental_uris": {"android": "https://dc.lft.to/lastmile_qr_scan", "ios": "https://dc.lft.to/lastmile_qr_scan"}, "lat": 38.885918333333336, "is_disabled": 0, "lon": -77.0123495}, {"fusion_lat": 0.0, "type": "electric_scooter", "name": "11dfce8869942eb3ef6d6d4b4ee586d0", "fusion_lon": 0.0, "bike_id": "11dfce8869942eb3ef6d6d4b4ee586d0", "is_reserved": 0, "rental_uris": {"android": "https://dc.lft.to/lastmile_qr_scan", "ios": "https://dc.lft.to/lastmile_qr_scan"}, "lat": 38.892907666666666, "is_disabled": 0, "lon": -77.031998}, {"fusion_lat": 0.0, "type": "electric_scooter", "name": "d6f7d59326948c028c72c1aa48ca9fb1", "fusion_lon": 0.0, "bike_id": "d6f7d59326948c028c72c1aa48ca9fb1", "is_reserved": 0, "rental_uris": {"android": "https://dc.lft.to/lastmile_qr_scan", "ios": "https://dc.lft.to/lastmile_qr_scan"}, "lat": 38.931023833333334, "is_disabled": 0, "lon": -77.03273216666666}, {"fusion_lat": 0.0, "type": "electric_scooter", "name": "f0d1b9df42aa44696a9e00951882ca6b", "fusion_lon": 0.0, "bike_id": "f0d1b9df42aa44696a9e00951882ca6b", "is_reserved": 0, "rental_uris": {"android": "https://dc.lft.to/lastmile_qr_scan", "ios": "https://dc.lft.to/lastmile_qr_scan"}, "lat": 38.90516733333333, "is_disabled": 0, "lon": -77.0686395}, {"fusion_lat": 0.0, "type": "electric_scooter", "name": "9d1f3e3634897eda729775c1e1229d3e", "fusion_lon": 0.0, "bike_id": "9d1f3e3634897eda729775c1e1229d3e", "is_reserved": 0, "rental_uris": {"android": "https://dc.lft.to/lastmile_qr_scan", "ios": "https://dc.lft.to/lastmile_qr_scan"}, "lat": 38.919655666666664, "is_disabled": 0, "lon": -77.045157}, {"fusion_lat": 0.0, "type": "electric_scooter", "name": "443aecf371de4e323085af538778c79d", "fusion_lon": 0.0, "bike_id": "443aecf371de4e323085af538778c79d", "is_reserved": 0, "rental_uris": {"android": "https://dc.lft.to/lastmile_qr_scan", "ios": "https://dc.lft.to/lastmile_qr_scan"}, "lat": 38.921343666666665, "is_disabled": 0, "lon": -77.01789566666666}, {"fusion_lat": 0.0, "type": "electric_bike", "name": "4b0abe917cd8d735aaaae4295fad21b7", "fusion_lon": 0.0, "bike_id": "4b0abe917cd8d735aaaae4295fad21b7", "is_reserved": 0, "rental_uris": {"android": "https://dc.lft.to/lastmile_qr_scan", "ios": "https://dc.lft.to/lastmile_qr_scan"}, "lat": 38.86938583333333, "is_disabled": 0, "lon": -77.09467583333333}, {"fusion_lat": 0.0, "type": "electric_scooter", "name": "a39fdc1b6024e5cc52b37dc4e4882561", "fusion_lon": 0.0, "bike_id": "a39fdc1b6024e5cc52b37dc4e4882561", "is_reserved": 0, "rental_uris": {"android": "https://dc.lft.to/lastmile_qr_scan", "ios": "https://dc.lft.to/lastmile_qr_scan"}, "lat": 38.872263833333335, "is_disabled": 0, "lon": -77.01165416666667}, {"fusion_lat": 0.0, "type": "electric_scooter", "name": "427261bb0a43b1cd9135374e7c780021", "fusion_lon": 0.0, "bike_id": "427261bb0a43b1cd9135374e7c780021", "is_reserved": 0, "rental_uris": {"android": "https://dc.lft.to/lastmile_qr_scan", "ios": "https://dc.lft.to/lastmile_qr_scan"}, "lat": 38.88849966666667, "is_disabled": 0, "lon": -76.92681733333333}, {"fusion_lat": 0.0, "type": "electric_scooter", "name": "7712835c3856ab48f178c86e9b484eb6", "fusion_lon": 0.0, "bike_id": "7712835c3856ab48f178c86e9b484eb6", "is_reserved": 0, "rental_uris": {"android": "https://dc.lft.to/lastmile_qr_scan", "ios": "https://dc.lft.to/lastmile_qr_scan"}, "lat": 38.9181425, "is_disabled": 0, "lon": -77.03363333333333}, {"fusion_lat": 0.0, "type": "electric_scooter", "name": "58aeeaabfbf9b3613fd18487c88310de", "fusion_lon": 0.0, "bike_id": "58aeeaabfbf9b3613fd18487c88310de", "is_reserved": 0, "rental_uris": {"android": "https://dc.lft.to/lastmile_qr_scan", "ios": "https://dc.lft.to/lastmile_qr_scan"}, "lat": 38.916482333333335, "is_disabled": 0, "lon": -77.03663616666667}, {"fusion_lat": 0.0, "type": "electric_bike", "name": "139f04eb6feefeacace46a537d87f640", "fusion_lon": 0.0, "bike_id": "139f04eb6feefeacace46a537d87f640", "is_reserved": 0, "rental_uris": {"android": "https://dc.lft.to/lastmile_qr_scan", "ios": "https://dc.lft.to/lastmile_qr_scan"}, "lat": 38.985473166666665, "is_disabled": 0, "lon": -77.00404966666666}, {"fusion_lat": 0.0, "type": "electric_scooter", "name": "10e6ba0fb5b335b0e7cb6f4b9b5269e4", "fusion_lon": 0.0, "bike_id": "10e6ba0fb5b335b0e7cb6f4b9b5269e4", "is_reserved": 0, "rental_uris": {"android": "https://dc.lft.to/lastmile_qr_scan", "ios": "https://dc.lft.to/lastmile_qr_scan"}, "lat": 38.8719785, "is_disabled": 0, "lon": -77.005723}, {"fusion_lat": 0.0, "type": "electric_scooter", "name": "ce5ffd59452d1fd7877afde221eb84f7", "fusion_lon": 0.0, "bike_id": "ce5ffd59452d1fd7877afde221eb84f7", "is_reserved": 0, "rental_uris": {"android": "https://dc.lft.to/lastmile_qr_scan", "ios": "https://dc.lft.to/lastmile_qr_scan"}, "lat": 38.907341833333334, "is_disabled": 0, "lon": -77.00769683333333}, {"fusion_lat": 0.0, "type": "electric_scooter", "name": "9add6a1f7926e6affa53caa6c15fe5aa", "fusion_lon": 0.0, "bike_id": "9add6a1f7926e6affa53caa6c15fe5aa", "is_reserved": 0, "rental_uris": {"android": "https://dc.lft.to/lastmile_qr_scan", "ios": "https://dc.lft.to/lastmile_qr_scan"}, "lat": 38.90007666666666, "is_disabled": 0, "lon": -76.9843335}, {"fusion_lat": 0.0, "type": "electric_scooter", "name": "654b718c82453be182b792a2741ac51d", "fusion_lon": 0.0, "bike_id": "654b718c82453be182b792a2741ac51d", "is_reserved": 0, "rental_uris": {"android": "https://dc.lft.to/lastmile_qr_scan", "ios": "https://dc.lft.to/lastmile_qr_scan"}, "lat": 38.91319816666667, "is_disabled": 0, "lon": -77.01459416666667}, {"fusion_lat": 0.0, "type": "electric_scooter", "name": "1dd59cd5c045154b4b714076bb23d111", "fusion_lon": 0.0, "bike_id": "1dd59cd5c045154b4b714076bb23d111", "is_reserved": 0, "rental_uris": {"android": "https://dc.lft.to/lastmile_qr_scan", "ios": "https://dc.lft.to/lastmile_qr_scan"}, "lat": 38.90395483333333, "is_disabled": 0, "lon": -77.06255616666667}, {"fusion_lat": 0.0, "type": "electric_scooter", "name": "2ad8d4857664c5700f96c23b664cd772", "fusion_lon": 0.0, "bike_id": "2ad8d4857664c5700f96c23b664cd772", "is_reserved": 0, "rental_uris": {"android": "https://dc.lft.to/lastmile_qr_scan", "ios": "https://dc.lft.to/lastmile_qr_scan"}, "lat": 38.9098225, "is_disabled": 0, "lon": -77.02408783333334}, {"fusion_lat": 0.0, "type": "electric_scooter", "name": "e1d1dc8603d841f65f027256d5811912", "fusion_lon": 0.0, "bike_id": "e1d1dc8603d841f65f027256d5811912", "is_reserved": 0, "rental_uris": {"android": "https://dc.lft.to/lastmile_qr_scan", "ios": "https://dc.lft.to/lastmile_qr_scan"}, "lat": 38.9024925, "is_disabled": 0, "lon": -77.019477}, {"fusion_lat": 0.0, "type": "electric_scooter", "name": "62e5e2d00fa76f60f14f5ae43b7b6385", "fusion_lon": 0.0, "bike_id": "62e5e2d00fa76f60f14f5ae43b7b6385", "is_reserved": 0, "rental_uris": {"android": "https://dc.lft.to/lastmile_qr_scan", "ios": "https://dc.lft.to/lastmile_qr_scan"}, "lat": 38.90178233333334, "is_disabled": 0, "lon": -76.98070833333334}, {"fusion_lat": 0.0, "type": "electric_scooter", "name": "973bee4de05814b9daee689bab44edc5", "fusion_lon": 0.0, "bike_id": "973bee4de05814b9daee689bab44edc5", "is_reserved": 0, "rental_uris": {"android": "https://dc.lft.to/lastmile_qr_scan", "ios": "https://dc.lft.to/lastmile_qr_scan"}, "lat": 38.91081833333333, "is_disabled": 0, "lon": -77.03714183333334}, {"fusion_lat": 0.0, "type": "electric_scooter", "name": "2b080bca75530053b774a65f442052cd", "fusion_lon": 0.0, "bike_id": "2b080bca75530053b774a65f442052cd", "is_reserved": 0, "rental_uris": {"android": "https://dc.lft.to/lastmile_qr_scan", "ios": "https://dc.lft.to/lastmile_qr_scan"}, "lat": 38.892266666666664, "is_disabled": 0, "lon": -77.03209166666667}, {"fusion_lat": 0.0, "type": "electric_scooter", "name": "e4c0b9c196f0b65b5bb045ba84883584", "fusion_lon": 0.0, "bike_id": "e4c0b9c196f0b65b5bb045ba84883584", "is_reserved": 0, "rental_uris": {"android": "https://dc.lft.to/lastmile_qr_scan", "ios": "https://dc.lft.to/lastmile_qr_scan"}, "lat": 38.887404, "is_disabled": 0, "lon": -77.02586683333334}, {"fusion_lat": 0.0, "type": "electric_scooter", "name": "42124c34ca11e5e542ce27cbebffc7bb", "fusion_lon": 0.0, "bike_id": "42124c34ca11e5e542ce27cbebffc7bb", "is_reserved": 0, "rental_uris": {"android": "https://dc.lft.to/lastmile_qr_scan", "ios": "https://dc.lft.to/lastmile_qr_scan"}, "lat": 38.89227866666667, "is_disabled": 0, "lon": -77.03176916666666}, {"fusion_lat": 0.0, "type": "electric_scooter", "name": "bd0692c2adbf3b438d00ffaeaf67f11e", "fusion_lon": 0.0, "bike_id": "bd0692c2adbf3b438d00ffaeaf67f11e", "is_reserved": 0, "rental_uris": {"android": "https://dc.lft.to/lastmile_qr_scan", "ios": "https://dc.lft.to/lastmile_qr_scan"}, "lat": 38.91744833333333, "is_disabled": 0, "lon": -77.03182883333334}, {"fusion_lat": 0.0, "type": "electric_scooter", "name": "09971a0da2cfd39644b0fd8ee6918767", "fusion_lon": 0.0, "bike_id": "09971a0da2cfd39644b0fd8ee6918767", "is_reserved": 0, "rental_uris": {"android": "https://dc.lft.to/lastmile_qr_scan", "ios": "https://dc.lft.to/lastmile_qr_scan"}, "lat": 38.90937316666667, "is_disabled": 0, "lon": -77.03855216666666}, {"fusion_lat": 0.0, "type": "electric_bike", "name": "e55afd2f5de1d7ef8f965fcb54e02131", "fusion_lon": 0.0, "bike_id": "e55afd2f5de1d7ef8f965fcb54e02131", "is_reserved": 0, "rental_uris": {"android": "https://dc.lft.to/lastmile_qr_scan", "ios": "https://dc.lft.to/lastmile_qr_scan"}, "lat": 38.96774083333333, "is_disabled": 0, "lon": -77.0004125}, {"fusion_lat": 0.0, "type": "electric_scooter", "name": "a462ca9a6f05cae96ac80cc7ec00c7db", "fusion_lon": 0.0, "bike_id": "a462ca9a6f05cae96ac80cc7ec00c7db", "is_reserved": 0, "rental_uris": {"android": "https://dc.lft.to/lastmile_qr_scan", "ios": "https://dc.lft.to/lastmile_qr_scan"}, "lat": 38.909537666666665, "is_disabled": 0, "lon": -77.03214233333334}, {"fusion_lat": 0.0, "type": "electric_scooter", "name": "e16e91d994b244386c3354dba57b089b", "fusion_lon": 0.0, "bike_id": "e16e91d994b244386c3354dba57b089b", "is_reserved": 0, "rental_uris": {"android": "https://dc.lft.to/lastmile_qr_scan", "ios": "https://dc.lft.to/lastmile_qr_scan"}, "lat": 38.90155766666667, "is_disabled": 0, "lon": -76.99029783333333}, {"fusion_lat": 0.0, "type": "electric_scooter", "name": "d41a2ff5df99233d141a86c9958a06a3", "fusion_lon": 0.0, "bike_id": "d41a2ff5df99233d141a86c9958a06a3", "is_reserved": 0, "rental_uris": {"android": "https://dc.lft.to/lastmile_qr_scan", "ios": "https://dc.lft.to/lastmile_qr_scan"}, "lat": 38.893628666666665, "is_disabled": 0, "lon": -76.94810533333333}, {"fusion_lat": 0.0, "type": "electric_scooter", "name": "892730dc605a05cbffb08b18ba6710aa", "fusion_lon": 0.0, "bike_id": "892730dc605a05cbffb08b18ba6710aa", "is_reserved": 0, "rental_uris": {"android": "https://dc.lft.to/lastmile_qr_scan", "ios": "https://dc.lft.to/lastmile_qr_scan"}, "lat": 38.89229733333333, "is_disabled": 0, "lon": -77.05005816666667}, {"fusion_lat": 0.0, "type": "electric_scooter", "name": "03018803799142a9e5d8ad900cae42b3", "fusion_lon": 0.0, "bike_id": "03018803799142a9e5d8ad900cae42b3", "is_reserved": 0, "rental_uris": {"android": "https://dc.lft.to/lastmile_qr_scan", "ios": "https://dc.lft.to/lastmile_qr_scan"}, "lat": 38.926832166666664, "is_disabled": 0, "lon": -77.02966533333333}, {"fusion_lat": 0.0, "type": "electric_scooter", "name": "83ffe180df7999e0179de9d53c545c75", "fusion_lon": 0.0, "bike_id": "83ffe180df7999e0179de9d53c545c75", "is_reserved": 0, "rental_uris": {"android": "https://dc.lft.to/lastmile_qr_scan", "ios": "https://dc.lft.to/lastmile_qr_scan"}, "lat": 38.90885466666667, "is_disabled": 0, "lon": -77.04651883333334}, {"fusion_lat": 0.0, "type": "electric_scooter", "name": "a585599562dc8a82a2d9af5c5f06d78c", "fusion_lon": 0.0, "bike_id": "a585599562dc8a82a2d9af5c5f06d78c", "is_reserved": 0, "rental_uris": {"android": "https://dc.lft.to/lastmile_qr_scan", "ios": "https://dc.lft.to/lastmile_qr_scan"}, "lat": 38.9553415, "is_disabled": 0, "lon": -77.0246595}, {"fusion_lat": 0.0, "type": "electric_scooter", "name": "3c6eeb6f7fe63536b9c3e7776c9fdf78", "fusion_lon": 0.0, "bike_id": "3c6eeb6f7fe63536b9c3e7776c9fdf78", "is_reserved": 0, "rental_uris": {"android": "https://dc.lft.to/lastmile_qr_scan", "ios": "https://dc.lft.to/lastmile_qr_scan"}, "lat": 38.91964133333333, "is_disabled": 0, "lon": -77.01441383333334}, {"fusion_lat": 0.0, "type": "electric_scooter", "name": "558050998d2e27527b832d05f0c134d1", "fusion_lon": 0.0, "bike_id": "558050998d2e27527b832d05f0c134d1", "is_reserved": 0, "rental_uris": {"android": "https://dc.lft.to/lastmile_qr_scan", "ios": "https://dc.lft.to/lastmile_qr_scan"}, "lat": 38.89844266666667, "is_disabled": 0, "lon": -76.9464115}, {"fusion_lat": 0.0, "type": "electric_scooter", "name": "730439a6433e0821e1622c8f261b214b", "fusion_lon": 0.0, "bike_id": "730439a6433e0821e1622c8f261b214b", "is_reserved": 0, "rental_uris": {"android": "https://dc.lft.to/lastmile_qr_scan", "ios": "https://dc.lft.to/lastmile_qr_scan"}, "lat": 38.927156, "is_disabled": 0, "lon": -77.02096}, {"fusion_lat": 0.0, "type": "electric_bike", "name": "ce93d8075faaf901494f60d56e3e7ea2", "fusion_lon": 0.0, "bike_id": "ce93d8075faaf901494f60d56e3e7ea2", "is_reserved": 0, "rental_uris": {"android": "https://dc.lft.to/lastmile_qr_scan", "ios": "https://dc.lft.to/lastmile_qr_scan"}, "lat": 38.872752166666665, "is_disabled": 0, "lon": -77.23330183333333}, {"fusion_lat": 0.0, "type": "electric_scooter", "name": "6c3a8d15a50262fe03071e38cea942b3", "fusion_lon": 0.0, "bike_id": "6c3a8d15a50262fe03071e38cea942b3", "is_reserved": 0, "rental_uris": {"android": "https://dc.lft.to/lastmile_qr_scan", "ios": "https://dc.lft.to/lastmile_qr_scan"}, "lat": 38.89732216666667, "is_disabled": 0, "lon": -77.04387816666667}, {"fusion_lat": 0.0, "type": "electric_scooter", "name": "fabfcb5c23c48a08e469b4554b708a92", "fusion_lon": 0.0, "bike_id": "fabfcb5c23c48a08e469b4554b708a92", "is_reserved": 0, "rental_uris": {"android": "https://dc.lft.to/lastmile_qr_scan", "ios": "https://dc.lft.to/lastmile_qr_scan"}, "lat": 38.905187, "is_disabled": 0, "lon": -77.06886966666667}, {"fusion_lat": 0.0, "type": "electric_scooter", "name": "a2d47c408d7eeebc275a82a3aa086377", "fusion_lon": 0.0, "bike_id": "a2d47c408d7eeebc275a82a3aa086377", "is_reserved": 0, "rental_uris": {"android": "https://dc.lft.to/lastmile_qr_scan", "ios": "https://dc.lft.to/lastmile_qr_scan"}, "lat": 38.9017025, "is_disabled": 0, "lon": -77.060188}, {"fusion_lat": 0.0, "type": "electric_scooter", "name": "9cfba0864220312b34076466f151ee26", "fusion_lon": 0.0, "bike_id": "9cfba0864220312b34076466f151ee26", "is_reserved": 0, "rental_uris": {"android": "https://dc.lft.to/lastmile_qr_scan", "ios": "https://dc.lft.to/lastmile_qr_scan"}, "lat": 38.90075683333333, "is_disabled": 0, "lon": -77.021969}, {"fusion_lat": 0.0, "type": "electric_scooter", "name": "74d343a34554c873c3e051bc620c9859", "fusion_lon": 0.0, "bike_id": "74d343a34554c873c3e051bc620c9859", "is_reserved": 0, "rental_uris": {"android": "https://dc.lft.to/lastmile_qr_scan", "ios": "https://dc.lft.to/lastmile_qr_scan"}, "lat": 38.883467, "is_disabled": 0, "lon": -76.985504}, {"fusion_lat": 0.0, "type": "electric_scooter", "name": "45e7e719b3f0172cb4dbaa6f4eb70db1", "fusion_lon": 0.0, "bike_id": "45e7e719b3f0172cb4dbaa6f4eb70db1", "is_reserved": 0, "rental_uris": {"android": "https://dc.lft.to/lastmile_qr_scan", "ios": "https://dc.lft.to/lastmile_qr_scan"}, "lat": 38.93188166666667, "is_disabled": 0, "lon": -77.03844766666667}, {"fusion_lat": 0.0, "type": "electric_scooter", "name": "8e34b440630b02d98594eebe16aa87d1", "fusion_lon": 0.0, "bike_id": "8e34b440630b02d98594eebe16aa87d1", "is_reserved": 0, "rental_uris": {"android": "https://dc.lft.to/lastmile_qr_scan", "ios": "https://dc.lft.to/lastmile_qr_scan"}, "lat": 38.866997833333336, "is_disabled": 0, "lon": -76.98711733333333}, {"fusion_lat": 0.0, "type": "electric_scooter", "name": "9aa13ec1a9e08d8e0f2161d8620084e7", "fusion_lon": 0.0, "bike_id": "9aa13ec1a9e08d8e0f2161d8620084e7", "is_reserved": 0, "rental_uris": {"android": "https://dc.lft.to/lastmile_qr_scan", "ios": "https://dc.lft.to/lastmile_qr_scan"}, "lat": 38.925048333333336, "is_disabled": 0, "lon": -77.0575965}, {"fusion_lat": 0.0, "type": "electric_scooter", "name": "4bdb0ab13d44545c22f78600dcef8235", "fusion_lon": 0.0, "bike_id": "4bdb0ab13d44545c22f78600dcef8235", "is_reserved": 0, "rental_uris": {"android": "https://dc.lft.to/lastmile_qr_scan", "ios": "https://dc.lft.to/lastmile_qr_scan"}, "lat": 38.892316666666666, "is_disabled": 0, "lon": -77.031799}, {"fusion_lat": 0.0, "type": "electric_bike", "name": "c76d4b085f4ed097232147193e1394a9", "fusion_lon": 0.0, "bike_id": "c76d4b085f4ed097232147193e1394a9", "is_reserved": 0, "rental_uris": {"android": "https://dc.lft.to/lastmile_qr_scan", "ios": "https://dc.lft.to/lastmile_qr_scan"}, "lat": 38.992334166666666, "is_disabled": 0, "lon": -77.03220583333334}, {"fusion_lat": 0.0, "type": "electric_scooter", "name": "7d6b3e4baf8e8ca70924458d48ac6ad7", "fusion_lon": 0.0, "bike_id": "7d6b3e4baf8e8ca70924458d48ac6ad7", "is_reserved": 0, "rental_uris": {"android": "https://dc.lft.to/lastmile_qr_scan", "ios": "https://dc.lft.to/lastmile_qr_scan"}, "lat": 38.90470033333333, "is_disabled": 0, "lon": -77.03905916666666}, {"fusion_lat": 0.0, "type": "electric_scooter", "name": "6bb42eac10293716bc4e3c0d4458c247", "fusion_lon": 0.0, "bike_id": "6bb42eac10293716bc4e3c0d4458c247", "is_reserved": 0, "rental_uris": {"android": "https://dc.lft.to/lastmile_qr_scan", "ios": "https://dc.lft.to/lastmile_qr_scan"}, "lat": 38.921961833333334, "is_disabled": 0, "lon": -77.02975266666667}, {"fusion_lat": 0.0, "type": "electric_scooter", "name": "dcf0e1d25f0474343b95a26c3c8ae400", "fusion_lon": 0.0, "bike_id": "dcf0e1d25f0474343b95a26c3c8ae400", "is_reserved": 0, "rental_uris": {"android": "https://dc.lft.to/lastmile_qr_scan", "ios": "https://dc.lft.to/lastmile_qr_scan"}, "lat": 38.913431, "is_disabled": 0, "lon": -77.00926916666667}, {"fusion_lat": 0.0, "type": "electric_bike", "name": "8dada72257966599a0092fbbc405f445", "fusion_lon": 0.0, "bike_id": "8dada72257966599a0092fbbc405f445", "is_reserved": 0, "rental_uris": {"android": "https://dc.lft.to/lastmile_qr_scan", "ios": "https://dc.lft.to/lastmile_qr_scan"}, "lat": 38.8804485, "is_disabled": 0, "lon": -77.01129583333334}, {"fusion_lat": 0.0, "type": "electric_scooter", "name": "b4fee0536f524b5aefae6c59cf1a0549", "fusion_lon": 0.0, "bike_id": "b4fee0536f524b5aefae6c59cf1a0549", "is_reserved": 0, "rental_uris": {"android": "https://dc.lft.to/lastmile_qr_scan", "ios": "https://dc.lft.to/lastmile_qr_scan"}, "lat": 38.9418215, "is_disabled": 0, "lon": -77.02530233333333}, {"fusion_lat": 0.0, "type": "electric_scooter", "name": "0d87b1ea5cee580c339bb9776c4ca765", "fusion_lon": 0.0, "bike_id": "0d87b1ea5cee580c339bb9776c4ca765", "is_reserved": 0, "rental_uris": {"android": "https://dc.lft.to/lastmile_qr_scan", "ios": "https://dc.lft.to/lastmile_qr_scan"}, "lat": 38.91628383333333, "is_disabled": 0, "lon": -77.03136816666667}, {"fusion_lat": 0.0, "type": "electric_bike", "name": "44a7a5b8bf7d73a2bce91a4eb7962658", "fusion_lon": 0.0, "bike_id": "44a7a5b8bf7d73a2bce91a4eb7962658", "is_reserved": 0, "rental_uris": {"android": "https://dc.lft.to/lastmile_qr_scan", "ios": "https://dc.lft.to/lastmile_qr_scan"}, "lat": 38.90271033333333, "is_disabled": 0, "lon": -76.92926716666666}, {"fusion_lat": 0.0, "type": "electric_scooter", "name": "635c5c234aabcf2600301ca07ba5be36", "fusion_lon": 0.0, "bike_id": "635c5c234aabcf2600301ca07ba5be36", "is_reserved": 0, "rental_uris": {"android": "https://dc.lft.to/lastmile_qr_scan", "ios": "https://dc.lft.to/lastmile_qr_scan"}, "lat": 38.9095285, "is_disabled": 0, "lon": -77.05484966666667}, {"fusion_lat": 0.0, "type": "electric_scooter", "name": "7240c00f137c04eb187c408be97c9472", "fusion_lon": 0.0, "bike_id": "7240c00f137c04eb187c408be97c9472", "is_reserved": 0, "rental_uris": {"android": "https://dc.lft.to/lastmile_qr_scan", "ios": "https://dc.lft.to/lastmile_qr_scan"}, "lat": 38.911802333333334, "is_disabled": 0, "lon": -77.02957216666667}, {"fusion_lat": 0.0, "type": "electric_scooter", "name": "4a756c6ad1a77f1762a92b3282d62c51", "fusion_lon": 0.0, "bike_id": "4a756c6ad1a77f1762a92b3282d62c51", "is_reserved": 0, "rental_uris": {"android": "https://dc.lft.to/lastmile_qr_scan", "ios": "https://dc.lft.to/lastmile_qr_scan"}, "lat": 38.9095445, "is_disabled": 0, "lon": -77.0081215}, {"fusion_lat": 0.0, "type": "electric_bike", "name": "0a461e18be207772c12c958169d9dda5", "fusion_lon": 0.0, "bike_id": "0a461e18be207772c12c958169d9dda5", "is_reserved": 0, "rental_uris": {"android": "https://dc.lft.to/lastmile_qr_scan", "ios": "https://dc.lft.to/lastmile_qr_scan"}, "lat": 39.042344666666665, "is_disabled": 0, "lon": -76.997407}, {"fusion_lat": 0.0, "type": "electric_scooter", "name": "aa08e52f0d31a6373b9eefb3b4002a24", "fusion_lon": 0.0, "bike_id": "aa08e52f0d31a6373b9eefb3b4002a24", "is_reserved": 0, "rental_uris": {"android": "https://dc.lft.to/lastmile_qr_scan", "ios": "https://dc.lft.to/lastmile_qr_scan"}, "lat": 38.91349566666667, "is_disabled": 0, "lon": -77.03183683333333}, {"fusion_lat": 0.0, "type": "electric_scooter", "name": "13d77f5a760123381b238551513a852d", "fusion_lon": 0.0, "bike_id": "13d77f5a760123381b238551513a852d", "is_reserved": 0, "rental_uris": {"android": "https://dc.lft.to/lastmile_qr_scan", "ios": "https://dc.lft.to/lastmile_qr_scan"}, "lat": 38.892228, "is_disabled": 0, "lon": -77.04373666666666}, {"fusion_lat": 0.0, "type": "electric_scooter", "name": "f547b4f20ee7610c406c487c67376903", "fusion_lon": 0.0, "bike_id": "f547b4f20ee7610c406c487c67376903", "is_reserved": 0, "rental_uris": {"android": "https://dc.lft.to/lastmile_qr_scan", "ios": "https://dc.lft.to/lastmile_qr_scan"}, "lat": 38.8942165, "is_disabled": 0, "lon": -76.91157516666667}, {"fusion_lat": 0.0, "type": "electric_scooter", "name": "bb282a3a37bfc8cecef128f2c3ce9918", "fusion_lon": 0.0, "bike_id": "bb282a3a37bfc8cecef128f2c3ce9918", "is_reserved": 0, "rental_uris": {"android": "https://dc.lft.to/lastmile_qr_scan", "ios": "https://dc.lft.to/lastmile_qr_scan"}, "lat": 38.9002525, "is_disabled": 0, "lon": -77.02955033333333}, {"fusion_lat": 0.0, "type": "electric_scooter", "name": "3cd92f16f984ae16b25c077f82bde60d", "fusion_lon": 0.0, "bike_id": "3cd92f16f984ae16b25c077f82bde60d", "is_reserved": 0, "rental_uris": {"android": "https://dc.lft.to/lastmile_qr_scan", "ios": "https://dc.lft.to/lastmile_qr_scan"}, "lat": 38.91847216666667, "is_disabled": 0, "lon": -77.04496033333334}, {"fusion_lat": 0.0, "type": "electric_scooter", "name": "69bbb740df732ace8daa988398247cc6", "fusion_lon": 0.0, "bike_id": "69bbb740df732ace8daa988398247cc6", "is_reserved": 0, "rental_uris": {"android": "https://dc.lft.to/lastmile_qr_scan", "ios": "https://dc.lft.to/lastmile_qr_scan"}, "lat": 38.87679216666667, "is_disabled": 0, "lon": -76.99827366666666}, {"fusion_lat": 0.0, "type": "electric_scooter", "name": "173838a8a8875c99db5679b8f27727cb", "fusion_lon": 0.0, "bike_id": "173838a8a8875c99db5679b8f27727cb", "is_reserved": 0, "rental_uris": {"android": "https://dc.lft.to/lastmile_qr_scan", "ios": "https://dc.lft.to/lastmile_qr_scan"}, "lat": 38.89682083333334, "is_disabled": 0, "lon": -76.9353925}, {"fusion_lat": 0.0, "type": "electric_scooter", "name": "0a1ff77eb149d6abc51461acf5e4fc70", "fusion_lon": 0.0, "bike_id": "0a1ff77eb149d6abc51461acf5e4fc70", "is_reserved": 0, "rental_uris": {"android": "https://dc.lft.to/lastmile_qr_scan", "ios": "https://dc.lft.to/lastmile_qr_scan"}, "lat": 38.92003283333333, "is_disabled": 0, "lon": -77.02401866666666}, {"fusion_lat": 0.0, "type": "electric_scooter", "name": "ad3d2e8a9e88e019639ed56ae876ab37", "fusion_lon": 0.0, "bike_id": "ad3d2e8a9e88e019639ed56ae876ab37", "is_reserved": 0, "rental_uris": {"android": "https://dc.lft.to/lastmile_qr_scan", "ios": "https://dc.lft.to/lastmile_qr_scan"}, "lat": 38.9314115, "is_disabled": 0, "lon": -77.02984316666667}, {"fusion_lat": 0.0, "type": "electric_scooter", "name": "9ad69daa1836cd48ad35d22580110acd", "fusion_lon": 0.0, "bike_id": "9ad69daa1836cd48ad35d22580110acd", "is_reserved": 0, "rental_uris": {"android": "https://dc.lft.to/lastmile_qr_scan", "ios": "https://dc.lft.to/lastmile_qr_scan"}, "lat": 38.92743383333333, "is_disabled": 0, "lon": -77.021438}, {"fusion_lat": 0.0, "type": "electric_scooter", "name": "b1bf37bfee387c56cc25885067c02579", "fusion_lon": 0.0, "bike_id": "b1bf37bfee387c56cc25885067c02579", "is_reserved": 0, "rental_uris": {"android": "https://dc.lft.to/lastmile_qr_scan", "ios": "https://dc.lft.to/lastmile_qr_scan"}, "lat": 38.926585833333334, "is_disabled": 0, "lon": -77.01504566666667}, {"fusion_lat": 0.0, "type": "electric_scooter", "name": "36dc7485cc72d1cf39a31f6933e34cec", "fusion_lon": 0.0, "bike_id": "36dc7485cc72d1cf39a31f6933e34cec", "is_reserved": 0, "rental_uris": {"android": "https://dc.lft.to/lastmile_qr_scan", "ios": "https://dc.lft.to/lastmile_qr_scan"}, "lat": 38.88118983333333, "is_disabled": 0, "lon": -76.99002733333333}, {"fusion_lat": 0.0, "type": "electric_scooter", "name": "badf8ab5e7115d688cd4cd39748b13bb", "fusion_lon": 0.0, "bike_id": "badf8ab5e7115d688cd4cd39748b13bb", "is_reserved": 0, "rental_uris": {"android": "https://dc.lft.to/lastmile_qr_scan", "ios": "https://dc.lft.to/lastmile_qr_scan"}, "lat": 38.91121916666667, "is_disabled": 0, "lon": -77.021972}, {"fusion_lat": 0.0, "type": "electric_scooter", "name": "8a4637099ee9c0affcbd9d9971c64043", "fusion_lon": 0.0, "bike_id": "8a4637099ee9c0affcbd9d9971c64043", "is_reserved": 0, "rental_uris": {"android": "https://dc.lft.to/lastmile_qr_scan", "ios": "https://dc.lft.to/lastmile_qr_scan"}, "lat": 38.927881166666666, "is_disabled": 0, "lon": -77.031576}, {"fusion_lat": 0.0, "type": "electric_scooter", "name": "213226424c2304a537b268ffa3d85856", "fusion_lon": 0.0, "bike_id": "213226424c2304a537b268ffa3d85856", "is_reserved": 0, "rental_uris": {"android": "https://dc.lft.to/lastmile_qr_scan", "ios": "https://dc.lft.to/lastmile_qr_scan"}, "lat": 38.909763166666664, "is_disabled": 0, "lon": -77.03440483333334}, {"fusion_lat": 0.0, "type": "electric_scooter", "name": "e271678c9894d8f962dd6690f58f6975", "fusion_lon": 0.0, "bike_id": "e271678c9894d8f962dd6690f58f6975", "is_reserved": 0, "rental_uris": {"android": "https://dc.lft.to/lastmile_qr_scan", "ios": "https://dc.lft.to/lastmile_qr_scan"}, "lat": 38.91735666666667, "is_disabled": 0, "lon": -77.0179825}, {"fusion_lat": 0.0, "type": "electric_scooter", "name": "8a0aabf351fb9f2caf14aae53b407acc", "fusion_lon": 0.0, "bike_id": "8a0aabf351fb9f2caf14aae53b407acc", "is_reserved": 0, "rental_uris": {"android": "https://dc.lft.to/lastmile_qr_scan", "ios": "https://dc.lft.to/lastmile_qr_scan"}, "lat": 38.90028516666667, "is_disabled": 0, "lon": -77.03966533333333}, {"fusion_lat": 0.0, "type": "electric_scooter", "name": "94dd9558babdce3962f7bef21a74f285", "fusion_lon": 0.0, "bike_id": "94dd9558babdce3962f7bef21a74f285", "is_reserved": 0, "rental_uris": {"android": "https://dc.lft.to/lastmile_qr_scan", "ios": "https://dc.lft.to/lastmile_qr_scan"}, "lat": 38.9106915, "is_disabled": 0, "lon": -77.053115}, {"fusion_lat": 0.0, "type": "electric_bike", "name": "f8b3859016e44b461270eec7f00ff0ff", "fusion_lon": 0.0, "bike_id": "f8b3859016e44b461270eec7f00ff0ff", "is_reserved": 0, "rental_uris": {"android": "https://dc.lft.to/lastmile_qr_scan", "ios": "https://dc.lft.to/lastmile_qr_scan"}, "lat": 38.82954566666667, "is_disabled": 0, "lon": -77.12359783333333}, {"fusion_lat": 0.0, "type": "electric_scooter", "name": "8094ddd52669ca551fc636421201a60b", "fusion_lon": 0.0, "bike_id": "8094ddd52669ca551fc636421201a60b", "is_reserved": 0, "rental_uris": {"android": "https://dc.lft.to/lastmile_qr_scan", "ios": "https://dc.lft.to/lastmile_qr_scan"}, "lat": 38.909603, "is_disabled": 0, "lon": -77.03239716666667}, {"fusion_lat": 0.0, "type": "electric_scooter", "name": "21f9f91b508d18bc0dd289dfcc48c160", "fusion_lon": 0.0, "bike_id": "21f9f91b508d18bc0dd289dfcc48c160", "is_reserved": 0, "rental_uris": {"android": "https://dc.lft.to/lastmile_qr_scan", "ios": "https://dc.lft.to/lastmile_qr_scan"}, "lat": 38.911729333333334, "is_disabled": 0, "lon": -77.00454033333334}, {"fusion_lat": 0.0, "type": "electric_bike", "name": "846145721e1270a0dfb0df72db794998", "fusion_lon": 0.0, "bike_id": "846145721e1270a0dfb0df72db794998", "is_reserved": 0, "rental_uris": {"android": "https://dc.lft.to/lastmile_qr_scan", "ios": "https://dc.lft.to/lastmile_qr_scan"}, "lat": 38.9195995, "is_disabled": 0, "lon": -77.045189}, {"fusion_lat": 0.0, "type": "electric_scooter", "name": "51c0e45227b27f5884697086fa96d5d4", "fusion_lon": 0.0, "bike_id": "51c0e45227b27f5884697086fa96d5d4", "is_reserved": 0, "rental_uris": {"android": "https://dc.lft.to/lastmile_qr_scan", "ios": "https://dc.lft.to/lastmile_qr_scan"}, "lat": 38.9408695, "is_disabled": 0, "lon": -77.02727866666666}, {"fusion_lat": 0.0, "type": "electric_scooter", "name": "3198ae2a30da8c09901c84394dfd3bae", "fusion_lon": 0.0, "bike_id": "3198ae2a30da8c09901c84394dfd3bae", "is_reserved": 0, "rental_uris": {"android": "https://dc.lft.to/lastmile_qr_scan", "ios": "https://dc.lft.to/lastmile_qr_scan"}, "lat": 38.91682016666667, "is_disabled": 0, "lon": -77.036875}, {"fusion_lat": 0.0, "type": "electric_scooter", "name": "3a7184a0560790b86eb86ba50a724604", "fusion_lon": 0.0, "bike_id": "3a7184a0560790b86eb86ba50a724604", "is_reserved": 0, "rental_uris": {"android": "https://dc.lft.to/lastmile_qr_scan", "ios": "https://dc.lft.to/lastmile_qr_scan"}, "lat": 38.92048966666667, "is_disabled": 0, "lon": -77.023785}, {"fusion_lat": 0.0, "type": "electric_scooter", "name": "5b9a4220be758d1219d57efa957351c8", "fusion_lon": 0.0, "bike_id": "5b9a4220be758d1219d57efa957351c8", "is_reserved": 0, "rental_uris": {"android": "https://dc.lft.to/lastmile_qr_scan", "ios": "https://dc.lft.to/lastmile_qr_scan"}, "lat": 38.8917035, "is_disabled": 0, "lon": -77.0154885}, {"fusion_lat": 0.0, "type": "electric_scooter", "name": "98b9665aa976054ac8ff66ba01e9c0ac", "fusion_lon": 0.0, "bike_id": "98b9665aa976054ac8ff66ba01e9c0ac", "is_reserved": 0, "rental_uris": {"android": "https://dc.lft.to/lastmile_qr_scan", "ios": "https://dc.lft.to/lastmile_qr_scan"}, "lat": 38.9064275, "is_disabled": 0, "lon": -77.0480395}, {"fusion_lat": 0.0, "type": "electric_scooter", "name": "0142b8f36cbb376aea0613336b6bd382", "fusion_lon": 0.0, "bike_id": "0142b8f36cbb376aea0613336b6bd382", "is_reserved": 0, "rental_uris": {"android": "https://dc.lft.to/lastmile_qr_scan", "ios": "https://dc.lft.to/lastmile_qr_scan"}, "lat": 38.9083865, "is_disabled": 0, "lon": -77.00206866666667}, {"fusion_lat": 0.0, "type": "electric_scooter", "name": "b912b3c93d39295f12a9225c26fcd287", "fusion_lon": 0.0, "bike_id": "b912b3c93d39295f12a9225c26fcd287", "is_reserved": 0, "rental_uris": {"android": "https://dc.lft.to/lastmile_qr_scan", "ios": "https://dc.lft.to/lastmile_qr_scan"}, "lat": 38.92122333333333, "is_disabled": 0, "lon": -76.99553766666666}, {"fusion_lat": 0.0, "type": "electric_scooter", "name": "60d3d99a742e649547520ff1a9778810", "fusion_lon": 0.0, "bike_id": "60d3d99a742e649547520ff1a9778810", "is_reserved": 0, "rental_uris": {"android": "https://dc.lft.to/lastmile_qr_scan", "ios": "https://dc.lft.to/lastmile_qr_scan"}, "lat": 38.94182566666667, "is_disabled": 0, "lon": -77.02749866666667}, {"fusion_lat": 0.0, "type": "electric_scooter", "name": "94941f0608b8da7a7639e312c5328e63", "fusion_lon": 0.0, "bike_id": "94941f0608b8da7a7639e312c5328e63", "is_reserved": 0, "rental_uris": {"android": "https://dc.lft.to/lastmile_qr_scan", "ios": "https://dc.lft.to/lastmile_qr_scan"}, "lat": 38.920104, "is_disabled": 0, "lon": -77.03209366666667}, {"fusion_lat": 0.0, "type": "electric_scooter", "name": "2b9e3d7f3e6796f50b2dda525d1f0273", "fusion_lon": 0.0, "bike_id": "2b9e3d7f3e6796f50b2dda525d1f0273", "is_reserved": 0, "rental_uris": {"android": "https://dc.lft.to/lastmile_qr_scan", "ios": "https://dc.lft.to/lastmile_qr_scan"}, "lat": 38.89354866666667, "is_disabled": 0, "lon": -77.003372}, {"fusion_lat": 0.0, "type": "electric_scooter", "name": "5631bcb8bdd8bfec20d3e8d0c9351c08", "fusion_lon": 0.0, "bike_id": "5631bcb8bdd8bfec20d3e8d0c9351c08", "is_reserved": 0, "rental_uris": {"android": "https://dc.lft.to/lastmile_qr_scan", "ios": "https://dc.lft.to/lastmile_qr_scan"}, "lat": 38.93709583333333, "is_disabled": 0, "lon": -77.03635166666666}, {"fusion_lat": 0.0, "type": "electric_bike", "name": "e931573a36377b4dfed799a48caf5e8e", "fusion_lon": 0.0, "bike_id": "e931573a36377b4dfed799a48caf5e8e", "is_reserved": 0, "rental_uris": {"android": "https://dc.lft.to/lastmile_qr_scan", "ios": "https://dc.lft.to/lastmile_qr_scan"}, "lat": 38.94915833333334, "is_disabled": 0, "lon": -77.00800183333334}, {"fusion_lat": 0.0, "type": "electric_bike", "name": "e68e3b0dc2dd509b6b698bbc6eaff655", "fusion_lon": 0.0, "bike_id": "e68e3b0dc2dd509b6b698bbc6eaff655", "is_reserved": 0, "rental_uris": {"android": "https://dc.lft.to/lastmile_qr_scan", "ios": "https://dc.lft.to/lastmile_qr_scan"}, "lat": 38.918465833333336, "is_disabled": 0, "lon": -76.96094816666667}, {"fusion_lat": 0.0, "type": "electric_scooter", "name": "a9c637b75258ebe808d33d39fe57a0f9", "fusion_lon": 0.0, "bike_id": "a9c637b75258ebe808d33d39fe57a0f9", "is_reserved": 0, "rental_uris": {"android": "https://dc.lft.to/lastmile_qr_scan", "ios": "https://dc.lft.to/lastmile_qr_scan"}, "lat": 38.91462083333333, "is_disabled": 0, "lon": -77.01893066666666}, {"fusion_lat": 0.0, "type": "electric_scooter", "name": "5c6b1953c0c0ffc54ec91ec02b631289", "fusion_lon": 0.0, "bike_id": "5c6b1953c0c0ffc54ec91ec02b631289", "is_reserved": 0, "rental_uris": {"android": "https://dc.lft.to/lastmile_qr_scan", "ios": "https://dc.lft.to/lastmile_qr_scan"}, "lat": 38.906936333333334, "is_disabled": 0, "lon": -77.035971}, {"fusion_lat": 0.0, "type": "electric_scooter", "name": "d87719aad17e149d9f5d55060a312ac3", "fusion_lon": 0.0, "bike_id": "d87719aad17e149d9f5d55060a312ac3", "is_reserved": 0, "rental_uris": {"android": "https://dc.lft.to/lastmile_qr_scan", "ios": "https://dc.lft.to/lastmile_qr_scan"}, "lat": 38.909448, "is_disabled": 0, "lon": -77.04664483333333}, {"fusion_lat": 0.0, "type": "electric_scooter", "name": "e4477570be072c1aece307549213d002", "fusion_lon": 0.0, "bike_id": "e4477570be072c1aece307549213d002", "is_reserved": 0, "rental_uris": {"android": "https://dc.lft.to/lastmile_qr_scan", "ios": "https://dc.lft.to/lastmile_qr_scan"}, "lat": 38.91549033333333, "is_disabled": 0, "lon": -77.03853433333333}, {"fusion_lat": 0.0, "type": "electric_scooter", "name": "49bd8d3a62a788f975c8cc7e938958a2", "fusion_lon": 0.0, "bike_id": "49bd8d3a62a788f975c8cc7e938958a2", "is_reserved": 0, "rental_uris": {"android": "https://dc.lft.to/lastmile_qr_scan", "ios": "https://dc.lft.to/lastmile_qr_scan"}, "lat": 38.897350333333335, "is_disabled": 0, "lon": -77.055611}, {"fusion_lat": 0.0, "type": "electric_bike", "name": "57d076478553c8b037d7050e6bc613ce", "fusion_lon": 0.0, "bike_id": "57d076478553c8b037d7050e6bc613ce", "is_reserved": 0, "rental_uris": {"android": "https://dc.lft.to/lastmile_qr_scan", "ios": "https://dc.lft.to/lastmile_qr_scan"}, "lat": 38.9681745, "is_disabled": 0, "lon": -77.07222116666667}, {"fusion_lat": 0.0, "type": "electric_scooter", "name": "36fcdd1550ba7457aaca088ed5db967a", "fusion_lon": 0.0, "bike_id": "36fcdd1550ba7457aaca088ed5db967a", "is_reserved": 0, "rental_uris": {"android": "https://dc.lft.to/lastmile_qr_scan", "ios": "https://dc.lft.to/lastmile_qr_scan"}, "lat": 38.904384, "is_disabled": 0, "lon": -76.98488233333333}, {"fusion_lat": 0.0, "type": "electric_scooter", "name": "00dec29ee8121be681dd430048791081", "fusion_lon": 0.0, "bike_id": "00dec29ee8121be681dd430048791081", "is_reserved": 0, "rental_uris": {"android": "https://dc.lft.to/lastmile_qr_scan", "ios": "https://dc.lft.to/lastmile_qr_scan"}, "lat": 38.92256733333333, "is_disabled": 0, "lon": -77.03516916666666}, {"fusion_lat": 0.0, "type": "electric_scooter", "name": "12e6801f798d8141353de075b9f147ae", "fusion_lon": 0.0, "bike_id": "12e6801f798d8141353de075b9f147ae", "is_reserved": 0, "rental_uris": {"android": "https://dc.lft.to/lastmile_qr_scan", "ios": "https://dc.lft.to/lastmile_qr_scan"}, "lat": 38.90780083333333, "is_disabled": 0, "lon": -77.04509266666666}, {"fusion_lat": 0.0, "type": "electric_scooter", "name": "aba3d92741ed0c98c89e3f8e094a5abf", "fusion_lon": 0.0, "bike_id": "aba3d92741ed0c98c89e3f8e094a5abf", "is_reserved": 0, "rental_uris": {"android": "https://dc.lft.to/lastmile_qr_scan", "ios": "https://dc.lft.to/lastmile_qr_scan"}, "lat": 38.91964766666667, "is_disabled": 0, "lon": -77.0317635}, {"fusion_lat": 0.0, "type": "electric_scooter", "name": "5428e231a6fe0507b42308195c1d779b", "fusion_lon": 0.0, "bike_id": "5428e231a6fe0507b42308195c1d779b", "is_reserved": 0, "rental_uris": {"android": "https://dc.lft.to/lastmile_qr_scan", "ios": "https://dc.lft.to/lastmile_qr_scan"}, "lat": 38.922259333333336, "is_disabled": 0, "lon": -77.04233316666667}, {"fusion_lat": 0.0, "type": "electric_bike", "name": "1d240e7a6beae0830699ea027d6812b4", "fusion_lon": 0.0, "bike_id": "1d240e7a6beae0830699ea027d6812b4", "is_reserved": 0, "rental_uris": {"android": "https://dc.lft.to/lastmile_qr_scan", "ios": "https://dc.lft.to/lastmile_qr_scan"}, "lat": 38.9225035, "is_disabled": 0, "lon": -77.03071116666666}, {"fusion_lat": 0.0, "type": "electric_scooter", "name": "504be8a82013542499d17ccf5273c0e0", "fusion_lon": 0.0, "bike_id": "504be8a82013542499d17ccf5273c0e0", "is_reserved": 0, "rental_uris": {"android": "https://dc.lft.to/lastmile_qr_scan", "ios": "https://dc.lft.to/lastmile_qr_scan"}, "lat": 38.89748266666667, "is_disabled": 0, "lon": -77.027308}, {"fusion_lat": 0.0, "type": "electric_scooter", "name": "c8de22b28d25ca5ff8f801f7e67c7d11", "fusion_lon": 0.0, "bike_id": "c8de22b28d25ca5ff8f801f7e67c7d11", "is_reserved": 0, "rental_uris": {"android": "https://dc.lft.to/lastmile_qr_scan", "ios": "https://dc.lft.to/lastmile_qr_scan"}, "lat": 38.88484783333333, "is_disabled": 0, "lon": -76.92616916666667}, {"fusion_lat": 0.0, "type": "electric_scooter", "name": "7ad980e12a528d7a3915e23a60fd69b4", "fusion_lon": 0.0, "bike_id": "7ad980e12a528d7a3915e23a60fd69b4", "is_reserved": 0, "rental_uris": {"android": "https://dc.lft.to/lastmile_qr_scan", "ios": "https://dc.lft.to/lastmile_qr_scan"}, "lat": 38.92714266666667, "is_disabled": 0, "lon": -77.020902}, {"fusion_lat": 0.0, "type": "electric_scooter", "name": "0f2ce6a12a1b386bc3bf10a4dadb79db", "fusion_lon": 0.0, "bike_id": "0f2ce6a12a1b386bc3bf10a4dadb79db", "is_reserved": 0, "rental_uris": {"android": "https://dc.lft.to/lastmile_qr_scan", "ios": "https://dc.lft.to/lastmile_qr_scan"}, "lat": 38.892301, "is_disabled": 0, "lon": -77.0318595}, {"fusion_lat": 0.0, "type": "electric_scooter", "name": "a98e1faeab921fb58ae7547d38d39245", "fusion_lon": 0.0, "bike_id": "a98e1faeab921fb58ae7547d38d39245", "is_reserved": 0, "rental_uris": {"android": "https://dc.lft.to/lastmile_qr_scan", "ios": "https://dc.lft.to/lastmile_qr_scan"}, "lat": 38.93170766666667, "is_disabled": 0, "lon": -77.0710265}, {"fusion_lat": 0.0, "type": "electric_scooter", "name": "7da018417ffa374a9c8f56dfd3cf2510", "fusion_lon": 0.0, "bike_id": "7da018417ffa374a9c8f56dfd3cf2510", "is_reserved": 0, "rental_uris": {"android": "https://dc.lft.to/lastmile_qr_scan", "ios": "https://dc.lft.to/lastmile_qr_scan"}, "lat": 38.944130666666666, "is_disabled": 0, "lon": -77.02598116666667}, {"fusion_lat": 0.0, "type": "electric_scooter", "name": "f2b87dc9b78527bbfc0f0733761c3524", "fusion_lon": 0.0, "bike_id": "f2b87dc9b78527bbfc0f0733761c3524", "is_reserved": 0, "rental_uris": {"android": "https://dc.lft.to/lastmile_qr_scan", "ios": "https://dc.lft.to/lastmile_qr_scan"}, "lat": 38.89273283333333, "is_disabled": 0, "lon": -77.04877916666666}, {"fusion_lat": 0.0, "type": "electric_scooter", "name": "cb79819c5577911d6f2ec182be3e0c95", "fusion_lon": 0.0, "bike_id": "cb79819c5577911d6f2ec182be3e0c95", "is_reserved": 0, "rental_uris": {"android": "https://dc.lft.to/lastmile_qr_scan", "ios": "https://dc.lft.to/lastmile_qr_scan"}, "lat": 38.900862000000004, "is_disabled": 0, "lon": -76.9302075}, {"fusion_lat": 0.0, "type": "electric_bike", "name": "4b1afa38d31efd260d9a19841a10029e", "fusion_lon": 0.0, "bike_id": "4b1afa38d31efd260d9a19841a10029e", "is_reserved": 0, "rental_uris": {"android": "https://dc.lft.to/lastmile_qr_scan", "ios": "https://dc.lft.to/lastmile_qr_scan"}, "lat": 38.9164475, "is_disabled": 0, "lon": -76.973034}, {"fusion_lat": 0.0, "type": "electric_scooter", "name": "d705e5cf1d363c28ab8f1f7ced1bb4d3", "fusion_lon": 0.0, "bike_id": "d705e5cf1d363c28ab8f1f7ced1bb4d3", "is_reserved": 0, "rental_uris": {"android": "https://dc.lft.to/lastmile_qr_scan", "ios": "https://dc.lft.to/lastmile_qr_scan"}, "lat": 38.872095, "is_disabled": 0, "lon": -76.97841616666666}, {"fusion_lat": 0.0, "type": "electric_scooter", "name": "819f2ca53ed731e1ac4d5beceb39a01b", "fusion_lon": 0.0, "bike_id": "819f2ca53ed731e1ac4d5beceb39a01b", "is_reserved": 0, "rental_uris": {"android": "https://dc.lft.to/lastmile_qr_scan", "ios": "https://dc.lft.to/lastmile_qr_scan"}, "lat": 38.855396, "is_disabled": 0, "lon": -76.98417683333334}, {"fusion_lat": 0.0, "type": "electric_scooter", "name": "d3e668b6e43c77bf8275369aa2782e27", "fusion_lon": 0.0, "bike_id": "d3e668b6e43c77bf8275369aa2782e27", "is_reserved": 0, "rental_uris": {"android": "https://dc.lft.to/lastmile_qr_scan", "ios": "https://dc.lft.to/lastmile_qr_scan"}, "lat": 38.9506375, "is_disabled": 0, "lon": -77.0801425}, {"fusion_lat": 0.0, "type": "electric_scooter", "name": "934768a6cd87d0999c125337d095c27f", "fusion_lon": 0.0, "bike_id": "934768a6cd87d0999c125337d095c27f", "is_reserved": 0, "rental_uris": {"android": "https://dc.lft.to/lastmile_qr_scan", "ios": "https://dc.lft.to/lastmile_qr_scan"}, "lat": 38.93584416666667, "is_disabled": 0, "lon": -77.08117466666667}, {"fusion_lat": 0.0, "type": "electric_scooter", "name": "eb84b954efb9da8686a6253c519e244c", "fusion_lon": 0.0, "bike_id": "eb84b954efb9da8686a6253c519e244c", "is_reserved": 0, "rental_uris": {"android": "https://dc.lft.to/lastmile_qr_scan", "ios": "https://dc.lft.to/lastmile_qr_scan"}, "lat": 38.897546166666665, "is_disabled": 0, "lon": -77.03286183333333}, {"fusion_lat": 0.0, "type": "electric_scooter", "name": "cf7e976296883e1a1ce4ade3c94f0b37", "fusion_lon": 0.0, "bike_id": "cf7e976296883e1a1ce4ade3c94f0b37", "is_reserved": 0, "rental_uris": {"android": "https://dc.lft.to/lastmile_qr_scan", "ios": "https://dc.lft.to/lastmile_qr_scan"}, "lat": 38.86244683333334, "is_disabled": 0, "lon": -76.99499933333334}, {"fusion_lat": 0.0, "type": "electric_scooter", "name": "951883367e8eea574c2f6664c6510575", "fusion_lon": 0.0, "bike_id": "951883367e8eea574c2f6664c6510575", "is_reserved": 0, "rental_uris": {"android": "https://dc.lft.to/lastmile_qr_scan", "ios": "https://dc.lft.to/lastmile_qr_scan"}, "lat": 38.9118285, "is_disabled": 0, "lon": -77.0008915}, {"fusion_lat": 0.0, "type": "electric_scooter", "name": "2060118b9a2500999684a5f2cedcbede", "fusion_lon": 0.0, "bike_id": "2060118b9a2500999684a5f2cedcbede", "is_reserved": 0, "rental_uris": {"android": "https://dc.lft.to/lastmile_qr_scan", "ios": "https://dc.lft.to/lastmile_qr_scan"}, "lat": 38.95125066666667, "is_disabled": 0, "lon": -76.98672883333333}, {"fusion_lat": 0.0, "type": "electric_scooter", "name": "bb8d7d249d34dbe71e3da293122ce6b7", "fusion_lon": 0.0, "bike_id": "bb8d7d249d34dbe71e3da293122ce6b7", "is_reserved": 0, "rental_uris": {"android": "https://dc.lft.to/lastmile_qr_scan", "ios": "https://dc.lft.to/lastmile_qr_scan"}, "lat": 38.92519216666667, "is_disabled": 0, "lon": -77.05041083333333}, {"fusion_lat": 0.0, "type": "electric_scooter", "name": "e7014ec0703c45fe1d7851bfbbafc407", "fusion_lon": 0.0, "bike_id": "e7014ec0703c45fe1d7851bfbbafc407", "is_reserved": 0, "rental_uris": {"android": "https://dc.lft.to/lastmile_qr_scan", "ios": "https://dc.lft.to/lastmile_qr_scan"}, "lat": 38.89231483333333, "is_disabled": 0, "lon": -77.02798566666667}, {"fusion_lat": 0.0, "type": "electric_scooter", "name": "d370ef2abb000dea3a6563c7bcdb6072", "fusion_lon": 0.0, "bike_id": "d370ef2abb000dea3a6563c7bcdb6072", "is_reserved": 0, "rental_uris": {"android": "https://dc.lft.to/lastmile_qr_scan", "ios": "https://dc.lft.to/lastmile_qr_scan"}, "lat": 38.92177183333333, "is_disabled": 0, "lon": -77.04018733333334}, {"fusion_lat": 0.0, "type": "electric_scooter", "name": "12e3ba1a34cb452954ca99f1ed2caf1a", "fusion_lon": 0.0, "bike_id": "12e3ba1a34cb452954ca99f1ed2caf1a", "is_reserved": 0, "rental_uris": {"android": "https://dc.lft.to/lastmile_qr_scan", "ios": "https://dc.lft.to/lastmile_qr_scan"}, "lat": 38.873908, "is_disabled": 0, "lon": -77.0003395}, {"fusion_lat": 0.0, "type": "electric_scooter", "name": "fe4e91f9fe534ed936490d404047c5dc", "fusion_lon": 0.0, "bike_id": "fe4e91f9fe534ed936490d404047c5dc", "is_reserved": 0, "rental_uris": {"android": "https://dc.lft.to/lastmile_qr_scan", "ios": "https://dc.lft.to/lastmile_qr_scan"}, "lat": 38.905533, "is_disabled": 0, "lon": -77.006}, {"fusion_lat": 0.0, "type": "electric_scooter", "name": "3f2ca989f4442a95c3ee50338ca8bc74", "fusion_lon": 0.0, "bike_id": "3f2ca989f4442a95c3ee50338ca8bc74", "is_reserved": 0, "rental_uris": {"android": "https://dc.lft.to/lastmile_qr_scan", "ios": "https://dc.lft.to/lastmile_qr_scan"}, "lat": 38.89242216666667, "is_disabled": 0, "lon": -77.04162283333334}, {"fusion_lat": 0.0, "type": "electric_scooter", "name": "a3588f09400fb2b0ef084fc9cc4ddf35", "fusion_lon": 0.0, "bike_id": "a3588f09400fb2b0ef084fc9cc4ddf35", "is_reserved": 0, "rental_uris": {"android": "https://dc.lft.to/lastmile_qr_scan", "ios": "https://dc.lft.to/lastmile_qr_scan"}, "lat": 38.911558166666666, "is_disabled": 0, "lon": -77.04330983333334}, {"fusion_lat": 0.0, "type": "electric_scooter", "name": "32f446f4ad0dd42fe2c2be7f1225859e", "fusion_lon": 0.0, "bike_id": "32f446f4ad0dd42fe2c2be7f1225859e", "is_reserved": 0, "rental_uris": {"android": "https://dc.lft.to/lastmile_qr_scan", "ios": "https://dc.lft.to/lastmile_qr_scan"}, "lat": 38.9304415, "is_disabled": 0, "lon": -77.03786}, {"fusion_lat": 0.0, "type": "electric_scooter", "name": "41e7c06200d1d363179c60d6704d321a", "fusion_lon": 0.0, "bike_id": "41e7c06200d1d363179c60d6704d321a", "is_reserved": 0, "rental_uris": {"android": "https://dc.lft.to/lastmile_qr_scan", "ios": "https://dc.lft.to/lastmile_qr_scan"}, "lat": 38.90419033333333, "is_disabled": 0, "lon": -77.04272133333333}, {"fusion_lat": 0.0, "type": "electric_scooter", "name": "f1f827ade2a72975244cd17e2fbbe084", "fusion_lon": 0.0, "bike_id": "f1f827ade2a72975244cd17e2fbbe084", "is_reserved": 0, "rental_uris": {"android": "https://dc.lft.to/lastmile_qr_scan", "ios": "https://dc.lft.to/lastmile_qr_scan"}, "lat": 38.905728333333336, "is_disabled": 0, "lon": -77.01970783333333}, {"fusion_lat": 0.0, "type": "electric_scooter", "name": "db506638b45b707c60b1847c75a72c17", "fusion_lon": 0.0, "bike_id": "db506638b45b707c60b1847c75a72c17", "is_reserved": 0, "rental_uris": {"android": "https://dc.lft.to/lastmile_qr_scan", "ios": "https://dc.lft.to/lastmile_qr_scan"}, "lat": 38.942048, "is_disabled": 0, "lon": -77.0251805}, {"fusion_lat": 0.0, "type": "electric_scooter", "name": "ada1fb08857d172542279b8a81502913", "fusion_lon": 0.0, "bike_id": "ada1fb08857d172542279b8a81502913", "is_reserved": 0, "rental_uris": {"android": "https://dc.lft.to/lastmile_qr_scan", "ios": "https://dc.lft.to/lastmile_qr_scan"}, "lat": 38.8575285, "is_disabled": 0, "lon": -76.99299016666667}, {"fusion_lat": 0.0, "type": "electric_scooter", "name": "d95082863b8998b6a9ae492a909b311a", "fusion_lon": 0.0, "bike_id": "d95082863b8998b6a9ae492a909b311a", "is_reserved": 0, "rental_uris": {"android": "https://dc.lft.to/lastmile_qr_scan", "ios": "https://dc.lft.to/lastmile_qr_scan"}, "lat": 38.91984383333333, "is_disabled": 0, "lon": -77.0331695}, {"fusion_lat": 0.0, "type": "electric_scooter", "name": "7d68d0cfca5e26e10e333616156cf211", "fusion_lon": 0.0, "bike_id": "7d68d0cfca5e26e10e333616156cf211", "is_reserved": 0, "rental_uris": {"android": "https://dc.lft.to/lastmile_qr_scan", "ios": "https://dc.lft.to/lastmile_qr_scan"}, "lat": 38.931087166666664, "is_disabled": 0, "lon": -77.025291}, {"fusion_lat": 0.0, "type": "electric_scooter", "name": "074759cdb0c38ba8bdd1866e00ea1fc6", "fusion_lon": 0.0, "bike_id": "074759cdb0c38ba8bdd1866e00ea1fc6", "is_reserved": 0, "rental_uris": {"android": "https://dc.lft.to/lastmile_qr_scan", "ios": "https://dc.lft.to/lastmile_qr_scan"}, "lat": 38.8923505, "is_disabled": 0, "lon": -77.03192733333333}, {"fusion_lat": 0.0, "type": "electric_scooter", "name": "f92453fb5587b3653f775080f131244f", "fusion_lon": 0.0, "bike_id": "f92453fb5587b3653f775080f131244f", "is_reserved": 0, "rental_uris": {"android": "https://dc.lft.to/lastmile_qr_scan", "ios": "https://dc.lft.to/lastmile_qr_scan"}, "lat": 38.885074, "is_disabled": 0, "lon": -77.02021433333333}, {"fusion_lat": 0.0, "type": "electric_scooter", "name": "e52d645870fa30d4961c2d44c2c50280", "fusion_lon": 0.0, "bike_id": "e52d645870fa30d4961c2d44c2c50280", "is_reserved": 0, "rental_uris": {"android": "https://dc.lft.to/lastmile_qr_scan", "ios": "https://dc.lft.to/lastmile_qr_scan"}, "lat": 38.907285333333334, "is_disabled": 0, "lon": -77.0348015}, {"fusion_lat": 0.0, "type": "electric_bike", "name": "28a5a39e3df94ecca7c4cc20e5718b3f", "fusion_lon": 0.0, "bike_id": "28a5a39e3df94ecca7c4cc20e5718b3f", "is_reserved": 0, "rental_uris": {"android": "https://dc.lft.to/lastmile_qr_scan", "ios": "https://dc.lft.to/lastmile_qr_scan"}, "lat": 38.885641166666666, "is_disabled": 0, "lon": -77.16692616666667}, {"fusion_lat": 0.0, "type": "electric_scooter", "name": "f5e2d25b716528f48ce9ad6618f261b2", "fusion_lon": 0.0, "bike_id": "f5e2d25b716528f48ce9ad6618f261b2", "is_reserved": 0, "rental_uris": {"android": "https://dc.lft.to/lastmile_qr_scan", "ios": "https://dc.lft.to/lastmile_qr_scan"}, "lat": 38.892275833333336, "is_disabled": 0, "lon": -77.0217665}, {"fusion_lat": 0.0, "type": "electric_scooter", "name": "d521944f26215263e6647e30b74e0c08", "fusion_lon": 0.0, "bike_id": "d521944f26215263e6647e30b74e0c08", "is_reserved": 0, "rental_uris": {"android": "https://dc.lft.to/lastmile_qr_scan", "ios": "https://dc.lft.to/lastmile_qr_scan"}, "lat": 38.918932, "is_disabled": 0, "lon": -77.029673}, {"fusion_lat": 0.0, "type": "electric_scooter", "name": "ff39d7c65ee1c237e7e0620e1fecbf4f", "fusion_lon": 0.0, "bike_id": "ff39d7c65ee1c237e7e0620e1fecbf4f", "is_reserved": 0, "rental_uris": {"android": "https://dc.lft.to/lastmile_qr_scan", "ios": "https://dc.lft.to/lastmile_qr_scan"}, "lat": 38.843137, "is_disabled": 0, "lon": -76.99935}, {"fusion_lat": 0.0, "type": "electric_scooter", "name": "80ec701cc393128d13f9fbce45691ce4", "fusion_lon": 0.0, "bike_id": "80ec701cc393128d13f9fbce45691ce4", "is_reserved": 0, "rental_uris": {"android": "https://dc.lft.to/lastmile_qr_scan", "ios": "https://dc.lft.to/lastmile_qr_scan"}, "lat": 38.881318, "is_disabled": 0, "lon": -77.0165795}, {"fusion_lat": 0.0, "type": "electric_scooter", "name": "8f1cb7d33702bcda29a7235b8139e921", "fusion_lon": 0.0, "bike_id": "8f1cb7d33702bcda29a7235b8139e921", "is_reserved": 0, "rental_uris": {"android": "https://dc.lft.to/lastmile_qr_scan", "ios": "https://dc.lft.to/lastmile_qr_scan"}, "lat": 38.882656, "is_disabled": 0, "lon": -76.99007516666667},