{"data": {"bikes": [{"fusion_lat": 0.0, "name": "7beaf5101ab4dadccfbdd0b1682e17ff", "is_disabled": 0, "rental_uris": {"android": "https://dc.lft.to/lastmile_qr_scan", "ios": "https://dc.lft.to/lastmile_qr_scan"}, "fusion_lon": 0.0, "lat": 38.90683933333333, "bike_id": "7beaf5101ab4dadccfbdd0b1682e17ff", "type": "electric_scooter", "is_reserved": 0, "lon": -77.0101135}, {"fusion_lat": 0.0, "name": "4683ff1beae3ecef5f8e808171182dac", "is_disabled": 0, "rental_uris": {"android": "https://dc.lft.to/lastmile_qr_scan", "ios": "https://dc.lft.to/lastmile_qr_scan"}, "fusion_lon": 0.0, "lat": 38.897292166666666, "bike_id": "4683ff1beae3ecef5f8e808171182dac", "type": "electric_scooter", "is_reserved": 0, "lon": -76.99136616666667}, {"fusion_lat": 0.0, "name": "62d485e66639cdff58ab4f77602e88d3", "is_disabled": 0, "rental_uris": {"android": "https://dc.lft.to/lastmile_qr_scan", "ios": "https://dc.lft.to/lastmile_qr_scan"}, "fusion_lon": 0.0, "lat": 38.923376166666664, "bike_id": "62d485e66639cdff58ab4f77602e88d3", "type": "electric_scooter", "is_reserved": 0, "lon": -77.053014}, {"fusion_lat": 0.0, "name": "1616301bcec8a94f1f30c46d3c5c6385", "is_disabled": 0, "rental_uris": {"android": "https://dc.lft.to/lastmile_qr_scan", "ios": "https://dc.lft.to/lastmile_qr_scan"}, "fusion_lon": 0.0, "lat": 38.88185283333333, "bike_id": "1616301bcec8a94f1f30c46d3c5c6385", "type": "electric_bike", "is_reserved": 0, "lon": -77.08634066666667}, {"fusion_lat": 0.0, "name": "00e77665f230f49ed5e772e5d44b2499", "is_disabled": 0, "rental_uris": {"android": "https://dc.lft.to/lastmile_qr_scan", "ios": "https://dc.lft.to/lastmile_qr_scan"}, "fusion_lon": 0.0, "lat": 38.90845616666667, "bike_id": "00e77665f230f49ed5e772e5d44b2499", "type": "electric_scooter", "is_reserved": 0, "lon": -77.02328633333333}, {"fusion_lat": 0.0, "name": "98bde47df46a41d3abb3f9dd18305cc6", "is_disabled": 0, "rental_uris": {"android": "https://dc.lft.to/lastmile_qr_scan", "ios": "https://dc.lft.to/lastmile_qr_scan"}, "fusion_lon": 0.0, "lat": 38.95087316666667, "bike_id": "98bde47df46a41d3abb3f9dd18305cc6", "type": "electric_bike", "is_reserved": 0, "lon": -77.0122565}, {"fusion_lat": 0.0, "name": "9a3eadeb0ef57b9462a08e404fde141d", "is_disabled": 0, "rental_uris": {"android": "https://dc.lft.to/lastmile_qr_scan", "ios": "https://dc.lft.to/lastmile_qr_scan"}, "fusion_lon": 0.0, "lat": 38.9023035, "bike_id": "9a3eadeb0ef57b9462a08e404fde141d", "type": "electric_scooter", "is_reserved": 0, "lon": -77.03468066666667}, {"fusion_lat": 0.0, "name": "217d1584f8e4551a7d4167d200467835", "is_disabled": 0, "rental_uris": {"android": "https://dc.lft.to/lastmile_qr_scan", "ios": "https://dc.lft.to/lastmile_qr_scan"}, "fusion_lon": 0.0, "lat": 38.91838466666667, "bike_id": "217d1584f8e4551a7d4167d200467835", "type": "electric_scooter", "is_reserved": 0, "lon": -77.04522283333333}, {"fusion_lat": 0.0, "name": "3f76460a76e5130f18c8710c89ffdab8", "is_disabled": 0, "rental_uris": {"android": "https://dc.lft.to/lastmile_qr_scan", "ios": "https://dc.lft.to/lastmile_qr_scan"}, "fusion_lon": 0.0, "lat": 38.87856716666667, "bike_id": "3f76460a76e5130f18c8710c89ffdab8", "type": "electric_scooter", "is_reserved": 0, "lon": -77.01769633333333}, {"fusion_lat": 0.0, "name": "d1cf1fd8520bb6377cb05cd112ba8ee8", "is_disabled": 0, "rental_uris": {"android": "https://dc.lft.to/lastmile_qr_scan", "ios": "https://dc.lft.to/lastmile_qr_scan"}, "fusion_lon": 0.0, "lat": 38.9206125, "bike_id": "d1cf1fd8520bb6377cb05cd112ba8ee8", "type": "electric_scooter", "is_reserved": 0, "lon": -77.0236005}, {"fusion_lat": 0.0, "name": "4d866614e9e35f37d2d909e7fb73b8cd", "is_disabled": 0, "rental_uris": {"android": "https://dc.lft.to/lastmile_qr_scan", "ios": "https://dc.lft.to/lastmile_qr_scan"}, "fusion_lon": 0.0, "lat": 38.9002365, "bike_id": "4d866614e9e35f37d2d909e7fb73b8cd", "type": "electric_scooter", "is_reserved": 0, "lon": -76.9986815}, {"fusion_lat": 0.0, "name": "afb9a775868b99d2ceb0f9d25e8adab4", "is_disabled": 0, "rental_uris": {"android": "https://dc.lft.to/lastmile_qr_scan", "ios": "https://dc.lft.to/lastmile_qr_scan"}, "fusion_lon": 0.0, "lat": 38.8954405, "bike_id": "afb9a775868b99d2ceb0f9d25e8adab4", "type": "electric_scooter", "is_reserved": 0, "lon": -76.98335766666666}, {"fusion_lat": 0.0, "name": "3f780001cb8b78945810a486d4efd2bc", "is_disabled": 0, "rental_uris": {"android": "https://dc.lft.to/lastmile_qr_scan", "ios": "https://dc.lft.to/lastmile_qr_scan"}, "fusion_lon": 0.0, "lat": 38.92378933333333, "bike_id": "3f780001cb8b78945810a486d4efd2bc", "type": "electric_scooter", "is_reserved": 0, "lon": -77.03126566666667}, {"fusion_lat": 0.0, "name": "7588e98c1615b0f58ed2475204c5b7c3", "is_disabled": 0, "rental_uris": {"android": "https://dc.lft.to/lastmile_qr_scan", "ios": "https://dc.lft.to/lastmile_qr_scan"}, "fusion_lon": 0.0, "lat": 38.92104233333333, "bike_id": "7588e98c1615b0f58ed2475204c5b7c3", "type": "electric_scooter", "is_reserved": 0, "lon": -77.025085}, {"fusion_lat": 0.0, "name": "d7993ecbafd31af228362dea82943f94", "is_disabled": 0, "rental_uris": {"android": "https://dc.lft.to/lastmile_qr_scan", "ios": "https://dc.lft.to/lastmile_qr_scan"}, "fusion_lon": 0.0, "lat": 38.91802783333333, "bike_id": "d7993ecbafd31af228362dea82943f94", "type": "electric_scooter", "is_reserved": 0, "lon": -77.03439133333333}, {"fusion_lat": 0.0, "name": "367fb0d0dbf7567c0861e73140c453d9", "is_disabled": 0, "rental_uris": {"android": "https://dc.lft.to/lastmile_qr_scan", "ios": "https://dc.lft.to/lastmile_qr_scan"}, "fusion_lon": 0.0, "lat": 38.90572483333333, "bike_id": "367fb0d0dbf7567c0861e73140c453d9", "type": "electric_scooter", "is_reserved": 0, "lon": -77.0220325}, {"fusion_lat": 0.0, "name": "3ae09acdf80e9ffcd531aaa6148a6efc", "is_disabled": 0, "rental_uris": {"android": "https://dc.lft.to/lastmile_qr_scan", "ios": "https://dc.lft.to/lastmile_qr_scan"}, "fusion_lon": 0.0, "lat": 38.884882833333336, "bike_id": "3ae09acdf80e9ffcd531aaa6148a6efc", "type": "electric_scooter", "is_reserved": 0, "lon": -77.02367133333334}, {"fusion_lat": 0.0, "name": "e38ab33f6f374671609f36e06c04389c", "is_disabled": 0, "rental_uris": {"android": "https://dc.lft.to/lastmile_qr_scan", "ios": "https://dc.lft.to/lastmile_qr_scan"}, "fusion_lon": 0.0, "lat": 38.91976116666667, "bike_id": "e38ab33f6f374671609f36e06c04389c", "type": "electric_scooter", "is_reserved": 0, "lon": -77.0238915}, {"fusion_lat": 0.0, "name": "2459c033d0485896a9f9d82af626f213", "is_disabled": 0, "rental_uris": {"android": "https://dc.lft.to/lastmile_qr_scan", "ios": "https://dc.lft.to/lastmile_qr_scan"}, "fusion_lon": 0.0, "lat": 38.994424, "bike_id": "2459c033d0485896a9f9d82af626f213", "type": "electric_bike", "is_reserved": 0, "lon": -76.995936}, {"fusion_lat": 0.0, "name": "73c4693f8b15627b5fa41a024d0dcb34", "is_disabled": 0, "rental_uris": {"android": "https://dc.lft.to/lastmile_qr_scan", "ios": "https://dc.lft.to/lastmile_qr_scan"}, "fusion_lon": 0.0, "lat": 38.903034166666664, "bike_id": "73c4693f8b15627b5fa41a024d0dcb34", "type": "electric_scooter", "is_reserved": 0, "lon": -76.97651333333333}, {"fusion_lat": 0.0, "name": "423a8508c7d77d7865b5287f18615c84", "is_disabled": 0, "rental_uris": {"android": "https://dc.lft.to/lastmile_qr_scan", "ios": "https://dc.lft.to/lastmile_qr_scan"}, "fusion_lon": 0.0, "lat": 38.934273833333336, "bike_id": "423a8508c7d77d7865b5287f18615c84", "type": "electric_scooter", "is_reserved": 0, "lon": -77.02404916666667}, {"fusion_lat": 0.0, "name": "2a44ccfaf59e9f1e4d08455f0ed31058", "is_disabled": 0, "rental_uris": {"android": "https://dc.lft.to/lastmile_qr_scan", "ios": "https://dc.lft.to/lastmile_qr_scan"}, "fusion_lon": 0.0, "lat": 38.920931333333336, "bike_id": "2a44ccfaf59e9f1e4d08455f0ed31058", "type": "electric_scooter", "is_reserved": 0, "lon": -77.03157983333334}, {"fusion_lat": 0.0, "name": "c9abe6dc550b1e3ea3f065dabdf92c6b", "is_disabled": 0, "rental_uris": {"android": "https://dc.lft.to/lastmile_qr_scan", "ios": "https://dc.lft.to/lastmile_qr_scan"}, "fusion_lon": 0.0, "lat": 38.919130833333334, "bike_id": "c9abe6dc550b1e3ea3f065dabdf92c6b", "type": "electric_scooter", "is_reserved": 0, "lon": -77.02393983333333}, {"fusion_lat": 0.0, "name": "9bdf2f8dd69d5bbc9a462adf5886a751", "is_disabled": 0, "rental_uris": {"android": "https://dc.lft.to/lastmile_qr_scan", "ios": "https://dc.lft.to/lastmile_qr_scan"}, "fusion_lon": 0.0, "lat": 38.92119366666667, "bike_id": "9bdf2f8dd69d5bbc9a462adf5886a751", "type": "electric_scooter", "is_reserved": 0, "lon": -77.012136}, {"fusion_lat": 0.0, "name": "151cb1041a5733b54b10486aa0576b6c", "is_disabled": 0, "rental_uris": {"android": "https://dc.lft.to/lastmile_qr_scan", "ios": "https://dc.lft.to/lastmile_qr_scan"}, "fusion_lon": 0.0, "lat": 38.945297833333335, "bike_id": "151cb1041a5733b54b10486aa0576b6c", "type": "electric_scooter", "is_reserved": 0, "lon": -77.020848}, {"fusion_lat": 0.0, "name": "d9786ba417c0e088450de048e0094801", "is_disabled": 0, "rental_uris": {"android": "https://dc.lft.to/lastmile_qr_scan", "ios": "https://dc.lft.to/lastmile_qr_scan"}, "fusion_lon": 0.0, "lat": 38.91925583333333, "bike_id": "d9786ba417c0e088450de048e0094801", "type": "electric_scooter", "is_reserved": 0, "lon": -77.0120615}, {"fusion_lat": 0.0, "name": "38eda29626b7d485e30f118bebe5e7d1", "is_disabled": 0, "rental_uris": {"android": "https://dc.lft.to/lastmile_qr_scan", "ios": "https://dc.lft.to/lastmile_qr_scan"}, "fusion_lon": 0.0, "lat": 39.00307166666666, "bike_id": "38eda29626b7d485e30f118bebe5e7d1", "type": "electric_bike", "is_reserved": 0, "lon": -76.903186}, {"fusion_lat": 0.0, "name": "ebf7e4770dff1bd89ca7ea00f4b05034", "is_disabled": 0, "rental_uris": {"android": "https://dc.lft.to/lastmile_qr_scan", "ios": "https://dc.lft.to/lastmile_qr_scan"}, "fusion_lon": 0.0, "lat": 38.91814083333333, "bike_id": "ebf7e4770dff1bd89ca7ea00f4b05034", "type": "electric_scooter", "is_reserved": 0, "lon": -77.02472466666667}, {"fusion_lat": 0.0, "name": "5be02eaabceca3645141abe2b4ddb8b8", "is_disabled": 0, "rental_uris": {"android": "https://dc.lft.to/lastmile_qr_scan", "ios": "https://dc.lft.to/lastmile_qr_scan"}, "fusion_lon": 0.0, "lat": 38.92334016666667, "bike_id": "5be02eaabceca3645141abe2b4ddb8b8", "type": "electric_scooter", "is_reserved": 0, "lon": -77.05349083333333}, {"fusion_lat": 0.0, "name": "a05aa313e78cd0567447832a180197bc", "is_disabled": 0, "rental_uris": {"android": "https://dc.lft.to/lastmile_qr_scan", "ios": "https://dc.lft.to/lastmile_qr_scan"}, "fusion_lon": 0.0, "lat": 38.90256016666667, "bike_id": "a05aa313e78cd0567447832a180197bc", "type": "electric_scooter", "is_reserved": 0, "lon": -77.02782}, {"fusion_lat": 0.0, "name": "08ddfec2c47179281c6ed3e1a3012c1a", "is_disabled": 0, "rental_uris": {"android": "https://dc.lft.to/lastmile_qr_scan", "ios": "https://dc.lft.to/lastmile_qr_scan"}, "fusion_lon": 0.0, "lat": 38.915702333333336, "bike_id": "08ddfec2c47179281c6ed3e1a3012c1a", "type": "electric_scooter", "is_reserved": 0, "lon": -77.036334}, {"fusion_lat": 0.0, "name": "4626316667f902dbaa31faaec9b26e1a", "is_disabled": 0, "rental_uris": {"android": "https://dc.lft.to/lastmile_qr_scan", "ios": "https://dc.lft.to/lastmile_qr_scan"}, "fusion_lon": 0.0, "lat": 38.937044666666665, "bike_id": "4626316667f902dbaa31faaec9b26e1a", "type": "electric_scooter", "is_reserved": 0, "lon": -77.06105133333334}, {"fusion_lat": 0.0, "name": "978f6b8f98b7e4286c469f0ba2f5380c", "is_disabled": 0, "rental_uris": {"android": "https://dc.lft.to/lastmile_qr_scan", "ios": "https://dc.lft.to/lastmile_qr_scan"}, "fusion_lon": 0.0, "lat": 38.90098533333333, "bike_id": "978f6b8f98b7e4286c469f0ba2f5380c", "type": "electric_scooter", "is_reserved": 0, "lon": -77.01991183333334}, {"fusion_lat": 0.0, "name": "025db2c859bfc1786d293d095b8d60b6", "is_disabled": 0, "rental_uris": {"android": "https://dc.lft.to/lastmile_qr_scan", "ios": "https://dc.lft.to/lastmile_qr_scan"}, "fusion_lon": 0.0, "lat": 38.87637683333333, "bike_id": "025db2c859bfc1786d293d095b8d60b6", "type": "electric_scooter", "is_reserved": 0, "lon": -77.00806233333333}, {"fusion_lat": 0.0, "name": "9a4809f8230fc4025dc80d819d4f3007", "is_disabled": 0, "rental_uris": {"android": "https://dc.lft.to/lastmile_qr_scan", "ios": "https://dc.lft.to/lastmile_qr_scan"}, "fusion_lon": 0.0, "lat": 38.922884, "bike_id": "9a4809f8230fc4025dc80d819d4f3007", "type": "electric_scooter", "is_reserved": 0, "lon": -77.03660416666666}, {"fusion_lat": 0.0, "name": "f686615b8330d09cdfce3fba23ee655a", "is_disabled": 0, "rental_uris": {"android": "https://dc.lft.to/lastmile_qr_scan", "ios": "https://dc.lft.to/lastmile_qr_scan"}, "fusion_lon": 0.0, "lat": 38.893072833333335, "bike_id": "f686615b8330d09cdfce3fba23ee655a", "type": "electric_scooter", "is_reserved": 0, "lon": -77.0558535}, {"fusion_lat": 0.0, "name": "bcb1aaac2f12f7f73ab4fb6c93efaefa", "is_disabled": 0, "rental_uris": {"android": "https://dc.lft.to/lastmile_qr_scan", "ios": "https://dc.lft.to/lastmile_qr_scan"}, "fusion_lon": 0.0, "lat": 38.90029033333333, "bike_id": "bcb1aaac2f12f7f73ab4fb6c93efaefa", "type": "electric_scooter", "is_reserved": 0, "lon": -77.01194133333334}, {"fusion_lat": 0.0, "name": "1fda69c0c2b1622e24b1f6a149e31e43", "is_disabled": 0, "rental_uris": {"android": "https://dc.lft.to/lastmile_qr_scan", "ios": "https://dc.lft.to/lastmile_qr_scan"}, "fusion_lon": 0.0, "lat": 38.93622533333333, "bike_id": "1fda69c0c2b1622e24b1f6a149e31e43", "type": "electric_scooter", "is_reserved": 0, "lon": -77.03656016666666}, {"fusion_lat": 0.0, "name": "276c7ae03edfd2439538b98957be72d7", "is_disabled": 0, "rental_uris": {"android": "https://dc.lft.to/lastmile_qr_scan", "ios": "https://dc.lft.to/lastmile_qr_scan"}, "fusion_lon": 0.0, "lat": 38.91546616666667, "bike_id": "276c7ae03edfd2439538b98957be72d7", "type": "electric_scooter", "is_reserved": 0, "lon": -77.0208505}, {"fusion_lat": 0.0, "name": "5a2146cbf4e93b6882c69124e38a6285", "is_disabled": 0, "rental_uris": {"android": "https://dc.lft.to/lastmile_qr_scan", "ios": "https://dc.lft.to/lastmile_qr_scan"}, "fusion_lon": 0.0, "lat": 38.87839483333333, "bike_id": "5a2146cbf4e93b6882c69124e38a6285", "type": "electric_scooter", "is_reserved": 0, "lon": -77.00560183333333}, {"fusion_lat": 0.0, "name": "386e43518c572ad6787c0974f05f0ab6", "is_disabled": 0, "rental_uris": {"android": "https://dc.lft.to/lastmile_qr_scan", "ios": "https://dc.lft.to/lastmile_qr_scan"}, "fusion_lon": 0.0, "lat": 38.861388166666664, "bike_id": "386e43518c572ad6787c0974f05f0ab6", "type": "electric_bike", "is_reserved": 0, "lon": -76.971713}, {"fusion_lat": 0.0, "name": "95a2774926cc0d9be6d2d4b2a3e742de", "is_disabled": 0, "rental_uris": {"android": "https://dc.lft.to/lastmile_qr_scan", "ios": "https://dc.lft.to/lastmile_qr_scan"}, "fusion_lon": 0.0, "lat": 38.949777, "bike_id": "95a2774926cc0d9be6d2d4b2a3e742de", "type": "electric_scooter", "is_reserved": 0, "lon": -77.02697533333334}, {"fusion_lat": 0.0, "name": "de4a9738cb39a80d9d05e55faeed6b09", "is_disabled": 0, "rental_uris": {"android": "https://dc.lft.to/lastmile_qr_scan", "ios": "https://dc.lft.to/lastmile_qr_scan"}, "fusion_lon": 0.0, "lat": 38.92469233333333, "bike_id": "de4a9738cb39a80d9d05e55faeed6b09", "type": "electric_scooter", "is_reserved": 0, "lon": -77.03528166666666}, {"fusion_lat": 0.0, "name": "df553623dd478762de2cb288a08d5083", "is_disabled": 0, "rental_uris": {"android": "https://dc.lft.to/lastmile_qr_scan", "ios": "https://dc.lft.to/lastmile_qr_scan"}, "fusion_lon": 0.0, "lat": 38.909688, "bike_id": "df553623dd478762de2cb288a08d5083", "type": "electric_scooter", "is_reserved": 0, "lon": -77.0386095}, {"fusion_lat": 0.0, "name": "c8e2a778df158de0f7d74ce5f66861f2", "is_disabled": 0, "rental_uris": {"android": "https://dc.lft.to/lastmile_qr_scan", "ios": "https://dc.lft.to/lastmile_qr_scan"}, "fusion_lon": 0.0, "lat": 38.91845466666667, "bike_id": "c8e2a778df158de0f7d74ce5f66861f2", "type": "electric_scooter", "is_reserved": 0, "lon": -77.04585666666667}, {"fusion_lat": 0.0, "name": "ac0bd09fcbb73004623eb9701752e64e", "is_disabled": 0, "rental_uris": {"android": "https://dc.lft.to/lastmile_qr_scan", "ios": "https://dc.lft.to/lastmile_qr_scan"}, "fusion_lon": 0.0, "lat": 38.90971016666667, "bike_id": "ac0bd09fcbb73004623eb9701752e64e", "type": "electric_scooter", "is_reserved": 0, "lon": -77.03863483333333}, {"fusion_lat": 0.0, "name": "0e0e5fc74d4618ae17e526e6841a4ba3", "is_disabled": 0, "rental_uris": {"android": "https://dc.lft.to/lastmile_qr_scan", "ios": "https://dc.lft.to/lastmile_qr_scan"}, "fusion_lon": 0.0, "lat": 38.90576516666667, "bike_id": "0e0e5fc74d4618ae17e526e6841a4ba3", "type": "electric_scooter", "is_reserved": 0, "lon": -77.02207866666667}, {"fusion_lat": 0.0, "name": "3fabcf6febf832f88210c407b20b5432", "is_disabled": 0, "rental_uris": {"android": "https://dc.lft.to/lastmile_qr_scan", "ios": "https://dc.lft.to/lastmile_qr_scan"}, "fusion_lon": 0.0, "lat": 38.90053416666667, "bike_id": "3fabcf6febf832f88210c407b20b5432", "type": "electric_scooter", "is_reserved": 0, "lon": -77.01614866666667}, {"fusion_lat": 0.0, "name": "c9185b98a34e9828cc40afc9f80f44e3", "is_disabled": 0, "rental_uris": {"android": "https://dc.lft.to/lastmile_qr_scan", "ios": "https://dc.lft.to/lastmile_qr_scan"}, "fusion_lon": 0.0, "lat": 38.92285433333333, "bike_id": "c9185b98a34e9828cc40afc9f80f44e3", "type": "electric_scooter", "is_reserved": 0, "lon": -77.03661483333333}, {"fusion_lat": 0.0, "name": "0bac1f3303ebf3e7cfb39005130ee3d4", "is_disabled": 0, "rental_uris": {"android": "https://dc.lft.to/lastmile_qr_scan", "ios": "https://dc.lft.to/lastmile_qr_scan"}, "fusion_lon": 0.0, "lat": 38.9141705, "bike_id": "0bac1f3303ebf3e7cfb39005130ee3d4", "type": "electric_scooter", "is_reserved": 0, "lon": -77.039394}, {"fusion_lat": 0.0, "name": "b5141b12178fb75f5138dacac99b31d7", "is_disabled": 0, "rental_uris": {"android": "https://dc.lft.to/lastmile_qr_scan", "ios": "https://dc.lft.to/lastmile_qr_scan"}, "fusion_lon": 0.0, "lat": 38.9020005, "bike_id": "b5141b12178fb75f5138dacac99b31d7", "type": "electric_scooter", "is_reserved": 0, "lon": -77.02376566666666}, {"fusion_lat": 0.0, "name": "b463ee36a7642ae7116cc38156c04c7a", "is_disabled": 0, "rental_uris": {"android": "https://dc.lft.to/lastmile_qr_scan", "ios": "https://dc.lft.to/lastmile_qr_scan"}, "fusion_lon": 0.0, "lat": 38.938622333333335, "bike_id": "b463ee36a7642ae7116cc38156c04c7a", "type": "electric_scooter", "is_reserved": 0, "lon": -77.03435783333333}, {"fusion_lat": 0.0, "name": "7c005728f62d86fd3732a9fd00991730", "is_disabled": 0, "rental_uris": {"android": "https://dc.lft.to/lastmile_qr_scan", "ios": "https://dc.lft.to/lastmile_qr_scan"}, "fusion_lon": 0.0, "lat": 38.898959166666664, "bike_id": "7c005728f62d86fd3732a9fd00991730", "type": "electric_scooter", "is_reserved": 0, "lon": -76.933538}, {"fusion_lat": 0.0, "name": "02e5f4dfa0a9803a01042dc922d17688", "is_disabled": 0, "rental_uris": {"android": "https://dc.lft.to/lastmile_qr_scan", "ios": "https://dc.lft.to/lastmile_qr_scan"}, "fusion_lon": 0.0, "lat": 38.93414416666667, "bike_id": "02e5f4dfa0a9803a01042dc922d17688", "type": "electric_scooter", "is_reserved": 0, "lon": -77.04156166666667}, {"fusion_lat": 0.0, "name": "db3d7d2c7f11dc4343a2f358b507d1cc", "is_disabled": 0, "rental_uris": {"android": "https://dc.lft.to/lastmile_qr_scan", "ios": "https://dc.lft.to/lastmile_qr_scan"}, "fusion_lon": 0.0, "lat": 38.91856416666667, "bike_id": "db3d7d2c7f11dc4343a2f358b507d1cc", "type": "electric_scooter", "is_reserved": 0, "lon": -77.0242525}, {"fusion_lat": 0.0, "name": "790d23624468d617b3d36ec4296e8c61", "is_disabled": 0, "rental_uris": {"android": "https://dc.lft.to/lastmile_qr_scan", "ios": "https://dc.lft.to/lastmile_qr_scan"}, "fusion_lon": 0.0, "lat": 38.927659166666665, "bike_id": "790d23624468d617b3d36ec4296e8c61", "type": "electric_scooter", "is_reserved": 0, "lon": -77.02292233333333}, {"fusion_lat": 0.0, "name": "125457ac90ddb793e01318c1b5083a18", "is_disabled": 0, "rental_uris": {"android": "https://dc.lft.to/lastmile_qr_scan", "ios": "https://dc.lft.to/lastmile_qr_scan"}, "fusion_lon": 0.0, "lat": 38.92203083333333, "bike_id": "125457ac90ddb793e01318c1b5083a18", "type": "electric_scooter", "is_reserved": 0, "lon": -77.08097433333333}, {"fusion_lat": 0.0, "name": "800d691adf14ca60f908c0ec01b39f03", "is_disabled": 0, "rental_uris": {"android": "https://dc.lft.to/lastmile_qr_scan", "ios": "https://dc.lft.to/lastmile_qr_scan"}, "fusion_lon": 0.0, "lat": 38.91549833333333, "bike_id": "800d691adf14ca60f908c0ec01b39f03", "type": "electric_scooter", "is_reserved": 0, "lon": -77.03124033333333}, {"fusion_lat": 0.0, "name": "d1a44296f3727730b8779dd15df6c011", "is_disabled": 0, "rental_uris": {"android": "https://dc.lft.to/lastmile_qr_scan", "ios": "https://dc.lft.to/lastmile_qr_scan"}, "fusion_lon": 0.0, "lat": 38.914405333333335, "bike_id": "d1a44296f3727730b8779dd15df6c011", "type": "electric_scooter", "is_reserved": 0, "lon": -77.044743}, {"fusion_lat": 0.0, "name": "6b01ebe882d86b197fb7d788b0fb95eb", "is_disabled": 0, "rental_uris": {"android": "https://dc.lft.to/lastmile_qr_scan", "ios": "https://dc.lft.to/lastmile_qr_scan"}, "fusion_lon": 0.0, "lat": 38.90490033333333, "bike_id": "6b01ebe882d86b197fb7d788b0fb95eb", "type": "electric_scooter", "is_reserved": 0, "lon": -77.04652983333334}, {"fusion_lat": 0.0, "name": "ece2e69dcb87968d4507013bdbd8cb4e", "is_disabled": 0, "rental_uris": {"android": "https://dc.lft.to/lastmile_qr_scan", "ios": "https://dc.lft.to/lastmile_qr_scan"}, "fusion_lon": 0.0, "lat": 38.89295666666666, "bike_id": "ece2e69dcb87968d4507013bdbd8cb4e", "type": "electric_scooter", "is_reserved": 0, "lon": -77.0487725}, {"fusion_lat": 0.0, "name": "ebf223cc331e9e79d520e75cefcb5a6c", "is_disabled": 0, "rental_uris": {"android": "https://dc.lft.to/lastmile_qr_scan", "ios": "https://dc.lft.to/lastmile_qr_scan"}, "fusion_lon": 0.0, "lat": 38.95078, "bike_id": "ebf223cc331e9e79d520e75cefcb5a6c", "type": "electric_bike", "is_reserved": 0, "lon": -77.01190866666667}, {"fusion_lat": 0.0, "name": "0e44392ce13c20999bcef519be3c8b67", "is_disabled": 0, "rental_uris": {"android": "https://dc.lft.to/lastmile_qr_scan", "ios": "https://dc.lft.to/lastmile_qr_scan"}, "fusion_lon": 0.0, "lat": 38.88987316666667, "bike_id": "0e44392ce13c20999bcef519be3c8b67", "type": "electric_scooter", "is_reserved": 0, "lon": -76.91416283333334}, {"fusion_lat": 0.0, "name": "c010e1839e714251a8bab3a9fab76e8a", "is_disabled": 0, "rental_uris": {"android": "https://dc.lft.to/lastmile_qr_scan", "ios": "https://dc.lft.to/lastmile_qr_scan"}, "fusion_lon": 0.0, "lat": 38.920360333333335, "bike_id": "c010e1839e714251a8bab3a9fab76e8a", "type": "electric_scooter", "is_reserved": 0, "lon": -77.0179705}, {"fusion_lat": 0.0, "name": "20f40443a9c8b6253d7e498f79fb1464", "is_disabled": 0, "rental_uris": {"android": "https://dc.lft.to/lastmile_qr_scan", "ios": "https://dc.lft.to/lastmile_qr_scan"}, "fusion_lon": 0.0, "lat": 38.90848116666667, "bike_id": "20f40443a9c8b6253d7e498f79fb1464", "type": "electric_scooter", "is_reserved": 0, "lon": -77.04667616666667}, {"fusion_lat": 0.0, "name": "d8ee715c4e28ee3cdac9cbaed8aa64cb", "is_disabled": 0, "rental_uris": {"android": "https://dc.lft.to/lastmile_qr_scan", "ios": "https://dc.lft.to/lastmile_qr_scan"}, "fusion_lon": 0.0, "lat": 38.915550833333334, "bike_id": "d8ee715c4e28ee3cdac9cbaed8aa64cb", "type": "electric_scooter", "is_reserved": 0, "lon": -77.03857433333333}, {"fusion_lat": 0.0, "name": "ffe657016a1e48cf0a01267fcd60ddb3", "is_disabled": 0, "rental_uris": {"android": "https://dc.lft.to/lastmile_qr_scan", "ios": "https://dc.lft.to/lastmile_qr_scan"}, "fusion_lon": 0.0, "lat": 38.9580105, "bike_id": "ffe657016a1e48cf0a01267fcd60ddb3", "type": "electric_bike", "is_reserved": 0, "lon": -76.960462}, {"fusion_lat": 0.0, "name": "5966641dad87804d39cebd8befd8446d", "is_disabled": 0, "rental_uris": {"android": "https://dc.lft.to/lastmile_qr_scan", "ios": "https://dc.lft.to/lastmile_qr_scan"}, "fusion_lon": 0.0, "lat": 38.892260666666665, "bike_id": "5966641dad87804d39cebd8befd8446d", "type": "electric_scooter", "is_reserved": 0, "lon": -77.02507183333333}, {"fusion_lat": 0.0, "name": "f280a2bd647163aa3a8e569a8a34b558", "is_disabled": 0, "rental_uris": {"android": "https://dc.lft.to/lastmile_qr_scan", "ios": "https://dc.lft.to/lastmile_qr_scan"}, "fusion_lon": 0.0, "lat": 38.909471333333336, "bike_id": "f280a2bd647163aa3a8e569a8a34b558", "type": "electric_scooter", "is_reserved": 0, "lon": -77.01882666666667}, {"fusion_lat": 0.0, "name": "0353850bf12a82ddc80469cd59385888", "is_disabled": 0, "rental_uris": {"android": "https://dc.lft.to/lastmile_qr_scan", "ios": "https://dc.lft.to/lastmile_qr_scan"}, "fusion_lon": 0.0, "lat": 38.900886, "bike_id": "0353850bf12a82ddc80469cd59385888", "type": "electric_scooter", "is_reserved": 0, "lon": -76.9832995}, {"fusion_lat": 0.0, "name": "0da54d978b1ed004f7130645e1684204", "is_disabled": 0, "rental_uris": {"android": "https://dc.lft.to/lastmile_qr_scan", "ios": "https://dc.lft.to/lastmile_qr_scan"}, "fusion_lon": 0.0, "lat": 38.9346715, "bike_id": "0da54d978b1ed004f7130645e1684204", "type": "electric_scooter", "is_reserved": 0, "lon": -77.07214733333333}, {"fusion_lat": 0.0, "name": "ad97553c52ec8823c23ed43902d9681a", "is_disabled": 0, "rental_uris": {"android": "https://dc.lft.to/lastmile_qr_scan", "ios": "https://dc.lft.to/lastmile_qr_scan"}, "fusion_lon": 0.0, "lat": 38.938581666666664, "bike_id": "ad97553c52ec8823c23ed43902d9681a", "type": "electric_scooter", "is_reserved": 0, "lon": -77.02472866666666}, {"fusion_lat": 0.0, "name": "0475049df1a92f07b72e60ac37a20bf5", "is_disabled": 0, "rental_uris": {"android": "https://dc.lft.to/lastmile_qr_scan", "ios": "https://dc.lft.to/lastmile_qr_scan"}, "fusion_lon": 0.0, "lat": 38.9011795, "bike_id": "0475049df1a92f07b72e60ac37a20bf5", "type": "electric_scooter", "is_reserved": 0, "lon": -77.041623}, {"fusion_lat": 0.0, "name": "fc70d42405fef0a118eb80798731e061", "is_disabled": 0, "rental_uris": {"android": "https://dc.lft.to/lastmile_qr_scan", "ios": "https://dc.lft.to/lastmile_qr_scan"}, "fusion_lon": 0.0, "lat": 38.920766666666665, "bike_id": "fc70d42405fef0a118eb80798731e061", "type": "electric_scooter", "is_reserved": 0, "lon": -77.01393966666667}, {"fusion_lat": 0.0, "name": "44faaf1fe89c7adc1cad2b2a3900a4fe", "is_disabled": 0, "rental_uris": {"android": "https://dc.lft.to/lastmile_qr_scan", "ios": "https://dc.lft.to/lastmile_qr_scan"}, "fusion_lon": 0.0, "lat": 38.909722, "bike_id": "44faaf1fe89c7adc1cad2b2a3900a4fe", "type": "electric_scooter", "is_reserved": 0, "lon": -77.03437033333333}, {"fusion_lat": 0.0, "name": "22abf21f90774dea1535a539dad5aa91", "is_disabled": 0, "rental_uris": {"android": "https://dc.lft.to/lastmile_qr_scan", "ios": "https://dc.lft.to/lastmile_qr_scan"}, "fusion_lon": 0.0, "lat": 38.8799935, "bike_id": "22abf21f90774dea1535a539dad5aa91", "type": "electric_scooter", "is_reserved": 0, "lon": -76.984801}, {"fusion_lat": 0.0, "name": "52d7bc901016773de5e1a4fce8dcc202", "is_disabled": 0, "rental_uris": {"android": "https://dc.lft.to/lastmile_qr_scan", "ios": "https://dc.lft.to/lastmile_qr_scan"}, "fusion_lon": 0.0, "lat": 38.85321883333334, "bike_id": "52d7bc901016773de5e1a4fce8dcc202", "type": "electric_scooter", "is_reserved": 0, "lon": -76.98012433333334}, {"fusion_lat": 0.0, "name": "99a121630282550de6d0765087f9c474", "is_disabled": 0, "rental_uris": {"android": "https://dc.lft.to/lastmile_qr_scan", "ios": "https://dc.lft.to/lastmile_qr_scan"}, "fusion_lon": 0.0, "lat": 38.896168333333335, "bike_id": "99a121630282550de6d0765087f9c474", "type": "electric_scooter", "is_reserved": 0, "lon": -76.98563966666667}, {"fusion_lat": 0.0, "name": "16f3ae6506cdebd8607157870e22a9e6", "is_disabled": 0, "rental_uris": {"android": "https://dc.lft.to/lastmile_qr_scan", "ios": "https://dc.lft.to/lastmile_qr_scan"}, "fusion_lon": 0.0, "lat": 38.905229, "bike_id": "16f3ae6506cdebd8607157870e22a9e6", "type": "electric_scooter", "is_reserved": 0, "lon": -77.01714716666666}, {"fusion_lat": 0.0, "name": "84857127a4854bce8beaaf505b78026d", "is_disabled": 0, "rental_uris": {"android": "https://dc.lft.to/lastmile_qr_scan", "ios": "https://dc.lft.to/lastmile_qr_scan"}, "fusion_lon": 0.0, "lat": 38.89242616666667, "bike_id": "84857127a4854bce8beaaf505b78026d", "type": "electric_scooter", "is_reserved": 0, "lon": -77.05029533333334}, {"fusion_lat": 0.0, "name": "2bed8ab4edfb39a0e374ba72fb51b0bc", "is_disabled": 0, "rental_uris": {"android": "https://dc.lft.to/lastmile_qr_scan", "ios": "https://dc.lft.to/lastmile_qr_scan"}, "fusion_lon": 0.0, "lat": 38.909666333333334, "bike_id": "2bed8ab4edfb39a0e374ba72fb51b0bc", "type": "electric_scooter", "is_reserved": 0, "lon": -77.03937166666667}, {"fusion_lat": 0.0, "name": "0bb8e083d2a10380be3477688ee52ad7", "is_disabled": 0, "rental_uris": {"android": "https://dc.lft.to/lastmile_qr_scan", "ios": "https://dc.lft.to/lastmile_qr_scan"}, "fusion_lon": 0.0, "lat": 38.9122775, "bike_id": "0bb8e083d2a10380be3477688ee52ad7", "type": "electric_scooter", "is_reserved": 0, "lon": -77.04778416666667}, {"fusion_lat": 0.0, "name": "b941316483908ca7a0ef515c55eb305f", "is_disabled": 0, "rental_uris": {"android": "https://dc.lft.to/lastmile_qr_scan", "ios": "https://dc.lft.to/lastmile_qr_scan"}, "fusion_lon": 0.0, "lat": 38.9177845, "bike_id": "b941316483908ca7a0ef515c55eb305f", "type": "electric_scooter", "is_reserved": 0, "lon": -77.02313183333334}, {"fusion_lat": 0.0, "name": "166659dbd4b0bd66de8305b1cb072b5b", "is_disabled": 0, "rental_uris": {"android": "https://dc.lft.to/lastmile_qr_scan", "ios": "https://dc.lft.to/lastmile_qr_scan"}, "fusion_lon": 0.0, "lat": 38.8551295, "bike_id": "166659dbd4b0bd66de8305b1cb072b5b", "type": "electric_bike", "is_reserved": 0, "lon": -77.10538016666666}, {"fusion_lat": 0.0, "name": "009f61f0700bf82e48c25897dbdd1bc6", "is_disabled": 0, "rental_uris": {"android": "https://dc.lft.to/lastmile_qr_scan", "ios": "https://dc.lft.to/lastmile_qr_scan"}, "fusion_lon": 0.0, "lat": 38.90568416666667, "bike_id": "009f61f0700bf82e48c25897dbdd1bc6", "type": "electric_scooter", "is_reserved": 0, "lon": -77.00549683333334}, {"fusion_lat": 0.0, "name": "6d3046f15ad5bf1122a20d61f3ed2887", "is_disabled": 0, "rental_uris": {"android": "https://dc.lft.to/lastmile_qr_scan", "ios": "https://dc.lft.to/lastmile_qr_scan"}, "fusion_lon": 0.0, "lat": 38.89482116666667, "bike_id": "6d3046f15ad5bf1122a20d61f3ed2887", "type": "electric_scooter", "is_reserved": 0, "lon": -76.99739416666667}, {"fusion_lat": 0.0, "name": "d690bca146e6f4c24dc8474c286d006c", "is_disabled": 0, "rental_uris": {"android": "https://dc.lft.to/lastmile_qr_scan", "ios": "https://dc.lft.to/lastmile_qr_scan"}, "fusion_lon": 0.0, "lat": 38.959689166666664, "bike_id": "d690bca146e6f4c24dc8474c286d006c", "type": "electric_bike", "is_reserved": 0, "lon": -76.9815485}, {"fusion_lat": 0.0, "name": "23b31f9f0cfb577ac3e947b6050dc492", "is_disabled": 0, "rental_uris": {"android": "https://dc.lft.to/lastmile_qr_scan", "ios": "https://dc.lft.to/lastmile_qr_scan"}, "fusion_lon": 0.0, "lat": 38.907173, "bike_id": "23b31f9f0cfb577ac3e947b6050dc492", "type": "electric_scooter", "is_reserved": 0, "lon": -77.03449366666666}, {"fusion_lat": 0.0, "name": "3fa0cb28d9fb583e85eb9b077c17d86b", "is_disabled": 0, "rental_uris": {"android": "https://dc.lft.to/lastmile_qr_scan", "ios": "https://dc.lft.to/lastmile_qr_scan"}, "fusion_lon": 0.0, "lat": 38.9141675, "bike_id": "3fa0cb28d9fb583e85eb9b077c17d86b", "type": "electric_scooter", "is_reserved": 0, "lon": -77.03936066666667}, {"fusion_lat": 0.0, "name": "0243c52b36c731399998dfdcdbb25c16", "is_disabled": 0, "rental_uris": {"android": "https://dc.lft.to/lastmile_qr_scan", "ios": "https://dc.lft.to/lastmile_qr_scan"}, "fusion_lon": 0.0, "lat": 38.920444833333335, "bike_id": "0243c52b36c731399998dfdcdbb25c16", "type": "electric_scooter", "is_reserved": 0, "lon": -77.0340615}, {"fusion_lat": 0.0, "name": "81877211530b7646e39b8d0eb891f8ed", "is_disabled": 0, "rental_uris": {"android": "https://dc.lft.to/lastmile_qr_scan", "ios": "https://dc.lft.to/lastmile_qr_scan"}, "fusion_lon": 0.0, "lat": 38.89223366666667, "bike_id": "81877211530b7646e39b8d0eb891f8ed", "type": "electric_scooter", "is_reserved": 0, "lon": -77.03222583333333}, {"fusion_lat": 0.0, "name": "adb82f80d34c9c8b576fc433e7343ff6", "is_disabled": 0, "rental_uris": {"android": "https://dc.lft.to/lastmile_qr_scan", "ios": "https://dc.lft.to/lastmile_qr_scan"}, "fusion_lon": 0.0, "lat": 38.90137766666667, "bike_id": "adb82f80d34c9c8b576fc433e7343ff6", "type": "electric_scooter", "is_reserved": 0, "lon": -77.0450665}, {"fusion_lat": 0.0, "name": "bdc65637f82f7d6fd0ed4369b1a38d00", "is_disabled": 0, "rental_uris": {"android": "https://dc.lft.to/lastmile_qr_scan", "ios": "https://dc.lft.to/lastmile_qr_scan"}, "fusion_lon": 0.0, "lat": 38.92261966666667, "bike_id": "bdc65637f82f7d6fd0ed4369b1a38d00", "type": "electric_scooter", "is_reserved": 0, "lon": -77.07486083333333}, {"fusion_lat": 0.0, "name": "1207899f14940eb04e40ad5f6cdc0a64", "is_disabled": 0, "rental_uris": {"android": "https://dc.lft.to/lastmile_qr_scan", "ios": "https://dc.lft.to/lastmile_qr_scan"}, "fusion_lon": 0.0, "lat": 38.9308095, "bike_id": "1207899f14940eb04e40ad5f6cdc0a64", "type": "electric_scooter", "is_reserved": 0, "lon": -77.020019}, {"fusion_lat": 0.0, "name": "179cdd06a2277dc560bf1b9b99c769f4", "is_disabled": 0, "rental_uris": {"android": "https://dc.lft.to/lastmile_qr_scan", "ios": "https://dc.lft.to/lastmile_qr_scan"}, "fusion_lon": 0.0, "lat": 38.91764283333333, "bike_id": "179cdd06a2277dc560bf1b9b99c769f4", "type": "electric_scooter", "is_reserved": 0, "lon": -77.01763816666667}, {"fusion_lat": 0.0, "name": "3a3795f6f74d7237302c948f91348f6f", "is_disabled": 0, "rental_uris": {"android": "https://dc.lft.to/lastmile_qr_scan", "ios": "https://dc.lft.to/lastmile_qr_scan"}, "fusion_lon": 0.0, "lat": 38.92735233333333, "bike_id": "3a3795f6f74d7237302c948f91348f6f", "type": "electric_scooter", "is_reserved": 0, "lon": -77.052607}, {"fusion_lat": 0.0, "name": "8e807da042f7cf7b0686a92017079663", "is_disabled": 0, "rental_uris": {"android": "https://dc.lft.to/lastmile_qr_scan", "ios": "https://dc.lft.to/lastmile_qr_scan"}, "fusion_lon": 0.0, "lat": 38.904207166666666, "bike_id": "8e807da042f7cf7b0686a92017079663", "type": "electric_scooter", "is_reserved": 0, "lon": -77.05125516666666}, {"fusion_lat": 0.0, "name": "b019cd6e5bbceb9d2c9e332289b1fad1", "is_disabled": 0, "rental_uris": {"android": "https://dc.lft.to/lastmile_qr_scan", "ios": "https://dc.lft.to/lastmile_qr_scan"}, "fusion_lon": 0.0, "lat": 38.9237515, "bike_id": "b019cd6e5bbceb9d2c9e332289b1fad1", "type": "electric_scooter", "is_reserved": 0, "lon": -77.04468183333333}, {"fusion_lat": 0.0, "name": "4fd2151824788ab053dee3439674d1f9", "is_disabled": 0, "rental_uris": {"android": "https://dc.lft.to/lastmile_qr_scan", "ios": "https://dc.lft.to/lastmile_qr_scan"}, "fusion_lon": 0.0, "lat": 38.920177333333335, "bike_id": "4fd2151824788ab053dee3439674d1f9", "type": "electric_scooter", "is_reserved": 0, "lon": -77.0389205}, {"fusion_lat": 0.0, "name": "1a302cd9236c016948e56f6d6f15c93e", "is_disabled": 0, "rental_uris": {"android": "https://dc.lft.to/lastmile_qr_scan", "ios": "https://dc.lft.to/lastmile_qr_scan"}, "fusion_lon": 0.0, "lat": 38.9038305, "bike_id": "1a302cd9236c016948e56f6d6f15c93e", "type": "electric_scooter", "is_reserved": 0, "lon": -76.97620533333334}, {"fusion_lat": 0.0, "name": "ba67f00756d3bf4b175ce45a8392b5d9", "is_disabled": 0, "rental_uris": {"android": "https://dc.lft.to/lastmile_qr_scan", "ios": "https://dc.lft.to/lastmile_qr_scan"}, "fusion_lon": 0.0, "lat": 38.8029625, "bike_id": "ba67f00756d3bf4b175ce45a8392b5d9", "type": "electric_bike", "is_reserved": 0, "lon": -77.0593745}, {"fusion_lat": 0.0, "name": "ee34a28e12223a94b0cc7063fc663c91", "is_disabled": 0, "rental_uris": {"android": "https://dc.lft.to/lastmile_qr_scan", "ios": "https://dc.lft.to/lastmile_qr_scan"}, "fusion_lon": 0.0, "lat": 38.96390916666667, "bike_id": "ee34a28e12223a94b0cc7063fc663c91", "type": "electric_scooter", "is_reserved": 0, "lon": -77.02591666666666}, {"fusion_lat": 0.0, "name": "8258cf2b7c851adc4d86a7893dbc466a", "is_disabled": 0, "rental_uris": {"android": "https://dc.lft.to/lastmile_qr_scan", "ios": "https://dc.lft.to/lastmile_qr_scan"}, "fusion_lon": 0.0, "lat": 38.881868833333336, "bike_id": "8258cf2b7c851adc4d86a7893dbc466a", "type": "electric_scooter", "is_reserved": 0, "lon": -77.00352233333334}, {"fusion_lat": 0.0, "name": "30b836070d5657a3c1c980b0ffc59aa7", "is_disabled": 0, "rental_uris": {"android": "https://dc.lft.to/lastmile_qr_scan", "ios": "https://dc.lft.to/lastmile_qr_scan"}, "fusion_lon": 0.0, "lat": 38.932553166666665, "bike_id": "30b836070d5657a3c1c980b0ffc59aa7", "type": "electric_scooter", "is_reserved": 0, "lon": -77.03281733333333}, {"fusion_lat": 0.0, "name": "387da299604f7455b7c0b85af6f51b76", "is_disabled": 0, "rental_uris": {"android": "https://dc.lft.to/lastmile_qr_scan", "ios": "https://dc.lft.to/lastmile_qr_scan"}, "fusion_lon": 0.0, "lat": 38.87971666666667, "bike_id": "387da299604f7455b7c0b85af6f51b76", "type": "electric_scooter", "is_reserved": 0, "lon": -77.00599766666667}, {"fusion_lat": 0.0, "name": "3f13bd3b72bded4a37e74756ccca576c", "is_disabled": 0, "rental_uris": {"android": "https://dc.lft.to/lastmile_qr_scan", "ios": "https://dc.lft.to/lastmile_qr_scan"}, "fusion_lon": 0.0, "lat": 38.89976166666667, "bike_id": "3f13bd3b72bded4a37e74756ccca576c", "type": "electric_scooter", "is_reserved": 0, "lon": -77.0119235}, {"fusion_lat": 0.0, "name": "e8277bf943d717878bca4a09b7877c91", "is_disabled": 0, "rental_uris": {"android": "https://dc.lft.to/lastmile_qr_scan", "ios": "https://dc.lft.to/lastmile_qr_scan"}, "fusion_lon": 0.0, "lat": 38.892409, "bike_id": "e8277bf943d717878bca4a09b7877c91", "type": "electric_scooter", "is_reserved": 0, "lon": -77.04357466666667}, {"fusion_lat": 0.0, "name": "8fdf1f5c94d5e0ed0fa91b1e0d6c1f28", "is_disabled": 0, "rental_uris": {"android": "https://dc.lft.to/lastmile_qr_scan", "ios": "https://dc.lft.to/lastmile_qr_scan"}, "fusion_lon": 0.0, "lat": 38.921002, "bike_id": "8fdf1f5c94d5e0ed0fa91b1e0d6c1f28", "type": "electric_scooter", "is_reserved": 0, "lon": -77.03173466666667}, {"fusion_lat": 0.0, "name": "3eff65a9f32a1e112ec2736cad4e0a25", "is_disabled": 0, "rental_uris": {"android": "https://dc.lft.to/lastmile_qr_scan", "ios": "https://dc.lft.to/lastmile_qr_scan"}, "fusion_lon": 0.0, "lat": 38.92280366666667, "bike_id": "3eff65a9f32a1e112ec2736cad4e0a25", "type": "electric_scooter", "is_reserved": 0, "lon": -77.03662833333334}, {"fusion_lat": 0.0, "name": "9950532241e39eafdb69558cb4a19c32", "is_disabled": 0, "rental_uris": {"android": "https://dc.lft.to/lastmile_qr_scan", "ios": "https://dc.lft.to/lastmile_qr_scan"}, "fusion_lon": 0.0, "lat": 38.900469, "bike_id": "9950532241e39eafdb69558cb4a19c32", "type": "electric_bike", "is_reserved": 0, "lon": -77.001919}, {"fusion_lat": 0.0, "name": "0665e036c935d325008558d5fd10a951", "is_disabled": 0, "rental_uris": {"android": "https://dc.lft.to/lastmile_qr_scan", "ios": "https://dc.lft.to/lastmile_qr_scan"}, "fusion_lon": 0.0, "lat": 38.933050333333334, "bike_id": "0665e036c935d325008558d5fd10a951", "type": "electric_scooter", "is_reserved": 0, "lon": -77.03071583333333}, {"fusion_lat": 0.0, "name": "4f5c70fffa60918c048518499be331dc", "is_disabled": 0, "rental_uris": {"android": "https://dc.lft.to/lastmile_qr_scan", "ios": "https://dc.lft.to/lastmile_qr_scan"}, "fusion_lon": 0.0, "lat": 38.90646016666667, "bike_id": "4f5c70fffa60918c048518499be331dc", "type": "electric_scooter", "is_reserved": 0, "lon": -77.062863}, {"fusion_lat": 0.0, "name": "fd815ea354aa0e1c572a0eff2a2b2b69", "is_disabled": 0, "rental_uris": {"android": "https://dc.lft.to/lastmile_qr_scan", "ios": "https://dc.lft.to/lastmile_qr_scan"}, "fusion_lon": 0.0, "lat": 38.91774266666667, "bike_id": "fd815ea354aa0e1c572a0eff2a2b2b69", "type": "electric_scooter", "is_reserved": 0, "lon": -77.023037}, {"fusion_lat": 0.0, "name": "3328c20c8acb71f7b3334234cec7ab63", "is_disabled": 0, "rental_uris": {"android": "https://dc.lft.to/lastmile_qr_scan", "ios": "https://dc.lft.to/lastmile_qr_scan"}, "fusion_lon": 0.0, "lat": 38.91051933333333, "bike_id": "3328c20c8acb71f7b3334234cec7ab63", "type": "electric_scooter", "is_reserved": 0, "lon": -77.040865}, {"fusion_lat": 0.0, "name": "e46dbf5cb218cc70910cdaa1605e815f", "is_disabled": 0, "rental_uris": {"android": "https://dc.lft.to/lastmile_qr_scan", "ios": "https://dc.lft.to/lastmile_qr_scan"}, "fusion_lon": 0.0, "lat": 38.945979333333334, "bike_id": "e46dbf5cb218cc70910cdaa1605e815f", "type": "electric_scooter", "is_reserved": 0, "lon": -77.02976833333334}, {"fusion_lat": 0.0, "name": "8bad7243e67299a31a1bc5cc2c817643", "is_disabled": 0, "rental_uris": {"android": "https://dc.lft.to/lastmile_qr_scan", "ios": "https://dc.lft.to/lastmile_qr_scan"}, "fusion_lon": 0.0, "lat": 38.905514333333336, "bike_id": "8bad7243e67299a31a1bc5cc2c817643", "type": "electric_scooter", "is_reserved": 0, "lon": -77.0580885}, {"fusion_lat": 0.0, "name": "19927c9b315896c1a9d31b75e6c0bcf6", "is_disabled": 0, "rental_uris": {"android": "https://dc.lft.to/lastmile_qr_scan", "ios": "https://dc.lft.to/lastmile_qr_scan"}, "fusion_lon": 0.0, "lat": 38.916695, "bike_id": "19927c9b315896c1a9d31b75e6c0bcf6", "type": "electric_scooter", "is_reserved": 0, "lon": -77.02301333333334}, {"fusion_lat": 0.0, "name": "e19fda0dfc827ec88a3e83a761b98578", "is_disabled": 0, "rental_uris": {"android": "https://dc.lft.to/lastmile_qr_scan", "ios": "https://dc.lft.to/lastmile_qr_scan"}, "fusion_lon": 0.0, "lat": 38.87153266666667, "bike_id": "e19fda0dfc827ec88a3e83a761b98578", "type": "electric_scooter", "is_reserved": 0, "lon": -77.01185966666667}, {"fusion_lat": 0.0, "name": "53a6ef952e0cd1d0549bc14f3c58694e", "is_disabled": 0, "rental_uris": {"android": "https://dc.lft.to/lastmile_qr_scan", "ios": "https://dc.lft.to/lastmile_qr_scan"}, "fusion_lon": 0.0, "lat": 38.919208, "bike_id": "53a6ef952e0cd1d0549bc14f3c58694e", "type": "electric_scooter", "is_reserved": 0, "lon": -77.02403433333333}, {"fusion_lat": 0.0, "name": "d495bdaa1851c23a79106a0fdcb4b1d4", "is_disabled": 0, "rental_uris": {"android": "https://dc.lft.to/lastmile_qr_scan", "ios": "https://dc.lft.to/lastmile_qr_scan"}, "fusion_lon": 0.0, "lat": 38.912419, "bike_id": "d495bdaa1851c23a79106a0fdcb4b1d4", "type": "electric_scooter", "is_reserved": 0, "lon": -77.03767533333334}, {"fusion_lat": 0.0, "name": "62b9020b237278f8d7539ae6a13d74bb", "is_disabled": 0, "rental_uris": {"android": "https://dc.lft.to/lastmile_qr_scan", "ios": "https://dc.lft.to/lastmile_qr_scan"}, "fusion_lon": 0.0, "lat": 38.92132466666666, "bike_id": "62b9020b237278f8d7539ae6a13d74bb", "type": "electric_scooter", "is_reserved": 0, "lon": -77.00400366666666}, {"fusion_lat": 0.0, "name": "ae13c98feb450c03fa6006f45377b3c5", "is_disabled": 0, "rental_uris": {"android": "https://dc.lft.to/lastmile_qr_scan", "ios": "https://dc.lft.to/lastmile_qr_scan"}, "fusion_lon": 0.0, "lat": 38.916331, "bike_id": "ae13c98feb450c03fa6006f45377b3c5", "type": "electric_scooter", "is_reserved": 0, "lon": -77.0039465}, {"fusion_lat": 0.0, "name": "e5609569a6658caa5a99a7a159c632cc", "is_disabled": 0, "rental_uris": {"android": "https://dc.lft.to/lastmile_qr_scan", "ios": "https://dc.lft.to/lastmile_qr_scan"}, "fusion_lon": 0.0, "lat": 38.865158, "bike_id": "e5609569a6658caa5a99a7a159c632cc", "type": "electric_scooter", "is_reserved": 0, "lon": -76.97346983333334}, {"fusion_lat": 0.0, "name": "7038e7085b9542e912acbf55205bbee7", "is_disabled": 0, "rental_uris": {"android": "https://dc.lft.to/lastmile_qr_scan", "ios": "https://dc.lft.to/lastmile_qr_scan"}, "fusion_lon": 0.0, "lat": 38.978806666666664, "bike_id": "7038e7085b9542e912acbf55205bbee7", "type": "electric_bike", "is_reserved": 0, "lon": -77.06028466666666}, {"fusion_lat": 0.0, "name": "4ea82f2cc0ac9ece1583efc90a3ce433", "is_disabled": 0, "rental_uris": {"android": "https://dc.lft.to/lastmile_qr_scan", "ios": "https://dc.lft.to/lastmile_qr_scan"}, "fusion_lon": 0.0, "lat": 38.8393065, "bike_id": "4ea82f2cc0ac9ece1583efc90a3ce433", "type": "electric_bike", "is_reserved": 0, "lon": -77.07903466666667}, {"fusion_lat": 0.0, "name": "4a1e937bff090ba8aecd33db76709a1b", "is_disabled": 0, "rental_uris": {"android": "https://dc.lft.to/lastmile_qr_scan", "ios": "https://dc.lft.to/lastmile_qr_scan"}, "fusion_lon": 0.0, "lat": 38.87947, "bike_id": "4a1e937bff090ba8aecd33db76709a1b", "type": "electric_scooter", "is_reserved": 0, "lon": -77.00790883333333}, {"fusion_lat": 0.0, "name": "9f53fb1b0ab066a71997de559c3f622d", "is_disabled": 0, "rental_uris": {"android": "https://dc.lft.to/lastmile_qr_scan", "ios": "https://dc.lft.to/lastmile_qr_scan"}, "fusion_lon": 0.0, "lat": 38.905422333333334, "bike_id": "9f53fb1b0ab066a71997de559c3f622d", "type": "electric_scooter", "is_reserved": 0, "lon": -77.02690333333334}, {"fusion_lat": 0.0, "name": "fe6be7c153158655a95a0965fd03eafb", "is_disabled": 0, "rental_uris": {"android": "https://dc.lft.to/lastmile_qr_scan", "ios": "https://dc.lft.to/lastmile_qr_scan"}, "fusion_lon": 0.0, "lat": 38.887667, "bike_id": "fe6be7c153158655a95a0965fd03eafb", "type": "electric_scooter", "is_reserved": 0, "lon": -76.97748983333334}, {"fusion_lat": 0.0, "name": "524dac6b156c2e53857af41be15ee66a", "is_disabled": 0, "rental_uris": {"android": "https://dc.lft.to/lastmile_qr_scan", "ios": "https://dc.lft.to/lastmile_qr_scan"}, "fusion_lon": 0.0, "lat": 38.89830083333333, "bike_id": "524dac6b156c2e53857af41be15ee66a", "type": "electric_scooter", "is_reserved": 0, "lon": -76.946353}, {"fusion_lat": 0.0, "name": "e5057b0bc1bf7c86ebb89b818623d100", "is_disabled": 0, "rental_uris": {"android": "https://dc.lft.to/lastmile_qr_scan", "ios": "https://dc.lft.to/lastmile_qr_scan"}, "fusion_lon": 0.0, "lat": 38.919821166666665, "bike_id": "e5057b0bc1bf7c86ebb89b818623d100", "type": "electric_scooter", "is_reserved": 0, "lon": -77.02377833333334}, {"fusion_lat": 0.0, "name": "a72d54274b3b25af31dfe2642540580a", "is_disabled": 0, "rental_uris": {"android": "https://dc.lft.to/lastmile_qr_scan", "ios": "https://dc.lft.to/lastmile_qr_scan"}, "fusion_lon": 0.0, "lat": 38.90012483333334, "bike_id": "a72d54274b3b25af31dfe2642540580a", "type": "electric_scooter", "is_reserved": 0, "lon": -76.98811033333334}, {"fusion_lat": 0.0, "name": "8a32249023ac361d2e30413cb63ea067", "is_disabled": 0, "rental_uris": {"android": "https://dc.lft.to/lastmile_qr_scan", "ios": "https://dc.lft.to/lastmile_qr_scan"}, "fusion_lon": 0.0, "lat": 38.917224833333336, "bike_id": "8a32249023ac361d2e30413cb63ea067", "type": "electric_scooter", "is_reserved": 0, "lon": -77.03192683333333}, {"fusion_lat": 0.0, "name": "bf12d4ac49e6a2902e55fcf01591022f", "is_disabled": 0, "rental_uris": {"android": "https://dc.lft.to/lastmile_qr_scan", "ios": "https://dc.lft.to/lastmile_qr_scan"}, "fusion_lon": 0.0, "lat": 38.89595166666667, "bike_id": "bf12d4ac49e6a2902e55fcf01591022f", "type": "electric_scooter", "is_reserved": 0, "lon": -77.0258745}, {"fusion_lat": 0.0, "name": "b7ab10c4afd3fb3e8c4492347d1a2a5d", "is_disabled": 0, "rental_uris": {"android": "https://dc.lft.to/lastmile_qr_scan", "ios": "https://dc.lft.to/lastmile_qr_scan"}, "fusion_lon": 0.0, "lat": 38.93205733333333, "bike_id": "b7ab10c4afd3fb3e8c4492347d1a2a5d", "type": "electric_scooter", "is_reserved": 0, "lon": -77.0350125}, {"fusion_lat": 0.0, "name": "fffd1508272b1c05f48846fa68618461", "is_disabled": 0, "rental_uris": {"android": "https://dc.lft.to/lastmile_qr_scan", "ios": "https://dc.lft.to/lastmile_qr_scan"}, "fusion_lon": 0.0, "lat": 38.918779666666666, "bike_id": "fffd1508272b1c05f48846fa68618461", "type": "electric_scooter", "is_reserved": 0, "lon": -77.03510483333334}, {"fusion_lat": 0.0, "name": "5e31673e516e8b61b8686458155b97db", "is_disabled": 0, "rental_uris": {"android": "https://dc.lft.to/lastmile_qr_scan", "ios": "https://dc.lft.to/lastmile_qr_scan"}, "fusion_lon": 0.0, "lat": 38.915602666666665, "bike_id": "5e31673e516e8b61b8686458155b97db", "type": "electric_scooter", "is_reserved": 0, "lon": -77.03860466666667}, {"fusion_lat": 0.0, "name": "a76bdee2e4f1831f3743ec6b12797769", "is_disabled": 0, "rental_uris": {"android": "https://dc.lft.to/lastmile_qr_scan", "ios": "https://dc.lft.to/lastmile_qr_scan"}, "fusion_lon": 0.0, "lat": 38.92151283333333, "bike_id": "a76bdee2e4f1831f3743ec6b12797769", "type": "electric_scooter", "is_reserved": 0, "lon": -77.01934733333333}, {"fusion_lat": 0.0, "name": "7a7c11e39f1966590898f233cc1b3f10", "is_disabled": 0, "rental_uris": {"android": "https://dc.lft.to/lastmile_qr_scan", "ios": "https://dc.lft.to/lastmile_qr_scan"}, "fusion_lon": 0.0, "lat": 38.90454716666667, "bike_id": "7a7c11e39f1966590898f233cc1b3f10", "type": "electric_scooter", "is_reserved": 0, "lon": -77.00168033333334}, {"fusion_lat": 0.0, "name": "1d7f446bb751bd31e690b24afcd07997", "is_disabled": 0, "rental_uris": {"android": "https://dc.lft.to/lastmile_qr_scan", "ios": "https://dc.lft.to/lastmile_qr_scan"}, "fusion_lon": 0.0, "lat": 38.91319, "bike_id": "1d7f446bb751bd31e690b24afcd07997", "type": "electric_scooter", "is_reserved": 0, "lon": -77.01443616666667}, {"fusion_lat": 0.0, "name": "77456b3c8babc485184afffdfee21c5b", "is_disabled": 0, "rental_uris": {"android": "https://dc.lft.to/lastmile_qr_scan", "ios": "https://dc.lft.to/lastmile_qr_scan"}, "fusion_lon": 0.0, "lat": 38.917072833333336, "bike_id": "77456b3c8babc485184afffdfee21c5b", "type": "electric_scooter", "is_reserved": 0, "lon": -77.024185}, {"fusion_lat": 0.0, "name": "231201559e82ff9039f4a7e1bc803376", "is_disabled": 0, "rental_uris": {"android": "https://dc.lft.to/lastmile_qr_scan", "ios": "https://dc.lft.to/lastmile_qr_scan"}, "fusion_lon": 0.0, "lat": 38.940758833333334, "bike_id": "231201559e82ff9039f4a7e1bc803376", "type": "electric_scooter", "is_reserved": 0, "lon": -77.02389016666666}, {"fusion_lat": 0.0, "name": "9945beabd33af79d8e441dd2d5e9f1bf", "is_disabled": 0, "rental_uris": {"android": "https://dc.lft.to/lastmile_qr_scan", "ios": "https://dc.lft.to/lastmile_qr_scan"}, "fusion_lon": 0.0, "lat": 38.9260715, "bike_id": "9945beabd33af79d8e441dd2d5e9f1bf", "type": "electric_scooter", "is_reserved": 0, "lon": -77.03958583333333}, {"fusion_lat": 0.0, "name": "be26ce7bfcdf4ad9d11ee47688224899", "is_disabled": 0, "rental_uris": {"android": "https://dc.lft.to/lastmile_qr_scan", "ios": "https://dc.lft.to/lastmile_qr_scan"}, "fusion_lon": 0.0, "lat": 38.9014285, "bike_id": "be26ce7bfcdf4ad9d11ee47688224899", "type": "electric_scooter", "is_reserved": 0, "lon": -77.03442933333334}, {"fusion_lat": 0.0, "name": "9e3c843eec0eb896663423997c5232d0", "is_disabled": 0, "rental_uris": {"android": "https://dc.lft.to/lastmile_qr_scan", "ios": "https://dc.lft.to/lastmile_qr_scan"}, "fusion_lon": 0.0, "lat": 38.92810266666667, "bike_id": "9e3c843eec0eb896663423997c5232d0", "type": "electric_scooter", "is_reserved": 0, "lon": -77.04361533333334}, {"fusion_lat": 0.0, "name": "c1176207b9a48e372f7eb928e0b396eb", "is_disabled": 0, "rental_uris": {"android": "https://dc.lft.to/lastmile_qr_scan", "ios": "https://dc.lft.to/lastmile_qr_scan"}, "fusion_lon": 0.0, "lat": 38.88536666666667, "bike_id": "c1176207b9a48e372f7eb928e0b396eb", "type": "electric_scooter", "is_reserved": 0, "lon": -77.00063483333334}, {"fusion_lat": 0.0, "name": "7d3b5d1987be9de556e25a7a1acf4bb9", "is_disabled": 0, "rental_uris": {"android": "https://dc.lft.to/lastmile_qr_scan", "ios": "https://dc.lft.to/lastmile_qr_scan"}, "fusion_lon": 0.0, "lat": 38.8773935, "bike_id": "7d3b5d1987be9de556e25a7a1acf4bb9", "type": "electric_scooter", "is_reserved": 0, "lon": -76.99663183333334}, {"fusion_lat": 0.0, "name": "67a4c4a017036ee3013a8db7132c4a2b", "is_disabled": 0, "rental_uris": {"android": "https://dc.lft.to/lastmile_qr_scan", "ios": "https://dc.lft.to/lastmile_qr_scan"}, "fusion_lon": 0.0, "lat": 38.909704166666664, "bike_id": "67a4c4a017036ee3013a8db7132c4a2b", "type": "electric_scooter", "is_reserved": 0, "lon": -77.03436}, {"fusion_lat": 0.0, "name": "9356994c51d9a9117d3a4b690f2e4010", "is_disabled": 0, "rental_uris": {"android": "https://dc.lft.to/lastmile_qr_scan", "ios": "https://dc.lft.to/lastmile_qr_scan"}, "fusion_lon": 0.0, "lat": 38.8853825, "bike_id": "9356994c51d9a9117d3a4b690f2e4010", "type": "electric_scooter", "is_reserved": 0, "lon": -77.00063233333333}, {"fusion_lat": 0.0, "name": "2b42ba99c3960c44f6c334cdd5fe4da8", "is_disabled": 0, "rental_uris": {"android": "https://dc.lft.to/lastmile_qr_scan", "ios": "https://dc.lft.to/lastmile_qr_scan"}, "fusion_lon": 0.0, "lat": 38.914410333333336, "bike_id": "2b42ba99c3960c44f6c334cdd5fe4da8", "type": "electric_scooter", "is_reserved": 0, "lon": -77.02205516666666}, {"fusion_lat": 0.0, "name": "abdd61cb21677e6a23e41afbeb24012c", "is_disabled": 0, "rental_uris": {"android": "https://dc.lft.to/lastmile_qr_scan", "ios": "https://dc.lft.to/lastmile_qr_scan"}, "fusion_lon": 0.0, "lat": 38.88499216666666, "bike_id": "abdd61cb21677e6a23e41afbeb24012c", "type": "electric_scooter", "is_reserved": 0, "lon": -77.01730816666667}, {"fusion_lat": 0.0, "name": "5749d154e74f01618b6755fd7054587e", "is_disabled": 0, "rental_uris": {"android": "https://dc.lft.to/lastmile_qr_scan", "ios": "https://dc.lft.to/lastmile_qr_scan"}, "fusion_lon": 0.0, "lat": 38.87943, "bike_id": "5749d154e74f01618b6755fd7054587e", "type": "electric_scooter", "is_reserved": 0, "lon": -77.00814783333334}, {"fusion_lat": 0.0, "name": "a3df04167dfcf51bfaeccc5189cfd2f9", "is_disabled": 0, "rental_uris": {"android": "https://dc.lft.to/lastmile_qr_scan", "ios": "https://dc.lft.to/lastmile_qr_scan"}, "fusion_lon": 0.0, "lat": 38.897488, "bike_id": "a3df04167dfcf51bfaeccc5189cfd2f9", "type": "electric_scooter", "is_reserved": 0, "lon": -77.02692216666667}, {"fusion_lat": 0.0, "name": "b31c19e111f43325572ff1be4d2cb472", "is_disabled": 0, "rental_uris": {"android": "https://dc.lft.to/lastmile_qr_scan", "ios": "https://dc.lft.to/lastmile_qr_scan"}, "fusion_lon": 0.0, "lat": 38.907320166666665, "bike_id": "b31c19e111f43325572ff1be4d2cb472", "type": "electric_scooter", "is_reserved": 0, "lon": -77.02942133333333}, {"fusion_lat": 0.0, "name": "988d2fbeceb0a4a8ef0fe3c3b8bee982", "is_disabled": 0, "rental_uris": {"android": "https://dc.lft.to/lastmile_qr_scan", "ios": "https://dc.lft.to/lastmile_qr_scan"}, "fusion_lon": 0.0, "lat": 38.93959066666667, "bike_id": "988d2fbeceb0a4a8ef0fe3c3b8bee982", "type": "electric_scooter", "is_reserved": 0, "lon": -77.03282483333334}, {"fusion_lat": 0.0, "name": "879db90f2b3aa48807868a22a0ea54f1", "is_disabled": 0, "rental_uris": {"android": "https://dc.lft.to/lastmile_qr_scan", "ios": "https://dc.lft.to/lastmile_qr_scan"}, "fusion_lon": 0.0, "lat": 38.900399166666666, "bike_id": "879db90f2b3aa48807868a22a0ea54f1", "type": "electric_scooter", "is_reserved": 0, "lon": -77.0019885}, {"fusion_lat": 0.0, "name": "b74a4ab462f9e24a7acce08f189b7fee", "is_disabled": 0, "rental_uris": {"android": "https://dc.lft.to/lastmile_qr_scan", "ios": "https://dc.lft.to/lastmile_qr_scan"}, "fusion_lon": 0.0, "lat": 38.8765725, "bike_id": "b74a4ab462f9e24a7acce08f189b7fee", "type": "electric_scooter", "is_reserved": 0, "lon": -77.006549}, {"fusion_lat": 0.0, "name": "f14c88a4701d5a812eca3ad465e60f83", "is_disabled": 0, "rental_uris": {"android": "https://dc.lft.to/lastmile_qr_scan", "ios": "https://dc.lft.to/lastmile_qr_scan"}, "fusion_lon": 0.0, "lat": 38.922248, "bike_id": "f14c88a4701d5a812eca3ad465e60f83", "type": "electric_scooter", "is_reserved": 0, "lon": -77.02363983333333}, {"fusion_lat": 0.0, "name": "0eb8c3ef4516411f139f2db32496e922", "is_disabled": 0, "rental_uris": {"android": "https://dc.lft.to/lastmile_qr_scan", "ios": "https://dc.lft.to/lastmile_qr_scan"}, "fusion_lon": 0.0, "lat": 38.84428966666667, "bike_id": "0eb8c3ef4516411f139f2db32496e922", "type": "electric_scooter", "is_reserved": 0, "lon": -76.9977945}, {"fusion_lat": 0.0, "name": "f97f9632e79ad80ea7730f941b5da7e4", "is_disabled": 0, "rental_uris": {"android": "https://dc.lft.to/lastmile_qr_scan", "ios": "https://dc.lft.to/lastmile_qr_scan"}, "fusion_lon": 0.0, "lat": 38.88520783333333, "bike_id": "f97f9632e79ad80ea7730f941b5da7e4", "type": "electric_scooter", "is_reserved": 0, "lon": -76.97710833333333}, {"fusion_lat": 0.0, "name": "2dd8bf3b057e204b6585745da3fc098e", "is_disabled": 0, "rental_uris": {"android": "https://dc.lft.to/lastmile_qr_scan", "ios": "https://dc.lft.to/lastmile_qr_scan"}, "fusion_lon": 0.0, "lat": 38.8279085, "bike_id": "2dd8bf3b057e204b6585745da3fc098e", "type": "electric_bike", "is_reserved": 0, "lon": -77.1248665}, {"fusion_lat": 0.0, "name": "7ad07c2fc5bc486c27a55126f80575ab", "is_disabled": 0, "rental_uris": {"android": "https://dc.lft.to/lastmile_qr_scan", "ios": "https://dc.lft.to/lastmile_qr_scan"}, "fusion_lon": 0.0, "lat": 38.931156666666666, "bike_id": "7ad07c2fc5bc486c27a55126f80575ab", "type": "electric_scooter", "is_reserved": 0, "lon": -77.02091566666667}, {"fusion_lat": 0.0, "name": "99556308df1ae742865375d9771d7147", "is_disabled": 0, "rental_uris": {"android": "https://dc.lft.to/lastmile_qr_scan", "ios": "https://dc.lft.to/lastmile_qr_scan"}, "fusion_lon": 0.0, "lat": 38.911169666666666, "bike_id": "99556308df1ae742865375d9771d7147", "type": "electric_scooter", "is_reserved": 0, "lon": -77.08133316666667}, {"fusion_lat": 0.0, "name": "6a057017f117a59eab23dc2c8bc31939", "is_disabled": 0, "rental_uris": {"android": "https://dc.lft.to/lastmile_qr_scan", "ios": "https://dc.lft.to/lastmile_qr_scan"}, "fusion_lon": 0.0, "lat": 38.909690833333336, "bike_id": "6a057017f117a59eab23dc2c8bc31939", "type": "electric_scooter", "is_reserved": 0, "lon": -77.02159416666667}, {"fusion_lat": 0.0, "name": "9abb58c89df78c1b77c5a5a8b4a0bcee", "is_disabled": 0, "rental_uris": {"android": "https://dc.lft.to/lastmile_qr_scan", "ios": "https://dc.lft.to/lastmile_qr_scan"}, "fusion_lon": 0.0, "lat": 38.917477, "bike_id": "9abb58c89df78c1b77c5a5a8b4a0bcee", "type": "electric_scooter", "is_reserved": 0, "lon": -77.01221933333333}, {"fusion_lat": 0.0, "name": "f519daadaf379d3c9ff44edec420311c", "is_disabled": 0, "rental_uris": {"android": "https://dc.lft.to/lastmile_qr_scan", "ios": "https://dc.lft.to/lastmile_qr_scan"}, "fusion_lon": 0.0, "lat": 38.89324933333333, "bike_id": "f519daadaf379d3c9ff44edec420311c", "type": "electric_bike", "is_reserved": 0, "lon": -76.95123533333333}, {"fusion_lat": 0.0, "name": "87f4c68d9eca42da14b63326d67b875d", "is_disabled": 0, "rental_uris": {"android": "https://dc.lft.to/lastmile_qr_scan", "ios": "https://dc.lft.to/lastmile_qr_scan"}, "fusion_lon": 0.0, "lat": 38.911109, "bike_id": "87f4c68d9eca42da14b63326d67b875d", "type": "electric_scooter", "is_reserved": 0, "lon": -77.01142083333333}, {"fusion_lat": 0.0, "name": "74e49c9d29c79fdf34515654a0a9dd88", "is_disabled": 0, "rental_uris": {"android": "https://dc.lft.to/lastmile_qr_scan", "ios": "https://dc.lft.to/lastmile_qr_scan"}, "fusion_lon": 0.0, "lat": 38.902713, "bike_id": "74e49c9d29c79fdf34515654a0a9dd88", "type": "electric_scooter", "is_reserved": 0, "lon": -77.03380966666667}, {"fusion_lat": 0.0, "name": "205ecf86ad372120362f2542681b2bc2", "is_disabled": 0, "rental_uris": {"android": "https://dc.lft.to/lastmile_qr_scan", "ios": "https://dc.lft.to/lastmile_qr_scan"}, "fusion_lon": 0.0, "lat": 38.8982585, "bike_id": "205ecf86ad372120362f2542681b2bc2", "type": "electric_scooter", "is_reserved": 0, "lon": -77.02982083333333}, {"fusion_lat": 0.0, "name": "cbcc0f184f922390a1b111eeb4c4cecd", "is_disabled": 0, "rental_uris": {"android": "https://dc.lft.to/lastmile_qr_scan", "ios": "https://dc.lft.to/lastmile_qr_scan"}, "fusion_lon": 0.0, "lat": 38.91891716666667, "bike_id": "cbcc0f184f922390a1b111eeb4c4cecd", "type": "electric_scooter", "is_reserved": 0, "lon": -77.03491966666667}, {"fusion_lat": 0.0, "name": "26355f315d68748749a0ae2fd9a09f18", "is_disabled": 0, "rental_uris": {"android": "https://dc.lft.to/lastmile_qr_scan", "ios": "https://dc.lft.to/lastmile_qr_scan"}, "fusion_lon": 0.0, "lat": 38.87183316666667, "bike_id": "26355f315d68748749a0ae2fd9a09f18", "type": "electric_scooter", "is_reserved": 0, "lon": -77.00916733333334}, {"fusion_lat": 0.0, "name": "91436a8bb00fbd4484754f71137beed5", "is_disabled": 0, "rental_uris": {"android": "https://dc.lft.to/lastmile_qr_scan", "ios": "https://dc.lft.to/lastmile_qr_scan"}, "fusion_lon": 0.0, "lat": 38.9286505, "bike_id": "91436a8bb00fbd4484754f71137beed5", "type": "electric_scooter", "is_reserved": 0, "lon": -77.0272705}, {"fusion_lat": 0.0, "name": "c5b7f9320e2301226640b8c11fe647a4", "is_disabled": 0, "rental_uris": {"android": "https://dc.lft.to/lastmile_qr_scan", "ios": "https://dc.lft.to/lastmile_qr_scan"}, "fusion_lon": 0.0, "lat": 38.904684333333336, "bike_id": "c5b7f9320e2301226640b8c11fe647a4", "type": "electric_scooter", "is_reserved": 0, "lon": -77.05304816666667}, {"fusion_lat": 0.0, "name": "3477db98abf076c55f2599f3c6438d23", "is_disabled": 0, "rental_uris": {"android": "https://dc.lft.to/lastmile_qr_scan", "ios": "https://dc.lft.to/lastmile_qr_scan"}, "fusion_lon": 0.0, "lat": 38.88250033333333, "bike_id": "3477db98abf076c55f2599f3c6438d23", "type": "electric_scooter", "is_reserved": 0, "lon": -77.00360433333333}, {"fusion_lat": 0.0, "name": "214f77033d1c47b14d092c68a2cf1473", "is_disabled": 0, "rental_uris": {"android": "https://dc.lft.to/lastmile_qr_scan", "ios": "https://dc.lft.to/lastmile_qr_scan"}, "fusion_lon": 0.0, "lat": 38.894790666666665, "bike_id": "214f77033d1c47b14d092c68a2cf1473", "type": "electric_scooter", "is_reserved": 0, "lon": -77.01077016666666}, {"fusion_lat": 0.0, "name": "87ff919becd3e3681c69e08ecef41352", "is_disabled": 0, "rental_uris": {"android": "https://dc.lft.to/lastmile_qr_scan", "ios": "https://dc.lft.to/lastmile_qr_scan"}, "fusion_lon": 0.0, "lat": 38.92215683333333, "bike_id": "87ff919becd3e3681c69e08ecef41352", "type": "electric_scooter", "is_reserved": 0, "lon": -77.0200685}, {"fusion_lat": 0.0, "name": "3f891d0186ef1296a4574380866c5a3d", "is_disabled": 0, "rental_uris": {"android": "https://dc.lft.to/lastmile_qr_scan", "ios": "https://dc.lft.to/lastmile_qr_scan"}, "fusion_lon": 0.0, "lat": 38.9667625, "bike_id": "3f891d0186ef1296a4574380866c5a3d", "type": "electric_bike", "is_reserved": 0, "lon": -77.02164783333333}, {"fusion_lat": 0.0, "name": "2a44cd86622d4805508d251755e32591", "is_disabled": 0, "rental_uris": {"android": "https://dc.lft.to/lastmile_qr_scan", "ios": "https://dc.lft.to/lastmile_qr_scan"}, "fusion_lon": 0.0, "lat": 38.920665666666665, "bike_id": "2a44cd86622d4805508d251755e32591", "type": "electric_scooter", "is_reserved": 0, "lon": -77.02275083333333}, {"fusion_lat": 0.0, "name": "ca74396d7867663095bea53dc5e09f54", "is_disabled": 0, "rental_uris": {"android": "https://dc.lft.to/lastmile_qr_scan", "ios": "https://dc.lft.to/lastmile_qr_scan"}, "fusion_lon": 0.0, "lat": 38.887197666666665, "bike_id": "ca74396d7867663095bea53dc5e09f54", "type": "electric_scooter", "is_reserved": 0, "lon": -77.02578516666667}, {"fusion_lat": 0.0, "name": "41aa05a817fef0f85a3a1fe47d0f3c50", "is_disabled": 0, "rental_uris": {"android": "https://dc.lft.to/lastmile_qr_scan", "ios": "https://dc.lft.to/lastmile_qr_scan"}, "fusion_lon": 0.0, "lat": 38.931788166666664, "bike_id": "41aa05a817fef0f85a3a1fe47d0f3c50", "type": "electric_scooter", "is_reserved": 0, "lon": -77.04292666666667}, {"fusion_lat": 0.0, "name": "6a8ca11421801a14bbe4f22171ad03ed", "is_disabled": 0, "rental_uris": {"android": "https://dc.lft.to/lastmile_qr_scan", "ios": "https://dc.lft.to/lastmile_qr_scan"}, "fusion_lon": 0.0, "lat": 38.890166, "bike_id": "6a8ca11421801a14bbe4f22171ad03ed", "type": "electric_scooter", "is_reserved": 0, "lon": -76.93735283333334}, {"fusion_lat": 0.0, "name": "e5d9496f4013c2cd99bef598f049e1b3", "is_disabled": 0, "rental_uris": {"android": "https://dc.lft.to/lastmile_qr_scan", "ios": "https://dc.lft.to/lastmile_qr_scan"}, "fusion_lon": 0.0, "lat": 38.94631783333333, "bike_id": "e5d9496f4013c2cd99bef598f049e1b3", "type": "electric_scooter", "is_reserved": 0, "lon": -77.01846966666666}, {"fusion_lat": 0.0, "name": "98a41babdd5732acf5fbf521a359adac", "is_disabled": 0, "rental_uris": {"android": "https://dc.lft.to/lastmile_qr_scan", "ios": "https://dc.lft.to/lastmile_qr_scan"}, "fusion_lon": 0.0, "lat": 38.900718166666664, "bike_id": "98a41babdd5732acf5fbf521a359adac", "type": "electric_scooter", "is_reserved": 0, "lon": -77.00204733333334}, {"fusion_lat": 0.0, "name": "8f01470e180110d2f29f2768f9ee5ae8", "is_disabled": 0, "rental_uris": {"android": "https://dc.lft.to/lastmile_qr_scan", "ios": "https://dc.lft.to/lastmile_qr_scan"}, "fusion_lon": 0.0, "lat": 38.92055833333333, "bike_id": "8f01470e180110d2f29f2768f9ee5ae8", "type": "electric_scooter", "is_reserved": 0, "lon": -77.04565316666667}, {"fusion_lat": 0.0, "name": "48faaaf041926a4a0b0099da733af256", "is_disabled": 0, "rental_uris": {"android": "https://dc.lft.to/lastmile_qr_scan", "ios": "https://dc.lft.to/lastmile_qr_scan"}, "fusion_lon": 0.0, "lat": 38.913379166666665, "bike_id": "48faaaf041926a4a0b0099da733af256", "type": "electric_scooter", "is_reserved": 0, "lon": -77.04871333333334}, {"fusion_lat": 0.0, "name": "8ced9a5de7b468047a3b83f0b655856b", "is_disabled": 0, "rental_uris": {"android": "https://dc.lft.to/lastmile_qr_scan", "ios": "https://dc.lft.to/lastmile_qr_scan"}, "fusion_lon": 0.0, "lat": 38.89471483333333, "bike_id": "8ced9a5de7b468047a3b83f0b655856b", "type": "electric_scooter", "is_reserved": 0, "lon": -77.01766016666667}, {"fusion_lat": 0.0, "name": "9dd0cbdb1ba4584c3750039fa6a8f50c", "is_disabled": 0, "rental_uris": {"android": "https://dc.lft.to/lastmile_qr_scan", "ios": "https://dc.lft.to/lastmile_qr_scan"}, "fusion_lon": 0.0, "lat": 38.9233455, "bike_id": "9dd0cbdb1ba4584c3750039fa6a8f50c", "type": "electric_scooter", "is_reserved": 0, "lon": -77.03614766666666}, {"fusion_lat": 0.0, "name": "38cfb5556acfe6d10a1788748bfd47de", "is_disabled": 0, "rental_uris": {"android": "https://dc.lft.to/lastmile_qr_scan", "ios": "https://dc.lft.to/lastmile_qr_scan"}, "fusion_lon": 0.0, "lat": 38.9126485, "bike_id": "38cfb5556acfe6d10a1788748bfd47de", "type": "electric_scooter", "is_reserved": 0, "lon": -77.049237}, {"fusion_lat": 0.0, "name": "ab86c308937117ef009c30b9fac1eb6a", "is_disabled": 0, "rental_uris": {"android": "https://dc.lft.to/lastmile_qr_scan", "ios": "https://dc.lft.to/lastmile_qr_scan"}, "fusion_lon": 0.0, "lat": 38.9075515, "bike_id": "ab86c308937117ef009c30b9fac1eb6a", "type": "electric_scooter", "is_reserved": 0, "lon": -77.035772}, {"fusion_lat": 0.0, "name": "b774622e61ecb51a5892d921ed0c8790", "is_disabled": 0, "rental_uris": {"android": "https://dc.lft.to/lastmile_qr_scan", "ios": "https://dc.lft.to/lastmile_qr_scan"}, "fusion_lon": 0.0, "lat": 38.9264565, "bike_id": "b774622e61ecb51a5892d921ed0c8790", "type": "electric_scooter", "is_reserved": 0, "lon": -77.04135266666667}, {"fusion_lat": 0.0, "name": "083f58b5cd84d8b837a5f1a8c03896b6", "is_disabled": 0, "rental_uris": {"android": "https://dc.lft.to/lastmile_qr_scan", "ios": "https://dc.lft.to/lastmile_qr_scan"}, "fusion_lon": 0.0, "lat": 38.931441, "bike_id": "083f58b5cd84d8b837a5f1a8c03896b6", "type": "electric_scooter", "is_reserved": 0, "lon": -77.02136633333333}, {"fusion_lat": 0.0, "name": "4ab4ce0ee54d2df2f2e6f3b549a8863a", "is_disabled": 0, "rental_uris": {"android": "https://dc.lft.to/lastmile_qr_scan", "ios": "https://dc.lft.to/lastmile_qr_scan"}, "fusion_lon": 0.0, "lat": 38.922957833333335, "bike_id": "4ab4ce0ee54d2df2f2e6f3b549a8863a", "type": "electric_scooter", "is_reserved": 0, "lon": -77.042069}, {"fusion_lat": 0.0, "name": "d0d6d0935836a9360ca407cb160cfc29", "is_disabled": 0, "rental_uris": {"android": "https://dc.lft.to/lastmile_qr_scan", "ios": "https://dc.lft.to/lastmile_qr_scan"}, "fusion_lon": 0.0, "lat": 38.90238033333333, "bike_id": "d0d6d0935836a9360ca407cb160cfc29", "type": "electric_scooter", "is_reserved": 0, "lon": -77.00194116666667}, {"fusion_lat": 0.0, "name": "ead7c8880699c98844edcea1950ddc20", "is_disabled": 0, "rental_uris": {"android": "https://dc.lft.to/lastmile_qr_scan", "ios": "https://dc.lft.to/lastmile_qr_scan"}, "fusion_lon": 0.0, "lat": 38.93531333333333, "bike_id": "ead7c8880699c98844edcea1950ddc20", "type": "electric_scooter", "is_reserved": 0, "lon": -77.02352816666667}, {"fusion_lat": 0.0, "name": "616c5a4a0c2f67600f9539486f78ff9c", "is_disabled": 0, "rental_uris": {"android": "https://dc.lft.to/lastmile_qr_scan", "ios": "https://dc.lft.to/lastmile_qr_scan"}, "fusion_lon": 0.0, "lat": 38.8737845, "bike_id": "616c5a4a0c2f67600f9539486f78ff9c", "type": "electric_scooter", "is_reserved": 0, "lon": -77.0006655}, {"fusion_lat": 0.0, "name": "173c54010d40cc12b66ae2534e1539b6", "is_disabled": 0, "rental_uris": {"android": "https://dc.lft.to/lastmile_qr_scan", "ios": "https://dc.lft.to/lastmile_qr_scan"}, "fusion_lon": 0.0, "lat": 38.939953333333335, "bike_id": "173c54010d40cc12b66ae2534e1539b6", "type": "electric_scooter", "is_reserved": 0, "lon": -77.08425}, {"fusion_lat": 0.0, "name": "0ada3340debaf9f4c331cfba624ad73d", "is_disabled": 0, "rental_uris": {"android": "https://dc.lft.to/lastmile_qr_scan", "ios": "https://dc.lft.to/lastmile_qr_scan"}, "fusion_lon": 0.0, "lat": 38.835158, "bike_id": "0ada3340debaf9f4c331cfba624ad73d", "type": "electric_bike", "is_reserved": 0, "lon": -76.986784}, {"fusion_lat": 0.0, "name": "0894007ab5cef3f87be6ac8fffe84a04", "is_disabled": 0, "rental_uris": {"android": "https://dc.lft.to/lastmile_qr_scan", "ios": "https://dc.lft.to/lastmile_qr_scan"}, "fusion_lon": 0.0, "lat": 38.9427065, "bike_id": "0894007ab5cef3f87be6ac8fffe84a04", "type": "electric_scooter", "is_reserved": 0, "lon": -77.03257816666667}, {"fusion_lat": 0.0, "name": "12433342296c6736674b5cbe88aaf14c", "is_disabled": 0, "rental_uris": {"android": "https://dc.lft.to/lastmile_qr_scan", "ios": "https://dc.lft.to/lastmile_qr_scan"}, "fusion_lon": 0.0, "lat": 38.90770833333333, "bike_id": "12433342296c6736674b5cbe88aaf14c", "type": "electric_scooter", "is_reserved": 0, "lon": -77.0559145}, {"fusion_lat": 0.0, "name": "bbc5ae72cc74a8626bc081217bb8e544", "is_disabled": 0, "rental_uris": {"android": "https://dc.lft.to/lastmile_qr_scan", "ios": "https://dc.lft.to/lastmile_qr_scan"}, "fusion_lon": 0.0, "lat": 38.91434983333333, "bike_id": "bbc5ae72cc74a8626bc081217bb8e544", "type": "electric_scooter", "is_reserved": 0, "lon": -77.022014}, {"fusion_lat": 0.0, "name": "2a94d1a25dd85f29036f74f3d893e0b5", "is_disabled": 0, "rental_uris": {"android": "https://dc.lft.to/lastmile_qr_scan", "ios": "https://dc.lft.to/lastmile_qr_scan"}, "fusion_lon": 0.0, "lat": 38.9068365, "bike_id": "2a94d1a25dd85f29036f74f3d893e0b5", "type": "electric_scooter", "is_reserved": 0, "lon": -77.07211116666667}, {"fusion_lat": 0.0, "name": "14bf8eb27b7aeb9a62dd1035f67d9da9", "is_disabled": 0, "rental_uris": {"android": "https://dc.lft.to/lastmile_qr_scan", "ios": "https://dc.lft.to/lastmile_qr_scan"}, "fusion_lon": 0.0, "lat": 38.9126715, "bike_id": "14bf8eb27b7aeb9a62dd1035f67d9da9", "type": "electric_scooter", "is_reserved": 0, "lon": -77.03828266666666}, {"fusion_lat": 0.0, "name": "125db9c185c48562b288cf2593e0cb26", "is_disabled": 0, "rental_uris": {"android": "https://dc.lft.to/lastmile_qr_scan", "ios": "https://dc.lft.to/lastmile_qr_scan"}, "fusion_lon": 0.0, "lat": 38.900639166666664, "bike_id": "125db9c185c48562b288cf2593e0cb26", "type": "electric_scooter", "is_reserved": 0, "lon": -76.93383816666666}, {"fusion_lat": 0.0, "name": "3a5ab4ba8d9392bf2a8fb80deee00eec", "is_disabled": 0, "rental_uris": {"android": "https://dc.lft.to/lastmile_qr_scan", "ios": "https://dc.lft.to/lastmile_qr_scan"}, "fusion_lon": 0.0, "lat": 38.91554633333333, "bike_id": "3a5ab4ba8d9392bf2a8fb80deee00eec", "type": "electric_scooter", "is_reserved": 0, "lon": -77.0112765}, {"fusion_lat": 0.0, "name": "78637d4a7815164456c65e579639d2c0", "is_disabled": 0, "rental_uris": {"android": "https://dc.lft.to/lastmile_qr_scan", "ios": "https://dc.lft.to/lastmile_qr_scan"}, "fusion_lon": 0.0, "lat": 38.89176716666667, "bike_id": "78637d4a7815164456c65e579639d2c0", "type": "electric_scooter", "is_reserved": 0, "lon": -76.99943183333333}, {"fusion_lat": 0.0, "name": "42901d3ce72ae4cb08c416ab15130b63", "is_disabled": 0, "rental_uris": {"android": "https://dc.lft.to/lastmile_qr_scan", "ios": "https://dc.lft.to/lastmile_qr_scan"}, "fusion_lon": 0.0, "lat": 38.89223466666667, "bike_id": "42901d3ce72ae4cb08c416ab15130b63", "type": "electric_scooter", "is_reserved": 0, "lon": -77.04801766666667}, {"fusion_lat": 0.0, "name": "e1b1fc21a0fb4e063299e3ee3469e785", "is_disabled": 0, "rental_uris": {"android": "https://dc.lft.to/lastmile_qr_scan", "ios": "https://dc.lft.to/lastmile_qr_scan"}, "fusion_lon": 0.0, "lat": 38.898582166666664, "bike_id": "e1b1fc21a0fb4e063299e3ee3469e785", "type": "electric_scooter", "is_reserved": 0, "lon": -76.95042366666667}, {"fusion_lat": 0.0, "name": "5fcec2dae56236d20a1d42e626d0fd33", "is_disabled": 0, "rental_uris": {"android": "https://dc.lft.to/lastmile_qr_scan", "ios": "https://dc.lft.to/lastmile_qr_scan"}, "fusion_lon": 0.0, "lat": 38.91104833333333, "bike_id": "5fcec2dae56236d20a1d42e626d0fd33", "type": "electric_scooter", "is_reserved": 0, "lon": -77.04206933333333}, {"fusion_lat": 0.0, "name": "02d621b91a49ae9d6e5662a1b0382865", "is_disabled": 0, "rental_uris": {"android": "https://dc.lft.to/lastmile_qr_scan", "ios": "https://dc.lft.to/lastmile_qr_scan"}, "fusion_lon": 0.0, "lat": 38.9217345, "bike_id": "02d621b91a49ae9d6e5662a1b0382865", "type": "electric_scooter", "is_reserved": 0, "lon": -77.03831216666667}, {"fusion_lat": 0.0, "name": "df619294dd7daa52e1615b672515f713", "is_disabled": 0, "rental_uris": {"android": "https://dc.lft.to/lastmile_qr_scan", "ios": "https://dc.lft.to/lastmile_qr_scan"}, "fusion_lon": 0.0, "lat": 38.920612, "bike_id": "df619294dd7daa52e1615b672515f713", "type": "electric_bike", "is_reserved": 0, "lon": -77.2395185}, {"fusion_lat": 0.0, "name": "293677b11fbefad2b15e4d7e6a86977f", "is_disabled": 0, "rental_uris": {"android": "https://dc.lft.to/lastmile_qr_scan", "ios": "https://dc.lft.to/lastmile_qr_scan"}, "fusion_lon": 0.0, "lat": 38.92157533333334, "bike_id": "293677b11fbefad2b15e4d7e6a86977f", "type": "electric_scooter", "is_reserved": 0, "lon": -77.04233583333334}, {"fusion_lat": 0.0, "name": "f8c526c6b0897c31e7575666640258fe", "is_disabled": 0, "rental_uris": {"android": "https://dc.lft.to/lastmile_qr_scan", "ios": "https://dc.lft.to/lastmile_qr_scan"}, "fusion_lon": 0.0, "lat": 38.935977333333334, "bike_id": "f8c526c6b0897c31e7575666640258fe", "type": "electric_scooter", "is_reserved": 0, "lon": -77.03531483333333}, {"fusion_lat": 0.0, "name": "2cb74646974cff83c1c5f08078a27ecf", "is_disabled": 0, "rental_uris": {"android": "https://dc.lft.to/lastmile_qr_scan", "ios": "https://dc.lft.to/lastmile_qr_scan"}, "fusion_lon": 0.0, "lat": 38.8764965, "bike_id": "2cb74646974cff83c1c5f08078a27ecf", "type": "electric_scooter", "is_reserved": 0, "lon": -77.0074935}, {"fusion_lat": 0.0, "name": "379e4d087c0e4b6f5ddcf6cc56527e4b", "is_disabled": 0, "rental_uris": {"android": "https://dc.lft.to/lastmile_qr_scan", "ios": "https://dc.lft.to/lastmile_qr_scan"}, "fusion_lon": 0.0, "lat": 38.874645666666666, "bike_id": "379e4d087c0e4b6f5ddcf6cc56527e4b", "type": "electric_scooter", "is_reserved": 0, "lon": -77.005578}, {"fusion_lat": 0.0, "name": "287cac5935e663d320565ac2a252a987", "is_disabled": 0, "rental_uris": {"android": "https://dc.lft.to/lastmile_qr_scan", "ios": "https://dc.lft.to/lastmile_qr_scan"}, "fusion_lon": 0.0, "lat": 38.93380366666667, "bike_id": "287cac5935e663d320565ac2a252a987", "type": "electric_scooter", "is_reserved": 0, "lon": -77.03891066666667}, {"fusion_lat": 0.0, "name": "fa01aab20a1bcaa31dc3f697dc9e4987", "is_disabled": 0, "rental_uris": {"android": "https://dc.lft.to/lastmile_qr_scan", "ios": "https://dc.lft.to/lastmile_qr_scan"}, "fusion_lon": 0.0, "lat": 38.92634616666667, "bike_id": "fa01aab20a1bcaa31dc3f697dc9e4987", "type": "electric_scooter", "is_reserved": 0, "lon": -77.03490333333333}, {"fusion_lat": 0.0, "name": "6aa5b0d3252671cefcdea285ebad2bc9", "is_disabled": 0, "rental_uris": {"android": "https://dc.lft.to/lastmile_qr_scan", "ios": "https://dc.lft.to/lastmile_qr_scan"}, "fusion_lon": 0.0, "lat": 38.935979, "bike_id": "6aa5b0d3252671cefcdea285ebad2bc9", "type": "electric_scooter", "is_reserved": 0, "lon": -77.03653633333333}, {"fusion_lat": 0.0, "name": "e26ed663876f4827fc01a6813f2ceb68", "is_disabled": 0, "rental_uris": {"android": "https://dc.lft.to/lastmile_qr_scan", "ios": "https://dc.lft.to/lastmile_qr_scan"}, "fusion_lon": 0.0, "lat": 38.9082585, "bike_id": "e26ed663876f4827fc01a6813f2ceb68", "type": "electric_scooter", "is_reserved": 0, "lon": -77.03643016666666}, {"fusion_lat": 0.0, "name": "18137f902c420a9f9687e1d03c1ee816", "is_disabled": 0, "rental_uris": {"android": "https://dc.lft.to/lastmile_qr_scan", "ios": "https://dc.lft.to/lastmile_qr_scan"}, "fusion_lon": 0.0, "lat": 38.9245865, "bike_id": "18137f902c420a9f9687e1d03c1ee816", "type": "electric_scooter", "is_reserved": 0, "lon": -76.999118}, {"fusion_lat": 0.0, "name": "31147010817b297cb9c9a804e8d0815f", "is_disabled": 0, "rental_uris": {"android": "https://dc.lft.to/lastmile_qr_scan", "ios": "https://dc.lft.to/lastmile_qr_scan"}, "fusion_lon": 0.0, "lat": 38.965906333333336, "bike_id": "31147010817b297cb9c9a804e8d0815f", "type": "electric_scooter", "is_reserved": 0, "lon": -77.01593366666667}, {"fusion_lat": 0.0, "name": "0c58a47cc6f876d8e7eedcd67fb34407", "is_disabled": 0, "rental_uris": {"android": "https://dc.lft.to/lastmile_qr_scan", "ios": "https://dc.lft.to/lastmile_qr_scan"}, "fusion_lon": 0.0, "lat": 38.89223916666667, "bike_id": "0c58a47cc6f876d8e7eedcd67fb34407", "type": "electric_scooter", "is_reserved": 0, "lon": -77.0486195}, {"fusion_lat": 0.0, "name": "8fe6b279912905099d080a04beae9050", "is_disabled": 0, "rental_uris": {"android": "https://dc.lft.to/lastmile_qr_scan", "ios": "https://dc.lft.to/lastmile_qr_scan"}, "fusion_lon": 0.0, "lat": 38.913357833333336, "bike_id": "8fe6b279912905099d080a04beae9050", "type": "electric_scooter", "is_reserved": 0, "lon": -77.04286283333333}, {"fusion_lat": 0.0, "name": "ef065b7fbf5065586aa2f110b15936c9", "is_disabled": 0, "rental_uris": {"android": "https://dc.lft.to/lastmile_qr_scan", "ios": "https://dc.lft.to/lastmile_qr_scan"}, "fusion_lon": 0.0, "lat": 38.911761, "bike_id": "ef065b7fbf5065586aa2f110b15936c9", "type": "electric_scooter", "is_reserved": 0, "lon": -77.03860283333333}, {"fusion_lat": 0.0, "name": "c81d579eeda027d5d11fd879f4e1d9f4", "is_disabled": 0, "rental_uris": {"android": "https://dc.lft.to/lastmile_qr_scan", "ios": "https://dc.lft.to/lastmile_qr_scan"}, "fusion_lon": 0.0, "lat": 38.9418255, "bike_id": "c81d579eeda027d5d11fd879f4e1d9f4", "type": "electric_scooter", "is_reserved": 0, "lon": -77.030652}, {"fusion_lat": 0.0, "name": "828a36f8b1b6cfa12e0ff46b0871f6ad", "is_disabled": 0, "rental_uris": {"android": "https://dc.lft.to/lastmile_qr_scan", "ios": "https://dc.lft.to/lastmile_qr_scan"}, "fusion_lon": 0.0, "lat": 38.90521416666667, "bike_id": "828a36f8b1b6cfa12e0ff46b0871f6ad", "type": "electric_scooter", "is_reserved": 0, "lon": -77.06149983333333}, {"fusion_lat": 0.0, "name": "68fe7859b81e6002061ccca41d83d211", "is_disabled": 0, "rental_uris": {"android": "https://dc.lft.to/lastmile_qr_scan", "ios": "https://dc.lft.to/lastmile_qr_scan"}, "fusion_lon": 0.0, "lat": 38.900352166666664, "bike_id": "68fe7859b81e6002061ccca41d83d211", "type": "electric_scooter", "is_reserved": 0, "lon": -77.00218033333333}, {"fusion_lat": 0.0, "name": "cb090835c837a0b3ff8ef7251d8840d3", "is_disabled": 0, "rental_uris": {"android": "https://dc.lft.to/lastmile_qr_scan", "ios": "https://dc.lft.to/lastmile_qr_scan"}, "fusion_lon": 0.0, "lat": 38.906480333333334, "bike_id": "cb090835c837a0b3ff8ef7251d8840d3", "type": "electric_scooter", "is_reserved": 0, "lon": -77.043263}, {"fusion_lat": 0.0, "name": "82b15e523ec17f4bb9800053671e6e4f", "is_disabled": 0, "rental_uris": {"android": "https://dc.lft.to/lastmile_qr_scan", "ios": "https://dc.lft.to/lastmile_qr_scan"}, "fusion_lon": 0.0, "lat": 38.902271666666664, "bike_id": "82b15e523ec17f4bb9800053671e6e4f", "type": "electric_scooter", "is_reserved": 0, "lon": -77.0545885}, {"fusion_lat": 0.0, "name": "0073efa3de71c6f81cbbd34a68eff103", "is_disabled": 0, "rental_uris": {"android": "https://dc.lft.to/lastmile_qr_scan", "ios": "https://dc.lft.to/lastmile_qr_scan"}, "fusion_lon": 0.0, "lat": 38.90757983333334, "bike_id": "0073efa3de71c6f81cbbd34a68eff103", "type": "electric_scooter", "is_reserved": 0, "lon": -77.03584333333333}, {"fusion_lat": 0.0, "name": "20d8e79fd623bbf78ba377d585c335d1", "is_disabled": 0, "rental_uris": {"android": "https://dc.lft.to/lastmile_qr_scan", "ios": "https://dc.lft.to/lastmile_qr_scan"}, "fusion_lon": 0.0, "lat": 38.9662175, "bike_id": "20d8e79fd623bbf78ba377d585c335d1", "type": "electric_bike", "is_reserved": 0, "lon": -77.03430566666667}, {"fusion_lat": 0.0, "name": "5734fb2de0f9ee4f337e158813d3bfd2", "is_disabled": 0, "rental_uris": {"android": "https://dc.lft.to/lastmile_qr_scan", "ios": "https://dc.lft.to/lastmile_qr_scan"}, "fusion_lon": 0.0, "lat": 38.914047333333336, "bike_id": "5734fb2de0f9ee4f337e158813d3bfd2", "type": "electric_scooter", "is_reserved": 0, "lon": -77.04157116666667}, {"fusion_lat": 0.0, "name": "aa9adaad9e60e809b159e330c5d26d49", "is_disabled": 0, "rental_uris": {"android": "https://dc.lft.to/lastmile_qr_scan", "ios": "https://dc.lft.to/lastmile_qr_scan"}, "fusion_lon": 0.0, "lat": 38.90565633333333, "bike_id": "aa9adaad9e60e809b159e330c5d26d49", "type": "electric_scooter", "is_reserved": 0, "lon": -77.00827433333333}, {"fusion_lat": 0.0, "name": "f854fcb015fcdb6dd268cf42105bd6b6", "is_disabled": 0, "rental_uris": {"android": "https://dc.lft.to/lastmile_qr_scan", "ios": "https://dc.lft.to/lastmile_qr_scan"}, "fusion_lon": 0.0, "lat": 38.917992, "bike_id": "f854fcb015fcdb6dd268cf42105bd6b6", "type": "electric_scooter", "is_reserved": 0, "lon": -77.03444116666667}, {"fusion_lat": 0.0, "name": "53590d7a414d95bbe11511de01f2dc5e", "is_disabled": 0, "rental_uris": {"android": "https://dc.lft.to/lastmile_qr_scan", "ios": "https://dc.lft.to/lastmile_qr_scan"}, "fusion_lon": 0.0, "lat": 38.91909916666667, "bike_id": "53590d7a414d95bbe11511de01f2dc5e", "type": "electric_scooter", "is_reserved": 0, "lon": -77.01358983333333}, {"fusion_lat": 0.0, "name": "a129ba826ddb5cc23c788eb4718dce5f", "is_disabled": 0, "rental_uris": {"android": "https://dc.lft.to/lastmile_qr_scan", "ios": "https://dc.lft.to/lastmile_qr_scan"}, "fusion_lon": 0.0, "lat": 38.9133505, "bike_id": "a129ba826ddb5cc23c788eb4718dce5f", "type": "electric_scooter", "is_reserved": 0, "lon": -77.04792566666667}, {"fusion_lat": 0.0, "name": "fa7dccc48261fdb28e4ef7a4edfe2598", "is_disabled": 0, "rental_uris": {"android": "https://dc.lft.to/lastmile_qr_scan", "ios": "https://dc.lft.to/lastmile_qr_scan"}, "fusion_lon": 0.0, "lat": 38.92556033333334, "bike_id": "fa7dccc48261fdb28e4ef7a4edfe2598", "type": "electric_scooter", "is_reserved": 0, "lon": -77.04291716666667}, {"fusion_lat": 0.0, "name": "bab78210e51bf28435c505c88546a455", "is_disabled": 0, "rental_uris": {"android": "https://dc.lft.to/lastmile_qr_scan", "ios": "https://dc.lft.to/lastmile_qr_scan"}, "fusion_lon": 0.0, "lat": 38.92009266666667, "bike_id": "bab78210e51bf28435c505c88546a455", "type": "electric_scooter", "is_reserved": 0, "lon": -77.0712545}, {"fusion_lat": 0.0, "name": "8f95e3b680d79e2164531adfe065ff35", "is_disabled": 0, "rental_uris": {"android": "https://dc.lft.to/lastmile_qr_scan", "ios": "https://dc.lft.to/lastmile_qr_scan"}, "fusion_lon": 0.0, "lat": 38.95381483333333, "bike_id": "8f95e3b680d79e2164531adfe065ff35", "type": "electric_bike", "is_reserved": 0, "lon": -76.97966616666666}, {"fusion_lat": 0.0, "name": "c7f0bcba0fd0d98550ce527f26c4e4f6", "is_disabled": 0, "rental_uris": {"android": "https://dc.lft.to/lastmile_qr_scan", "ios": "https://dc.lft.to/lastmile_qr_scan"}, "fusion_lon": 0.0, "lat": 38.9261865, "bike_id": "c7f0bcba0fd0d98550ce527f26c4e4f6", "type": "electric_scooter", "is_reserved": 0, "lon": -77.04322966666666}, {"fusion_lat": 0.0, "name": "6aa35e96436a43e143a7462c0e281f66", "is_disabled": 0, "rental_uris": {"android": "https://dc.lft.to/lastmile_qr_scan", "ios": "https://dc.lft.to/lastmile_qr_scan"}, "fusion_lon": 0.0, "lat": 38.90733516666667, "bike_id": "6aa35e96436a43e143a7462c0e281f66", "type": "electric_scooter", "is_reserved": 0, "lon": -77.034633}, {"fusion_lat": 0.0, "name": "dc622320d045311d3545bcb4ce441e34", "is_disabled": 0, "rental_uris": {"android": "https://dc.lft.to/lastmile_qr_scan", "ios": "https://dc.lft.to/lastmile_qr_scan"}, "fusion_lon": 0.0, "lat": 38.92256066666667, "bike_id": "dc622320d045311d3545bcb4ce441e34", "type": "electric_scooter", "is_reserved": 0, "lon": -77.0194915}, {"fusion_lat": 0.0, "name": "409fa70f4480a868910aa5b17d248209", "is_disabled": 0, "rental_uris": {"android": "https://dc.lft.to/lastmile_qr_scan", "ios": "https://dc.lft.to/lastmile_qr_scan"}, "fusion_lon": 0.0, "lat": 38.87992833333333, "bike_id": "409fa70f4480a868910aa5b17d248209", "type": "electric_bike", "is_reserved": 0, "lon": -76.98408616666667}, {"fusion_lat": 0.0, "name": "876a41e70126e785e9d1b19ff50dd972", "is_disabled": 0, "rental_uris": {"android": "https://dc.lft.to/lastmile_qr_scan", "ios": "https://dc.lft.to/lastmile_qr_scan"}, "fusion_lon": 0.0, "lat": 38.919853333333336, "bike_id": "876a41e70126e785e9d1b19ff50dd972", "type": "electric_scooter", "is_reserved": 0, "lon": -77.02370833333333}, {"fusion_lat": 0.0, "name": "ff4d1e78731eb171b49d0d1e9179a59a", "is_disabled": 0, "rental_uris": {"android": "https://dc.lft.to/lastmile_qr_scan", "ios": "https://dc.lft.to/lastmile_qr_scan"}, "fusion_lon": 0.0, "lat": 38.89014983333333, "bike_id": "ff4d1e78731eb171b49d0d1e9179a59a", "type": "electric_scooter", "is_reserved": 0, "lon": -76.93734116666667}, {"fusion_lat": 0.0, "name": "bfb73cae074d023c81c0dbf04ded7830", "is_disabled": 0, "rental_uris": {"android": "https://dc.lft.to/lastmile_qr_scan", "ios": "https://dc.lft.to/lastmile_qr_scan"}, "fusion_lon": 0.0, "lat": 38.9217165, "bike_id": "bfb73cae074d023c81c0dbf04ded7830", "type": "electric_scooter", "is_reserved": 0, "lon": -77.04247733333334}, {"fusion_lat": 0.0, "name": "1ce970bf930c26ef290b63af64019cf2", "is_disabled": 0, "rental_uris": {"android": "https://dc.lft.to/lastmile_qr_scan", "ios": "https://dc.lft.to/lastmile_qr_scan"}, "fusion_lon": 0.0, "lat": 38.91559733333333, "bike_id": "1ce970bf930c26ef290b63af64019cf2", "type": "electric_scooter", "is_reserved": 0, "lon": -77.02048883333333}, {"fusion_lat": 0.0, "name": "d78d303b465d77c592d869ad6542492b", "is_disabled": 0, "rental_uris": {"android": "https://dc.lft.to/lastmile_qr_scan", "ios": "https://dc.lft.to/lastmile_qr_scan"}, "fusion_lon": 0.0, "lat": 38.87932566666667, "bike_id": "d78d303b465d77c592d869ad6542492b", "type": "electric_scooter", "is_reserved": 0, "lon": -77.00410833333333}, {"fusion_lat": 0.0, "name": "e2104f588bc7d5edfefec86ab70a983a", "is_disabled": 0, "rental_uris": {"android": "https://dc.lft.to/lastmile_qr_scan", "ios": "https://dc.lft.to/lastmile_qr_scan"}, "fusion_lon": 0.0, "lat": 38.93182983333333, "bike_id": "e2104f588bc7d5edfefec86ab70a983a", "type": "electric_scooter", "is_reserved": 0, "lon": -77.01959033333333}, {"fusion_lat": 0.0, "name": "4c93f921f77f50d17deb379516cefe76", "is_disabled": 0, "rental_uris": {"android": "https://dc.lft.to/lastmile_qr_scan", "ios": "https://dc.lft.to/lastmile_qr_scan"}, "fusion_lon": 0.0, "lat": 38.91383916666667, "bike_id": "4c93f921f77f50d17deb379516cefe76", "type": "electric_scooter", "is_reserved": 0, "lon": -77.0180205}, {"fusion_lat": 0.0, "name": "b993d7f8dd8c460208983d7da79f0cdf", "is_disabled": 0, "rental_uris": {"android": "https://dc.lft.to/lastmile_qr_scan", "ios": "https://dc.lft.to/lastmile_qr_scan"}, "fusion_lon": 0.0, "lat": 38.9212285, "bike_id": "b993d7f8dd8c460208983d7da79f0cdf", "type": "electric_scooter", "is_reserved": 0, "lon": -77.04379966666667}, {"fusion_lat": 0.0, "name": "9499155ccbf453c69fb04ed6bbe4e17c", "is_disabled": 0, "rental_uris": {"android": "https://dc.lft.to/lastmile_qr_scan", "ios": "https://dc.lft.to/lastmile_qr_scan"}, "fusion_lon": 0.0, "lat": 38.952444166666666, "bike_id": "9499155ccbf453c69fb04ed6bbe4e17c", "type": "electric_scooter", "is_reserved": 0, "lon": -77.0237915}, {"fusion_lat": 0.0, "name": "bca4733a270eb2fe2014eef626697c1a", "is_disabled": 0, "rental_uris": {"android": "https://dc.lft.to/lastmile_qr_scan", "ios": "https://dc.lft.to/lastmile_qr_scan"}, "fusion_lon": 0.0, "lat": 38.905766666666665, "bike_id": "bca4733a270eb2fe2014eef626697c1a", "type": "electric_scooter", "is_reserved": 0, "lon": -77.00696133333334}, {"fusion_lat": 0.0, "name": "415e59b5e7c3bad08aeaae7ea8034195", "is_disabled": 0, "rental_uris": {"android": "https://dc.lft.to/lastmile_qr_scan", "ios": "https://dc.lft.to/lastmile_qr_scan"}, "fusion_lon": 0.0, "lat": 38.9297695, "bike_id": "415e59b5e7c3bad08aeaae7ea8034195", "type": "electric_scooter", "is_reserved": 0, "lon": -77.04192583333334}, {"fusion_lat": 0.0, "name": "7c3642632bf3b09bb369e09398827941", "is_disabled": 0, "rental_uris": {"android": "https://dc.lft.to/lastmile_qr_scan", "ios": "https://dc.lft.to/lastmile_qr_scan"}, "fusion_lon": 0.0, "lat": 38.926753833333336, "bike_id": "7c3642632bf3b09bb369e09398827941", "type": "electric_scooter", "is_reserved": 0, "lon": -77.0310535}, {"fusion_lat": 0.0, "name": "a6e0bd54a958b676b738375f34097138", "is_disabled": 0, "rental_uris": {"android": "https://dc.lft.to/lastmile_qr_scan", "ios": "https://dc.lft.to/lastmile_qr_scan"}, "fusion_lon": 0.0, "lat": 38.93066133333333, "bike_id": "a6e0bd54a958b676b738375f34097138", "type": "electric_scooter", "is_reserved": 0, "lon": -77.02274583333333}, {"fusion_lat": 0.0, "name": "d9948dfb21325b749f1794eade381492", "is_disabled": 0, "rental_uris": {"android": "https://dc.lft.to/lastmile_qr_scan", "ios": "https://dc.lft.to/lastmile_qr_scan"}, "fusion_lon": 0.0, "lat": 38.9097125, "bike_id": "d9948dfb21325b749f1794eade381492", "type": "electric_scooter", "is_reserved": 0, "lon": -77.00901666666667}, {"fusion_lat": 0.0, "name": "4d60f70968ab94dbed28680186c88367", "is_disabled": 0, "rental_uris": {"android": "https://dc.lft.to/lastmile_qr_scan", "ios": "https://dc.lft.to/lastmile_qr_scan"}, "fusion_lon": 0.0, "lat": 38.933621, "bike_id": "4d60f70968ab94dbed28680186c88367", "type": "electric_scooter", "is_reserved": 0, "lon": -77.03880733333334}, {"fusion_lat": 0.0, "name": "d9dd220373b4f545467ffd4dbcc053d6", "is_disabled": 0, "rental_uris": {"android": "https://dc.lft.to/lastmile_qr_scan", "ios": "https://dc.lft.to/lastmile_qr_scan"}, "fusion_lon": 0.0, "lat": 38.83935733333333, "bike_id": "d9dd220373b4f545467ffd4dbcc053d6", "type": "electric_bike", "is_reserved": 0, "lon": -77.07894866666666}, {"fusion_lat": 0.0, "name": "502bc4e7733f08b4dd1109d06d0b6c47", "is_disabled": 0, "rental_uris": {"android": "https://dc.lft.to/lastmile_qr_scan", "ios": "https://dc.lft.to/lastmile_qr_scan"}, "fusion_lon": 0.0, "lat": 38.926074666666665, "bike_id": "502bc4e7733f08b4dd1109d06d0b6c47", "type": "electric_scooter", "is_reserved": 0, "lon": -77.02368133333333}, {"fusion_lat": 0.0, "name": "763733e027118fef29d35738d8304a5a", "is_disabled": 0, "rental_uris": {"android": "https://dc.lft.to/lastmile_qr_scan", "ios": "https://dc.lft.to/lastmile_qr_scan"}, "fusion_lon": 0.0, "lat": 38.9034955, "bike_id": "763733e027118fef29d35738d8304a5a", "type": "electric_scooter", "is_reserved": 0, "lon": -76.97250566666666}, {"fusion_lat": 0.0, "name": "7aee44a5e2c81e7b9c1b1984ae61a34c", "is_disabled": 0, "rental_uris": {"android": "https://dc.lft.to/lastmile_qr_scan", "ios": "https://dc.lft.to/lastmile_qr_scan"}, "fusion_lon": 0.0, "lat": 38.936243166666664, "bike_id": "7aee44a5e2c81e7b9c1b1984ae61a34c", "type": "electric_scooter", "is_reserved": 0, "lon": -77.03651566666667}, {"fusion_lat": 0.0, "name": "0b15e424914cb1fc076b3e9dcda81806", "is_disabled": 0, "rental_uris": {"android": "https://dc.lft.to/lastmile_qr_scan", "ios": "https://dc.lft.to/lastmile_qr_scan"}, "fusion_lon": 0.0, "lat": 38.905590833333335, "bike_id": "0b15e424914cb1fc076b3e9dcda81806", "type": "electric_scooter", "is_reserved": 0, "lon": -77.03451016666666}, {"fusion_lat": 0.0, "name": "75703fe4327bff2e18111cf0e95bed34", "is_disabled": 0, "rental_uris": {"android": "https://dc.lft.to/lastmile_qr_scan", "ios": "https://dc.lft.to/lastmile_qr_scan"}, "fusion_lon": 0.0, "lat": 38.903448166666664, "bike_id": "75703fe4327bff2e18111cf0e95bed34", "type": "electric_scooter", "is_reserved": 0, "lon": -77.0387225}, {"fusion_lat": 0.0, "name": "269067a1a21fa774bda06bdf15a78b9d", "is_disabled": 0, "rental_uris": {"android": "https://dc.lft.to/lastmile_qr_scan", "ios": "https://dc.lft.to/lastmile_qr_scan"}, "fusion_lon": 0.0, "lat": 38.94136666666667, "bike_id": "269067a1a21fa774bda06bdf15a78b9d", "type": "electric_scooter", "is_reserved": 0, "lon": -77.0060605}, {"fusion_lat": 0.0, "name": "f1382b86caf6a8902a0f1167f461881e", "is_disabled": 0, "rental_uris": {"android": "https://dc.lft.to/lastmile_qr_scan", "ios": "https://dc.lft.to/lastmile_qr_scan"}, "fusion_lon": 0.0, "lat": 38.95683483333333, "bike_id": "f1382b86caf6a8902a0f1167f461881e", "type": "electric_bike", "is_reserved": 0, "lon": -77.022322}, {"fusion_lat": 0.0, "name": "2cc2c021631c35bef29b078f9919f2bf", "is_disabled": 0, "rental_uris": {"android": "https://dc.lft.to/lastmile_qr_scan", "ios": "https://dc.lft.to/lastmile_qr_scan"}, "fusion_lon": 0.0, "lat": 38.906871, "bike_id": "2cc2c021631c35bef29b078f9919f2bf", "type": "electric_scooter", "is_reserved": 0, "lon": -77.01538883333333}, {"fusion_lat": 0.0, "name": "82c5983615cecd809c364cac9d2497a4", "is_disabled": 0, "rental_uris": {"android": "https://dc.lft.to/lastmile_qr_scan", "ios": "https://dc.lft.to/lastmile_qr_scan"}, "fusion_lon": 0.0, "lat": 38.926369, "bike_id": "82c5983615cecd809c364cac9d2497a4", "type": "electric_scooter", "is_reserved": 0, "lon": -77.04167633333333}, {"fusion_lat": 0.0, "name": "7e249c1eb2e65e421ac7e4f1d5565739", "is_disabled": 0, "rental_uris": {"android": "https://dc.lft.to/lastmile_qr_scan", "ios": "https://dc.lft.to/lastmile_qr_scan"}, "fusion_lon": 0.0, "lat": 38.8966425, "bike_id": "7e249c1eb2e65e421ac7e4f1d5565739", "type": "electric_scooter", "is_reserved": 0, "lon": -77.02475733333333}, {"fusion_lat": 0.0, "name": "11dc50800e9df624b2370cd01fc56a44", "is_disabled": 0, "rental_uris": {"android": "https://dc.lft.to/lastmile_qr_scan", "ios": "https://dc.lft.to/lastmile_qr_scan"}, "fusion_lon": 0.0, "lat": 38.91108716666667, "bike_id": "11dc50800e9df624b2370cd01fc56a44", "type": "electric_scooter", "is_reserved": 0, "lon": -77.07350633333333}, {"fusion_lat": 0.0, "name": "e006be3bfa46b911b0d3983bc5d6b4e8", "is_disabled": 0, "rental_uris": {"android": "https://dc.lft.to/lastmile_qr_scan", "ios": "https://dc.lft.to/lastmile_qr_scan"}, "fusion_lon": 0.0, "lat": 38.9055765, "bike_id": "e006be3bfa46b911b0d3983bc5d6b4e8", "type": "electric_scooter", "is_reserved": 0, "lon": -77.0345025}, {"fusion_lat": 0.0, "name": "047badd749a9a6610570d93a67e37583", "is_disabled": 0, "rental_uris": {"android": "https://dc.lft.to/lastmile_qr_scan", "ios": "https://dc.lft.to/lastmile_qr_scan"}, "fusion_lon": 0.0, "lat": 38.908283, "bike_id": "047badd749a9a6610570d93a67e37583", "type": "electric_scooter", "is_reserved": 0, "lon": -77.03641416666666}, {"fusion_lat": 0.0, "name": "178d344def5f008546458fcbfd631e63", "is_disabled": 0, "rental_uris": {"android": "https://dc.lft.to/lastmile_qr_scan", "ios": "https://dc.lft.to/lastmile_qr_scan"}, "fusion_lon": 0.0, "lat": 38.8762905, "bike_id": "178d344def5f008546458fcbfd631e63", "type": "electric_scooter", "is_reserved": 0, "lon": -77.0084195}, {"fusion_lat": 0.0, "name": "8e889ff8f882e62a04a791fb41c7420c", "is_disabled": 0, "rental_uris": {"android": "https://dc.lft.to/lastmile_qr_scan", "ios": "https://dc.lft.to/lastmile_qr_scan"}, "fusion_lon": 0.0, "lat": 38.89952733333333, "bike_id": "8e889ff8f882e62a04a791fb41c7420c", "type": "electric_scooter", "is_reserved": 0, "lon": -77.05700583333333}, {"fusion_lat": 0.0, "name": "e26bea34ae1adc20eec23a502c4d1ba7", "is_disabled": 0, "rental_uris": {"android": "https://dc.lft.to/lastmile_qr_scan", "ios": "https://dc.lft.to/lastmile_qr_scan"}, "fusion_lon": 0.0, "lat": 38.8838305, "bike_id": "e26bea34ae1adc20eec23a502c4d1ba7", "type": "electric_scooter", "is_reserved": 0, "lon": -77.0259645}, {"fusion_lat": 0.0, "name": "2a0484dcfdd8a9b8177ff00765e48cf8", "is_disabled": 0, "rental_uris": {"android": "https://dc.lft.to/lastmile_qr_scan", "ios": "https://dc.lft.to/lastmile_qr_scan"}, "fusion_lon": 0.0, "lat": 38.889858, "bike_id": "2a0484dcfdd8a9b8177ff00765e48cf8", "type": "electric_scooter", "is_reserved": 0, "lon": -77.00336116666666}, {"fusion_lat": 0.0, "name": "a6c8aa70823ba1072472027fbc7ec104", "is_disabled": 0, "rental_uris": {"android": "https://dc.lft.to/lastmile_qr_scan", "ios": "https://dc.lft.to/lastmile_qr_scan"}, "fusion_lon": 0.0, "lat": 38.87747566666667, "bike_id": "a6c8aa70823ba1072472027fbc7ec104", "type": "electric_scooter", "is_reserved": 0, "lon": -77.00358766666666}, {"fusion_lat": 0.0, "name": "6f68e277300e3fc69542088a24101e25", "is_disabled": 0, "rental_uris": {"android": "https://dc.lft.to/lastmile_qr_scan", "ios": "https://dc.lft.to/lastmile_qr_scan"}, "fusion_lon": 0.0, "lat": 38.9005135, "bike_id": "6f68e277300e3fc69542088a24101e25", "type": "electric_scooter", "is_reserved": 0, "lon": -77.0220035}, {"fusion_lat": 0.0, "name": "a72be7aa2f391d4745e02f30032a6f8b", "is_disabled": 0, "rental_uris": {"android": "https://dc.lft.to/lastmile_qr_scan", "ios": "https://dc.lft.to/lastmile_qr_scan"}, "fusion_lon": 0.0, "lat": 38.897372, "bike_id": "a72be7aa2f391d4745e02f30032a6f8b", "type": "electric_scooter", "is_reserved": 0, "lon": -76.94713966666667}, {"fusion_lat": 0.0, "name": "01c75fe2b3cff1f1a40fad4f182ec370", "is_disabled": 0, "rental_uris": {"android": "https://dc.lft.to/lastmile_qr_scan", "ios": "https://dc.lft.to/lastmile_qr_scan"}, "fusion_lon": 0.0, "lat": 38.90730083333333, "bike_id": "01c75fe2b3cff1f1a40fad4f182ec370", "type": "electric_scooter", "is_reserved": 0, "lon": -77.024956}, {"fusion_lat": 0.0, "name": "fcda016130de3bce600c0cad656d0ad3", "is_disabled": 0, "rental_uris": {"android": "https://dc.lft.to/lastmile_qr_scan", "ios": "https://dc.lft.to/lastmile_qr_scan"}, "fusion_lon": 0.0, "lat": 38.919766833333334, "bike_id": "fcda016130de3bce600c0cad656d0ad3", "type": "electric_scooter", "is_reserved": 0, "lon": -77.04151133333333}, {"fusion_lat": 0.0, "name": "0e5913354833557ec91f2ee185e566d2", "is_disabled": 0, "rental_uris": {"android": "https://dc.lft.to/lastmile_qr_scan", "ios": "https://dc.lft.to/lastmile_qr_scan"}, "fusion_lon": 0.0, "lat": 38.87480216666667, "bike_id": "0e5913354833557ec91f2ee185e566d2", "type": "electric_scooter", "is_reserved": 0, "lon": -77.01835916666667}, {"fusion_lat": 0.0, "name": "fe592038f2ab3ade97d9c1e1a90cf4ca", "is_disabled": 0, "rental_uris": {"android": "https://dc.lft.to/lastmile_qr_scan", "ios": "https://dc.lft.to/lastmile_qr_scan"}, "fusion_lon": 0.0, "lat": 38.91596583333333, "bike_id": "fe592038f2ab3ade97d9c1e1a90cf4ca", "type": "electric_scooter", "is_reserved": 0, "lon": -77.04610933333333}, {"fusion_lat": 0.0, "name": "17541088f6eb4eb46ca9c1da7bb732d8", "is_disabled": 0, "rental_uris": {"android": "https://dc.lft.to/lastmile_qr_scan", "ios": "https://dc.lft.to/lastmile_qr_scan"}, "fusion_lon": 0.0, "lat": 38.920648166666666, "bike_id": "17541088f6eb4eb46ca9c1da7bb732d8", "type": "electric_scooter", "is_reserved": 0, "lon": -77.042606},