{"data": {"bikes": [{"rental_uris": {"ios": "https://dc.lft.to/lastmile_qr_scan", "android": "https://dc.lft.to/lastmile_qr_scan"}, "lon": -76.99556433333333, "type": "electric_scooter", "fusion_lat": 0.0, "lat": 38.923164166666666, "name": "297162af78ebf8c536ee77c4eb25351e", "fusion_lon": 0.0, "bike_id": "297162af78ebf8c536ee77c4eb25351e", "is_disabled": 0, "is_reserved": 0}, {"rental_uris": {"ios": "https://dc.lft.to/lastmile_qr_scan", "android": "https://dc.lft.to/lastmile_qr_scan"}, "lon": -77.00594383333333, "type": "electric_scooter", "fusion_lat": 0.0, "lat": 38.905826, "name": "61baf71052c4aee67cdf9992ea65ebe0", "fusion_lon": 0.0, "bike_id": "61baf71052c4aee67cdf9992ea65ebe0", "is_disabled": 0, "is_reserved": 0}, {"rental_uris": {"ios": "https://dc.lft.to/lastmile_qr_scan", "android": "https://dc.lft.to/lastmile_qr_scan"}, "lon": -77.0010895, "type": "electric_scooter", "fusion_lat": 0.0, "lat": 38.873260333333334, "name": "a428ccd00215dc05d2d97d5732b42ebf", "fusion_lon": 0.0, "bike_id": "a428ccd00215dc05d2d97d5732b42ebf", "is_disabled": 0, "is_reserved": 0}, {"rental_uris": {"ios": "https://dc.lft.to/lastmile_qr_scan", "android": "https://dc.lft.to/lastmile_qr_scan"}, "lon": -77.04813183333333, "type": "electric_scooter", "fusion_lat": 0.0, "lat": 38.89741333333333, "name": "e06872e908867314376bcf45614faa32", "fusion_lon": 0.0, "bike_id": "e06872e908867314376bcf45614faa32", "is_disabled": 0, "is_reserved": 0}, {"rental_uris": {"ios": "https://dc.lft.to/lastmile_qr_scan", "android": "https://dc.lft.to/lastmile_qr_scan"}, "lon": -77.05687683333333, "type": "electric_scooter", "fusion_lat": 0.0, "lat": 38.93704616666667, "name": "562145599bc112752740d71519164c13", "fusion_lon": 0.0, "bike_id": "562145599bc112752740d71519164c13", "is_disabled": 0, "is_reserved": 0}, {"rental_uris": {"ios": "https://dc.lft.to/lastmile_qr_scan", "android": "https://dc.lft.to/lastmile_qr_scan"}, "lon": -76.9986765, "type": "electric_scooter", "fusion_lat": 0.0, "lat": 38.9003215, "name": "6b55171d37350fbe64d163d40718c170", "fusion_lon": 0.0, "bike_id": "6b55171d37350fbe64d163d40718c170", "is_disabled": 0, "is_reserved": 0}, {"rental_uris": {"ios": "https://dc.lft.to/lastmile_qr_scan", "android": "https://dc.lft.to/lastmile_qr_scan"}, "lon": -76.93546, "type": "electric_bike", "fusion_lat": 0.0, "lat": 38.951881666666665, "name": "cded5466053949d958090423cd210eea", "fusion_lon": 0.0, "bike_id": "cded5466053949d958090423cd210eea", "is_disabled": 0, "is_reserved": 0}, {"rental_uris": {"ios": "https://dc.lft.to/lastmile_qr_scan", "android": "https://dc.lft.to/lastmile_qr_scan"}, "lon": -77.03573833333333, "type": "electric_scooter", "fusion_lat": 0.0, "lat": 38.91817783333333, "name": "28a644edfe0f43e5de67b40b7076bef2", "fusion_lon": 0.0, "bike_id": "28a644edfe0f43e5de67b40b7076bef2", "is_disabled": 0, "is_reserved": 0}, {"rental_uris": {"ios": "https://dc.lft.to/lastmile_qr_scan", "android": "https://dc.lft.to/lastmile_qr_scan"}, "lon": -77.0508595, "type": "electric_bike", "fusion_lat": 0.0, "lat": 38.81331266666667, "name": "962ab5d1ad51224c31edc7d135b445d2", "fusion_lon": 0.0, "bike_id": "962ab5d1ad51224c31edc7d135b445d2", "is_disabled": 0, "is_reserved": 0}, {"rental_uris": {"ios": "https://dc.lft.to/lastmile_qr_scan", "android": "https://dc.lft.to/lastmile_qr_scan"}, "lon": -76.97333283333333, "type": "electric_scooter", "fusion_lat": 0.0, "lat": 38.904788333333336, "name": "c5855a8188d4586528704e84bd4300ec", "fusion_lon": 0.0, "bike_id": "c5855a8188d4586528704e84bd4300ec", "is_disabled": 0, "is_reserved": 0}, {"rental_uris": {"ios": "https://dc.lft.to/lastmile_qr_scan", "android": "https://dc.lft.to/lastmile_qr_scan"}, "lon": -77.03083616666666, "type": "electric_scooter", "fusion_lat": 0.0, "lat": 38.92247733333333, "name": "9007745a1bdb888c677221f1867f98ea", "fusion_lon": 0.0, "bike_id": "9007745a1bdb888c677221f1867f98ea", "is_disabled": 0, "is_reserved": 0}, {"rental_uris": {"ios": "https://dc.lft.to/lastmile_qr_scan", "android": "https://dc.lft.to/lastmile_qr_scan"}, "lon": -77.05806066666666, "type": "electric_scooter", "fusion_lat": 0.0, "lat": 38.903015, "name": "e4dbed605d0613ac6276f750e48d82e5", "fusion_lon": 0.0, "bike_id": "e4dbed605d0613ac6276f750e48d82e5", "is_disabled": 0, "is_reserved": 0}, {"rental_uris": {"ios": "https://dc.lft.to/lastmile_qr_scan", "android": "https://dc.lft.to/lastmile_qr_scan"}, "lon": -77.01109433333333, "type": "electric_scooter", "fusion_lat": 0.0, "lat": 38.895335833333334, "name": "a688b2feda96bb93299474c6630e0026", "fusion_lon": 0.0, "bike_id": "a688b2feda96bb93299474c6630e0026", "is_disabled": 0, "is_reserved": 0}, {"rental_uris": {"ios": "https://dc.lft.to/lastmile_qr_scan", "android": "https://dc.lft.to/lastmile_qr_scan"}, "lon": -77.01791466666667, "type": "electric_scooter", "fusion_lat": 0.0, "lat": 38.908278, "name": "4908546e1ef5d708e06a003e035c7d80", "fusion_lon": 0.0, "bike_id": "4908546e1ef5d708e06a003e035c7d80", "is_disabled": 0, "is_reserved": 0}, {"rental_uris": {"ios": "https://dc.lft.to/lastmile_qr_scan", "android": "https://dc.lft.to/lastmile_qr_scan"}, "lon": -76.97669483333334, "type": "electric_bike", "fusion_lat": 0.0, "lat": 38.966234666666665, "name": "073abd5d718c0db3a669e44edc29f481", "fusion_lon": 0.0, "bike_id": "073abd5d718c0db3a669e44edc29f481", "is_disabled": 0, "is_reserved": 0}, {"rental_uris": {"ios": "https://dc.lft.to/lastmile_qr_scan", "android": "https://dc.lft.to/lastmile_qr_scan"}, "lon": -76.946548, "type": "electric_scooter", "fusion_lat": 0.0, "lat": 38.898281, "name": "800ea0f48e1cda3d115188ae583b95ad", "fusion_lon": 0.0, "bike_id": "800ea0f48e1cda3d115188ae583b95ad", "is_disabled": 0, "is_reserved": 0}, {"rental_uris": {"ios": "https://dc.lft.to/lastmile_qr_scan", "android": "https://dc.lft.to/lastmile_qr_scan"}, "lon": -77.03348433333333, "type": "electric_scooter", "fusion_lat": 0.0, "lat": 38.90642183333333, "name": "df837ac0725fc52d0c613e238cb6d2dc", "fusion_lon": 0.0, "bike_id": "df837ac0725fc52d0c613e238cb6d2dc", "is_disabled": 0, "is_reserved": 0}, {"rental_uris": {"ios": "https://dc.lft.to/lastmile_qr_scan", "android": "https://dc.lft.to/lastmile_qr_scan"}, "lon": -77.02969216666666, "type": "electric_scooter", "fusion_lat": 0.0, "lat": 38.90046733333333, "name": "61010ff938acb8fa6fb52f9440e30b92", "fusion_lon": 0.0, "bike_id": "61010ff938acb8fa6fb52f9440e30b92", "is_disabled": 0, "is_reserved": 0}, {"rental_uris": {"ios": "https://dc.lft.to/lastmile_qr_scan", "android": "https://dc.lft.to/lastmile_qr_scan"}, "lon": -77.02683816666666, "type": "electric_scooter", "fusion_lat": 0.0, "lat": 38.899142833333336, "name": "888c67ad6598d07c3d810ba4762d7d94", "fusion_lon": 0.0, "bike_id": "888c67ad6598d07c3d810ba4762d7d94", "is_disabled": 0, "is_reserved": 0}, {"rental_uris": {"ios": "https://dc.lft.to/lastmile_qr_scan", "android": "https://dc.lft.to/lastmile_qr_scan"}, "lon": -77.044466, "type": "electric_scooter", "fusion_lat": 0.0, "lat": 38.91879433333333, "name": "5de7be9e5a18c4ce4991d63b7c83c852", "fusion_lon": 0.0, "bike_id": "5de7be9e5a18c4ce4991d63b7c83c852", "is_disabled": 0, "is_reserved": 0}, {"rental_uris": {"ios": "https://dc.lft.to/lastmile_qr_scan", "android": "https://dc.lft.to/lastmile_qr_scan"}, "lon": -77.034119, "type": "electric_scooter", "fusion_lat": 0.0, "lat": 38.92323533333333, "name": "84c479376172500998e73c2946762607", "fusion_lon": 0.0, "bike_id": "84c479376172500998e73c2946762607", "is_disabled": 0, "is_reserved": 0}, {"rental_uris": {"ios": "https://dc.lft.to/lastmile_qr_scan", "android": "https://dc.lft.to/lastmile_qr_scan"}, "lon": -77.04185166666667, "type": "electric_scooter", "fusion_lat": 0.0, "lat": 38.92049516666667, "name": "88a396a3783b1d6dc34fab86b01b6a7c", "fusion_lon": 0.0, "bike_id": "88a396a3783b1d6dc34fab86b01b6a7c", "is_disabled": 0, "is_reserved": 0}, {"rental_uris": {"ios": "https://dc.lft.to/lastmile_qr_scan", "android": "https://dc.lft.to/lastmile_qr_scan"}, "lon": -77.08064333333333, "type": "electric_scooter", "fusion_lat": 0.0, "lat": 38.95914883333333, "name": "fa6a561202b13a19729252e61165b36b", "fusion_lon": 0.0, "bike_id": "fa6a561202b13a19729252e61165b36b", "is_disabled": 0, "is_reserved": 0}, {"rental_uris": {"ios": "https://dc.lft.to/lastmile_qr_scan", "android": "https://dc.lft.to/lastmile_qr_scan"}, "lon": -77.35311466666667, "type": "electric_bike", "fusion_lat": 0.0, "lat": 38.949993, "name": "c351b84cad29aae5c9d96f43c1506747", "fusion_lon": 0.0, "bike_id": "c351b84cad29aae5c9d96f43c1506747", "is_disabled": 0, "is_reserved": 0}, {"rental_uris": {"ios": "https://dc.lft.to/lastmile_qr_scan", "android": "https://dc.lft.to/lastmile_qr_scan"}, "lon": -76.9872865, "type": "electric_scooter", "fusion_lat": 0.0, "lat": 38.884187833333336, "name": "5d7072498500be5b3e0c53df85de7abf", "fusion_lon": 0.0, "bike_id": "5d7072498500be5b3e0c53df85de7abf", "is_disabled": 0, "is_reserved": 0}, {"rental_uris": {"ios": "https://dc.lft.to/lastmile_qr_scan", "android": "https://dc.lft.to/lastmile_qr_scan"}, "lon": -77.045519, "type": "electric_scooter", "fusion_lat": 0.0, "lat": 38.903960166666664, "name": "808774dac04b77ace359047a48e6e983", "fusion_lon": 0.0, "bike_id": "808774dac04b77ace359047a48e6e983", "is_disabled": 0, "is_reserved": 0}, {"rental_uris": {"ios": "https://dc.lft.to/lastmile_qr_scan", "android": "https://dc.lft.to/lastmile_qr_scan"}, "lon": -77.03866116666667, "type": "electric_scooter", "fusion_lat": 0.0, "lat": 38.90973233333333, "name": "3f40883449943562745164a288502b78", "fusion_lon": 0.0, "bike_id": "3f40883449943562745164a288502b78", "is_disabled": 0, "is_reserved": 0}, {"rental_uris": {"ios": "https://dc.lft.to/lastmile_qr_scan", "android": "https://dc.lft.to/lastmile_qr_scan"}, "lon": -77.03961716666667, "type": "electric_scooter", "fusion_lat": 0.0, "lat": 38.90126433333333, "name": "e82fb3d467aba923dda1f773c36e7897", "fusion_lon": 0.0, "bike_id": "e82fb3d467aba923dda1f773c36e7897", "is_disabled": 0, "is_reserved": 0}, {"rental_uris": {"ios": "https://dc.lft.to/lastmile_qr_scan", "android": "https://dc.lft.to/lastmile_qr_scan"}, "lon": -76.93176666666666, "type": "electric_scooter", "fusion_lat": 0.0, "lat": 38.898844833333335, "name": "a851dc6500a4e8d51f104d9969cc079e", "fusion_lon": 0.0, "bike_id": "a851dc6500a4e8d51f104d9969cc079e", "is_disabled": 0, "is_reserved": 0}, {"rental_uris": {"ios": "https://dc.lft.to/lastmile_qr_scan", "android": "https://dc.lft.to/lastmile_qr_scan"}, "lon": -77.034418, "type": "electric_scooter", "fusion_lat": 0.0, "lat": 38.918243333333336, "name": "75466069349a224d65f33a831a4e5e37", "fusion_lon": 0.0, "bike_id": "75466069349a224d65f33a831a4e5e37", "is_disabled": 0, "is_reserved": 0}, {"rental_uris": {"ios": "https://dc.lft.to/lastmile_qr_scan", "android": "https://dc.lft.to/lastmile_qr_scan"}, "lon": -77.03513766666667, "type": "electric_scooter", "fusion_lat": 0.0, "lat": 38.923431, "name": "801d1940341abab2e396a1a03e345959", "fusion_lon": 0.0, "bike_id": "801d1940341abab2e396a1a03e345959", "is_disabled": 0, "is_reserved": 0}, {"rental_uris": {"ios": "https://dc.lft.to/lastmile_qr_scan", "android": "https://dc.lft.to/lastmile_qr_scan"}, "lon": -76.9950465, "type": "electric_scooter", "fusion_lat": 0.0, "lat": 38.8996015, "name": "fb9cdea3a8ff94cd53b6c3e60a456562", "fusion_lon": 0.0, "bike_id": "fb9cdea3a8ff94cd53b6c3e60a456562", "is_disabled": 0, "is_reserved": 0}, {"rental_uris": {"ios": "https://dc.lft.to/lastmile_qr_scan", "android": "https://dc.lft.to/lastmile_qr_scan"}, "lon": -77.03223783333334, "type": "electric_scooter", "fusion_lat": 0.0, "lat": 38.9258395, "name": "7da86d52fc6d6cc9e0e41c7cae2030cb", "fusion_lon": 0.0, "bike_id": "7da86d52fc6d6cc9e0e41c7cae2030cb", "is_disabled": 0, "is_reserved": 0}, {"rental_uris": {"ios": "https://dc.lft.to/lastmile_qr_scan", "android": "https://dc.lft.to/lastmile_qr_scan"}, "lon": -77.091568, "type": "electric_bike", "fusion_lat": 0.0, "lat": 38.967621, "name": "c3c772632a3a7a8509bb305bf4190584", "fusion_lon": 0.0, "bike_id": "c3c772632a3a7a8509bb305bf4190584", "is_disabled": 0, "is_reserved": 0}, {"rental_uris": {"ios": "https://dc.lft.to/lastmile_qr_scan", "android": "https://dc.lft.to/lastmile_qr_scan"}, "lon": -77.04368916666667, "type": "electric_scooter", "fusion_lat": 0.0, "lat": 38.920633333333335, "name": "8d0815e34ea2618f7076136232a6e1cf", "fusion_lon": 0.0, "bike_id": "8d0815e34ea2618f7076136232a6e1cf", "is_disabled": 0, "is_reserved": 0}, {"rental_uris": {"ios": "https://dc.lft.to/lastmile_qr_scan", "android": "https://dc.lft.to/lastmile_qr_scan"}, "lon": -77.023347, "type": "electric_scooter", "fusion_lat": 0.0, "lat": 38.8835605, "name": "1db306faaa73d5488bd64b025f640c1b", "fusion_lon": 0.0, "bike_id": "1db306faaa73d5488bd64b025f640c1b", "is_disabled": 0, "is_reserved": 0}, {"rental_uris": {"ios": "https://dc.lft.to/lastmile_qr_scan", "android": "https://dc.lft.to/lastmile_qr_scan"}, "lon": -77.01978383333334, "type": "electric_bike", "fusion_lat": 0.0, "lat": 38.9566575, "name": "7e33a04a4c4e625c4bc36815281b3e97", "fusion_lon": 0.0, "bike_id": "7e33a04a4c4e625c4bc36815281b3e97", "is_disabled": 0, "is_reserved": 0}, {"rental_uris": {"ios": "https://dc.lft.to/lastmile_qr_scan", "android": "https://dc.lft.to/lastmile_qr_scan"}, "lon": -77.13095216666666, "type": "electric_bike", "fusion_lat": 0.0, "lat": 38.86161116666667, "name": "f848dc3d8548148624b7e203a212c3d2", "fusion_lon": 0.0, "bike_id": "f848dc3d8548148624b7e203a212c3d2", "is_disabled": 0, "is_reserved": 0}, {"rental_uris": {"ios": "https://dc.lft.to/lastmile_qr_scan", "android": "https://dc.lft.to/lastmile_qr_scan"}, "lon": -77.00762116666667, "type": "electric_scooter", "fusion_lat": 0.0, "lat": 38.91031016666667, "name": "cdac447465d4d78dba40a79702a60b08", "fusion_lon": 0.0, "bike_id": "cdac447465d4d78dba40a79702a60b08", "is_disabled": 0, "is_reserved": 0}, {"rental_uris": {"ios": "https://dc.lft.to/lastmile_qr_scan", "android": "https://dc.lft.to/lastmile_qr_scan"}, "lon": -76.98508666666666, "type": "electric_scooter", "fusion_lat": 0.0, "lat": 38.90084366666667, "name": "107bb17d2e5ef33705204aad6d5d93d0", "fusion_lon": 0.0, "bike_id": "107bb17d2e5ef33705204aad6d5d93d0", "is_disabled": 0, "is_reserved": 0}, {"rental_uris": {"ios": "https://dc.lft.to/lastmile_qr_scan", "android": "https://dc.lft.to/lastmile_qr_scan"}, "lon": -77.04198066666666, "type": "electric_scooter", "fusion_lat": 0.0, "lat": 38.911032166666665, "name": "61b1b9c584bdd57140da830f79cba76b", "fusion_lon": 0.0, "bike_id": "61b1b9c584bdd57140da830f79cba76b", "is_disabled": 0, "is_reserved": 0}, {"rental_uris": {"ios": "https://dc.lft.to/lastmile_qr_scan", "android": "https://dc.lft.to/lastmile_qr_scan"}, "lon": -77.02509466666666, "type": "electric_bike", "fusion_lat": 0.0, "lat": 38.934172, "name": "a8f324fd4fefbbc380c8da4290c79ee9", "fusion_lon": 0.0, "bike_id": "a8f324fd4fefbbc380c8da4290c79ee9", "is_disabled": 0, "is_reserved": 0}, {"rental_uris": {"ios": "https://dc.lft.to/lastmile_qr_scan", "android": "https://dc.lft.to/lastmile_qr_scan"}, "lon": -77.03999183333333, "type": "electric_scooter", "fusion_lat": 0.0, "lat": 38.901494666666665, "name": "36dc7633d9094a2d97b1cdbe594e7753", "fusion_lon": 0.0, "bike_id": "36dc7633d9094a2d97b1cdbe594e7753", "is_disabled": 0, "is_reserved": 0}, {"rental_uris": {"ios": "https://dc.lft.to/lastmile_qr_scan", "android": "https://dc.lft.to/lastmile_qr_scan"}, "lon": -77.05404666666666, "type": "electric_scooter", "fusion_lat": 0.0, "lat": 38.904032, "name": "f156f239232c67f67ffb4a5d8cc23a05", "fusion_lon": 0.0, "bike_id": "f156f239232c67f67ffb4a5d8cc23a05", "is_disabled": 0, "is_reserved": 0}, {"rental_uris": {"ios": "https://dc.lft.to/lastmile_qr_scan", "android": "https://dc.lft.to/lastmile_qr_scan"}, "lon": -76.99068583333333, "type": "electric_scooter", "fusion_lat": 0.0, "lat": 38.9041425, "name": "1fb8c2ae92bc941ee78f13db6921481b", "fusion_lon": 0.0, "bike_id": "1fb8c2ae92bc941ee78f13db6921481b", "is_disabled": 0, "is_reserved": 0}, {"rental_uris": {"ios": "https://dc.lft.to/lastmile_qr_scan", "android": "https://dc.lft.to/lastmile_qr_scan"}, "lon": -77.025889, "type": "electric_scooter", "fusion_lat": 0.0, "lat": 38.91555866666667, "name": "209539c6a34099201a0cc28bd621104d", "fusion_lon": 0.0, "bike_id": "209539c6a34099201a0cc28bd621104d", "is_disabled": 0, "is_reserved": 0}, {"rental_uris": {"ios": "https://dc.lft.to/lastmile_qr_scan", "android": "https://dc.lft.to/lastmile_qr_scan"}, "lon": -77.02706916666666, "type": "electric_scooter", "fusion_lat": 0.0, "lat": 38.90665583333333, "name": "66327ac87ea1b50231112b58712e0fe3", "fusion_lon": 0.0, "bike_id": "66327ac87ea1b50231112b58712e0fe3", "is_disabled": 0, "is_reserved": 0}, {"rental_uris": {"ios": "https://dc.lft.to/lastmile_qr_scan", "android": "https://dc.lft.to/lastmile_qr_scan"}, "lon": -77.03239916666666, "type": "electric_scooter", "fusion_lat": 0.0, "lat": 38.92763266666667, "name": "eea884f852f2860968a767daa4b5f782", "fusion_lon": 0.0, "bike_id": "eea884f852f2860968a767daa4b5f782", "is_disabled": 0, "is_reserved": 0}, {"rental_uris": {"ios": "https://dc.lft.to/lastmile_qr_scan", "android": "https://dc.lft.to/lastmile_qr_scan"}, "lon": -77.03337183333333, "type": "electric_bike", "fusion_lat": 0.0, "lat": 38.96137983333333, "name": "cec682dcd9cb634ce5bfd38c3445be12", "fusion_lon": 0.0, "bike_id": "cec682dcd9cb634ce5bfd38c3445be12", "is_disabled": 0, "is_reserved": 0}, {"rental_uris": {"ios": "https://dc.lft.to/lastmile_qr_scan", "android": "https://dc.lft.to/lastmile_qr_scan"}, "lon": -77.04166016666667, "type": "electric_scooter", "fusion_lat": 0.0, "lat": 38.91394616666667, "name": "368ea82c377762cd89af89af3b4a315f", "fusion_lon": 0.0, "bike_id": "368ea82c377762cd89af89af3b4a315f", "is_disabled": 0, "is_reserved": 0}, {"rental_uris": {"ios": "https://dc.lft.to/lastmile_qr_scan", "android": "https://dc.lft.to/lastmile_qr_scan"}, "lon": -76.98880966666667, "type": "electric_scooter", "fusion_lat": 0.0, "lat": 38.866591, "name": "5525eb75ee98909c6d460cc51a1ed262", "fusion_lon": 0.0, "bike_id": "5525eb75ee98909c6d460cc51a1ed262", "is_disabled": 0, "is_reserved": 0}, {"rental_uris": {"ios": "https://dc.lft.to/lastmile_qr_scan", "android": "https://dc.lft.to/lastmile_qr_scan"}, "lon": -77.05066183333334, "type": "electric_scooter", "fusion_lat": 0.0, "lat": 38.90084566666667, "name": "9a7d91218a199485c5ccb19811c91561", "fusion_lon": 0.0, "bike_id": "9a7d91218a199485c5ccb19811c91561", "is_disabled": 0, "is_reserved": 0}, {"rental_uris": {"ios": "https://dc.lft.to/lastmile_qr_scan", "android": "https://dc.lft.to/lastmile_qr_scan"}, "lon": -77.0247685, "type": "electric_scooter", "fusion_lat": 0.0, "lat": 38.931020833333335, "name": "0ac9ad4cc672916cdb5465d73617f7a3", "fusion_lon": 0.0, "bike_id": "0ac9ad4cc672916cdb5465d73617f7a3", "is_disabled": 0, "is_reserved": 0}, {"rental_uris": {"ios": "https://dc.lft.to/lastmile_qr_scan", "android": "https://dc.lft.to/lastmile_qr_scan"}, "lon": -77.01787583333333, "type": "electric_scooter", "fusion_lat": 0.0, "lat": 38.90052583333333, "name": "fe0c61c8b3ff832f7a072395a8335ec5", "fusion_lon": 0.0, "bike_id": "fe0c61c8b3ff832f7a072395a8335ec5", "is_disabled": 0, "is_reserved": 0}, {"rental_uris": {"ios": "https://dc.lft.to/lastmile_qr_scan", "android": "https://dc.lft.to/lastmile_qr_scan"}, "lon": -77.03331833333333, "type": "electric_scooter", "fusion_lat": 0.0, "lat": 38.901618666666664, "name": "85ed80c2166ee7b4e1dd5dc7390070c1", "fusion_lon": 0.0, "bike_id": "85ed80c2166ee7b4e1dd5dc7390070c1", "is_disabled": 0, "is_reserved": 0}, {"rental_uris": {"ios": "https://dc.lft.to/lastmile_qr_scan", "android": "https://dc.lft.to/lastmile_qr_scan"}, "lon": -76.97823266666667, "type": "electric_scooter", "fusion_lat": 0.0, "lat": 38.895192333333334, "name": "27b360820e31756cf66face56977a4b6", "fusion_lon": 0.0, "bike_id": "27b360820e31756cf66face56977a4b6", "is_disabled": 0, "is_reserved": 0}, {"rental_uris": {"ios": "https://dc.lft.to/lastmile_qr_scan", "android": "https://dc.lft.to/lastmile_qr_scan"}, "lon": -77.18293616666666, "type": "electric_bike", "fusion_lat": 0.0, "lat": 38.88343583333333, "name": "6ecb8a3dda78bd9e1766bdccb5353f31", "fusion_lon": 0.0, "bike_id": "6ecb8a3dda78bd9e1766bdccb5353f31", "is_disabled": 0, "is_reserved": 0}, {"rental_uris": {"ios": "https://dc.lft.to/lastmile_qr_scan", "android": "https://dc.lft.to/lastmile_qr_scan"}, "lon": -77.02508383333333, "type": "electric_scooter", "fusion_lat": 0.0, "lat": 38.9072385, "name": "678f9c7a9d53bf3d8c773baaf60f8635", "fusion_lon": 0.0, "bike_id": "678f9c7a9d53bf3d8c773baaf60f8635", "is_disabled": 0, "is_reserved": 0}, {"rental_uris": {"ios": "https://dc.lft.to/lastmile_qr_scan", "android": "https://dc.lft.to/lastmile_qr_scan"}, "lon": -77.034686, "type": "electric_scooter", "fusion_lat": 0.0, "lat": 38.907689, "name": "83421692d08623d597010a97242de904", "fusion_lon": 0.0, "bike_id": "83421692d08623d597010a97242de904", "is_disabled": 0, "is_reserved": 0}, {"rental_uris": {"ios": "https://dc.lft.to/lastmile_qr_scan", "android": "https://dc.lft.to/lastmile_qr_scan"}, "lon": -76.9500095, "type": "electric_scooter", "fusion_lat": 0.0, "lat": 38.893718666666665, "name": "d28d2d808341d349e7dd9337a5fcd854", "fusion_lon": 0.0, "bike_id": "d28d2d808341d349e7dd9337a5fcd854", "is_disabled": 0, "is_reserved": 0}, {"rental_uris": {"ios": "https://dc.lft.to/lastmile_qr_scan", "android": "https://dc.lft.to/lastmile_qr_scan"}, "lon": -77.0382455, "type": "electric_scooter", "fusion_lat": 0.0, "lat": 38.90284583333333, "name": "8a2de2bfe318191c4744173717f20122", "fusion_lon": 0.0, "bike_id": "8a2de2bfe318191c4744173717f20122", "is_disabled": 0, "is_reserved": 0}, {"rental_uris": {"ios": "https://dc.lft.to/lastmile_qr_scan", "android": "https://dc.lft.to/lastmile_qr_scan"}, "lon": -77.01203416666667, "type": "electric_scooter", "fusion_lat": 0.0, "lat": 38.91423916666667, "name": "f0f630e50f9456c19b709a51eb9c82fc", "fusion_lon": 0.0, "bike_id": "f0f630e50f9456c19b709a51eb9c82fc", "is_disabled": 0, "is_reserved": 0}, {"rental_uris": {"ios": "https://dc.lft.to/lastmile_qr_scan", "android": "https://dc.lft.to/lastmile_qr_scan"}, "lon": -77.03808816666667, "type": "electric_bike", "fusion_lat": 0.0, "lat": 38.9181065, "name": "4c192f47dad9ef0991b98cb0758678bd", "fusion_lon": 0.0, "bike_id": "4c192f47dad9ef0991b98cb0758678bd", "is_disabled": 0, "is_reserved": 0}, {"rental_uris": {"ios": "https://dc.lft.to/lastmile_qr_scan", "android": "https://dc.lft.to/lastmile_qr_scan"}, "lon": -77.08262066666667, "type": "electric_scooter", "fusion_lat": 0.0, "lat": 38.930374, "name": "8d0ecb313238df1c30e7ed6b3278ef07", "fusion_lon": 0.0, "bike_id": "8d0ecb313238df1c30e7ed6b3278ef07", "is_disabled": 0, "is_reserved": 0}, {"rental_uris": {"ios": "https://dc.lft.to/lastmile_qr_scan", "android": "https://dc.lft.to/lastmile_qr_scan"}, "lon": -77.07197833333333, "type": "electric_scooter", "fusion_lat": 0.0, "lat": 38.93189366666667, "name": "70240fb6937cf955e8af7673e849bf78", "fusion_lon": 0.0, "bike_id": "70240fb6937cf955e8af7673e849bf78", "is_disabled": 0, "is_reserved": 0}, {"rental_uris": {"ios": "https://dc.lft.to/lastmile_qr_scan", "android": "https://dc.lft.to/lastmile_qr_scan"}, "lon": -77.015124, "type": "electric_scooter", "fusion_lat": 0.0, "lat": 38.89802666666667, "name": "36bcb1d5fda3e9eeeb24c77946f59e7e", "fusion_lon": 0.0, "bike_id": "36bcb1d5fda3e9eeeb24c77946f59e7e", "is_disabled": 0, "is_reserved": 0}, {"rental_uris": {"ios": "https://dc.lft.to/lastmile_qr_scan", "android": "https://dc.lft.to/lastmile_qr_scan"}, "lon": -76.99774866666667, "type": "electric_scooter", "fusion_lat": 0.0, "lat": 38.84427216666667, "name": "84126a2551881c17f48be51b4be732be", "fusion_lon": 0.0, "bike_id": "84126a2551881c17f48be51b4be732be", "is_disabled": 0, "is_reserved": 0}, {"rental_uris": {"ios": "https://dc.lft.to/lastmile_qr_scan", "android": "https://dc.lft.to/lastmile_qr_scan"}, "lon": -77.04104983333333, "type": "electric_scooter", "fusion_lat": 0.0, "lat": 38.905765333333335, "name": "af94f80a6e9c3c0868a1b961d3d03c99", "fusion_lon": 0.0, "bike_id": "af94f80a6e9c3c0868a1b961d3d03c99", "is_disabled": 0, "is_reserved": 0}, {"rental_uris": {"ios": "https://dc.lft.to/lastmile_qr_scan", "android": "https://dc.lft.to/lastmile_qr_scan"}, "lon": -76.94988216666667, "type": "electric_scooter", "fusion_lat": 0.0, "lat": 38.8936775, "name": "d72dac5fa15a4306e85fabfc1525bb31", "fusion_lon": 0.0, "bike_id": "d72dac5fa15a4306e85fabfc1525bb31", "is_disabled": 0, "is_reserved": 0}, {"rental_uris": {"ios": "https://dc.lft.to/lastmile_qr_scan", "android": "https://dc.lft.to/lastmile_qr_scan"}, "lon": -77.00242916666667, "type": "electric_scooter", "fusion_lat": 0.0, "lat": 38.90846466666667, "name": "2e3285c606ab0cc6b7880003060f54f1", "fusion_lon": 0.0, "bike_id": "2e3285c606ab0cc6b7880003060f54f1", "is_disabled": 0, "is_reserved": 0}, {"rental_uris": {"ios": "https://dc.lft.to/lastmile_qr_scan", "android": "https://dc.lft.to/lastmile_qr_scan"}, "lon": -77.02957583333334, "type": "electric_scooter", "fusion_lat": 0.0, "lat": 38.900536833333334, "name": "ec16156ab877931c0d8422bdbc4c5b25", "fusion_lon": 0.0, "bike_id": "ec16156ab877931c0d8422bdbc4c5b25", "is_disabled": 0, "is_reserved": 0}, {"rental_uris": {"ios": "https://dc.lft.to/lastmile_qr_scan", "android": "https://dc.lft.to/lastmile_qr_scan"}, "lon": -77.018684, "type": "electric_scooter", "fusion_lat": 0.0, "lat": 38.9157485, "name": "70dc1f5ffbc07fc590ab676ac6f7188c", "fusion_lon": 0.0, "bike_id": "70dc1f5ffbc07fc590ab676ac6f7188c", "is_disabled": 0, "is_reserved": 0}, {"rental_uris": {"ios": "https://dc.lft.to/lastmile_qr_scan", "android": "https://dc.lft.to/lastmile_qr_scan"}, "lon": -77.0000435, "type": "electric_bike", "fusion_lat": 0.0, "lat": 38.923938166666666, "name": "5acb708251fa87579696b80e3b9da601", "fusion_lon": 0.0, "bike_id": "5acb708251fa87579696b80e3b9da601", "is_disabled": 0, "is_reserved": 0}, {"rental_uris": {"ios": "https://dc.lft.to/lastmile_qr_scan", "android": "https://dc.lft.to/lastmile_qr_scan"}, "lon": -76.95741983333333, "type": "electric_scooter", "fusion_lat": 0.0, "lat": 38.892163, "name": "ef44f236cbb1d216b71b097483367156", "fusion_lon": 0.0, "bike_id": "ef44f236cbb1d216b71b097483367156", "is_disabled": 0, "is_reserved": 0}, {"rental_uris": {"ios": "https://dc.lft.to/lastmile_qr_scan", "android": "https://dc.lft.to/lastmile_qr_scan"}, "lon": -77.03513966666667, "type": "electric_scooter", "fusion_lat": 0.0, "lat": 38.92152683333333, "name": "21911d02d892c50dc09eb14e03095440", "fusion_lon": 0.0, "bike_id": "21911d02d892c50dc09eb14e03095440", "is_disabled": 0, "is_reserved": 0}, {"rental_uris": {"ios": "https://dc.lft.to/lastmile_qr_scan", "android": "https://dc.lft.to/lastmile_qr_scan"}, "lon": -77.04875366666667, "type": "electric_scooter", "fusion_lat": 0.0, "lat": 38.903054, "name": "1daeced7c34232386073b942096fbf5c", "fusion_lon": 0.0, "bike_id": "1daeced7c34232386073b942096fbf5c", "is_disabled": 0, "is_reserved": 0}, {"rental_uris": {"ios": "https://dc.lft.to/lastmile_qr_scan", "android": "https://dc.lft.to/lastmile_qr_scan"}, "lon": -77.13172166666666, "type": "electric_bike", "fusion_lat": 0.0, "lat": 38.869102, "name": "9266235013cea8ee2fb072d54f2b7061", "fusion_lon": 0.0, "bike_id": "9266235013cea8ee2fb072d54f2b7061", "is_disabled": 0, "is_reserved": 0}, {"rental_uris": {"ios": "https://dc.lft.to/lastmile_qr_scan", "android": "https://dc.lft.to/lastmile_qr_scan"}, "lon": -77.0363025, "type": "electric_scooter", "fusion_lat": 0.0, "lat": 38.93691666666667, "name": "5e105f909899dbaa23235cd477da6d5a", "fusion_lon": 0.0, "bike_id": "5e105f909899dbaa23235cd477da6d5a", "is_disabled": 0, "is_reserved": 0}, {"rental_uris": {"ios": "https://dc.lft.to/lastmile_qr_scan", "android": "https://dc.lft.to/lastmile_qr_scan"}, "lon": -76.97444683333333, "type": "electric_bike", "fusion_lat": 0.0, "lat": 38.8639885, "name": "45796599c09d07d0f816ce012254ec6d", "fusion_lon": 0.0, "bike_id": "45796599c09d07d0f816ce012254ec6d", "is_disabled": 0, "is_reserved": 0}, {"rental_uris": {"ios": "https://dc.lft.to/lastmile_qr_scan", "android": "https://dc.lft.to/lastmile_qr_scan"}, "lon": -77.0506985, "type": "electric_scooter", "fusion_lat": 0.0, "lat": 38.9002635, "name": "d799c1e629772e36d26b3fd405c5050c", "fusion_lon": 0.0, "bike_id": "d799c1e629772e36d26b3fd405c5050c", "is_disabled": 0, "is_reserved": 0}, {"rental_uris": {"ios": "https://dc.lft.to/lastmile_qr_scan", "android": "https://dc.lft.to/lastmile_qr_scan"}, "lon": -77.05334433333333, "type": "electric_scooter", "fusion_lat": 0.0, "lat": 38.902934, "name": "c0a7b2a4b99771aa922b77dea7b31869", "fusion_lon": 0.0, "bike_id": "c0a7b2a4b99771aa922b77dea7b31869", "is_disabled": 0, "is_reserved": 0}, {"rental_uris": {"ios": "https://dc.lft.to/lastmile_qr_scan", "android": "https://dc.lft.to/lastmile_qr_scan"}, "lon": -76.97730833333334, "type": "electric_scooter", "fusion_lat": 0.0, "lat": 38.8729245, "name": "fe74d10846596eb8977bb19e52fabfc5", "fusion_lon": 0.0, "bike_id": "fe74d10846596eb8977bb19e52fabfc5", "is_disabled": 0, "is_reserved": 0}, {"rental_uris": {"ios": "https://dc.lft.to/lastmile_qr_scan", "android": "https://dc.lft.to/lastmile_qr_scan"}, "lon": -77.03785716666667, "type": "electric_bike", "fusion_lat": 0.0, "lat": 38.996648666666665, "name": "4aa50039b160da009ef9f9aa60d1f0e0", "fusion_lon": 0.0, "bike_id": "4aa50039b160da009ef9f9aa60d1f0e0", "is_disabled": 0, "is_reserved": 0}, {"rental_uris": {"ios": "https://dc.lft.to/lastmile_qr_scan", "android": "https://dc.lft.to/lastmile_qr_scan"}, "lon": -77.03583666666667, "type": "electric_scooter", "fusion_lat": 0.0, "lat": 38.93242216666667, "name": "cfcf937d2632b76f4b30835619637b65", "fusion_lon": 0.0, "bike_id": "cfcf937d2632b76f4b30835619637b65", "is_disabled": 0, "is_reserved": 0}, {"rental_uris": {"ios": "https://dc.lft.to/lastmile_qr_scan", "android": "https://dc.lft.to/lastmile_qr_scan"}, "lon": -77.0371345, "type": "electric_scooter", "fusion_lat": 0.0, "lat": 38.92628783333333, "name": "99af7cf362dd5be0bce857879e91c9d5", "fusion_lon": 0.0, "bike_id": "99af7cf362dd5be0bce857879e91c9d5", "is_disabled": 0, "is_reserved": 0}, {"rental_uris": {"ios": "https://dc.lft.to/lastmile_qr_scan", "android": "https://dc.lft.to/lastmile_qr_scan"}, "lon": -77.00592766666666, "type": "electric_scooter", "fusion_lat": 0.0, "lat": 38.9156755, "name": "c0a177a58337ec2eb3b33794223e3746", "fusion_lon": 0.0, "bike_id": "c0a177a58337ec2eb3b33794223e3746", "is_disabled": 0, "is_reserved": 0}, {"rental_uris": {"ios": "https://dc.lft.to/lastmile_qr_scan", "android": "https://dc.lft.to/lastmile_qr_scan"}, "lon": -77.024005, "type": "electric_scooter", "fusion_lat": 0.0, "lat": 38.931089, "name": "0cf8f0d716d7267875c9b663c1bbe565", "fusion_lon": 0.0, "bike_id": "0cf8f0d716d7267875c9b663c1bbe565", "is_disabled": 0, "is_reserved": 0}, {"rental_uris": {"ios": "https://dc.lft.to/lastmile_qr_scan", "android": "https://dc.lft.to/lastmile_qr_scan"}, "lon": -77.01542233333333, "type": "electric_scooter", "fusion_lat": 0.0, "lat": 38.892033, "name": "b097050b76f07f351abeaefc010067e0", "fusion_lon": 0.0, "bike_id": "b097050b76f07f351abeaefc010067e0", "is_disabled": 0, "is_reserved": 0}, {"rental_uris": {"ios": "https://dc.lft.to/lastmile_qr_scan", "android": "https://dc.lft.to/lastmile_qr_scan"}, "lon": -77.04662383333333, "type": "electric_scooter", "fusion_lat": 0.0, "lat": 38.9055685, "name": "eb63b9bba01cd70649c08a9dc7b9668d", "fusion_lon": 0.0, "bike_id": "eb63b9bba01cd70649c08a9dc7b9668d", "is_disabled": 0, "is_reserved": 0}, {"rental_uris": {"ios": "https://dc.lft.to/lastmile_qr_scan", "android": "https://dc.lft.to/lastmile_qr_scan"}, "lon": -77.124997, "type": "electric_bike", "fusion_lat": 0.0, "lat": 39.024192, "name": "3ed3618afd5742b84f5760ae9de1d785", "fusion_lon": 0.0, "bike_id": "3ed3618afd5742b84f5760ae9de1d785", "is_disabled": 0, "is_reserved": 0}, {"rental_uris": {"ios": "https://dc.lft.to/lastmile_qr_scan", "android": "https://dc.lft.to/lastmile_qr_scan"}, "lon": -77.02147766666667, "type": "electric_scooter", "fusion_lat": 0.0, "lat": 38.93304766666667, "name": "1c19a22e6c76ddbb7757c720a47fd7ea", "fusion_lon": 0.0, "bike_id": "1c19a22e6c76ddbb7757c720a47fd7ea", "is_disabled": 0, "is_reserved": 0}, {"rental_uris": {"ios": "https://dc.lft.to/lastmile_qr_scan", "android": "https://dc.lft.to/lastmile_qr_scan"}, "lon": -77.024719, "type": "electric_scooter", "fusion_lat": 0.0, "lat": 38.931032333333334, "name": "0072c09360b5661cc6ba1b80c065ec2d", "fusion_lon": 0.0, "bike_id": "0072c09360b5661cc6ba1b80c065ec2d", "is_disabled": 0, "is_reserved": 0}, {"rental_uris": {"ios": "https://dc.lft.to/lastmile_qr_scan", "android": "https://dc.lft.to/lastmile_qr_scan"}, "lon": -77.0451435, "type": "electric_scooter", "fusion_lat": 0.0, "lat": 38.912894, "name": "3a3d73a768636fd1206f237362aceea0", "fusion_lon": 0.0, "bike_id": "3a3d73a768636fd1206f237362aceea0", "is_disabled": 0, "is_reserved": 0}, {"rental_uris": {"ios": "https://dc.lft.to/lastmile_qr_scan", "android": "https://dc.lft.to/lastmile_qr_scan"}, "lon": -77.03194366666666, "type": "electric_scooter", "fusion_lat": 0.0, "lat": 38.92289383333333, "name": "11468886553ffd0d19543f96a3d59836", "fusion_lon": 0.0, "bike_id": "11468886553ffd0d19543f96a3d59836", "is_disabled": 0, "is_reserved": 0}, {"rental_uris": {"ios": "https://dc.lft.to/lastmile_qr_scan", "android": "https://dc.lft.to/lastmile_qr_scan"}, "lon": -76.9488975, "type": "electric_scooter", "fusion_lat": 0.0, "lat": 38.89535733333334, "name": "801d1d6d2a5b5a171b466668c8c4ebb4", "fusion_lon": 0.0, "bike_id": "801d1d6d2a5b5a171b466668c8c4ebb4", "is_disabled": 0, "is_reserved": 0}, {"rental_uris": {"ios": "https://dc.lft.to/lastmile_qr_scan", "android": "https://dc.lft.to/lastmile_qr_scan"}, "lon": -77.03213066666666, "type": "electric_scooter", "fusion_lat": 0.0, "lat": 38.909959, "name": "6e74cf7c540a913e7b79ecf3b0acc08c", "fusion_lon": 0.0, "bike_id": "6e74cf7c540a913e7b79ecf3b0acc08c", "is_disabled": 0, "is_reserved": 0}, {"rental_uris": {"ios": "https://dc.lft.to/lastmile_qr_scan", "android": "https://dc.lft.to/lastmile_qr_scan"}, "lon": -77.03852966666666, "type": "electric_scooter", "fusion_lat": 0.0, "lat": 38.9202765, "name": "d0618b5838981390db434251fe522a34", "fusion_lon": 0.0, "bike_id": "d0618b5838981390db434251fe522a34", "is_disabled": 0, "is_reserved": 0}, {"rental_uris": {"ios": "https://dc.lft.to/lastmile_qr_scan", "android": "https://dc.lft.to/lastmile_qr_scan"}, "lon": -77.00283483333334, "type": "electric_scooter", "fusion_lat": 0.0, "lat": 38.90884233333333, "name": "1a48e8d3559ab582403f624aa941bed5", "fusion_lon": 0.0, "bike_id": "1a48e8d3559ab582403f624aa941bed5", "is_disabled": 0, "is_reserved": 0}, {"rental_uris": {"ios": "https://dc.lft.to/lastmile_qr_scan", "android": "https://dc.lft.to/lastmile_qr_scan"}, "lon": -77.02357816666667, "type": "electric_scooter", "fusion_lat": 0.0, "lat": 38.94520283333333, "name": "2c1c7147b6255cf169576c91d77ec72f", "fusion_lon": 0.0, "bike_id": "2c1c7147b6255cf169576c91d77ec72f", "is_disabled": 0, "is_reserved": 0}, {"rental_uris": {"ios": "https://dc.lft.to/lastmile_qr_scan", "android": "https://dc.lft.to/lastmile_qr_scan"}, "lon": -77.058798, "type": "electric_scooter", "fusion_lat": 0.0, "lat": 38.93637616666667, "name": "8149cbffe965a53af0c791f83b76afb3", "fusion_lon": 0.0, "bike_id": "8149cbffe965a53af0c791f83b76afb3", "is_disabled": 0, "is_reserved": 0}, {"rental_uris": {"ios": "https://dc.lft.to/lastmile_qr_scan", "android": "https://dc.lft.to/lastmile_qr_scan"}, "lon": -76.99522183333333, "type": "electric_scooter", "fusion_lat": 0.0, "lat": 38.862625, "name": "01e3ad87ab7a00c66c7babdcd4e5ed77", "fusion_lon": 0.0, "bike_id": "01e3ad87ab7a00c66c7babdcd4e5ed77", "is_disabled": 0, "is_reserved": 0}, {"rental_uris": {"ios": "https://dc.lft.to/lastmile_qr_scan", "android": "https://dc.lft.to/lastmile_qr_scan"}, "lon": -77.0318315, "type": "electric_scooter", "fusion_lat": 0.0, "lat": 38.921093166666665, "name": "2bb6c9db195e6ca03534df981921be4f", "fusion_lon": 0.0, "bike_id": "2bb6c9db195e6ca03534df981921be4f", "is_disabled": 0, "is_reserved": 0}, {"rental_uris": {"ios": "https://dc.lft.to/lastmile_qr_scan", "android": "https://dc.lft.to/lastmile_qr_scan"}, "lon": -77.02150316666666, "type": "electric_scooter", "fusion_lat": 0.0, "lat": 38.897477, "name": "737c7a02642f801a8e55459956af3367", "fusion_lon": 0.0, "bike_id": "737c7a02642f801a8e55459956af3367", "is_disabled": 0, "is_reserved": 0}, {"rental_uris": {"ios": "https://dc.lft.to/lastmile_qr_scan", "android": "https://dc.lft.to/lastmile_qr_scan"}, "lon": -77.03754133333334, "type": "electric_scooter", "fusion_lat": 0.0, "lat": 38.928914666666664, "name": "fb8f31a1100abede69a4677ff7b62246", "fusion_lon": 0.0, "bike_id": "fb8f31a1100abede69a4677ff7b62246", "is_disabled": 0, "is_reserved": 0}, {"rental_uris": {"ios": "https://dc.lft.to/lastmile_qr_scan", "android": "https://dc.lft.to/lastmile_qr_scan"}, "lon": -77.0215025, "type": "electric_scooter", "fusion_lat": 0.0, "lat": 38.8963935, "name": "aac613290618bbebaccb38861487b520", "fusion_lon": 0.0, "bike_id": "aac613290618bbebaccb38861487b520", "is_disabled": 0, "is_reserved": 0}, {"rental_uris": {"ios": "https://dc.lft.to/lastmile_qr_scan", "android": "https://dc.lft.to/lastmile_qr_scan"}, "lon": -76.997932, "type": "electric_scooter", "fusion_lat": 0.0, "lat": 38.92182483333333, "name": "a8c525f59d3a5139bbd09a36666fbe06", "fusion_lon": 0.0, "bike_id": "a8c525f59d3a5139bbd09a36666fbe06", "is_disabled": 0, "is_reserved": 0}, {"rental_uris": {"ios": "https://dc.lft.to/lastmile_qr_scan", "android": "https://dc.lft.to/lastmile_qr_scan"}, "lon": -76.98742116666666, "type": "electric_bike", "fusion_lat": 0.0, "lat": 38.857915, "name": "9c295c036fc0cfc1a10dbe9ac545145f", "fusion_lon": 0.0, "bike_id": "9c295c036fc0cfc1a10dbe9ac545145f", "is_disabled": 0, "is_reserved": 0}, {"rental_uris": {"ios": "https://dc.lft.to/lastmile_qr_scan", "android": "https://dc.lft.to/lastmile_qr_scan"}, "lon": -76.99598066666667, "type": "electric_scooter", "fusion_lat": 0.0, "lat": 38.8454045, "name": "2072cfc79e00404e9fba2416a288aafa", "fusion_lon": 0.0, "bike_id": "2072cfc79e00404e9fba2416a288aafa", "is_disabled": 0, "is_reserved": 0}, {"rental_uris": {"ios": "https://dc.lft.to/lastmile_qr_scan", "android": "https://dc.lft.to/lastmile_qr_scan"}, "lon": -77.029701, "type": "electric_scooter", "fusion_lat": 0.0, "lat": 38.9051735, "name": "d50eed254429c5575c4a6fbc4efb4754", "fusion_lon": 0.0, "bike_id": "d50eed254429c5575c4a6fbc4efb4754", "is_disabled": 0, "is_reserved": 0}, {"rental_uris": {"ios": "https://dc.lft.to/lastmile_qr_scan", "android": "https://dc.lft.to/lastmile_qr_scan"}, "lon": -77.03670283333334, "type": "electric_scooter", "fusion_lat": 0.0, "lat": 38.918192833333336, "name": "80c0a4f30163328c427b1bdffe89fb46", "fusion_lon": 0.0, "bike_id": "80c0a4f30163328c427b1bdffe89fb46", "is_disabled": 0, "is_reserved": 0}, {"rental_uris": {"ios": "https://dc.lft.to/lastmile_qr_scan", "android": "https://dc.lft.to/lastmile_qr_scan"}, "lon": -76.98499283333334, "type": "electric_scooter", "fusion_lat": 0.0, "lat": 38.86047833333333, "name": "96dd758a0129b4e84abbf55292c5d2a2", "fusion_lon": 0.0, "bike_id": "96dd758a0129b4e84abbf55292c5d2a2", "is_disabled": 0, "is_reserved": 0}, {"rental_uris": {"ios": "https://dc.lft.to/lastmile_qr_scan", "android": "https://dc.lft.to/lastmile_qr_scan"}, "lon": -77.03919516666667, "type": "electric_scooter", "fusion_lat": 0.0, "lat": 38.904674666666665, "name": "03a8b2aaa63d2322ce72510b4fdb32ca", "fusion_lon": 0.0, "bike_id": "03a8b2aaa63d2322ce72510b4fdb32ca", "is_disabled": 0, "is_reserved": 0}, {"rental_uris": {"ios": "https://dc.lft.to/lastmile_qr_scan", "android": "https://dc.lft.to/lastmile_qr_scan"}, "lon": -77.04705716666666, "type": "electric_scooter", "fusion_lat": 0.0, "lat": 38.921668833333335, "name": "c0d268d6a8856d654e3780a1ca7b8fcb", "fusion_lon": 0.0, "bike_id": "c0d268d6a8856d654e3780a1ca7b8fcb", "is_disabled": 0, "is_reserved": 0}, {"rental_uris": {"ios": "https://dc.lft.to/lastmile_qr_scan", "android": "https://dc.lft.to/lastmile_qr_scan"}, "lon": -77.10088183333333, "type": "electric_bike", "fusion_lat": 0.0, "lat": 38.959591, "name": "6fe3fea3d70ce689780e13ff9d06e588", "fusion_lon": 0.0, "bike_id": "6fe3fea3d70ce689780e13ff9d06e588", "is_disabled": 0, "is_reserved": 0}, {"rental_uris": {"ios": "https://dc.lft.to/lastmile_qr_scan", "android": "https://dc.lft.to/lastmile_qr_scan"}, "lon": -77.04218966666667, "type": "electric_scooter", "fusion_lat": 0.0, "lat": 38.9060775, "name": "445d73d08d13372fbb1d99fe75c0a198", "fusion_lon": 0.0, "bike_id": "445d73d08d13372fbb1d99fe75c0a198", "is_disabled": 0, "is_reserved": 0}, {"rental_uris": {"ios": "https://dc.lft.to/lastmile_qr_scan", "android": "https://dc.lft.to/lastmile_qr_scan"}, "lon": -77.03937233333333, "type": "electric_scooter", "fusion_lat": 0.0, "lat": 38.899060166666665, "name": "1a615b0bf529dbc68d2134446c7d685a", "fusion_lon": 0.0, "bike_id": "1a615b0bf529dbc68d2134446c7d685a", "is_disabled": 0, "is_reserved": 0}, {"rental_uris": {"ios": "https://dc.lft.to/lastmile_qr_scan", "android": "https://dc.lft.to/lastmile_qr_scan"}, "lon": -76.978863, "type": "electric_scooter", "fusion_lat": 0.0, "lat": 38.904225833333335, "name": "f76a29d7e6f15000e6c085c802329623", "fusion_lon": 0.0, "bike_id": "f76a29d7e6f15000e6c085c802329623", "is_disabled": 0, "is_reserved": 0}, {"rental_uris": {"ios": "https://dc.lft.to/lastmile_qr_scan", "android": "https://dc.lft.to/lastmile_qr_scan"}, "lon": -77.03908316666667, "type": "electric_scooter", "fusion_lat": 0.0, "lat": 38.891998, "name": "c72b8a560c76c385da7e87179f9a318a", "fusion_lon": 0.0, "bike_id": "c72b8a560c76c385da7e87179f9a318a", "is_disabled": 0, "is_reserved": 0}, {"rental_uris": {"ios": "https://dc.lft.to/lastmile_qr_scan", "android": "https://dc.lft.to/lastmile_qr_scan"}, "lon": -77.031513, "type": "electric_scooter", "fusion_lat": 0.0, "lat": 38.91566066666667, "name": "e9b87e8e833b3c1aff3ec8ede6c18d0d", "fusion_lon": 0.0, "bike_id": "e9b87e8e833b3c1aff3ec8ede6c18d0d", "is_disabled": 0, "is_reserved": 0}, {"rental_uris": {"ios": "https://dc.lft.to/lastmile_qr_scan", "android": "https://dc.lft.to/lastmile_qr_scan"}, "lon": -77.0139, "type": "electric_scooter", "fusion_lat": 0.0, "lat": 38.97015566666666, "name": "ebd48af5344fe32be1b0d07681e43499", "fusion_lon": 0.0, "bike_id": "ebd48af5344fe32be1b0d07681e43499", "is_disabled": 0, "is_reserved": 0}, {"rental_uris": {"ios": "https://dc.lft.to/lastmile_qr_scan", "android": "https://dc.lft.to/lastmile_qr_scan"}, "lon": -77.015362, "type": "electric_scooter", "fusion_lat": 0.0, "lat": 38.90200683333333, "name": "0c34702f761bd19124a1269f8c6d7349", "fusion_lon": 0.0, "bike_id": "0c34702f761bd19124a1269f8c6d7349", "is_disabled": 0, "is_reserved": 0}, {"rental_uris": {"ios": "https://dc.lft.to/lastmile_qr_scan", "android": "https://dc.lft.to/lastmile_qr_scan"}, "lon": -77.02712066666666, "type": "electric_scooter", "fusion_lat": 0.0, "lat": 38.9182335, "name": "d1bc88ec09b84ff49e3380cf9e2ea995", "fusion_lon": 0.0, "bike_id": "d1bc88ec09b84ff49e3380cf9e2ea995", "is_disabled": 0, "is_reserved": 0}, {"rental_uris": {"ios": "https://dc.lft.to/lastmile_qr_scan", "android": "https://dc.lft.to/lastmile_qr_scan"}, "lon": -77.06347116666667, "type": "electric_scooter", "fusion_lat": 0.0, "lat": 38.944498333333335, "name": "87328367c9e9e389b3eb2ecc3d9356a1", "fusion_lon": 0.0, "bike_id": "87328367c9e9e389b3eb2ecc3d9356a1", "is_disabled": 0, "is_reserved": 0}, {"rental_uris": {"ios": "https://dc.lft.to/lastmile_qr_scan", "android": "https://dc.lft.to/lastmile_qr_scan"}, "lon": -77.03018416666667, "type": "electric_scooter", "fusion_lat": 0.0, "lat": 38.920474166666665, "name": "c651dfb85e8e855600a5bd019ffafac2", "fusion_lon": 0.0, "bike_id": "c651dfb85e8e855600a5bd019ffafac2", "is_disabled": 0, "is_reserved": 0}, {"rental_uris": {"ios": "https://dc.lft.to/lastmile_qr_scan", "android": "https://dc.lft.to/lastmile_qr_scan"}, "lon": -77.0021465, "type": "electric_scooter", "fusion_lat": 0.0, "lat": 38.911045, "name": "8b56a1d388cd2bc498905ea2f16dcaf5", "fusion_lon": 0.0, "bike_id": "8b56a1d388cd2bc498905ea2f16dcaf5", "is_disabled": 0, "is_reserved": 0}, {"rental_uris": {"ios": "https://dc.lft.to/lastmile_qr_scan", "android": "https://dc.lft.to/lastmile_qr_scan"}, "lon": -77.0378275, "type": "electric_scooter", "fusion_lat": 0.0, "lat": 38.930253666666665, "name": "43bb45f82b24e94b1497dc8b08669d90", "fusion_lon": 0.0, "bike_id": "43bb45f82b24e94b1497dc8b08669d90", "is_disabled": 0, "is_reserved": 0}, {"rental_uris": {"ios": "https://dc.lft.to/lastmile_qr_scan", "android": "https://dc.lft.to/lastmile_qr_scan"}, "lon": -77.0344175, "type": "electric_scooter", "fusion_lat": 0.0, "lat": 38.9073515, "name": "796a6406eeaf5d1c2782d3c4ebe4149b", "fusion_lon": 0.0, "bike_id": "796a6406eeaf5d1c2782d3c4ebe4149b", "is_disabled": 0, "is_reserved": 0}, {"rental_uris": {"ios": "https://dc.lft.to/lastmile_qr_scan", "android": "https://dc.lft.to/lastmile_qr_scan"}, "lon": -77.042553, "type": "electric_scooter", "fusion_lat": 0.0, "lat": 38.91592383333333, "name": "7fb8eabb0937abc4e866e32a0f55879d", "fusion_lon": 0.0, "bike_id": "7fb8eabb0937abc4e866e32a0f55879d", "is_disabled": 0, "is_reserved": 0}, {"rental_uris": {"ios": "https://dc.lft.to/lastmile_qr_scan", "android": "https://dc.lft.to/lastmile_qr_scan"}, "lon": -77.05884883333333, "type": "electric_scooter", "fusion_lat": 0.0, "lat": 38.93637566666666, "name": "6e35cc542426f276fde00273a164012d", "fusion_lon": 0.0, "bike_id": "6e35cc542426f276fde00273a164012d", "is_disabled": 0, "is_reserved": 0}, {"rental_uris": {"ios": "https://dc.lft.to/lastmile_qr_scan", "android": "https://dc.lft.to/lastmile_qr_scan"}, "lon": -77.02291916666667, "type": "electric_scooter", "fusion_lat": 0.0, "lat": 38.927610666666666, "name": "881586232780fe6a2531c73ee799e3ff", "fusion_lon": 0.0, "bike_id": "881586232780fe6a2531c73ee799e3ff", "is_disabled": 0, "is_reserved": 0}, {"rental_uris": {"ios": "https://dc.lft.to/lastmile_qr_scan", "android": "https://dc.lft.to/lastmile_qr_scan"}, "lon": -76.98715, "type": "electric_scooter", "fusion_lat": 0.0, "lat": 38.86702283333333, "name": "697e4a9010692756cf5624b0060ff77c", "fusion_lon": 0.0, "bike_id": "697e4a9010692756cf5624b0060ff77c", "is_disabled": 0, "is_reserved": 0}, {"rental_uris": {"ios": "https://dc.lft.to/lastmile_qr_scan", "android": "https://dc.lft.to/lastmile_qr_scan"}, "lon": -77.03804583333333, "type": "electric_scooter", "fusion_lat": 0.0, "lat": 38.90590733333333, "name": "4f2d8305c9fbe5bec5c31a074a5d62b5", "fusion_lon": 0.0, "bike_id": "4f2d8305c9fbe5bec5c31a074a5d62b5", "is_disabled": 0, "is_reserved": 0}, {"rental_uris": {"ios": "https://dc.lft.to/lastmile_qr_scan", "android": "https://dc.lft.to/lastmile_qr_scan"}, "lon": -77.048141, "type": "electric_scooter", "fusion_lat": 0.0, "lat": 38.89619316666667, "name": "ec1b9aedd9187dbf5dea23b1cc1c7110", "fusion_lon": 0.0, "bike_id": "ec1b9aedd9187dbf5dea23b1cc1c7110", "is_disabled": 0, "is_reserved": 0}, {"rental_uris": {"ios": "https://dc.lft.to/lastmile_qr_scan", "android": "https://dc.lft.to/lastmile_qr_scan"}, "lon": -77.02220583333333, "type": "electric_scooter", "fusion_lat": 0.0, "lat": 38.938673666666666, "name": "34796215d0158c58fdbeb49994a6ea63", "fusion_lon": 0.0, "bike_id": "34796215d0158c58fdbeb49994a6ea63", "is_disabled": 0, "is_reserved": 0}, {"rental_uris": {"ios": "https://dc.lft.to/lastmile_qr_scan", "android": "https://dc.lft.to/lastmile_qr_scan"}, "lon": -77.022334, "type": "electric_scooter", "fusion_lat": 0.0, "lat": 38.9142965, "name": "ab424ac254c2fd2900ad0eb98618106f", "fusion_lon": 0.0, "bike_id": "ab424ac254c2fd2900ad0eb98618106f", "is_disabled": 0, "is_reserved": 0}, {"rental_uris": {"ios": "https://dc.lft.to/lastmile_qr_scan", "android": "https://dc.lft.to/lastmile_qr_scan"}, "lon": -77.0216655, "type": "electric_scooter", "fusion_lat": 0.0, "lat": 38.926152333333334, "name": "b8e47c54696a312add8c8325568c5178", "fusion_lon": 0.0, "bike_id": "b8e47c54696a312add8c8325568c5178", "is_disabled": 0, "is_reserved": 0}, {"rental_uris": {"ios": "https://dc.lft.to/lastmile_qr_scan", "android": "https://dc.lft.to/lastmile_qr_scan"}, "lon": -77.032319, "type": "electric_scooter", "fusion_lat": 0.0, "lat": 38.917051666666666, "name": "3172c1356e6bc27bc0b1088cadd4ea4d", "fusion_lon": 0.0, "bike_id": "3172c1356e6bc27bc0b1088cadd4ea4d", "is_disabled": 0, "is_reserved": 0}, {"rental_uris": {"ios": "https://dc.lft.to/lastmile_qr_scan", "android": "https://dc.lft.to/lastmile_qr_scan"}, "lon": -77.00856383333333, "type": "electric_scooter", "fusion_lat": 0.0, "lat": 38.925957333333336, "name": "a0551a8c707f324e8f0420c012a43505", "fusion_lon": 0.0, "bike_id": "a0551a8c707f324e8f0420c012a43505", "is_disabled": 0, "is_reserved": 0}, {"rental_uris": {"ios": "https://dc.lft.to/lastmile_qr_scan", "android": "https://dc.lft.to/lastmile_qr_scan"}, "lon": -77.0482045, "type": "electric_scooter", "fusion_lat": 0.0, "lat": 38.89632966666667, "name": "24903f2fe7fc3a106affe942884edf4f", "fusion_lon": 0.0, "bike_id": "24903f2fe7fc3a106affe942884edf4f", "is_disabled": 0, "is_reserved": 0}, {"rental_uris": {"ios": "https://dc.lft.to/lastmile_qr_scan", "android": "https://dc.lft.to/lastmile_qr_scan"}, "lon": -77.0289985, "type": "electric_scooter", "fusion_lat": 0.0, "lat": 38.903870833333336, "name": "e6f1890ffbf31c2470308a56a1959211", "fusion_lon": 0.0, "bike_id": "e6f1890ffbf31c2470308a56a1959211", "is_disabled": 0, "is_reserved": 0}, {"rental_uris": {"ios": "https://dc.lft.to/lastmile_qr_scan", "android": "https://dc.lft.to/lastmile_qr_scan"}, "lon": -77.03080083333333, "type": "electric_scooter", "fusion_lat": 0.0, "lat": 38.93473316666667, "name": "a52f6663c880371a3c7af26f5ed56abf", "fusion_lon": 0.0, "bike_id": "a52f6663c880371a3c7af26f5ed56abf", "is_disabled": 0, "is_reserved": 0}, {"rental_uris": {"ios": "https://dc.lft.to/lastmile_qr_scan", "android": "https://dc.lft.to/lastmile_qr_scan"}, "lon": -77.01761166666667, "type": "electric_scooter", "fusion_lat": 0.0, "lat": 38.9389705, "name": "4b09780de9773694a6dd95053c5e8bac", "fusion_lon": 0.0, "bike_id": "4b09780de9773694a6dd95053c5e8bac", "is_disabled": 0, "is_reserved": 0}, {"rental_uris": {"ios": "https://dc.lft.to/lastmile_qr_scan", "android": "https://dc.lft.to/lastmile_qr_scan"}, "lon": -76.97888566666667, "type": "electric_scooter", "fusion_lat": 0.0, "lat": 38.91675016666667, "name": "3e27f7013219d784ed9b0d8c5ab5094e", "fusion_lon": 0.0, "bike_id": "3e27f7013219d784ed9b0d8c5ab5094e", "is_disabled": 0, "is_reserved": 0}, {"rental_uris": {"ios": "https://dc.lft.to/lastmile_qr_scan", "android": "https://dc.lft.to/lastmile_qr_scan"}, "lon": -76.93800733333333, "type": "electric_scooter", "fusion_lat": 0.0, "lat": 38.91288983333333, "name": "4823b22e5e4ce7b3cf901247b8c1f02d", "fusion_lon": 0.0, "bike_id": "4823b22e5e4ce7b3cf901247b8c1f02d", "is_disabled": 0, "is_reserved": 0}, {"rental_uris": {"ios": "https://dc.lft.to/lastmile_qr_scan", "android": "https://dc.lft.to/lastmile_qr_scan"}, "lon": -77.12745233333334, "type": "electric_bike", "fusion_lat": 0.0, "lat": 38.888228833333336, "name": "095b67a75d2b4f6d018c279fc8b076e5", "fusion_lon": 0.0, "bike_id": "095b67a75d2b4f6d018c279fc8b076e5", "is_disabled": 0, "is_reserved": 0}, {"rental_uris": {"ios": "https://dc.lft.to/lastmile_qr_scan", "android": "https://dc.lft.to/lastmile_qr_scan"}, "lon": -77.0493375, "type": "electric_scooter", "fusion_lat": 0.0, "lat": 38.8967605, "name": "ccfbbf6638f7f34bef691f59793b6488", "fusion_lon": 0.0, "bike_id": "ccfbbf6638f7f34bef691f59793b6488", "is_disabled": 0, "is_reserved": 0}, {"rental_uris": {"ios": "https://dc.lft.to/lastmile_qr_scan", "android": "https://dc.lft.to/lastmile_qr_scan"}, "lon": -77.04251383333333, "type": "electric_scooter", "fusion_lat": 0.0, "lat": 38.908351333333336, "name": "3b2e07c2222588688019214c0f7a4ec3", "fusion_lon": 0.0, "bike_id": "3b2e07c2222588688019214c0f7a4ec3", "is_disabled": 0, "is_reserved": 0}, {"rental_uris": {"ios": "https://dc.lft.to/lastmile_qr_scan", "android": "https://dc.lft.to/lastmile_qr_scan"}, "lon": -77.032524, "type": "electric_scooter", "fusion_lat": 0.0, "lat": 38.937430666666664, "name": "3924dcee220036df6f4f011613689b23", "fusion_lon": 0.0, "bike_id": "3924dcee220036df6f4f011613689b23", "is_disabled": 0, "is_reserved": 0}, {"rental_uris": {"ios": "https://dc.lft.to/lastmile_qr_scan", "android": "https://dc.lft.to/lastmile_qr_scan"}, "lon": -77.026075, "type": "electric_scooter", "fusion_lat": 0.0, "lat": 38.9169065, "name": "f3e168b46e508c6a0f48104e33730104", "fusion_lon": 0.0, "bike_id": "f3e168b46e508c6a0f48104e33730104", "is_disabled": 0, "is_reserved": 0}, {"rental_uris": {"ios": "https://dc.lft.to/lastmile_qr_scan", "android": "https://dc.lft.to/lastmile_qr_scan"}, "lon": -76.995344, "type": "electric_scooter", "fusion_lat": 0.0, "lat": 38.926751, "name": "d2afcb96a71a37dab5cf87a7e3b0d061", "fusion_lon": 0.0, "bike_id": "d2afcb96a71a37dab5cf87a7e3b0d061", "is_disabled": 0, "is_reserved": 0}, {"rental_uris": {"ios": "https://dc.lft.to/lastmile_qr_scan", "android": "https://dc.lft.to/lastmile_qr_scan"}, "lon": -76.98773216666666, "type": "electric_scooter", "fusion_lat": 0.0, "lat": 38.911742833333335, "name": "01762ad43b852a551027e6e9bce7abd2", "fusion_lon": 0.0, "bike_id": "01762ad43b852a551027e6e9bce7abd2", "is_disabled": 0, "is_reserved": 0}, {"rental_uris": {"ios": "https://dc.lft.to/lastmile_qr_scan", "android": "https://dc.lft.to/lastmile_qr_scan"}, "lon": -77.08357916666667, "type": "electric_scooter", "fusion_lat": 0.0, "lat": 38.93026833333333, "name": "0b50c5992a2e4f9f1310de5d02084b16", "fusion_lon": 0.0, "bike_id": "0b50c5992a2e4f9f1310de5d02084b16", "is_disabled": 0, "is_reserved": 0}, {"rental_uris": {"ios": "https://dc.lft.to/lastmile_qr_scan", "android": "https://dc.lft.to/lastmile_qr_scan"}, "lon": -77.03465733333333, "type": "electric_scooter", "fusion_lat": 0.0, "lat": 38.90280683333334, "name": "9b0bd084b4bc82182e8619182c576edd", "fusion_lon": 0.0, "bike_id": "9b0bd084b4bc82182e8619182c576edd", "is_disabled": 0, "is_reserved": 0}, {"rental_uris": {"ios": "https://dc.lft.to/lastmile_qr_scan", "android": "https://dc.lft.to/lastmile_qr_scan"}, "lon": -77.03325883333333, "type": "electric_scooter", "fusion_lat": 0.0, "lat": 38.921564833333335, "name": "d90af0baf019010b7c01dfd8a3dbb962", "fusion_lon": 0.0, "bike_id": "d90af0baf019010b7c01dfd8a3dbb962", "is_disabled": 0, "is_reserved": 0}, {"rental_uris": {"ios": "https://dc.lft.to/lastmile_qr_scan", "android": "https://dc.lft.to/lastmile_qr_scan"}, "lon": -77.00226683333334, "type": "electric_scooter", "fusion_lat": 0.0, "lat": 38.90579416666667, "name": "2a62db9fe1e4d8052c6d105a2f4af363", "fusion_lon": 0.0, "bike_id": "2a62db9fe1e4d8052c6d105a2f4af363", "is_disabled": 0, "is_reserved": 0}, {"rental_uris": {"ios": "https://dc.lft.to/lastmile_qr_scan", "android": "https://dc.lft.to/lastmile_qr_scan"}, "lon": -76.98412033333334, "type": "electric_scooter", "fusion_lat": 0.0, "lat": 38.91387816666666, "name": "835f964a15ad37e93f66a8387bdc9e2f", "fusion_lon": 0.0, "bike_id": "835f964a15ad37e93f66a8387bdc9e2f", "is_disabled": 0, "is_reserved": 0}, {"rental_uris": {"ios": "https://dc.lft.to/lastmile_qr_scan", "android": "https://dc.lft.to/lastmile_qr_scan"}, "lon": -77.0749235, "type": "electric_scooter", "fusion_lat": 0.0, "lat": 38.91492066666667, "name": "e4a4e65a6af31c4b998d7b5cb5d21136", "fusion_lon": 0.0, "bike_id": "e4a4e65a6af31c4b998d7b5cb5d21136", "is_disabled": 0, "is_reserved": 0}, {"rental_uris": {"ios": "https://dc.lft.to/lastmile_qr_scan", "android": "https://dc.lft.to/lastmile_qr_scan"}, "lon": -77.02692116666667, "type": "electric_scooter", "fusion_lat": 0.0, "lat": 38.90843366666667, "name": "30091eaab525293893749ce0e144abbe", "fusion_lon": 0.0, "bike_id": "30091eaab525293893749ce0e144abbe", "is_disabled": 0, "is_reserved": 0}, {"rental_uris": {"ios": "https://dc.lft.to/lastmile_qr_scan", "android": "https://dc.lft.to/lastmile_qr_scan"}, "lon": -76.9938175, "type": "electric_scooter", "fusion_lat": 0.0, "lat": 38.887257, "name": "aff195633a00fe0382c6c179c8674a75", "fusion_lon": 0.0, "bike_id": "aff195633a00fe0382c6c179c8674a75", "is_disabled": 0, "is_reserved": 0}, {"rental_uris": {"ios": "https://dc.lft.to/lastmile_qr_scan", "android": "https://dc.lft.to/lastmile_qr_scan"}, "lon": -77.03627533333334, "type": "electric_scooter", "fusion_lat": 0.0, "lat": 38.918209, "name": "b7fd47e3755b9b1084a1dc3032b420aa", "fusion_lon": 0.0, "bike_id": "b7fd47e3755b9b1084a1dc3032b420aa", "is_disabled": 0, "is_reserved": 0}, {"rental_uris": {"ios": "https://dc.lft.to/lastmile_qr_scan", "android": "https://dc.lft.to/lastmile_qr_scan"}, "lon": -77.11426833333333, "type": "electric_bike", "fusion_lat": 0.0, "lat": 38.852471333333334, "name": "51cfcb963ddd60680fb9fe6d36db5df3", "fusion_lon": 0.0, "bike_id": "51cfcb963ddd60680fb9fe6d36db5df3", "is_disabled": 0, "is_reserved": 0}, {"rental_uris": {"ios": "https://dc.lft.to/lastmile_qr_scan", "android": "https://dc.lft.to/lastmile_qr_scan"}, "lon": -77.00308833333334, "type": "electric_scooter", "fusion_lat": 0.0, "lat": 38.90912866666667, "name": "6135fd9f1c7722d43ef51747d2da24f1", "fusion_lon": 0.0, "bike_id": "6135fd9f1c7722d43ef51747d2da24f1", "is_disabled": 0, "is_reserved": 0}, {"rental_uris": {"ios": "https://dc.lft.to/lastmile_qr_scan", "android": "https://dc.lft.to/lastmile_qr_scan"}, "lon": -76.96778516666667, "type": "electric_scooter", "fusion_lat": 0.0, "lat": 38.8614275, "name": "08b248c377459317be538224ac428872", "fusion_lon": 0.0, "bike_id": "08b248c377459317be538224ac428872", "is_disabled": 0, "is_reserved": 0}, {"rental_uris": {"ios": "https://dc.lft.to/lastmile_qr_scan", "android": "https://dc.lft.to/lastmile_qr_scan"}, "lon": -77.05027916666667, "type": "electric_scooter", "fusion_lat": 0.0, "lat": 38.89660133333334, "name": "5024fcc487f7ef39eb03550922dfd65a", "fusion_lon": 0.0, "bike_id": "5024fcc487f7ef39eb03550922dfd65a", "is_disabled": 0, "is_reserved": 0}, {"rental_uris": {"ios": "https://dc.lft.to/lastmile_qr_scan", "android": "https://dc.lft.to/lastmile_qr_scan"}, "lon": -77.0315595, "type": "electric_scooter", "fusion_lat": 0.0, "lat": 38.89954216666667, "name": "11b89fe1037e59cd3b82fdd5c4fc6d45", "fusion_lon": 0.0, "bike_id": "11b89fe1037e59cd3b82fdd5c4fc6d45", "is_disabled": 0, "is_reserved": 0}, {"rental_uris": {"ios": "https://dc.lft.to/lastmile_qr_scan", "android": "https://dc.lft.to/lastmile_qr_scan"}, "lon": -76.9854295, "type": "electric_scooter", "fusion_lat": 0.0, "lat": 38.904213, "name": "a4df7a123560237657777aa901593db9", "fusion_lon": 0.0, "bike_id": "a4df7a123560237657777aa901593db9", "is_disabled": 0, "is_reserved": 0}, {"rental_uris": {"ios": "https://dc.lft.to/lastmile_qr_scan", "android": "https://dc.lft.to/lastmile_qr_scan"}, "lon": -77.03236616666666, "type": "electric_scooter", "fusion_lat": 0.0, "lat": 38.927631, "name": "de224edd3534d6636a5715ff6da7008c", "fusion_lon": 0.0, "bike_id": "de224edd3534d6636a5715ff6da7008c", "is_disabled": 0, "is_reserved": 0}, {"rental_uris": {"ios": "https://dc.lft.to/lastmile_qr_scan", "android": "https://dc.lft.to/lastmile_qr_scan"}, "lon": -76.98069466666666, "type": "electric_scooter", "fusion_lat": 0.0, "lat": 38.90170533333333, "name": "337da35151f126cd1ab13a10556d8725", "fusion_lon": 0.0, "bike_id": "337da35151f126cd1ab13a10556d8725", "is_disabled": 0, "is_reserved": 0}, {"rental_uris": {"ios": "https://dc.lft.to/lastmile_qr_scan", "android": "https://dc.lft.to/lastmile_qr_scan"}, "lon": -76.939278, "type": "electric_scooter", "fusion_lat": 0.0, "lat": 38.89298683333333, "name": "11ffa36bbeb50cb2d1cedb9c6c79b0e7", "fusion_lon": 0.0, "bike_id": "11ffa36bbeb50cb2d1cedb9c6c79b0e7", "is_disabled": 0, "is_reserved": 0}, {"rental_uris": {"ios": "https://dc.lft.to/lastmile_qr_scan", "android": "https://dc.lft.to/lastmile_qr_scan"}, "lon": -77.0143415, "type": "electric_scooter", "fusion_lat": 0.0, "lat": 38.90655533333333, "name": "fe4099aadb3a8f4fe104853322be048c", "fusion_lon": 0.0, "bike_id": "fe4099aadb3a8f4fe104853322be048c", "is_disabled": 0, "is_reserved": 0}, {"rental_uris": {"ios": "https://dc.lft.to/lastmile_qr_scan", "android": "https://dc.lft.to/lastmile_qr_scan"}, "lon": -77.00712966666667, "type": "electric_scooter", "fusion_lat": 0.0, "lat": 38.884935, "name": "36e15f9031bbdc1796c209f6f9bdc54d", "fusion_lon": 0.0, "bike_id": "36e15f9031bbdc1796c209f6f9bdc54d", "is_disabled": 0, "is_reserved": 0}, {"rental_uris": {"ios": "https://dc.lft.to/lastmile_qr_scan", "android": "https://dc.lft.to/lastmile_qr_scan"}, "lon": -76.9462425, "type": "electric_bike", "fusion_lat": 0.0, "lat": 38.832370833333336, "name": "8ae51a4bab2eba7d4dd0d1da95fc9afa", "fusion_lon": 0.0, "bike_id": "8ae51a4bab2eba7d4dd0d1da95fc9afa", "is_disabled": 0, "is_reserved": 0}, {"rental_uris": {"ios": "https://dc.lft.to/lastmile_qr_scan", "android": "https://dc.lft.to/lastmile_qr_scan"}, "lon": -77.05470333333334, "type": "electric_scooter", "fusion_lat": 0.0, "lat": 38.89672183333333, "name": "aa65f4531faa66b536df14620e21ae85", "fusion_lon": 0.0, "bike_id": "aa65f4531faa66b536df14620e21ae85", "is_disabled": 0, "is_reserved": 0}, {"rental_uris": {"ios": "https://dc.lft.to/lastmile_qr_scan", "android": "https://dc.lft.to/lastmile_qr_scan"}, "lon": -77.01655083333333, "type": "electric_bike", "fusion_lat": 0.0, "lat": 38.88112133333333, "name": "c247c09f8da3e950adecf2cd67d331a4", "fusion_lon": 0.0, "bike_id": "c247c09f8da3e950adecf2cd67d331a4", "is_disabled": 0, "is_reserved": 0}, {"rental_uris": {"ios": "https://dc.lft.to/lastmile_qr_scan", "android": "https://dc.lft.to/lastmile_qr_scan"}, "lon": -77.02957866666667, "type": "electric_scooter", "fusion_lat": 0.0, "lat": 38.88752266666667, "name": "3df545bbfdd7ec4f8ec5a30fd0e14e41", "fusion_lon": 0.0, "bike_id": "3df545bbfdd7ec4f8ec5a30fd0e14e41", "is_disabled": 0, "is_reserved": 0}, {"rental_uris": {"ios": "https://dc.lft.to/lastmile_qr_scan", "android": "https://dc.lft.to/lastmile_qr_scan"}, "lon": -77.04371033333334, "type": "electric_scooter", "fusion_lat": 0.0, "lat": 38.93345816666667, "name": "7d2d51f680091ef7506e0420ed726790", "fusion_lon": 0.0, "bike_id": "7d2d51f680091ef7506e0420ed726790", "is_disabled": 0, "is_reserved": 0}, {"rental_uris": {"ios": "https://dc.lft.to/lastmile_qr_scan", "android": "https://dc.lft.to/lastmile_qr_scan"}, "lon": -77.0080295, "type": "electric_bike", "fusion_lat": 0.0, "lat": 38.94922716666667, "name": "0bee329ffd873da94e2fd31b4fcd479b", "fusion_lon": 0.0, "bike_id": "0bee329ffd873da94e2fd31b4fcd479b", "is_disabled": 0, "is_reserved": 0}, {"rental_uris": {"ios": "https://dc.lft.to/lastmile_qr_scan", "android": "https://dc.lft.to/lastmile_qr_scan"}, "lon": -77.17845166666666, "type": "electric_bike", "fusion_lat": 0.0, "lat": 39.08897833333333, "name": "28f61a13a8d2d37af62bcc88f48f55e0", "fusion_lon": 0.0, "bike_id": "28f61a13a8d2d37af62bcc88f48f55e0", "is_disabled": 0, "is_reserved": 0}, {"rental_uris": {"ios": "https://dc.lft.to/lastmile_qr_scan", "android": "https://dc.lft.to/lastmile_qr_scan"}, "lon": -77.03199633333334, "type": "electric_scooter", "fusion_lat": 0.0, "lat": 38.907535333333335, "name": "3be07c9f2abae79a2b18ff13887f3834", "fusion_lon": 0.0, "bike_id": "3be07c9f2abae79a2b18ff13887f3834", "is_disabled": 0, "is_reserved": 0}, {"rental_uris": {"ios": "https://dc.lft.to/lastmile_qr_scan", "android": "https://dc.lft.to/lastmile_qr_scan"}, "lon": -77.12626416666667, "type": "electric_bike", "fusion_lat": 0.0, "lat": 39.058113166666665, "name": "186bda0f64feebcc981b65f2c42f8c55", "fusion_lon": 0.0, "bike_id": "186bda0f64feebcc981b65f2c42f8c55", "is_disabled": 0, "is_reserved": 0}, {"rental_uris": {"ios": "https://dc.lft.to/lastmile_qr_scan", "android": "https://dc.lft.to/lastmile_qr_scan"}, "lon": -77.014045, "type": "electric_scooter", "fusion_lat": 0.0, "lat": 38.92856483333333, "name": "4902310d07be0d760f79ad4ffcc4e72f", "fusion_lon": 0.0, "bike_id": "4902310d07be0d760f79ad4ffcc4e72f", "is_disabled": 0, "is_reserved": 0}, {"rental_uris": {"ios": "https://dc.lft.to/lastmile_qr_scan", "android": "https://dc.lft.to/lastmile_qr_scan"}, "lon": -77.0393105, "type": "electric_scooter", "fusion_lat": 0.0, "lat": 38.92116716666666, "name": "1c4d42ec5f021021d6d2d92be2d0a98a", "fusion_lon": 0.0, "bike_id": "1c4d42ec5f021021d6d2d92be2d0a98a", "is_disabled": 0, "is_reserved": 0}, {"rental_uris": {"ios": "https://dc.lft.to/lastmile_qr_scan", "android": "https://dc.lft.to/lastmile_qr_scan"}, "lon": -76.97825183333333, "type": "electric_bike", "fusion_lat": 0.0, "lat": 38.846070833333336, "name": "5e9edb322849a2bbde0c5e4ac52d513e", "fusion_lon": 0.0, "bike_id": "5e9edb322849a2bbde0c5e4ac52d513e", "is_disabled": 0, "is_reserved": 0}, {"rental_uris": {"ios": "https://dc.lft.to/lastmile_qr_scan", "android": "https://dc.lft.to/lastmile_qr_scan"}, "lon": -77.0415515, "type": "electric_scooter", "fusion_lat": 0.0, "lat": 38.9148515, "name": "3ee163e3287f5c42e0ffaa3cdfad7074", "fusion_lon": 0.0, "bike_id": "3ee163e3287f5c42e0ffaa3cdfad7074", "is_disabled": 0, "is_reserved": 0}, {"rental_uris": {"ios": "https://dc.lft.to/lastmile_qr_scan", "android": "https://dc.lft.to/lastmile_qr_scan"}, "lon": -76.87825866666667, "type": "electric_bike", "fusion_lat": 0.0, "lat": 38.99230083333333, "name": "1e4310ab85dd34aed7d78c2376a8b52c", "fusion_lon": 0.0, "bike_id": "1e4310ab85dd34aed7d78c2376a8b52c", "is_disabled": 0, "is_reserved": 0}, {"rental_uris": {"ios": "https://dc.lft.to/lastmile_qr_scan", "android": "https://dc.lft.to/lastmile_qr_scan"}, "lon": -76.97746566666666, "type": "electric_scooter", "fusion_lat": 0.0, "lat": 38.90016, "name": "93b717919a76a082318c0b359b10028e", "fusion_lon": 0.0, "bike_id": "93b717919a76a082318c0b359b10028e", "is_disabled": 0, "is_reserved": 0}, {"rental_uris": {"ios": "https://dc.lft.to/lastmile_qr_scan", "android": "https://dc.lft.to/lastmile_qr_scan"}, "lon": -76.97616616666667, "type": "electric_scooter", "fusion_lat": 0.0, "lat": 38.9038435, "name": "7e25fb409285cf1488f8e284b611a14e", "fusion_lon": 0.0, "bike_id": "7e25fb409285cf1488f8e284b611a14e", "is_disabled": 0, "is_reserved": 0}, {"rental_uris": {"ios": "https://dc.lft.to/lastmile_qr_scan", "android": "https://dc.lft.to/lastmile_qr_scan"}, "lon": -77.0029315, "type": "electric_bike", "fusion_lat": 0.0, "lat": 38.9161265, "name": "b1d24beb4adb1d3bdd6286c5d0461df3", "fusion_lon": 0.0, "bike_id": "b1d24beb4adb1d3bdd6286c5d0461df3", "is_disabled": 0, "is_reserved": 0}, {"rental_uris": {"ios": "https://dc.lft.to/lastmile_qr_scan", "android": "https://dc.lft.to/lastmile_qr_scan"}, "lon": -77.02886766666667, "type": "electric_scooter", "fusion_lat": 0.0, "lat": 38.904330333333334, "name": "dba47a9bf81602a7d8abc6a9bec546ba", "fusion_lon": 0.0, "bike_id": "dba47a9bf81602a7d8abc6a9bec546ba", "is_disabled": 0, "is_reserved": 0}, {"rental_uris": {"ios": "https://dc.lft.to/lastmile_qr_scan", "android": "https://dc.lft.to/lastmile_qr_scan"}, "lon": -77.03264466666667, "type": "electric_scooter", "fusion_lat": 0.0, "lat": 38.9289895, "name": "07503b93e37e4e032f537fd38d19645c", "fusion_lon": 0.0, "bike_id": "07503b93e37e4e032f537fd38d19645c", "is_disabled": 0, "is_reserved": 0}, {"rental_uris": {"ios": "https://dc.lft.to/lastmile_qr_scan", "android": "https://dc.lft.to/lastmile_qr_scan"}, "lon": -77.0276405, "type": "electric_scooter", "fusion_lat": 0.0, "lat": 38.900174666666665, "name": "1c6a98719d7a34d4c5312f8588f13aff", "fusion_lon": 0.0, "bike_id": "1c6a98719d7a34d4c5312f8588f13aff", "is_disabled": 0, "is_reserved": 0}, {"rental_uris": {"ios": "https://dc.lft.to/lastmile_qr_scan", "android": "https://dc.lft.to/lastmile_qr_scan"}, "lon": -77.037995, "type": "electric_scooter", "fusion_lat": 0.0, "lat": 38.926429666666664, "name": "0b7775bfddda86cb48092f171770f0f0", "fusion_lon": 0.0, "bike_id": "0b7775bfddda86cb48092f171770f0f0", "is_disabled": 0, "is_reserved": 0}, {"rental_uris": {"ios": "https://dc.lft.to/lastmile_qr_scan", "android": "https://dc.lft.to/lastmile_qr_scan"}, "lon": -76.95760283333334, "type": "electric_bike", "fusion_lat": 0.0, "lat": 38.8842205, "name": "e6b860f077f6b21be3e5675f7d376e09", "fusion_lon": 0.0, "bike_id": "e6b860f077f6b21be3e5675f7d376e09", "is_disabled": 0, "is_reserved": 0}, {"rental_uris": {"ios": "https://dc.lft.to/lastmile_qr_scan", "android": "https://dc.lft.to/lastmile_qr_scan"}, "lon": -76.99521366666667, "type": "electric_scooter", "fusion_lat": 0.0, "lat": 38.89488633333333, "name": "0e7743fa3c8b1af59530240626e8bd5f", "fusion_lon": 0.0, "bike_id": "0e7743fa3c8b1af59530240626e8bd5f", "is_disabled": 0, "is_reserved": 0}, {"rental_uris": {"ios": "https://dc.lft.to/lastmile_qr_scan", "android": "https://dc.lft.to/lastmile_qr_scan"}, "lon": -76.9935945, "type": "electric_scooter", "fusion_lat": 0.0, "lat": 38.90041766666667, "name": "f6ce25494546b8de259a29907efbb0aa", "fusion_lon": 0.0, "bike_id": "f6ce25494546b8de259a29907efbb0aa", "is_disabled": 0, "is_reserved": 0}, {"rental_uris": {"ios": "https://dc.lft.to/lastmile_qr_scan", "android": "https://dc.lft.to/lastmile_qr_scan"}, "lon": -77.02474216666667, "type": "electric_scooter", "fusion_lat": 0.0, "lat": 38.937637, "name": "1598b44b7b8805c39e3d5a2732ef35c8", "fusion_lon": 0.0, "bike_id": "1598b44b7b8805c39e3d5a2732ef35c8", "is_disabled": 0, "is_reserved": 0}, {"rental_uris": {"ios": "https://dc.lft.to/lastmile_qr_scan", "android": "https://dc.lft.to/lastmile_qr_scan"}, "lon": -77.03672983333334, "type": "electric_scooter", "fusion_lat": 0.0, "lat": 38.90285016666667, "name": "dd2504334a5b837dc78e439eeef6842d", "fusion_lon": 0.0, "bike_id": "dd2504334a5b837dc78e439eeef6842d", "is_disabled": 0, "is_reserved": 0}, {"rental_uris": {"ios": "https://dc.lft.to/lastmile_qr_scan", "android": "https://dc.lft.to/lastmile_qr_scan"}, "lon": -77.04645133333334, "type": "electric_bike", "fusion_lat": 0.0, "lat": 38.852108333333334, "name": "4b289f16acf71c7adb7a8ccd6dc98a2c", "fusion_lon": 0.0, "bike_id": "4b289f16acf71c7adb7a8ccd6dc98a2c", "is_disabled": 0, "is_reserved": 0}, {"rental_uris": {"ios": "https://dc.lft.to/lastmile_qr_scan", "android": "https://dc.lft.to/lastmile_qr_scan"}, "lon": -77.04491783333333, "type": "electric_scooter", "fusion_lat": 0.0, "lat": 38.91107816666667, "name": "9911eb7d942437c84c5184c70c22b1f9", "fusion_lon": 0.0, "bike_id": "9911eb7d942437c84c5184c70c22b1f9", "is_disabled": 0, "is_reserved": 0}, {"rental_uris": {"ios": "https://dc.lft.to/lastmile_qr_scan", "android": "https://dc.lft.to/lastmile_qr_scan"}, "lon": -77.03028, "type": "electric_scooter", "fusion_lat": 0.0, "lat": 38.89608783333333, "name": "aca92f3d7e7c377595ebc9e280bc2e5e", "fusion_lon": 0.0, "bike_id": "aca92f3d7e7c377595ebc9e280bc2e5e", "is_disabled": 0, "is_reserved": 0}, {"rental_uris": {"ios": "https://dc.lft.to/lastmile_qr_scan", "android": "https://dc.lft.to/lastmile_qr_scan"}, "lon": -77.04862016666667, "type": "electric_scooter", "fusion_lat": 0.0, "lat": 38.901765833333336, "name": "7e9a67ab40e7b73388c8611ca70b73d7", "fusion_lon": 0.0, "bike_id": "7e9a67ab40e7b73388c8611ca70b73d7", "is_disabled": 0, "is_reserved": 0}, {"rental_uris": {"ios": "https://dc.lft.to/lastmile_qr_scan", "android": "https://dc.lft.to/lastmile_qr_scan"}, "lon": -77.0393125, "type": "electric_scooter", "fusion_lat": 0.0, "lat": 38.92118216666667, "name": "b56d310488fe6e33a9ed61db5754d96b", "fusion_lon": 0.0, "bike_id": "b56d310488fe6e33a9ed61db5754d96b", "is_disabled": 0, "is_reserved": 0}, {"rental_uris": {"ios": "https://dc.lft.to/lastmile_qr_scan", "android": "https://dc.lft.to/lastmile_qr_scan"}, "lon": -77.0334885, "type": "electric_scooter", "fusion_lat": 0.0, "lat": 38.89530933333333, "name": "e76b58902b3aa96d6346639e7ff8a0b0", "fusion_lon": 0.0, "bike_id": "e76b58902b3aa96d6346639e7ff8a0b0", "is_disabled": 0, "is_reserved": 0}, {"rental_uris": {"ios": "https://dc.lft.to/lastmile_qr_scan", "android": "https://dc.lft.to/lastmile_qr_scan"}, "lon": -77.05525433333334, "type": "electric_scooter", "fusion_lat": 0.0, "lat": 38.89732866666667, "name": "1bffe2a9b357efcecafa3103bdb071d4", "fusion_lon": 0.0, "bike_id": "1bffe2a9b357efcecafa3103bdb071d4", "is_disabled": 0, "is_reserved": 0}, {"rental_uris": {"ios": "https://dc.lft.to/lastmile_qr_scan", "android": "https://dc.lft.to/lastmile_qr_scan"}, "lon": -77.129667, "type": "electric_bike", "fusion_lat": 0.0, "lat": 38.807919, "name": "59043a59d7dda52a249d0a0605363805", "fusion_lon": 0.0, "bike_id": "59043a59d7dda52a249d0a0605363805", "is_disabled": 0, "is_reserved": 0}, {"rental_uris": {"ios": "https://dc.lft.to/lastmile_qr_scan", "android": "https://dc.lft.to/lastmile_qr_scan"}, "lon": -77.036471, "type": "electric_scooter", "fusion_lat": 0.0, "lat": 38.9027725, "name": "f41f5a5af425aa68d201dc05cd9a5cd1", "fusion_lon": 0.0, "bike_id": "f41f5a5af425aa68d201dc05cd9a5cd1", "is_disabled": 0, "is_reserved": 0}, {"rental_uris": {"ios": "https://dc.lft.to/lastmile_qr_scan", "android": "https://dc.lft.to/lastmile_qr_scan"}, "lon": -77.01281333333333, "type": "electric_bike", "fusion_lat": 0.0, "lat": 39.00388483333333, "name": "ef3366dd958c80f8719aedd5152fd1dc", "fusion_lon": 0.0, "bike_id": "ef3366dd958c80f8719aedd5152fd1dc", "is_disabled": 0, "is_reserved": 0}, {"rental_uris": {"ios": "https://dc.lft.to/lastmile_qr_scan", "android": "https://dc.lft.to/lastmile_qr_scan"}, "lon": -77.04664716666667, "type": "electric_scooter", "fusion_lat": 0.0, "lat": 38.93298433333333, "name": "4d3331db4fb2227b5fb57ffb240971f1", "fusion_lon": 0.0, "bike_id": "4d3331db4fb2227b5fb57ffb240971f1", "is_disabled": 0, "is_reserved": 0}, {"rental_uris": {"ios": "https://dc.lft.to/lastmile_qr_scan", "android": "https://dc.lft.to/lastmile_qr_scan"}, "lon": -76.9906575, "type": "electric_scooter", "fusion_lat": 0.0, "lat": 38.86355316666667, "name": "3a19ef0a9e4971472abcc13c188210e9", "fusion_lon": 0.0, "bike_id": "3a19ef0a9e4971472abcc13c188210e9", "is_disabled": 0, "is_reserved": 0}, {"rental_uris": {"ios": "https://dc.lft.to/lastmile_qr_scan", "android": "https://dc.lft.to/lastmile_qr_scan"}, "lon": -77.08397883333333, "type": "electric_scooter", "fusion_lat": 0.0, "lat": 38.960993333333334, "name": "0c967cc0f6925aaa111d3242434831fd", "fusion_lon": 0.0, "bike_id": "0c967cc0f6925aaa111d3242434831fd", "is_disabled": 0, "is_reserved": 0}, {"rental_uris": {"ios": "https://dc.lft.to/lastmile_qr_scan", "android": "https://dc.lft.to/lastmile_qr_scan"}, "lon": -77.02426433333333, "type": "electric_scooter", "fusion_lat": 0.0, "lat": 38.915508, "name": "a5a75fb7e937c8e407a7f8adcc69cba3", "fusion_lon": 0.0, "bike_id": "a5a75fb7e937c8e407a7f8adcc69cba3", "is_disabled": 0, "is_reserved": 0}, {"rental_uris": {"ios": "https://dc.lft.to/lastmile_qr_scan", "android": "https://dc.lft.to/lastmile_qr_scan"}, "lon": -76.932444, "type": "electric_scooter", "fusion_lat": 0.0, "lat": 38.89406916666667, "name": "3a19fa4c28403578d0f3e1ab981fe138", "fusion_lon": 0.0, "bike_id": "3a19fa4c28403578d0f3e1ab981fe138", "is_disabled": 0, "is_reserved": 0}, {"rental_uris": {"ios": "https://dc.lft.to/lastmile_qr_scan", "android": "https://dc.lft.to/lastmile_qr_scan"}, "lon": -77.01590933333334, "type": "electric_scooter", "fusion_lat": 0.0, "lat": 38.90171733333333, "name": "d44e97907b7c4508c174f479d2438e65", "fusion_lon": 0.0, "bike_id": "d44e97907b7c4508c174f479d2438e65", "is_disabled": 0, "is_reserved": 0}, {"rental_uris": {"ios": "https://dc.lft.to/lastmile_qr_scan", "android": "https://dc.lft.to/lastmile_qr_scan"}, "lon": -76.9900225, "type": "electric_scooter", "fusion_lat": 0.0, "lat": 38.865038, "name": "754e7393ca68d022f51b1a4a4a2435c8", "fusion_lon": 0.0, "bike_id": "754e7393ca68d022f51b1a4a4a2435c8", "is_disabled": 0, "is_reserved": 0}, {"rental_uris": {"ios": "https://dc.lft.to/lastmile_qr_scan", "android": "https://dc.lft.to/lastmile_qr_scan"}, "lon": -77.02368816666667, "type": "electric_scooter", "fusion_lat": 0.0, "lat": 38.903045666666664, "name": "35baedbfe83b7b08b8dd769ad7c6d288", "fusion_lon": 0.0, "bike_id": "35baedbfe83b7b08b8dd769ad7c6d288", "is_disabled": 0, "is_reserved": 0}, {"rental_uris": {"ios": "https://dc.lft.to/lastmile_qr_scan", "android": "https://dc.lft.to/lastmile_qr_scan"}, "lon": -77.01108833333333, "type": "electric_scooter", "fusion_lat": 0.0, "lat": 38.907902, "name": "035b2a49e9c7121a42e4a3b5a6a79c4e", "fusion_lon": 0.0, "bike_id": "035b2a49e9c7121a42e4a3b5a6a79c4e", "is_disabled": 0, "is_reserved": 0}, {"rental_uris": {"ios": "https://dc.lft.to/lastmile_qr_scan", "android": "https://dc.lft.to/lastmile_qr_scan"}, "lon": -77.00631183333333, "type": "electric_scooter", "fusion_lat": 0.0, "lat": 38.829274166666664, "name": "67769f9e403f5004b96ae2dd6f1a7fb5", "fusion_lon": 0.0, "bike_id": "67769f9e403f5004b96ae2dd6f1a7fb5", "is_disabled": 0, "is_reserved": 0}, {"rental_uris": {"ios": "https://dc.lft.to/lastmile_qr_scan", "android": "https://dc.lft.to/lastmile_qr_scan"}, "lon": -77.01932116666667, "type": "electric_scooter", "fusion_lat": 0.0, "lat": 38.956897, "name": "72e46b65e948bee83654c926a4a79276", "fusion_lon": 0.0, "bike_id": "72e46b65e948bee83654c926a4a79276", "is_disabled": 0, "is_reserved": 0}, {"rental_uris": {"ios": "https://dc.lft.to/lastmile_qr_scan", "android": "https://dc.lft.to/lastmile_qr_scan"}, "lon": -77.03047066666667, "type": "electric_scooter", "fusion_lat": 0.0, "lat": 38.8946585, "name": "bb603019200248c36078986d5bfc9007", "fusion_lon": 0.0, "bike_id": "bb603019200248c36078986d5bfc9007", "is_disabled": 0, "is_reserved": 0}, {"rental_uris": {"ios": "https://dc.lft.to/lastmile_qr_scan", "android": "https://dc.lft.to/lastmile_qr_scan"}, "lon": -77.02789533333333, "type": "electric_scooter", "fusion_lat": 0.0, "lat": 38.9308885, "name": "2aad892a5153e9a8fc344c36e1302407", "fusion_lon": 0.0, "bike_id": "2aad892a5153e9a8fc344c36e1302407", "is_disabled": 0, "is_reserved": 0}, {"rental_uris": {"ios": "https://dc.lft.to/lastmile_qr_scan", "android": "https://dc.lft.to/lastmile_qr_scan"}, "lon": -76.96553283333333, "type": "electric_scooter", "fusion_lat": 0.0, "lat": 38.9186615, "name": "b36b4e4c7be05da86aafd3e9367fd778", "fusion_lon": 0.0, "bike_id": "b36b4e4c7be05da86aafd3e9367fd778", "is_disabled": 0, "is_reserved": 0}, {"rental_uris": {"ios": "https://dc.lft.to/lastmile_qr_scan", "android": "https://dc.lft.to/lastmile_qr_scan"}, "lon": -77.04870666666666, "type": "electric_scooter", "fusion_lat": 0.0, "lat": 38.900742, "name": "430679134360a1937d48c7737cc8ed60", "fusion_lon": 0.0, "bike_id": "430679134360a1937d48c7737cc8ed60", "is_disabled": 0, "is_reserved": 0}, {"rental_uris": {"ios": "https://dc.lft.to/lastmile_qr_scan", "android": "https://dc.lft.to/lastmile_qr_scan"}, "lon": -77.10723, "type": "electric_bike", "fusion_lat": 0.0, "lat": 38.85554316666666, "name": "f8d9b7319495233dfe24da07e3db09b5", "fusion_lon": 0.0, "bike_id": "f8d9b7319495233dfe24da07e3db09b5", "is_disabled": 0, "is_reserved": 0}, {"rental_uris": {"ios": "https://dc.lft.to/lastmile_qr_scan", "android": "https://dc.lft.to/lastmile_qr_scan"}, "lon": -77.02363716666666, "type": "electric_scooter", "fusion_lat": 0.0, "lat": 38.937727833333334, "name": "a5d833bb34a6dd4b84520bfb4ee582a7", "fusion_lon": 0.0, "bike_id": "a5d833bb34a6dd4b84520bfb4ee582a7", "is_disabled": 0, "is_reserved": 0}, {"rental_uris": {"ios": "https://dc.lft.to/lastmile_qr_scan", "android": "https://dc.lft.to/lastmile_qr_scan"}, "lon": -77.00764533333333, "type": "electric_scooter", "fusion_lat": 0.0, "lat": 38.9076115, "name": "45f7b90053b27397bf7e21e3bfb6bf62", "fusion_lon": 0.0, "bike_id": "45f7b90053b27397bf7e21e3bfb6bf62", "is_disabled": 0, "is_reserved": 0}, {"rental_uris": {"ios": "https://dc.lft.to/lastmile_qr_scan", "android": "https://dc.lft.to/lastmile_qr_scan"}, "lon": -77.03650133333333, "type": "electric_scooter", "fusion_lat": 0.0, "lat": 38.90777833333333, "name": "f71077682b16832cf6d2277467c951bc", "fusion_lon": 0.0, "bike_id": "f71077682b16832cf6d2277467c951bc", "is_disabled": 0, "is_reserved": 0}, {"rental_uris": {"ios": "https://dc.lft.to/lastmile_qr_scan", "android": "https://dc.lft.to/lastmile_qr_scan"}, "lon": -77.02316616666667, "type": "electric_scooter", "fusion_lat": 0.0, "lat": 38.92720533333333, "name": "8363d17e5e1e55c340af2cfec16b5cba", "fusion_lon": 0.0, "bike_id": "8363d17e5e1e55c340af2cfec16b5cba", "is_disabled": 0, "is_reserved": 0}, {"rental_uris": {"ios": "https://dc.lft.to/lastmile_qr_scan", "android": "https://dc.lft.to/lastmile_qr_scan"}, "lon": -77.02185016666667, "type": "electric_scooter", "fusion_lat": 0.0, "lat": 38.905405333333334, "name": "db4cd4c7142ce993d7311bc01d643c23", "fusion_lon": 0.0, "bike_id": "db4cd4c7142ce993d7311bc01d643c23", "is_disabled": 0, "is_reserved": 0}, {"rental_uris": {"ios": "https://dc.lft.to/lastmile_qr_scan", "android": "https://dc.lft.to/lastmile_qr_scan"}, "lon": -76.95415, "type": "electric_scooter", "fusion_lat": 0.0, "lat": 38.89002633333333, "name": "c45207d58cf56b18b839698934de7454", "fusion_lon": 0.0, "bike_id": "c45207d58cf56b18b839698934de7454", "is_disabled": 0, "is_reserved": 0}, {"rental_uris": {"ios": "https://dc.lft.to/lastmile_qr_scan", "android": "https://dc.lft.to/lastmile_qr_scan"}, "lon": -77.02457933333334, "type": "electric_scooter", "fusion_lat": 0.0, "lat": 38.9365485, "name": "eed4bed9ead8f28f66c94e5248213559", "fusion_lon": 0.0, "bike_id": "eed4bed9ead8f28f66c94e5248213559", "is_disabled": 0, "is_reserved": 0}, {"rental_uris": {"ios": "https://dc.lft.to/lastmile_qr_scan", "android": "https://dc.lft.to/lastmile_qr_scan"}, "lon": -77.07122716666667, "type": "electric_scooter", "fusion_lat": 0.0, "lat": 38.91467766666667, "name": "d7570f40c0a4afcb6c3634af84f93b29", "fusion_lon": 0.0, "bike_id": "d7570f40c0a4afcb6c3634af84f93b29", "is_disabled": 0, "is_reserved": 0}, {"rental_uris": {"ios": "https://dc.lft.to/lastmile_qr_scan", "android": "https://dc.lft.to/lastmile_qr_scan"}, "lon": -77.016746, "type": "electric_bike", "fusion_lat": 0.0, "lat": 38.8812775, "name": "58c3ae00108d115989114d48618208c9", "fusion_lon": 0.0, "bike_id": "58c3ae00108d115989114d48618208c9", "is_disabled": 0, "is_reserved": 0}, {"rental_uris": {"ios": "https://dc.lft.to/lastmile_qr_scan", "android": "https://dc.lft.to/lastmile_qr_scan"}, "lon": -77.0418125, "type": "electric_scooter", "fusion_lat": 0.0, "lat": 38.906082166666664, "name": "ce84990ff5c118b1cb933b04e925b504", "fusion_lon": 0.0, "bike_id": "ce84990ff5c118b1cb933b04e925b504", "is_disabled": 0, "is_reserved": 0}, {"rental_uris": {"ios": "https://dc.lft.to/lastmile_qr_scan", "android": "https://dc.lft.to/lastmile_qr_scan"}, "lon": -77.0160255, "type": "electric_scooter", "fusion_lat": 0.0, "lat": 38.9101075, "name": "b7a0d5ce75260bb7395b47d4f8694fab", "fusion_lon": 0.0, "bike_id": "b7a0d5ce75260bb7395b47d4f8694fab", "is_disabled": 0, "is_reserved": 0}, {"rental_uris": {"ios": "https://dc.lft.to/lastmile_qr_scan", "android": "https://dc.lft.to/lastmile_qr_scan"}, "lon": -76.99683416666667, "type": "electric_scooter", "fusion_lat": 0.0, "lat": 38.886878333333335, "name": "0009f112f160186eb02ae54734b7fc03", "fusion_lon": 0.0, "bike_id": "0009f112f160186eb02ae54734b7fc03", "is_disabled": 0, "is_reserved": 0}, {"rental_uris": {"ios": "https://dc.lft.to/lastmile_qr_scan", "android": "https://dc.lft.to/lastmile_qr_scan"}, "lon": -77.02478033333334, "type": "electric_scooter", "fusion_lat": 0.0, "lat": 38.9181795, "name": "513dfec1e4726519c8879d3cad07d516", "fusion_lon": 0.0, "bike_id": "513dfec1e4726519c8879d3cad07d516", "is_disabled": 0, "is_reserved": 0}, {"rental_uris": {"ios": "https://dc.lft.to/lastmile_qr_scan", "android": "https://dc.lft.to/lastmile_qr_scan"}, "lon": -77.04335516666667, "type": "electric_scooter", "fusion_lat": 0.0, "lat": 38.92789166666667, "name": "0814dc5f4bbe84e753003f4d2ce08167", "fusion_lon": 0.0, "bike_id": "0814dc5f4bbe84e753003f4d2ce08167", "is_disabled": 0, "is_reserved": 0}, {"rental_uris": {"ios": "https://dc.lft.to/lastmile_qr_scan", "android": "https://dc.lft.to/lastmile_qr_scan"}, "lon": -76.9575955, "type": "electric_scooter", "fusion_lat": 0.0, "lat": 38.886829, "name": "d77283afe15ed0592dcc89d77264182a", "fusion_lon": 0.0, "bike_id": "d77283afe15ed0592dcc89d77264182a", "is_disabled": 0, "is_reserved": 0}, {"rental_uris": {"ios": "https://dc.lft.to/lastmile_qr_scan", "android": "https://dc.lft.to/lastmile_qr_scan"}, "lon": -77.02710883333333, "type": "electric_scooter", "fusion_lat": 0.0, "lat": 38.9066985, "name": "a9f2068fab19b5ca5db14b6087926abc", "fusion_lon": 0.0, "bike_id": "a9f2068fab19b5ca5db14b6087926abc", "is_disabled": 0, "is_reserved": 0}, {"rental_uris": {"ios": "https://dc.lft.to/lastmile_qr_scan", "android": "https://dc.lft.to/lastmile_qr_scan"}, "lon": -77.02119333333333, "type": "electric_scooter", "fusion_lat": 0.0, "lat": 38.937010666666666, "name": "a9ade649ce861c754adc9fa57bb84528", "fusion_lon": 0.0, "bike_id": "a9ade649ce861c754adc9fa57bb84528", "is_disabled": 0, "is_reserved": 0}, {"rental_uris": {"ios": "https://dc.lft.to/lastmile_qr_scan", "android": "https://dc.lft.to/lastmile_qr_scan"}, "lon": -76.9588505, "type": "electric_scooter", "fusion_lat": 0.0, "lat": 38.858511666666665, "name": "8c58491d3d5698eeae505bf8af352753", "fusion_lon": 0.0, "bike_id": "8c58491d3d5698eeae505bf8af352753", "is_disabled": 0, "is_reserved": 0}, {"rental_uris": {"ios": "https://dc.lft.to/lastmile_qr_scan", "android": "https://dc.lft.to/lastmile_qr_scan"}, "lon": -77.06540566666666, "type": "electric_scooter", "fusion_lat": 0.0, "lat": 38.9049085, "name": "f9f2cf838386fddac49dccd7bf77a077", "fusion_lon": 0.0, "bike_id": "f9f2cf838386fddac49dccd7bf77a077", "is_disabled": 0, "is_reserved": 0}, {"rental_uris": {"ios": "https://dc.lft.to/lastmile_qr_scan", "android": "https://dc.lft.to/lastmile_qr_scan"}, "lon": -77.04669966666667, "type": "electric_scooter", "fusion_lat": 0.0, "lat": 38.9075615, "name": "244f7f27ee332ae0c090e32260d531c1", "fusion_lon": 0.0, "bike_id": "244f7f27ee332ae0c090e32260d531c1", "is_disabled": 0, "is_reserved": 0}, {"rental_uris": {"ios": "https://dc.lft.to/lastmile_qr_scan", "android": "https://dc.lft.to/lastmile_qr_scan"}, "lon": -77.04492666666667, "type": "electric_scooter", "fusion_lat": 0.0, "lat": 38.90011716666667, "name": "824d1249629ea673810000259a40769c", "fusion_lon": 0.0, "bike_id": "824d1249629ea673810000259a40769c", "is_disabled": 0, "is_reserved": 0}, {"rental_uris": {"ios": "https://dc.lft.to/lastmile_qr_scan", "android": "https://dc.lft.to/lastmile_qr_scan"}, "lon": -77.006581, "type": "electric_scooter", "fusion_lat": 0.0, "lat": 38.91198716666667, "name": "d36022af767ed015739fbb419b33e026", "fusion_lon": 0.0, "bike_id": "d36022af767ed015739fbb419b33e026", "is_disabled": 0, "is_reserved": 0}, {"rental_uris": {"ios": "https://dc.lft.to/lastmile_qr_scan", "android": "https://dc.lft.to/lastmile_qr_scan"}, "lon": -77.0610515, "type": "electric_scooter", "fusion_lat": 0.0, "lat": 38.9370895, "name": "bb57956ed35f7c6cf0c5d95a8403d924", "fusion_lon": 0.0, "bike_id": "bb57956ed35f7c6cf0c5d95a8403d924", "is_disabled": 0, "is_reserved": 0}, {"rental_uris": {"ios": "https://dc.lft.to/lastmile_qr_scan", "android": "https://dc.lft.to/lastmile_qr_scan"}, "lon": -76.99671966666666, "type": "electric_scooter", "fusion_lat": 0.0, "lat": 38.910180833333335, "name": "3c13cab8de9a7394db6d6bcdf2105573", "fusion_lon": 0.0, "bike_id": "3c13cab8de9a7394db6d6bcdf2105573", "is_disabled": 0, "is_reserved": 0}, {"rental_uris": {"ios": "https://dc.lft.to/lastmile_qr_scan", "android": "https://dc.lft.to/lastmile_qr_scan"}, "lon": -76.99519466666666, "type": "electric_scooter", "fusion_lat": 0.0, "lat": 38.894891, "name": "2c8d001ed955731e5732751ad570a321", "fusion_lon": 0.0, "bike_id": "2c8d001ed955731e5732751ad570a321", "is_disabled": 0, "is_reserved": 0}, {"rental_uris": {"ios": "https://dc.lft.to/lastmile_qr_scan", "android": "https://dc.lft.to/lastmile_qr_scan"}, "lon": -77.02609916666667, "type": "electric_scooter", "fusion_lat": 0.0, "lat": 38.916961, "name": "48097ffde2f51b91333ed1d3256b2b89", "fusion_lon": 0.0, "bike_id": "48097ffde2f51b91333ed1d3256b2b89", "is_disabled": 0, "is_reserved": 0}, {"rental_uris": {"ios": "https://dc.lft.to/lastmile_qr_scan", "android": "https://dc.lft.to/lastmile_qr_scan"}, "lon": -77.02721983333333, "type": "electric_scooter", "fusion_lat": 0.0, "lat": 38.93435, "name": "ab4f0c7bdb5724bdba0ea846cb39ba33", "fusion_lon": 0.0, "bike_id": "ab4f0c7bdb5724bdba0ea846cb39ba33", "is_disabled": 0, "is_reserved": 0}, {"rental_uris": {"ios": "https://dc.lft.to/lastmile_qr_scan", "android": "https://dc.lft.to/lastmile_qr_scan"}, "lon": -76.99557183333333, "type": "electric_scooter", "fusion_lat": 0.0, "lat": 38.928793666666664, "name": "967d621ad02c09d9bb65c204a7360371", "fusion_lon": 0.0, "bike_id": "967d621ad02c09d9bb65c204a7360371", "is_disabled": 0, "is_reserved": 0}, {"rental_uris": {"ios": "https://dc.lft.to/lastmile_qr_scan", "android": "https://dc.lft.to/lastmile_qr_scan"}, "lon": -76.9386645, "type": "electric_scooter", "fusion_lat": 0.0, "lat": 38.9008515, "name": "f7d64904e5925befa99dc09cf2ede542", "fusion_lon": 0.0, "bike_id": "f7d64904e5925befa99dc09cf2ede542", "is_disabled": 0, "is_reserved": 0}, {"rental_uris": {"ios": "https://dc.lft.to/lastmile_qr_scan", "android": "https://dc.lft.to/lastmile_qr_scan"}, "lon": -76.98653633333333, "type": "electric_scooter", "fusion_lat": 0.0, "lat": 38.85807766666667, "name": "1899e48b49660ca595ad3de6d795aa2e", "fusion_lon": 0.0, "bike_id": "1899e48b49660ca595ad3de6d795aa2e", "is_disabled": 0, "is_reserved": 0}, {"rental_uris": {"ios": "https://dc.lft.to/lastmile_qr_scan", "android": "https://dc.lft.to/lastmile_qr_scan"}, "lon": -76.99610733333333, "type": "electric_scooter", "fusion_lat": 0.0, "lat": 38.897428833333336, "name": "33078d401a7b4f17464416da6ca38923", "fusion_lon": 0.0, "bike_id": "33078d401a7b4f17464416da6ca38923", "is_disabled": 0, "is_reserved": 0}, {"rental_uris": {"ios": "https://dc.lft.to/lastmile_qr_scan", "android": "https://dc.lft.to/lastmile_qr_scan"}, "lon": -77.03898483333333, "type": "electric_scooter", "fusion_lat": 0.0, "lat": 38.91842916666667, "name": "395cfe263c9c48b8c610dfbfb00d92b1", "fusion_lon": 0.0, "bike_id": "395cfe263c9c48b8c610dfbfb00d92b1", "is_disabled": 0, "is_reserved": 0}, {"rental_uris": {"ios": "https://dc.lft.to/lastmile_qr_scan", "android": "https://dc.lft.to/lastmile_qr_scan"}, "lon": -76.98449183333334, "type": "electric_scooter", "fusion_lat": 0.0, "lat": 38.9147405, "name": "4fce3018019357d5a895fd220d5ff1ab", "fusion_lon": 0.0, "bike_id": "4fce3018019357d5a895fd220d5ff1ab", "is_disabled": 0, "is_reserved": 0}, {"rental_uris": {"ios": "https://dc.lft.to/lastmile_qr_scan", "android": "https://dc.lft.to/lastmile_qr_scan"}, "lon": -76.9655925, "type": "electric_scooter", "fusion_lat": 0.0, "lat": 38.91885766666667, "name": "e66140042448071d84159054364a1a05", "fusion_lon": 0.0, "bike_id": "e66140042448071d84159054364a1a05", "is_disabled": 0, "is_reserved": 0}, {"rental_uris": {"ios": "https://dc.lft.to/lastmile_qr_scan", "android": "https://dc.lft.to/lastmile_qr_scan"}, "lon": -76.99361533333334, "type": "electric_scooter", "fusion_lat": 0.0, "lat": 38.90038883333333, "name": "53f5369551d488e2de39ec5de450a752", "fusion_lon": 0.0, "bike_id": "53f5369551d488e2de39ec5de450a752", "is_disabled": 0, "is_reserved": 0}, {"rental_uris": {"ios": "https://dc.lft.to/lastmile_qr_scan", "android": "https://dc.lft.to/lastmile_qr_scan"}, "lon": -76.99823416666666, "type": "electric_scooter", "fusion_lat": 0.0, "lat": 38.900233666666665, "name": "d8b22cdf82990029cf794823eb779a3a", "fusion_lon": 0.0, "bike_id": "d8b22cdf82990029cf794823eb779a3a", "is_disabled": 0, "is_reserved": 0}, {"rental_uris": {"ios": "https://dc.lft.to/lastmile_qr_scan", "android": "https://dc.lft.to/lastmile_qr_scan"}, "lon": -77.05760733333334, "type": "electric_scooter", "fusion_lat": 0.0, "lat": 38.924655, "name": "a949f06814b9164d74b66c04a5bdc907", "fusion_lon": 0.0, "bike_id": "a949f06814b9164d74b66c04a5bdc907", "is_disabled": 0, "is_reserved": 0}, {"rental_uris": {"ios": "https://dc.lft.to/lastmile_qr_scan", "android": "https://dc.lft.to/lastmile_qr_scan"}, "lon": -77.02718366666667, "type": "electric_scooter", "fusion_lat": 0.0, "lat": 38.91819183333333, "name": "3128ea68f4dc03d4ed5edb4865350f8b", "fusion_lon": 0.0, "bike_id": "3128ea68f4dc03d4ed5edb4865350f8b", "is_disabled": 0, "is_reserved": 0}, {"rental_uris": {"ios": "https://dc.lft.to/lastmile_qr_scan", "android": "https://dc.lft.to/lastmile_qr_scan"}, "lon": -77.0344675, "type": "electric_scooter", "fusion_lat": 0.0, "lat": 38.907371499999996, "name": "983416285748af711a4b3706438f7af6", "fusion_lon": 0.0, "bike_id": "983416285748af711a4b3706438f7af6", "is_disabled": 0, "is_reserved": 0}, {"rental_uris": {"ios": "https://dc.lft.to/lastmile_qr_scan", "android": "https://dc.lft.to/lastmile_qr_scan"}, "lon": -77.02463266666666, "type": "electric_scooter", "fusion_lat": 0.0, "lat": 38.90251683333334, "name": "36313210816e4e71c794a76bc99b0b2a", "fusion_lon": 0.0, "bike_id": "36313210816e4e71c794a76bc99b0b2a", "is_disabled": 0, "is_reserved": 0}, {"rental_uris": {"ios": "https://dc.lft.to/lastmile_qr_scan", "android": "https://dc.lft.to/lastmile_qr_scan"}, "lon": -77.0445715, "type": "electric_scooter", "fusion_lat": 0.0, "lat": 38.90581933333333, "name": "3ae244c21dd04228bd92a7a5bc66efa1", "fusion_lon": 0.0, "bike_id": "3ae244c21dd04228bd92a7a5bc66efa1", "is_disabled": 0, "is_reserved": 0}, {"rental_uris": {"ios": "https://dc.lft.to/lastmile_qr_scan", "android": "https://dc.lft.to/lastmile_qr_scan"}, "lon": -77.01120716666667, "type": "electric_scooter", "fusion_lat": 0.0, "lat": 38.9118175, "name": "426eeb67574aa4c09a77f537b1ccec8c", "fusion_lon": 0.0, "bike_id": "426eeb67574aa4c09a77f537b1ccec8c", "is_disabled": 0, "is_reserved": 0}, {"rental_uris": {"ios": "https://dc.lft.to/lastmile_qr_scan", "android": "https://dc.lft.to/lastmile_qr_scan"}, "lon": -77.04867666666667, "type": "electric_scooter", "fusion_lat": 0.0, "lat": 38.90949166666667, "name": "6032ce7a3da1c78b30ce4b1c938f3396", "fusion_lon": 0.0, "bike_id": "6032ce7a3da1c78b30ce4b1c938f3396", "is_disabled": 0, "is_reserved": 0}, {"rental_uris": {"ios": "https://dc.lft.to/lastmile_qr_scan", "android": "https://dc.lft.to/lastmile_qr_scan"}, "lon": -77.02694383333333, "type": "electric_scooter", "fusion_lat": 0.0, "lat": 38.91866016666667, "name": "7c40e485558b03d968a27b47b48547ba", "fusion_lon": 0.0, "bike_id": "7c40e485558b03d968a27b47b48547ba", "is_disabled": 0, "is_reserved": 0}, {"rental_uris": {"ios": "https://dc.lft.to/lastmile_qr_scan", "android": "https://dc.lft.to/lastmile_qr_scan"}, "lon": -76.89539333333333, "type": "electric_bike", "fusion_lat": 0.0, "lat": 38.945546, "name": "2f2d584b185f157537a7537973d82309", "fusion_lon": 0.0, "bike_id": "2f2d584b185f157537a7537973d82309", "is_disabled": 0, "is_reserved": 0}, {"rental_uris": {"ios": "https://dc.lft.to/lastmile_qr_scan", "android": "https://dc.lft.to/lastmile_qr_scan"}, "lon": -77.02961883333333, "type": "electric_scooter", "fusion_lat": 0.0, "lat": 38.9252235, "name": "deda099c6d4ec405032574689408c1fb", "fusion_lon": 0.0, "bike_id": "deda099c6d4ec405032574689408c1fb", "is_disabled": 0, "is_reserved": 0}, {"rental_uris": {"ios": "https://dc.lft.to/lastmile_qr_scan", "android": "https://dc.lft.to/lastmile_qr_scan"}, "lon": -77.045443, "type": "electric_scooter", "fusion_lat": 0.0, "lat": 38.904033166666665, "name": "532be1878b54ac4866fada6c979dc518", "fusion_lon": 0.0, "bike_id": "532be1878b54ac4866fada6c979dc518", "is_disabled": 0, "is_reserved": 0}, {"rental_uris": {"ios": "https://dc.lft.to/lastmile_qr_scan", "android": "https://dc.lft.to/lastmile_qr_scan"}, "lon": -77.027604, "type": "electric_scooter", "fusion_lat": 0.0, "lat": 38.9170575, "name": "17834352f4263b78da790e5d444ad8ee", "fusion_lon": 0.0, "bike_id": "17834352f4263b78da790e5d444ad8ee", "is_disabled": 0, "is_reserved": 0}, {"rental_uris": {"ios": "https://dc.lft.to/lastmile_qr_scan", "android": "https://dc.lft.to/lastmile_qr_scan"}, "lon": -77.04819033333334, "type": "electric_scooter", "fusion_lat": 0.0, "lat": 38.897358833333335, "name": "0f40bcadd816eec907629dc7f714841d", "fusion_lon": 0.0, "bike_id": "0f40bcadd816eec907629dc7f714841d", "is_disabled": 0, "is_reserved": 0}, {"rental_uris": {"ios": "https://dc.lft.to/lastmile_qr_scan", "android": "https://dc.lft.to/lastmile_qr_scan"}, "lon": -77.01216683333334, "type": "electric_scooter", "fusion_lat": 0.0, "lat": 38.920354333333336, "name": "d6bfafbb0ce0829ddf104346678fe9b6", "fusion_lon": 0.0, "bike_id": "d6bfafbb0ce0829ddf104346678fe9b6", "is_disabled": 0, "is_reserved": 0}, {"rental_uris": {"ios": "https://dc.lft.to/lastmile_qr_scan", "android": "https://dc.lft.to/lastmile_qr_scan"}, "lon": -77.023888, "type": "electric_scooter", "fusion_lat": 0.0, "lat": 38.91959166666667, "name": "eb3aff60d6c7b370dea6845521b4d9fe", "fusion_lon": 0.0, "bike_id": "eb3aff60d6c7b370dea6845521b4d9fe", "is_disabled": 0, "is_reserved": 0}, {"rental_uris": {"ios": "https://dc.lft.to/lastmile_qr_scan", "android": "https://dc.lft.to/lastmile_qr_scan"}, "lon": -76.99158016666667, "type": "electric_scooter", "fusion_lat": 0.0, "lat": 38.8934155, "name": "dfd6d02b214f5bbec59592290d8fe802", "fusion_lon": 0.0, "bike_id": "dfd6d02b214f5bbec59592290d8fe802", "is_disabled": 0, "is_reserved": 0}, {"rental_uris": {"ios": "https://dc.lft.to/lastmile_qr_scan", "android": "https://dc.lft.to/lastmile_qr_scan"}, "lon": -77.05519133333334, "type": "electric_scooter", "fusion_lat": 0.0, "lat": 38.910607666666664, "name": "9ba4bf65af6d9c3c8801df16dfb8e6cf", "fusion_lon": 0.0, "bike_id": "9ba4bf65af6d9c3c8801df16dfb8e6cf", "is_disabled": 0, "is_reserved": 0}, {"rental_uris": {"ios": "https://dc.lft.to/lastmile_qr_scan", "android": "https://dc.lft.to/lastmile_qr_scan"}, "lon": -77.0298065, "type": "electric_scooter", "fusion_lat": 0.0, "lat": 38.91633016666667, "name": "90523150ab614b80434b0b9cd86c3974", "fusion_lon": 0.0, "bike_id": "90523150ab614b80434b0b9cd86c3974", "is_disabled": 0, "is_reserved": 0}, {"rental_uris": {"ios": "https://dc.lft.to/lastmile_qr_scan", "android": "https://dc.lft.to/lastmile_qr_scan"}, "lon": -77.03562133333334, "type": "electric_scooter", "fusion_lat": 0.0, "lat": 38.9180715, "name": "deef748766edffd2d9b2e323269d6fe1", "fusion_lon": 0.0, "bike_id": "deef748766edffd2d9b2e323269d6fe1", "is_disabled": 0, "is_reserved": 0}, {"rental_uris": {"ios": "https://dc.lft.to/lastmile_qr_scan", "android": "https://dc.lft.to/lastmile_qr_scan"}, "lon": -77.00988983333333, "type": "electric_scooter", "fusion_lat": 0.0, "lat": 38.8728125, "name": "eac2bf22f53bf55fdf4342a86fb56038", "fusion_lon": 0.0, "bike_id": "eac2bf22f53bf55fdf4342a86fb56038", "is_disabled": 0, "is_reserved": 0}, {"rental_uris": {"ios": "https://dc.lft.to/lastmile_qr_scan", "android": "https://dc.lft.to/lastmile_qr_scan"}, "lon": -77.036602, "type": "electric_scooter", "fusion_lat": 0.0, "lat": 38.922145666666665, "name": "46c428d383e365293d08f05267b464d9", "fusion_lon": 0.0, "bike_id": "46c428d383e365293d08f05267b464d9", "is_disabled": 0, "is_reserved": 0}, {"rental_uris": {"ios": "https://dc.lft.to/lastmile_qr_scan", "android": "https://dc.lft.to/lastmile_qr_scan"}, "lon": -77.04204616666667, "type": "electric_scooter", "fusion_lat": 0.0, "lat": 38.91108583333333, "name": "43d4c843cf985169a1630e7a83df2312", "fusion_lon": 0.0, "bike_id": "43d4c843cf985169a1630e7a83df2312", "is_disabled": 0, "is_reserved": 0}, {"rental_uris": {"ios": "https://dc.lft.to/lastmile_qr_scan", "android": "https://dc.lft.to/lastmile_qr_scan"}, "lon": -77.0663615, "type": "electric_scooter", "fusion_lat": 0.0, "lat": 38.928053, "name": "e17e4323c7bb123a95c0731cc2fc4849", "fusion_lon": 0.0, "bike_id": "e17e4323c7bb123a95c0731cc2fc4849", "is_disabled": 0, "is_reserved": 0}, {"rental_uris": {"ios": "https://dc.lft.to/lastmile_qr_scan", "android": "https://dc.lft.to/lastmile_qr_scan"},