{"data": {"bikes": [{"rental_uris": {"ios": "https://dc.lft.to/lastmile_qr_scan", "android": "https://dc.lft.to/lastmile_qr_scan"}, "type": "electric_scooter", "name": "5165332e8ace31d22c6246e8b5a4badd", "is_reserved": 0, "lon": -77.04637716666667, "is_disabled": 0, "fusion_lat": 0.0, "lat": 38.90672266666667, "bike_id": "5165332e8ace31d22c6246e8b5a4badd", "fusion_lon": 0.0}, {"rental_uris": {"ios": "https://dc.lft.to/lastmile_qr_scan", "android": "https://dc.lft.to/lastmile_qr_scan"}, "type": "electric_scooter", "name": "d240fd936d11f3f969fb5f6ad3911ed9", "is_reserved": 0, "lon": -77.04886983333333, "is_disabled": 0, "fusion_lat": 0.0, "lat": 38.901224666666664, "bike_id": "d240fd936d11f3f969fb5f6ad3911ed9", "fusion_lon": 0.0}, {"rental_uris": {"ios": "https://dc.lft.to/lastmile_qr_scan", "android": "https://dc.lft.to/lastmile_qr_scan"}, "type": "electric_scooter", "name": "a2f68b90507cb659539536feef3e7c84", "is_reserved": 0, "lon": -77.02706133333334, "is_disabled": 0, "fusion_lat": 0.0, "lat": 38.90001066666667, "bike_id": "a2f68b90507cb659539536feef3e7c84", "fusion_lon": 0.0}, {"rental_uris": {"ios": "https://dc.lft.to/lastmile_qr_scan", "android": "https://dc.lft.to/lastmile_qr_scan"}, "type": "electric_scooter", "name": "26f17bc8bbf7d2c9b47f6cfe199d655a", "is_reserved": 0, "lon": -77.05260183333333, "is_disabled": 0, "fusion_lat": 0.0, "lat": 38.92562133333333, "bike_id": "26f17bc8bbf7d2c9b47f6cfe199d655a", "fusion_lon": 0.0}, {"rental_uris": {"ios": "https://dc.lft.to/lastmile_qr_scan", "android": "https://dc.lft.to/lastmile_qr_scan"}, "type": "electric_scooter", "name": "9f4e069f1dc78901dec327bb99fd00b3", "is_reserved": 0, "lon": -77.03884216666667, "is_disabled": 0, "fusion_lat": 0.0, "lat": 38.934008166666665, "bike_id": "9f4e069f1dc78901dec327bb99fd00b3", "fusion_lon": 0.0}, {"rental_uris": {"ios": "https://dc.lft.to/lastmile_qr_scan", "android": "https://dc.lft.to/lastmile_qr_scan"}, "type": "electric_scooter", "name": "af48b19f79f46f981601cd9c2898afd8", "is_reserved": 0, "lon": -77.02818266666667, "is_disabled": 0, "fusion_lat": 0.0, "lat": 38.912587, "bike_id": "af48b19f79f46f981601cd9c2898afd8", "fusion_lon": 0.0}, {"rental_uris": {"ios": "https://dc.lft.to/lastmile_qr_scan", "android": "https://dc.lft.to/lastmile_qr_scan"}, "type": "electric_scooter", "name": "34de0fae9b803f73643229173a5a3dfa", "is_reserved": 0, "lon": -77.03320033333334, "is_disabled": 0, "fusion_lat": 0.0, "lat": 38.91810266666667, "bike_id": "34de0fae9b803f73643229173a5a3dfa", "fusion_lon": 0.0}, {"rental_uris": {"ios": "https://dc.lft.to/lastmile_qr_scan", "android": "https://dc.lft.to/lastmile_qr_scan"}, "type": "electric_scooter", "name": "2f70db8d95112ad9b0ed8a6455ae574b", "is_reserved": 0, "lon": -77.0465885, "is_disabled": 0, "fusion_lat": 0.0, "lat": 38.921173333333336, "bike_id": "2f70db8d95112ad9b0ed8a6455ae574b", "fusion_lon": 0.0}, {"rental_uris": {"ios": "https://dc.lft.to/lastmile_qr_scan", "android": "https://dc.lft.to/lastmile_qr_scan"}, "type": "electric_scooter", "name": "4dee7174bae4a35704a2d768ab044a3b", "is_reserved": 0, "lon": -77.026531, "is_disabled": 0, "fusion_lat": 0.0, "lat": 38.881158166666665, "bike_id": "4dee7174bae4a35704a2d768ab044a3b", "fusion_lon": 0.0}, {"rental_uris": {"ios": "https://dc.lft.to/lastmile_qr_scan", "android": "https://dc.lft.to/lastmile_qr_scan"}, "type": "electric_scooter", "name": "d8544a66538b8c128463b9ab5fcda3b7", "is_reserved": 0, "lon": -77.01890283333333, "is_disabled": 0, "fusion_lat": 0.0, "lat": 38.90708766666667, "bike_id": "d8544a66538b8c128463b9ab5fcda3b7", "fusion_lon": 0.0}, {"rental_uris": {"ios": "https://dc.lft.to/lastmile_qr_scan", "android": "https://dc.lft.to/lastmile_qr_scan"}, "type": "electric_scooter", "name": "03b000c66e2c11dc5766d75460abf0bb", "is_reserved": 0, "lon": -77.0035145, "is_disabled": 0, "fusion_lat": 0.0, "lat": 38.89649683333333, "bike_id": "03b000c66e2c11dc5766d75460abf0bb", "fusion_lon": 0.0}, {"rental_uris": {"ios": "https://dc.lft.to/lastmile_qr_scan", "android": "https://dc.lft.to/lastmile_qr_scan"}, "type": "electric_scooter", "name": "21028599f24b0570c3be443b459e3939", "is_reserved": 0, "lon": -77.01230716666667, "is_disabled": 0, "fusion_lat": 0.0, "lat": 38.90169783333333, "bike_id": "21028599f24b0570c3be443b459e3939", "fusion_lon": 0.0}, {"rental_uris": {"ios": "https://dc.lft.to/lastmile_qr_scan", "android": "https://dc.lft.to/lastmile_qr_scan"}, "type": "electric_scooter", "name": "037ff143901176fa2616c2a3a7247c34", "is_reserved": 0, "lon": -76.97359966666667, "is_disabled": 0, "fusion_lat": 0.0, "lat": 38.8500715, "bike_id": "037ff143901176fa2616c2a3a7247c34", "fusion_lon": 0.0}, {"rental_uris": {"ios": "https://dc.lft.to/lastmile_qr_scan", "android": "https://dc.lft.to/lastmile_qr_scan"}, "type": "electric_scooter", "name": "b4dd95694c16ea9ec78e70d2db01eff4", "is_reserved": 0, "lon": -76.983174, "is_disabled": 0, "fusion_lat": 0.0, "lat": 38.878309333333334, "bike_id": "b4dd95694c16ea9ec78e70d2db01eff4", "fusion_lon": 0.0}, {"rental_uris": {"ios": "https://dc.lft.to/lastmile_qr_scan", "android": "https://dc.lft.to/lastmile_qr_scan"}, "type": "electric_scooter", "name": "06b43422db73df0c60631b58cff7a5b0", "is_reserved": 0, "lon": -77.0384525, "is_disabled": 0, "fusion_lat": 0.0, "lat": 38.9039735, "bike_id": "06b43422db73df0c60631b58cff7a5b0", "fusion_lon": 0.0}, {"rental_uris": {"ios": "https://dc.lft.to/lastmile_qr_scan", "android": "https://dc.lft.to/lastmile_qr_scan"}, "type": "electric_scooter", "name": "62f87c2e47cd947d3bbf801a94370f29", "is_reserved": 0, "lon": -77.0176875, "is_disabled": 0, "fusion_lat": 0.0, "lat": 38.887267, "bike_id": "62f87c2e47cd947d3bbf801a94370f29", "fusion_lon": 0.0}, {"rental_uris": {"ios": "https://dc.lft.to/lastmile_qr_scan", "android": "https://dc.lft.to/lastmile_qr_scan"}, "type": "electric_scooter", "name": "7a643945899252d95325e2e1d5fec3c8", "is_reserved": 0, "lon": -76.98912033333333, "is_disabled": 0, "fusion_lat": 0.0, "lat": 38.9000945, "bike_id": "7a643945899252d95325e2e1d5fec3c8", "fusion_lon": 0.0}, {"rental_uris": {"ios": "https://dc.lft.to/lastmile_qr_scan", "android": "https://dc.lft.to/lastmile_qr_scan"}, "type": "electric_scooter", "name": "209a39e7c28cfe5a72bb14b37f7f844f", "is_reserved": 0, "lon": -77.02716133333334, "is_disabled": 0, "fusion_lat": 0.0, "lat": 38.910163, "bike_id": "209a39e7c28cfe5a72bb14b37f7f844f", "fusion_lon": 0.0}, {"rental_uris": {"ios": "https://dc.lft.to/lastmile_qr_scan", "android": "https://dc.lft.to/lastmile_qr_scan"}, "type": "electric_scooter", "name": "8d83d8f0796fa23ea95e44ebefb2f85f", "is_reserved": 0, "lon": -76.98704883333333, "is_disabled": 0, "fusion_lat": 0.0, "lat": 38.859667, "bike_id": "8d83d8f0796fa23ea95e44ebefb2f85f", "fusion_lon": 0.0}, {"rental_uris": {"ios": "https://dc.lft.to/lastmile_qr_scan", "android": "https://dc.lft.to/lastmile_qr_scan"}, "type": "electric_scooter", "name": "808eb80ad0d148421a2180537b4bd507", "is_reserved": 0, "lon": -77.012406, "is_disabled": 0, "fusion_lat": 0.0, "lat": 38.86977533333334, "bike_id": "808eb80ad0d148421a2180537b4bd507", "fusion_lon": 0.0}, {"rental_uris": {"ios": "https://dc.lft.to/lastmile_qr_scan", "android": "https://dc.lft.to/lastmile_qr_scan"}, "type": "electric_bike", "name": "fc046e663ca71f06735396b62206a655", "is_reserved": 0, "lon": -77.05499666666667, "is_disabled": 0, "fusion_lat": 0.0, "lat": 38.90848916666667, "bike_id": "fc046e663ca71f06735396b62206a655", "fusion_lon": 0.0}, {"rental_uris": {"ios": "https://dc.lft.to/lastmile_qr_scan", "android": "https://dc.lft.to/lastmile_qr_scan"}, "type": "electric_scooter", "name": "ac4c10673e5b327b953e5a954257de1b", "is_reserved": 0, "lon": -77.04139866666667, "is_disabled": 0, "fusion_lat": 0.0, "lat": 38.930479166666665, "bike_id": "ac4c10673e5b327b953e5a954257de1b", "fusion_lon": 0.0}, {"rental_uris": {"ios": "https://dc.lft.to/lastmile_qr_scan", "android": "https://dc.lft.to/lastmile_qr_scan"}, "type": "electric_scooter", "name": "d0b28d26b14f61ac6a98e56baf063229", "is_reserved": 0, "lon": -77.031871, "is_disabled": 0, "fusion_lat": 0.0, "lat": 38.907912333333336, "bike_id": "d0b28d26b14f61ac6a98e56baf063229", "fusion_lon": 0.0}, {"rental_uris": {"ios": "https://dc.lft.to/lastmile_qr_scan", "android": "https://dc.lft.to/lastmile_qr_scan"}, "type": "electric_scooter", "name": "882219cf56dd53ff39580209d8052d90", "is_reserved": 0, "lon": -76.99736083333333, "is_disabled": 0, "fusion_lat": 0.0, "lat": 38.920476666666666, "bike_id": "882219cf56dd53ff39580209d8052d90", "fusion_lon": 0.0}, {"rental_uris": {"ios": "https://dc.lft.to/lastmile_qr_scan", "android": "https://dc.lft.to/lastmile_qr_scan"}, "type": "electric_scooter", "name": "081b12ba32b2adf63acdc22ffcc58729", "is_reserved": 0, "lon": -77.0214355, "is_disabled": 0, "fusion_lat": 0.0, "lat": 38.902935, "bike_id": "081b12ba32b2adf63acdc22ffcc58729", "fusion_lon": 0.0}, {"rental_uris": {"ios": "https://dc.lft.to/lastmile_qr_scan", "android": "https://dc.lft.to/lastmile_qr_scan"}, "type": "electric_scooter", "name": "15c2dc91d6d0d8787c6f807f39e9aad2", "is_reserved": 0, "lon": -77.02956266666666, "is_disabled": 0, "fusion_lat": 0.0, "lat": 38.917064833333335, "bike_id": "15c2dc91d6d0d8787c6f807f39e9aad2", "fusion_lon": 0.0}, {"rental_uris": {"ios": "https://dc.lft.to/lastmile_qr_scan", "android": "https://dc.lft.to/lastmile_qr_scan"}, "type": "electric_scooter", "name": "60e7b54ffc6beabd02772497f4c73ae7", "is_reserved": 0, "lon": -77.0432665, "is_disabled": 0, "fusion_lat": 0.0, "lat": 38.909018, "bike_id": "60e7b54ffc6beabd02772497f4c73ae7", "fusion_lon": 0.0}, {"rental_uris": {"ios": "https://dc.lft.to/lastmile_qr_scan", "android": "https://dc.lft.to/lastmile_qr_scan"}, "type": "electric_scooter", "name": "184886b4b8f4052a972fe4b02d0755fe", "is_reserved": 0, "lon": -77.03747383333334, "is_disabled": 0, "fusion_lat": 0.0, "lat": 38.91688766666667, "bike_id": "184886b4b8f4052a972fe4b02d0755fe", "fusion_lon": 0.0}, {"rental_uris": {"ios": "https://dc.lft.to/lastmile_qr_scan", "android": "https://dc.lft.to/lastmile_qr_scan"}, "type": "electric_scooter", "name": "d967c72d6299ae0d3a3d8504e369f860", "is_reserved": 0, "lon": -77.04652183333333, "is_disabled": 0, "fusion_lat": 0.0, "lat": 38.9105775, "bike_id": "d967c72d6299ae0d3a3d8504e369f860", "fusion_lon": 0.0}, {"rental_uris": {"ios": "https://dc.lft.to/lastmile_qr_scan", "android": "https://dc.lft.to/lastmile_qr_scan"}, "type": "electric_scooter", "name": "5f6b66c50ebf3c742d8469d5aa3afa26", "is_reserved": 0, "lon": -76.96548566666667, "is_disabled": 0, "fusion_lat": 0.0, "lat": 38.87888933333333, "bike_id": "5f6b66c50ebf3c742d8469d5aa3afa26", "fusion_lon": 0.0}, {"rental_uris": {"ios": "https://dc.lft.to/lastmile_qr_scan", "android": "https://dc.lft.to/lastmile_qr_scan"}, "type": "electric_bike", "name": "4b6c680f2000cef341117de69d22eb7e", "is_reserved": 0, "lon": -77.08363833333334, "is_disabled": 0, "fusion_lat": 0.0, "lat": 38.85418466666667, "bike_id": "4b6c680f2000cef341117de69d22eb7e", "fusion_lon": 0.0}, {"rental_uris": {"ios": "https://dc.lft.to/lastmile_qr_scan", "android": "https://dc.lft.to/lastmile_qr_scan"}, "type": "electric_scooter", "name": "05df837add572a1875a4a564ed0534bc", "is_reserved": 0, "lon": -77.04336333333333, "is_disabled": 0, "fusion_lat": 0.0, "lat": 38.92355383333334, "bike_id": "05df837add572a1875a4a564ed0534bc", "fusion_lon": 0.0}, {"rental_uris": {"ios": "https://dc.lft.to/lastmile_qr_scan", "android": "https://dc.lft.to/lastmile_qr_scan"}, "type": "electric_scooter", "name": "762ec5594c052c92c6b41e0e3bfe1c41", "is_reserved": 0, "lon": -77.00429583333333, "is_disabled": 0, "fusion_lat": 0.0, "lat": 38.88512266666667, "bike_id": "762ec5594c052c92c6b41e0e3bfe1c41", "fusion_lon": 0.0}, {"rental_uris": {"ios": "https://dc.lft.to/lastmile_qr_scan", "android": "https://dc.lft.to/lastmile_qr_scan"}, "type": "electric_scooter", "name": "4083de747dcf6eb190630acffe4f1e35", "is_reserved": 0, "lon": -77.0446815, "is_disabled": 0, "fusion_lat": 0.0, "lat": 38.9121245, "bike_id": "4083de747dcf6eb190630acffe4f1e35", "fusion_lon": 0.0}, {"rental_uris": {"ios": "https://dc.lft.to/lastmile_qr_scan", "android": "https://dc.lft.to/lastmile_qr_scan"}, "type": "electric_scooter", "name": "ff44f5afc4be02bedd5e7ae340b895fa", "is_reserved": 0, "lon": -77.045334, "is_disabled": 0, "fusion_lat": 0.0, "lat": 38.900669666666666, "bike_id": "ff44f5afc4be02bedd5e7ae340b895fa", "fusion_lon": 0.0}, {"rental_uris": {"ios": "https://dc.lft.to/lastmile_qr_scan", "android": "https://dc.lft.to/lastmile_qr_scan"}, "type": "electric_scooter", "name": "8a771564c22ddfe5f11ef1d3df099325", "is_reserved": 0, "lon": -77.0381935, "is_disabled": 0, "fusion_lat": 0.0, "lat": 38.91521733333333, "bike_id": "8a771564c22ddfe5f11ef1d3df099325", "fusion_lon": 0.0}, {"rental_uris": {"ios": "https://dc.lft.to/lastmile_qr_scan", "android": "https://dc.lft.to/lastmile_qr_scan"}, "type": "electric_scooter", "name": "388e1a0d0047b8dde544ccede291241a", "is_reserved": 0, "lon": -77.02695, "is_disabled": 0, "fusion_lat": 0.0, "lat": 38.926768333333335, "bike_id": "388e1a0d0047b8dde544ccede291241a", "fusion_lon": 0.0}, {"rental_uris": {"ios": "https://dc.lft.to/lastmile_qr_scan", "android": "https://dc.lft.to/lastmile_qr_scan"}, "type": "electric_scooter", "name": "90e43e5892897350d470ca189977b422", "is_reserved": 0, "lon": -77.02438833333333, "is_disabled": 0, "fusion_lat": 0.0, "lat": 38.916952333333334, "bike_id": "90e43e5892897350d470ca189977b422", "fusion_lon": 0.0}, {"rental_uris": {"ios": "https://dc.lft.to/lastmile_qr_scan", "android": "https://dc.lft.to/lastmile_qr_scan"}, "type": "electric_scooter", "name": "55b3e055eb98fca2c3d279ddd79267bd", "is_reserved": 0, "lon": -76.98622433333334, "is_disabled": 0, "fusion_lat": 0.0, "lat": 38.905875333333334, "bike_id": "55b3e055eb98fca2c3d279ddd79267bd", "fusion_lon": 0.0}, {"rental_uris": {"ios": "https://dc.lft.to/lastmile_qr_scan", "android": "https://dc.lft.to/lastmile_qr_scan"}, "type": "electric_scooter", "name": "50d66f0a59b66de13cc2c5de67f0bfab", "is_reserved": 0, "lon": -77.02720366666667, "is_disabled": 0, "fusion_lat": 0.0, "lat": 38.918033333333334, "bike_id": "50d66f0a59b66de13cc2c5de67f0bfab", "fusion_lon": 0.0}, {"rental_uris": {"ios": "https://dc.lft.to/lastmile_qr_scan", "android": "https://dc.lft.to/lastmile_qr_scan"}, "type": "electric_scooter", "name": "f63a4c4c4b283c3d72e995bbf6077466", "is_reserved": 0, "lon": -77.087823, "is_disabled": 0, "fusion_lat": 0.0, "lat": 38.9355885, "bike_id": "f63a4c4c4b283c3d72e995bbf6077466", "fusion_lon": 0.0}, {"rental_uris": {"ios": "https://dc.lft.to/lastmile_qr_scan", "android": "https://dc.lft.to/lastmile_qr_scan"}, "type": "electric_bike", "name": "dd8f1cb391fd517d202bbd4b725c269d", "is_reserved": 0, "lon": -77.02271066666667, "is_disabled": 0, "fusion_lat": 0.0, "lat": 38.923357833333334, "bike_id": "dd8f1cb391fd517d202bbd4b725c269d", "fusion_lon": 0.0}, {"rental_uris": {"ios": "https://dc.lft.to/lastmile_qr_scan", "android": "https://dc.lft.to/lastmile_qr_scan"}, "type": "electric_scooter", "name": "e9a0adef1f005dc300d5ab4f346468ba", "is_reserved": 0, "lon": -77.0019395, "is_disabled": 0, "fusion_lat": 0.0, "lat": 38.91634616666666, "bike_id": "e9a0adef1f005dc300d5ab4f346468ba", "fusion_lon": 0.0}, {"rental_uris": {"ios": "https://dc.lft.to/lastmile_qr_scan", "android": "https://dc.lft.to/lastmile_qr_scan"}, "type": "electric_scooter", "name": "6efaba0461a0e030fef02b49d3692c35", "is_reserved": 0, "lon": -77.0632215, "is_disabled": 0, "fusion_lat": 0.0, "lat": 38.91342616666667, "bike_id": "6efaba0461a0e030fef02b49d3692c35", "fusion_lon": 0.0}, {"rental_uris": {"ios": "https://dc.lft.to/lastmile_qr_scan", "android": "https://dc.lft.to/lastmile_qr_scan"}, "type": "electric_bike", "name": "634cb21ece777cf18fdb9596b773051d", "is_reserved": 0, "lon": -77.11286083333333, "is_disabled": 0, "fusion_lat": 0.0, "lat": 38.83101516666667, "bike_id": "634cb21ece777cf18fdb9596b773051d", "fusion_lon": 0.0}, {"rental_uris": {"ios": "https://dc.lft.to/lastmile_qr_scan", "android": "https://dc.lft.to/lastmile_qr_scan"}, "type": "electric_scooter", "name": "e7f125c09637ba648226b64b0d9e27aa", "is_reserved": 0, "lon": -76.98436233333334, "is_disabled": 0, "fusion_lat": 0.0, "lat": 38.91473383333334, "bike_id": "e7f125c09637ba648226b64b0d9e27aa", "fusion_lon": 0.0}, {"rental_uris": {"ios": "https://dc.lft.to/lastmile_qr_scan", "android": "https://dc.lft.to/lastmile_qr_scan"}, "type": "electric_scooter", "name": "f9e9bba468e53d8584fadcf86185b307", "is_reserved": 0, "lon": -77.00059233333333, "is_disabled": 0, "fusion_lat": 0.0, "lat": 38.873674666666666, "bike_id": "f9e9bba468e53d8584fadcf86185b307", "fusion_lon": 0.0}, {"rental_uris": {"ios": "https://dc.lft.to/lastmile_qr_scan", "android": "https://dc.lft.to/lastmile_qr_scan"}, "type": "electric_scooter", "name": "3b9774427768bd53b565b97c428b07a3", "is_reserved": 0, "lon": -77.03472266666667, "is_disabled": 0, "fusion_lat": 0.0, "lat": 38.91704333333333, "bike_id": "3b9774427768bd53b565b97c428b07a3", "fusion_lon": 0.0}, {"rental_uris": {"ios": "https://dc.lft.to/lastmile_qr_scan", "android": "https://dc.lft.to/lastmile_qr_scan"}, "type": "electric_scooter", "name": "1eb52f52201ea98e20fb710d23642050", "is_reserved": 0, "lon": -77.06521383333333, "is_disabled": 0, "fusion_lat": 0.0, "lat": 38.9053, "bike_id": "1eb52f52201ea98e20fb710d23642050", "fusion_lon": 0.0}, {"rental_uris": {"ios": "https://dc.lft.to/lastmile_qr_scan", "android": "https://dc.lft.to/lastmile_qr_scan"}, "type": "electric_bike", "name": "2323edbf933ccda95eacff9e299626f8", "is_reserved": 0, "lon": -77.03418416666666, "is_disabled": 0, "fusion_lat": 0.0, "lat": 38.912405666666665, "bike_id": "2323edbf933ccda95eacff9e299626f8", "fusion_lon": 0.0}, {"rental_uris": {"ios": "https://dc.lft.to/lastmile_qr_scan", "android": "https://dc.lft.to/lastmile_qr_scan"}, "type": "electric_scooter", "name": "32915a885e3d5be229fafe0b6b95a397", "is_reserved": 0, "lon": -77.02576883333333, "is_disabled": 0, "fusion_lat": 0.0, "lat": 38.88078383333333, "bike_id": "32915a885e3d5be229fafe0b6b95a397", "fusion_lon": 0.0}, {"rental_uris": {"ios": "https://dc.lft.to/lastmile_qr_scan", "android": "https://dc.lft.to/lastmile_qr_scan"}, "type": "electric_bike", "name": "7cd02ea2a98f3600555f4d326fc511bf", "is_reserved": 0, "lon": -77.04259683333333, "is_disabled": 0, "fusion_lat": 0.0, "lat": 38.80465783333333, "bike_id": "7cd02ea2a98f3600555f4d326fc511bf", "fusion_lon": 0.0}, {"rental_uris": {"ios": "https://dc.lft.to/lastmile_qr_scan", "android": "https://dc.lft.to/lastmile_qr_scan"}, "type": "electric_scooter", "name": "c91ee9d0c5fdc014364c9db862ac1487", "is_reserved": 0, "lon": -77.02410633333334, "is_disabled": 0, "fusion_lat": 0.0, "lat": 38.938166333333335, "bike_id": "c91ee9d0c5fdc014364c9db862ac1487", "fusion_lon": 0.0}, {"rental_uris": {"ios": "https://dc.lft.to/lastmile_qr_scan", "android": "https://dc.lft.to/lastmile_qr_scan"}, "type": "electric_scooter", "name": "7b0414a77fce036a58526a32b8e47c06", "is_reserved": 0, "lon": -77.02647016666667, "is_disabled": 0, "fusion_lat": 0.0, "lat": 38.89618516666667, "bike_id": "7b0414a77fce036a58526a32b8e47c06", "fusion_lon": 0.0}, {"rental_uris": {"ios": "https://dc.lft.to/lastmile_qr_scan", "android": "https://dc.lft.to/lastmile_qr_scan"}, "type": "electric_scooter", "name": "9019a8ca4f4aa32d0df760dbb303920c", "is_reserved": 0, "lon": -76.98357733333333, "is_disabled": 0, "fusion_lat": 0.0, "lat": 38.887446, "bike_id": "9019a8ca4f4aa32d0df760dbb303920c", "fusion_lon": 0.0}, {"rental_uris": {"ios": "https://dc.lft.to/lastmile_qr_scan", "android": "https://dc.lft.to/lastmile_qr_scan"}, "type": "electric_scooter", "name": "b72f9a64508571a38065cad991f83e51", "is_reserved": 0, "lon": -77.03846916666667, "is_disabled": 0, "fusion_lat": 0.0, "lat": 38.91552566666667, "bike_id": "b72f9a64508571a38065cad991f83e51", "fusion_lon": 0.0}, {"rental_uris": {"ios": "https://dc.lft.to/lastmile_qr_scan", "android": "https://dc.lft.to/lastmile_qr_scan"}, "type": "electric_scooter", "name": "701e9855978d5506a6e1be95c4820880", "is_reserved": 0, "lon": -77.02416316666667, "is_disabled": 0, "fusion_lat": 0.0, "lat": 38.89231933333333, "bike_id": "701e9855978d5506a6e1be95c4820880", "fusion_lon": 0.0}, {"rental_uris": {"ios": "https://dc.lft.to/lastmile_qr_scan", "android": "https://dc.lft.to/lastmile_qr_scan"}, "type": "electric_scooter", "name": "b0bb6a9af19f098ce596acb74d777458", "is_reserved": 0, "lon": -77.02204683333333, "is_disabled": 0, "fusion_lat": 0.0, "lat": 38.951563166666666, "bike_id": "b0bb6a9af19f098ce596acb74d777458", "fusion_lon": 0.0}, {"rental_uris": {"ios": "https://dc.lft.to/lastmile_qr_scan", "android": "https://dc.lft.to/lastmile_qr_scan"}, "type": "electric_scooter", "name": "dd3722878324b0709bd293aad1ef8280", "is_reserved": 0, "lon": -77.03272033333333, "is_disabled": 0, "fusion_lat": 0.0, "lat": 38.92885783333333, "bike_id": "dd3722878324b0709bd293aad1ef8280", "fusion_lon": 0.0}, {"rental_uris": {"ios": "https://dc.lft.to/lastmile_qr_scan", "android": "https://dc.lft.to/lastmile_qr_scan"}, "type": "electric_scooter", "name": "334b6d9e87699740a9e1ca771a72ca5b", "is_reserved": 0, "lon": -77.02111216666667, "is_disabled": 0, "fusion_lat": 0.0, "lat": 38.90936266666667, "bike_id": "334b6d9e87699740a9e1ca771a72ca5b", "fusion_lon": 0.0}, {"rental_uris": {"ios": "https://dc.lft.to/lastmile_qr_scan", "android": "https://dc.lft.to/lastmile_qr_scan"}, "type": "electric_scooter", "name": "7be431816c8f24d2d78de2d742a0d376", "is_reserved": 0, "lon": -77.02155066666667, "is_disabled": 0, "fusion_lat": 0.0, "lat": 38.92604, "bike_id": "7be431816c8f24d2d78de2d742a0d376", "fusion_lon": 0.0}, {"rental_uris": {"ios": "https://dc.lft.to/lastmile_qr_scan", "android": "https://dc.lft.to/lastmile_qr_scan"}, "type": "electric_bike", "name": "a5bec02efe0406b719c86185ef399e13", "is_reserved": 0, "lon": -77.07166583333333, "is_disabled": 0, "fusion_lat": 0.0, "lat": 38.89601233333333, "bike_id": "a5bec02efe0406b719c86185ef399e13", "fusion_lon": 0.0}, {"rental_uris": {"ios": "https://dc.lft.to/lastmile_qr_scan", "android": "https://dc.lft.to/lastmile_qr_scan"}, "type": "electric_scooter", "name": "9e5fb6842ffe0760c4f3f559ba9323bc", "is_reserved": 0, "lon": -77.07875566666667, "is_disabled": 0, "fusion_lat": 0.0, "lat": 38.94613533333333, "bike_id": "9e5fb6842ffe0760c4f3f559ba9323bc", "fusion_lon": 0.0}, {"rental_uris": {"ios": "https://dc.lft.to/lastmile_qr_scan", "android": "https://dc.lft.to/lastmile_qr_scan"}, "type": "electric_bike", "name": "44a968669a7224a280507527b7df9561", "is_reserved": 0, "lon": -77.0945405, "is_disabled": 0, "fusion_lat": 0.0, "lat": 38.807557333333335, "bike_id": "44a968669a7224a280507527b7df9561", "fusion_lon": 0.0}, {"rental_uris": {"ios": "https://dc.lft.to/lastmile_qr_scan", "android": "https://dc.lft.to/lastmile_qr_scan"}, "type": "electric_scooter", "name": "793468dacc5e9026ad94dfac1ceb4d6f", "is_reserved": 0, "lon": -77.01975833333333, "is_disabled": 0, "fusion_lat": 0.0, "lat": 38.893006166666666, "bike_id": "793468dacc5e9026ad94dfac1ceb4d6f", "fusion_lon": 0.0}, {"rental_uris": {"ios": "https://dc.lft.to/lastmile_qr_scan", "android": "https://dc.lft.to/lastmile_qr_scan"}, "type": "electric_scooter", "name": "6d43f5b5ed2d26322a582214f12bb78c", "is_reserved": 0, "lon": -77.0205415, "is_disabled": 0, "fusion_lat": 0.0, "lat": 38.8971775, "bike_id": "6d43f5b5ed2d26322a582214f12bb78c", "fusion_lon": 0.0}, {"rental_uris": {"ios": "https://dc.lft.to/lastmile_qr_scan", "android": "https://dc.lft.to/lastmile_qr_scan"}, "type": "electric_bike", "name": "2044f28a61b0677729b5aad56e422d54", "is_reserved": 0, "lon": -76.98058716666667, "is_disabled": 0, "fusion_lat": 0.0, "lat": 38.972528833333335, "bike_id": "2044f28a61b0677729b5aad56e422d54", "fusion_lon": 0.0}, {"rental_uris": {"ios": "https://dc.lft.to/lastmile_qr_scan", "android": "https://dc.lft.to/lastmile_qr_scan"}, "type": "electric_scooter", "name": "bf6d5286c16740d554c24ca115619ed0", "is_reserved": 0, "lon": -77.039717, "is_disabled": 0, "fusion_lat": 0.0, "lat": 38.90134616666667, "bike_id": "bf6d5286c16740d554c24ca115619ed0", "fusion_lon": 0.0}, {"rental_uris": {"ios": "https://dc.lft.to/lastmile_qr_scan", "android": "https://dc.lft.to/lastmile_qr_scan"}, "type": "electric_scooter", "name": "19325012c2e1ee2a3c2fd8bd93a3acc9", "is_reserved": 0, "lon": -77.02411933333333, "is_disabled": 0, "fusion_lat": 0.0, "lat": 38.945071166666665, "bike_id": "19325012c2e1ee2a3c2fd8bd93a3acc9", "fusion_lon": 0.0}, {"rental_uris": {"ios": "https://dc.lft.to/lastmile_qr_scan", "android": "https://dc.lft.to/lastmile_qr_scan"}, "type": "electric_scooter", "name": "6be078c317a3e7e46e040d46f1e7ba50", "is_reserved": 0, "lon": -77.02192916666667, "is_disabled": 0, "fusion_lat": 0.0, "lat": 38.9112815, "bike_id": "6be078c317a3e7e46e040d46f1e7ba50", "fusion_lon": 0.0}, {"rental_uris": {"ios": "https://dc.lft.to/lastmile_qr_scan", "android": "https://dc.lft.to/lastmile_qr_scan"}, "type": "electric_scooter", "name": "8f1f1963cc185f9a73294298addbf7be", "is_reserved": 0, "lon": -77.04427233333334, "is_disabled": 0, "fusion_lat": 0.0, "lat": 38.911296, "bike_id": "8f1f1963cc185f9a73294298addbf7be", "fusion_lon": 0.0}, {"rental_uris": {"ios": "https://dc.lft.to/lastmile_qr_scan", "android": "https://dc.lft.to/lastmile_qr_scan"}, "type": "electric_bike", "name": "df27c03b625e9cd2ceb6915f01777131", "is_reserved": 0, "lon": -77.046212, "is_disabled": 0, "fusion_lat": 0.0, "lat": 38.909979, "bike_id": "df27c03b625e9cd2ceb6915f01777131", "fusion_lon": 0.0}, {"rental_uris": {"ios": "https://dc.lft.to/lastmile_qr_scan", "android": "https://dc.lft.to/lastmile_qr_scan"}, "type": "electric_scooter", "name": "17a0c2f5a74424be784185efe4c54321", "is_reserved": 0, "lon": -77.01975133333333, "is_disabled": 0, "fusion_lat": 0.0, "lat": 38.89244266666667, "bike_id": "17a0c2f5a74424be784185efe4c54321", "fusion_lon": 0.0}, {"rental_uris": {"ios": "https://dc.lft.to/lastmile_qr_scan", "android": "https://dc.lft.to/lastmile_qr_scan"}, "type": "electric_scooter", "name": "17dc90e8af2e33e3436fd47904d9f878", "is_reserved": 0, "lon": -77.06333583333333, "is_disabled": 0, "fusion_lat": 0.0, "lat": 38.906922333333334, "bike_id": "17dc90e8af2e33e3436fd47904d9f878", "fusion_lon": 0.0}, {"rental_uris": {"ios": "https://dc.lft.to/lastmile_qr_scan", "android": "https://dc.lft.to/lastmile_qr_scan"}, "type": "electric_scooter", "name": "2866f55b9dd7ce7c64b09471119c3e80", "is_reserved": 0, "lon": -77.03824566666667, "is_disabled": 0, "fusion_lat": 0.0, "lat": 38.9038935, "bike_id": "2866f55b9dd7ce7c64b09471119c3e80", "fusion_lon": 0.0}, {"rental_uris": {"ios": "https://dc.lft.to/lastmile_qr_scan", "android": "https://dc.lft.to/lastmile_qr_scan"}, "type": "electric_bike", "name": "5988836920008e29c37f491af91f49bd", "is_reserved": 0, "lon": -77.11412683333333, "is_disabled": 0, "fusion_lat": 0.0, "lat": 38.873205, "bike_id": "5988836920008e29c37f491af91f49bd", "fusion_lon": 0.0}, {"rental_uris": {"ios": "https://dc.lft.to/lastmile_qr_scan", "android": "https://dc.lft.to/lastmile_qr_scan"}, "type": "electric_scooter", "name": "e991b543b96fdae9cb4c97fb49db5136", "is_reserved": 0, "lon": -77.06245166666666, "is_disabled": 0, "fusion_lat": 0.0, "lat": 38.90517283333333, "bike_id": "e991b543b96fdae9cb4c97fb49db5136", "fusion_lon": 0.0}, {"rental_uris": {"ios": "https://dc.lft.to/lastmile_qr_scan", "android": "https://dc.lft.to/lastmile_qr_scan"}, "type": "electric_scooter", "name": "e18e091ac2e2876771c2afe52416fffe", "is_reserved": 0, "lon": -76.98442, "is_disabled": 0, "fusion_lat": 0.0, "lat": 38.914453333333334, "bike_id": "e18e091ac2e2876771c2afe52416fffe", "fusion_lon": 0.0}, {"rental_uris": {"ios": "https://dc.lft.to/lastmile_qr_scan", "android": "https://dc.lft.to/lastmile_qr_scan"}, "type": "electric_scooter", "name": "d4ccf90f473b5630dbbb0bd1e5ec33aa", "is_reserved": 0, "lon": -77.028317, "is_disabled": 0, "fusion_lat": 0.0, "lat": 38.93882583333333, "bike_id": "d4ccf90f473b5630dbbb0bd1e5ec33aa", "fusion_lon": 0.0}, {"rental_uris": {"ios": "https://dc.lft.to/lastmile_qr_scan", "android": "https://dc.lft.to/lastmile_qr_scan"}, "type": "electric_scooter", "name": "053fdd52025372bb6c861d644580518a", "is_reserved": 0, "lon": -77.0440755, "is_disabled": 0, "fusion_lat": 0.0, "lat": 38.91966466666667, "bike_id": "053fdd52025372bb6c861d644580518a", "fusion_lon": 0.0}, {"rental_uris": {"ios": "https://dc.lft.to/lastmile_qr_scan", "android": "https://dc.lft.to/lastmile_qr_scan"}, "type": "electric_scooter", "name": "bc26fc3b4442306d53a9b80ff4eb448e", "is_reserved": 0, "lon": -77.03494316666666, "is_disabled": 0, "fusion_lat": 0.0, "lat": 38.92881166666667, "bike_id": "bc26fc3b4442306d53a9b80ff4eb448e", "fusion_lon": 0.0}, {"rental_uris": {"ios": "https://dc.lft.to/lastmile_qr_scan", "android": "https://dc.lft.to/lastmile_qr_scan"}, "type": "electric_scooter", "name": "da93994d92d314e8c061f957db21b1b7", "is_reserved": 0, "lon": -77.07657116666667, "is_disabled": 0, "fusion_lat": 0.0, "lat": 38.910823666666666, "bike_id": "da93994d92d314e8c061f957db21b1b7", "fusion_lon": 0.0}, {"rental_uris": {"ios": "https://dc.lft.to/lastmile_qr_scan", "android": "https://dc.lft.to/lastmile_qr_scan"}, "type": "electric_scooter", "name": "8a75ebd02dd71cf9acb5fc7b6577ba33", "is_reserved": 0, "lon": -77.02445216666666, "is_disabled": 0, "fusion_lat": 0.0, "lat": 38.937705333333334, "bike_id": "8a75ebd02dd71cf9acb5fc7b6577ba33", "fusion_lon": 0.0}, {"rental_uris": {"ios": "https://dc.lft.to/lastmile_qr_scan", "android": "https://dc.lft.to/lastmile_qr_scan"}, "type": "electric_scooter", "name": "b1fbe071e3b160ac5eccae9fa84014bc", "is_reserved": 0, "lon": -76.985542, "is_disabled": 0, "fusion_lat": 0.0, "lat": 38.889959833333336, "bike_id": "b1fbe071e3b160ac5eccae9fa84014bc", "fusion_lon": 0.0}, {"rental_uris": {"ios": "https://dc.lft.to/lastmile_qr_scan", "android": "https://dc.lft.to/lastmile_qr_scan"}, "type": "electric_scooter", "name": "da5d4f86a144bf543d734c8b9f5836f2", "is_reserved": 0, "lon": -77.03303666666666, "is_disabled": 0, "fusion_lat": 0.0, "lat": 38.90371666666667, "bike_id": "da5d4f86a144bf543d734c8b9f5836f2", "fusion_lon": 0.0}, {"rental_uris": {"ios": "https://dc.lft.to/lastmile_qr_scan", "android": "https://dc.lft.to/lastmile_qr_scan"}, "type": "electric_scooter", "name": "e6f4b2c051e02b3c13b3ced5e88aa45e", "is_reserved": 0, "lon": -76.976665, "is_disabled": 0, "fusion_lat": 0.0, "lat": 38.92636183333333, "bike_id": "e6f4b2c051e02b3c13b3ced5e88aa45e", "fusion_lon": 0.0}, {"rental_uris": {"ios": "https://dc.lft.to/lastmile_qr_scan", "android": "https://dc.lft.to/lastmile_qr_scan"}, "type": "electric_scooter", "name": "b7534e3f483667109644b440804e6d6f", "is_reserved": 0, "lon": -77.0338475, "is_disabled": 0, "fusion_lat": 0.0, "lat": 38.88658816666667, "bike_id": "b7534e3f483667109644b440804e6d6f", "fusion_lon": 0.0}, {"rental_uris": {"ios": "https://dc.lft.to/lastmile_qr_scan", "android": "https://dc.lft.to/lastmile_qr_scan"}, "type": "electric_scooter", "name": "93b7ff4c4c2accfb9dea6d5fc8141049", "is_reserved": 0, "lon": -77.04490733333333, "is_disabled": 0, "fusion_lat": 0.0, "lat": 38.9108645, "bike_id": "93b7ff4c4c2accfb9dea6d5fc8141049", "fusion_lon": 0.0}, {"rental_uris": {"ios": "https://dc.lft.to/lastmile_qr_scan", "android": "https://dc.lft.to/lastmile_qr_scan"}, "type": "electric_scooter", "name": "498e17a9f606996e999ac7af204734f5", "is_reserved": 0, "lon": -77.04084116666667, "is_disabled": 0, "fusion_lat": 0.0, "lat": 38.947889, "bike_id": "498e17a9f606996e999ac7af204734f5", "fusion_lon": 0.0}, {"rental_uris": {"ios": "https://dc.lft.to/lastmile_qr_scan", "android": "https://dc.lft.to/lastmile_qr_scan"}, "type": "electric_scooter", "name": "c10a3bb4f6e07529e814909c1e17f340", "is_reserved": 0, "lon": -77.05192566666666, "is_disabled": 0, "fusion_lat": 0.0, "lat": 38.902583666666665, "bike_id": "c10a3bb4f6e07529e814909c1e17f340", "fusion_lon": 0.0}, {"rental_uris": {"ios": "https://dc.lft.to/lastmile_qr_scan", "android": "https://dc.lft.to/lastmile_qr_scan"}, "type": "electric_scooter", "name": "dc7cace96d8acca4dee42be44836e724", "is_reserved": 0, "lon": -77.03360983333333, "is_disabled": 0, "fusion_lat": 0.0, "lat": 38.91639683333333, "bike_id": "dc7cace96d8acca4dee42be44836e724", "fusion_lon": 0.0}, {"rental_uris": {"ios": "https://dc.lft.to/lastmile_qr_scan", "android": "https://dc.lft.to/lastmile_qr_scan"}, "type": "electric_scooter", "name": "d3d14abc1c41a0056f378777c22dbfa2", "is_reserved": 0, "lon": -77.04218416666667, "is_disabled": 0, "fusion_lat": 0.0, "lat": 38.9112005, "bike_id": "d3d14abc1c41a0056f378777c22dbfa2", "fusion_lon": 0.0}, {"rental_uris": {"ios": "https://dc.lft.to/lastmile_qr_scan", "android": "https://dc.lft.to/lastmile_qr_scan"}, "type": "electric_scooter", "name": "89cc0e98f7d9561498cc75bc9dccaa7a", "is_reserved": 0, "lon": -77.0450475, "is_disabled": 0, "fusion_lat": 0.0, "lat": 38.896260166666664, "bike_id": "89cc0e98f7d9561498cc75bc9dccaa7a", "fusion_lon": 0.0}, {"rental_uris": {"ios": "https://dc.lft.to/lastmile_qr_scan", "android": "https://dc.lft.to/lastmile_qr_scan"}, "type": "electric_scooter", "name": "80df929180c4229c4ae2a02c1be53acd", "is_reserved": 0, "lon": -77.03255616666667, "is_disabled": 0, "fusion_lat": 0.0, "lat": 38.91558783333333, "bike_id": "80df929180c4229c4ae2a02c1be53acd", "fusion_lon": 0.0}, {"rental_uris": {"ios": "https://dc.lft.to/lastmile_qr_scan", "android": "https://dc.lft.to/lastmile_qr_scan"}, "type": "electric_bike", "name": "b68ccace3adb00c30abdf8d8d4a315b5", "is_reserved": 0, "lon": -76.98020733333334, "is_disabled": 0, "fusion_lat": 0.0, "lat": 38.8531405, "bike_id": "b68ccace3adb00c30abdf8d8d4a315b5", "fusion_lon": 0.0}, {"rental_uris": {"ios": "https://dc.lft.to/lastmile_qr_scan", "android": "https://dc.lft.to/lastmile_qr_scan"}, "type": "electric_scooter", "name": "24712e5100bc0f95a636d20714f71ef6", "is_reserved": 0, "lon": -77.0371405, "is_disabled": 0, "fusion_lat": 0.0, "lat": 38.926496, "bike_id": "24712e5100bc0f95a636d20714f71ef6", "fusion_lon": 0.0}, {"rental_uris": {"ios": "https://dc.lft.to/lastmile_qr_scan", "android": "https://dc.lft.to/lastmile_qr_scan"}, "type": "electric_scooter", "name": "57cfcc9a4326ea7fcd328e4decd890ef", "is_reserved": 0, "lon": -76.98037783333334, "is_disabled": 0, "fusion_lat": 0.0, "lat": 38.89999683333333, "bike_id": "57cfcc9a4326ea7fcd328e4decd890ef", "fusion_lon": 0.0}, {"rental_uris": {"ios": "https://dc.lft.to/lastmile_qr_scan", "android": "https://dc.lft.to/lastmile_qr_scan"}, "type": "electric_scooter", "name": "26aa67b0ce6005afacd8fae47cfd40dd", "is_reserved": 0, "lon": -77.01961566666667, "is_disabled": 0, "fusion_lat": 0.0, "lat": 38.92326716666667, "bike_id": "26aa67b0ce6005afacd8fae47cfd40dd", "fusion_lon": 0.0}, {"rental_uris": {"ios": "https://dc.lft.to/lastmile_qr_scan", "android": "https://dc.lft.to/lastmile_qr_scan"}, "type": "electric_scooter", "name": "c2d99cbbfee9ff7f3d6d060a164e5634", "is_reserved": 0, "lon": -77.03885616666666, "is_disabled": 0, "fusion_lat": 0.0, "lat": 38.903711333333334, "bike_id": "c2d99cbbfee9ff7f3d6d060a164e5634", "fusion_lon": 0.0}, {"rental_uris": {"ios": "https://dc.lft.to/lastmile_qr_scan", "android": "https://dc.lft.to/lastmile_qr_scan"}, "type": "electric_scooter", "name": "e9e2d7ed50ea5777abd6701a28973f89", "is_reserved": 0, "lon": -77.01914483333333, "is_disabled": 0, "fusion_lat": 0.0, "lat": 38.897317, "bike_id": "e9e2d7ed50ea5777abd6701a28973f89", "fusion_lon": 0.0}, {"rental_uris": {"ios": "https://dc.lft.to/lastmile_qr_scan", "android": "https://dc.lft.to/lastmile_qr_scan"}, "type": "electric_scooter", "name": "20fb67892795b6e3f76b9eafe048d8b8", "is_reserved": 0, "lon": -77.05392616666667, "is_disabled": 0, "fusion_lat": 0.0, "lat": 38.923153, "bike_id": "20fb67892795b6e3f76b9eafe048d8b8", "fusion_lon": 0.0}, {"rental_uris": {"ios": "https://dc.lft.to/lastmile_qr_scan", "android": "https://dc.lft.to/lastmile_qr_scan"}, "type": "electric_scooter", "name": "b5ddd631bc6b0b91aff455e4a373917e", "is_reserved": 0, "lon": -77.03470583333333, "is_disabled": 0, "fusion_lat": 0.0, "lat": 38.9073725, "bike_id": "b5ddd631bc6b0b91aff455e4a373917e", "fusion_lon": 0.0}, {"rental_uris": {"ios": "https://dc.lft.to/lastmile_qr_scan", "android": "https://dc.lft.to/lastmile_qr_scan"}, "type": "electric_bike", "name": "f9833891ab8371b402d5c71854c329fe", "is_reserved": 0, "lon": -76.98247766666667, "is_disabled": 0, "fusion_lat": 0.0, "lat": 38.95244983333333, "bike_id": "f9833891ab8371b402d5c71854c329fe", "fusion_lon": 0.0}, {"rental_uris": {"ios": "https://dc.lft.to/lastmile_qr_scan", "android": "https://dc.lft.to/lastmile_qr_scan"}, "type": "electric_scooter", "name": "454441a3f3134c3d1189f86fa8041485", "is_reserved": 0, "lon": -77.04184366666667, "is_disabled": 0, "fusion_lat": 0.0, "lat": 38.892869166666664, "bike_id": "454441a3f3134c3d1189f86fa8041485", "fusion_lon": 0.0}, {"rental_uris": {"ios": "https://dc.lft.to/lastmile_qr_scan", "android": "https://dc.lft.to/lastmile_qr_scan"}, "type": "electric_bike", "name": "797cc5c38c96834d58618bd8b79caf62", "is_reserved": 0, "lon": -76.957479, "is_disabled": 0, "fusion_lat": 0.0, "lat": 38.88858583333333, "bike_id": "797cc5c38c96834d58618bd8b79caf62", "fusion_lon": 0.0}, {"rental_uris": {"ios": "https://dc.lft.to/lastmile_qr_scan", "android": "https://dc.lft.to/lastmile_qr_scan"}, "type": "electric_scooter", "name": "e7a6544e2b430a6f82b00e8b6c1e1ce5", "is_reserved": 0, "lon": -76.98413083333334, "is_disabled": 0, "fusion_lat": 0.0, "lat": 38.91468916666667, "bike_id": "e7a6544e2b430a6f82b00e8b6c1e1ce5", "fusion_lon": 0.0}, {"rental_uris": {"ios": "https://dc.lft.to/lastmile_qr_scan", "android": "https://dc.lft.to/lastmile_qr_scan"}, "type": "electric_scooter", "name": "432792009e758f2ff041976f30b5536a", "is_reserved": 0, "lon": -77.02662533333333, "is_disabled": 0, "fusion_lat": 0.0, "lat": 38.884957666666665, "bike_id": "432792009e758f2ff041976f30b5536a", "fusion_lon": 0.0}, {"rental_uris": {"ios": "https://dc.lft.to/lastmile_qr_scan", "android": "https://dc.lft.to/lastmile_qr_scan"}, "type": "electric_scooter", "name": "c414c981e5c8e5fd701b26596c1f4f6d", "is_reserved": 0, "lon": -77.04094533333334, "is_disabled": 0, "fusion_lat": 0.0, "lat": 38.905792, "bike_id": "c414c981e5c8e5fd701b26596c1f4f6d", "fusion_lon": 0.0}, {"rental_uris": {"ios": "https://dc.lft.to/lastmile_qr_scan", "android": "https://dc.lft.to/lastmile_qr_scan"}, "type": "electric_scooter", "name": "16f61f54946e35460c0850312893f4e3", "is_reserved": 0, "lon": -76.94717416666667, "is_disabled": 0, "fusion_lat": 0.0, "lat": 38.89084416666667, "bike_id": "16f61f54946e35460c0850312893f4e3", "fusion_lon": 0.0}, {"rental_uris": {"ios": "https://dc.lft.to/lastmile_qr_scan", "android": "https://dc.lft.to/lastmile_qr_scan"}, "type": "electric_scooter", "name": "acd0e198399a5bbfb4140134b7a17233", "is_reserved": 0, "lon": -77.03748783333333, "is_disabled": 0, "fusion_lat": 0.0, "lat": 38.9320265, "bike_id": "acd0e198399a5bbfb4140134b7a17233", "fusion_lon": 0.0}, {"rental_uris": {"ios": "https://dc.lft.to/lastmile_qr_scan", "android": "https://dc.lft.to/lastmile_qr_scan"}, "type": "electric_scooter", "name": "ccfc76a81192e611f401f7e1a0aaac11", "is_reserved": 0, "lon": -77.0642025, "is_disabled": 0, "fusion_lat": 0.0, "lat": 38.9092095, "bike_id": "ccfc76a81192e611f401f7e1a0aaac11", "fusion_lon": 0.0}, {"rental_uris": {"ios": "https://dc.lft.to/lastmile_qr_scan", "android": "https://dc.lft.to/lastmile_qr_scan"}, "type": "electric_scooter", "name": "e692bbde865d8d88f18216f8331bdc83", "is_reserved": 0, "lon": -77.03191716666667, "is_disabled": 0, "fusion_lat": 0.0, "lat": 38.90836866666667, "bike_id": "e692bbde865d8d88f18216f8331bdc83", "fusion_lon": 0.0}, {"rental_uris": {"ios": "https://dc.lft.to/lastmile_qr_scan", "android": "https://dc.lft.to/lastmile_qr_scan"}, "type": "electric_scooter", "name": "225fac2ac5751e6ca486224720dc1fa8", "is_reserved": 0, "lon": -77.042485, "is_disabled": 0, "fusion_lat": 0.0, "lat": 38.922932333333335, "bike_id": "225fac2ac5751e6ca486224720dc1fa8", "fusion_lon": 0.0}, {"rental_uris": {"ios": "https://dc.lft.to/lastmile_qr_scan", "android": "https://dc.lft.to/lastmile_qr_scan"}, "type": "electric_scooter", "name": "8ab36f7d53ebaa6408c716ecbc88cd4b", "is_reserved": 0, "lon": -77.06782333333334, "is_disabled": 0, "fusion_lat": 0.0, "lat": 38.908790833333335, "bike_id": "8ab36f7d53ebaa6408c716ecbc88cd4b", "fusion_lon": 0.0}, {"rental_uris": {"ios": "https://dc.lft.to/lastmile_qr_scan", "android": "https://dc.lft.to/lastmile_qr_scan"}, "type": "electric_scooter", "name": "7bef31b01dd748a64609f66a399d31dd", "is_reserved": 0, "lon": -77.04562616666666, "is_disabled": 0, "fusion_lat": 0.0, "lat": 38.90554816666667, "bike_id": "7bef31b01dd748a64609f66a399d31dd", "fusion_lon": 0.0}, {"rental_uris": {"ios": "https://dc.lft.to/lastmile_qr_scan", "android": "https://dc.lft.to/lastmile_qr_scan"}, "type": "electric_scooter", "name": "16f1a4b36ebdec05eeb477034f7b61b3", "is_reserved": 0, "lon": -77.024413, "is_disabled": 0, "fusion_lat": 0.0, "lat": 38.897138166666664, "bike_id": "16f1a4b36ebdec05eeb477034f7b61b3", "fusion_lon": 0.0}, {"rental_uris": {"ios": "https://dc.lft.to/lastmile_qr_scan", "android": "https://dc.lft.to/lastmile_qr_scan"}, "type": "electric_bike", "name": "2370ea82f7b3fc32ccde34312c60887e", "is_reserved": 0, "lon": -76.92893933333333, "is_disabled": 0, "fusion_lat": 0.0, "lat": 38.978291166666665, "bike_id": "2370ea82f7b3fc32ccde34312c60887e", "fusion_lon": 0.0}, {"rental_uris": {"ios": "https://dc.lft.to/lastmile_qr_scan", "android": "https://dc.lft.to/lastmile_qr_scan"}, "type": "electric_scooter", "name": "4700ab0cb313bba158ee5009f9196b94", "is_reserved": 0, "lon": -77.04654766666667, "is_disabled": 0, "fusion_lat": 0.0, "lat": 38.90973666666667, "bike_id": "4700ab0cb313bba158ee5009f9196b94", "fusion_lon": 0.0}, {"rental_uris": {"ios": "https://dc.lft.to/lastmile_qr_scan", "android": "https://dc.lft.to/lastmile_qr_scan"}, "type": "electric_scooter", "name": "d763cc1d1447ee13e89b666a937bf11f", "is_reserved": 0, "lon": -77.02181416666667, "is_disabled": 0, "fusion_lat": 0.0, "lat": 38.91014233333333, "bike_id": "d763cc1d1447ee13e89b666a937bf11f", "fusion_lon": 0.0}, {"rental_uris": {"ios": "https://dc.lft.to/lastmile_qr_scan", "android": "https://dc.lft.to/lastmile_qr_scan"}, "type": "electric_scooter", "name": "f124ba41fdfff3b15443f30ef7a8c73e", "is_reserved": 0, "lon": -77.02770033333333, "is_disabled": 0, "fusion_lat": 0.0, "lat": 38.916993, "bike_id": "f124ba41fdfff3b15443f30ef7a8c73e", "fusion_lon": 0.0}, {"rental_uris": {"ios": "https://dc.lft.to/lastmile_qr_scan", "android": "https://dc.lft.to/lastmile_qr_scan"}, "type": "electric_scooter", "name": "0253eb196bc27195a9b91c81c762837c", "is_reserved": 0, "lon": -77.01214, "is_disabled": 0, "fusion_lat": 0.0, "lat": 38.87177616666666, "bike_id": "0253eb196bc27195a9b91c81c762837c", "fusion_lon": 0.0}, {"rental_uris": {"ios": "https://dc.lft.to/lastmile_qr_scan", "android": "https://dc.lft.to/lastmile_qr_scan"}, "type": "electric_scooter", "name": "63f730a720e26877d575e3f64c274984", "is_reserved": 0, "lon": -77.04893666666666, "is_disabled": 0, "fusion_lat": 0.0, "lat": 38.90373183333333, "bike_id": "63f730a720e26877d575e3f64c274984", "fusion_lon": 0.0}, {"rental_uris": {"ios": "https://dc.lft.to/lastmile_qr_scan", "android": "https://dc.lft.to/lastmile_qr_scan"}, "type": "electric_bike", "name": "fd0d18f8be71dcbe3b14bbb986d2af71", "is_reserved": 0, "lon": -76.97952366666667, "is_disabled": 0, "fusion_lat": 0.0, "lat": 38.920389166666666, "bike_id": "fd0d18f8be71dcbe3b14bbb986d2af71", "fusion_lon": 0.0}, {"rental_uris": {"ios": "https://dc.lft.to/lastmile_qr_scan", "android": "https://dc.lft.to/lastmile_qr_scan"}, "type": "electric_bike", "name": "22addd7eb3fec11497fe4e8e5dddbd7c", "is_reserved": 0, "lon": -76.983369, "is_disabled": 0, "fusion_lat": 0.0, "lat": 38.86243983333333, "bike_id": "22addd7eb3fec11497fe4e8e5dddbd7c", "fusion_lon": 0.0}, {"rental_uris": {"ios": "https://dc.lft.to/lastmile_qr_scan", "android": "https://dc.lft.to/lastmile_qr_scan"}, "type": "electric_scooter", "name": "a546e07f491924b9acbd0ca332bf94fb", "is_reserved": 0, "lon": -77.04031983333333, "is_disabled": 0, "fusion_lat": 0.0, "lat": 38.9245545, "bike_id": "a546e07f491924b9acbd0ca332bf94fb", "fusion_lon": 0.0}, {"rental_uris": {"ios": "https://dc.lft.to/lastmile_qr_scan", "android": "https://dc.lft.to/lastmile_qr_scan"}, "type": "electric_scooter", "name": "2a91b13c9dfefd06f0cdc6d992b37275", "is_reserved": 0, "lon": -77.04815383333333, "is_disabled": 0, "fusion_lat": 0.0, "lat": 38.909709666666664, "bike_id": "2a91b13c9dfefd06f0cdc6d992b37275", "fusion_lon": 0.0}, {"rental_uris": {"ios": "https://dc.lft.to/lastmile_qr_scan", "android": "https://dc.lft.to/lastmile_qr_scan"}, "type": "electric_bike", "name": "83840ce56a76327028399979864d7d0e", "is_reserved": 0, "lon": -77.07244283333333, "is_disabled": 0, "fusion_lat": 0.0, "lat": 38.8136475, "bike_id": "83840ce56a76327028399979864d7d0e", "fusion_lon": 0.0}, {"rental_uris": {"ios": "https://dc.lft.to/lastmile_qr_scan", "android": "https://dc.lft.to/lastmile_qr_scan"}, "type": "electric_scooter", "name": "599db1ede22565dc3e0cbdbcdc1cf14c", "is_reserved": 0, "lon": -77.03215566666667, "is_disabled": 0, "fusion_lat": 0.0, "lat": 38.913881333333336, "bike_id": "599db1ede22565dc3e0cbdbcdc1cf14c", "fusion_lon": 0.0}, {"rental_uris": {"ios": "https://dc.lft.to/lastmile_qr_scan", "android": "https://dc.lft.to/lastmile_qr_scan"}, "type": "electric_scooter", "name": "2aa4b68f8d1226ff67fc680a0664a38b", "is_reserved": 0, "lon": -77.0474395, "is_disabled": 0, "fusion_lat": 0.0, "lat": 38.901476, "bike_id": "2aa4b68f8d1226ff67fc680a0664a38b", "fusion_lon": 0.0}, {"rental_uris": {"ios": "https://dc.lft.to/lastmile_qr_scan", "android": "https://dc.lft.to/lastmile_qr_scan"}, "type": "electric_scooter", "name": "f94e053e187974ee599b6ae7449ceb1a", "is_reserved": 0, "lon": -77.04414633333333, "is_disabled": 0, "fusion_lat": 0.0, "lat": 38.9257765, "bike_id": "f94e053e187974ee599b6ae7449ceb1a", "fusion_lon": 0.0}, {"rental_uris": {"ios": "https://dc.lft.to/lastmile_qr_scan", "android": "https://dc.lft.to/lastmile_qr_scan"}, "type": "electric_scooter", "name": "968cacd2b119864623f01916a7c0d651", "is_reserved": 0, "lon": -76.94323766666666, "is_disabled": 0, "fusion_lat": 0.0, "lat": 38.8791625, "bike_id": "968cacd2b119864623f01916a7c0d651", "fusion_lon": 0.0}, {"rental_uris": {"ios": "https://dc.lft.to/lastmile_qr_scan", "android": "https://dc.lft.to/lastmile_qr_scan"}, "type": "electric_scooter", "name": "350b2e503d1c1d4e18a1952c87469558", "is_reserved": 0, "lon": -77.02095133333333, "is_disabled": 0, "fusion_lat": 0.0, "lat": 38.9097085, "bike_id": "350b2e503d1c1d4e18a1952c87469558", "fusion_lon": 0.0}, {"rental_uris": {"ios": "https://dc.lft.to/lastmile_qr_scan", "android": "https://dc.lft.to/lastmile_qr_scan"}, "type": "electric_scooter", "name": "0e503e5e5a3b2befd890baed7391ce77", "is_reserved": 0, "lon": -76.98570133333334, "is_disabled": 0, "fusion_lat": 0.0, "lat": 38.896200666666665, "bike_id": "0e503e5e5a3b2befd890baed7391ce77", "fusion_lon": 0.0}, {"rental_uris": {"ios": "https://dc.lft.to/lastmile_qr_scan", "android": "https://dc.lft.to/lastmile_qr_scan"}, "type": "electric_scooter", "name": "a475afe009e46f92efeb4a0d84384db0", "is_reserved": 0, "lon": -77.050069, "is_disabled": 0, "fusion_lat": 0.0, "lat": 38.8922885, "bike_id": "a475afe009e46f92efeb4a0d84384db0", "fusion_lon": 0.0}, {"rental_uris": {"ios": "https://dc.lft.to/lastmile_qr_scan", "android": "https://dc.lft.to/lastmile_qr_scan"}, "type": "electric_scooter", "name": "ed1c370b9fd2dbf1e13408fe6568310c", "is_reserved": 0, "lon": -77.0276125, "is_disabled": 0, "fusion_lat": 0.0, "lat": 38.91345716666667, "bike_id": "ed1c370b9fd2dbf1e13408fe6568310c", "fusion_lon": 0.0}, {"rental_uris": {"ios": "https://dc.lft.to/lastmile_qr_scan", "android": "https://dc.lft.to/lastmile_qr_scan"}, "type": "electric_scooter", "name": "802fa8cab74441ae5ecfe99ccf59975b", "is_reserved": 0, "lon": -77.01522916666667, "is_disabled": 0, "fusion_lat": 0.0, "lat": 38.90147966666667, "bike_id": "802fa8cab74441ae5ecfe99ccf59975b", "fusion_lon": 0.0}, {"rental_uris": {"ios": "https://dc.lft.to/lastmile_qr_scan", "android": "https://dc.lft.to/lastmile_qr_scan"}, "type": "electric_scooter", "name": "866a1986aa6931d1ea96b0afe66efee6", "is_reserved": 0, "lon": -77.040765, "is_disabled": 0, "fusion_lat": 0.0, "lat": 38.91410883333333, "bike_id": "866a1986aa6931d1ea96b0afe66efee6", "fusion_lon": 0.0}, {"rental_uris": {"ios": "https://dc.lft.to/lastmile_qr_scan", "android": "https://dc.lft.to/lastmile_qr_scan"}, "type": "electric_scooter", "name": "660ddfa4fe18e61b4782bcca22cad66a", "is_reserved": 0, "lon": -77.04515133333334, "is_disabled": 0, "fusion_lat": 0.0, "lat": 38.8962575, "bike_id": "660ddfa4fe18e61b4782bcca22cad66a", "fusion_lon": 0.0}, {"rental_uris": {"ios": "https://dc.lft.to/lastmile_qr_scan", "android": "https://dc.lft.to/lastmile_qr_scan"}, "type": "electric_scooter", "name": "41b31e8beaf77dc8aa0ac908d9fd1eb6", "is_reserved": 0, "lon": -77.04251, "is_disabled": 0, "fusion_lat": 0.0, "lat": 38.922516, "bike_id": "41b31e8beaf77dc8aa0ac908d9fd1eb6", "fusion_lon": 0.0}, {"rental_uris": {"ios": "https://dc.lft.to/lastmile_qr_scan", "android": "https://dc.lft.to/lastmile_qr_scan"}, "type": "electric_scooter", "name": "8c693b2c3f9356a0b08aaed7774df679", "is_reserved": 0, "lon": -76.98401066666666, "is_disabled": 0, "fusion_lat": 0.0, "lat": 38.925135166666664, "bike_id": "8c693b2c3f9356a0b08aaed7774df679", "fusion_lon": 0.0}, {"rental_uris": {"ios": "https://dc.lft.to/lastmile_qr_scan", "android": "https://dc.lft.to/lastmile_qr_scan"}, "type": "electric_scooter", "name": "5569ebb34e9ddb2070abb8badbf09bbb", "is_reserved": 0, "lon": -76.9860715, "is_disabled": 0, "fusion_lat": 0.0, "lat": 38.8783795, "bike_id": "5569ebb34e9ddb2070abb8badbf09bbb", "fusion_lon": 0.0}, {"rental_uris": {"ios": "https://dc.lft.to/lastmile_qr_scan", "android": "https://dc.lft.to/lastmile_qr_scan"}, "type": "electric_scooter", "name": "c6a8a417359706fcb8ed095e65c168e5", "is_reserved": 0, "lon": -77.01945433333333, "is_disabled": 0, "fusion_lat": 0.0, "lat": 38.87622316666667, "bike_id": "c6a8a417359706fcb8ed095e65c168e5", "fusion_lon": 0.0}, {"rental_uris": {"ios": "https://dc.lft.to/lastmile_qr_scan", "android": "https://dc.lft.to/lastmile_qr_scan"}, "type": "electric_scooter", "name": "a416c2327b846fd82013bc49b2423d73", "is_reserved": 0, "lon": -77.00871766666667, "is_disabled": 0, "fusion_lat": 0.0, "lat": 38.912664, "bike_id": "a416c2327b846fd82013bc49b2423d73", "fusion_lon": 0.0}, {"rental_uris": {"ios": "https://dc.lft.to/lastmile_qr_scan", "android": "https://dc.lft.to/lastmile_qr_scan"}, "type": "electric_scooter", "name": "4a590be4c713e0ed6ab845a0e7372257", "is_reserved": 0, "lon": -76.99144816666667, "is_disabled": 0, "fusion_lat": 0.0, "lat": 38.908695, "bike_id": "4a590be4c713e0ed6ab845a0e7372257", "fusion_lon": 0.0}, {"rental_uris": {"ios": "https://dc.lft.to/lastmile_qr_scan", "android": "https://dc.lft.to/lastmile_qr_scan"}, "type": "electric_scooter", "name": "508ba6d0aa22787a2ab0078caf5085a1", "is_reserved": 0, "lon": -77.02052816666667, "is_disabled": 0, "fusion_lat": 0.0, "lat": 38.9224585, "bike_id": "508ba6d0aa22787a2ab0078caf5085a1", "fusion_lon": 0.0}, {"rental_uris": {"ios": "https://dc.lft.to/lastmile_qr_scan", "android": "https://dc.lft.to/lastmile_qr_scan"}, "type": "electric_scooter", "name": "5ae882c1390e06611e4481a443455dc3", "is_reserved": 0, "lon": -77.03474966666667, "is_disabled": 0, "fusion_lat": 0.0, "lat": 38.930222666666666, "bike_id": "5ae882c1390e06611e4481a443455dc3", "fusion_lon": 0.0}, {"rental_uris": {"ios": "https://dc.lft.to/lastmile_qr_scan", "android": "https://dc.lft.to/lastmile_qr_scan"}, "type": "electric_scooter", "name": "1cd07a01f67913472b5ddcf023084212", "is_reserved": 0, "lon": -76.99410683333333, "is_disabled": 0, "fusion_lat": 0.0, "lat": 38.877851166666666, "bike_id": "1cd07a01f67913472b5ddcf023084212", "fusion_lon": 0.0}, {"rental_uris": {"ios": "https://dc.lft.to/lastmile_qr_scan", "android": "https://dc.lft.to/lastmile_qr_scan"}, "type": "electric_bike", "name": "df98f2c264aae0c9794a205cc0ae83b3", "is_reserved": 0, "lon": -76.88974166666667, "is_disabled": 0, "fusion_lat": 0.0, "lat": 39.00782016666667, "bike_id": "df98f2c264aae0c9794a205cc0ae83b3", "fusion_lon": 0.0}, {"rental_uris": {"ios": "https://dc.lft.to/lastmile_qr_scan", "android": "https://dc.lft.to/lastmile_qr_scan"}, "type": "electric_bike", "name": "cdb75e5150e7d61d0ffdc4256848167d", "is_reserved": 0, "lon": -76.98273133333333, "is_disabled": 0, "fusion_lat": 0.0, "lat": 38.84684466666667, "bike_id": "cdb75e5150e7d61d0ffdc4256848167d", "fusion_lon": 0.0}, {"rental_uris": {"ios": "https://dc.lft.to/lastmile_qr_scan", "android": "https://dc.lft.to/lastmile_qr_scan"}, "type": "electric_scooter", "name": "46a233c4d39e26bd37fd27d3911b59f2", "is_reserved": 0, "lon": -77.04539266666667, "is_disabled": 0, "fusion_lat": 0.0, "lat": 38.93270033333334, "bike_id": "46a233c4d39e26bd37fd27d3911b59f2", "fusion_lon": 0.0}, {"rental_uris": {"ios": "https://dc.lft.to/lastmile_qr_scan", "android": "https://dc.lft.to/lastmile_qr_scan"}, "type": "electric_bike", "name": "06d1c5dc1a0fce58bc84ed1a62c0463d", "is_reserved": 0, "lon": -76.97572133333334, "is_disabled": 0, "fusion_lat": 0.0, "lat": 38.89946033333333, "bike_id": "06d1c5dc1a0fce58bc84ed1a62c0463d", "fusion_lon": 0.0}, {"rental_uris": {"ios": "https://dc.lft.to/lastmile_qr_scan", "android": "https://dc.lft.to/lastmile_qr_scan"}, "type": "electric_scooter", "name": "d70d4a4d6f98e2106634e4a682078452", "is_reserved": 0, "lon": -77.02135966666667, "is_disabled": 0, "fusion_lat": 0.0, "lat": 38.92488066666667, "bike_id": "d70d4a4d6f98e2106634e4a682078452", "fusion_lon": 0.0}, {"rental_uris": {"ios": "https://dc.lft.to/lastmile_qr_scan", "android": "https://dc.lft.to/lastmile_qr_scan"}, "type": "electric_scooter", "name": "93fd2aea3811b4a95a5a2e9b18002e6c", "is_reserved": 0, "lon": -77.028849, "is_disabled": 0, "fusion_lat": 0.0, "lat": 38.90335666666667, "bike_id": "93fd2aea3811b4a95a5a2e9b18002e6c", "fusion_lon": 0.0}, {"rental_uris": {"ios": "https://dc.lft.to/lastmile_qr_scan", "android": "https://dc.lft.to/lastmile_qr_scan"}, "type": "electric_scooter", "name": "30991294fb614b5c342e2436322daa51", "is_reserved": 0, "lon": -77.027855, "is_disabled": 0, "fusion_lat": 0.0, "lat": 38.892231833333334, "bike_id": "30991294fb614b5c342e2436322daa51", "fusion_lon": 0.0}, {"rental_uris": {"ios": "https://dc.lft.to/lastmile_qr_scan", "android": "https://dc.lft.to/lastmile_qr_scan"}, "type": "electric_scooter", "name": "7b89fa0267e64cacc44f6f9f563ecdf8", "is_reserved": 0, "lon": -77.03191983333333, "is_disabled": 0, "fusion_lat": 0.0, "lat": 38.914205333333335, "bike_id": "7b89fa0267e64cacc44f6f9f563ecdf8", "fusion_lon": 0.0}, {"rental_uris": {"ios": "https://dc.lft.to/lastmile_qr_scan", "android": "https://dc.lft.to/lastmile_qr_scan"}, "type": "electric_bike", "name": "a0142177ee7c9f0b2112b027d8b3bdb8", "is_reserved": 0, "lon": -77.02024883333333, "is_disabled": 0, "fusion_lat": 0.0, "lat": 38.9655555, "bike_id": "a0142177ee7c9f0b2112b027d8b3bdb8", "fusion_lon": 0.0}, {"rental_uris": {"ios": "https://dc.lft.to/lastmile_qr_scan", "android": "https://dc.lft.to/lastmile_qr_scan"}, "type": "electric_scooter", "name": "11ff50c088b1a16971193896918e21c4", "is_reserved": 0, "lon": -77.04896266666667, "is_disabled": 0, "fusion_lat": 0.0, "lat": 38.902989166666664, "bike_id": "11ff50c088b1a16971193896918e21c4", "fusion_lon": 0.0}, {"rental_uris": {"ios": "https://dc.lft.to/lastmile_qr_scan", "android": "https://dc.lft.to/lastmile_qr_scan"}, "type": "electric_scooter", "name": "ffc5d75a2cd3263ab2f9b405e9edfc52", "is_reserved": 0, "lon": -77.06342333333333, "is_disabled": 0, "fusion_lat": 0.0, "lat": 38.90840766666667, "bike_id": "ffc5d75a2cd3263ab2f9b405e9edfc52", "fusion_lon": 0.0}, {"rental_uris": {"ios": "https://dc.lft.to/lastmile_qr_scan", "android": "https://dc.lft.to/lastmile_qr_scan"}, "type": "electric_scooter", "name": "6be2425957261034b7dc9448b81a7f21", "is_reserved": 0, "lon": -77.01375116666667, "is_disabled": 0, "fusion_lat": 0.0, "lat": 38.869605166666666, "bike_id": "6be2425957261034b7dc9448b81a7f21", "fusion_lon": 0.0}, {"rental_uris": {"ios": "https://dc.lft.to/lastmile_qr_scan", "android": "https://dc.lft.to/lastmile_qr_scan"}, "type": "electric_scooter", "name": "88e6db46453c75c44b2c935d153f7434", "is_reserved": 0, "lon": -77.0381415, "is_disabled": 0, "fusion_lat": 0.0, "lat": 38.914013833333335, "bike_id": "88e6db46453c75c44b2c935d153f7434", "fusion_lon": 0.0}, {"rental_uris": {"ios": "https://dc.lft.to/lastmile_qr_scan", "android": "https://dc.lft.to/lastmile_qr_scan"}, "type": "electric_scooter", "name": "d83f281564ee41730ddf54b7a511a39f", "is_reserved": 0, "lon": -76.99156166666667, "is_disabled": 0, "fusion_lat": 0.0, "lat": 38.900405166666665, "bike_id": "d83f281564ee41730ddf54b7a511a39f", "fusion_lon": 0.0}, {"rental_uris": {"ios": "https://dc.lft.to/lastmile_qr_scan", "android": "https://dc.lft.to/lastmile_qr_scan"}, "type": "electric_scooter", "name": "885133afca26f4894ad87e407b9edb58", "is_reserved": 0, "lon": -77.03468466666666, "is_disabled": 0, "fusion_lat": 0.0, "lat": 38.9102415, "bike_id": "885133afca26f4894ad87e407b9edb58", "fusion_lon": 0.0}, {"rental_uris": {"ios": "https://dc.lft.to/lastmile_qr_scan", "android": "https://dc.lft.to/lastmile_qr_scan"}, "type": "electric_scooter", "name": "6f0d48d7491d24758ac55fe4218fcac7", "is_reserved": 0, "lon": -77.00394883333334, "is_disabled": 0, "fusion_lat": 0.0, "lat": 38.9076155, "bike_id": "6f0d48d7491d24758ac55fe4218fcac7", "fusion_lon": 0.0}, {"rental_uris": {"ios": "https://dc.lft.to/lastmile_qr_scan", "android": "https://dc.lft.to/lastmile_qr_scan"}, "type": "electric_scooter", "name": "553ad8ed88b9e39bce4b8e5c991ad4c0", "is_reserved": 0, "lon": -77.01015266666667, "is_disabled": 0, "fusion_lat": 0.0, "lat": 38.914120833333335, "bike_id": "553ad8ed88b9e39bce4b8e5c991ad4c0", "fusion_lon": 0.0}, {"rental_uris": {"ios": "https://dc.lft.to/lastmile_qr_scan", "android": "https://dc.lft.to/lastmile_qr_scan"}, "type": "electric_scooter", "name": "74e13a80f68debb49d988f73da99e81a", "is_reserved": 0, "lon": -77.02692033333334, "is_disabled": 0, "fusion_lat": 0.0, "lat": 38.91147383333333, "bike_id": "74e13a80f68debb49d988f73da99e81a", "fusion_lon": 0.0}, {"rental_uris": {"ios": "https://dc.lft.to/lastmile_qr_scan", "android": "https://dc.lft.to/lastmile_qr_scan"}, "type": "electric_scooter", "name": "5fa1c21663f2b3e165269f3b9092e1ce", "is_reserved": 0, "lon": -77.0198395, "is_disabled": 0, "fusion_lat": 0.0, "lat": 38.898387166666666, "bike_id": "5fa1c21663f2b3e165269f3b9092e1ce", "fusion_lon": 0.0}, {"rental_uris": {"ios": "https://dc.lft.to/lastmile_qr_scan", "android": "https://dc.lft.to/lastmile_qr_scan"}, "type": "electric_scooter", "name": "bf548dbae34a08ef9fafe6a12863854d", "is_reserved": 0, "lon": -77.0423205, "is_disabled": 0, "fusion_lat": 0.0, "lat": 38.92200866666667, "bike_id": "bf548dbae34a08ef9fafe6a12863854d", "fusion_lon": 0.0}, {"rental_uris": {"ios": "https://dc.lft.to/lastmile_qr_scan", "android": "https://dc.lft.to/lastmile_qr_scan"}, "type": "electric_scooter", "name": "c29f58b52916f8d921b307d719d42fe0", "is_reserved": 0, "lon": -77.03364816666667, "is_disabled": 0, "fusion_lat": 0.0, "lat": 38.930559833333334, "bike_id": "c29f58b52916f8d921b307d719d42fe0", "fusion_lon": 0.0}, {"rental_uris": {"ios": "https://dc.lft.to/lastmile_qr_scan", "android": "https://dc.lft.to/lastmile_qr_scan"}, "type": "electric_scooter", "name": "1f4727c18b28b4f7b63912dbfa981814", "is_reserved": 0, "lon": -77.05599666666667, "is_disabled": 0, "fusion_lat": 0.0, "lat": 38.89426316666667, "bike_id": "1f4727c18b28b4f7b63912dbfa981814", "fusion_lon": 0.0}, {"rental_uris": {"ios": "https://dc.lft.to/lastmile_qr_scan", "android": "https://dc.lft.to/lastmile_qr_scan"}, "type": "electric_scooter", "name": "7297cda702bb10ebb77430f48a203884", "is_reserved": 0, "lon": -77.02088166666667, "is_disabled": 0, "fusion_lat": 0.0, "lat": 38.92715616666667, "bike_id": "7297cda702bb10ebb77430f48a203884", "fusion_lon": 0.0}, {"rental_uris": {"ios": "https://dc.lft.to/lastmile_qr_scan", "android": "https://dc.lft.to/lastmile_qr_scan"}, "type": "electric_scooter", "name": "b91cac628c3aaa0205ddf7336a522e24", "is_reserved": 0, "lon": -77.03295166666666, "is_disabled": 0, "fusion_lat": 0.0, "lat": 38.92449033333333, "bike_id": "b91cac628c3aaa0205ddf7336a522e24", "fusion_lon": 0.0}, {"rental_uris": {"ios": "https://dc.lft.to/lastmile_qr_scan", "android": "https://dc.lft.to/lastmile_qr_scan"}, "type": "electric_scooter", "name": "d47439adc84accedbc3188914b44754e", "is_reserved": 0, "lon": -77.02147933333333, "is_disabled": 0, "fusion_lat": 0.0, "lat": 38.91322233333333, "bike_id": "d47439adc84accedbc3188914b44754e", "fusion_lon": 0.0}, {"rental_uris": {"ios": "https://dc.lft.to/lastmile_qr_scan", "android": "https://dc.lft.to/lastmile_qr_scan"}, "type": "electric_scooter", "name": "4ef17a1d8db60f94becdf59ed2044a58", "is_reserved": 0, "lon": -77.0305805, "is_disabled": 0, "fusion_lat": 0.0, "lat": 38.90964666666667, "bike_id": "4ef17a1d8db60f94becdf59ed2044a58", "fusion_lon": 0.0}, {"rental_uris": {"ios": "https://dc.lft.to/lastmile_qr_scan", "android": "https://dc.lft.to/lastmile_qr_scan"}, "type": "electric_scooter", "name": "c7bd59039d277f7c679f79a8ee585950", "is_reserved": 0, "lon": -77.01355616666666, "is_disabled": 0, "fusion_lat": 0.0, "lat": 38.91941466666667, "bike_id": "c7bd59039d277f7c679f79a8ee585950", "fusion_lon": 0.0}, {"rental_uris": {"ios": "https://dc.lft.to/lastmile_qr_scan", "android": "https://dc.lft.to/lastmile_qr_scan"}, "type": "electric_scooter", "name": "47ff81fb34ffdac6893ec581bb4018ba", "is_reserved": 0, "lon": -77.02145033333333, "is_disabled": 0, "fusion_lat": 0.0, "lat": 38.90305716666667, "bike_id": "47ff81fb34ffdac6893ec581bb4018ba", "fusion_lon": 0.0}, {"rental_uris": {"ios": "https://dc.lft.to/lastmile_qr_scan", "android": "https://dc.lft.to/lastmile_qr_scan"}, "type": "electric_scooter", "name": "6ea895591c546ab4dd5bb4d3df8947e8", "is_reserved": 0, "lon": -77.03016833333334, "is_disabled": 0, "fusion_lat": 0.0, "lat": 38.88737066666667, "bike_id": "6ea895591c546ab4dd5bb4d3df8947e8", "fusion_lon": 0.0}, {"rental_uris": {"ios": "https://dc.lft.to/lastmile_qr_scan", "android": "https://dc.lft.to/lastmile_qr_scan"}, "type": "electric_scooter", "name": "3d058f0556170941854db9a5c1fa2843", "is_reserved": 0, "lon": -77.0449305, "is_disabled": 0, "fusion_lat": 0.0, "lat": 38.905117833333335, "bike_id": "3d058f0556170941854db9a5c1fa2843", "fusion_lon": 0.0}, {"rental_uris": {"ios": "https://dc.lft.to/lastmile_qr_scan", "android": "https://dc.lft.to/lastmile_qr_scan"}, "type": "electric_scooter", "name": "a6b1cf5c96bce4f9aaca2f2d43a2c900", "is_reserved": 0, "lon": -77.0903695, "is_disabled": 0, "fusion_lat": 0.0, "lat": 38.95601033333333, "bike_id": "a6b1cf5c96bce4f9aaca2f2d43a2c900", "fusion_lon": 0.0}, {"rental_uris": {"ios": "https://dc.lft.to/lastmile_qr_scan", "android": "https://dc.lft.to/lastmile_qr_scan"}, "type": "electric_scooter", "name": "ba3d3467ba39439750e439f409356a14", "is_reserved": 0, "lon": -77.03424666666666, "is_disabled": 0, "fusion_lat": 0.0, "lat": 38.9218655, "bike_id": "ba3d3467ba39439750e439f409356a14", "fusion_lon": 0.0}, {"rental_uris": {"ios": "https://dc.lft.to/lastmile_qr_scan", "android": "https://dc.lft.to/lastmile_qr_scan"}, "type": "electric_scooter", "name": "79965f628fef4045bdb6dff1b4386d74", "is_reserved": 0, "lon": -76.96975183333333, "is_disabled": 0, "fusion_lat": 0.0, "lat": 38.861462333333336, "bike_id": "79965f628fef4045bdb6dff1b4386d74", "fusion_lon": 0.0}, {"rental_uris": {"ios": "https://dc.lft.to/lastmile_qr_scan", "android": "https://dc.lft.to/lastmile_qr_scan"}, "type": "electric_scooter", "name": "e8f220e2f155d7ec51d1089971c37a5a", "is_reserved": 0, "lon": -77.00597583333334, "is_disabled": 0, "fusion_lat": 0.0, "lat": 38.87573866666666, "bike_id": "e8f220e2f155d7ec51d1089971c37a5a", "fusion_lon": 0.0}, {"rental_uris": {"ios": "https://dc.lft.to/lastmile_qr_scan", "android": "https://dc.lft.to/lastmile_qr_scan"}, "type": "electric_scooter", "name": "e39d0cf28b3c9139991c7222b29b32cc", "is_reserved": 0, "lon": -77.03714633333334, "is_disabled": 0, "fusion_lat": 0.0, "lat": 38.92655033333333, "bike_id": "e39d0cf28b3c9139991c7222b29b32cc", "fusion_lon": 0.0}, {"rental_uris": {"ios": "https://dc.lft.to/lastmile_qr_scan", "android": "https://dc.lft.to/lastmile_qr_scan"}, "type": "electric_scooter", "name": "7e972bcbb748b554ab2678610003dbda", "is_reserved": 0, "lon": -77.03576166666667, "is_disabled": 0, "fusion_lat": 0.0, "lat": 38.917772666666664, "bike_id": "7e972bcbb748b554ab2678610003dbda", "fusion_lon": 0.0}, {"rental_uris": {"ios": "https://dc.lft.to/lastmile_qr_scan", "android": "https://dc.lft.to/lastmile_qr_scan"}, "type": "electric_scooter", "name": "3cb08dee2ed770ff65334d027fcdeac7", "is_reserved": 0, "lon": -77.032387, "is_disabled": 0, "fusion_lat": 0.0, "lat": 38.92769666666667, "bike_id": "3cb08dee2ed770ff65334d027fcdeac7", "fusion_lon": 0.0}, {"rental_uris": {"ios": "https://dc.lft.to/lastmile_qr_scan", "android": "https://dc.lft.to/lastmile_qr_scan"}, "type": "electric_bike", "name": "6ccc845f18f9d81520872b9f8e63b706", "is_reserved": 0, "lon": -77.12652833333334, "is_disabled": 0, "fusion_lat": 0.0, "lat": 38.81911383333333, "bike_id": "6ccc845f18f9d81520872b9f8e63b706", "fusion_lon": 0.0}, {"rental_uris": {"ios": "https://dc.lft.to/lastmile_qr_scan", "android": "https://dc.lft.to/lastmile_qr_scan"}, "type": "electric_scooter", "name": "71ce5c12cf8161557c7ea4f3a6b17bea", "is_reserved": 0, "lon": -77.04182266666666, "is_disabled": 0, "fusion_lat": 0.0, "lat": 38.9016185, "bike_id": "71ce5c12cf8161557c7ea4f3a6b17bea", "fusion_lon": 0.0}, {"rental_uris": {"ios": "https://dc.lft.to/lastmile_qr_scan", "android": "https://dc.lft.to/lastmile_qr_scan"}, "type": "electric_bike", "name": "d0a7a99e5880fc42092355b41096855f", "is_reserved": 0, "lon": -77.08527216666667, "is_disabled": 0, "fusion_lat": 0.0, "lat": 38.8564865, "bike_id": "d0a7a99e5880fc42092355b41096855f", "fusion_lon": 0.0}, {"rental_uris": {"ios": "https://dc.lft.to/lastmile_qr_scan", "android": "https://dc.lft.to/lastmile_qr_scan"}, "type": "electric_scooter", "name": "50b32049ce13fabe6647fad9413873f4", "is_reserved": 0, "lon": -77.02503883333333, "is_disabled": 0, "fusion_lat": 0.0, "lat": 38.941763333333334, "bike_id": "50b32049ce13fabe6647fad9413873f4", "fusion_lon": 0.0}, {"rental_uris": {"ios": "https://dc.lft.to/lastmile_qr_scan", "android": "https://dc.lft.to/lastmile_qr_scan"}, "type": "electric_bike", "name": "0e1eaa10a23a0be818321deea1814149", "is_reserved": 0, "lon": -77.08139166666666, "is_disabled": 0, "fusion_lat": 0.0, "lat": 38.823012166666665, "bike_id": "0e1eaa10a23a0be818321deea1814149", "fusion_lon": 0.0}, {"rental_uris": {"ios": "https://dc.lft.to/lastmile_qr_scan", "android": "https://dc.lft.to/lastmile_qr_scan"}, "type": "electric_scooter", "name": "b4124fa19aa3fc255ccf2d2977408c54", "is_reserved": 0, "lon": -77.02963266666667, "is_disabled": 0, "fusion_lat": 0.0, "lat": 38.92852516666667, "bike_id": "b4124fa19aa3fc255ccf2d2977408c54", "fusion_lon": 0.0}, {"rental_uris": {"ios": "https://dc.lft.to/lastmile_qr_scan", "android": "https://dc.lft.to/lastmile_qr_scan"}, "type": "electric_scooter", "name": "bf1c82007f91442c54c615716c4c7019", "is_reserved": 0, "lon": -77.02433716666667, "is_disabled": 0, "fusion_lat": 0.0, "lat": 38.907224, "bike_id": "bf1c82007f91442c54c615716c4c7019", "fusion_lon": 0.0}, {"rental_uris": {"ios": "https://dc.lft.to/lastmile_qr_scan", "android": "https://dc.lft.to/lastmile_qr_scan"}, "type": "electric_scooter", "name": "3bcf9f34ae62a47bd88ba9f33393e148", "is_reserved": 0, "lon": -77.02724666666667, "is_disabled": 0, "fusion_lat": 0.0, "lat": 38.934009, "bike_id": "3bcf9f34ae62a47bd88ba9f33393e148", "fusion_lon": 0.0}, {"rental_uris": {"ios": "https://dc.lft.to/lastmile_qr_scan", "android": "https://dc.lft.to/lastmile_qr_scan"}, "type": "electric_scooter", "name": "1da00221751dde1037b6acd348dd2312", "is_reserved": 0, "lon": -77.078555, "is_disabled": 0, "fusion_lat": 0.0, "lat": 38.931439833333336, "bike_id": "1da00221751dde1037b6acd348dd2312", "fusion_lon": 0.0}, {"rental_uris": {"ios": "https://dc.lft.to/lastmile_qr_scan", "android": "https://dc.lft.to/lastmile_qr_scan"}, "type": "electric_bike", "name": "bdb6d8a284eff06ae4b03059f21e22f7", "is_reserved": 0, "lon": -76.963205, "is_disabled": 0, "fusion_lat": 0.0, "lat": 38.93896066666667, "bike_id": "bdb6d8a284eff06ae4b03059f21e22f7", "fusion_lon": 0.0}, {"rental_uris": {"ios": "https://dc.lft.to/lastmile_qr_scan", "android": "https://dc.lft.to/lastmile_qr_scan"}, "type": "electric_scooter", "name": "7c2836ed90e668634d207ad54ffb9ab2", "is_reserved": 0, "lon": -77.03776116666667, "is_disabled": 0, "fusion_lat": 0.0, "lat": 38.9126445, "bike_id": "7c2836ed90e668634d207ad54ffb9ab2", "fusion_lon": 0.0}, {"rental_uris": {"ios": "https://dc.lft.to/lastmile_qr_scan", "android": "https://dc.lft.to/lastmile_qr_scan"}, "type": "electric_scooter", "name": "9a8e08d6bc35828ea3661f76ccdad067", "is_reserved": 0, "lon": -77.03435816666666, "is_disabled": 0, "fusion_lat": 0.0, "lat": 38.906756, "bike_id": "9a8e08d6bc35828ea3661f76ccdad067", "fusion_lon": 0.0}, {"rental_uris": {"ios": "https://dc.lft.to/lastmile_qr_scan", "android": "https://dc.lft.to/lastmile_qr_scan"}, "type": "electric_scooter", "name": "220f8f41d205862c7f4bd602ae87f4ee", "is_reserved": 0, "lon": -77.05938, "is_disabled": 0, "fusion_lat": 0.0, "lat": 38.9014695, "bike_id": "220f8f41d205862c7f4bd602ae87f4ee", "fusion_lon": 0.0}, {"rental_uris": {"ios": "https://dc.lft.to/lastmile_qr_scan", "android": "https://dc.lft.to/lastmile_qr_scan"}, "type": "electric_scooter", "name": "e5e9fe65b9f3d5c4de18a13607f12ac9", "is_reserved": 0, "lon": -77.009339, "is_disabled": 0, "fusion_lat": 0.0, "lat": 38.89981, "bike_id": "e5e9fe65b9f3d5c4de18a13607f12ac9", "fusion_lon": 0.0}, {"rental_uris": {"ios": "https://dc.lft.to/lastmile_qr_scan", "android": "https://dc.lft.to/lastmile_qr_scan"}, "type": "electric_scooter", "name": "6491154822e5c2cbf22355cb53729722", "is_reserved": 0, "lon": -77.00043916666667, "is_disabled": 0, "fusion_lat": 0.0, "lat": 38.87492816666666, "bike_id": "6491154822e5c2cbf22355cb53729722", "fusion_lon": 0.0}, {"rental_uris": {"ios": "https://dc.lft.to/lastmile_qr_scan", "android": "https://dc.lft.to/lastmile_qr_scan"}, "type": "electric_scooter", "name": "32991cb98fc8b11ef00859d910da26cd", "is_reserved": 0, "lon": -77.0470185, "is_disabled": 0, "fusion_lat": 0.0, "lat": 38.921638333333334, "bike_id": "32991cb98fc8b11ef00859d910da26cd", "fusion_lon": 0.0}, {"rental_uris": {"ios": "https://dc.lft.to/lastmile_qr_scan", "android": "https://dc.lft.to/lastmile_qr_scan"}, "type": "electric_scooter", "name": "0e44361f1eef1bf2998b8182a938cfc3", "is_reserved": 0, "lon": -77.03779366666667, "is_disabled": 0, "fusion_lat": 0.0, "lat": 38.939712166666666, "bike_id": "0e44361f1eef1bf2998b8182a938cfc3", "fusion_lon": 0.0}, {"rental_uris": {"ios": "https://dc.lft.to/lastmile_qr_scan", "android": "https://dc.lft.to/lastmile_qr_scan"}, "type": "electric_scooter", "name": "900b3224de67d615a0faf29c7364e433", "is_reserved": 0, "lon": -77.03241883333334, "is_disabled": 0, "fusion_lat": 0.0, "lat": 38.905537833333334, "bike_id": "900b3224de67d615a0faf29c7364e433", "fusion_lon": 0.0}, {"rental_uris": {"ios": "https://dc.lft.to/lastmile_qr_scan", "android": "https://dc.lft.to/lastmile_qr_scan"}, "type": "electric_scooter", "name": "e9b47bd085d1460df04018e5549b4de2", "is_reserved": 0, "lon": -76.9997975, "is_disabled": 0, "fusion_lat": 0.0, "lat": 38.908573833333335, "bike_id": "e9b47bd085d1460df04018e5549b4de2", "fusion_lon": 0.0}, {"rental_uris": {"ios": "https://dc.lft.to/lastmile_qr_scan", "android": "https://dc.lft.to/lastmile_qr_scan"}, "type": "electric_scooter", "name": "ea0f7a00295deb82ab518809e4316f41", "is_reserved": 0, "lon": -77.01866783333334, "is_disabled": 0, "fusion_lat": 0.0, "lat": 38.913646, "bike_id": "ea0f7a00295deb82ab518809e4316f41", "fusion_lon": 0.0}, {"rental_uris": {"ios": "https://dc.lft.to/lastmile_qr_scan", "android": "https://dc.lft.to/lastmile_qr_scan"}, "type": "electric_scooter", "name": "648d9a16530f3f3ca79304e9e42bfa66", "is_reserved": 0, "lon": -77.03188716666666, "is_disabled": 0, "fusion_lat": 0.0, "lat": 38.91423783333333, "bike_id": "648d9a16530f3f3ca79304e9e42bfa66", "fusion_lon": 0.0}, {"rental_uris": {"ios": "https://dc.lft.to/lastmile_qr_scan", "android": "https://dc.lft.to/lastmile_qr_scan"}, "type": "electric_scooter", "name": "0541d13200f2d10d63425120df26c974", "is_reserved": 0, "lon": -77.01941283333333, "is_disabled": 0, "fusion_lat": 0.0, "lat": 38.947055166666665, "bike_id": "0541d13200f2d10d63425120df26c974", "fusion_lon": 0.0}, {"rental_uris": {"ios": "https://dc.lft.to/lastmile_qr_scan", "android": "https://dc.lft.to/lastmile_qr_scan"}, "type": "electric_scooter", "name": "dc392b82f4fe0cca13fa436eb7a41f07", "is_reserved": 0, "lon": -77.04442216666666, "is_disabled": 0, "fusion_lat": 0.0, "lat": 38.901227166666665, "bike_id": "dc392b82f4fe0cca13fa436eb7a41f07", "fusion_lon": 0.0}, {"rental_uris": {"ios": "https://dc.lft.to/lastmile_qr_scan", "android": "https://dc.lft.to/lastmile_qr_scan"}, "type": "electric_bike", "name": "7dbe3dcf04563f2ca84089a20784faac", "is_reserved": 0, "lon": -76.97310216666666, "is_disabled": 0, "fusion_lat": 0.0, "lat": 38.917559833333335, "bike_id": "7dbe3dcf04563f2ca84089a20784faac", "fusion_lon": 0.0}, {"rental_uris": {"ios": "https://dc.lft.to/lastmile_qr_scan", "android": "https://dc.lft.to/lastmile_qr_scan"}, "type": "electric_bike", "name": "3082d426d46e398b9ab1b12ba1ef15b8", "is_reserved": 0, "lon": -76.96086366666667, "is_disabled": 0, "fusion_lat": 0.0, "lat": 38.91856116666666, "bike_id": "3082d426d46e398b9ab1b12ba1ef15b8", "fusion_lon": 0.0}, {"rental_uris": {"ios": "https://dc.lft.to/lastmile_qr_scan", "android": "https://dc.lft.to/lastmile_qr_scan"}, "type": "electric_scooter", "name": "47e1279ebb986de260e1d1a5cc18318c", "is_reserved": 0, "lon": -77.0326165, "is_disabled": 0, "fusion_lat": 0.0, "lat": 38.909612333333335, "bike_id": "47e1279ebb986de260e1d1a5cc18318c", "fusion_lon": 0.0}, {"rental_uris": {"ios": "https://dc.lft.to/lastmile_qr_scan", "android": "https://dc.lft.to/lastmile_qr_scan"}, "type": "electric_scooter", "name": "e855b1243ef72af4b5521d51168ab8cd", "is_reserved": 0, "lon": -77.024088, "is_disabled": 0, "fusion_lat": 0.0, "lat": 38.905716, "bike_id": "e855b1243ef72af4b5521d51168ab8cd", "fusion_lon": 0.0}, {"rental_uris": {"ios": "https://dc.lft.to/lastmile_qr_scan", "android": "https://dc.lft.to/lastmile_qr_scan"}, "type": "electric_scooter", "name": "5cfd276521d6ff1ba4dcd2108dd843cd", "is_reserved": 0, "lon": -77.02413433333334, "is_disabled": 0, "fusion_lat": 0.0, "lat": 38.89229783333333, "bike_id": "5cfd276521d6ff1ba4dcd2108dd843cd", "fusion_lon": 0.0}, {"rental_uris": {"ios": "https://dc.lft.to/lastmile_qr_scan", "android": "https://dc.lft.to/lastmile_qr_scan"}, "type": "electric_bike", "name": "e052d578f617b6ad2535425d54f2368f", "is_reserved": 0, "lon": -77.128404, "is_disabled": 0, "fusion_lat": 0.0, "lat": 38.80053733333333, "bike_id": "e052d578f617b6ad2535425d54f2368f", "fusion_lon": 0.0}, {"rental_uris": {"ios": "https://dc.lft.to/lastmile_qr_scan", "android": "https://dc.lft.to/lastmile_qr_scan"}, "type": "electric_scooter", "name": "86ac9221aa64038f44a0dc6c20f23b60", "is_reserved": 0, "lon": -77.030791, "is_disabled": 0, "fusion_lat": 0.0, "lat": 38.935205833333335, "bike_id": "86ac9221aa64038f44a0dc6c20f23b60", "fusion_lon": 0.0}, {"rental_uris": {"ios": "https://dc.lft.to/lastmile_qr_scan", "android": "https://dc.lft.to/lastmile_qr_scan"}, "type": "electric_scooter", "name": "6573dc577b8cbb99fc7843120a14e483", "is_reserved": 0, "lon": -77.03205416666667, "is_disabled": 0, "fusion_lat": 0.0, "lat": 38.908995833333336, "bike_id": "6573dc577b8cbb99fc7843120a14e483", "fusion_lon": 0.0}, {"rental_uris": {"ios": "https://dc.lft.to/lastmile_qr_scan", "android": "https://dc.lft.to/lastmile_qr_scan"}, "type": "electric_scooter", "name": "1b051c2c118dc6c04c3e372fc512636c", "is_reserved": 0, "lon": -77.03826416666666, "is_disabled": 0, "fusion_lat": 0.0, "lat": 38.912556333333335, "bike_id": "1b051c2c118dc6c04c3e372fc512636c", "fusion_lon": 0.0}, {"rental_uris": {"ios": "https://dc.lft.to/lastmile_qr_scan", "android": "https://dc.lft.to/lastmile_qr_scan"}, "type": "electric_scooter", "name": "27c4895c13042de4d03a13d670f9e54c", "is_reserved": 0, "lon": -77.04632316666667, "is_disabled": 0, "fusion_lat": 0.0, "lat": 38.918124666666664, "bike_id": "27c4895c13042de4d03a13d670f9e54c", "fusion_lon": 0.0}, {"rental_uris": {"ios": "https://dc.lft.to/lastmile_qr_scan", "android": "https://dc.lft.to/lastmile_qr_scan"}, "type": "electric_scooter", "name": "905460d31f50a4c8ae0ca6f4d6aeb242", "is_reserved": 0, "lon": -77.023495, "is_disabled": 0, "fusion_lat": 0.0, "lat": 38.89215766666667, "bike_id": "905460d31f50a4c8ae0ca6f4d6aeb242", "fusion_lon": 0.0}, {"rental_uris": {"ios": "https://dc.lft.to/lastmile_qr_scan", "android": "https://dc.lft.to/lastmile_qr_scan"}, "type": "electric_scooter", "name": "b6997a40b5d1ef7a49103a68ed9189cd", "is_reserved": 0, "lon": -77.0033445, "is_disabled": 0, "fusion_lat": 0.0, "lat": 38.8961265, "bike_id": "b6997a40b5d1ef7a49103a68ed9189cd", "fusion_lon": 0.0}, {"rental_uris": {"ios": "https://dc.lft.to/lastmile_qr_scan", "android": "https://dc.lft.to/lastmile_qr_scan"}, "type": "electric_scooter", "name": "25298b4008757b8897563ccac0fbab1f", "is_reserved": 0, "lon": -77.03320283333333, "is_disabled": 0, "fusion_lat": 0.0, "lat": 38.8877045, "bike_id": "25298b4008757b8897563ccac0fbab1f", "fusion_lon": 0.0}, {"rental_uris": {"ios": "https://dc.lft.to/lastmile_qr_scan", "android": "https://dc.lft.to/lastmile_qr_scan"}, "type": "electric_bike", "name": "5e39e104daadf89a28c7c71304c2857d", "is_reserved": 0, "lon": -76.996763, "is_disabled": 0, "fusion_lat": 0.0, "lat": 38.838211, "bike_id": "5e39e104daadf89a28c7c71304c2857d", "fusion_lon": 0.0}, {"rental_uris": {"ios": "https://dc.lft.to/lastmile_qr_scan", "android": "https://dc.lft.to/lastmile_qr_scan"}, "type": "electric_scooter", "name": "f1c07703dcc308e9eff374c22347c796", "is_reserved": 0, "lon": -77.03718166666667, "is_disabled": 0, "fusion_lat": 0.0, "lat": 38.92791966666667, "bike_id": "f1c07703dcc308e9eff374c22347c796", "fusion_lon": 0.0}, {"rental_uris": {"ios": "https://dc.lft.to/lastmile_qr_scan", "android": "https://dc.lft.to/lastmile_qr_scan"}, "type": "electric_scooter", "name": "21f9a9d53ff51eb89f8a8f5bb545f4b2", "is_reserved": 0, "lon": -76.93426816666667, "is_disabled": 0, "fusion_lat": 0.0, "lat": 38.89341616666667, "bike_id": "21f9a9d53ff51eb89f8a8f5bb545f4b2", "fusion_lon": 0.0}, {"rental_uris": {"ios": "https://dc.lft.to/lastmile_qr_scan", "android": "https://dc.lft.to/lastmile_qr_scan"}, "type": "electric_scooter", "name": "a81feb2dd373c0b3b47e6ab58c9c9bb0", "is_reserved": 0, "lon": -77.03471783333333, "is_disabled": 0, "fusion_lat": 0.0, "lat": 38.9183635, "bike_id": "a81feb2dd373c0b3b47e6ab58c9c9bb0", "fusion_lon": 0.0}, {"rental_uris": {"ios": "https://dc.lft.to/lastmile_qr_scan", "android": "https://dc.lft.to/lastmile_qr_scan"}, "type": "electric_scooter", "name": "940f81d60120b6c007c0a1bf466921dd", "is_reserved": 0, "lon": -77.0228695, "is_disabled": 0, "fusion_lat": 0.0, "lat": 38.9168155, "bike_id": "940f81d60120b6c007c0a1bf466921dd", "fusion_lon": 0.0}, {"rental_uris": {"ios": "https://dc.lft.to/lastmile_qr_scan", "android": "https://dc.lft.to/lastmile_qr_scan"}, "type": "electric_bike", "name": "827c65280edffc4c665948f30361798e", "is_reserved": 0, "lon": -77.01226933333334, "is_disabled": 0, "fusion_lat": 0.0, "lat": 38.950793, "bike_id": "827c65280edffc4c665948f30361798e", "fusion_lon": 0.0}, {"rental_uris": {"ios": "https://dc.lft.to/lastmile_qr_scan", "android": "https://dc.lft.to/lastmile_qr_scan"}, "type": "electric_scooter", "name": "72c1eec770954a2c76af20b0e0983e64", "is_reserved": 0, "lon": -77.025861, "is_disabled": 0, "fusion_lat": 0.0, "lat": 38.900820333333336, "bike_id": "72c1eec770954a2c76af20b0e0983e64", "fusion_lon": 0.0}, {"rental_uris": {"ios": "https://dc.lft.to/lastmile_qr_scan", "android": "https://dc.lft.to/lastmile_qr_scan"}, "type": "electric_scooter", "name": "31eccf7314a1bd492832dd9887357e94", "is_reserved": 0, "lon": -77.0416265, "is_disabled": 0, "fusion_lat": 0.0, "lat": 38.90740233333333, "bike_id": "31eccf7314a1bd492832dd9887357e94", "fusion_lon": 0.0}, {"rental_uris": {"ios": "https://dc.lft.to/lastmile_qr_scan", "android": "https://dc.lft.to/lastmile_qr_scan"}, "type": "electric_scooter", "name": "e377b97d4ef93fabd0ccdbcf5ce4539c", "is_reserved": 0, "lon": -76.98105533333333, "is_disabled": 0, "fusion_lat": 0.0, "lat": 38.902493166666666, "bike_id": "e377b97d4ef93fabd0ccdbcf5ce4539c", "fusion_lon": 0.0}, {"rental_uris": {"ios": "https://dc.lft.to/lastmile_qr_scan", "android": "https://dc.lft.to/lastmile_qr_scan"}, "type": "electric_scooter", "name": "0f1e977840e74b6e39fb8de1987d5d47", "is_reserved": 0, "lon": -77.003223, "is_disabled": 0, "fusion_lat": 0.0, "lat": 38.91898883333333, "bike_id": "0f1e977840e74b6e39fb8de1987d5d47", "fusion_lon": 0.0}, {"rental_uris": {"ios": "https://dc.lft.to/lastmile_qr_scan", "android": "https://dc.lft.to/lastmile_qr_scan"}, "type": "electric_scooter", "name": "16c1b43003d22d8de282408863a3f473", "is_reserved": 0, "lon": -77.03025416666667, "is_disabled": 0, "fusion_lat": 0.0, "lat": 38.9071865, "bike_id": "16c1b43003d22d8de282408863a3f473", "fusion_lon": 0.0}, {"rental_uris": {"ios": "https://dc.lft.to/lastmile_qr_scan", "android": "https://dc.lft.to/lastmile_qr_scan"}, "type": "electric_scooter", "name": "930bd668d0260c9cab46e9057ca6e7ac", "is_reserved": 0, "lon": -77.04638433333334, "is_disabled": 0, "fusion_lat": 0.0, "lat": 38.8974225, "bike_id": "930bd668d0260c9cab46e9057ca6e7ac", "fusion_lon": 0.0}, {"rental_uris": {"ios": "https://dc.lft.to/lastmile_qr_scan", "android": "https://dc.lft.to/lastmile_qr_scan"}, "type": "electric_scooter", "name": "6ca856eb2b146ae3eac3810a086b085e", "is_reserved": 0, "lon": -77.01100833333334, "is_disabled": 0, "fusion_lat": 0.0, "lat": 38.869820833333335, "bike_id": "6ca856eb2b146ae3eac3810a086b085e", "fusion_lon": 0.0}, {"rental_uris": {"ios": "https://dc.lft.to/lastmile_qr_scan", "android": "https://dc.lft.to/lastmile_qr_scan"}, "type": "electric_scooter", "name": "c3f32cde7c9039bb4ebdc81dffcc38dd", "is_reserved": 0, "lon": -77.03847133333333, "is_disabled": 0, "fusion_lat": 0.0, "lat": 38.91166366666667, "bike_id": "c3f32cde7c9039bb4ebdc81dffcc38dd", "fusion_lon": 0.0}, {"rental_uris": {"ios": "https://dc.lft.to/lastmile_qr_scan", "android": "https://dc.lft.to/lastmile_qr_scan"}, "type": "electric_scooter", "name": "f5f44fe9b32a220a20802ae7189bc0e0", "is_reserved": 0, "lon": -76.99347233333333, "is_disabled": 0, "fusion_lat": 0.0, "lat": 38.8769165, "bike_id": "f5f44fe9b32a220a20802ae7189bc0e0", "fusion_lon": 0.0}, {"rental_uris": {"ios": "https://dc.lft.to/lastmile_qr_scan", "android": "https://dc.lft.to/lastmile_qr_scan"}, "type": "electric_scooter", "name": "a194e092346945261087f43ca571441f", "is_reserved": 0, "lon": -77.017867, "is_disabled": 0, "fusion_lat": 0.0, "lat": 38.9004955, "bike_id": "a194e092346945261087f43ca571441f", "fusion_lon": 0.0}, {"rental_uris": {"ios": "https://dc.lft.to/lastmile_qr_scan", "android": "https://dc.lft.to/lastmile_qr_scan"}, "type": "electric_scooter", "name": "976cad5ffb84e130dc931e170cca4720", "is_reserved": 0, "lon": -77.038538, "is_disabled": 0, "fusion_lat": 0.0, "lat": 38.911049166666665, "bike_id": "976cad5ffb84e130dc931e170cca4720", "fusion_lon": 0.0}, {"rental_uris": {"ios": "https://dc.lft.to/lastmile_qr_scan", "android": "https://dc.lft.to/lastmile_qr_scan"}, "type": "electric_scooter", "name": "b83624162faca2d35e32e5c3212754e7", "is_reserved": 0, "lon": -77.031253, "is_disabled": 0, "fusion_lat": 0.0, "lat": 38.9155755, "bike_id": "b83624162faca2d35e32e5c3212754e7", "fusion_lon": 0.0}, {"rental_uris": {"ios": "https://dc.lft.to/lastmile_qr_scan", "android": "https://dc.lft.to/lastmile_qr_scan"}, "type": "electric_scooter", "name": "3348cda21130df28b67b60e6c702f8e6", "is_reserved": 0, "lon": -76.989307, "is_disabled": 0, "fusion_lat": 0.0, "lat": 38.87859616666667, "bike_id": "3348cda21130df28b67b60e6c702f8e6", "fusion_lon": 0.0}, {"rental_uris": {"ios": "https://dc.lft.to/lastmile_qr_scan", "android": "https://dc.lft.to/lastmile_qr_scan"}, "type": "electric_scooter", "name": "f59ead19094997b7423a982b78d71cd2", "is_reserved": 0, "lon": -77.04135083333334, "is_disabled": 0, "fusion_lat": 0.0, "lat": 38.93275116666667, "bike_id": "f59ead19094997b7423a982b78d71cd2", "fusion_lon": 0.0}, {"rental_uris": {"ios": "https://dc.lft.to/lastmile_qr_scan", "android": "https://dc.lft.to/lastmile_qr_scan"}, "type": "electric_scooter", "name": "2488ef727661c4abefb662f585b4be02", "is_reserved": 0, "lon": -77.02481083333333, "is_disabled": 0, "fusion_lat": 0.0, "lat": 38.917069833333336, "bike_id": "2488ef727661c4abefb662f585b4be02", "fusion_lon": 0.0}, {"rental_uris": {"ios": "https://dc.lft.to/lastmile_qr_scan", "android": "https://dc.lft.to/lastmile_qr_scan"}, "type": "electric_bike", "name": "6c08ace6f69767555728e4f1e9f73024", "is_reserved": 0, "lon": -77.05029083333334, "is_disabled": 0, "fusion_lat": 0.0, "lat": 39.039030333333336, "bike_id": "6c08ace6f69767555728e4f1e9f73024", "fusion_lon": 0.0}, {"rental_uris": {"ios": "https://dc.lft.to/lastmile_qr_scan", "android": "https://dc.lft.to/lastmile_qr_scan"}, "type": "electric_bike", "name": "f47976c744d4e6b2a97c7539a7b9f570", "is_reserved": 0, "lon": -77.11356983333333, "is_disabled": 0, "fusion_lat": 0.0, "lat": 38.84194866666667, "bike_id": "f47976c744d4e6b2a97c7539a7b9f570", "fusion_lon": 0.0}, {"rental_uris": {"ios": "https://dc.lft.to/lastmile_qr_scan", "android": "https://dc.lft.to/lastmile_qr_scan"}, "type": "electric_scooter", "name": "98cfbe661f7ad52c996612b132c43d11", "is_reserved": 0, "lon": -77.07456466666666, "is_disabled": 0, "fusion_lat": 0.0, "lat": 38.937811833333335, "bike_id": "98cfbe661f7ad52c996612b132c43d11", "fusion_lon": 0.0}, {"rental_uris": {"ios": "https://dc.lft.to/lastmile_qr_scan", "android": "https://dc.lft.to/lastmile_qr_scan"}, "type": "electric_scooter", "name": "2be008f5f06f481de5c5c87c010a3ae2", "is_reserved": 0, "lon": -76.99914233333334, "is_disabled": 0, "fusion_lat": 0.0, "lat": 38.9214615, "bike_id": "2be008f5f06f481de5c5c87c010a3ae2", "fusion_lon": 0.0}, {"rental_uris": {"ios": "https://dc.lft.to/lastmile_qr_scan", "android": "https://dc.lft.to/lastmile_qr_scan"}, "type": "electric_scooter", "name": "d4be1fa5170fcc3429b7cb3379a0ca1f", "is_reserved": 0, "lon": -77.0239605, "is_disabled": 0, "fusion_lat": 0.0, "lat": 38.906781333333335, "bike_id": "d4be1fa5170fcc3429b7cb3379a0ca1f", "fusion_lon": 0.0}, {"rental_uris": {"ios": "https://dc.lft.to/lastmile_qr_scan", "android": "https://dc.lft.to/lastmile_qr_scan"}, "type": "electric_scooter", "name": "8a239a439f04d1950733b0a8b7597ea8", "is_reserved": 0, "lon": -77.0399805, "is_disabled": 0, "fusion_lat": 0.0, "lat": 38.90296466666667, "bike_id": "8a239a439f04d1950733b0a8b7597ea8", "fusion_lon": 0.0}, {"rental_uris": {"ios": "https://dc.lft.to/lastmile_qr_scan", "android": "https://dc.lft.to/lastmile_qr_scan"}, "type": "electric_scooter", "name": "4a6f444cf61f4a00f0a1fd0881a8fa25", "is_reserved": 0, "lon": -77.00832383333334, "is_disabled": 0, "fusion_lat": 0.0, "lat": 38.913735833333334, "bike_id": "4a6f444cf61f4a00f0a1fd0881a8fa25", "fusion_lon": 0.0}, {"rental_uris": {"ios": "https://dc.lft.to/lastmile_qr_scan", "android": "https://dc.lft.to/lastmile_qr_scan"}, "type": "electric_scooter", "name": "d3e2b8009c3e4cffcd5fea7043cbfb3c", "is_reserved": 0, "lon": -76.99236816666667, "is_disabled": 0, "fusion_lat": 0.0, "lat": 38.8875595, "bike_id": "d3e2b8009c3e4cffcd5fea7043cbfb3c", "fusion_lon": 0.0}, {"rental_uris": {"ios": "https://dc.lft.to/lastmile_qr_scan", "android": "https://dc.lft.to/lastmile_qr_scan"}, "type": "electric_scooter", "name": "39a7328657aae77f1d87c46d58896d9a", "is_reserved": 0, "lon": -76.98775733333333, "is_disabled": 0, "fusion_lat": 0.0, "lat": 38.9119945, "bike_id": "39a7328657aae77f1d87c46d58896d9a", "fusion_lon": 0.0}, {"rental_uris": {"ios": "https://dc.lft.to/lastmile_qr_scan", "android": "https://dc.lft.to/lastmile_qr_scan"}, "type": "electric_scooter", "name": "d4d12822081fa5c78679d337a514603c", "is_reserved": 0, "lon": -77.02170016666666, "is_disabled": 0, "fusion_lat": 0.0, "lat": 38.90362783333333, "bike_id": "d4d12822081fa5c78679d337a514603c", "fusion_lon": 0.0}, {"rental_uris": {"ios": "https://dc.lft.to/lastmile_qr_scan", "android": "https://dc.lft.to/lastmile_qr_scan"}, "type": "electric_scooter", "name": "60a831606086c994f09179163523997a", "is_reserved": 0, "lon": -77.0306095, "is_disabled": 0, "fusion_lat": 0.0, "lat": 38.92476833333333, "bike_id": "60a831606086c994f09179163523997a", "fusion_lon": 0.0}, {"rental_uris": {"ios": "https://dc.lft.to/lastmile_qr_scan", "android": "https://dc.lft.to/lastmile_qr_scan"}, "type": "electric_bike", "name": "b29986427abe06d005e3e1bf52ef625f", "is_reserved": 0, "lon": -76.90733316666666, "is_disabled": 0, "fusion_lat": 0.0, "lat": 38.896152666666666, "bike_id": "b29986427abe06d005e3e1bf52ef625f", "fusion_lon": 0.0}, {"rental_uris": {"ios": "https://dc.lft.to/lastmile_qr_scan", "android": "https://dc.lft.to/lastmile_qr_scan"}, "type": "electric_scooter", "name": "c0a1b0ef4242839d30dac0c40d2b5f51", "is_reserved": 0, "lon": -77.05322916666667, "is_disabled": 0, "fusion_lat": 0.0, "lat": 38.902659166666666, "bike_id": "c0a1b0ef4242839d30dac0c40d2b5f51", "fusion_lon": 0.0}, {"rental_uris": {"ios": "https://dc.lft.to/lastmile_qr_scan", "android": "https://dc.lft.to/lastmile_qr_scan"}, "type": "electric_scooter", "name": "04dda4f4a4c2d9c34cd124b2d567ef06", "is_reserved": 0, "lon": -77.03873766666666, "is_disabled": 0, "fusion_lat": 0.0, "lat": 38.901201, "bike_id": "04dda4f4a4c2d9c34cd124b2d567ef06", "fusion_lon": 0.0}, {"rental_uris": {"ios": "https://dc.lft.to/lastmile_qr_scan", "android": "https://dc.lft.to/lastmile_qr_scan"}, "type": "electric_scooter", "name": "e243e2821bc03e5c128e11e7e2bb7cd8", "is_reserved": 0, "lon": -77.05616966666666, "is_disabled": 0, "fusion_lat": 0.0, "lat": 38.90688433333333, "bike_id": "e243e2821bc03e5c128e11e7e2bb7cd8", "fusion_lon": 0.0}, {"rental_uris": {"ios": "https://dc.lft.to/lastmile_qr_scan", "android": "https://dc.lft.to/lastmile_qr_scan"}, "type": "electric_scooter", "name": "27293d422cbaec0a95b71daa591afcb8", "is_reserved": 0, "lon": -76.99611333333333, "is_disabled": 0, "fusion_lat": 0.0, "lat": 38.8853175, "bike_id": "27293d422cbaec0a95b71daa591afcb8", "fusion_lon": 0.0}, {"rental_uris": {"ios": "https://dc.lft.to/lastmile_qr_scan", "android": "https://dc.lft.to/lastmile_qr_scan"}, "type": "electric_scooter", "name": "840a8295d64cd8b16b121dbda84a00fb", "is_reserved": 0, "lon": -77.05178333333333, "is_disabled": 0, "fusion_lat": 0.0, "lat": 38.923445, "bike_id": "840a8295d64cd8b16b121dbda84a00fb", "fusion_lon": 0.0}, {"rental_uris": {"ios": "https://dc.lft.to/lastmile_qr_scan", "android": "https://dc.lft.to/lastmile_qr_scan"}, "type": "electric_scooter", "name": "6707b5f3b3ca8373d5c550b68be45d9c", "is_reserved": 0, "lon": -77.02336016666666, "is_disabled": 0, "fusion_lat": 0.0, "lat": 38.9176805, "bike_id": "6707b5f3b3ca8373d5c550b68be45d9c", "fusion_lon": 0.0}, {"rental_uris": {"ios": "https://dc.lft.to/lastmile_qr_scan", "android": "https://dc.lft.to/lastmile_qr_scan"}, "type": "electric_bike", "name": "484470af310d53b5f2cd66635647599c", "is_reserved": 0, "lon": -76.99364816666667, "is_disabled": 0, "fusion_lat": 0.0, "lat": 38.9273125, "bike_id": "484470af310d53b5f2cd66635647599c", "fusion_lon": 0.0}, {"rental_uris": {"ios": "https://dc.lft.to/lastmile_qr_scan", "android": "https://dc.lft.to/lastmile_qr_scan"}, "type": "electric_scooter", "name": "cd5df2afeb27fa2bc301f60ba88a8dd9", "is_reserved": 0, "lon": -77.024108, "is_disabled": 0, "fusion_lat": 0.0, "lat": 38.9057205, "bike_id": "cd5df2afeb27fa2bc301f60ba88a8dd9", "fusion_lon": 0.0}, {"rental_uris": {"ios": "https://dc.lft.to/lastmile_qr_scan", "android": "https://dc.lft.to/lastmile_qr_scan"}, "type": "electric_scooter", "name": "ccc5219597ef9e9bca9d197d21a93b44", "is_reserved": 0, "lon": -76.991519, "is_disabled": 0, "fusion_lat": 0.0, "lat": 38.90037866666667, "bike_id": "ccc5219597ef9e9bca9d197d21a93b44", "fusion_lon": 0.0}, {"rental_uris": {"ios": "https://dc.lft.to/lastmile_qr_scan", "android": "https://dc.lft.to/lastmile_qr_scan"}, "type": "electric_scooter", "name": "80e059525befb6f4323f271a335df451", "is_reserved": 0, "lon": -77.03182183333334, "is_disabled": 0, "fusion_lat": 0.0, "lat": 38.908212166666665, "bike_id": "80e059525befb6f4323f271a335df451", "fusion_lon": 0.0}, {"rental_uris": {"ios": "https://dc.lft.to/lastmile_qr_scan", "android": "https://dc.lft.to/lastmile_qr_scan"}, "type": "electric_bike", "name": "ffe6493cc4eee690b74c28517f23a049", "is_reserved": 0, "lon": -77.01906716666667, "is_disabled": 0, "fusion_lat": 0.0, "lat": 38.9766695, "bike_id": "ffe6493cc4eee690b74c28517f23a049", "fusion_lon": 0.0}, {"rental_uris": {"ios": "https://dc.lft.to/lastmile_qr_scan", "android": "https://dc.lft.to/lastmile_qr_scan"}, "type": "electric_scooter", "name": "6446c281b96128069fc31491e8027483", "is_reserved": 0, "lon": -77.0362315, "is_disabled": 0, "fusion_lat": 0.0, "lat": 38.94288, "bike_id": "6446c281b96128069fc31491e8027483", "fusion_lon": 0.0}, {"rental_uris": {"ios": "https://dc.lft.to/lastmile_qr_scan", "android": "https://dc.lft.to/lastmile_qr_scan"}, "type": "electric_scooter", "name": "1045904037e4f39c0cd5dcb8cb8844f6", "is_reserved": 0, "lon": -77.02104933333334, "is_disabled": 0, "fusion_lat": 0.0, "lat": 38.966772666666664, "bike_id": "1045904037e4f39c0cd5dcb8cb8844f6", "fusion_lon": 0.0}, {"rental_uris": {"ios": "https://dc.lft.to/lastmile_qr_scan", "android": "https://dc.lft.to/lastmile_qr_scan"}, "type": "electric_scooter", "name": "64061e2378205300997ff795b8dd15f7", "is_reserved": 0, "lon": -77.02995233333333, "is_disabled": 0, "fusion_lat": 0.0, "lat": 38.91695433333334, "bike_id": "64061e2378205300997ff795b8dd15f7", "fusion_lon": 0.0}, {"rental_uris": {"ios": "https://dc.lft.to/lastmile_qr_scan", "android": "https://dc.lft.to/lastmile_qr_scan"}, "type": "electric_scooter", "name": "7a7472f542c33b2e22722e77ea628fc1", "is_reserved": 0, "lon": -76.99026266666667, "is_disabled": 0, "fusion_lat": 0.0, "lat": 38.888838666666665, "bike_id": "7a7472f542c33b2e22722e77ea628fc1", "fusion_lon": 0.0}, {"rental_uris": {"ios": "https://dc.lft.to/lastmile_qr_scan", "android": "https://dc.lft.to/lastmile_qr_scan"}, "type": "electric_scooter", "name": "7f82bfc727f12b040ef59e31ed607915", "is_reserved": 0, "lon": -76.98814633333333, "is_disabled": 0, "fusion_lat": 0.0, "lat": 38.900254833333335, "bike_id": "7f82bfc727f12b040ef59e31ed607915", "fusion_lon": 0.0}, {"rental_uris": {"ios": "https://dc.lft.to/lastmile_qr_scan", "android": "https://dc.lft.to/lastmile_qr_scan"}, "type": "electric_scooter", "name": "bf118de9fbbf88e2bcc5e4ac63258c49", "is_reserved": 0, "lon": -76.98538683333334, "is_disabled": 0, "fusion_lat": 0.0, "lat": 38.914569, "bike_id": "bf118de9fbbf88e2bcc5e4ac63258c49", "fusion_lon": 0.0}, {"rental_uris": {"ios": "https://dc.lft.to/lastmile_qr_scan", "android": "https://dc.lft.to/lastmile_qr_scan"}, "type": "electric_bike", "name": "1f2fd2829f9872737476ee6b8c6f39f7", "is_reserved": 0, "lon": -77.02071616666667, "is_disabled": 0, "fusion_lat": 0.0, "lat": 38.964397, "bike_id": "1f2fd2829f9872737476ee6b8c6f39f7", "fusion_lon": 0.0}, {"rental_uris": {"ios": "https://dc.lft.to/lastmile_qr_scan", "android": "https://dc.lft.to/lastmile_qr_scan"}, "type": "electric_scooter", "name": "a6de7c3375713cdfd669c1fb23c57a06", "is_reserved": 0, "lon": -77.038633, "is_disabled": 0, "fusion_lat": 0.0, "lat": 38.91110166666667, "bike_id": "a6de7c3375713cdfd669c1fb23c57a06", "fusion_lon": 0.0}, {"rental_uris": {"ios": "https://dc.lft.to/lastmile_qr_scan", "android": "https://dc.lft.to/lastmile_qr_scan"}, "type": "electric_scooter", "name": "5a0f2aa6a50b63ee30068382ec6b05e3", "is_reserved": 0, "lon": -77.00750016666667, "is_disabled": 0, "fusion_lat": 0.0, "lat": 38.9111465, "bike_id": "5a0f2aa6a50b63ee30068382ec6b05e3", "fusion_lon": 0.0}, {"rental_uris": {"ios": "https://dc.lft.to/lastmile_qr_scan", "android": "https://dc.lft.to/lastmile_qr_scan"}, "type": "electric_scooter", "name": "e9e69c7213c24689a99a89cfa27917d4", "is_reserved": 0, "lon": -76.97937683333333, "is_disabled": 0, "fusion_lat": 0.0, "lat": 38.9066155, "bike_id": "e9e69c7213c24689a99a89cfa27917d4", "fusion_lon": 0.0}, {"rental_uris": {"ios": "https://dc.lft.to/lastmile_qr_scan", "android": "https://dc.lft.to/lastmile_qr_scan"}, "type": "electric_scooter", "name": "4c533a33004453266cd28c11e8f8042c", "is_reserved": 0, "lon": -77.050574, "is_disabled": 0, "fusion_lat": 0.0, "lat": 38.90073833333334, "bike_id": "4c533a33004453266cd28c11e8f8042c", "fusion_lon": 0.0}, {"rental_uris": {"ios": "https://dc.lft.to/lastmile_qr_scan", "android": "https://dc.lft.to/lastmile_qr_scan"}, "type": "electric_scooter", "name": "dd3011d571a03c224e5a66a3e9512559", "is_reserved": 0, "lon": -77.03016283333334, "is_disabled": 0, "fusion_lat": 0.0, "lat": 38.887579, "bike_id": "dd3011d571a03c224e5a66a3e9512559", "fusion_lon": 0.0}, {"rental_uris": {"ios": "https://dc.lft.to/lastmile_qr_scan", "android": "https://dc.lft.to/lastmile_qr_scan"}, "type": "electric_scooter", "name": "c3e628c47c13d072ac2efdc8662786f8", "is_reserved": 0, "lon": -77.051431, "is_disabled": 0, "fusion_lat": 0.0, "lat": 38.90474583333334, "bike_id": "c3e628c47c13d072ac2efdc8662786f8", "fusion_lon": 0.0}, {"rental_uris": {"ios": "https://dc.lft.to/lastmile_qr_scan", "android": "https://dc.lft.to/lastmile_qr_scan"}, "type": "electric_scooter", "name": "31749660adbc085aa993098b0f01ba53", "is_reserved": 0, "lon": -77.03510183333333, "is_disabled": 0, "fusion_lat": 0.0, "lat": 38.909651333333336, "bike_id": "31749660adbc085aa993098b0f01ba53", "fusion_lon": 0.0}, {"rental_uris": {"ios": "https://dc.lft.to/lastmile_qr_scan", "android": "https://dc.lft.to/lastmile_qr_scan"}, "type": "electric_scooter", "name": "02d8ddd125386498ff3b4756db659dfc", "is_reserved": 0, "lon": -77.009199, "is_disabled": 0, "fusion_lat": 0.0, "lat": 38.89886116666667, "bike_id": "02d8ddd125386498ff3b4756db659dfc", "fusion_lon": 0.0}, {"rental_uris": {"ios": "https://dc.lft.to/lastmile_qr_scan", "android": "https://dc.lft.to/lastmile_qr_scan"}, "type": "electric_scooter", "name": "24211aaa7a9b042e3b32ad8ea6ea3a5d", "is_reserved": 0, "lon": -77.07275033333333, "is_disabled": 0, "fusion_lat": 0.0, "lat": 38.922168166666665, "bike_id": "24211aaa7a9b042e3b32ad8ea6ea3a5d", "fusion_lon": 0.0}, {"rental_uris": {"ios": "https://dc.lft.to/lastmile_qr_scan", "android": "https://dc.lft.to/lastmile_qr_scan"}, "type": "electric_scooter", "name": "eb591f3c2800297d09438b42c4b5bee9", "is_reserved": 0, "lon": -77.02834033333333, "is_disabled": 0, "fusion_lat": 0.0, "lat": 38.924798, "bike_id": "eb591f3c2800297d09438b42c4b5bee9", "fusion_lon": 0.0}, {"rental_uris": {"ios": "https://dc.lft.to/lastmile_qr_scan", "android": "https://dc.lft.to/lastmile_qr_scan"}, "type": "electric_scooter", "name": "ba52b7233350e3abedd30edbf1390b71", "is_reserved": 0, "lon": -77.03292583333334, "is_disabled": 0, "fusion_lat": 0.0, "lat": 38.90363116666666, "bike_id": "ba52b7233350e3abedd30edbf1390b71", "fusion_lon": 0.0},