{"data": {"bikes": [{"lon": -77.09073016666666, "bike_id": "33f468aab5b77eddf6b34d86d2b1a936", "lat": 38.9786195, "fusion_lon": 0.0, "fusion_lat": 0.0, "type": "electric_bike", "name": "33f468aab5b77eddf6b34d86d2b1a936", "is_disabled": 0, "rental_uris": {"ios": "https://dc.lft.to/lastmile_qr_scan", "android": "https://dc.lft.to/lastmile_qr_scan"}, "is_reserved": 0}, {"lon": -77.06784316666666, "bike_id": "fb589dc7f4803295f4670930f400cb0f", "lat": 38.90456983333333, "fusion_lon": 0.0, "fusion_lat": 0.0, "type": "electric_scooter", "name": "fb589dc7f4803295f4670930f400cb0f", "is_disabled": 0, "rental_uris": {"ios": "https://dc.lft.to/lastmile_qr_scan", "android": "https://dc.lft.to/lastmile_qr_scan"}, "is_reserved": 0}, {"lon": -77.0326, "bike_id": "ae22c5d674bb42913bcc5bf838452eca", "lat": 38.90969283333333, "fusion_lon": 0.0, "fusion_lat": 0.0, "type": "electric_scooter", "name": "ae22c5d674bb42913bcc5bf838452eca", "is_disabled": 0, "rental_uris": {"ios": "https://dc.lft.to/lastmile_qr_scan", "android": "https://dc.lft.to/lastmile_qr_scan"}, "is_reserved": 0}, {"lon": -77.03856233333333, "bike_id": "2977b2e9143236e055fc90a8df1ff774", "lat": 38.9155, "fusion_lon": 0.0, "fusion_lat": 0.0, "type": "electric_scooter", "name": "2977b2e9143236e055fc90a8df1ff774", "is_disabled": 0, "rental_uris": {"ios": "https://dc.lft.to/lastmile_qr_scan", "android": "https://dc.lft.to/lastmile_qr_scan"}, "is_reserved": 0}, {"lon": -77.01852416666667, "bike_id": "1b50a3f97761c35072bcfab60f51ce5c", "lat": 38.9040385, "fusion_lon": 0.0, "fusion_lat": 0.0, "type": "electric_scooter", "name": "1b50a3f97761c35072bcfab60f51ce5c", "is_disabled": 0, "rental_uris": {"ios": "https://dc.lft.to/lastmile_qr_scan", "android": "https://dc.lft.to/lastmile_qr_scan"}, "is_reserved": 0}, {"lon": -77.03507966666666, "bike_id": "324a1e7dc8c7186a74444bb6afc45b25", "lat": 38.917017, "fusion_lon": 0.0, "fusion_lat": 0.0, "type": "electric_scooter", "name": "324a1e7dc8c7186a74444bb6afc45b25", "is_disabled": 0, "rental_uris": {"ios": "https://dc.lft.to/lastmile_qr_scan", "android": "https://dc.lft.to/lastmile_qr_scan"}, "is_reserved": 0}, {"lon": -77.04170566666667, "bike_id": "900e38bdfa95426a570b2f0e8a828ce4", "lat": 38.91791683333334, "fusion_lon": 0.0, "fusion_lat": 0.0, "type": "electric_scooter", "name": "900e38bdfa95426a570b2f0e8a828ce4", "is_disabled": 0, "rental_uris": {"ios": "https://dc.lft.to/lastmile_qr_scan", "android": "https://dc.lft.to/lastmile_qr_scan"}, "is_reserved": 0}, {"lon": -77.02716133333334, "bike_id": "4912b9478843449f789419a8762cfa80", "lat": 38.916781, "fusion_lon": 0.0, "fusion_lat": 0.0, "type": "electric_scooter", "name": "4912b9478843449f789419a8762cfa80", "is_disabled": 0, "rental_uris": {"ios": "https://dc.lft.to/lastmile_qr_scan", "android": "https://dc.lft.to/lastmile_qr_scan"}, "is_reserved": 0}, {"lon": -76.995978, "bike_id": "a52c211bf1bd9d471213966014281dd1", "lat": 38.884276666666665, "fusion_lon": 0.0, "fusion_lat": 0.0, "type": "electric_scooter", "name": "a52c211bf1bd9d471213966014281dd1", "is_disabled": 0, "rental_uris": {"ios": "https://dc.lft.to/lastmile_qr_scan", "android": "https://dc.lft.to/lastmile_qr_scan"}, "is_reserved": 0}, {"lon": -77.019266, "bike_id": "93315d4d14eb6c815fc8295faa4eb34f", "lat": 38.922172, "fusion_lon": 0.0, "fusion_lat": 0.0, "type": "electric_scooter", "name": "93315d4d14eb6c815fc8295faa4eb34f", "is_disabled": 0, "rental_uris": {"ios": "https://dc.lft.to/lastmile_qr_scan", "android": "https://dc.lft.to/lastmile_qr_scan"}, "is_reserved": 0}, {"lon": -77.01523083333333, "bike_id": "df2e6070e7299e8b11b96d007a000600", "lat": 38.90231883333333, "fusion_lon": 0.0, "fusion_lat": 0.0, "type": "electric_scooter", "name": "df2e6070e7299e8b11b96d007a000600", "is_disabled": 0, "rental_uris": {"ios": "https://dc.lft.to/lastmile_qr_scan", "android": "https://dc.lft.to/lastmile_qr_scan"}, "is_reserved": 0}, {"lon": -77.02417966666667, "bike_id": "30de83ba6f6d3fe70069c36383839e8d", "lat": 38.92072983333333, "fusion_lon": 0.0, "fusion_lat": 0.0, "type": "electric_scooter", "name": "30de83ba6f6d3fe70069c36383839e8d", "is_disabled": 0, "rental_uris": {"ios": "https://dc.lft.to/lastmile_qr_scan", "android": "https://dc.lft.to/lastmile_qr_scan"}, "is_reserved": 0}, {"lon": -77.03176733333333, "bike_id": "89275e3304f636e556916d0981f194b4", "lat": 38.887359333333336, "fusion_lon": 0.0, "fusion_lat": 0.0, "type": "electric_scooter", "name": "89275e3304f636e556916d0981f194b4", "is_disabled": 0, "rental_uris": {"ios": "https://dc.lft.to/lastmile_qr_scan", "android": "https://dc.lft.to/lastmile_qr_scan"}, "is_reserved": 0}, {"lon": -77.13097733333333, "bike_id": "e29ddcce70c8307d0bee28562f808f88", "lat": 39.0243715, "fusion_lon": 0.0, "fusion_lat": 0.0, "type": "electric_bike", "name": "e29ddcce70c8307d0bee28562f808f88", "is_disabled": 0, "rental_uris": {"ios": "https://dc.lft.to/lastmile_qr_scan", "android": "https://dc.lft.to/lastmile_qr_scan"}, "is_reserved": 0}, {"lon": -77.03497783333333, "bike_id": "68d1f147f76d76589f7d3bea60a2e23e", "lat": 38.912572833333336, "fusion_lon": 0.0, "fusion_lat": 0.0, "type": "electric_scooter", "name": "68d1f147f76d76589f7d3bea60a2e23e", "is_disabled": 0, "rental_uris": {"ios": "https://dc.lft.to/lastmile_qr_scan", "android": "https://dc.lft.to/lastmile_qr_scan"}, "is_reserved": 0}, {"lon": -77.0460825, "bike_id": "26c71c515c3f37933fa4fea3cbfaffaf", "lat": 38.909592833333335, "fusion_lon": 0.0, "fusion_lat": 0.0, "type": "electric_scooter", "name": "26c71c515c3f37933fa4fea3cbfaffaf", "is_disabled": 0, "rental_uris": {"ios": "https://dc.lft.to/lastmile_qr_scan", "android": "https://dc.lft.to/lastmile_qr_scan"}, "is_reserved": 0}, {"lon": -77.0846015, "bike_id": "91d131f5cfacb90cbb73fdcc4999dcbb", "lat": 38.8481955, "fusion_lon": 0.0, "fusion_lat": 0.0, "type": "electric_bike", "name": "91d131f5cfacb90cbb73fdcc4999dcbb", "is_disabled": 0, "rental_uris": {"ios": "https://dc.lft.to/lastmile_qr_scan", "android": "https://dc.lft.to/lastmile_qr_scan"}, "is_reserved": 0}, {"lon": -77.06334866666667, "bike_id": "94e6d9375b05b2e3785f048dfe74eb66", "lat": 38.90682666666667, "fusion_lon": 0.0, "fusion_lat": 0.0, "type": "electric_scooter", "name": "94e6d9375b05b2e3785f048dfe74eb66", "is_disabled": 0, "rental_uris": {"ios": "https://dc.lft.to/lastmile_qr_scan", "android": "https://dc.lft.to/lastmile_qr_scan"}, "is_reserved": 0}, {"lon": -77.034953, "bike_id": "22785cc4e962cbf312fd33b01b1aa6b5", "lat": 38.93755783333334, "fusion_lon": 0.0, "fusion_lat": 0.0, "type": "electric_scooter", "name": "22785cc4e962cbf312fd33b01b1aa6b5", "is_disabled": 0, "rental_uris": {"ios": "https://dc.lft.to/lastmile_qr_scan", "android": "https://dc.lft.to/lastmile_qr_scan"}, "is_reserved": 0}, {"lon": -77.03494783333333, "bike_id": "5d69327fd95e7c47db8bbaea9849f201", "lat": 38.9188795, "fusion_lon": 0.0, "fusion_lat": 0.0, "type": "electric_bike", "name": "5d69327fd95e7c47db8bbaea9849f201", "is_disabled": 0, "rental_uris": {"ios": "https://dc.lft.to/lastmile_qr_scan", "android": "https://dc.lft.to/lastmile_qr_scan"}, "is_reserved": 0}, {"lon": -76.98352316666667, "bike_id": "24406840dcb8a6b80b4b58edfb6928ae", "lat": 38.88763866666667, "fusion_lon": 0.0, "fusion_lat": 0.0, "type": "electric_scooter", "name": "24406840dcb8a6b80b4b58edfb6928ae", "is_disabled": 0, "rental_uris": {"ios": "https://dc.lft.to/lastmile_qr_scan", "android": "https://dc.lft.to/lastmile_qr_scan"}, "is_reserved": 0}, {"lon": -77.03420383333334, "bike_id": "909dcf941b9daa58b281591788843a77", "lat": 38.922404666666665, "fusion_lon": 0.0, "fusion_lat": 0.0, "type": "electric_scooter", "name": "909dcf941b9daa58b281591788843a77", "is_disabled": 0, "rental_uris": {"ios": "https://dc.lft.to/lastmile_qr_scan", "android": "https://dc.lft.to/lastmile_qr_scan"}, "is_reserved": 0}, {"lon": -77.02304133333334, "bike_id": "4ec7bbd5e126c470a571fff8c9f83009", "lat": 38.940893333333335, "fusion_lon": 0.0, "fusion_lat": 0.0, "type": "electric_scooter", "name": "4ec7bbd5e126c470a571fff8c9f83009", "is_disabled": 0, "rental_uris": {"ios": "https://dc.lft.to/lastmile_qr_scan", "android": "https://dc.lft.to/lastmile_qr_scan"}, "is_reserved": 0}, {"lon": -76.991537, "bike_id": "00d58f45516bde7abdfedace5bf16d6c", "lat": 38.900404333333334, "fusion_lon": 0.0, "fusion_lat": 0.0, "type": "electric_scooter", "name": "00d58f45516bde7abdfedace5bf16d6c", "is_disabled": 0, "rental_uris": {"ios": "https://dc.lft.to/lastmile_qr_scan", "android": "https://dc.lft.to/lastmile_qr_scan"}, "is_reserved": 0}, {"lon": -77.09849266666667, "bike_id": "410de7ab2f28e5446f33a265d66bb367", "lat": 38.848479166666664, "fusion_lon": 0.0, "fusion_lat": 0.0, "type": "electric_bike", "name": "410de7ab2f28e5446f33a265d66bb367", "is_disabled": 0, "rental_uris": {"ios": "https://dc.lft.to/lastmile_qr_scan", "android": "https://dc.lft.to/lastmile_qr_scan"}, "is_reserved": 0}, {"lon": -77.02393583333334, "bike_id": "3209620e9c3392b8b9f55bec116b67e5", "lat": 38.927556333333335, "fusion_lon": 0.0, "fusion_lat": 0.0, "type": "electric_scooter", "name": "3209620e9c3392b8b9f55bec116b67e5", "is_disabled": 0, "rental_uris": {"ios": "https://dc.lft.to/lastmile_qr_scan", "android": "https://dc.lft.to/lastmile_qr_scan"}, "is_reserved": 0}, {"lon": -77.00456433333333, "bike_id": "5bb8c491c76e73ec1da2e2d2ee4eb906", "lat": 38.87662183333333, "fusion_lon": 0.0, "fusion_lat": 0.0, "type": "electric_scooter", "name": "5bb8c491c76e73ec1da2e2d2ee4eb906", "is_disabled": 0, "rental_uris": {"ios": "https://dc.lft.to/lastmile_qr_scan", "android": "https://dc.lft.to/lastmile_qr_scan"}, "is_reserved": 0}, {"lon": -77.02824916666667, "bike_id": "37eca32568b65c611953798d4d43e5b6", "lat": 38.88733766666667, "fusion_lon": 0.0, "fusion_lat": 0.0, "type": "electric_scooter", "name": "37eca32568b65c611953798d4d43e5b6", "is_disabled": 0, "rental_uris": {"ios": "https://dc.lft.to/lastmile_qr_scan", "android": "https://dc.lft.to/lastmile_qr_scan"}, "is_reserved": 0}, {"lon": -77.02173366666666, "bike_id": "50425236dbadbd5e148d93d16edcad17", "lat": 38.8972815, "fusion_lon": 0.0, "fusion_lat": 0.0, "type": "electric_scooter", "name": "50425236dbadbd5e148d93d16edcad17", "is_disabled": 0, "rental_uris": {"ios": "https://dc.lft.to/lastmile_qr_scan", "android": "https://dc.lft.to/lastmile_qr_scan"}, "is_reserved": 0}, {"lon": -76.94634583333334, "bike_id": "7ac8bb2fc09d6aa4d1b5530eade21427", "lat": 38.898335, "fusion_lon": 0.0, "fusion_lat": 0.0, "type": "electric_scooter", "name": "7ac8bb2fc09d6aa4d1b5530eade21427", "is_disabled": 0, "rental_uris": {"ios": "https://dc.lft.to/lastmile_qr_scan", "android": "https://dc.lft.to/lastmile_qr_scan"}, "is_reserved": 0}, {"lon": -77.02702616666667, "bike_id": "45fb3b78326b3b34dbc8d112f0831b33", "lat": 38.89723633333333, "fusion_lon": 0.0, "fusion_lat": 0.0, "type": "electric_scooter", "name": "45fb3b78326b3b34dbc8d112f0831b33", "is_disabled": 0, "rental_uris": {"ios": "https://dc.lft.to/lastmile_qr_scan", "android": "https://dc.lft.to/lastmile_qr_scan"}, "is_reserved": 0}, {"lon": -76.97548683333333, "bike_id": "0a56bc83143f0781fa8c5a83d0831bcc", "lat": 38.903219666666665, "fusion_lon": 0.0, "fusion_lat": 0.0, "type": "electric_scooter", "name": "0a56bc83143f0781fa8c5a83d0831bcc", "is_disabled": 0, "rental_uris": {"ios": "https://dc.lft.to/lastmile_qr_scan", "android": "https://dc.lft.to/lastmile_qr_scan"}, "is_reserved": 0}, {"lon": -76.98542883333333, "bike_id": "32273722426948d05add54271308a067", "lat": 38.92012866666666, "fusion_lon": 0.0, "fusion_lat": 0.0, "type": "electric_scooter", "name": "32273722426948d05add54271308a067", "is_disabled": 0, "rental_uris": {"ios": "https://dc.lft.to/lastmile_qr_scan", "android": "https://dc.lft.to/lastmile_qr_scan"}, "is_reserved": 0}, {"lon": -77.02843516666667, "bike_id": "80a9ef96c51646b6206d8bb4937c19d4", "lat": 38.92570716666667, "fusion_lon": 0.0, "fusion_lat": 0.0, "type": "electric_scooter", "name": "80a9ef96c51646b6206d8bb4937c19d4", "is_disabled": 0, "rental_uris": {"ios": "https://dc.lft.to/lastmile_qr_scan", "android": "https://dc.lft.to/lastmile_qr_scan"}, "is_reserved": 0}, {"lon": -77.0745285, "bike_id": "05e1ab658ab7d36177fd070fe122cdb6", "lat": 38.9335115, "fusion_lon": 0.0, "fusion_lat": 0.0, "type": "electric_bike", "name": "05e1ab658ab7d36177fd070fe122cdb6", "is_disabled": 0, "rental_uris": {"ios": "https://dc.lft.to/lastmile_qr_scan", "android": "https://dc.lft.to/lastmile_qr_scan"}, "is_reserved": 0}, {"lon": -77.02223083333334, "bike_id": "5b625315eb975ba5805794a0f658cfdc", "lat": 38.92610766666667, "fusion_lon": 0.0, "fusion_lat": 0.0, "type": "electric_scooter", "name": "5b625315eb975ba5805794a0f658cfdc", "is_disabled": 0, "rental_uris": {"ios": "https://dc.lft.to/lastmile_qr_scan", "android": "https://dc.lft.to/lastmile_qr_scan"}, "is_reserved": 0}, {"lon": -77.03203016666667, "bike_id": "650d21ecb7d39caafc26270ba4eb457f", "lat": 38.912466, "fusion_lon": 0.0, "fusion_lat": 0.0, "type": "electric_scooter", "name": "650d21ecb7d39caafc26270ba4eb457f", "is_disabled": 0, "rental_uris": {"ios": "https://dc.lft.to/lastmile_qr_scan", "android": "https://dc.lft.to/lastmile_qr_scan"}, "is_reserved": 0}, {"lon": -77.04638616666666, "bike_id": "d1735d5b7e579f72b64ac7fde0c1c983", "lat": 38.905522500000004, "fusion_lon": 0.0, "fusion_lat": 0.0, "type": "electric_scooter", "name": "d1735d5b7e579f72b64ac7fde0c1c983", "is_disabled": 0, "rental_uris": {"ios": "https://dc.lft.to/lastmile_qr_scan", "android": "https://dc.lft.to/lastmile_qr_scan"}, "is_reserved": 0}, {"lon": -77.021186, "bike_id": "0212c156a360ed931fd0815699e07687", "lat": 38.922377, "fusion_lon": 0.0, "fusion_lat": 0.0, "type": "electric_scooter", "name": "0212c156a360ed931fd0815699e07687", "is_disabled": 0, "rental_uris": {"ios": "https://dc.lft.to/lastmile_qr_scan", "android": "https://dc.lft.to/lastmile_qr_scan"}, "is_reserved": 0}, {"lon": -77.04657616666667, "bike_id": "c3db4e282da8648249947f9cc821a2ac", "lat": 38.898185166666664, "fusion_lon": 0.0, "fusion_lat": 0.0, "type": "electric_scooter", "name": "c3db4e282da8648249947f9cc821a2ac", "is_disabled": 0, "rental_uris": {"ios": "https://dc.lft.to/lastmile_qr_scan", "android": "https://dc.lft.to/lastmile_qr_scan"}, "is_reserved": 0}, {"lon": -77.04483833333333, "bike_id": "8369f56952ac29a7cee52d509391f10d", "lat": 38.8974545, "fusion_lon": 0.0, "fusion_lat": 0.0, "type": "electric_scooter", "name": "8369f56952ac29a7cee52d509391f10d", "is_disabled": 0, "rental_uris": {"ios": "https://dc.lft.to/lastmile_qr_scan", "android": "https://dc.lft.to/lastmile_qr_scan"}, "is_reserved": 0}, {"lon": -77.0220385, "bike_id": "de2088a633bba774fa01399c2b7f7cb3", "lat": 38.919978, "fusion_lon": 0.0, "fusion_lat": 0.0, "type": "electric_scooter", "name": "de2088a633bba774fa01399c2b7f7cb3", "is_disabled": 0, "rental_uris": {"ios": "https://dc.lft.to/lastmile_qr_scan", "android": "https://dc.lft.to/lastmile_qr_scan"}, "is_reserved": 0}, {"lon": -77.0223765, "bike_id": "a06e0a9c4458570a246a61c3aa510466", "lat": 38.962114, "fusion_lon": 0.0, "fusion_lat": 0.0, "type": "electric_bike", "name": "a06e0a9c4458570a246a61c3aa510466", "is_disabled": 0, "rental_uris": {"ios": "https://dc.lft.to/lastmile_qr_scan", "android": "https://dc.lft.to/lastmile_qr_scan"}, "is_reserved": 0}, {"lon": -77.0438855, "bike_id": "8f9ad692b8c448b19f0c96e707d39b2d", "lat": 39.04716833333333, "fusion_lon": 0.0, "fusion_lat": 0.0, "type": "electric_bike", "name": "8f9ad692b8c448b19f0c96e707d39b2d", "is_disabled": 0, "rental_uris": {"ios": "https://dc.lft.to/lastmile_qr_scan", "android": "https://dc.lft.to/lastmile_qr_scan"}, "is_reserved": 0}, {"lon": -77.0185025, "bike_id": "9194bfc80bfe02700f7c0b1a6e85e0bf", "lat": 38.940006, "fusion_lon": 0.0, "fusion_lat": 0.0, "type": "electric_scooter", "name": "9194bfc80bfe02700f7c0b1a6e85e0bf", "is_disabled": 0, "rental_uris": {"ios": "https://dc.lft.to/lastmile_qr_scan", "android": "https://dc.lft.to/lastmile_qr_scan"}, "is_reserved": 0}, {"lon": -77.07330933333333, "bike_id": "27fd8e5b7ca560c0dfacc6dd4ff979bb", "lat": 38.909923, "fusion_lon": 0.0, "fusion_lat": 0.0, "type": "electric_scooter", "name": "27fd8e5b7ca560c0dfacc6dd4ff979bb", "is_disabled": 0, "rental_uris": {"ios": "https://dc.lft.to/lastmile_qr_scan", "android": "https://dc.lft.to/lastmile_qr_scan"}, "is_reserved": 0}, {"lon": -76.9557685, "bike_id": "8b5daa273bc78191fede9e403258b335", "lat": 38.88768133333333, "fusion_lon": 0.0, "fusion_lat": 0.0, "type": "electric_scooter", "name": "8b5daa273bc78191fede9e403258b335", "is_disabled": 0, "rental_uris": {"ios": "https://dc.lft.to/lastmile_qr_scan", "android": "https://dc.lft.to/lastmile_qr_scan"}, "is_reserved": 0}, {"lon": -77.002024, "bike_id": "bb89c420d3961c7e54e52f9551515dee", "lat": 38.902368333333335, "fusion_lon": 0.0, "fusion_lat": 0.0, "type": "electric_scooter", "name": "bb89c420d3961c7e54e52f9551515dee", "is_disabled": 0, "rental_uris": {"ios": "https://dc.lft.to/lastmile_qr_scan", "android": "https://dc.lft.to/lastmile_qr_scan"}, "is_reserved": 0}, {"lon": -77.03660066666667, "bike_id": "8fb000c610e5d0f1ffb318cc83730372", "lat": 38.90370033333333, "fusion_lon": 0.0, "fusion_lat": 0.0, "type": "electric_scooter", "name": "8fb000c610e5d0f1ffb318cc83730372", "is_disabled": 0, "rental_uris": {"ios": "https://dc.lft.to/lastmile_qr_scan", "android": "https://dc.lft.to/lastmile_qr_scan"}, "is_reserved": 0}, {"lon": -77.04441033333333, "bike_id": "fd8b2689b77c2071d18f362863e4f1da", "lat": 38.92160366666667, "fusion_lon": 0.0, "fusion_lat": 0.0, "type": "electric_scooter", "name": "fd8b2689b77c2071d18f362863e4f1da", "is_disabled": 0, "rental_uris": {"ios": "https://dc.lft.to/lastmile_qr_scan", "android": "https://dc.lft.to/lastmile_qr_scan"}, "is_reserved": 0}, {"lon": -77.034536, "bike_id": "f72848efdc956f272ed15a402a6e8369", "lat": 38.908130166666666, "fusion_lon": 0.0, "fusion_lat": 0.0, "type": "electric_scooter", "name": "f72848efdc956f272ed15a402a6e8369", "is_disabled": 0, "rental_uris": {"ios": "https://dc.lft.to/lastmile_qr_scan", "android": "https://dc.lft.to/lastmile_qr_scan"}, "is_reserved": 0}, {"lon": -77.00615566666667, "bike_id": "eb0a30d1d8e822fad1967fc2c3754194", "lat": 38.90667916666666, "fusion_lon": 0.0, "fusion_lat": 0.0, "type": "electric_scooter", "name": "eb0a30d1d8e822fad1967fc2c3754194", "is_disabled": 0, "rental_uris": {"ios": "https://dc.lft.to/lastmile_qr_scan", "android": "https://dc.lft.to/lastmile_qr_scan"}, "is_reserved": 0}, {"lon": -77.05135583333333, "bike_id": "c3bf188e570990955c1656acd618081a", "lat": 38.9055065, "fusion_lon": 0.0, "fusion_lat": 0.0, "type": "electric_scooter", "name": "c3bf188e570990955c1656acd618081a", "is_disabled": 0, "rental_uris": {"ios": "https://dc.lft.to/lastmile_qr_scan", "android": "https://dc.lft.to/lastmile_qr_scan"}, "is_reserved": 0}, {"lon": -76.97727383333333, "bike_id": "b7ae0e08e1d5f12aabceb0a41eaca11d", "lat": 38.872451, "fusion_lon": 0.0, "fusion_lat": 0.0, "type": "electric_scooter", "name": "b7ae0e08e1d5f12aabceb0a41eaca11d", "is_disabled": 0, "rental_uris": {"ios": "https://dc.lft.to/lastmile_qr_scan", "android": "https://dc.lft.to/lastmile_qr_scan"}, "is_reserved": 0}, {"lon": -77.057044, "bike_id": "83950286782d83d4a6faa417ee41bef8", "lat": 38.904847, "fusion_lon": 0.0, "fusion_lat": 0.0, "type": "electric_scooter", "name": "83950286782d83d4a6faa417ee41bef8", "is_disabled": 0, "rental_uris": {"ios": "https://dc.lft.to/lastmile_qr_scan", "android": "https://dc.lft.to/lastmile_qr_scan"}, "is_reserved": 0}, {"lon": -77.02350266666667, "bike_id": "d7b1e672302aa6b154e387e458177b9a", "lat": 38.91967983333333, "fusion_lon": 0.0, "fusion_lat": 0.0, "type": "electric_scooter", "name": "d7b1e672302aa6b154e387e458177b9a", "is_disabled": 0, "rental_uris": {"ios": "https://dc.lft.to/lastmile_qr_scan", "android": "https://dc.lft.to/lastmile_qr_scan"}, "is_reserved": 0}, {"lon": -76.965207, "bike_id": "18f693b82e7e1e1058595e9143853cba", "lat": 38.8747915, "fusion_lon": 0.0, "fusion_lat": 0.0, "type": "electric_scooter", "name": "18f693b82e7e1e1058595e9143853cba", "is_disabled": 0, "rental_uris": {"ios": "https://dc.lft.to/lastmile_qr_scan", "android": "https://dc.lft.to/lastmile_qr_scan"}, "is_reserved": 0}, {"lon": -76.99542783333334, "bike_id": "acb3d78b0ec49a217cc0c07704208ddf", "lat": 38.88368283333333, "fusion_lon": 0.0, "fusion_lat": 0.0, "type": "electric_scooter", "name": "acb3d78b0ec49a217cc0c07704208ddf", "is_disabled": 0, "rental_uris": {"ios": "https://dc.lft.to/lastmile_qr_scan", "android": "https://dc.lft.to/lastmile_qr_scan"}, "is_reserved": 0}, {"lon": -77.0391885, "bike_id": "3a7ea0912cfb662a55ce673bd0ce35fe", "lat": 38.89976733333334, "fusion_lon": 0.0, "fusion_lat": 0.0, "type": "electric_scooter", "name": "3a7ea0912cfb662a55ce673bd0ce35fe", "is_disabled": 0, "rental_uris": {"ios": "https://dc.lft.to/lastmile_qr_scan", "android": "https://dc.lft.to/lastmile_qr_scan"}, "is_reserved": 0}, {"lon": -77.02562766666667, "bike_id": "c2d836430af1312d0e97fc58bd950dac", "lat": 38.93352083333333, "fusion_lon": 0.0, "fusion_lat": 0.0, "type": "electric_scooter", "name": "c2d836430af1312d0e97fc58bd950dac", "is_disabled": 0, "rental_uris": {"ios": "https://dc.lft.to/lastmile_qr_scan", "android": "https://dc.lft.to/lastmile_qr_scan"}, "is_reserved": 0}, {"lon": -77.04856533333333, "bike_id": "0d955db993ff81e71e3b29e6b38d8045", "lat": 38.9009505, "fusion_lon": 0.0, "fusion_lat": 0.0, "type": "electric_scooter", "name": "0d955db993ff81e71e3b29e6b38d8045", "is_disabled": 0, "rental_uris": {"ios": "https://dc.lft.to/lastmile_qr_scan", "android": "https://dc.lft.to/lastmile_qr_scan"}, "is_reserved": 0}, {"lon": -77.0352365, "bike_id": "8bb90b06b81e14a6c7b81186917e1980", "lat": 38.922625333333336, "fusion_lon": 0.0, "fusion_lat": 0.0, "type": "electric_scooter", "name": "8bb90b06b81e14a6c7b81186917e1980", "is_disabled": 0, "rental_uris": {"ios": "https://dc.lft.to/lastmile_qr_scan", "android": "https://dc.lft.to/lastmile_qr_scan"}, "is_reserved": 0}, {"lon": -77.00350416666667, "bike_id": "ce6004b7ff6770a679fc0f13ecdb9a19", "lat": 38.88702683333333, "fusion_lon": 0.0, "fusion_lat": 0.0, "type": "electric_bike", "name": "ce6004b7ff6770a679fc0f13ecdb9a19", "is_disabled": 0, "rental_uris": {"ios": "https://dc.lft.to/lastmile_qr_scan", "android": "https://dc.lft.to/lastmile_qr_scan"}, "is_reserved": 0}, {"lon": -77.0215195, "bike_id": "1da93a5e29bd81235e1bbfc8938b3f9b", "lat": 38.8950375, "fusion_lon": 0.0, "fusion_lat": 0.0, "type": "electric_scooter", "name": "1da93a5e29bd81235e1bbfc8938b3f9b", "is_disabled": 0, "rental_uris": {"ios": "https://dc.lft.to/lastmile_qr_scan", "android": "https://dc.lft.to/lastmile_qr_scan"}, "is_reserved": 0}, {"lon": -77.0489385, "bike_id": "bde0c97faf902bc922d597b886e186d8", "lat": 38.90539366666667, "fusion_lon": 0.0, "fusion_lat": 0.0, "type": "electric_scooter", "name": "bde0c97faf902bc922d597b886e186d8", "is_disabled": 0, "rental_uris": {"ios": "https://dc.lft.to/lastmile_qr_scan", "android": "https://dc.lft.to/lastmile_qr_scan"}, "is_reserved": 0}, {"lon": -76.94632516666667, "bike_id": "e92f300463609b88c302431a767e4c08", "lat": 38.898358, "fusion_lon": 0.0, "fusion_lat": 0.0, "type": "electric_scooter", "name": "e92f300463609b88c302431a767e4c08", "is_disabled": 0, "rental_uris": {"ios": "https://dc.lft.to/lastmile_qr_scan", "android": "https://dc.lft.to/lastmile_qr_scan"}, "is_reserved": 0}, {"lon": -77.02379766666667, "bike_id": "51ad06b146a2108eb6c70b1bc0fa5362", "lat": 38.91703833333333, "fusion_lon": 0.0, "fusion_lat": 0.0, "type": "electric_scooter", "name": "51ad06b146a2108eb6c70b1bc0fa5362", "is_disabled": 0, "rental_uris": {"ios": "https://dc.lft.to/lastmile_qr_scan", "android": "https://dc.lft.to/lastmile_qr_scan"}, "is_reserved": 0}, {"lon": -77.029198, "bike_id": "200d6f33c8b51e38f46cc522b8e0adda", "lat": 38.9169575, "fusion_lon": 0.0, "fusion_lat": 0.0, "type": "electric_scooter", "name": "200d6f33c8b51e38f46cc522b8e0adda", "is_disabled": 0, "rental_uris": {"ios": "https://dc.lft.to/lastmile_qr_scan", "android": "https://dc.lft.to/lastmile_qr_scan"}, "is_reserved": 0}, {"lon": -77.044828, "bike_id": "e24204ca402ee478bfb4d7d521e3ce14", "lat": 38.892384666666665, "fusion_lon": 0.0, "fusion_lat": 0.0, "type": "electric_scooter", "name": "e24204ca402ee478bfb4d7d521e3ce14", "is_disabled": 0, "rental_uris": {"ios": "https://dc.lft.to/lastmile_qr_scan", "android": "https://dc.lft.to/lastmile_qr_scan"}, "is_reserved": 0}, {"lon": -77.02169666666667, "bike_id": "1999b6480035bf39a80642e1d48373f7", "lat": 38.89476166666667, "fusion_lon": 0.0, "fusion_lat": 0.0, "type": "electric_scooter", "name": "1999b6480035bf39a80642e1d48373f7", "is_disabled": 0, "rental_uris": {"ios": "https://dc.lft.to/lastmile_qr_scan", "android": "https://dc.lft.to/lastmile_qr_scan"}, "is_reserved": 0}, {"lon": -77.023986, "bike_id": "a8cad26822fcef51039bee283bc858a6", "lat": 38.9342855, "fusion_lon": 0.0, "fusion_lat": 0.0, "type": "electric_bike", "name": "a8cad26822fcef51039bee283bc858a6", "is_disabled": 0, "rental_uris": {"ios": "https://dc.lft.to/lastmile_qr_scan", "android": "https://dc.lft.to/lastmile_qr_scan"}, "is_reserved": 0}, {"lon": -77.03268216666666, "bike_id": "b0d702f3b7acf1ea8020d3d60d29cf6a", "lat": 38.941550166666666, "fusion_lon": 0.0, "fusion_lat": 0.0, "type": "electric_scooter", "name": "b0d702f3b7acf1ea8020d3d60d29cf6a", "is_disabled": 0, "rental_uris": {"ios": "https://dc.lft.to/lastmile_qr_scan", "android": "https://dc.lft.to/lastmile_qr_scan"}, "is_reserved": 0}, {"lon": -77.11781616666667, "bike_id": "9cae40a6a05d3b56d52aafc95054178b", "lat": 39.054923333333335, "fusion_lon": 0.0, "fusion_lat": 0.0, "type": "electric_bike", "name": "9cae40a6a05d3b56d52aafc95054178b", "is_disabled": 0, "rental_uris": {"ios": "https://dc.lft.to/lastmile_qr_scan", "android": "https://dc.lft.to/lastmile_qr_scan"}, "is_reserved": 0}, {"lon": -77.01662033333334, "bike_id": "72d01cd42bf8de190e625acdc1433dd5", "lat": 38.917365, "fusion_lon": 0.0, "fusion_lat": 0.0, "type": "electric_scooter", "name": "72d01cd42bf8de190e625acdc1433dd5", "is_disabled": 0, "rental_uris": {"ios": "https://dc.lft.to/lastmile_qr_scan", "android": "https://dc.lft.to/lastmile_qr_scan"}, "is_reserved": 0}, {"lon": -77.042667, "bike_id": "c33e54853e4fef4c03098c15ccdf2de8", "lat": 38.92233733333333, "fusion_lon": 0.0, "fusion_lat": 0.0, "type": "electric_scooter", "name": "c33e54853e4fef4c03098c15ccdf2de8", "is_disabled": 0, "rental_uris": {"ios": "https://dc.lft.to/lastmile_qr_scan", "android": "https://dc.lft.to/lastmile_qr_scan"}, "is_reserved": 0}, {"lon": -77.0361285, "bike_id": "aa7ebd0eb3ee1c03860137381c38fddc", "lat": 38.923316166666666, "fusion_lon": 0.0, "fusion_lat": 0.0, "type": "electric_scooter", "name": "aa7ebd0eb3ee1c03860137381c38fddc", "is_disabled": 0, "rental_uris": {"ios": "https://dc.lft.to/lastmile_qr_scan", "android": "https://dc.lft.to/lastmile_qr_scan"}, "is_reserved": 0}, {"lon": -77.01777883333334, "bike_id": "f2d226bb14aa7e8bd54902089d25c9d4", "lat": 38.8770945, "fusion_lon": 0.0, "fusion_lat": 0.0, "type": "electric_scooter", "name": "f2d226bb14aa7e8bd54902089d25c9d4", "is_disabled": 0, "rental_uris": {"ios": "https://dc.lft.to/lastmile_qr_scan", "android": "https://dc.lft.to/lastmile_qr_scan"}, "is_reserved": 0}, {"lon": -77.0416755, "bike_id": "c6db3f449e35f5d44c3d55baa169fdf8", "lat": 38.919849, "fusion_lon": 0.0, "fusion_lat": 0.0, "type": "electric_scooter", "name": "c6db3f449e35f5d44c3d55baa169fdf8", "is_disabled": 0, "rental_uris": {"ios": "https://dc.lft.to/lastmile_qr_scan", "android": "https://dc.lft.to/lastmile_qr_scan"}, "is_reserved": 0}, {"lon": -77.03245433333333, "bike_id": "0cb9baa7ee262f1217b49026c1262aa6", "lat": 38.919852666666664, "fusion_lon": 0.0, "fusion_lat": 0.0, "type": "electric_scooter", "name": "0cb9baa7ee262f1217b49026c1262aa6", "is_disabled": 0, "rental_uris": {"ios": "https://dc.lft.to/lastmile_qr_scan", "android": "https://dc.lft.to/lastmile_qr_scan"}, "is_reserved": 0}, {"lon": -76.99506133333334, "bike_id": "f7222476f08e565536ca66f5c35aa34e", "lat": 38.87913533333333, "fusion_lon": 0.0, "fusion_lat": 0.0, "type": "electric_scooter", "name": "f7222476f08e565536ca66f5c35aa34e", "is_disabled": 0, "rental_uris": {"ios": "https://dc.lft.to/lastmile_qr_scan", "android": "https://dc.lft.to/lastmile_qr_scan"}, "is_reserved": 0}, {"lon": -77.035202, "bike_id": "de2994a810dfccd28b3823bf9d15e87c", "lat": 38.91595983333333, "fusion_lon": 0.0, "fusion_lat": 0.0, "type": "electric_scooter", "name": "de2994a810dfccd28b3823bf9d15e87c", "is_disabled": 0, "rental_uris": {"ios": "https://dc.lft.to/lastmile_qr_scan", "android": "https://dc.lft.to/lastmile_qr_scan"}, "is_reserved": 0}, {"lon": -77.04118683333333, "bike_id": "32470616b40e2d9330c1c04380c2f6bc", "lat": 38.92128366666667, "fusion_lon": 0.0, "fusion_lat": 0.0, "type": "electric_scooter", "name": "32470616b40e2d9330c1c04380c2f6bc", "is_disabled": 0, "rental_uris": {"ios": "https://dc.lft.to/lastmile_qr_scan", "android": "https://dc.lft.to/lastmile_qr_scan"}, "is_reserved": 0}, {"lon": -77.0325605, "bike_id": "f13ae82e2657a1c6144d63aebfbaef8c", "lat": 38.9426595, "fusion_lon": 0.0, "fusion_lat": 0.0, "type": "electric_scooter", "name": "f13ae82e2657a1c6144d63aebfbaef8c", "is_disabled": 0, "rental_uris": {"ios": "https://dc.lft.to/lastmile_qr_scan", "android": "https://dc.lft.to/lastmile_qr_scan"}, "is_reserved": 0}, {"lon": -77.018792, "bike_id": "758d9e496d6dbbdf9fe869631995d7ef", "lat": 38.9026685, "fusion_lon": 0.0, "fusion_lat": 0.0, "type": "electric_scooter", "name": "758d9e496d6dbbdf9fe869631995d7ef", "is_disabled": 0, "rental_uris": {"ios": "https://dc.lft.to/lastmile_qr_scan", "android": "https://dc.lft.to/lastmile_qr_scan"}, "is_reserved": 0}, {"lon": -77.01806966666666, "bike_id": "6c7d3def06fb8a144a97aee50bf2d28f", "lat": 38.9147495, "fusion_lon": 0.0, "fusion_lat": 0.0, "type": "electric_scooter", "name": "6c7d3def06fb8a144a97aee50bf2d28f", "is_disabled": 0, "rental_uris": {"ios": "https://dc.lft.to/lastmile_qr_scan", "android": "https://dc.lft.to/lastmile_qr_scan"}, "is_reserved": 0}, {"lon": -77.04326833333333, "bike_id": "548b3b62225d3a3052d0be83538fb00b", "lat": 38.90877, "fusion_lon": 0.0, "fusion_lat": 0.0, "type": "electric_scooter", "name": "548b3b62225d3a3052d0be83538fb00b", "is_disabled": 0, "rental_uris": {"ios": "https://dc.lft.to/lastmile_qr_scan", "android": "https://dc.lft.to/lastmile_qr_scan"}, "is_reserved": 0}, {"lon": -77.033361, "bike_id": "161b4f27066046724c7dd2089dd1a1c1", "lat": 38.938962, "fusion_lon": 0.0, "fusion_lat": 0.0, "type": "electric_scooter", "name": "161b4f27066046724c7dd2089dd1a1c1", "is_disabled": 0, "rental_uris": {"ios": "https://dc.lft.to/lastmile_qr_scan", "android": "https://dc.lft.to/lastmile_qr_scan"}, "is_reserved": 0}, {"lon": -77.0320295, "bike_id": "3f39a8a0f47e8af5047e331c82db43a9", "lat": 38.912510166666664, "fusion_lon": 0.0, "fusion_lat": 0.0, "type": "electric_scooter", "name": "3f39a8a0f47e8af5047e331c82db43a9", "is_disabled": 0, "rental_uris": {"ios": "https://dc.lft.to/lastmile_qr_scan", "android": "https://dc.lft.to/lastmile_qr_scan"}, "is_reserved": 0}, {"lon": -77.027158, "bike_id": "169afcdc7059555a2800e1cfff22140a", "lat": 38.9094585, "fusion_lon": 0.0, "fusion_lat": 0.0, "type": "electric_scooter", "name": "169afcdc7059555a2800e1cfff22140a", "is_disabled": 0, "rental_uris": {"ios": "https://dc.lft.to/lastmile_qr_scan", "android": "https://dc.lft.to/lastmile_qr_scan"}, "is_reserved": 0}, {"lon": -77.03182266666667, "bike_id": "00fcaf6b1faedac8726886488dba9440", "lat": 38.9068565, "fusion_lon": 0.0, "fusion_lat": 0.0, "type": "electric_scooter", "name": "00fcaf6b1faedac8726886488dba9440", "is_disabled": 0, "rental_uris": {"ios": "https://dc.lft.to/lastmile_qr_scan", "android": "https://dc.lft.to/lastmile_qr_scan"}, "is_reserved": 0}, {"lon": -77.02178166666667, "bike_id": "af60c8ee111cfdd8cbb39fb81668ac5b", "lat": 38.909797833333336, "fusion_lon": 0.0, "fusion_lat": 0.0, "type": "electric_scooter", "name": "af60c8ee111cfdd8cbb39fb81668ac5b", "is_disabled": 0, "rental_uris": {"ios": "https://dc.lft.to/lastmile_qr_scan", "android": "https://dc.lft.to/lastmile_qr_scan"}, "is_reserved": 0}, {"lon": -77.076196, "bike_id": "4fcb25ec7232b64ca44ad63b2970da17", "lat": 38.965782833333336, "fusion_lon": 0.0, "fusion_lat": 0.0, "type": "electric_bike", "name": "4fcb25ec7232b64ca44ad63b2970da17", "is_disabled": 0, "rental_uris": {"ios": "https://dc.lft.to/lastmile_qr_scan", "android": "https://dc.lft.to/lastmile_qr_scan"}, "is_reserved": 0}, {"lon": -77.11711183333334, "bike_id": "f9659d62ac02ee04797bc1514e8f373b", "lat": 38.86746433333333, "fusion_lon": 0.0, "fusion_lat": 0.0, "type": "electric_bike", "name": "f9659d62ac02ee04797bc1514e8f373b", "is_disabled": 0, "rental_uris": {"ios": "https://dc.lft.to/lastmile_qr_scan", "android": "https://dc.lft.to/lastmile_qr_scan"}, "is_reserved": 0}, {"lon": -77.01751183333333, "bike_id": "a64adbc036db53c497ec4294fdc65879", "lat": 38.903761833333334, "fusion_lon": 0.0, "fusion_lat": 0.0, "type": "electric_scooter", "name": "a64adbc036db53c497ec4294fdc65879", "is_disabled": 0, "rental_uris": {"ios": "https://dc.lft.to/lastmile_qr_scan", "android": "https://dc.lft.to/lastmile_qr_scan"}, "is_reserved": 0}, {"lon": -76.95749566666667, "bike_id": "884e021f5ab06fa7a58f1198a8cca8e8", "lat": 38.88428533333333, "fusion_lon": 0.0, "fusion_lat": 0.0, "type": "electric_scooter", "name": "884e021f5ab06fa7a58f1198a8cca8e8", "is_disabled": 0, "rental_uris": {"ios": "https://dc.lft.to/lastmile_qr_scan", "android": "https://dc.lft.to/lastmile_qr_scan"}, "is_reserved": 0}, {"lon": -77.0231875, "bike_id": "08763f1f9b2a2246c22b2bc69f95235f", "lat": 38.894915833333336, "fusion_lon": 0.0, "fusion_lat": 0.0, "type": "electric_scooter", "name": "08763f1f9b2a2246c22b2bc69f95235f", "is_disabled": 0, "rental_uris": {"ios": "https://dc.lft.to/lastmile_qr_scan", "android": "https://dc.lft.to/lastmile_qr_scan"}, "is_reserved": 0}, {"lon": -77.030754, "bike_id": "bc075f3f401f2bfcba4e1a4b03bf6c36", "lat": 38.92029866666667, "fusion_lon": 0.0, "fusion_lat": 0.0, "type": "electric_scooter", "name": "bc075f3f401f2bfcba4e1a4b03bf6c36", "is_disabled": 0, "rental_uris": {"ios": "https://dc.lft.to/lastmile_qr_scan", "android": "https://dc.lft.to/lastmile_qr_scan"}, "is_reserved": 0}, {"lon": -77.02247166666666, "bike_id": "49c5e27494aa6e7d6bd93f71e9be4e94", "lat": 38.92733033333333, "fusion_lon": 0.0, "fusion_lat": 0.0, "type": "electric_scooter", "name": "49c5e27494aa6e7d6bd93f71e9be4e94", "is_disabled": 0, "rental_uris": {"ios": "https://dc.lft.to/lastmile_qr_scan", "android": "https://dc.lft.to/lastmile_qr_scan"}, "is_reserved": 0}, {"lon": -77.02142616666667, "bike_id": "9134ca4ae86a5116fb4cd301c5319226", "lat": 38.89719816666667, "fusion_lon": 0.0, "fusion_lat": 0.0, "type": "electric_scooter", "name": "9134ca4ae86a5116fb4cd301c5319226", "is_disabled": 0, "rental_uris": {"ios": "https://dc.lft.to/lastmile_qr_scan", "android": "https://dc.lft.to/lastmile_qr_scan"}, "is_reserved": 0}, {"lon": -77.04183783333333, "bike_id": "3de9d52a1212d2c2c1f8d23c78cc5c72", "lat": 38.899759333333336, "fusion_lon": 0.0, "fusion_lat": 0.0, "type": "electric_scooter", "name": "3de9d52a1212d2c2c1f8d23c78cc5c72", "is_disabled": 0, "rental_uris": {"ios": "https://dc.lft.to/lastmile_qr_scan", "android": "https://dc.lft.to/lastmile_qr_scan"}, "is_reserved": 0}, {"lon": -77.023019, "bike_id": "110af009ec0dad7142a4c499cea5941f", "lat": 38.91783783333333, "fusion_lon": 0.0, "fusion_lat": 0.0, "type": "electric_scooter", "name": "110af009ec0dad7142a4c499cea5941f", "is_disabled": 0, "rental_uris": {"ios": "https://dc.lft.to/lastmile_qr_scan", "android": "https://dc.lft.to/lastmile_qr_scan"}, "is_reserved": 0}, {"lon": -76.99806683333334, "bike_id": "9750a2a6f8aba759ba91f71467408ecd", "lat": 38.8290985, "fusion_lon": 0.0, "fusion_lat": 0.0, "type": "electric_bike", "name": "9750a2a6f8aba759ba91f71467408ecd", "is_disabled": 0, "rental_uris": {"ios": "https://dc.lft.to/lastmile_qr_scan", "android": "https://dc.lft.to/lastmile_qr_scan"}, "is_reserved": 0}, {"lon": -77.03609016666667, "bike_id": "ff526b6e2eeceb2ae72065e19d08b6c6", "lat": 38.936857, "fusion_lon": 0.0, "fusion_lat": 0.0, "type": "electric_scooter", "name": "ff526b6e2eeceb2ae72065e19d08b6c6", "is_disabled": 0, "rental_uris": {"ios": "https://dc.lft.to/lastmile_qr_scan", "android": "https://dc.lft.to/lastmile_qr_scan"}, "is_reserved": 0}, {"lon": -77.0343035, "bike_id": "18a05693a058b349d8b947bf5c6f30a4", "lat": 38.9653035, "fusion_lon": 0.0, "fusion_lat": 0.0, "type": "electric_bike", "name": "18a05693a058b349d8b947bf5c6f30a4", "is_disabled": 0, "rental_uris": {"ios": "https://dc.lft.to/lastmile_qr_scan", "android": "https://dc.lft.to/lastmile_qr_scan"}, "is_reserved": 0}, {"lon": -77.03036366666667, "bike_id": "93984e50d8aab3909a7b22ffa1ffa1ed", "lat": 38.88436983333333, "fusion_lon": 0.0, "fusion_lat": 0.0, "type": "electric_scooter", "name": "93984e50d8aab3909a7b22ffa1ffa1ed", "is_disabled": 0, "rental_uris": {"ios": "https://dc.lft.to/lastmile_qr_scan", "android": "https://dc.lft.to/lastmile_qr_scan"}, "is_reserved": 0}, {"lon": -77.02206033333333, "bike_id": "2a4f45fa224192b585e919441f4b245a", "lat": 38.912676, "fusion_lon": 0.0, "fusion_lat": 0.0, "type": "electric_scooter", "name": "2a4f45fa224192b585e919441f4b245a", "is_disabled": 0, "rental_uris": {"ios": "https://dc.lft.to/lastmile_qr_scan", "android": "https://dc.lft.to/lastmile_qr_scan"}, "is_reserved": 0}, {"lon": -77.02722033333333, "bike_id": "d48c40839e36b7968fbb32f00abf6150", "lat": 38.92480966666667, "fusion_lon": 0.0, "fusion_lat": 0.0, "type": "electric_scooter", "name": "d48c40839e36b7968fbb32f00abf6150", "is_disabled": 0, "rental_uris": {"ios": "https://dc.lft.to/lastmile_qr_scan", "android": "https://dc.lft.to/lastmile_qr_scan"}, "is_reserved": 0}, {"lon": -77.03551733333333, "bike_id": "d90b7d6c952bf6f6dfbf00d2a30368d5", "lat": 38.90834016666667, "fusion_lon": 0.0, "fusion_lat": 0.0, "type": "electric_scooter", "name": "d90b7d6c952bf6f6dfbf00d2a30368d5", "is_disabled": 0, "rental_uris": {"ios": "https://dc.lft.to/lastmile_qr_scan", "android": "https://dc.lft.to/lastmile_qr_scan"}, "is_reserved": 0}, {"lon": -77.035174, "bike_id": "1f40da5e3390d9a56a01d6b014f2e83e", "lat": 38.921979666666665, "fusion_lon": 0.0, "fusion_lat": 0.0, "type": "electric_scooter", "name": "1f40da5e3390d9a56a01d6b014f2e83e", "is_disabled": 0, "rental_uris": {"ios": "https://dc.lft.to/lastmile_qr_scan", "android": "https://dc.lft.to/lastmile_qr_scan"}, "is_reserved": 0}, {"lon": -77.09966766666666, "bike_id": "4207faed277a0e909f6ade906d0de307", "lat": 38.857918, "fusion_lon": 0.0, "fusion_lat": 0.0, "type": "electric_bike", "name": "4207faed277a0e909f6ade906d0de307", "is_disabled": 0, "rental_uris": {"ios": "https://dc.lft.to/lastmile_qr_scan", "android": "https://dc.lft.to/lastmile_qr_scan"}, "is_reserved": 0}, {"lon": -77.0354235, "bike_id": "278e3517202b523bf76e34b69ff0b355", "lat": 38.9246695, "fusion_lon": 0.0, "fusion_lat": 0.0, "type": "electric_scooter", "name": "278e3517202b523bf76e34b69ff0b355", "is_disabled": 0, "rental_uris": {"ios": "https://dc.lft.to/lastmile_qr_scan", "android": "https://dc.lft.to/lastmile_qr_scan"}, "is_reserved": 0}, {"lon": -77.02771566666667, "bike_id": "163d4fb98e93f4f69e397a58f0d4847f", "lat": 38.93459883333333, "fusion_lon": 0.0, "fusion_lat": 0.0, "type": "electric_scooter", "name": "163d4fb98e93f4f69e397a58f0d4847f", "is_disabled": 0, "rental_uris": {"ios": "https://dc.lft.to/lastmile_qr_scan", "android": "https://dc.lft.to/lastmile_qr_scan"}, "is_reserved": 0}, {"lon": -77.04456066666667, "bike_id": "3774758c6fa10f9e40e443671b140f31", "lat": 38.90860166666667, "fusion_lon": 0.0, "fusion_lat": 0.0, "type": "electric_scooter", "name": "3774758c6fa10f9e40e443671b140f31", "is_disabled": 0, "rental_uris": {"ios": "https://dc.lft.to/lastmile_qr_scan", "android": "https://dc.lft.to/lastmile_qr_scan"}, "is_reserved": 0}, {"lon": -77.02961433333333, "bike_id": "59aff8ac7a0b5878b41fc96f1283bd27", "lat": 38.92485833333333, "fusion_lon": 0.0, "fusion_lat": 0.0, "type": "electric_scooter", "name": "59aff8ac7a0b5878b41fc96f1283bd27", "is_disabled": 0, "rental_uris": {"ios": "https://dc.lft.to/lastmile_qr_scan", "android": "https://dc.lft.to/lastmile_qr_scan"}, "is_reserved": 0}, {"lon": -77.031934, "bike_id": "97f0bce42ab67783896c993280c327c8", "lat": 38.904376666666664, "fusion_lon": 0.0, "fusion_lat": 0.0, "type": "electric_scooter", "name": "97f0bce42ab67783896c993280c327c8", "is_disabled": 0, "rental_uris": {"ios": "https://dc.lft.to/lastmile_qr_scan", "android": "https://dc.lft.to/lastmile_qr_scan"}, "is_reserved": 0}, {"lon": -77.039123, "bike_id": "7e10fa7950c73fb24bd63503de4f85d4", "lat": 38.92599883333333, "fusion_lon": 0.0, "fusion_lat": 0.0, "type": "electric_scooter", "name": "7e10fa7950c73fb24bd63503de4f85d4", "is_disabled": 0, "rental_uris": {"ios": "https://dc.lft.to/lastmile_qr_scan", "android": "https://dc.lft.to/lastmile_qr_scan"}, "is_reserved": 0}, {"lon": -77.01380083333333, "bike_id": "b5300a3bc11ea69b8df3e302c7d1680b", "lat": 38.912225, "fusion_lon": 0.0, "fusion_lat": 0.0, "type": "electric_scooter", "name": "b5300a3bc11ea69b8df3e302c7d1680b", "is_disabled": 0, "rental_uris": {"ios": "https://dc.lft.to/lastmile_qr_scan", "android": "https://dc.lft.to/lastmile_qr_scan"}, "is_reserved": 0}, {"lon": -77.0437025, "bike_id": "6d93774f5f5f07c08e7bf9fabadf4df4", "lat": 38.89217433333334, "fusion_lon": 0.0, "fusion_lat": 0.0, "type": "electric_scooter", "name": "6d93774f5f5f07c08e7bf9fabadf4df4", "is_disabled": 0, "rental_uris": {"ios": "https://dc.lft.to/lastmile_qr_scan", "android": "https://dc.lft.to/lastmile_qr_scan"}, "is_reserved": 0}, {"lon": -77.02927733333334, "bike_id": "300068023fb98710728e7e33f8fbcff4", "lat": 38.898159, "fusion_lon": 0.0, "fusion_lat": 0.0, "type": "electric_scooter", "name": "300068023fb98710728e7e33f8fbcff4", "is_disabled": 0, "rental_uris": {"ios": "https://dc.lft.to/lastmile_qr_scan", "android": "https://dc.lft.to/lastmile_qr_scan"}, "is_reserved": 0}, {"lon": -77.02848316666666, "bike_id": "b1139ccf7852873f2df5bb29fea0e929", "lat": 38.934214, "fusion_lon": 0.0, "fusion_lat": 0.0, "type": "electric_scooter", "name": "b1139ccf7852873f2df5bb29fea0e929", "is_disabled": 0, "rental_uris": {"ios": "https://dc.lft.to/lastmile_qr_scan", "android": "https://dc.lft.to/lastmile_qr_scan"}, "is_reserved": 0}, {"lon": -77.0343915, "bike_id": "31211224401cfd3f75cbc9c15e5a9e7b", "lat": 38.905826166666664, "fusion_lon": 0.0, "fusion_lat": 0.0, "type": "electric_scooter", "name": "31211224401cfd3f75cbc9c15e5a9e7b", "is_disabled": 0, "rental_uris": {"ios": "https://dc.lft.to/lastmile_qr_scan", "android": "https://dc.lft.to/lastmile_qr_scan"}, "is_reserved": 0}, {"lon": -76.99934016666667, "bike_id": "3b81287362fc16b063b17d6d77cd175f", "lat": 38.84315766666667, "fusion_lon": 0.0, "fusion_lat": 0.0, "type": "electric_scooter", "name": "3b81287362fc16b063b17d6d77cd175f", "is_disabled": 0, "rental_uris": {"ios": "https://dc.lft.to/lastmile_qr_scan", "android": "https://dc.lft.to/lastmile_qr_scan"}, "is_reserved": 0}, {"lon": -77.125279, "bike_id": "9a0b940292cc8b850f966cb0bf3b21e1", "lat": 39.05633616666667, "fusion_lon": 0.0, "fusion_lat": 0.0, "type": "electric_bike", "name": "9a0b940292cc8b850f966cb0bf3b21e1", "is_disabled": 0, "rental_uris": {"ios": "https://dc.lft.to/lastmile_qr_scan", "android": "https://dc.lft.to/lastmile_qr_scan"}, "is_reserved": 0}, {"lon": -77.04337633333333, "bike_id": "2b297354fe2b7d8c36ccdd39ce017976", "lat": 38.892188833333336, "fusion_lon": 0.0, "fusion_lat": 0.0, "type": "electric_scooter", "name": "2b297354fe2b7d8c36ccdd39ce017976", "is_disabled": 0, "rental_uris": {"ios": "https://dc.lft.to/lastmile_qr_scan", "android": "https://dc.lft.to/lastmile_qr_scan"}, "is_reserved": 0}, {"lon": -77.07452633333334, "bike_id": "1e76d4b1b1d932c057f2aaf59acb3950", "lat": 38.945033, "fusion_lon": 0.0, "fusion_lat": 0.0, "type": "electric_scooter", "name": "1e76d4b1b1d932c057f2aaf59acb3950", "is_disabled": 0, "rental_uris": {"ios": "https://dc.lft.to/lastmile_qr_scan", "android": "https://dc.lft.to/lastmile_qr_scan"}, "is_reserved": 0}, {"lon": -76.93731066666666, "bike_id": "d65668ceeeb062716378ced726643dc3", "lat": 38.89013533333333, "fusion_lon": 0.0, "fusion_lat": 0.0, "type": "electric_scooter", "name": "d65668ceeeb062716378ced726643dc3", "is_disabled": 0, "rental_uris": {"ios": "https://dc.lft.to/lastmile_qr_scan", "android": "https://dc.lft.to/lastmile_qr_scan"}, "is_reserved": 0}, {"lon": -77.01598166666666, "bike_id": "22cebdcc9c5c824e4a0c42865580fbf1", "lat": 38.8997265, "fusion_lon": 0.0, "fusion_lat": 0.0, "type": "electric_scooter", "name": "22cebdcc9c5c824e4a0c42865580fbf1", "is_disabled": 0, "rental_uris": {"ios": "https://dc.lft.to/lastmile_qr_scan", "android": "https://dc.lft.to/lastmile_qr_scan"}, "is_reserved": 0}, {"lon": -77.034792, "bike_id": "069bd15225564ae9d12f94b50b13556e", "lat": 38.902713, "fusion_lon": 0.0, "fusion_lat": 0.0, "type": "electric_scooter", "name": "069bd15225564ae9d12f94b50b13556e", "is_disabled": 0, "rental_uris": {"ios": "https://dc.lft.to/lastmile_qr_scan", "android": "https://dc.lft.to/lastmile_qr_scan"}, "is_reserved": 0}, {"lon": -77.0320645, "bike_id": "61bcf62da6195aa1a0fb89ccf14b3e00", "lat": 38.903799, "fusion_lon": 0.0, "fusion_lat": 0.0, "type": "electric_scooter", "name": "61bcf62da6195aa1a0fb89ccf14b3e00", "is_disabled": 0, "rental_uris": {"ios": "https://dc.lft.to/lastmile_qr_scan", "android": "https://dc.lft.to/lastmile_qr_scan"}, "is_reserved": 0}, {"lon": -77.04675616666667, "bike_id": "2a5f615dff7760348c9f871b8d14c1f6", "lat": 38.8923075, "fusion_lon": 0.0, "fusion_lat": 0.0, "type": "electric_scooter", "name": "2a5f615dff7760348c9f871b8d14c1f6", "is_disabled": 0, "rental_uris": {"ios": "https://dc.lft.to/lastmile_qr_scan", "android": "https://dc.lft.to/lastmile_qr_scan"}, "is_reserved": 0}, {"lon": -77.01220683333334, "bike_id": "e653d0d07543f10ddccb0490cf3636c9", "lat": 38.9153795, "fusion_lon": 0.0, "fusion_lat": 0.0, "type": "electric_scooter", "name": "e653d0d07543f10ddccb0490cf3636c9", "is_disabled": 0, "rental_uris": {"ios": "https://dc.lft.to/lastmile_qr_scan", "android": "https://dc.lft.to/lastmile_qr_scan"}, "is_reserved": 0}, {"lon": -77.02490666666667, "bike_id": "48ccc9928c7d21994893c0e5f9487d30", "lat": 38.916900166666665, "fusion_lon": 0.0, "fusion_lat": 0.0, "type": "electric_scooter", "name": "48ccc9928c7d21994893c0e5f9487d30", "is_disabled": 0, "rental_uris": {"ios": "https://dc.lft.to/lastmile_qr_scan", "android": "https://dc.lft.to/lastmile_qr_scan"}, "is_reserved": 0}, {"lon": -77.034456, "bike_id": "06ae8cae238791cf7a5d9dcf8bc0ce38", "lat": 38.90967766666667, "fusion_lon": 0.0, "fusion_lat": 0.0, "type": "electric_scooter", "name": "06ae8cae238791cf7a5d9dcf8bc0ce38", "is_disabled": 0, "rental_uris": {"ios": "https://dc.lft.to/lastmile_qr_scan", "android": "https://dc.lft.to/lastmile_qr_scan"}, "is_reserved": 0}, {"lon": -77.04769333333333, "bike_id": "1f3194c07a83630e43ae397fb14f0285", "lat": 38.91748533333333, "fusion_lon": 0.0, "fusion_lat": 0.0, "type": "electric_scooter", "name": "1f3194c07a83630e43ae397fb14f0285", "is_disabled": 0, "rental_uris": {"ios": "https://dc.lft.to/lastmile_qr_scan", "android": "https://dc.lft.to/lastmile_qr_scan"}, "is_reserved": 0}, {"lon": -77.02807533333333, "bike_id": "c4c4ea1394c31e50eb6828b7ec75f1ee", "lat": 38.930567333333336, "fusion_lon": 0.0, "fusion_lat": 0.0, "type": "electric_scooter", "name": "c4c4ea1394c31e50eb6828b7ec75f1ee", "is_disabled": 0, "rental_uris": {"ios": "https://dc.lft.to/lastmile_qr_scan", "android": "https://dc.lft.to/lastmile_qr_scan"}, "is_reserved": 0}, {"lon": -77.01937533333333, "bike_id": "ad4e5963ff43cff1581025db82f6aa97", "lat": 38.935265666666666, "fusion_lon": 0.0, "fusion_lat": 0.0, "type": "electric_scooter", "name": "ad4e5963ff43cff1581025db82f6aa97", "is_disabled": 0, "rental_uris": {"ios": "https://dc.lft.to/lastmile_qr_scan", "android": "https://dc.lft.to/lastmile_qr_scan"}, "is_reserved": 0}, {"lon": -77.017678, "bike_id": "49e2b20d2f8ae8fa9ec7fdc7138e0220", "lat": 38.887305166666664, "fusion_lon": 0.0, "fusion_lat": 0.0, "type": "electric_scooter", "name": "49e2b20d2f8ae8fa9ec7fdc7138e0220", "is_disabled": 0, "rental_uris": {"ios": "https://dc.lft.to/lastmile_qr_scan", "android": "https://dc.lft.to/lastmile_qr_scan"}, "is_reserved": 0}, {"lon": -77.05859566666666, "bike_id": "4b7f71576d087c870108c5da12ed5ebf", "lat": 38.93609133333333, "fusion_lon": 0.0, "fusion_lat": 0.0, "type": "electric_bike", "name": "4b7f71576d087c870108c5da12ed5ebf", "is_disabled": 0, "rental_uris": {"ios": "https://dc.lft.to/lastmile_qr_scan", "android": "https://dc.lft.to/lastmile_qr_scan"}, "is_reserved": 0}, {"lon": -77.00642283333333, "bike_id": "65b165b5b6f011cd545f02c3f8167fcb", "lat": 38.926166, "fusion_lon": 0.0, "fusion_lat": 0.0, "type": "electric_scooter", "name": "65b165b5b6f011cd545f02c3f8167fcb", "is_disabled": 0, "rental_uris": {"ios": "https://dc.lft.to/lastmile_qr_scan", "android": "https://dc.lft.to/lastmile_qr_scan"}, "is_reserved": 0}, {"lon": -77.04610516666666, "bike_id": "7af401e90824ad4412d9e055a19b575d", "lat": 38.92044666666666, "fusion_lon": 0.0, "fusion_lat": 0.0, "type": "electric_scooter", "name": "7af401e90824ad4412d9e055a19b575d", "is_disabled": 0, "rental_uris": {"ios": "https://dc.lft.to/lastmile_qr_scan", "android": "https://dc.lft.to/lastmile_qr_scan"}, "is_reserved": 0}, {"lon": -76.99531316666666, "bike_id": "1458ac88cfe71398aa73a532c2792ca7", "lat": 38.88368716666667, "fusion_lon": 0.0, "fusion_lat": 0.0, "type": "electric_scooter", "name": "1458ac88cfe71398aa73a532c2792ca7", "is_disabled": 0, "rental_uris": {"ios": "https://dc.lft.to/lastmile_qr_scan", "android": "https://dc.lft.to/lastmile_qr_scan"}, "is_reserved": 0}, {"lon": -77.02227133333334, "bike_id": "fdc31ae8234443f4462d9e491e4e784e", "lat": 38.9568585, "fusion_lon": 0.0, "fusion_lat": 0.0, "type": "electric_bike", "name": "fdc31ae8234443f4462d9e491e4e784e", "is_disabled": 0, "rental_uris": {"ios": "https://dc.lft.to/lastmile_qr_scan", "android": "https://dc.lft.to/lastmile_qr_scan"}, "is_reserved": 0}, {"lon": -76.990864, "bike_id": "1db8fb6b8dd041bca35fc98e22a90770", "lat": 38.862354, "fusion_lon": 0.0, "fusion_lat": 0.0, "type": "electric_bike", "name": "1db8fb6b8dd041bca35fc98e22a90770", "is_disabled": 0, "rental_uris": {"ios": "https://dc.lft.to/lastmile_qr_scan", "android": "https://dc.lft.to/lastmile_qr_scan"}, "is_reserved": 0}, {"lon": -76.97360733333333, "bike_id": "1170e3db285d3ba5db94875faec3c691", "lat": 38.873344333333335, "fusion_lon": 0.0, "fusion_lat": 0.0, "type": "electric_scooter", "name": "1170e3db285d3ba5db94875faec3c691", "is_disabled": 0, "rental_uris": {"ios": "https://dc.lft.to/lastmile_qr_scan", "android": "https://dc.lft.to/lastmile_qr_scan"}, "is_reserved": 0}, {"lon": -77.06517633333333, "bike_id": "4bddedcb4d8430b11207825dfe54086b", "lat": 38.90393683333333, "fusion_lon": 0.0, "fusion_lat": 0.0, "type": "electric_scooter", "name": "4bddedcb4d8430b11207825dfe54086b", "is_disabled": 0, "rental_uris": {"ios": "https://dc.lft.to/lastmile_qr_scan", "android": "https://dc.lft.to/lastmile_qr_scan"}, "is_reserved": 0}, {"lon": -76.99832983333333, "bike_id": "0f081df4953e621b1b9e7bd74b3a9362", "lat": 38.90495583333333, "fusion_lon": 0.0, "fusion_lat": 0.0, "type": "electric_scooter", "name": "0f081df4953e621b1b9e7bd74b3a9362", "is_disabled": 0, "rental_uris": {"ios": "https://dc.lft.to/lastmile_qr_scan", "android": "https://dc.lft.to/lastmile_qr_scan"}, "is_reserved": 0}, {"lon": -77.03449, "bike_id": "ebbf5541a6ab2cc48291d2bd627fbcfc", "lat": 38.907324833333334, "fusion_lon": 0.0, "fusion_lat": 0.0, "type": "electric_scooter", "name": "ebbf5541a6ab2cc48291d2bd627fbcfc", "is_disabled": 0, "rental_uris": {"ios": "https://dc.lft.to/lastmile_qr_scan", "android": "https://dc.lft.to/lastmile_qr_scan"}, "is_reserved": 0}, {"lon": -77.080665, "bike_id": "acdc179dd068bfb985a32c3d54ac2018", "lat": 39.0528235, "fusion_lon": 0.0, "fusion_lat": 0.0, "type": "electric_bike", "name": "acdc179dd068bfb985a32c3d54ac2018", "is_disabled": 0, "rental_uris": {"ios": "https://dc.lft.to/lastmile_qr_scan", "android": "https://dc.lft.to/lastmile_qr_scan"}, "is_reserved": 0}, {"lon": -77.0250175, "bike_id": "9abd62a08b2d6f6bfb803c127b5b9acc", "lat": 38.920738666666665, "fusion_lon": 0.0, "fusion_lat": 0.0, "type": "electric_scooter", "name": "9abd62a08b2d6f6bfb803c127b5b9acc", "is_disabled": 0, "rental_uris": {"ios": "https://dc.lft.to/lastmile_qr_scan", "android": "https://dc.lft.to/lastmile_qr_scan"}, "is_reserved": 0}, {"lon": -77.03841366666667, "bike_id": "eca5e0b65b250ad72b768d5ece219e91", "lat": 38.90664366666667, "fusion_lon": 0.0, "fusion_lat": 0.0, "type": "electric_scooter", "name": "eca5e0b65b250ad72b768d5ece219e91", "is_disabled": 0, "rental_uris": {"ios": "https://dc.lft.to/lastmile_qr_scan", "android": "https://dc.lft.to/lastmile_qr_scan"}, "is_reserved": 0}, {"lon": -77.00502033333333, "bike_id": "e66745bb2c46cc14ef4583fa127c04df", "lat": 38.9126405, "fusion_lon": 0.0, "fusion_lat": 0.0, "type": "electric_scooter", "name": "e66745bb2c46cc14ef4583fa127c04df", "is_disabled": 0, "rental_uris": {"ios": "https://dc.lft.to/lastmile_qr_scan", "android": "https://dc.lft.to/lastmile_qr_scan"}, "is_reserved": 0}, {"lon": -77.04646416666667, "bike_id": "808dffe3a77a335511c8de4bcb762b04", "lat": 38.915959, "fusion_lon": 0.0, "fusion_lat": 0.0, "type": "electric_scooter", "name": "808dffe3a77a335511c8de4bcb762b04", "is_disabled": 0, "rental_uris": {"ios": "https://dc.lft.to/lastmile_qr_scan", "android": "https://dc.lft.to/lastmile_qr_scan"}, "is_reserved": 0}, {"lon": -77.0205065, "bike_id": "9ae60205711219f4772663da03804750", "lat": 38.909748, "fusion_lon": 0.0, "fusion_lat": 0.0, "type": "electric_scooter", "name": "9ae60205711219f4772663da03804750", "is_disabled": 0, "rental_uris": {"ios": "https://dc.lft.to/lastmile_qr_scan", "android": "https://dc.lft.to/lastmile_qr_scan"}, "is_reserved": 0}, {"lon": -77.02360916666666, "bike_id": "8a276e21ff7ffa2d3c47e57e872d686f", "lat": 38.89217583333333, "fusion_lon": 0.0, "fusion_lat": 0.0, "type": "electric_scooter", "name": "8a276e21ff7ffa2d3c47e57e872d686f", "is_disabled": 0, "rental_uris": {"ios": "https://dc.lft.to/lastmile_qr_scan", "android": "https://dc.lft.to/lastmile_qr_scan"}, "is_reserved": 0}, {"lon": -77.03660883333333, "bike_id": "f4088ed7468ed27d3e0ed484cc35b0d4", "lat": 38.922846166666666, "fusion_lon": 0.0, "fusion_lat": 0.0, "type": "electric_scooter", "name": "f4088ed7468ed27d3e0ed484cc35b0d4", "is_disabled": 0, "rental_uris": {"ios": "https://dc.lft.to/lastmile_qr_scan", "android": "https://dc.lft.to/lastmile_qr_scan"}, "is_reserved": 0}, {"lon": -77.0240725, "bike_id": "b57f046146faf93effa16872b01dc8ff", "lat": 38.91685616666667, "fusion_lon": 0.0, "fusion_lat": 0.0, "type": "electric_scooter", "name": "b57f046146faf93effa16872b01dc8ff", "is_disabled": 0, "rental_uris": {"ios": "https://dc.lft.to/lastmile_qr_scan", "android": "https://dc.lft.to/lastmile_qr_scan"}, "is_reserved": 0}, {"lon": -77.04321666666667, "bike_id": "724d982dd923806cb9356bc3d2e5c778", "lat": 38.902333666666664, "fusion_lon": 0.0, "fusion_lat": 0.0, "type": "electric_scooter", "name": "724d982dd923806cb9356bc3d2e5c778", "is_disabled": 0, "rental_uris": {"ios": "https://dc.lft.to/lastmile_qr_scan", "android": "https://dc.lft.to/lastmile_qr_scan"}, "is_reserved": 0}, {"lon": -77.05856583333333, "bike_id": "5f849e5a615b10c7db5111380ef1ede3", "lat": 38.93606366666667, "fusion_lon": 0.0, "fusion_lat": 0.0, "type": "electric_scooter", "name": "5f849e5a615b10c7db5111380ef1ede3", "is_disabled": 0, "rental_uris": {"ios": "https://dc.lft.to/lastmile_qr_scan", "android": "https://dc.lft.to/lastmile_qr_scan"}, "is_reserved": 0}, {"lon": -77.034058, "bike_id": "2912f668d409a80a6310bb137476f565", "lat": 38.923176166666664, "fusion_lon": 0.0, "fusion_lat": 0.0, "type": "electric_scooter", "name": "2912f668d409a80a6310bb137476f565", "is_disabled": 0, "rental_uris": {"ios": "https://dc.lft.to/lastmile_qr_scan", "android": "https://dc.lft.to/lastmile_qr_scan"}, "is_reserved": 0}, {"lon": -77.0244285, "bike_id": "7e293c43b6dca79b362427e9f4681b7c", "lat": 38.9006315, "fusion_lon": 0.0, "fusion_lat": 0.0, "type": "electric_scooter", "name": "7e293c43b6dca79b362427e9f4681b7c", "is_disabled": 0, "rental_uris": {"ios": "https://dc.lft.to/lastmile_qr_scan", "android": "https://dc.lft.to/lastmile_qr_scan"}, "is_reserved": 0}, {"lon": -77.05263783333334, "bike_id": "6cd43d8da4965bf77fbf27f4ab9b6f59", "lat": 38.9277375, "fusion_lon": 0.0, "fusion_lat": 0.0, "type": "electric_scooter", "name": "6cd43d8da4965bf77fbf27f4ab9b6f59", "is_disabled": 0, "rental_uris": {"ios": "https://dc.lft.to/lastmile_qr_scan", "android": "https://dc.lft.to/lastmile_qr_scan"}, "is_reserved": 0}, {"lon": -77.01859666666667, "bike_id": "f8e4a5494a87da46651f6ea07b82b522", "lat": 38.914896, "fusion_lon": 0.0, "fusion_lat": 0.0, "type": "electric_scooter", "name": "f8e4a5494a87da46651f6ea07b82b522", "is_disabled": 0, "rental_uris": {"ios": "https://dc.lft.to/lastmile_qr_scan", "android": "https://dc.lft.to/lastmile_qr_scan"}, "is_reserved": 0}, {"lon": -77.02758633333333, "bike_id": "ead481e0e39a0e110ac1caa9ad48b03d", "lat": 38.944042333333336, "fusion_lon": 0.0, "fusion_lat": 0.0, "type": "electric_scooter", "name": "ead481e0e39a0e110ac1caa9ad48b03d", "is_disabled": 0, "rental_uris": {"ios": "https://dc.lft.to/lastmile_qr_scan", "android": "https://dc.lft.to/lastmile_qr_scan"}, "is_reserved": 0}, {"lon": -77.03442633333333, "bike_id": "e6edb4d843955f6af6c02709cf56d318", "lat": 38.90979316666667, "fusion_lon": 0.0, "fusion_lat": 0.0, "type": "electric_scooter", "name": "e6edb4d843955f6af6c02709cf56d318", "is_disabled": 0, "rental_uris": {"ios": "https://dc.lft.to/lastmile_qr_scan", "android": "https://dc.lft.to/lastmile_qr_scan"}, "is_reserved": 0}, {"lon": -77.02698816666667, "bike_id": "c365e4b7c1d5f67b4cd2aced2fbcfea6", "lat": 38.90669366666667, "fusion_lon": 0.0, "fusion_lat": 0.0, "type": "electric_scooter", "name": "c365e4b7c1d5f67b4cd2aced2fbcfea6", "is_disabled": 0, "rental_uris": {"ios": "https://dc.lft.to/lastmile_qr_scan", "android": "https://dc.lft.to/lastmile_qr_scan"}, "is_reserved": 0}, {"lon": -77.03261266666667, "bike_id": "368c2de6fbeb75289ab5d490934f5052", "lat": 38.93263966666667, "fusion_lon": 0.0, "fusion_lat": 0.0, "type": "electric_scooter", "name": "368c2de6fbeb75289ab5d490934f5052", "is_disabled": 0, "rental_uris": {"ios": "https://dc.lft.to/lastmile_qr_scan", "android": "https://dc.lft.to/lastmile_qr_scan"}, "is_reserved": 0}, {"lon": -77.0216745, "bike_id": "7482dd1f75f70d65c899ff503b63fb92", "lat": 38.89476466666667, "fusion_lon": 0.0, "fusion_lat": 0.0, "type": "electric_scooter", "name": "7482dd1f75f70d65c899ff503b63fb92", "is_disabled": 0, "rental_uris": {"ios": "https://dc.lft.to/lastmile_qr_scan", "android": "https://dc.lft.to/lastmile_qr_scan"}, "is_reserved": 0}, {"lon": -77.02586183333334, "bike_id": "8496c958808d9d9b77f97af7c26bbd3f", "lat": 38.9140835, "fusion_lon": 0.0, "fusion_lat": 0.0, "type": "electric_scooter", "name": "8496c958808d9d9b77f97af7c26bbd3f", "is_disabled": 0, "rental_uris": {"ios": "https://dc.lft.to/lastmile_qr_scan", "android": "https://dc.lft.to/lastmile_qr_scan"}, "is_reserved": 0}, {"lon": -76.991557, "bike_id": "d8b013e3bcaaa0139e6e86b86d837233", "lat": 38.90041166666666, "fusion_lon": 0.0, "fusion_lat": 0.0, "type": "electric_scooter", "name": "d8b013e3bcaaa0139e6e86b86d837233", "is_disabled": 0, "rental_uris": {"ios": "https://dc.lft.to/lastmile_qr_scan", "android": "https://dc.lft.to/lastmile_qr_scan"}, "is_reserved": 0}, {"lon": -77.04662866666666, "bike_id": "a2edd464687a0b5a8211d6e3b7a1c469", "lat": 38.9003075, "fusion_lon": 0.0, "fusion_lat": 0.0, "type": "electric_scooter", "name": "a2edd464687a0b5a8211d6e3b7a1c469", "is_disabled": 0, "rental_uris": {"ios": "https://dc.lft.to/lastmile_qr_scan", "android": "https://dc.lft.to/lastmile_qr_scan"}, "is_reserved": 0}, {"lon": -77.02508266666666, "bike_id": "f9effe3e40786940349b07303585e9f4", "lat": 38.920519166666665, "fusion_lon": 0.0, "fusion_lat": 0.0, "type": "electric_scooter", "name": "f9effe3e40786940349b07303585e9f4", "is_disabled": 0, "rental_uris": {"ios": "https://dc.lft.to/lastmile_qr_scan", "android": "https://dc.lft.to/lastmile_qr_scan"}, "is_reserved": 0}, {"lon": -77.02005033333333, "bike_id": "14ff4ca0a4e491597ecfdd01f50362b8", "lat": 38.8767285, "fusion_lon": 0.0, "fusion_lat": 0.0, "type": "electric_scooter", "name": "14ff4ca0a4e491597ecfdd01f50362b8", "is_disabled": 0, "rental_uris": {"ios": "https://dc.lft.to/lastmile_qr_scan", "android": "https://dc.lft.to/lastmile_qr_scan"}, "is_reserved": 0}, {"lon": -77.03721266666666, "bike_id": "9a9667941af21b95589f0393f8a4d84c", "lat": 38.91474783333334, "fusion_lon": 0.0, "fusion_lat": 0.0, "type": "electric_scooter", "name": "9a9667941af21b95589f0393f8a4d84c", "is_disabled": 0, "rental_uris": {"ios": "https://dc.lft.to/lastmile_qr_scan", "android": "https://dc.lft.to/lastmile_qr_scan"}, "is_reserved": 0}, {"lon": -77.0393545, "bike_id": "0932531daf5e904ddfaf81dc0be6ff48", "lat": 38.8987595, "fusion_lon": 0.0, "fusion_lat": 0.0, "type": "electric_scooter", "name": "0932531daf5e904ddfaf81dc0be6ff48", "is_disabled": 0, "rental_uris": {"ios": "https://dc.lft.to/lastmile_qr_scan", "android": "https://dc.lft.to/lastmile_qr_scan"}, "is_reserved": 0}, {"lon": -77.03654283333333, "bike_id": "5d694b0165510d0ec9369e97335e13b0", "lat": 38.93653783333333, "fusion_lon": 0.0, "fusion_lat": 0.0, "type": "electric_scooter", "name": "5d694b0165510d0ec9369e97335e13b0", "is_disabled": 0, "rental_uris": {"ios": "https://dc.lft.to/lastmile_qr_scan", "android": "https://dc.lft.to/lastmile_qr_scan"}, "is_reserved": 0}, {"lon": -77.0434715, "bike_id": "ead848fe006afc92dc012240c8e97294", "lat": 38.908133, "fusion_lon": 0.0, "fusion_lat": 0.0, "type": "electric_scooter", "name": "ead848fe006afc92dc012240c8e97294", "is_disabled": 0, "rental_uris": {"ios": "https://dc.lft.to/lastmile_qr_scan", "android": "https://dc.lft.to/lastmile_qr_scan"}, "is_reserved": 0}, {"lon": -77.02725433333333, "bike_id": "10db4f27df09c422d712014041b95598", "lat": 38.95129583333333, "fusion_lon": 0.0, "fusion_lat": 0.0, "type": "electric_scooter", "name": "10db4f27df09c422d712014041b95598", "is_disabled": 0, "rental_uris": {"ios": "https://dc.lft.to/lastmile_qr_scan", "android": "https://dc.lft.to/lastmile_qr_scan"}, "is_reserved": 0}, {"lon": -76.99910133333333, "bike_id": "1a06bdc3c6116d0b0df875e78b6ccea5", "lat": 38.90024483333333, "fusion_lon": 0.0, "fusion_lat": 0.0, "type": "electric_scooter", "name": "1a06bdc3c6116d0b0df875e78b6ccea5", "is_disabled": 0, "rental_uris": {"ios": "https://dc.lft.to/lastmile_qr_scan", "android": "https://dc.lft.to/lastmile_qr_scan"}, "is_reserved": 0}, {"lon": -77.02399016666666, "bike_id": "84c69777c1f3ebfa57c83703891f3904", "lat": 38.88289816666666, "fusion_lon": 0.0, "fusion_lat": 0.0, "type": "electric_scooter", "name": "84c69777c1f3ebfa57c83703891f3904", "is_disabled": 0, "rental_uris": {"ios": "https://dc.lft.to/lastmile_qr_scan", "android": "https://dc.lft.to/lastmile_qr_scan"}, "is_reserved": 0}, {"lon": -76.94973716666667, "bike_id": "33de5f815cc3f144a93d0f77e2ac1ae1", "lat": 38.89373483333333, "fusion_lon": 0.0, "fusion_lat": 0.0, "type": "electric_scooter", "name": "33de5f815cc3f144a93d0f77e2ac1ae1", "is_disabled": 0, "rental_uris": {"ios": "https://dc.lft.to/lastmile_qr_scan", "android": "https://dc.lft.to/lastmile_qr_scan"}, "is_reserved": 0}, {"lon": -76.99737883333333, "bike_id": "31bd86194950c477dd1c5e28d9336614", "lat": 39.04233883333333, "fusion_lon": 0.0, "fusion_lat": 0.0, "type": "electric_bike", "name": "31bd86194950c477dd1c5e28d9336614", "is_disabled": 0, "rental_uris": {"ios": "https://dc.lft.to/lastmile_qr_scan", "android": "https://dc.lft.to/lastmile_qr_scan"}, "is_reserved": 0}, {"lon": -77.031818, "bike_id": "e61be91f7f2d20c49d99cbf7f61a6b48", "lat": 38.91220833333333, "fusion_lon": 0.0, "fusion_lat": 0.0, "type": "electric_scooter", "name": "e61be91f7f2d20c49d99cbf7f61a6b48", "is_disabled": 0, "rental_uris": {"ios": "https://dc.lft.to/lastmile_qr_scan", "android": "https://dc.lft.to/lastmile_qr_scan"}, "is_reserved": 0}, {"lon": -76.935364, "bike_id": "74bf30fc20306559c8ad5362b2f94779", "lat": 38.8968255, "fusion_lon": 0.0, "fusion_lat": 0.0, "type": "electric_scooter", "name": "74bf30fc20306559c8ad5362b2f94779", "is_disabled": 0, "rental_uris": {"ios": "https://dc.lft.to/lastmile_qr_scan", "android": "https://dc.lft.to/lastmile_qr_scan"}, "is_reserved": 0}, {"lon": -76.99409116666666, "bike_id": "faafc239b963e064b21eaf01e9a5e678", "lat": 38.87787483333334, "fusion_lon": 0.0, "fusion_lat": 0.0, "type": "electric_scooter", "name": "faafc239b963e064b21eaf01e9a5e678", "is_disabled": 0, "rental_uris": {"ios": "https://dc.lft.to/lastmile_qr_scan", "android": "https://dc.lft.to/lastmile_qr_scan"}, "is_reserved": 0}, {"lon": -77.0238415, "bike_id": "7696e3a9416bc465043580701639c3c7", "lat": 38.907972666666666, "fusion_lon": 0.0, "fusion_lat": 0.0, "type": "electric_scooter", "name": "7696e3a9416bc465043580701639c3c7", "is_disabled": 0, "rental_uris": {"ios": "https://dc.lft.to/lastmile_qr_scan", "android": "https://dc.lft.to/lastmile_qr_scan"}, "is_reserved": 0}, {"lon": -77.0298635, "bike_id": "efb6faf658ec36c9234251dac7726248", "lat": 38.92452566666667, "fusion_lon": 0.0, "fusion_lat": 0.0, "type": "electric_scooter", "name": "efb6faf658ec36c9234251dac7726248", "is_disabled": 0, "rental_uris": {"ios": "https://dc.lft.to/lastmile_qr_scan", "android": "https://dc.lft.to/lastmile_qr_scan"}, "is_reserved": 0}, {"lon": -77.03446833333334, "bike_id": "7281ddcd2602e28ab33749edeeabdf4c", "lat": 38.9073265, "fusion_lon": 0.0, "fusion_lat": 0.0, "type": "electric_scooter", "name": "7281ddcd2602e28ab33749edeeabdf4c", "is_disabled": 0, "rental_uris": {"ios": "https://dc.lft.to/lastmile_qr_scan", "android": "https://dc.lft.to/lastmile_qr_scan"}, "is_reserved": 0}, {"lon": -77.00714916666666, "bike_id": "c32effe9fe80ad7916e1e376f111fa1f", "lat": 38.90907383333333, "fusion_lon": 0.0, "fusion_lat": 0.0, "type": "electric_scooter", "name": "c32effe9fe80ad7916e1e376f111fa1f", "is_disabled": 0, "rental_uris": {"ios": "https://dc.lft.to/lastmile_qr_scan", "android": "https://dc.lft.to/lastmile_qr_scan"}, "is_reserved": 0}, {"lon": -77.02181766666666, "bike_id": "6ea054e42caa36fa18fb12bf87bb05ea", "lat": 38.91535966666667, "fusion_lon": 0.0, "fusion_lat": 0.0, "type": "electric_scooter", "name": "6ea054e42caa36fa18fb12bf87bb05ea", "is_disabled": 0, "rental_uris": {"ios": "https://dc.lft.to/lastmile_qr_scan", "android": "https://dc.lft.to/lastmile_qr_scan"}, "is_reserved": 0}, {"lon": -76.96544966666667, "bike_id": "440ddb047d37bc34b916fb26b994b702", "lat": 38.9186345, "fusion_lon": 0.0, "fusion_lat": 0.0, "type": "electric_scooter", "name": "440ddb047d37bc34b916fb26b994b702", "is_disabled": 0, "rental_uris": {"ios": "https://dc.lft.to/lastmile_qr_scan", "android": "https://dc.lft.to/lastmile_qr_scan"}, "is_reserved": 0}, {"lon": -76.99805183333334, "bike_id": "46d65fc2c378fed3865739e2b34d6b4a", "lat": 38.90500466666667, "fusion_lon": 0.0, "fusion_lat": 0.0, "type": "electric_bike", "name": "46d65fc2c378fed3865739e2b34d6b4a", "is_disabled": 0, "rental_uris": {"ios": "https://dc.lft.to/lastmile_qr_scan", "android": "https://dc.lft.to/lastmile_qr_scan"}, "is_reserved": 0}, {"lon": -76.98716733333333, "bike_id": "ac5c1de70798ab8385a4f5a0ad44184f", "lat": 38.866283333333335, "fusion_lon": 0.0, "fusion_lat": 0.0, "type": "electric_scooter", "name": "ac5c1de70798ab8385a4f5a0ad44184f", "is_disabled": 0, "rental_uris": {"ios": "https://dc.lft.to/lastmile_qr_scan", "android": "https://dc.lft.to/lastmile_qr_scan"}, "is_reserved": 0}, {"lon": -77.074335, "bike_id": "eae1b3388eef28859249a6bc9153d3b7", "lat": 38.99946166666667, "fusion_lon": 0.0, "fusion_lat": 0.0, "type": "electric_bike", "name": "eae1b3388eef28859249a6bc9153d3b7", "is_disabled": 0, "rental_uris": {"ios": "https://dc.lft.to/lastmile_qr_scan", "android": "https://dc.lft.to/lastmile_qr_scan"}, "is_reserved": 0}, {"lon": -77.05217583333334, "bike_id": "afde898b054a98dda22fc9c7d8cb1e78", "lat": 38.924797, "fusion_lon": 0.0, "fusion_lat": 0.0, "type": "electric_scooter", "name": "afde898b054a98dda22fc9c7d8cb1e78", "is_disabled": 0, "rental_uris": {"ios": "https://dc.lft.to/lastmile_qr_scan", "android": "https://dc.lft.to/lastmile_qr_scan"}, "is_reserved": 0}, {"lon": -77.02169516666666, "bike_id": "bf493f2c3e83a6809167544ca7db0b47", "lat": 38.92617583333333, "fusion_lon": 0.0, "fusion_lat": 0.0, "type": "electric_scooter", "name": "bf493f2c3e83a6809167544ca7db0b47", "is_disabled": 0, "rental_uris": {"ios": "https://dc.lft.to/lastmile_qr_scan", "android": "https://dc.lft.to/lastmile_qr_scan"}, "is_reserved": 0}, {"lon": -76.94927816666667, "bike_id": "410e7f16bf097184a097e765b90356d3", "lat": 38.89353083333334, "fusion_lon": 0.0, "fusion_lat": 0.0, "type": "electric_scooter", "name": "410e7f16bf097184a097e765b90356d3", "is_disabled": 0, "rental_uris": {"ios": "https://dc.lft.to/lastmile_qr_scan", "android": "https://dc.lft.to/lastmile_qr_scan"}, "is_reserved": 0}, {"lon": -76.98943933333334, "bike_id": "aa5e65c84789ef386d4e1c61fa93322a", "lat": 38.903935, "fusion_lon": 0.0, "fusion_lat": 0.0, "type": "electric_scooter", "name": "aa5e65c84789ef386d4e1c61fa93322a", "is_disabled": 0, "rental_uris": {"ios": "https://dc.lft.to/lastmile_qr_scan", "android": "https://dc.lft.to/lastmile_qr_scan"}, "is_reserved": 0}, {"lon": -77.041422, "bike_id": "16f2048fa9557375c60d789ada2bc917", "lat": 38.9264815, "fusion_lon": 0.0, "fusion_lat": 0.0, "type": "electric_scooter", "name": "16f2048fa9557375c60d789ada2bc917", "is_disabled": 0, "rental_uris": {"ios": "https://dc.lft.to/lastmile_qr_scan", "android": "https://dc.lft.to/lastmile_qr_scan"}, "is_reserved": 0}, {"lon": -77.05807016666667, "bike_id": "f8d2b48b0edbbaf5064f62f57e722ddc", "lat": 38.823903, "fusion_lon": 0.0, "fusion_lat": 0.0, "type": "electric_bike", "name": "f8d2b48b0edbbaf5064f62f57e722ddc", "is_disabled": 0, "rental_uris": {"ios": "https://dc.lft.to/lastmile_qr_scan", "android": "https://dc.lft.to/lastmile_qr_scan"}, "is_reserved": 0}, {"lon": -77.06400083333334, "bike_id": "d8b159210c0a16eed0f4b9d31813bfb6", "lat": 38.907751833333336, "fusion_lon": 0.0, "fusion_lat": 0.0, "type": "electric_scooter", "name": "d8b159210c0a16eed0f4b9d31813bfb6", "is_disabled": 0, "rental_uris": {"ios": "https://dc.lft.to/lastmile_qr_scan", "android": "https://dc.lft.to/lastmile_qr_scan"}, "is_reserved": 0}, {"lon": -77.0333265, "bike_id": "60e712f59794704d489dc6d873aa90ec", "lat": 38.90964983333333, "fusion_lon": 0.0, "fusion_lat": 0.0, "type": "electric_scooter", "name": "60e712f59794704d489dc6d873aa90ec", "is_disabled": 0, "rental_uris": {"ios": "https://dc.lft.to/lastmile_qr_scan", "android": "https://dc.lft.to/lastmile_qr_scan"}, "is_reserved": 0}, {"lon": -77.04134633333334, "bike_id": "727096d24df71e8cdeb19e78ff36f9ed", "lat": 38.923684333333334, "fusion_lon": 0.0, "fusion_lat": 0.0, "type": "electric_scooter", "name": "727096d24df71e8cdeb19e78ff36f9ed", "is_disabled": 0, "rental_uris": {"ios": "https://dc.lft.to/lastmile_qr_scan", "android": "https://dc.lft.to/lastmile_qr_scan"}, "is_reserved": 0}, {"lon": -77.01756083333333, "bike_id": "0e252b48c1218c39387a754db716c114", "lat": 38.9024695, "fusion_lon": 0.0, "fusion_lat": 0.0, "type": "electric_scooter", "name": "0e252b48c1218c39387a754db716c114", "is_disabled": 0, "rental_uris": {"ios": "https://dc.lft.to/lastmile_qr_scan", "android": "https://dc.lft.to/lastmile_qr_scan"}, "is_reserved": 0}, {"lon": -77.02577266666667, "bike_id": "454c9d4ebc706402f25f2e9ec6627921", "lat": 38.931876833333334, "fusion_lon": 0.0, "fusion_lat": 0.0, "type": "electric_scooter", "name": "454c9d4ebc706402f25f2e9ec6627921", "is_disabled": 0, "rental_uris": {"ios": "https://dc.lft.to/lastmile_qr_scan", "android": "https://dc.lft.to/lastmile_qr_scan"}, "is_reserved": 0}, {"lon": -77.03181916666666, "bike_id": "f305d4dcbc79f37992d5c11239ff7c40", "lat": 38.93047133333334, "fusion_lon": 0.0, "fusion_lat": 0.0, "type": "electric_scooter", "name": "f305d4dcbc79f37992d5c11239ff7c40", "is_disabled": 0, "rental_uris": {"ios": "https://dc.lft.to/lastmile_qr_scan", "android": "https://dc.lft.to/lastmile_qr_scan"}, "is_reserved": 0}, {"lon": -77.00357683333333, "bike_id": "74387fdccfee9d6506cd2bdc41b8efa7", "lat": 38.8965655, "fusion_lon": 0.0, "fusion_lat": 0.0, "type": "electric_scooter", "name": "74387fdccfee9d6506cd2bdc41b8efa7", "is_disabled": 0, "rental_uris": {"ios": "https://dc.lft.to/lastmile_qr_scan", "android": "https://dc.lft.to/lastmile_qr_scan"}, "is_reserved": 0}, {"lon": -77.0217945, "bike_id": "8f445170e0ec3fc4937252cc0fa017ab", "lat": 38.91534333333333, "fusion_lon": 0.0, "fusion_lat": 0.0, "type": "electric_scooter", "name": "8f445170e0ec3fc4937252cc0fa017ab", "is_disabled": 0, "rental_uris": {"ios": "https://dc.lft.to/lastmile_qr_scan", "android": "https://dc.lft.to/lastmile_qr_scan"}, "is_reserved": 0}, {"lon": -77.02583316666667, "bike_id": "d69596f30d714708a3c651c8f7822dd0", "lat": 38.920328, "fusion_lon": 0.0, "fusion_lat": 0.0, "type": "electric_scooter", "name": "d69596f30d714708a3c651c8f7822dd0", "is_disabled": 0, "rental_uris": {"ios": "https://dc.lft.to/lastmile_qr_scan", "android": "https://dc.lft.to/lastmile_qr_scan"}, "is_reserved": 0}, {"lon": -77.02137133333333, "bike_id": "09e38d9119cdc675a8324482027e58b0", "lat": 38.89711783333333, "fusion_lon": 0.0, "fusion_lat": 0.0, "type": "electric_scooter", "name": "09e38d9119cdc675a8324482027e58b0", "is_disabled": 0, "rental_uris": {"ios": "https://dc.lft.to/lastmile_qr_scan", "android": "https://dc.lft.to/lastmile_qr_scan"}, "is_reserved": 0}, {"lon": -77.02732133333333, "bike_id": "ee3ee4681864ce325d610acbfa9a05f2", "lat": 38.93208833333333, "fusion_lon": 0.0, "fusion_lat": 0.0, "type": "electric_scooter", "name": "ee3ee4681864ce325d610acbfa9a05f2", "is_disabled": 0, "rental_uris": {"ios": "https://dc.lft.to/lastmile_qr_scan", "android": "https://dc.lft.to/lastmile_qr_scan"}, "is_reserved": 0}, {"lon": -77.02370883333333, "bike_id": "a48ed5701a1964929e21e6720c11a2b3", "lat": 38.917808, "fusion_lon": 0.0, "fusion_lat": 0.0, "type": "electric_scooter", "name": "a48ed5701a1964929e21e6720c11a2b3", "is_disabled": 0, "rental_uris": {"ios": "https://dc.lft.to/lastmile_qr_scan", "android": "https://dc.lft.to/lastmile_qr_scan"}, "is_reserved": 0}, {"lon": -77.01970116666666, "bike_id": "933e31e687e6fb3fc7dfe7f029168949", "lat": 38.883723833333335, "fusion_lon": 0.0, "fusion_lat": 0.0, "type": "electric_scooter", "name": "933e31e687e6fb3fc7dfe7f029168949", "is_disabled": 0, "rental_uris": {"ios": "https://dc.lft.to/lastmile_qr_scan", "android": "https://dc.lft.to/lastmile_qr_scan"}, "is_reserved": 0}, {"lon": -77.02161433333333, "bike_id": "dd79aebe8a5b27df811e27080f16c5df", "lat": 38.926856666666666, "fusion_lon": 0.0, "fusion_lat": 0.0, "type": "electric_scooter", "name": "dd79aebe8a5b27df811e27080f16c5df", "is_disabled": 0, "rental_uris": {"ios": "https://dc.lft.to/lastmile_qr_scan", "android": "https://dc.lft.to/lastmile_qr_scan"}, "is_reserved": 0}, {"lon": -77.031872, "bike_id": "43d2e1122b05b432d6f3f3e9045eec23", "lat": 38.892206333333334, "fusion_lon": 0.0, "fusion_lat": 0.0, "type": "electric_scooter", "name": "43d2e1122b05b432d6f3f3e9045eec23", "is_disabled": 0, "rental_uris": {"ios": "https://dc.lft.to/lastmile_qr_scan", "android": "https://dc.lft.to/lastmile_qr_scan"}, "is_reserved": 0}, {"lon": -77.03230566666667, "bike_id": "0b4b6d8da05396b528eab9fcf81054f6", "lat": 38.9096425, "fusion_lon": 0.0, "fusion_lat": 0.0, "type": "electric_scooter", "name": "0b4b6d8da05396b528eab9fcf81054f6", "is_disabled": 0, "rental_uris": {"ios": "https://dc.lft.to/lastmile_qr_scan", "android": "https://dc.lft.to/lastmile_qr_scan"}, "is_reserved": 0}, {"lon": -77.02714333333333, "bike_id": "5c0484b984f3fdb5c61a0d01913a173f", "lat": 38.916757, "fusion_lon": 0.0, "fusion_lat": 0.0, "type": "electric_scooter", "name": "5c0484b984f3fdb5c61a0d01913a173f", "is_disabled": 0, "rental_uris": {"ios": "https://dc.lft.to/lastmile_qr_scan", "android": "https://dc.lft.to/lastmile_qr_scan"}, "is_reserved": 0}, {"lon": -76.93377533333333, "bike_id": "6fdc9fa32a9369c2bab76a1e2b4a94ba", "lat": 38.91030716666667, "fusion_lon": 0.0, "fusion_lat": 0.0, "type": "electric_scooter", "name": "6fdc9fa32a9369c2bab76a1e2b4a94ba", "is_disabled": 0, "rental_uris": {"ios": "https://dc.lft.to/lastmile_qr_scan", "android": "https://dc.lft.to/lastmile_qr_scan"}, "is_reserved": 0}, {"lon": -77.00189083333333, "bike_id": "b90576875c51b157d9388ec66ce61de3", "lat": 38.9002975, "fusion_lon": 0.0, "fusion_lat": 0.0, "type": "electric_scooter", "name": "b90576875c51b157d9388ec66ce61de3", "is_disabled": 0, "rental_uris": {"ios": "https://dc.lft.to/lastmile_qr_scan", "android": "https://dc.lft.to/lastmile_qr_scan"}, "is_reserved": 0}, {"lon": -77.02679833333333, "bike_id": "1214067063373b4e5bc80dfb80e58129", "lat": 38.94326233333334, "fusion_lon": 0.0, "fusion_lat": 0.0, "type": "electric_scooter", "name": "1214067063373b4e5bc80dfb80e58129", "is_disabled": 0, "rental_uris": {"ios": "https://dc.lft.to/lastmile_qr_scan", "android": "https://dc.lft.to/lastmile_qr_scan"}, "is_reserved": 0}, {"lon": -77.031864, "bike_id": "baaaf29e908a8ded92cbbb32bd17962e", "lat": 38.892268333333334, "fusion_lon": 0.0, "fusion_lat": 0.0, "type": "electric_scooter", "name": "baaaf29e908a8ded92cbbb32bd17962e", "is_disabled": 0, "rental_uris": {"ios": "https://dc.lft.to/lastmile_qr_scan", "android": "https://dc.lft.to/lastmile_qr_scan"}, "is_reserved": 0}, {"lon": -76.98193283333333, "bike_id": "458ea8bd26243a8a63820cb5a19518b3", "lat": 38.926096333333334, "fusion_lon": 0.0, "fusion_lat": 0.0, "type": "electric_scooter", "name": "458ea8bd26243a8a63820cb5a19518b3", "is_disabled": 0, "rental_uris": {"ios": "https://dc.lft.to/lastmile_qr_scan", "android": "https://dc.lft.to/lastmile_qr_scan"}, "is_reserved": 0}, {"lon": -76.98550766666666, "bike_id": "704d6ab8adcd1aba2fe147a0471e8385", "lat": 38.899520833333334, "fusion_lon": 0.0, "fusion_lat": 0.0, "type": "electric_scooter", "name": "704d6ab8adcd1aba2fe147a0471e8385", "is_disabled": 0, "rental_uris": {"ios": "https://dc.lft.to/lastmile_qr_scan", "android": "https://dc.lft.to/lastmile_qr_scan"}, "is_reserved": 0}, {"lon": -77.04156266666666, "bike_id": "411d42e9c18aa7a1df17cfe5b3bd51fa", "lat": 38.90548, "fusion_lon": 0.0, "fusion_lat": 0.0, "type": "electric_scooter", "name": "411d42e9c18aa7a1df17cfe5b3bd51fa", "is_disabled": 0, "rental_uris": {"ios": "https://dc.lft.to/lastmile_qr_scan", "android": "https://dc.lft.to/lastmile_qr_scan"}, "is_reserved": 0}, {"lon": -76.93354, "bike_id": "f272279275961c4a733f5c7e8fa09e89", "lat": 38.899094, "fusion_lon": 0.0, "fusion_lat": 0.0, "type": "electric_scooter", "name": "f272279275961c4a733f5c7e8fa09e89", "is_disabled": 0, "rental_uris": {"ios": "https://dc.lft.to/lastmile_qr_scan", "android": "https://dc.lft.to/lastmile_qr_scan"}, "is_reserved": 0}, {"lon": -77.03467833333333, "bike_id": "60aeb693b880dfee7b4de66b0a77a7b6", "lat": 38.92060883333333, "fusion_lon": 0.0, "fusion_lat": 0.0, "type": "electric_scooter", "name": "60aeb693b880dfee7b4de66b0a77a7b6", "is_disabled": 0, "rental_uris": {"ios": "https://dc.lft.to/lastmile_qr_scan", "android": "https://dc.lft.to/lastmile_qr_scan"}, "is_reserved": 0}, {"lon": -77.1266885, "bike_id": "0c7be3578e46cb3c7ba883070f99ed61", "lat": 38.815049, "fusion_lon": 0.0, "fusion_lat": 0.0, "type": "electric_bike", "name": "0c7be3578e46cb3c7ba883070f99ed61", "is_disabled": 0, "rental_uris": {"ios": "https://dc.lft.to/lastmile_qr_scan", "android": "https://dc.lft.to/lastmile_qr_scan"}, "is_reserved": 0}, {"lon": -76.9910765, "bike_id": "bb72f9e8d102785b4050a8a0d167f5b7", "lat": 38.90322416666667, "fusion_lon": 0.0, "fusion_lat": 0.0, "type": "electric_scooter", "name": "bb72f9e8d102785b4050a8a0d167f5b7", "is_disabled": 0, "rental_uris": {"ios": "https://dc.lft.to/lastmile_qr_scan", "android": "https://dc.lft.to/lastmile_qr_scan"}, "is_reserved": 0}, {"lon": -77.00455033333333, "bike_id": "91ae4f14cbc59e4f2d6850ceaa204cfc", "lat": 38.876532833333336, "fusion_lon": 0.0, "fusion_lat": 0.0, "type": "electric_scooter", "name": "91ae4f14cbc59e4f2d6850ceaa204cfc", "is_disabled": 0, "rental_uris": {"ios": "https://dc.lft.to/lastmile_qr_scan", "android": "https://dc.lft.to/lastmile_qr_scan"}, "is_reserved": 0}, {"lon": -77.04646, "bike_id": "1cc3c41d54cb74c06c514844cb333256", "lat": 38.915911, "fusion_lon": 0.0, "fusion_lat": 0.0, "type": "electric_scooter", "name": "1cc3c41d54cb74c06c514844cb333256", "is_disabled": 0, "rental_uris": {"ios": "https://dc.lft.to/lastmile_qr_scan", "android": "https://dc.lft.to/lastmile_qr_scan"}, "is_reserved": 0}, {"lon": -77.03059783333333, "bike_id": "a7323e08311cb5d756a07229ca460d34", "lat": 38.922464166666664, "fusion_lon": 0.0, "fusion_lat": 0.0, "type": "electric_scooter", "name": "a7323e08311cb5d756a07229ca460d34", "is_disabled": 0, "rental_uris": {"ios": "https://dc.lft.to/lastmile_qr_scan", "android": "https://dc.lft.to/lastmile_qr_scan"}, "is_reserved": 0}, {"lon": -77.02923866666667, "bike_id": "934251b46fd93bd929790c62c5093e7d", "lat": 38.934586, "fusion_lon": 0.0, "fusion_lat": 0.0, "type": "electric_scooter", "name": "934251b46fd93bd929790c62c5093e7d", "is_disabled": 0, "rental_uris": {"ios": "https://dc.lft.to/lastmile_qr_scan", "android": "https://dc.lft.to/lastmile_qr_scan"}, "is_reserved": 0}, {"lon": -77.02960716666666, "bike_id": "5aa59bfc6c19e3d5396209a57b71ed01", "lat": 38.9167195, "fusion_lon": 0.0, "fusion_lat": 0.0, "type": "electric_scooter", "name": "5aa59bfc6c19e3d5396209a57b71ed01", "is_disabled": 0, "rental_uris": {"ios": "https://dc.lft.to/lastmile_qr_scan", "android": "https://dc.lft.to/lastmile_qr_scan"}, "is_reserved": 0}, {"lon": -77.039447, "bike_id": "b28956ad7ff017109ede1090f93c5d15", "lat": 38.898995, "fusion_lon": 0.0, "fusion_lat": 0.0, "type": "electric_scooter", "name": "b28956ad7ff017109ede1090f93c5d15", "is_disabled": 0, "rental_uris": {"ios": "https://dc.lft.to/lastmile_qr_scan", "android": "https://dc.lft.to/lastmile_qr_scan"}, "is_reserved": 0}, {"lon": -77.0310925, "bike_id": "4ef342c535d6194daeb39836ff5e6d6d", "lat": 38.9156595, "fusion_lon": 0.0, "fusion_lat": 0.0, "type": "electric_scooter", "name": "4ef342c535d6194daeb39836ff5e6d6d", "is_disabled": 0, "rental_uris": {"ios": "https://dc.lft.to/lastmile_qr_scan", "android": "https://dc.lft.to/lastmile_qr_scan"}, "is_reserved": 0}, {"lon": -77.02894166666667, "bike_id": "020e6b49d70f6507b6b52a290b7aae88", "lat": 38.916838, "fusion_lon": 0.0, "fusion_lat": 0.0, "type": "electric_scooter", "name": "020e6b49d70f6507b6b52a290b7aae88", "is_disabled": 0, "rental_uris": {"ios": "https://dc.lft.to/lastmile_qr_scan", "android": "https://dc.lft.to/lastmile_qr_scan"}, "is_reserved": 0}, {"lon": -77.0271075, "bike_id": "3ceef27fe38561e41f6226fe6c2f2351", "lat": 38.9066185, "fusion_lon": 0.0, "fusion_lat": 0.0, "type": "electric_scooter", "name": "3ceef27fe38561e41f6226fe6c2f2351", "is_disabled": 0, "rental_uris": {"ios": "https://dc.lft.to/lastmile_qr_scan", "android": "https://dc.lft.to/lastmile_qr_scan"}, "is_reserved": 0}, {"lon": -77.02155766666667, "bike_id": "7f0fdc26836ef32706c21cc48a94c470", "lat": 38.926012166666666, "fusion_lon": 0.0, "fusion_lat": 0.0, "type": "electric_scooter", "name": "7f0fdc26836ef32706c21cc48a94c470", "is_disabled": 0, "rental_uris": {"ios": "https://dc.lft.to/lastmile_qr_scan", "android": "https://dc.lft.to/lastmile_qr_scan"}, "is_reserved": 0}, {"lon": -77.03832183333333, "bike_id": "abebc95052f472c308edbc4437aefa54", "lat": 38.906736, "fusion_lon": 0.0, "fusion_lat": 0.0, "type": "electric_scooter", "name": "abebc95052f472c308edbc4437aefa54", "is_disabled": 0, "rental_uris": {"ios": "https://dc.lft.to/lastmile_qr_scan", "android": "https://dc.lft.to/lastmile_qr_scan"}, "is_reserved": 0}, {"lon": -76.987841, "bike_id": "a0303cd84fb59db72702b1fdd603e42b", "lat": 38.8674045, "fusion_lon": 0.0, "fusion_lat": 0.0, "type": "electric_scooter", "name": "a0303cd84fb59db72702b1fdd603e42b", "is_disabled": 0, "rental_uris": {"ios": "https://dc.lft.to/lastmile_qr_scan", "android": "https://dc.lft.to/lastmile_qr_scan"}, "is_reserved": 0}, {"lon": -77.00985633333333, "bike_id": "be83d8c1df883249ce7bd35d4cb4af18", "lat": 38.87299433333333, "fusion_lon": 0.0, "fusion_lat": 0.0, "type": "electric_scooter", "name": "be83d8c1df883249ce7bd35d4cb4af18", "is_disabled": 0, "rental_uris": {"ios": "https://dc.lft.to/lastmile_qr_scan", "android": "https://dc.lft.to/lastmile_qr_scan"}, "is_reserved": 0}, {"lon": -77.07112983333333, "bike_id": "3ea8df8927814fe05488b39005aec215", "lat": 38.91980083333333, "fusion_lon": 0.0, "fusion_lat": 0.0, "type": "electric_scooter", "name": "3ea8df8927814fe05488b39005aec215", "is_disabled": 0, "rental_uris": {"ios": "https://dc.lft.to/lastmile_qr_scan", "android": "https://dc.lft.to/lastmile_qr_scan"}, "is_reserved": 0}, {"lon": -76.99501916666667, "bike_id": "9e56edf643dff87f0c8bc00d585fca46", "lat": 38.9324615, "fusion_lon": 0.0, "fusion_lat": 0.0, "type": "electric_scooter", "name": "9e56edf643dff87f0c8bc00d585fca46", "is_disabled": 0, "rental_uris": {"ios": "https://dc.lft.to/lastmile_qr_scan", "android": "https://dc.lft.to/lastmile_qr_scan"}, "is_reserved": 0}, {"lon": -76.97666466666666, "bike_id": "3cb002a5446b546709a6ed930335cd2a", "lat": 38.9524625, "fusion_lon": 0.0, "fusion_lat": 0.0, "type": "electric_bike", "name": "3cb002a5446b546709a6ed930335cd2a", "is_disabled": 0, "rental_uris": {"ios": "https://dc.lft.to/lastmile_qr_scan", "android": "https://dc.lft.to/lastmile_qr_scan"}, "is_reserved": 0}, {"lon": -77.02836283333333, "bike_id": "ad0e58e5270ada3a2ddbf2ade98c6c91", "lat": 38.932782833333334, "fusion_lon": 0.0, "fusion_lat": 0.0, "type": "electric_scooter", "name": "ad0e58e5270ada3a2ddbf2ade98c6c91", "is_disabled": 0, "rental_uris": {"ios": "https://dc.lft.to/lastmile_qr_scan", "android": "https://dc.lft.to/lastmile_qr_scan"}, "is_reserved": 0}, {"lon": -77.02338616666667, "bike_id": "68725f00506a8e1869f8e9ba162f8bc4", "lat": 38.93535516666667, "fusion_lon": 0.0, "fusion_lat": 0.0, "type": "electric_scooter", "name": "68725f00506a8e1869f8e9ba162f8bc4", "is_disabled": 0, "rental_uris": {"ios": "https://dc.lft.to/lastmile_qr_scan", "android": "https://dc.lft.to/lastmile_qr_scan"}, "is_reserved": 0}, {"lon": -77.18564166666667, "bike_id": "91c4d78f8c9b725bfe0ea677c857ab1f", "lat": 39.099768, "fusion_lon": 0.0, "fusion_lat": 0.0, "type": "electric_bike", "name": "91c4d78f8c9b725bfe0ea677c857ab1f", "is_disabled": 0, "rental_uris": {"ios": "https://dc.lft.to/lastmile_qr_scan", "android": "https://dc.lft.to/lastmile_qr_scan"}, "is_reserved": 0}, {"lon": -76.98354283333333, "bike_id": "a1f05413f4fc354c58c15c37b651e6df", "lat": 38.892094166666666, "fusion_lon": 0.0, "fusion_lat": 0.0, "type": "electric_bike", "name": "a1f05413f4fc354c58c15c37b651e6df", "is_disabled": 0, "rental_uris": {"ios": "https://dc.lft.to/lastmile_qr_scan", "android": "https://dc.lft.to/lastmile_qr_scan"}, "is_reserved": 0}, {"lon": -77.02200133333334, "bike_id": "1c9e2639d51c0976f902568d30aa6593", "lat": 38.91122266666667, "fusion_lon": 0.0, "fusion_lat": 0.0, "type": "electric_scooter", "name": "1c9e2639d51c0976f902568d30aa6593", "is_disabled": 0, "rental_uris": {"ios": "https://dc.lft.to/lastmile_qr_scan", "android": "https://dc.lft.to/lastmile_qr_scan"}, "is_reserved": 0}, {"lon": -77.00713616666667, "bike_id": "a6fb8a1f02e31463d782a64e166e15a1", "lat": 38.946065833333336, "fusion_lon": 0.0, "fusion_lat": 0.0, "type": "electric_bike", "name": "a6fb8a1f02e31463d782a64e166e15a1", "is_disabled": 0, "rental_uris": {"ios": "https://dc.lft.to/lastmile_qr_scan", "android": "https://dc.lft.to/lastmile_qr_scan"}, "is_reserved": 0}, {"lon": -77.0317565, "bike_id": "feae0f103c501fca48dd8c44c399d901", "lat": 38.93605066666667, "fusion_lon": 0.0, "fusion_lat": 0.0, "type": "electric_scooter", "name": "feae0f103c501fca48dd8c44c399d901", "is_disabled": 0, "rental_uris": {"ios": "https://dc.lft.to/lastmile_qr_scan", "android": "https://dc.lft.to/lastmile_qr_scan"}, "is_reserved": 0}, {"lon": -77.0340085, "bike_id": "26b495248804b12ad7ce8c2e82a74aad", "lat": 38.9205515, "fusion_lon": 0.0, "fusion_lat": 0.0, "type": "electric_scooter", "name": "26b495248804b12ad7ce8c2e82a74aad", "is_disabled": 0, "rental_uris": {"ios": "https://dc.lft.to/lastmile_qr_scan", "android": "https://dc.lft.to/lastmile_qr_scan"}, "is_reserved": 0}, {"lon": -77.04130216666667, "bike_id": "251c8152f561abfa2b940c91a527ba01", "lat": 38.9272085, "fusion_lon": 0.0, "fusion_lat": 0.0, "type": "electric_scooter", "name": "251c8152f561abfa2b940c91a527ba01", "is_disabled": 0, "rental_uris": {"ios": "https://dc.lft.to/lastmile_qr_scan", "android": "https://dc.lft.to/lastmile_qr_scan"}, "is_reserved": 0}, {"lon": -77.045645, "bike_id": "8304f69d53a6d42e8094b7f3068970e4", "lat": 38.916048833333335, "fusion_lon": 0.0, "fusion_lat": 0.0, "type": "electric_scooter", "name": "8304f69d53a6d42e8094b7f3068970e4", "is_disabled": 0, "rental_uris": {"ios": "https://dc.lft.to/lastmile_qr_scan", "android": "https://dc.lft.to/lastmile_qr_scan"}, "is_reserved": 0}, {"lon": -76.99004633333334, "bike_id": "8c66f49416c443a5bb5a44b73e1bc2d2", "lat": 38.903912, "fusion_lon": 0.0, "fusion_lat": 0.0, "type": "electric_scooter", "name": "8c66f49416c443a5bb5a44b73e1bc2d2", "is_disabled": 0, "rental_uris": {"ios": "https://dc.lft.to/lastmile_qr_scan", "android": "https://dc.lft.to/lastmile_qr_scan"}, "is_reserved": 0}, {"lon": -77.00662316666667, "bike_id": "091eed714e3033314495f64a50c4a952", "lat": 38.94463183333333, "fusion_lon": 0.0, "fusion_lat": 0.0, "type": "electric_scooter", "name": "091eed714e3033314495f64a50c4a952", "is_disabled": 0, "rental_uris": {"ios": "https://dc.lft.to/lastmile_qr_scan", "android": "https://dc.lft.to/lastmile_qr_scan"}, "is_reserved": 0}, {"lon": -76.97743266666667, "bike_id": "5a0b7d4bebcfb44e00f8f47a4ff627b8", "lat": 38.864844166666664, "fusion_lon": 0.0, "fusion_lat": 0.0, "type": "electric_bike", "name": "5a0b7d4bebcfb44e00f8f47a4ff627b8", "is_disabled": 0, "rental_uris": {"ios": "https://dc.lft.to/lastmile_qr_scan", "android": "https://dc.lft.to/lastmile_qr_scan"}, "is_reserved": 0}, {"lon": -77.0478445, "bike_id": "cd2fa7e7f577c09f62a0ac81de29acff", "lat": 38.829518, "fusion_lon": 0.0, "fusion_lat": 0.0, "type": "electric_bike", "name": "cd2fa7e7f577c09f62a0ac81de29acff", "is_disabled": 0, "rental_uris": {"ios": "https://dc.lft.to/lastmile_qr_scan", "android": "https://dc.lft.to/lastmile_qr_scan"}, "is_reserved": 0}, {"lon": -77.02402833333333, "bike_id": "9ed46f0e783fb05dc9e9f98f5d9c2ea6", "lat": 38.891894, "fusion_lon": 0.0, "fusion_lat": 0.0, "type": "electric_scooter", "name": "9ed46f0e783fb05dc9e9f98f5d9c2ea6", "is_disabled": 0, "rental_uris": {"ios": "https://dc.lft.to/lastmile_qr_scan", "android": "https://dc.lft.to/lastmile_qr_scan"}, "is_reserved": 0}, {"lon": -77.04312116666667, "bike_id": "27a8980fc9bc0651cf83f3b2c5ca682a", "lat": 38.906985166666665, "fusion_lon": 0.0, "fusion_lat": 0.0, "type": "electric_scooter", "name": "27a8980fc9bc0651cf83f3b2c5ca682a", "is_disabled": 0, "rental_uris": {"ios": "https://dc.lft.to/lastmile_qr_scan", "android": "https://dc.lft.to/lastmile_qr_scan"}, "is_reserved": 0}, {"lon": -77.02725083333333, "bike_id": "8336284e6dc17f493c12957d199718b4", "lat": 38.951318666666666, "fusion_lon": 0.0, "fusion_lat": 0.0, "type": "electric_scooter", "name": "8336284e6dc17f493c12957d199718b4", "is_disabled": 0, "rental_uris": {"ios": "https://dc.lft.to/lastmile_qr_scan", "android": "https://dc.lft.to/lastmile_qr_scan"}, "is_reserved": 0}, {"lon": -76.98595716666667, "bike_id": "e0703cf053a9dbe62e333344fbeeaa4e", "lat": 38.866838666666666, "fusion_lon": 0.0, "fusion_lat": 0.0, "type": "electric_scooter", "name": "e0703cf053a9dbe62e333344fbeeaa4e", "is_disabled": 0, "rental_uris": {"ios": "https://dc.lft.to/lastmile_qr_scan", "android": "https://dc.lft.to/lastmile_qr_scan"}, "is_reserved": 0}, {"lon": -77.0338265, "bike_id": "283de3207261fe1a49c942aabeaefe86", "lat": 38.921537, "fusion_lon": 0.0, "fusion_lat": 0.0, "type": "electric_scooter", "name": "283de3207261fe1a49c942aabeaefe86", "is_disabled": 0, "rental_uris": {"ios": "https://dc.lft.to/lastmile_qr_scan", "android": "https://dc.lft.to/lastmile_qr_scan"}, "is_reserved": 0}, {"lon": -77.115759, "bike_id": "775e2cee498bda60d659991e7ae63599", "lat": 38.993418166666665, "fusion_lon": 0.0, "fusion_lat": 0.0, "type": "electric_bike", "name": "775e2cee498bda60d659991e7ae63599", "is_disabled": 0, "rental_uris": {"ios": "https://dc.lft.to/lastmile_qr_scan", "android": "https://dc.lft.to/lastmile_qr_scan"}, "is_reserved": 0}, {"lon": -77.03724216666667, "bike_id": "662c0b82731c19de9e84da1e318863dc", "lat": 38.92648716666667, "fusion_lon": 0.0, "fusion_lat": 0.0, "type": "electric_scooter", "name": "662c0b82731c19de9e84da1e318863dc", "is_disabled": 0, "rental_uris": {"ios": "https://dc.lft.to/lastmile_qr_scan", "android": "https://dc.lft.to/lastmile_qr_scan"}, "is_reserved": 0}, {"lon": -77.009536, "bike_id": "87b87aaed139b2f0e5f63c91a8f0dbfe", "lat": 38.95338616666667, "fusion_lon": 0.0, "fusion_lat": 0.0, "type": "electric_bike", "name": "87b87aaed139b2f0e5f63c91a8f0dbfe", "is_disabled": 0, "rental_uris": {"ios": "https://dc.lft.to/lastmile_qr_scan", "android": "https://dc.lft.to/lastmile_qr_scan"}, "is_reserved": 0}, {"lon": -76.985258, "bike_id": "b81ea884d277c889fcd8d571240555e2", "lat": 38.866846333333335, "fusion_lon": 0.0, "fusion_lat": 0.0, "type": "electric_scooter", "name": "b81ea884d277c889fcd8d571240555e2", "is_disabled": 0, "rental_uris": {"ios": "https://dc.lft.to/lastmile_qr_scan", "android": "https://dc.lft.to/lastmile_qr_scan"}, "is_reserved": 0}, {"lon": -77.02981933333334, "bike_id": "1f8145ea647f5e7b695bebd09d403606", "lat": 38.923076, "fusion_lon": 0.0, "fusion_lat": 0.0, "type": "electric_scooter", "name": "1f8145ea647f5e7b695bebd09d403606", "is_disabled": 0, "rental_uris": {"ios": "https://dc.lft.to/lastmile_qr_scan", "android": "https://dc.lft.to/lastmile_qr_scan"}, "is_reserved": 0}, {"lon": -77.073924, "bike_id": "b9f96fae96e056e60fb53543a144962c", "lat": 38.962126166666664, "fusion_lon": 0.0, "fusion_lat": 0.0, "type": "electric_scooter", "name": "b9f96fae96e056e60fb53543a144962c", "is_disabled": 0, "rental_uris": {"ios": "https://dc.lft.to/lastmile_qr_scan", "android": "https://dc.lft.to/lastmile_qr_scan"}, "is_reserved": 0}, {"lon": -77.02561383333334, "bike_id": "8180b242b5c2fbbd19736f1253afd35d", "lat": 38.909647666666665, "fusion_lon": 0.0, "fusion_lat": 0.0, "type": "electric_scooter", "name": "8180b242b5c2fbbd19736f1253afd35d", "is_disabled": 0, "rental_uris": {"ios": "https://dc.lft.to/lastmile_qr_scan", "android": "https://dc.lft.to/lastmile_qr_scan"}, "is_reserved": 0}, {"lon": -77.04333733333333, "bike_id": "05681d1a22237ce5b69bf61e703059cb", "lat": 38.89222383333333, "fusion_lon": 0.0, "fusion_lat": 0.0, "type": "electric_scooter", "name": "05681d1a22237ce5b69bf61e703059cb", "is_disabled": 0, "rental_uris": {"ios": "https://dc.lft.to/lastmile_qr_scan", "android": "https://dc.lft.to/lastmile_qr_scan"}, "is_reserved": 0}, {"lon": -77.01969316666667, "bike_id": "9a6b34555f4b1a1c1efd036d001728a5", "lat": 38.883827833333335, "fusion_lon": 0.0, "fusion_lat": 0.0, "type": "electric_scooter", "name": "9a6b34555f4b1a1c1efd036d001728a5", "is_disabled": 0, "rental_uris": {"ios": "https://dc.lft.to/lastmile_qr_scan", "android": "https://dc.lft.to/lastmile_qr_scan"}, "is_reserved": 0}, {"lon": -77.03313216666666, "bike_id": "1b097e239d2360ea681f4e7fc0de5ccb", "lat": 38.89813266666667, "fusion_lon": 0.0, "fusion_lat": 0.0, "type": "electric_scooter", "name": "1b097e239d2360ea681f4e7fc0de5ccb", "is_disabled": 0, "rental_uris": {"ios": "https://dc.lft.to/lastmile_qr_scan", "android": "https://dc.lft.to/lastmile_qr_scan"}, "is_reserved": 0}, {"lon": -76.9900355, "bike_id": "9a72ad02d49c738520e2ec1eb741a69a", "lat": 38.865046166666666, "fusion_lon": 0.0, "fusion_lat": 0.0, "type": "electric_scooter", "name": "9a72ad02d49c738520e2ec1eb741a69a", "is_disabled": 0, "rental_uris": {"ios": "https://dc.lft.to/lastmile_qr_scan", "android": "https://dc.lft.to/lastmile_qr_scan"}, "is_reserved": 0}, {"lon": -76.99370066666667, "bike_id": "e4856ed739fa361a149cd5c7e1992381", "lat": 38.879692, "fusion_lon": 0.0, "fusion_lat": 0.0, "type": "electric_scooter", "name": "e4856ed739fa361a149cd5c7e1992381", "is_disabled": 0, "rental_uris": {"ios": "https://dc.lft.to/lastmile_qr_scan", "android": "https://dc.lft.to/lastmile_qr_scan"}, "is_reserved": 0}, {"lon": -77.03702066666666, "bike_id": "ed9efbd6a56455a3913f46f231b775a9", "lat": 38.9352875, "fusion_lon": 0.0, "fusion_lat": 0.0, "type": "electric_scooter", "name": "ed9efbd6a56455a3913f46f231b775a9", "is_disabled": 0, "rental_uris": {"ios": "https://dc.lft.to/lastmile_qr_scan", "android": "https://dc.lft.to/lastmile_qr_scan"}, "is_reserved": 0}, {"lon": -76.98903616666666, "bike_id": "ba6716533ccc78bd13f2a363306f45b3", "lat": 38.86666133333333, "fusion_lon": 0.0, "fusion_lat": 0.0, "type": "electric_scooter", "name": "ba6716533ccc78bd13f2a363306f45b3", "is_disabled": 0, "rental_uris": {"ios": "https://dc.lft.to/lastmile_qr_scan", "android": "https://dc.lft.to/lastmile_qr_scan"}, "is_reserved": 0}, {"lon": -77.03105, "bike_id": "07805fb626b8b205f6851b98a54bae8b", "lat": 38.923818833333335, "fusion_lon": 0.0, "fusion_lat": 0.0, "type": "electric_scooter", "name": "07805fb626b8b205f6851b98a54bae8b", "is_disabled": 0, "rental_uris": {"ios": "https://dc.lft.to/lastmile_qr_scan", "android": "https://dc.lft.to/lastmile_qr_scan"}, "is_reserved": 0}, {"lon": -76.998243, "bike_id": "0d40d8b8396727bab03324b21badc788", "lat": 38.900113, "fusion_lon": 0.0, "fusion_lat": 0.0, "type": "electric_scooter", "name": "0d40d8b8396727bab03324b21badc788", "is_disabled": 0, "rental_uris": {"ios": "https://dc.lft.to/lastmile_qr_scan", "android": "https://dc.lft.to/lastmile_qr_scan"}, "is_reserved": 0}, {"lon": -77.0272535, "bike_id": "ce4107392fc2e75a130445e37cf26a74", "lat": 38.897035333333335, "fusion_lon": 0.0, "fusion_lat": 0.0, "type": "electric_scooter", "name": "ce4107392fc2e75a130445e37cf26a74", "is_disabled": 0, "rental_uris": {"ios": "https://dc.lft.to/lastmile_qr_scan", "android": "https://dc.lft.to/lastmile_qr_scan"}, "is_reserved": 0}, {"lon": -77.02920316666666, "bike_id": "5a51cd7ca30b81fd598316ce1d72767b", "lat": 38.91691983333333, "fusion_lon": 0.0, "fusion_lat": 0.0, "type": "electric_bike", "name": "5a51cd7ca30b81fd598316ce1d72767b", "is_disabled": 0, "rental_uris": {"ios": "https://dc.lft.to/lastmile_qr_scan", "android": "https://dc.lft.to/lastmile_qr_scan"}, "is_reserved": 0}, {"lon": -77.02132433333334, "bike_id": "f91f0c738bda16d44cc522cf1d3dd12c", "lat": 38.89969383333333, "fusion_lon": 0.0, "fusion_lat": 0.0, "type": "electric_scooter", "name": "f91f0c738bda16d44cc522cf1d3dd12c", "is_disabled": 0, "rental_uris": {"ios": "https://dc.lft.to/lastmile_qr_scan", "android": "https://dc.lft.to/lastmile_qr_scan"}, "is_reserved": 0}, {"lon": -77.02203316666667, "bike_id": "86e222dc285d556999d6c0d2db874e19", "lat": 38.87893116666667, "fusion_lon": 0.0, "fusion_lat": 0.0, "type": "electric_scooter", "name": "86e222dc285d556999d6c0d2db874e19", "is_disabled": 0, "rental_uris": {"ios": "https://dc.lft.to/lastmile_qr_scan", "android": "https://dc.lft.to/lastmile_qr_scan"}, "is_reserved": 0},