{"data": {"bikes": [{"name": "4fd780e7466f6e5bc7cd427871bebb89", "type": "electric_scooter", "lat": 38.93715016666667, "is_reserved": 0, "lon": -77.0364755, "fusion_lon": 0.0, "is_disabled": 0, "fusion_lat": 0.0, "bike_id": "4fd780e7466f6e5bc7cd427871bebb89", "rental_uris": {"ios": "https://dc.lft.to/lastmile_qr_scan", "android": "https://dc.lft.to/lastmile_qr_scan"}}, {"name": "6c1fdd9f3bf9ed8bba79ed09dc8b0d08", "type": "electric_bike", "lat": 38.99091883333333, "is_reserved": 0, "lon": -76.8749675, "fusion_lon": 0.0, "is_disabled": 0, "fusion_lat": 0.0, "bike_id": "6c1fdd9f3bf9ed8bba79ed09dc8b0d08", "rental_uris": {"ios": "https://dc.lft.to/lastmile_qr_scan", "android": "https://dc.lft.to/lastmile_qr_scan"}}, {"name": "ddf9d9f549888734f544159cc3615434", "type": "electric_scooter", "lat": 38.9133715, "is_reserved": 0, "lon": -77.03051383333333, "fusion_lon": 0.0, "is_disabled": 0, "fusion_lat": 0.0, "bike_id": "ddf9d9f549888734f544159cc3615434", "rental_uris": {"ios": "https://dc.lft.to/lastmile_qr_scan", "android": "https://dc.lft.to/lastmile_qr_scan"}}, {"name": "3ca8ab53c55a2fbb3244b528ab6dd1d4", "type": "electric_scooter", "lat": 38.909766166666664, "is_reserved": 0, "lon": -77.04178266666666, "fusion_lon": 0.0, "is_disabled": 0, "fusion_lat": 0.0, "bike_id": "3ca8ab53c55a2fbb3244b528ab6dd1d4", "rental_uris": {"ios": "https://dc.lft.to/lastmile_qr_scan", "android": "https://dc.lft.to/lastmile_qr_scan"}}, {"name": "8bf59fc96f31057ca9cf746014995258", "type": "electric_bike", "lat": 38.905347666666664, "is_reserved": 0, "lon": -76.99806333333333, "fusion_lon": 0.0, "is_disabled": 0, "fusion_lat": 0.0, "bike_id": "8bf59fc96f31057ca9cf746014995258", "rental_uris": {"ios": "https://dc.lft.to/lastmile_qr_scan", "android": "https://dc.lft.to/lastmile_qr_scan"}}, {"name": "87cfecd3c8205da2fd2d1c5d7911d007", "type": "electric_scooter", "lat": 38.866993, "is_reserved": 0, "lon": -76.987092, "fusion_lon": 0.0, "is_disabled": 0, "fusion_lat": 0.0, "bike_id": "87cfecd3c8205da2fd2d1c5d7911d007", "rental_uris": {"ios": "https://dc.lft.to/lastmile_qr_scan", "android": "https://dc.lft.to/lastmile_qr_scan"}}, {"name": "9d60da141a3a8714d2998117cde85766", "type": "electric_scooter", "lat": 38.91616116666667, "is_reserved": 0, "lon": -77.0316525, "fusion_lon": 0.0, "is_disabled": 0, "fusion_lat": 0.0, "bike_id": "9d60da141a3a8714d2998117cde85766", "rental_uris": {"ios": "https://dc.lft.to/lastmile_qr_scan", "android": "https://dc.lft.to/lastmile_qr_scan"}}, {"name": "0aff5e79793f25191939f1fc6c177d82", "type": "electric_scooter", "lat": 38.9186785, "is_reserved": 0, "lon": -77.044283, "fusion_lon": 0.0, "is_disabled": 0, "fusion_lat": 0.0, "bike_id": "0aff5e79793f25191939f1fc6c177d82", "rental_uris": {"ios": "https://dc.lft.to/lastmile_qr_scan", "android": "https://dc.lft.to/lastmile_qr_scan"}}, {"name": "aad36af5dabc0ffb11748c695e29a565", "type": "electric_scooter", "lat": 38.898950666666664, "is_reserved": 0, "lon": -76.931758, "fusion_lon": 0.0, "is_disabled": 0, "fusion_lat": 0.0, "bike_id": "aad36af5dabc0ffb11748c695e29a565", "rental_uris": {"ios": "https://dc.lft.to/lastmile_qr_scan", "android": "https://dc.lft.to/lastmile_qr_scan"}}, {"name": "3a86e71dccdee626c265d5fd9d68be9d", "type": "electric_scooter", "lat": 38.922925166666666, "is_reserved": 0, "lon": -77.02072966666667, "fusion_lon": 0.0, "is_disabled": 0, "fusion_lat": 0.0, "bike_id": "3a86e71dccdee626c265d5fd9d68be9d", "rental_uris": {"ios": "https://dc.lft.to/lastmile_qr_scan", "android": "https://dc.lft.to/lastmile_qr_scan"}}, {"name": "93d5e3cdc945a9d0fc9de6fe9351d6fc", "type": "electric_scooter", "lat": 38.89669683333334, "is_reserved": 0, "lon": -77.0540385, "fusion_lon": 0.0, "is_disabled": 0, "fusion_lat": 0.0, "bike_id": "93d5e3cdc945a9d0fc9de6fe9351d6fc", "rental_uris": {"ios": "https://dc.lft.to/lastmile_qr_scan", "android": "https://dc.lft.to/lastmile_qr_scan"}}, {"name": "1776f3bbf466f4056a342d04fefab910", "type": "electric_scooter", "lat": 38.916941, "is_reserved": 0, "lon": -77.0358845, "fusion_lon": 0.0, "is_disabled": 0, "fusion_lat": 0.0, "bike_id": "1776f3bbf466f4056a342d04fefab910", "rental_uris": {"ios": "https://dc.lft.to/lastmile_qr_scan", "android": "https://dc.lft.to/lastmile_qr_scan"}}, {"name": "c80c0fd96f14cd5a53354cd10357b6bc", "type": "electric_scooter", "lat": 38.918708333333335, "is_reserved": 0, "lon": -77.023103, "fusion_lon": 0.0, "is_disabled": 0, "fusion_lat": 0.0, "bike_id": "c80c0fd96f14cd5a53354cd10357b6bc", "rental_uris": {"ios": "https://dc.lft.to/lastmile_qr_scan", "android": "https://dc.lft.to/lastmile_qr_scan"}}, {"name": "651b7e8429a091112f50e8702061a7db", "type": "electric_scooter", "lat": 38.908261, "is_reserved": 0, "lon": -77.00029483333333, "fusion_lon": 0.0, "is_disabled": 0, "fusion_lat": 0.0, "bike_id": "651b7e8429a091112f50e8702061a7db", "rental_uris": {"ios": "https://dc.lft.to/lastmile_qr_scan", "android": "https://dc.lft.to/lastmile_qr_scan"}}, {"name": "5072b6096f85cce8942c5adb4338df42", "type": "electric_scooter", "lat": 38.94924183333333, "is_reserved": 0, "lon": -77.0193565, "fusion_lon": 0.0, "is_disabled": 0, "fusion_lat": 0.0, "bike_id": "5072b6096f85cce8942c5adb4338df42", "rental_uris": {"ios": "https://dc.lft.to/lastmile_qr_scan", "android": "https://dc.lft.to/lastmile_qr_scan"}}, {"name": "9eb36262abce57671c44557af635ec8d", "type": "electric_scooter", "lat": 38.909780166666664, "is_reserved": 0, "lon": -77.0671205, "fusion_lon": 0.0, "is_disabled": 0, "fusion_lat": 0.0, "bike_id": "9eb36262abce57671c44557af635ec8d", "rental_uris": {"ios": "https://dc.lft.to/lastmile_qr_scan", "android": "https://dc.lft.to/lastmile_qr_scan"}}, {"name": "affe511095b404bb492a845ec743e36d", "type": "electric_scooter", "lat": 38.9348815, "is_reserved": 0, "lon": -77.0725075, "fusion_lon": 0.0, "is_disabled": 0, "fusion_lat": 0.0, "bike_id": "affe511095b404bb492a845ec743e36d", "rental_uris": {"ios": "https://dc.lft.to/lastmile_qr_scan", "android": "https://dc.lft.to/lastmile_qr_scan"}}, {"name": "6f7961d174c17c07b0ae0ac5914e2625", "type": "electric_scooter", "lat": 38.904081166666664, "is_reserved": 0, "lon": -77.01867966666667, "fusion_lon": 0.0, "is_disabled": 0, "fusion_lat": 0.0, "bike_id": "6f7961d174c17c07b0ae0ac5914e2625", "rental_uris": {"ios": "https://dc.lft.to/lastmile_qr_scan", "android": "https://dc.lft.to/lastmile_qr_scan"}}, {"name": "a231b15381623805ae73ebf103527955", "type": "electric_scooter", "lat": 38.931191, "is_reserved": 0, "lon": -77.02097383333333, "fusion_lon": 0.0, "is_disabled": 0, "fusion_lat": 0.0, "bike_id": "a231b15381623805ae73ebf103527955", "rental_uris": {"ios": "https://dc.lft.to/lastmile_qr_scan", "android": "https://dc.lft.to/lastmile_qr_scan"}}, {"name": "18592d72eaff419b7744897924f1cdbd", "type": "electric_scooter", "lat": 38.920892, "is_reserved": 0, "lon": -77.02388166666667, "fusion_lon": 0.0, "is_disabled": 0, "fusion_lat": 0.0, "bike_id": "18592d72eaff419b7744897924f1cdbd", "rental_uris": {"ios": "https://dc.lft.to/lastmile_qr_scan", "android": "https://dc.lft.to/lastmile_qr_scan"}}, {"name": "2ae645425db2cb11cd803ec9c57da24c", "type": "electric_scooter", "lat": 38.8965805, "is_reserved": 0, "lon": -76.94853166666667, "fusion_lon": 0.0, "is_disabled": 0, "fusion_lat": 0.0, "bike_id": "2ae645425db2cb11cd803ec9c57da24c", "rental_uris": {"ios": "https://dc.lft.to/lastmile_qr_scan", "android": "https://dc.lft.to/lastmile_qr_scan"}}, {"name": "6401c8e72bb268e46299ae2f1d69de88", "type": "electric_scooter", "lat": 38.911295833333334, "is_reserved": 0, "lon": -77.04420166666667, "fusion_lon": 0.0, "is_disabled": 0, "fusion_lat": 0.0, "bike_id": "6401c8e72bb268e46299ae2f1d69de88", "rental_uris": {"ios": "https://dc.lft.to/lastmile_qr_scan", "android": "https://dc.lft.to/lastmile_qr_scan"}}, {"name": "13865713722ff00bcea909884651e837", "type": "electric_scooter", "lat": 38.91268866666667, "is_reserved": 0, "lon": -77.0314175, "fusion_lon": 0.0, "is_disabled": 0, "fusion_lat": 0.0, "bike_id": "13865713722ff00bcea909884651e837", "rental_uris": {"ios": "https://dc.lft.to/lastmile_qr_scan", "android": "https://dc.lft.to/lastmile_qr_scan"}}, {"name": "fa7495d6dc1d61eacf7ea4232619e922", "type": "electric_bike", "lat": 38.92353816666667, "is_reserved": 0, "lon": -76.992484, "fusion_lon": 0.0, "is_disabled": 0, "fusion_lat": 0.0, "bike_id": "fa7495d6dc1d61eacf7ea4232619e922", "rental_uris": {"ios": "https://dc.lft.to/lastmile_qr_scan", "android": "https://dc.lft.to/lastmile_qr_scan"}}, {"name": "4dc2c6dddf4325e5c548abd95f7c2453", "type": "electric_scooter", "lat": 38.892242833333334, "is_reserved": 0, "lon": -77.0437085, "fusion_lon": 0.0, "is_disabled": 0, "fusion_lat": 0.0, "bike_id": "4dc2c6dddf4325e5c548abd95f7c2453", "rental_uris": {"ios": "https://dc.lft.to/lastmile_qr_scan", "android": "https://dc.lft.to/lastmile_qr_scan"}}, {"name": "89b0d8af2d46f702926a92b6ee0b6ef9", "type": "electric_scooter", "lat": 38.8765835, "is_reserved": 0, "lon": -77.00414166666667, "fusion_lon": 0.0, "is_disabled": 0, "fusion_lat": 0.0, "bike_id": "89b0d8af2d46f702926a92b6ee0b6ef9", "rental_uris": {"ios": "https://dc.lft.to/lastmile_qr_scan", "android": "https://dc.lft.to/lastmile_qr_scan"}}, {"name": "3064835bb4fa458219adb9418f5cd17b", "type": "electric_scooter", "lat": 38.917641333333336, "is_reserved": 0, "lon": -77.02712483333333, "fusion_lon": 0.0, "is_disabled": 0, "fusion_lat": 0.0, "bike_id": "3064835bb4fa458219adb9418f5cd17b", "rental_uris": {"ios": "https://dc.lft.to/lastmile_qr_scan", "android": "https://dc.lft.to/lastmile_qr_scan"}}, {"name": "9e326fabeb2c772347c5c147529961e1", "type": "electric_scooter", "lat": 38.911848166666665, "is_reserved": 0, "lon": -77.04004683333334, "fusion_lon": 0.0, "is_disabled": 0, "fusion_lat": 0.0, "bike_id": "9e326fabeb2c772347c5c147529961e1", "rental_uris": {"ios": "https://dc.lft.to/lastmile_qr_scan", "android": "https://dc.lft.to/lastmile_qr_scan"}}, {"name": "394066f50b6b06f0a296092ed9595cb8", "type": "electric_scooter", "lat": 38.8956, "is_reserved": 0, "lon": -77.0500455, "fusion_lon": 0.0, "is_disabled": 0, "fusion_lat": 0.0, "bike_id": "394066f50b6b06f0a296092ed9595cb8", "rental_uris": {"ios": "https://dc.lft.to/lastmile_qr_scan", "android": "https://dc.lft.to/lastmile_qr_scan"}}, {"name": "ef2a3fcab076f1479608dfc59bfb472a", "type": "electric_scooter", "lat": 38.89534283333333, "is_reserved": 0, "lon": -77.04845516666667, "fusion_lon": 0.0, "is_disabled": 0, "fusion_lat": 0.0, "bike_id": "ef2a3fcab076f1479608dfc59bfb472a", "rental_uris": {"ios": "https://dc.lft.to/lastmile_qr_scan", "android": "https://dc.lft.to/lastmile_qr_scan"}}, {"name": "fcbb4b8600b2c7d8c3b786df005ae2b2", "type": "electric_scooter", "lat": 38.90362316666667, "is_reserved": 0, "lon": -77.03366716666666, "fusion_lon": 0.0, "is_disabled": 0, "fusion_lat": 0.0, "bike_id": "fcbb4b8600b2c7d8c3b786df005ae2b2", "rental_uris": {"ios": "https://dc.lft.to/lastmile_qr_scan", "android": "https://dc.lft.to/lastmile_qr_scan"}}, {"name": "13bccf744f36edf1b839a36509715afb", "type": "electric_scooter", "lat": 38.874342166666665, "is_reserved": 0, "lon": -77.02067483333333, "fusion_lon": 0.0, "is_disabled": 0, "fusion_lat": 0.0, "bike_id": "13bccf744f36edf1b839a36509715afb", "rental_uris": {"ios": "https://dc.lft.to/lastmile_qr_scan", "android": "https://dc.lft.to/lastmile_qr_scan"}}, {"name": "4bfb14dc90160b52cf167d1e9d0f2b43", "type": "electric_bike", "lat": 38.969102, "is_reserved": 0, "lon": -76.95653466666667, "fusion_lon": 0.0, "is_disabled": 0, "fusion_lat": 0.0, "bike_id": "4bfb14dc90160b52cf167d1e9d0f2b43", "rental_uris": {"ios": "https://dc.lft.to/lastmile_qr_scan", "android": "https://dc.lft.to/lastmile_qr_scan"}}, {"name": "a6b15e649076e5db1febc151cea5382b", "type": "electric_scooter", "lat": 38.8799635, "is_reserved": 0, "lon": -76.98506383333333, "fusion_lon": 0.0, "is_disabled": 0, "fusion_lat": 0.0, "bike_id": "a6b15e649076e5db1febc151cea5382b", "rental_uris": {"ios": "https://dc.lft.to/lastmile_qr_scan", "android": "https://dc.lft.to/lastmile_qr_scan"}}, {"name": "6854f70f1153caf255b8c86a6d5b949f", "type": "electric_scooter", "lat": 38.91533283333333, "is_reserved": 0, "lon": -77.04609116666667, "fusion_lon": 0.0, "is_disabled": 0, "fusion_lat": 0.0, "bike_id": "6854f70f1153caf255b8c86a6d5b949f", "rental_uris": {"ios": "https://dc.lft.to/lastmile_qr_scan", "android": "https://dc.lft.to/lastmile_qr_scan"}}, {"name": "eba7dec27c331af102acb8c4e43ec7d2", "type": "electric_scooter", "lat": 38.899973833333334, "is_reserved": 0, "lon": -76.98562816666667, "fusion_lon": 0.0, "is_disabled": 0, "fusion_lat": 0.0, "bike_id": "eba7dec27c331af102acb8c4e43ec7d2", "rental_uris": {"ios": "https://dc.lft.to/lastmile_qr_scan", "android": "https://dc.lft.to/lastmile_qr_scan"}}, {"name": "118878376604d9b43a587f75de0cb490", "type": "electric_scooter", "lat": 38.91410166666667, "is_reserved": 0, "lon": -77.0390085, "fusion_lon": 0.0, "is_disabled": 0, "fusion_lat": 0.0, "bike_id": "118878376604d9b43a587f75de0cb490", "rental_uris": {"ios": "https://dc.lft.to/lastmile_qr_scan", "android": "https://dc.lft.to/lastmile_qr_scan"}}, {"name": "84d79e4342af330a085133af5da40b3b", "type": "electric_scooter", "lat": 38.903627666666665, "is_reserved": 0, "lon": -77.01676033333334, "fusion_lon": 0.0, "is_disabled": 0, "fusion_lat": 0.0, "bike_id": "84d79e4342af330a085133af5da40b3b", "rental_uris": {"ios": "https://dc.lft.to/lastmile_qr_scan", "android": "https://dc.lft.to/lastmile_qr_scan"}}, {"name": "a887d297b46953afeac62c6b4680f0a8", "type": "electric_scooter", "lat": 38.862118, "is_reserved": 0, "lon": -76.9946925, "fusion_lon": 0.0, "is_disabled": 0, "fusion_lat": 0.0, "bike_id": "a887d297b46953afeac62c6b4680f0a8", "rental_uris": {"ios": "https://dc.lft.to/lastmile_qr_scan", "android": "https://dc.lft.to/lastmile_qr_scan"}}, {"name": "e5328e28792c2bbd1d3541cd0e87b5db", "type": "electric_scooter", "lat": 38.87675266666667, "is_reserved": 0, "lon": -77.01784466666666, "fusion_lon": 0.0, "is_disabled": 0, "fusion_lat": 0.0, "bike_id": "e5328e28792c2bbd1d3541cd0e87b5db", "rental_uris": {"ios": "https://dc.lft.to/lastmile_qr_scan", "android": "https://dc.lft.to/lastmile_qr_scan"}}, {"name": "16d0b9378431c5bfc91fb80ff8337c7b", "type": "electric_scooter", "lat": 38.903679833333335, "is_reserved": 0, "lon": -77.01674316666667, "fusion_lon": 0.0, "is_disabled": 0, "fusion_lat": 0.0, "bike_id": "16d0b9378431c5bfc91fb80ff8337c7b", "rental_uris": {"ios": "https://dc.lft.to/lastmile_qr_scan", "android": "https://dc.lft.to/lastmile_qr_scan"}}, {"name": "6fbebe696dae91b722982c7014ff6acc", "type": "electric_scooter", "lat": 38.93171683333333, "is_reserved": 0, "lon": -77.03635233333334, "fusion_lon": 0.0, "is_disabled": 0, "fusion_lat": 0.0, "bike_id": "6fbebe696dae91b722982c7014ff6acc", "rental_uris": {"ios": "https://dc.lft.to/lastmile_qr_scan", "android": "https://dc.lft.to/lastmile_qr_scan"}}, {"name": "e4161f7c2cc3834a729796e18d367fef", "type": "electric_scooter", "lat": 38.912626333333336, "is_reserved": 0, "lon": -77.03751366666667, "fusion_lon": 0.0, "is_disabled": 0, "fusion_lat": 0.0, "bike_id": "e4161f7c2cc3834a729796e18d367fef", "rental_uris": {"ios": "https://dc.lft.to/lastmile_qr_scan", "android": "https://dc.lft.to/lastmile_qr_scan"}}, {"name": "027d68d325f9f9b52e048ac476967450", "type": "electric_scooter", "lat": 38.895522, "is_reserved": 0, "lon": -76.94882566666666, "fusion_lon": 0.0, "is_disabled": 0, "fusion_lat": 0.0, "bike_id": "027d68d325f9f9b52e048ac476967450", "rental_uris": {"ios": "https://dc.lft.to/lastmile_qr_scan", "android": "https://dc.lft.to/lastmile_qr_scan"}}, {"name": "bede640fc4740b269ff0012e93a6e1fd", "type": "electric_scooter", "lat": 38.9224325, "is_reserved": 0, "lon": -77.0298655, "fusion_lon": 0.0, "is_disabled": 0, "fusion_lat": 0.0, "bike_id": "bede640fc4740b269ff0012e93a6e1fd", "rental_uris": {"ios": "https://dc.lft.to/lastmile_qr_scan", "android": "https://dc.lft.to/lastmile_qr_scan"}}, {"name": "2aaa29a99134a95b35e41ae1b08e3e28", "type": "electric_scooter", "lat": 38.92358333333333, "is_reserved": 0, "lon": -77.05087516666667, "fusion_lon": 0.0, "is_disabled": 0, "fusion_lat": 0.0, "bike_id": "2aaa29a99134a95b35e41ae1b08e3e28", "rental_uris": {"ios": "https://dc.lft.to/lastmile_qr_scan", "android": "https://dc.lft.to/lastmile_qr_scan"}}, {"name": "569bc7afe4cca24e3bd02a940b6abd44", "type": "electric_scooter", "lat": 38.91181566666667, "is_reserved": 0, "lon": -77.032566, "fusion_lon": 0.0, "is_disabled": 0, "fusion_lat": 0.0, "bike_id": "569bc7afe4cca24e3bd02a940b6abd44", "rental_uris": {"ios": "https://dc.lft.to/lastmile_qr_scan", "android": "https://dc.lft.to/lastmile_qr_scan"}}, {"name": "9303bf2ccbcbed707c375d3d1448ab28", "type": "electric_scooter", "lat": 38.92929, "is_reserved": 0, "lon": -77.02337016666667, "fusion_lon": 0.0, "is_disabled": 0, "fusion_lat": 0.0, "bike_id": "9303bf2ccbcbed707c375d3d1448ab28", "rental_uris": {"ios": "https://dc.lft.to/lastmile_qr_scan", "android": "https://dc.lft.to/lastmile_qr_scan"}}, {"name": "07e5c94267dcd0d3f93a7afcd7b561ab", "type": "electric_scooter", "lat": 38.90719933333333, "is_reserved": 0, "lon": -77.02497283333334, "fusion_lon": 0.0, "is_disabled": 0, "fusion_lat": 0.0, "bike_id": "07e5c94267dcd0d3f93a7afcd7b561ab", "rental_uris": {"ios": "https://dc.lft.to/lastmile_qr_scan", "android": "https://dc.lft.to/lastmile_qr_scan"}}, {"name": "fe889d2832090c7306d71e52d17c9dd4", "type": "electric_scooter", "lat": 38.90331283333333, "is_reserved": 0, "lon": -76.98974116666666, "fusion_lon": 0.0, "is_disabled": 0, "fusion_lat": 0.0, "bike_id": "fe889d2832090c7306d71e52d17c9dd4", "rental_uris": {"ios": "https://dc.lft.to/lastmile_qr_scan", "android": "https://dc.lft.to/lastmile_qr_scan"}}, {"name": "bab07179264b1579122c9c1b83b3db06", "type": "electric_scooter", "lat": 38.91120183333334, "is_reserved": 0, "lon": -77.018131, "fusion_lon": 0.0, "is_disabled": 0, "fusion_lat": 0.0, "bike_id": "bab07179264b1579122c9c1b83b3db06", "rental_uris": {"ios": "https://dc.lft.to/lastmile_qr_scan", "android": "https://dc.lft.to/lastmile_qr_scan"}}, {"name": "51d5720a42456d0a56c1e386ec515c1d", "type": "electric_scooter", "lat": 38.907272166666665, "is_reserved": 0, "lon": -77.01141566666666, "fusion_lon": 0.0, "is_disabled": 0, "fusion_lat": 0.0, "bike_id": "51d5720a42456d0a56c1e386ec515c1d", "rental_uris": {"ios": "https://dc.lft.to/lastmile_qr_scan", "android": "https://dc.lft.to/lastmile_qr_scan"}}, {"name": "f627041d160b6cc632c53a8ebc1842be", "type": "electric_scooter", "lat": 38.88219433333333, "is_reserved": 0, "lon": -76.9418355, "fusion_lon": 0.0, "is_disabled": 0, "fusion_lat": 0.0, "bike_id": "f627041d160b6cc632c53a8ebc1842be", "rental_uris": {"ios": "https://dc.lft.to/lastmile_qr_scan", "android": "https://dc.lft.to/lastmile_qr_scan"}}, {"name": "10f8f53ed1bcec675875923e9095b11a", "type": "electric_scooter", "lat": 38.911153166666665, "is_reserved": 0, "lon": -77.03471416666666, "fusion_lon": 0.0, "is_disabled": 0, "fusion_lat": 0.0, "bike_id": "10f8f53ed1bcec675875923e9095b11a", "rental_uris": {"ios": "https://dc.lft.to/lastmile_qr_scan", "android": "https://dc.lft.to/lastmile_qr_scan"}}, {"name": "59f79f36e26e260c545150c6b914b94a", "type": "electric_scooter", "lat": 38.89565416666667, "is_reserved": 0, "lon": -77.02190783333333, "fusion_lon": 0.0, "is_disabled": 0, "fusion_lat": 0.0, "bike_id": "59f79f36e26e260c545150c6b914b94a", "rental_uris": {"ios": "https://dc.lft.to/lastmile_qr_scan", "android": "https://dc.lft.to/lastmile_qr_scan"}}, {"name": "e9ffa162b0b10d13238993fb6112e6e1", "type": "electric_scooter", "lat": 38.929711166666664, "is_reserved": 0, "lon": -77.0234515, "fusion_lon": 0.0, "is_disabled": 0, "fusion_lat": 0.0, "bike_id": "e9ffa162b0b10d13238993fb6112e6e1", "rental_uris": {"ios": "https://dc.lft.to/lastmile_qr_scan", "android": "https://dc.lft.to/lastmile_qr_scan"}}, {"name": "bfa49cb5937c428888144d4c5c5fe83f", "type": "electric_scooter", "lat": 38.921432333333335, "is_reserved": 0, "lon": -77.04361983333334, "fusion_lon": 0.0, "is_disabled": 0, "fusion_lat": 0.0, "bike_id": "bfa49cb5937c428888144d4c5c5fe83f", "rental_uris": {"ios": "https://dc.lft.to/lastmile_qr_scan", "android": "https://dc.lft.to/lastmile_qr_scan"}}, {"name": "c3a7c48a075daa9f8055df389c5debe3", "type": "electric_scooter", "lat": 38.91351433333333, "is_reserved": 0, "lon": -77.03971, "fusion_lon": 0.0, "is_disabled": 0, "fusion_lat": 0.0, "bike_id": "c3a7c48a075daa9f8055df389c5debe3", "rental_uris": {"ios": "https://dc.lft.to/lastmile_qr_scan", "android": "https://dc.lft.to/lastmile_qr_scan"}}, {"name": "76b443217a25d1498744893de9990783", "type": "electric_scooter", "lat": 38.887458, "is_reserved": 0, "lon": -77.02578333333334, "fusion_lon": 0.0, "is_disabled": 0, "fusion_lat": 0.0, "bike_id": "76b443217a25d1498744893de9990783", "rental_uris": {"ios": "https://dc.lft.to/lastmile_qr_scan", "android": "https://dc.lft.to/lastmile_qr_scan"}}, {"name": "040936ca7b0f69dfb81715ff5703f88d", "type": "electric_scooter", "lat": 38.944422333333335, "is_reserved": 0, "lon": -77.06346333333333, "fusion_lon": 0.0, "is_disabled": 0, "fusion_lat": 0.0, "bike_id": "040936ca7b0f69dfb81715ff5703f88d", "rental_uris": {"ios": "https://dc.lft.to/lastmile_qr_scan", "android": "https://dc.lft.to/lastmile_qr_scan"}}, {"name": "bc34516d3d81bc2bb22d57d5e6e161d8", "type": "electric_bike", "lat": 38.8549245, "is_reserved": 0, "lon": -77.11526483333333, "fusion_lon": 0.0, "is_disabled": 0, "fusion_lat": 0.0, "bike_id": "bc34516d3d81bc2bb22d57d5e6e161d8", "rental_uris": {"ios": "https://dc.lft.to/lastmile_qr_scan", "android": "https://dc.lft.to/lastmile_qr_scan"}}, {"name": "9a6a23fdc90cdfb0b2e89dd2a9eb2adb", "type": "electric_scooter", "lat": 38.90034683333333, "is_reserved": 0, "lon": -77.0019605, "fusion_lon": 0.0, "is_disabled": 0, "fusion_lat": 0.0, "bike_id": "9a6a23fdc90cdfb0b2e89dd2a9eb2adb", "rental_uris": {"ios": "https://dc.lft.to/lastmile_qr_scan", "android": "https://dc.lft.to/lastmile_qr_scan"}}, {"name": "64bb455b46324ef31528aeb38c56cde0", "type": "electric_scooter", "lat": 38.899048666666665, "is_reserved": 0, "lon": -76.94559233333334, "fusion_lon": 0.0, "is_disabled": 0, "fusion_lat": 0.0, "bike_id": "64bb455b46324ef31528aeb38c56cde0", "rental_uris": {"ios": "https://dc.lft.to/lastmile_qr_scan", "android": "https://dc.lft.to/lastmile_qr_scan"}}, {"name": "7c078dcfc7ce74d82ff0a50e34fe79e0", "type": "electric_scooter", "lat": 38.91192, "is_reserved": 0, "lon": -76.99621966666666, "fusion_lon": 0.0, "is_disabled": 0, "fusion_lat": 0.0, "bike_id": "7c078dcfc7ce74d82ff0a50e34fe79e0", "rental_uris": {"ios": "https://dc.lft.to/lastmile_qr_scan", "android": "https://dc.lft.to/lastmile_qr_scan"}}, {"name": "306bd63d83fa5fea2dda9b9a0dc4f4d3", "type": "electric_scooter", "lat": 38.892221166666666, "is_reserved": 0, "lon": -77.0426145, "fusion_lon": 0.0, "is_disabled": 0, "fusion_lat": 0.0, "bike_id": "306bd63d83fa5fea2dda9b9a0dc4f4d3", "rental_uris": {"ios": "https://dc.lft.to/lastmile_qr_scan", "android": "https://dc.lft.to/lastmile_qr_scan"}}, {"name": "01641f1bc10c8e8f1efe7feeb1efd55a", "type": "electric_scooter", "lat": 38.9611125, "is_reserved": 0, "lon": -77.028141, "fusion_lon": 0.0, "is_disabled": 0, "fusion_lat": 0.0, "bike_id": "01641f1bc10c8e8f1efe7feeb1efd55a", "rental_uris": {"ios": "https://dc.lft.to/lastmile_qr_scan", "android": "https://dc.lft.to/lastmile_qr_scan"}}, {"name": "e78c9bc7fc93b0f63dbe326d206ac010", "type": "electric_scooter", "lat": 38.91427183333333, "is_reserved": 0, "lon": -77.02201216666667, "fusion_lon": 0.0, "is_disabled": 0, "fusion_lat": 0.0, "bike_id": "e78c9bc7fc93b0f63dbe326d206ac010", "rental_uris": {"ios": "https://dc.lft.to/lastmile_qr_scan", "android": "https://dc.lft.to/lastmile_qr_scan"}}, {"name": "a927b3769ba800518b170acc1c7d0efe", "type": "electric_scooter", "lat": 38.8832885, "is_reserved": 0, "lon": -77.017415, "fusion_lon": 0.0, "is_disabled": 0, "fusion_lat": 0.0, "bike_id": "a927b3769ba800518b170acc1c7d0efe", "rental_uris": {"ios": "https://dc.lft.to/lastmile_qr_scan", "android": "https://dc.lft.to/lastmile_qr_scan"}}, {"name": "b544469bed27abb0f6f23ab56de20f7e", "type": "electric_scooter", "lat": 38.920619333333335, "is_reserved": 0, "lon": -77.029186, "fusion_lon": 0.0, "is_disabled": 0, "fusion_lat": 0.0, "bike_id": "b544469bed27abb0f6f23ab56de20f7e", "rental_uris": {"ios": "https://dc.lft.to/lastmile_qr_scan", "android": "https://dc.lft.to/lastmile_qr_scan"}}, {"name": "17463a96c31f15c7f3475f02bcf82e58", "type": "electric_scooter", "lat": 38.9317145, "is_reserved": 0, "lon": -77.03634583333333, "fusion_lon": 0.0, "is_disabled": 0, "fusion_lat": 0.0, "bike_id": "17463a96c31f15c7f3475f02bcf82e58", "rental_uris": {"ios": "https://dc.lft.to/lastmile_qr_scan", "android": "https://dc.lft.to/lastmile_qr_scan"}}, {"name": "6bbbfd78c07828f67bcdf6b1318747f2", "type": "electric_scooter", "lat": 38.921506666666666, "is_reserved": 0, "lon": -77.03510466666667, "fusion_lon": 0.0, "is_disabled": 0, "fusion_lat": 0.0, "bike_id": "6bbbfd78c07828f67bcdf6b1318747f2", "rental_uris": {"ios": "https://dc.lft.to/lastmile_qr_scan", "android": "https://dc.lft.to/lastmile_qr_scan"}}, {"name": "ac3d75fb57fc8cfdbb50db73cee09861", "type": "electric_scooter", "lat": 38.91941666666666, "is_reserved": 0, "lon": -77.01357483333334, "fusion_lon": 0.0, "is_disabled": 0, "fusion_lat": 0.0, "bike_id": "ac3d75fb57fc8cfdbb50db73cee09861", "rental_uris": {"ios": "https://dc.lft.to/lastmile_qr_scan", "android": "https://dc.lft.to/lastmile_qr_scan"}}, {"name": "99314152327dc0fd7e5f699cef7f491c", "type": "electric_scooter", "lat": 38.89936983333333, "is_reserved": 0, "lon": -77.03183916666667, "fusion_lon": 0.0, "is_disabled": 0, "fusion_lat": 0.0, "bike_id": "99314152327dc0fd7e5f699cef7f491c", "rental_uris": {"ios": "https://dc.lft.to/lastmile_qr_scan", "android": "https://dc.lft.to/lastmile_qr_scan"}}, {"name": "f9e5b76023ce0866df6db7808e990baf", "type": "electric_scooter", "lat": 38.89888083333334, "is_reserved": 0, "lon": -76.991447, "fusion_lon": 0.0, "is_disabled": 0, "fusion_lat": 0.0, "bike_id": "f9e5b76023ce0866df6db7808e990baf", "rental_uris": {"ios": "https://dc.lft.to/lastmile_qr_scan", "android": "https://dc.lft.to/lastmile_qr_scan"}}, {"name": "ff79c6521eaddd69776313cec4a138ae", "type": "electric_scooter", "lat": 38.93446216666667, "is_reserved": 0, "lon": -77.0284305, "fusion_lon": 0.0, "is_disabled": 0, "fusion_lat": 0.0, "bike_id": "ff79c6521eaddd69776313cec4a138ae", "rental_uris": {"ios": "https://dc.lft.to/lastmile_qr_scan", "android": "https://dc.lft.to/lastmile_qr_scan"}}, {"name": "4478c606ac25c83ee9f45d78fdd4ae63", "type": "electric_scooter", "lat": 38.922672666666664, "is_reserved": 0, "lon": -77.03406333333334, "fusion_lon": 0.0, "is_disabled": 0, "fusion_lat": 0.0, "bike_id": "4478c606ac25c83ee9f45d78fdd4ae63", "rental_uris": {"ios": "https://dc.lft.to/lastmile_qr_scan", "android": "https://dc.lft.to/lastmile_qr_scan"}}, {"name": "f46acbeebade17d29040522c8513de6e", "type": "electric_scooter", "lat": 38.93113666666667, "is_reserved": 0, "lon": -77.02086266666667, "fusion_lon": 0.0, "is_disabled": 0, "fusion_lat": 0.0, "bike_id": "f46acbeebade17d29040522c8513de6e", "rental_uris": {"ios": "https://dc.lft.to/lastmile_qr_scan", "android": "https://dc.lft.to/lastmile_qr_scan"}}, {"name": "0c1575cd61fa57a6af72a2e8011f6985", "type": "electric_scooter", "lat": 38.86697683333333, "is_reserved": 0, "lon": -76.98717316666666, "fusion_lon": 0.0, "is_disabled": 0, "fusion_lat": 0.0, "bike_id": "0c1575cd61fa57a6af72a2e8011f6985", "rental_uris": {"ios": "https://dc.lft.to/lastmile_qr_scan", "android": "https://dc.lft.to/lastmile_qr_scan"}}, {"name": "d85bd1783897cc4574cf8b7847ca52fb", "type": "electric_bike", "lat": 38.897757166666665, "is_reserved": 0, "lon": -76.90433183333333, "fusion_lon": 0.0, "is_disabled": 0, "fusion_lat": 0.0, "bike_id": "d85bd1783897cc4574cf8b7847ca52fb", "rental_uris": {"ios": "https://dc.lft.to/lastmile_qr_scan", "android": "https://dc.lft.to/lastmile_qr_scan"}}, {"name": "76c53df4fca7c07968062cd8e1c357b2", "type": "electric_scooter", "lat": 38.89821166666667, "is_reserved": 0, "lon": -77.0120005, "fusion_lon": 0.0, "is_disabled": 0, "fusion_lat": 0.0, "bike_id": "76c53df4fca7c07968062cd8e1c357b2", "rental_uris": {"ios": "https://dc.lft.to/lastmile_qr_scan", "android": "https://dc.lft.to/lastmile_qr_scan"}}, {"name": "6488a33e40a9482a317fc365cfcd6059", "type": "electric_scooter", "lat": 38.8976305, "is_reserved": 0, "lon": -77.00745883333333, "fusion_lon": 0.0, "is_disabled": 0, "fusion_lat": 0.0, "bike_id": "6488a33e40a9482a317fc365cfcd6059", "rental_uris": {"ios": "https://dc.lft.to/lastmile_qr_scan", "android": "https://dc.lft.to/lastmile_qr_scan"}}, {"name": "23a421b4252c7391be539fb160f80f2e", "type": "electric_bike", "lat": 38.946232, "is_reserved": 0, "lon": -76.94629616666667, "fusion_lon": 0.0, "is_disabled": 0, "fusion_lat": 0.0, "bike_id": "23a421b4252c7391be539fb160f80f2e", "rental_uris": {"ios": "https://dc.lft.to/lastmile_qr_scan", "android": "https://dc.lft.to/lastmile_qr_scan"}}, {"name": "95e533c5eab1bce62be4b3bef05cad4a", "type": "electric_scooter", "lat": 38.922295166666665, "is_reserved": 0, "lon": -77.04238, "fusion_lon": 0.0, "is_disabled": 0, "fusion_lat": 0.0, "bike_id": "95e533c5eab1bce62be4b3bef05cad4a", "rental_uris": {"ios": "https://dc.lft.to/lastmile_qr_scan", "android": "https://dc.lft.to/lastmile_qr_scan"}}, {"name": "696764b7df5103f85c01bd5a44e51f4c", "type": "electric_scooter", "lat": 38.93117933333333, "is_reserved": 0, "lon": -77.03613033333333, "fusion_lon": 0.0, "is_disabled": 0, "fusion_lat": 0.0, "bike_id": "696764b7df5103f85c01bd5a44e51f4c", "rental_uris": {"ios": "https://dc.lft.to/lastmile_qr_scan", "android": "https://dc.lft.to/lastmile_qr_scan"}}, {"name": "c7a657cbc35b280b0591e9f5c7a4c810", "type": "electric_scooter", "lat": 38.8961265, "is_reserved": 0, "lon": -77.05073516666667, "fusion_lon": 0.0, "is_disabled": 0, "fusion_lat": 0.0, "bike_id": "c7a657cbc35b280b0591e9f5c7a4c810", "rental_uris": {"ios": "https://dc.lft.to/lastmile_qr_scan", "android": "https://dc.lft.to/lastmile_qr_scan"}}, {"name": "c295bd7239fc4394eb6b545c87f5f4aa", "type": "electric_scooter", "lat": 38.89750516666667, "is_reserved": 0, "lon": -77.02703616666666, "fusion_lon": 0.0, "is_disabled": 0, "fusion_lat": 0.0, "bike_id": "c295bd7239fc4394eb6b545c87f5f4aa", "rental_uris": {"ios": "https://dc.lft.to/lastmile_qr_scan", "android": "https://dc.lft.to/lastmile_qr_scan"}}, {"name": "da35e13e5fbede6b345d4f7c49a55111", "type": "electric_scooter", "lat": 38.931941333333334, "is_reserved": 0, "lon": -77.02965516666667, "fusion_lon": 0.0, "is_disabled": 0, "fusion_lat": 0.0, "bike_id": "da35e13e5fbede6b345d4f7c49a55111", "rental_uris": {"ios": "https://dc.lft.to/lastmile_qr_scan", "android": "https://dc.lft.to/lastmile_qr_scan"}}, {"name": "e055dc906163e272482a4be60ae85146", "type": "electric_scooter", "lat": 38.896021, "is_reserved": 0, "lon": -77.026076, "fusion_lon": 0.0, "is_disabled": 0, "fusion_lat": 0.0, "bike_id": "e055dc906163e272482a4be60ae85146", "rental_uris": {"ios": "https://dc.lft.to/lastmile_qr_scan", "android": "https://dc.lft.to/lastmile_qr_scan"}}, {"name": "7c18ddf1b7acbe6230dc8155c4ec2377", "type": "electric_scooter", "lat": 38.91006766666667, "is_reserved": 0, "lon": -76.99410066666667, "fusion_lon": 0.0, "is_disabled": 0, "fusion_lat": 0.0, "bike_id": "7c18ddf1b7acbe6230dc8155c4ec2377", "rental_uris": {"ios": "https://dc.lft.to/lastmile_qr_scan", "android": "https://dc.lft.to/lastmile_qr_scan"}}, {"name": "323816fad92e567dd7f0837475cbabb9", "type": "electric_scooter", "lat": 38.856152, "is_reserved": 0, "lon": -76.98017766666666, "fusion_lon": 0.0, "is_disabled": 0, "fusion_lat": 0.0, "bike_id": "323816fad92e567dd7f0837475cbabb9", "rental_uris": {"ios": "https://dc.lft.to/lastmile_qr_scan", "android": "https://dc.lft.to/lastmile_qr_scan"}}, {"name": "39288dcb95a3a5d0f1cd7fe0f088eda8", "type": "electric_scooter", "lat": 38.91265716666667, "is_reserved": 0, "lon": -77.06100316666667, "fusion_lon": 0.0, "is_disabled": 0, "fusion_lat": 0.0, "bike_id": "39288dcb95a3a5d0f1cd7fe0f088eda8", "rental_uris": {"ios": "https://dc.lft.to/lastmile_qr_scan", "android": "https://dc.lft.to/lastmile_qr_scan"}}, {"name": "d30e97c027bced7657c73ae77931727e", "type": "electric_scooter", "lat": 38.89584983333334, "is_reserved": 0, "lon": -76.937164, "fusion_lon": 0.0, "is_disabled": 0, "fusion_lat": 0.0, "bike_id": "d30e97c027bced7657c73ae77931727e", "rental_uris": {"ios": "https://dc.lft.to/lastmile_qr_scan", "android": "https://dc.lft.to/lastmile_qr_scan"}}, {"name": "002db3498dc56b2d73151e619ae9dc2f", "type": "electric_scooter", "lat": 38.904477, "is_reserved": 0, "lon": -76.996223, "fusion_lon": 0.0, "is_disabled": 0, "fusion_lat": 0.0, "bike_id": "002db3498dc56b2d73151e619ae9dc2f", "rental_uris": {"ios": "https://dc.lft.to/lastmile_qr_scan", "android": "https://dc.lft.to/lastmile_qr_scan"}}, {"name": "6ab18c3dc34d8515ba15f63dd29b299a", "type": "electric_scooter", "lat": 38.903129166666666, "is_reserved": 0, "lon": -77.03469333333334, "fusion_lon": 0.0, "is_disabled": 0, "fusion_lat": 0.0, "bike_id": "6ab18c3dc34d8515ba15f63dd29b299a", "rental_uris": {"ios": "https://dc.lft.to/lastmile_qr_scan", "android": "https://dc.lft.to/lastmile_qr_scan"}}, {"name": "3eef2d6c0a4db3831ab331293b877ce1", "type": "electric_scooter", "lat": 38.84292, "is_reserved": 0, "lon": -76.99948683333334, "fusion_lon": 0.0, "is_disabled": 0, "fusion_lat": 0.0, "bike_id": "3eef2d6c0a4db3831ab331293b877ce1", "rental_uris": {"ios": "https://dc.lft.to/lastmile_qr_scan", "android": "https://dc.lft.to/lastmile_qr_scan"}}, {"name": "56527cf2bc83d1ae546eab8381ba2b5c", "type": "electric_scooter", "lat": 38.905568833333334, "is_reserved": 0, "lon": -77.005896, "fusion_lon": 0.0, "is_disabled": 0, "fusion_lat": 0.0, "bike_id": "56527cf2bc83d1ae546eab8381ba2b5c", "rental_uris": {"ios": "https://dc.lft.to/lastmile_qr_scan", "android": "https://dc.lft.to/lastmile_qr_scan"}}, {"name": "59bdae16310d34fe65ac7cb099adcbdb", "type": "electric_scooter", "lat": 38.91736133333333, "is_reserved": 0, "lon": -77.06847633333334, "fusion_lon": 0.0, "is_disabled": 0, "fusion_lat": 0.0, "bike_id": "59bdae16310d34fe65ac7cb099adcbdb", "rental_uris": {"ios": "https://dc.lft.to/lastmile_qr_scan", "android": "https://dc.lft.to/lastmile_qr_scan"}}, {"name": "0e151e6c6f727e5638ead6de14e912c9", "type": "electric_scooter", "lat": 38.878364, "is_reserved": 0, "lon": -76.99035766666667, "fusion_lon": 0.0, "is_disabled": 0, "fusion_lat": 0.0, "bike_id": "0e151e6c6f727e5638ead6de14e912c9", "rental_uris": {"ios": "https://dc.lft.to/lastmile_qr_scan", "android": "https://dc.lft.to/lastmile_qr_scan"}}, {"name": "66f0ec95fd18c666b331fa61999a924d", "type": "electric_scooter", "lat": 38.9348815, "is_reserved": 0, "lon": -77.03282966666667, "fusion_lon": 0.0, "is_disabled": 0, "fusion_lat": 0.0, "bike_id": "66f0ec95fd18c666b331fa61999a924d", "rental_uris": {"ios": "https://dc.lft.to/lastmile_qr_scan", "android": "https://dc.lft.to/lastmile_qr_scan"}}, {"name": "cf740946a8c859bc48cd3f97dd315ab7", "type": "electric_scooter", "lat": 38.865728833333336, "is_reserved": 0, "lon": -76.98951516666666, "fusion_lon": 0.0, "is_disabled": 0, "fusion_lat": 0.0, "bike_id": "cf740946a8c859bc48cd3f97dd315ab7", "rental_uris": {"ios": "https://dc.lft.to/lastmile_qr_scan", "android": "https://dc.lft.to/lastmile_qr_scan"}}, {"name": "8fc4c301052416e865bf400bd40d7c6d", "type": "electric_bike", "lat": 38.88404283333333, "is_reserved": 0, "lon": -77.04647183333333, "fusion_lon": 0.0, "is_disabled": 0, "fusion_lat": 0.0, "bike_id": "8fc4c301052416e865bf400bd40d7c6d", "rental_uris": {"ios": "https://dc.lft.to/lastmile_qr_scan", "android": "https://dc.lft.to/lastmile_qr_scan"}}, {"name": "a627e81fd55dad37620518ec8aa18bdd", "type": "electric_bike", "lat": 38.911443166666665, "is_reserved": 0, "lon": -77.00262616666667, "fusion_lon": 0.0, "is_disabled": 0, "fusion_lat": 0.0, "bike_id": "a627e81fd55dad37620518ec8aa18bdd", "rental_uris": {"ios": "https://dc.lft.to/lastmile_qr_scan", "android": "https://dc.lft.to/lastmile_qr_scan"}}, {"name": "fd45812771314f08e7b7cd7327a09f25", "type": "electric_scooter", "lat": 38.924866333333334, "is_reserved": 0, "lon": -77.02712966666667, "fusion_lon": 0.0, "is_disabled": 0, "fusion_lat": 0.0, "bike_id": "fd45812771314f08e7b7cd7327a09f25", "rental_uris": {"ios": "https://dc.lft.to/lastmile_qr_scan", "android": "https://dc.lft.to/lastmile_qr_scan"}}, {"name": "348e9e40bfaec6a8887dee97ed495c12", "type": "electric_scooter", "lat": 38.89920166666667, "is_reserved": 0, "lon": -76.9338105, "fusion_lon": 0.0, "is_disabled": 0, "fusion_lat": 0.0, "bike_id": "348e9e40bfaec6a8887dee97ed495c12", "rental_uris": {"ios": "https://dc.lft.to/lastmile_qr_scan", "android": "https://dc.lft.to/lastmile_qr_scan"}}, {"name": "3ef7af4c77a33213ce712c728f1c179c", "type": "electric_scooter", "lat": 38.9309245, "is_reserved": 0, "lon": -77.03668933333333, "fusion_lon": 0.0, "is_disabled": 0, "fusion_lat": 0.0, "bike_id": "3ef7af4c77a33213ce712c728f1c179c", "rental_uris": {"ios": "https://dc.lft.to/lastmile_qr_scan", "android": "https://dc.lft.to/lastmile_qr_scan"}}, {"name": "4511d38c6343cb20e0ab05468c3f1ebf", "type": "electric_bike", "lat": 38.880425833333334, "is_reserved": 0, "lon": -77.02523183333334, "fusion_lon": 0.0, "is_disabled": 0, "fusion_lat": 0.0, "bike_id": "4511d38c6343cb20e0ab05468c3f1ebf", "rental_uris": {"ios": "https://dc.lft.to/lastmile_qr_scan", "android": "https://dc.lft.to/lastmile_qr_scan"}}, {"name": "b1889691e1ff5ff4a100cf64b3c15bdf", "type": "electric_scooter", "lat": 38.95732066666667, "is_reserved": 0, "lon": -77.02402516666666, "fusion_lon": 0.0, "is_disabled": 0, "fusion_lat": 0.0, "bike_id": "b1889691e1ff5ff4a100cf64b3c15bdf", "rental_uris": {"ios": "https://dc.lft.to/lastmile_qr_scan", "android": "https://dc.lft.to/lastmile_qr_scan"}}, {"name": "2856ce82b70b0a20e575369c2a5de4eb", "type": "electric_scooter", "lat": 38.924321666666664, "is_reserved": 0, "lon": -77.05174316666667, "fusion_lon": 0.0, "is_disabled": 0, "fusion_lat": 0.0, "bike_id": "2856ce82b70b0a20e575369c2a5de4eb", "rental_uris": {"ios": "https://dc.lft.to/lastmile_qr_scan", "android": "https://dc.lft.to/lastmile_qr_scan"}}, {"name": "9f11358c0b843b2f55c45a4406200c4f", "type": "electric_scooter", "lat": 38.894756, "is_reserved": 0, "lon": -76.984048, "fusion_lon": 0.0, "is_disabled": 0, "fusion_lat": 0.0, "bike_id": "9f11358c0b843b2f55c45a4406200c4f", "rental_uris": {"ios": "https://dc.lft.to/lastmile_qr_scan", "android": "https://dc.lft.to/lastmile_qr_scan"}}, {"name": "5567c9762706f66f4d7d75f8365fd22e", "type": "electric_scooter", "lat": 38.94315783333333, "is_reserved": 0, "lon": -77.0591585, "fusion_lon": 0.0, "is_disabled": 0, "fusion_lat": 0.0, "bike_id": "5567c9762706f66f4d7d75f8365fd22e", "rental_uris": {"ios": "https://dc.lft.to/lastmile_qr_scan", "android": "https://dc.lft.to/lastmile_qr_scan"}}, {"name": "3fc878ad954d2b812bdab8501b3d9531", "type": "electric_bike", "lat": 38.85157366666667, "is_reserved": 0, "lon": -77.12877483333334, "fusion_lon": 0.0, "is_disabled": 0, "fusion_lat": 0.0, "bike_id": "3fc878ad954d2b812bdab8501b3d9531", "rental_uris": {"ios": "https://dc.lft.to/lastmile_qr_scan", "android": "https://dc.lft.to/lastmile_qr_scan"}}, {"name": "5982ede804ecb6ef49afdb0235a88b93", "type": "electric_scooter", "lat": 38.90129183333333, "is_reserved": 0, "lon": -77.04497866666667, "fusion_lon": 0.0, "is_disabled": 0, "fusion_lat": 0.0, "bike_id": "5982ede804ecb6ef49afdb0235a88b93", "rental_uris": {"ios": "https://dc.lft.to/lastmile_qr_scan", "android": "https://dc.lft.to/lastmile_qr_scan"}}, {"name": "d358134fc3ecfa6f8a1797c40d62215b", "type": "electric_scooter", "lat": 38.869441333333334, "is_reserved": 0, "lon": -76.9785625, "fusion_lon": 0.0, "is_disabled": 0, "fusion_lat": 0.0, "bike_id": "d358134fc3ecfa6f8a1797c40d62215b", "rental_uris": {"ios": "https://dc.lft.to/lastmile_qr_scan", "android": "https://dc.lft.to/lastmile_qr_scan"}}, {"name": "397e3c68caaa823fb6203f38a055d51d", "type": "electric_scooter", "lat": 38.93062233333333, "is_reserved": 0, "lon": -77.039453, "fusion_lon": 0.0, "is_disabled": 0, "fusion_lat": 0.0, "bike_id": "397e3c68caaa823fb6203f38a055d51d", "rental_uris": {"ios": "https://dc.lft.to/lastmile_qr_scan", "android": "https://dc.lft.to/lastmile_qr_scan"}}, {"name": "6474f0d23b8b736ce0f4370893194156", "type": "electric_scooter", "lat": 38.89565066666667, "is_reserved": 0, "lon": -76.97467333333333, "fusion_lon": 0.0, "is_disabled": 0, "fusion_lat": 0.0, "bike_id": "6474f0d23b8b736ce0f4370893194156", "rental_uris": {"ios": "https://dc.lft.to/lastmile_qr_scan", "android": "https://dc.lft.to/lastmile_qr_scan"}}, {"name": "ff6fafd329e1b2eed73569f2e491e113", "type": "electric_scooter", "lat": 38.883681833333334, "is_reserved": 0, "lon": -77.01964483333333, "fusion_lon": 0.0, "is_disabled": 0, "fusion_lat": 0.0, "bike_id": "ff6fafd329e1b2eed73569f2e491e113", "rental_uris": {"ios": "https://dc.lft.to/lastmile_qr_scan", "android": "https://dc.lft.to/lastmile_qr_scan"}}, {"name": "f1df71e8c70bb272728de261c257100e", "type": "electric_scooter", "lat": 38.9040895, "is_reserved": 0, "lon": -77.01800716666666, "fusion_lon": 0.0, "is_disabled": 0, "fusion_lat": 0.0, "bike_id": "f1df71e8c70bb272728de261c257100e", "rental_uris": {"ios": "https://dc.lft.to/lastmile_qr_scan", "android": "https://dc.lft.to/lastmile_qr_scan"}}, {"name": "d39d2beab3229e218ff29d72cf1f271e", "type": "electric_scooter", "lat": 38.90827516666667, "is_reserved": 0, "lon": -76.99697866666666, "fusion_lon": 0.0, "is_disabled": 0, "fusion_lat": 0.0, "bike_id": "d39d2beab3229e218ff29d72cf1f271e", "rental_uris": {"ios": "https://dc.lft.to/lastmile_qr_scan", "android": "https://dc.lft.to/lastmile_qr_scan"}}, {"name": "b2ca7cde7c3f3f44108151464a6e074f", "type": "electric_scooter", "lat": 38.8999355, "is_reserved": 0, "lon": -77.01028116666667, "fusion_lon": 0.0, "is_disabled": 0, "fusion_lat": 0.0, "bike_id": "b2ca7cde7c3f3f44108151464a6e074f", "rental_uris": {"ios": "https://dc.lft.to/lastmile_qr_scan", "android": "https://dc.lft.to/lastmile_qr_scan"}}, {"name": "5f1cfa172117d8b6f1f74e5a798352dd", "type": "electric_scooter", "lat": 38.928427666666664, "is_reserved": 0, "lon": -77.0543975, "fusion_lon": 0.0, "is_disabled": 0, "fusion_lat": 0.0, "bike_id": "5f1cfa172117d8b6f1f74e5a798352dd", "rental_uris": {"ios": "https://dc.lft.to/lastmile_qr_scan", "android": "https://dc.lft.to/lastmile_qr_scan"}}, {"name": "69bf1767d73bfbcd37cf0542d98854d7", "type": "electric_scooter", "lat": 38.89220133333333, "is_reserved": 0, "lon": -77.0214445, "fusion_lon": 0.0, "is_disabled": 0, "fusion_lat": 0.0, "bike_id": "69bf1767d73bfbcd37cf0542d98854d7", "rental_uris": {"ios": "https://dc.lft.to/lastmile_qr_scan", "android": "https://dc.lft.to/lastmile_qr_scan"}}, {"name": "8dda042058187e9c8eeea9aa3aabd776", "type": "electric_scooter", "lat": 38.906708333333334, "is_reserved": 0, "lon": -77.02702316666667, "fusion_lon": 0.0, "is_disabled": 0, "fusion_lat": 0.0, "bike_id": "8dda042058187e9c8eeea9aa3aabd776", "rental_uris": {"ios": "https://dc.lft.to/lastmile_qr_scan", "android": "https://dc.lft.to/lastmile_qr_scan"}}, {"name": "442e2a436677805637a9813ec6489f2b", "type": "electric_scooter", "lat": 38.895821833333336, "is_reserved": 0, "lon": -77.025768, "fusion_lon": 0.0, "is_disabled": 0, "fusion_lat": 0.0, "bike_id": "442e2a436677805637a9813ec6489f2b", "rental_uris": {"ios": "https://dc.lft.to/lastmile_qr_scan", "android": "https://dc.lft.to/lastmile_qr_scan"}}, {"name": "6a7cb48f8469e65a2a0589ec8789886c", "type": "electric_scooter", "lat": 38.9051145, "is_reserved": 0, "lon": -77.05115833333333, "fusion_lon": 0.0, "is_disabled": 0, "fusion_lat": 0.0, "bike_id": "6a7cb48f8469e65a2a0589ec8789886c", "rental_uris": {"ios": "https://dc.lft.to/lastmile_qr_scan", "android": "https://dc.lft.to/lastmile_qr_scan"}}, {"name": "34558d9de164ee5a42372774b4edf217", "type": "electric_scooter", "lat": 38.87683116666667, "is_reserved": 0, "lon": -77.0007855, "fusion_lon": 0.0, "is_disabled": 0, "fusion_lat": 0.0, "bike_id": "34558d9de164ee5a42372774b4edf217", "rental_uris": {"ios": "https://dc.lft.to/lastmile_qr_scan", "android": "https://dc.lft.to/lastmile_qr_scan"}}, {"name": "02f1932fead98cf3d1aed603579e2d44", "type": "electric_scooter", "lat": 38.9125725, "is_reserved": 0, "lon": -77.03827533333333, "fusion_lon": 0.0, "is_disabled": 0, "fusion_lat": 0.0, "bike_id": "02f1932fead98cf3d1aed603579e2d44", "rental_uris": {"ios": "https://dc.lft.to/lastmile_qr_scan", "android": "https://dc.lft.to/lastmile_qr_scan"}}, {"name": "eb19b99969cd629b38b5af5383fc95da", "type": "electric_scooter", "lat": 38.89132016666667, "is_reserved": 0, "lon": -77.0034425, "fusion_lon": 0.0, "is_disabled": 0, "fusion_lat": 0.0, "bike_id": "eb19b99969cd629b38b5af5383fc95da", "rental_uris": {"ios": "https://dc.lft.to/lastmile_qr_scan", "android": "https://dc.lft.to/lastmile_qr_scan"}}, {"name": "ffdf9b6f5c8d389992ced3fd3ebe4510", "type": "electric_bike", "lat": 39.03051716666667, "is_reserved": 0, "lon": -77.09485233333334, "fusion_lon": 0.0, "is_disabled": 0, "fusion_lat": 0.0, "bike_id": "ffdf9b6f5c8d389992ced3fd3ebe4510", "rental_uris": {"ios": "https://dc.lft.to/lastmile_qr_scan", "android": "https://dc.lft.to/lastmile_qr_scan"}}, {"name": "bd113157240f489fb9ebfcf858526225", "type": "electric_scooter", "lat": 38.9180395, "is_reserved": 0, "lon": -77.00168183333334, "fusion_lon": 0.0, "is_disabled": 0, "fusion_lat": 0.0, "bike_id": "bd113157240f489fb9ebfcf858526225", "rental_uris": {"ios": "https://dc.lft.to/lastmile_qr_scan", "android": "https://dc.lft.to/lastmile_qr_scan"}}, {"name": "b2112975945d1eb41a82fdf40e0f3507", "type": "electric_scooter", "lat": 38.931970166666666, "is_reserved": 0, "lon": -77.0235495, "fusion_lon": 0.0, "is_disabled": 0, "fusion_lat": 0.0, "bike_id": "b2112975945d1eb41a82fdf40e0f3507", "rental_uris": {"ios": "https://dc.lft.to/lastmile_qr_scan", "android": "https://dc.lft.to/lastmile_qr_scan"}}, {"name": "deb61793c5eceb6b8cf55fcc895f7d9d", "type": "electric_scooter", "lat": 38.914145500000004, "is_reserved": 0, "lon": -77.03817916666667, "fusion_lon": 0.0, "is_disabled": 0, "fusion_lat": 0.0, "bike_id": "deb61793c5eceb6b8cf55fcc895f7d9d", "rental_uris": {"ios": "https://dc.lft.to/lastmile_qr_scan", "android": "https://dc.lft.to/lastmile_qr_scan"}}, {"name": "8a52ff681435f67472ca1e2fdcb4817a", "type": "electric_scooter", "lat": 38.85802533333333, "is_reserved": 0, "lon": -76.99120716666667, "fusion_lon": 0.0, "is_disabled": 0, "fusion_lat": 0.0, "bike_id": "8a52ff681435f67472ca1e2fdcb4817a", "rental_uris": {"ios": "https://dc.lft.to/lastmile_qr_scan", "android": "https://dc.lft.to/lastmile_qr_scan"}}, {"name": "ccc438a4fc29162b0f8123fbf8e4ba7e", "type": "electric_bike", "lat": 39.00384183333333, "is_reserved": 0, "lon": -77.01288233333334, "fusion_lon": 0.0, "is_disabled": 0, "fusion_lat": 0.0, "bike_id": "ccc438a4fc29162b0f8123fbf8e4ba7e", "rental_uris": {"ios": "https://dc.lft.to/lastmile_qr_scan", "android": "https://dc.lft.to/lastmile_qr_scan"}}, {"name": "523dc587ee9bab85b7ddb1ecd396e5b5", "type": "electric_scooter", "lat": 38.91577733333333, "is_reserved": 0, "lon": -77.031928, "fusion_lon": 0.0, "is_disabled": 0, "fusion_lat": 0.0, "bike_id": "523dc587ee9bab85b7ddb1ecd396e5b5", "rental_uris": {"ios": "https://dc.lft.to/lastmile_qr_scan", "android": "https://dc.lft.to/lastmile_qr_scan"}}, {"name": "47b50d99713952a38d1c16a27f634b04", "type": "electric_scooter", "lat": 38.894224666666666, "is_reserved": 0, "lon": -76.93244566666667, "fusion_lon": 0.0, "is_disabled": 0, "fusion_lat": 0.0, "bike_id": "47b50d99713952a38d1c16a27f634b04", "rental_uris": {"ios": "https://dc.lft.to/lastmile_qr_scan", "android": "https://dc.lft.to/lastmile_qr_scan"}}, {"name": "10ba93885fb2036974cf6e94dc234608", "type": "electric_scooter", "lat": 38.956525166666665, "is_reserved": 0, "lon": -77.03288633333334, "fusion_lon": 0.0, "is_disabled": 0, "fusion_lat": 0.0, "bike_id": "10ba93885fb2036974cf6e94dc234608", "rental_uris": {"ios": "https://dc.lft.to/lastmile_qr_scan", "android": "https://dc.lft.to/lastmile_qr_scan"}}, {"name": "a77ee747e1f99be48d74b8b046c00f32", "type": "electric_scooter", "lat": 38.91882616666667, "is_reserved": 0, "lon": -77.03466833333333, "fusion_lon": 0.0, "is_disabled": 0, "fusion_lat": 0.0, "bike_id": "a77ee747e1f99be48d74b8b046c00f32", "rental_uris": {"ios": "https://dc.lft.to/lastmile_qr_scan", "android": "https://dc.lft.to/lastmile_qr_scan"}}, {"name": "638dcd6da4ecfa57f77c4c76eefef1a9", "type": "electric_scooter", "lat": 38.923768, "is_reserved": 0, "lon": -77.03140883333333, "fusion_lon": 0.0, "is_disabled": 0, "fusion_lat": 0.0, "bike_id": "638dcd6da4ecfa57f77c4c76eefef1a9", "rental_uris": {"ios": "https://dc.lft.to/lastmile_qr_scan", "android": "https://dc.lft.to/lastmile_qr_scan"}}, {"name": "0e139e6034b9e90bc16c0eea8b1586ff", "type": "electric_scooter", "lat": 38.9026745, "is_reserved": 0, "lon": -77.03848183333334, "fusion_lon": 0.0, "is_disabled": 0, "fusion_lat": 0.0, "bike_id": "0e139e6034b9e90bc16c0eea8b1586ff", "rental_uris": {"ios": "https://dc.lft.to/lastmile_qr_scan", "android": "https://dc.lft.to/lastmile_qr_scan"}}, {"name": "216cae8fd97b3d47e63f22dc802ca3b7", "type": "electric_scooter", "lat": 38.93462816666667, "is_reserved": 0, "lon": -77.07288716666666, "fusion_lon": 0.0, "is_disabled": 0, "fusion_lat": 0.0, "bike_id": "216cae8fd97b3d47e63f22dc802ca3b7", "rental_uris": {"ios": "https://dc.lft.to/lastmile_qr_scan", "android": "https://dc.lft.to/lastmile_qr_scan"}}, {"name": "1ce526c0e57fd431bc66cd8da7b43b56", "type": "electric_scooter", "lat": 38.932215666666664, "is_reserved": 0, "lon": -77.02841683333334, "fusion_lon": 0.0, "is_disabled": 0, "fusion_lat": 0.0, "bike_id": "1ce526c0e57fd431bc66cd8da7b43b56", "rental_uris": {"ios": "https://dc.lft.to/lastmile_qr_scan", "android": "https://dc.lft.to/lastmile_qr_scan"}}, {"name": "41a809b28b21a3fe6873d8acdb56c81d", "type": "electric_scooter", "lat": 38.899688833333336, "is_reserved": 0, "lon": -77.031236, "fusion_lon": 0.0, "is_disabled": 0, "fusion_lat": 0.0, "bike_id": "41a809b28b21a3fe6873d8acdb56c81d", "rental_uris": {"ios": "https://dc.lft.to/lastmile_qr_scan", "android": "https://dc.lft.to/lastmile_qr_scan"}}, {"name": "51c8471f81e95f7bdfb35e8b781756fd", "type": "electric_scooter", "lat": 38.917172666666666, "is_reserved": 0, "lon": -77.02894733333333, "fusion_lon": 0.0, "is_disabled": 0, "fusion_lat": 0.0, "bike_id": "51c8471f81e95f7bdfb35e8b781756fd", "rental_uris": {"ios": "https://dc.lft.to/lastmile_qr_scan", "android": "https://dc.lft.to/lastmile_qr_scan"}}, {"name": "f28d39e962c550e0e4bdce460299b71d", "type": "electric_scooter", "lat": 38.87194683333333, "is_reserved": 0, "lon": -77.0057855, "fusion_lon": 0.0, "is_disabled": 0, "fusion_lat": 0.0, "bike_id": "f28d39e962c550e0e4bdce460299b71d", "rental_uris": {"ios": "https://dc.lft.to/lastmile_qr_scan", "android": "https://dc.lft.to/lastmile_qr_scan"}}, {"name": "8031ba2036ab5a0976d1ceb41dd44af8", "type": "electric_scooter", "lat": 38.91463316666667, "is_reserved": 0, "lon": -77.01990683333334, "fusion_lon": 0.0, "is_disabled": 0, "fusion_lat": 0.0, "bike_id": "8031ba2036ab5a0976d1ceb41dd44af8", "rental_uris": {"ios": "https://dc.lft.to/lastmile_qr_scan", "android": "https://dc.lft.to/lastmile_qr_scan"}}, {"name": "f9e51ac14739ca4c6d19042e7c747f2c", "type": "electric_scooter", "lat": 38.8934765, "is_reserved": 0, "lon": -76.94950383333334, "fusion_lon": 0.0, "is_disabled": 0, "fusion_lat": 0.0, "bike_id": "f9e51ac14739ca4c6d19042e7c747f2c", "rental_uris": {"ios": "https://dc.lft.to/lastmile_qr_scan", "android": "https://dc.lft.to/lastmile_qr_scan"}}, {"name": "a3a9c8a7a8786f14d851660b0b94e280", "type": "electric_scooter", "lat": 38.918783, "is_reserved": 0, "lon": -77.043496, "fusion_lon": 0.0, "is_disabled": 0, "fusion_lat": 0.0, "bike_id": "a3a9c8a7a8786f14d851660b0b94e280", "rental_uris": {"ios": "https://dc.lft.to/lastmile_qr_scan", "android": "https://dc.lft.to/lastmile_qr_scan"}}, {"name": "8710fa5b79129eccbdf9b9d918135569", "type": "electric_scooter", "lat": 38.87088333333333, "is_reserved": 0, "lon": -77.0121255, "fusion_lon": 0.0, "is_disabled": 0, "fusion_lat": 0.0, "bike_id": "8710fa5b79129eccbdf9b9d918135569", "rental_uris": {"ios": "https://dc.lft.to/lastmile_qr_scan", "android": "https://dc.lft.to/lastmile_qr_scan"}}, {"name": "d613b139da56cd50d30df737ae4b0a81", "type": "electric_scooter", "lat": 38.92490466666667, "is_reserved": 0, "lon": -77.0227405, "fusion_lon": 0.0, "is_disabled": 0, "fusion_lat": 0.0, "bike_id": "d613b139da56cd50d30df737ae4b0a81", "rental_uris": {"ios": "https://dc.lft.to/lastmile_qr_scan", "android": "https://dc.lft.to/lastmile_qr_scan"}}, {"name": "f6cbce17d1d9b7c74a891235fd62d8f5", "type": "electric_scooter", "lat": 38.896266, "is_reserved": 0, "lon": -77.05024833333333, "fusion_lon": 0.0, "is_disabled": 0, "fusion_lat": 0.0, "bike_id": "f6cbce17d1d9b7c74a891235fd62d8f5", "rental_uris": {"ios": "https://dc.lft.to/lastmile_qr_scan", "android": "https://dc.lft.to/lastmile_qr_scan"}}, {"name": "62730b59b6f3985d25c6821ab51b5050", "type": "electric_scooter", "lat": 38.901297166666666, "is_reserved": 0, "lon": -77.0400765, "fusion_lon": 0.0, "is_disabled": 0, "fusion_lat": 0.0, "bike_id": "62730b59b6f3985d25c6821ab51b5050", "rental_uris": {"ios": "https://dc.lft.to/lastmile_qr_scan", "android": "https://dc.lft.to/lastmile_qr_scan"}}, {"name": "18ecdbcd9d95c906a2c877289610034f", "type": "electric_scooter", "lat": 38.916135833333335, "is_reserved": 0, "lon": -77.0259995, "fusion_lon": 0.0, "is_disabled": 0, "fusion_lat": 0.0, "bike_id": "18ecdbcd9d95c906a2c877289610034f", "rental_uris": {"ios": "https://dc.lft.to/lastmile_qr_scan", "android": "https://dc.lft.to/lastmile_qr_scan"}}, {"name": "436389a79853dfe5f12071643e621542", "type": "electric_scooter", "lat": 38.862427, "is_reserved": 0, "lon": -76.99492133333334, "fusion_lon": 0.0, "is_disabled": 0, "fusion_lat": 0.0, "bike_id": "436389a79853dfe5f12071643e621542", "rental_uris": {"ios": "https://dc.lft.to/lastmile_qr_scan", "android": "https://dc.lft.to/lastmile_qr_scan"}}, {"name": "e193808b39421fc27d9478e98e61b362", "type": "electric_bike", "lat": 38.9590955, "is_reserved": 0, "lon": -77.00155216666667, "fusion_lon": 0.0, "is_disabled": 0, "fusion_lat": 0.0, "bike_id": "e193808b39421fc27d9478e98e61b362", "rental_uris": {"ios": "https://dc.lft.to/lastmile_qr_scan", "android": "https://dc.lft.to/lastmile_qr_scan"}}, {"name": "432c95b5007018bb65c6e24554056dcb", "type": "electric_scooter", "lat": 38.89729966666667, "is_reserved": 0, "lon": -77.03243733333333, "fusion_lon": 0.0, "is_disabled": 0, "fusion_lat": 0.0, "bike_id": "432c95b5007018bb65c6e24554056dcb", "rental_uris": {"ios": "https://dc.lft.to/lastmile_qr_scan", "android": "https://dc.lft.to/lastmile_qr_scan"}}, {"name": "26055cf0b00e3b3983fc3c63ffd567c1", "type": "electric_scooter", "lat": 38.90166033333333, "is_reserved": 0, "lon": -77.0293795, "fusion_lon": 0.0, "is_disabled": 0, "fusion_lat": 0.0, "bike_id": "26055cf0b00e3b3983fc3c63ffd567c1", "rental_uris": {"ios": "https://dc.lft.to/lastmile_qr_scan", "android": "https://dc.lft.to/lastmile_qr_scan"}}, {"name": "8baddb074b8be222ead50ad8b5b2e186", "type": "electric_scooter", "lat": 38.930605166666666, "is_reserved": 0, "lon": -77.02318183333334, "fusion_lon": 0.0, "is_disabled": 0, "fusion_lat": 0.0, "bike_id": "8baddb074b8be222ead50ad8b5b2e186", "rental_uris": {"ios": "https://dc.lft.to/lastmile_qr_scan", "android": "https://dc.lft.to/lastmile_qr_scan"}}, {"name": "d148b1faadb0181e1585804faff00d00", "type": "electric_scooter", "lat": 38.91256716666667, "is_reserved": 0, "lon": -77.00762716666667, "fusion_lon": 0.0, "is_disabled": 0, "fusion_lat": 0.0, "bike_id": "d148b1faadb0181e1585804faff00d00", "rental_uris": {"ios": "https://dc.lft.to/lastmile_qr_scan", "android": "https://dc.lft.to/lastmile_qr_scan"}}, {"name": "bdff3a935d3db6f7d95fa67047d5e560", "type": "electric_scooter", "lat": 38.92222066666667, "is_reserved": 0, "lon": -77.04240733333333, "fusion_lon": 0.0, "is_disabled": 0, "fusion_lat": 0.0, "bike_id": "bdff3a935d3db6f7d95fa67047d5e560", "rental_uris": {"ios": "https://dc.lft.to/lastmile_qr_scan", "android": "https://dc.lft.to/lastmile_qr_scan"}}, {"name": "db0ba725eddf7c993f6bdbbaeb40a277", "type": "electric_scooter", "lat": 38.9216605, "is_reserved": 0, "lon": -77.04032666666667, "fusion_lon": 0.0, "is_disabled": 0, "fusion_lat": 0.0, "bike_id": "db0ba725eddf7c993f6bdbbaeb40a277", "rental_uris": {"ios": "https://dc.lft.to/lastmile_qr_scan", "android": "https://dc.lft.to/lastmile_qr_scan"}}, {"name": "4cccf6c99655fed15205305934340342", "type": "electric_bike", "lat": 38.928538333333336, "is_reserved": 0, "lon": -77.10676016666666, "fusion_lon": 0.0, "is_disabled": 0, "fusion_lat": 0.0, "bike_id": "4cccf6c99655fed15205305934340342", "rental_uris": {"ios": "https://dc.lft.to/lastmile_qr_scan", "android": "https://dc.lft.to/lastmile_qr_scan"}}, {"name": "4a4afddec52990036e6757a1e92338fa", "type": "electric_scooter", "lat": 38.894905333333334, "is_reserved": 0, "lon": -77.01095716666667, "fusion_lon": 0.0, "is_disabled": 0, "fusion_lat": 0.0, "bike_id": "4a4afddec52990036e6757a1e92338fa", "rental_uris": {"ios": "https://dc.lft.to/lastmile_qr_scan", "android": "https://dc.lft.to/lastmile_qr_scan"}}, {"name": "c947f871f58de3adbaf60a6d5591a97a", "type": "electric_scooter", "lat": 38.91266316666667, "is_reserved": 0, "lon": -77.03545433333333, "fusion_lon": 0.0, "is_disabled": 0, "fusion_lat": 0.0, "bike_id": "c947f871f58de3adbaf60a6d5591a97a", "rental_uris": {"ios": "https://dc.lft.to/lastmile_qr_scan", "android": "https://dc.lft.to/lastmile_qr_scan"}}, {"name": "cf76bc13c9d071613e50237d1184f12d", "type": "electric_scooter", "lat": 38.88349083333333, "is_reserved": 0, "lon": -76.9493205, "fusion_lon": 0.0, "is_disabled": 0, "fusion_lat": 0.0, "bike_id": "cf76bc13c9d071613e50237d1184f12d", "rental_uris": {"ios": "https://dc.lft.to/lastmile_qr_scan", "android": "https://dc.lft.to/lastmile_qr_scan"}}, {"name": "4f2297faf79c1d5d9bd42c90414c999a", "type": "electric_scooter", "lat": 38.863741166666664, "is_reserved": 0, "lon": -77.01361283333334, "fusion_lon": 0.0, "is_disabled": 0, "fusion_lat": 0.0, "bike_id": "4f2297faf79c1d5d9bd42c90414c999a", "rental_uris": {"ios": "https://dc.lft.to/lastmile_qr_scan", "android": "https://dc.lft.to/lastmile_qr_scan"}}, {"name": "3cc9bcbd8a6a6bd850360344d242ab47", "type": "electric_scooter", "lat": 38.89221716666667, "is_reserved": 0, "lon": -77.04641216666667, "fusion_lon": 0.0, "is_disabled": 0, "fusion_lat": 0.0, "bike_id": "3cc9bcbd8a6a6bd850360344d242ab47", "rental_uris": {"ios": "https://dc.lft.to/lastmile_qr_scan", "android": "https://dc.lft.to/lastmile_qr_scan"}}, {"name": "a5466bfc3cd613aa6029568ef9b94874", "type": "electric_scooter", "lat": 38.92246033333333, "is_reserved": 0, "lon": -77.0425405, "fusion_lon": 0.0, "is_disabled": 0, "fusion_lat": 0.0, "bike_id": "a5466bfc3cd613aa6029568ef9b94874", "rental_uris": {"ios": "https://dc.lft.to/lastmile_qr_scan", "android": "https://dc.lft.to/lastmile_qr_scan"}}, {"name": "3795c28817a8d49f6a74cb8ebe70ea0e", "type": "electric_scooter", "lat": 38.89222316666667, "is_reserved": 0, "lon": -77.04262166666666, "fusion_lon": 0.0, "is_disabled": 0, "fusion_lat": 0.0, "bike_id": "3795c28817a8d49f6a74cb8ebe70ea0e", "rental_uris": {"ios": "https://dc.lft.to/lastmile_qr_scan", "android": "https://dc.lft.to/lastmile_qr_scan"}}, {"name": "7d6b2d9bb98525b549df6669d9b0f7f6", "type": "electric_scooter", "lat": 38.92560833333334, "is_reserved": 0, "lon": -77.06281566666667, "fusion_lon": 0.0, "is_disabled": 0, "fusion_lat": 0.0, "bike_id": "7d6b2d9bb98525b549df6669d9b0f7f6", "rental_uris": {"ios": "https://dc.lft.to/lastmile_qr_scan", "android": "https://dc.lft.to/lastmile_qr_scan"}}, {"name": "de004de93cb2428b30812aaa4d8bc288", "type": "electric_scooter", "lat": 38.91408783333333, "is_reserved": 0, "lon": -77.008052, "fusion_lon": 0.0, "is_disabled": 0, "fusion_lat": 0.0, "bike_id": "de004de93cb2428b30812aaa4d8bc288", "rental_uris": {"ios": "https://dc.lft.to/lastmile_qr_scan", "android": "https://dc.lft.to/lastmile_qr_scan"}}, {"name": "47fb31a0faf43c57380398cc86713336", "type": "electric_scooter", "lat": 38.91635216666667, "is_reserved": 0, "lon": -77.02697416666666, "fusion_lon": 0.0, "is_disabled": 0, "fusion_lat": 0.0, "bike_id": "47fb31a0faf43c57380398cc86713336", "rental_uris": {"ios": "https://dc.lft.to/lastmile_qr_scan", "android": "https://dc.lft.to/lastmile_qr_scan"}}, {"name": "5454896529074c88bea08ff2399dea7b", "type": "electric_scooter", "lat": 38.902358666666665, "is_reserved": 0, "lon": -76.974115, "fusion_lon": 0.0, "is_disabled": 0, "fusion_lat": 0.0, "bike_id": "5454896529074c88bea08ff2399dea7b", "rental_uris": {"ios": "https://dc.lft.to/lastmile_qr_scan", "android": "https://dc.lft.to/lastmile_qr_scan"}}, {"name": "866437538210c141027cc06eea00746d", "type": "electric_scooter", "lat": 38.89185233333333, "is_reserved": 0, "lon": -77.01532983333334, "fusion_lon": 0.0, "is_disabled": 0, "fusion_lat": 0.0, "bike_id": "866437538210c141027cc06eea00746d", "rental_uris": {"ios": "https://dc.lft.to/lastmile_qr_scan", "android": "https://dc.lft.to/lastmile_qr_scan"}}, {"name": "d6a80398b6852579d4771f560cc88796", "type": "electric_scooter", "lat": 38.925821666666664, "is_reserved": 0, "lon": -77.02844816666666, "fusion_lon": 0.0, "is_disabled": 0, "fusion_lat": 0.0, "bike_id": "d6a80398b6852579d4771f560cc88796", "rental_uris": {"ios": "https://dc.lft.to/lastmile_qr_scan", "android": "https://dc.lft.to/lastmile_qr_scan"}}, {"name": "4e4d2339e2230abeee7c65c6a23e0d3f", "type": "electric_bike", "lat": 38.861631, "is_reserved": 0, "lon": -77.13092666666667, "fusion_lon": 0.0, "is_disabled": 0, "fusion_lat": 0.0, "bike_id": "4e4d2339e2230abeee7c65c6a23e0d3f", "rental_uris": {"ios": "https://dc.lft.to/lastmile_qr_scan", "android": "https://dc.lft.to/lastmile_qr_scan"}}, {"name": "3bf721c1e0d7b965fca6695954e1ccd9", "type": "electric_scooter", "lat": 38.91978983333333, "is_reserved": 0, "lon": -77.041201, "fusion_lon": 0.0, "is_disabled": 0, "fusion_lat": 0.0, "bike_id": "3bf721c1e0d7b965fca6695954e1ccd9", "rental_uris": {"ios": "https://dc.lft.to/lastmile_qr_scan", "android": "https://dc.lft.to/lastmile_qr_scan"}}, {"name": "319eb4fb90fb3986714a09ec08411b5f", "type": "electric_bike", "lat": 38.967575, "is_reserved": 0, "lon": -77.09166416666666, "fusion_lon": 0.0, "is_disabled": 0, "fusion_lat": 0.0, "bike_id": "319eb4fb90fb3986714a09ec08411b5f", "rental_uris": {"ios": "https://dc.lft.to/lastmile_qr_scan", "android": "https://dc.lft.to/lastmile_qr_scan"}}, {"name": "45c5e87145b87cf873555f6a716f1d2b", "type": "electric_scooter", "lat": 38.93489316666667, "is_reserved": 0, "lon": -77.032827, "fusion_lon": 0.0, "is_disabled": 0, "fusion_lat": 0.0, "bike_id": "45c5e87145b87cf873555f6a716f1d2b", "rental_uris": {"ios": "https://dc.lft.to/lastmile_qr_scan", "android": "https://dc.lft.to/lastmile_qr_scan"}}, {"name": "0ed29b9d727e0e3a4d9c28b4a2aedde4", "type": "electric_scooter", "lat": 38.91454866666667, "is_reserved": 0, "lon": -77.0388485, "fusion_lon": 0.0, "is_disabled": 0, "fusion_lat": 0.0, "bike_id": "0ed29b9d727e0e3a4d9c28b4a2aedde4", "rental_uris": {"ios": "https://dc.lft.to/lastmile_qr_scan", "android": "https://dc.lft.to/lastmile_qr_scan"}}, {"name": "fcc7d6aa25695359111c90eb399fd01a", "type": "electric_scooter", "lat": 38.932295, "is_reserved": 0, "lon": -77.03814816666667, "fusion_lon": 0.0, "is_disabled": 0, "fusion_lat": 0.0, "bike_id": "fcc7d6aa25695359111c90eb399fd01a", "rental_uris": {"ios": "https://dc.lft.to/lastmile_qr_scan", "android": "https://dc.lft.to/lastmile_qr_scan"}}, {"name": "c1eb5b45c6bdb68f61dcb3610b1ad8f3", "type": "electric_scooter", "lat": 38.902507, "is_reserved": 0, "lon": -77.03395683333333, "fusion_lon": 0.0, "is_disabled": 0, "fusion_lat": 0.0, "bike_id": "c1eb5b45c6bdb68f61dcb3610b1ad8f3", "rental_uris": {"ios": "https://dc.lft.to/lastmile_qr_scan", "android": "https://dc.lft.to/lastmile_qr_scan"}}, {"name": "e8e520cc3c0cc20a13a28731e1b28b02", "type": "electric_bike", "lat": 38.8803875, "is_reserved": 0, "lon": -77.01320733333333, "fusion_lon": 0.0, "is_disabled": 0, "fusion_lat": 0.0, "bike_id": "e8e520cc3c0cc20a13a28731e1b28b02", "rental_uris": {"ios": "https://dc.lft.to/lastmile_qr_scan", "android": "https://dc.lft.to/lastmile_qr_scan"}}, {"name": "4bef4b8a6c97afe412790bb545fb1b58", "type": "electric_scooter", "lat": 38.91480133333334, "is_reserved": 0, "lon": -77.039427, "fusion_lon": 0.0, "is_disabled": 0, "fusion_lat": 0.0, "bike_id": "4bef4b8a6c97afe412790bb545fb1b58", "rental_uris": {"ios": "https://dc.lft.to/lastmile_qr_scan", "android": "https://dc.lft.to/lastmile_qr_scan"}}, {"name": "200cb30152221160ccd51e27a8c768b9", "type": "electric_scooter", "lat": 38.93982166666667, "is_reserved": 0, "lon": -77.02594683333334, "fusion_lon": 0.0, "is_disabled": 0, "fusion_lat": 0.0, "bike_id": "200cb30152221160ccd51e27a8c768b9", "rental_uris": {"ios": "https://dc.lft.to/lastmile_qr_scan", "android": "https://dc.lft.to/lastmile_qr_scan"}}, {"name": "4218907646d08519301eca6fd7e894ba", "type": "electric_scooter", "lat": 38.911106333333336, "is_reserved": 0, "lon": -77.034746, "fusion_lon": 0.0, "is_disabled": 0, "fusion_lat": 0.0, "bike_id": "4218907646d08519301eca6fd7e894ba", "rental_uris": {"ios": "https://dc.lft.to/lastmile_qr_scan", "android": "https://dc.lft.to/lastmile_qr_scan"}}, {"name": "9c0a36610b6aa87415b8bc3ffb323b83", "type": "electric_scooter", "lat": 38.90588183333333, "is_reserved": 0, "lon": -77.0161805, "fusion_lon": 0.0, "is_disabled": 0, "fusion_lat": 0.0, "bike_id": "9c0a36610b6aa87415b8bc3ffb323b83", "rental_uris": {"ios": "https://dc.lft.to/lastmile_qr_scan", "android": "https://dc.lft.to/lastmile_qr_scan"}}, {"name": "f757d430243614394c1976bafecbc22a", "type": "electric_scooter", "lat": 38.91556283333333, "is_reserved": 0, "lon": -77.02046483333334, "fusion_lon": 0.0, "is_disabled": 0, "fusion_lat": 0.0, "bike_id": "f757d430243614394c1976bafecbc22a", "rental_uris": {"ios": "https://dc.lft.to/lastmile_qr_scan", "android": "https://dc.lft.to/lastmile_qr_scan"}}, {"name": "69d2cb465d464bb6295983a5af01fe83", "type": "electric_scooter", "lat": 38.9047595, "is_reserved": 0, "lon": -77.04178116666667, "fusion_lon": 0.0, "is_disabled": 0, "fusion_lat": 0.0, "bike_id": "69d2cb465d464bb6295983a5af01fe83", "rental_uris": {"ios": "https://dc.lft.to/lastmile_qr_scan", "android": "https://dc.lft.to/lastmile_qr_scan"}}, {"name": "f5a0d8ac9001fe7519490d8ee963c3bb", "type": "electric_scooter", "lat": 38.90567216666667, "is_reserved": 0, "lon": -77.03588216666667, "fusion_lon": 0.0, "is_disabled": 0, "fusion_lat": 0.0, "bike_id": "f5a0d8ac9001fe7519490d8ee963c3bb", "rental_uris": {"ios": "https://dc.lft.to/lastmile_qr_scan", "android": "https://dc.lft.to/lastmile_qr_scan"}}, {"name": "428556b814f0de4cfb1c0ac655c1d6af", "type": "electric_scooter", "lat": 38.967253, "is_reserved": 0, "lon": -77.023473, "fusion_lon": 0.0, "is_disabled": 0, "fusion_lat": 0.0, "bike_id": "428556b814f0de4cfb1c0ac655c1d6af", "rental_uris": {"ios": "https://dc.lft.to/lastmile_qr_scan", "android": "https://dc.lft.to/lastmile_qr_scan"}}, {"name": "4c8332d608add8809f95ce563366c23f", "type": "electric_scooter", "lat": 38.84293233333333, "is_reserved": 0, "lon": -76.99949616666666, "fusion_lon": 0.0, "is_disabled": 0, "fusion_lat": 0.0, "bike_id": "4c8332d608add8809f95ce563366c23f", "rental_uris": {"ios": "https://dc.lft.to/lastmile_qr_scan", "android": "https://dc.lft.to/lastmile_qr_scan"}}, {"name": "6d7f492090d638cbc49bc224e6eb7328", "type": "electric_bike", "lat": 38.8524835, "is_reserved": 0, "lon": -77.1142915, "fusion_lon": 0.0, "is_disabled": 0, "fusion_lat": 0.0, "bike_id": "6d7f492090d638cbc49bc224e6eb7328", "rental_uris": {"ios": "https://dc.lft.to/lastmile_qr_scan", "android": "https://dc.lft.to/lastmile_qr_scan"}}, {"name": "863c9e23d1e4c9924b1a568eb50ffe42", "type": "electric_scooter", "lat": 38.877128, "is_reserved": 0, "lon": -77.01679033333333, "fusion_lon": 0.0, "is_disabled": 0, "fusion_lat": 0.0, "bike_id": "863c9e23d1e4c9924b1a568eb50ffe42", "rental_uris": {"ios": "https://dc.lft.to/lastmile_qr_scan", "android": "https://dc.lft.to/lastmile_qr_scan"}}, {"name": "018e3016f1eb518bfac7912ce5e1a296", "type": "electric_scooter", "lat": 38.92233316666667, "is_reserved": 0, "lon": -77.04250066666667, "fusion_lon": 0.0, "is_disabled": 0, "fusion_lat": 0.0, "bike_id": "018e3016f1eb518bfac7912ce5e1a296", "rental_uris": {"ios": "https://dc.lft.to/lastmile_qr_scan", "android": "https://dc.lft.to/lastmile_qr_scan"}}, {"name": "b5ef812761fc4bc4f750fe28c878435b", "type": "electric_scooter", "lat": 38.935410833333336, "is_reserved": 0, "lon": -77.033147, "fusion_lon": 0.0, "is_disabled": 0, "fusion_lat": 0.0, "bike_id": "b5ef812761fc4bc4f750fe28c878435b", "rental_uris": {"ios": "https://dc.lft.to/lastmile_qr_scan", "android": "https://dc.lft.to/lastmile_qr_scan"}}, {"name": "f88c92870a42418372f5ae24ab2fce69", "type": "electric_scooter", "lat": 38.9052165, "is_reserved": 0, "lon": -77.02614766666666, "fusion_lon": 0.0, "is_disabled": 0, "fusion_lat": 0.0, "bike_id": "f88c92870a42418372f5ae24ab2fce69", "rental_uris": {"ios": "https://dc.lft.to/lastmile_qr_scan", "android": "https://dc.lft.to/lastmile_qr_scan"}}, {"name": "d7449ff58fdc2cd5e20cf765c4ae5a4c", "type": "electric_scooter", "lat": 38.90124516666667, "is_reserved": 0, "lon": -77.04375883333333, "fusion_lon": 0.0, "is_disabled": 0, "fusion_lat": 0.0, "bike_id": "d7449ff58fdc2cd5e20cf765c4ae5a4c", "rental_uris": {"ios": "https://dc.lft.to/lastmile_qr_scan", "android": "https://dc.lft.to/lastmile_qr_scan"}}, {"name": "aa04acfeb040c69598ce0e46360f087b", "type": "electric_scooter", "lat": 38.90106166666666, "is_reserved": 0, "lon": -77.05002583333334, "fusion_lon": 0.0, "is_disabled": 0, "fusion_lat": 0.0, "bike_id": "aa04acfeb040c69598ce0e46360f087b", "rental_uris": {"ios": "https://dc.lft.to/lastmile_qr_scan", "android": "https://dc.lft.to/lastmile_qr_scan"}}, {"name": "03609a389f9b380c95bf3f0d4b69f7ce", "type": "electric_scooter", "lat": 38.9191325, "is_reserved": 0, "lon": -77.03005416666667, "fusion_lon": 0.0, "is_disabled": 0, "fusion_lat": 0.0, "bike_id": "03609a389f9b380c95bf3f0d4b69f7ce", "rental_uris": {"ios": "https://dc.lft.to/lastmile_qr_scan", "android": "https://dc.lft.to/lastmile_qr_scan"}}, {"name": "365225873f5f4337f43dc6ca443a9309", "type": "electric_scooter", "lat": 38.902736, "is_reserved": 0, "lon": -77.038487, "fusion_lon": 0.0, "is_disabled": 0, "fusion_lat": 0.0, "bike_id": "365225873f5f4337f43dc6ca443a9309", "rental_uris": {"ios": "https://dc.lft.to/lastmile_qr_scan", "android": "https://dc.lft.to/lastmile_qr_scan"}}, {"name": "ea06f9afa2e53944620e140f1017fc18", "type": "electric_scooter", "lat": 38.899409666666664, "is_reserved": 0, "lon": -77.02994333333334, "fusion_lon": 0.0, "is_disabled": 0, "fusion_lat": 0.0, "bike_id": "ea06f9afa2e53944620e140f1017fc18", "rental_uris": {"ios": "https://dc.lft.to/lastmile_qr_scan", "android": "https://dc.lft.to/lastmile_qr_scan"}}, {"name": "f6d46c3259ed8be976ef2a862ddf1e1e", "type": "electric_bike", "lat": 38.869113166666665, "is_reserved": 0, "lon": -77.13179483333333, "fusion_lon": 0.0, "is_disabled": 0, "fusion_lat": 0.0, "bike_id": "f6d46c3259ed8be976ef2a862ddf1e1e", "rental_uris": {"ios": "https://dc.lft.to/lastmile_qr_scan", "android": "https://dc.lft.to/lastmile_qr_scan"}}, {"name": "c929f10e78213efb4566615933c2680f", "type": "electric_scooter", "lat": 38.91242616666667, "is_reserved": 0, "lon": -77.001061, "fusion_lon": 0.0, "is_disabled": 0, "fusion_lat": 0.0, "bike_id": "c929f10e78213efb4566615933c2680f", "rental_uris": {"ios": "https://dc.lft.to/lastmile_qr_scan", "android": "https://dc.lft.to/lastmile_qr_scan"}}, {"name": "b7a17477adb17aa7d60d6293a1d29cef", "type": "electric_scooter", "lat": 38.90269216666667, "is_reserved": 0, "lon": -77.05907816666667, "fusion_lon": 0.0, "is_disabled": 0, "fusion_lat": 0.0, "bike_id": "b7a17477adb17aa7d60d6293a1d29cef", "rental_uris": {"ios": "https://dc.lft.to/lastmile_qr_scan", "android": "https://dc.lft.to/lastmile_qr_scan"}}, {"name": "8f738da5107f644877daf8c6f9b8051d", "type": "electric_scooter", "lat": 38.90064066666667, "is_reserved": 0, "lon": -77.016656, "fusion_lon": 0.0, "is_disabled": 0, "fusion_lat": 0.0, "bike_id": "8f738da5107f644877daf8c6f9b8051d", "rental_uris": {"ios": "https://dc.lft.to/lastmile_qr_scan", "android": "https://dc.lft.to/lastmile_qr_scan"}}, {"name": "21e6bc57d3ab5e5ffa9a91efd8971155", "type": "electric_scooter", "lat": 38.84429733333333, "is_reserved": 0, "lon": -76.99779533333333, "fusion_lon": 0.0, "is_disabled": 0, "fusion_lat": 0.0, "bike_id": "21e6bc57d3ab5e5ffa9a91efd8971155", "rental_uris": {"ios": "https://dc.lft.to/lastmile_qr_scan", "android": "https://dc.lft.to/lastmile_qr_scan"}}, {"name": "ac95c6ed4d4345c7af1d14e834671356", "type": "electric_scooter", "lat": 38.92348233333333, "is_reserved": 0, "lon": -77.05086033333333, "fusion_lon": 0.0, "is_disabled": 0, "fusion_lat": 0.0, "bike_id": "ac95c6ed4d4345c7af1d14e834671356", "rental_uris": {"ios": "https://dc.lft.to/lastmile_qr_scan", "android": "https://dc.lft.to/lastmile_qr_scan"}}, {"name": "32060b30a42fd7e74efffbdb96fe62ac", "type": "electric_scooter", "lat": 38.91266, "is_reserved": 0, "lon": -77.031683, "fusion_lon": 0.0, "is_disabled": 0, "fusion_lat": 0.0, "bike_id": "32060b30a42fd7e74efffbdb96fe62ac", "rental_uris": {"ios": "https://dc.lft.to/lastmile_qr_scan", "android": "https://dc.lft.to/lastmile_qr_scan"}}, {"name": "17f6a9efaa407e7d9f581504250d2cae", "type": "electric_scooter", "lat": 38.90566466666667, "is_reserved": 0, "lon": -77.00230716666667, "fusion_lon": 0.0, "is_disabled": 0, "fusion_lat": 0.0, "bike_id": "17f6a9efaa407e7d9f581504250d2cae", "rental_uris": {"ios": "https://dc.lft.to/lastmile_qr_scan", "android": "https://dc.lft.to/lastmile_qr_scan"}}, {"name": "565210fce178fb94efc0560ee4d43326", "type": "electric_scooter", "lat": 38.892231833333334, "is_reserved": 0, "lon": -77.04263166666667, "fusion_lon": 0.0, "is_disabled": 0, "fusion_lat": 0.0, "bike_id": "565210fce178fb94efc0560ee4d43326", "rental_uris": {"ios": "https://dc.lft.to/lastmile_qr_scan", "android": "https://dc.lft.to/lastmile_qr_scan"}}, {"name": "68119f89bf837031eab2c2bb60a11240", "type": "electric_scooter", "lat": 38.906907, "is_reserved": 0, "lon": -77.01340383333333, "fusion_lon": 0.0, "is_disabled": 0, "fusion_lat": 0.0, "bike_id": "68119f89bf837031eab2c2bb60a11240", "rental_uris": {"ios": "https://dc.lft.to/lastmile_qr_scan", "android": "https://dc.lft.to/lastmile_qr_scan"}}, {"name": "8d03e5e83290318c75e9cf79820da4dd", "type": "electric_scooter", "lat": 38.926235166666665, "is_reserved": 0, "lon": -77.00575866666667, "fusion_lon": 0.0, "is_disabled": 0, "fusion_lat": 0.0, "bike_id": "8d03e5e83290318c75e9cf79820da4dd", "rental_uris": {"ios": "https://dc.lft.to/lastmile_qr_scan", "android": "https://dc.lft.to/lastmile_qr_scan"}}, {"name": "3b448a9c04a70bc596d469c4c8a753e8", "type": "electric_scooter", "lat": 38.916507333333335, "is_reserved": 0, "lon": -77.0318415, "fusion_lon": 0.0, "is_disabled": 0, "fusion_lat": 0.0, "bike_id": "3b448a9c04a70bc596d469c4c8a753e8", "rental_uris": {"ios": "https://dc.lft.to/lastmile_qr_scan", "android": "https://dc.lft.to/lastmile_qr_scan"}}, {"name": "2badc6fb80297ddc660d2267c30809aa", "type": "electric_scooter", "lat": 38.925173, "is_reserved": 0, "lon": -77.02357483333333, "fusion_lon": 0.0, "is_disabled": 0, "fusion_lat": 0.0, "bike_id": "2badc6fb80297ddc660d2267c30809aa", "rental_uris": {"ios": "https://dc.lft.to/lastmile_qr_scan", "android": "https://dc.lft.to/lastmile_qr_scan"}}, {"name": "fd17e0e17479a6b24b7f28cd50dfa42d", "type": "electric_scooter", "lat": 38.893711, "is_reserved": 0, "lon": -76.94996666666667, "fusion_lon": 0.0, "is_disabled": 0, "fusion_lat": 0.0, "bike_id": "fd17e0e17479a6b24b7f28cd50dfa42d", "rental_uris": {"ios": "https://dc.lft.to/lastmile_qr_scan", "android": "https://dc.lft.to/lastmile_qr_scan"}}, {"name": "6258eaa903144ebe14d8c19d19f20682", "type": "electric_scooter", "lat": 38.90644533333333, "is_reserved": 0, "lon": -76.98576233333333, "fusion_lon": 0.0, "is_disabled": 0, "fusion_lat": 0.0, "bike_id": "6258eaa903144ebe14d8c19d19f20682", "rental_uris": {"ios": "https://dc.lft.to/lastmile_qr_scan", "android": "https://dc.lft.to/lastmile_qr_scan"}}, {"name": "bd534a75e979cca240fd20cd196a663c", "type": "electric_scooter", "lat": 38.89954933333333, "is_reserved": 0, "lon": -77.05391466666667, "fusion_lon": 0.0, "is_disabled": 0, "fusion_lat": 0.0, "bike_id": "bd534a75e979cca240fd20cd196a663c", "rental_uris": {"ios": "https://dc.lft.to/lastmile_qr_scan", "android": "https://dc.lft.to/lastmile_qr_scan"}}, {"name": "10c273fe7dc70965f7bec597da6f0acd", "type": "electric_scooter", "lat": 38.89617, "is_reserved": 0, "lon": -77.028072, "fusion_lon": 0.0, "is_disabled": 0, "fusion_lat": 0.0, "bike_id": "10c273fe7dc70965f7bec597da6f0acd", "rental_uris": {"ios": "https://dc.lft.to/lastmile_qr_scan", "android": "https://dc.lft.to/lastmile_qr_scan"}}, {"name": "b89b192c8e7b1a0bf20503723eb5338f", "type": "electric_scooter", "lat": 38.916845333333335, "is_reserved": 0, "lon": -77.02799666666667, "fusion_lon": 0.0, "is_disabled": 0, "fusion_lat": 0.0, "bike_id": "b89b192c8e7b1a0bf20503723eb5338f", "rental_uris": {"ios": "https://dc.lft.to/lastmile_qr_scan", "android": "https://dc.lft.to/lastmile_qr_scan"}}, {"name": "9c0681fa6442cabe337898b9ce506ce1", "type": "electric_scooter", "lat": 38.900065166666664, "is_reserved": 0, "lon": -76.99158633333333, "fusion_lon": 0.0, "is_disabled": 0, "fusion_lat": 0.0, "bike_id": "9c0681fa6442cabe337898b9ce506ce1", "rental_uris": {"ios": "https://dc.lft.to/lastmile_qr_scan", "android": "https://dc.lft.to/lastmile_qr_scan"}}, {"name": "0dec3798857aa52ae4f1013e7cd31c87", "type": "electric_scooter", "lat": 38.93382116666667, "is_reserved": 0, "lon": -77.02981566666666, "fusion_lon": 0.0, "is_disabled": 0, "fusion_lat": 0.0, "bike_id": "0dec3798857aa52ae4f1013e7cd31c87", "rental_uris": {"ios": "https://dc.lft.to/lastmile_qr_scan", "android": "https://dc.lft.to/lastmile_qr_scan"}}, {"name": "6f76aff1096cfcd062e84deb629da123", "type": "electric_scooter", "lat": 38.93977533333333, "is_reserved": 0, "lon": -77.02894383333333, "fusion_lon": 0.0, "is_disabled": 0, "fusion_lat": 0.0, "bike_id": "6f76aff1096cfcd062e84deb629da123", "rental_uris": {"ios": "https://dc.lft.to/lastmile_qr_scan", "android": "https://dc.lft.to/lastmile_qr_scan"}}, {"name": "811a34402825aa49997b58547082886c", "type": "electric_scooter", "lat": 38.92069883333333, "is_reserved": 0, "lon": -77.0345995, "fusion_lon": 0.0, "is_disabled": 0, "fusion_lat": 0.0, "bike_id": "811a34402825aa49997b58547082886c", "rental_uris": {"ios": "https://dc.lft.to/lastmile_qr_scan", "android": "https://dc.lft.to/lastmile_qr_scan"}}, {"name": "50552828f3e98a5f142edd62115278c2", "type": "electric_scooter", "lat": 38.92059416666667, "is_reserved": 0, "lon": -77.03344866666667, "fusion_lon": 0.0, "is_disabled": 0, "fusion_lat": 0.0, "bike_id": "50552828f3e98a5f142edd62115278c2", "rental_uris": {"ios": "https://dc.lft.to/lastmile_qr_scan", "android": "https://dc.lft.to/lastmile_qr_scan"}}, {"name": "0c2776737b294d438a04a099eb207b07", "type": "electric_scooter", "lat": 38.924596, "is_reserved": 0, "lon": -77.03276283333334, "fusion_lon": 0.0, "is_disabled": 0, "fusion_lat": 0.0, "bike_id": "0c2776737b294d438a04a099eb207b07", "rental_uris": {"ios": "https://dc.lft.to/lastmile_qr_scan", "android": "https://dc.lft.to/lastmile_qr_scan"}}, {"name": "c7e6db050dd9acf4d0927064e4e7aa44", "type": "electric_bike", "lat": 38.99938933333333, "is_reserved": 0, "lon": -77.0176885, "fusion_lon": 0.0, "is_disabled": 0, "fusion_lat": 0.0, "bike_id": "c7e6db050dd9acf4d0927064e4e7aa44", "rental_uris": {"ios": "https://dc.lft.to/lastmile_qr_scan", "android": "https://dc.lft.to/lastmile_qr_scan"}}, {"name": "dbe9f6c74d2bfd793e864879de6c4bb9", "type": "electric_scooter", "lat": 38.91598316666666, "is_reserved": 0, "lon": -77.0490335, "fusion_lon": 0.0, "is_disabled": 0, "fusion_lat": 0.0, "bike_id": "dbe9f6c74d2bfd793e864879de6c4bb9", "rental_uris": {"ios": "https://dc.lft.to/lastmile_qr_scan", "android": "https://dc.lft.to/lastmile_qr_scan"}}, {"name": "b101ff88ce751e6b74d0090bad28f75a", "type": "electric_scooter", "lat": 38.86701633333333, "is_reserved": 0, "lon": -76.98710516666667, "fusion_lon": 0.0, "is_disabled": 0, "fusion_lat": 0.0, "bike_id": "b101ff88ce751e6b74d0090bad28f75a", "rental_uris": {"ios": "https://dc.lft.to/lastmile_qr_scan", "android": "https://dc.lft.to/lastmile_qr_scan"}}, {"name": "1bb379f21328ed3ad525a2d260744cd3", "type": "electric_bike", "lat": 38.9662445, "is_reserved": 0, "lon": -76.97670883333333, "fusion_lon": 0.0, "is_disabled": 0, "fusion_lat": 0.0, "bike_id": "1bb379f21328ed3ad525a2d260744cd3", "rental_uris": {"ios": "https://dc.lft.to/lastmile_qr_scan", "android": "https://dc.lft.to/lastmile_qr_scan"}}, {"name": "1c89216cf9cf59abe7c2706ec0847f2a", "type": "electric_bike", "lat": 38.856912333333334, "is_reserved": 0, "lon": -77.0853765, "fusion_lon": 0.0, "is_disabled": 0, "fusion_lat": 0.0, "bike_id": "1c89216cf9cf59abe7c2706ec0847f2a", "rental_uris": {"ios": "https://dc.lft.to/lastmile_qr_scan", "android": "https://dc.lft.to/lastmile_qr_scan"}}, {"name": "2914fadf95d8bd0e5eb0efe84a99248d", "type": "electric_scooter", "lat": 38.91901333333333, "is_reserved": 0, "lon": -77.04169316666666, "fusion_lon": 0.0, "is_disabled": 0, "fusion_lat": 0.0, "bike_id": "2914fadf95d8bd0e5eb0efe84a99248d", "rental_uris": {"ios": "https://dc.lft.to/lastmile_qr_scan", "android": "https://dc.lft.to/lastmile_qr_scan"}}, {"name": "40154c45f184f87a2012a8f96e30b7cb", "type": "electric_scooter", "lat": 38.91123283333334, "is_reserved": 0, "lon": -77.03731533333334, "fusion_lon": 0.0, "is_disabled": 0, "fusion_lat": 0.0, "bike_id": "40154c45f184f87a2012a8f96e30b7cb", "rental_uris": {"ios": "https://dc.lft.to/lastmile_qr_scan", "android": "https://dc.lft.to/lastmile_qr_scan"}}, {"name": "18514181667f0514f176e28172b001f6", "type": "electric_scooter", "lat": 38.936052333333336, "is_reserved": 0, "lon": -77.05861683333333, "fusion_lon": 0.0, "is_disabled": 0, "fusion_lat": 0.0, "bike_id": "18514181667f0514f176e28172b001f6", "rental_uris": {"ios": "https://dc.lft.to/lastmile_qr_scan", "android": "https://dc.lft.to/lastmile_qr_scan"}}, {"name": "72e74a63cfe068ce38b04f838d46da01", "type": "electric_scooter", "lat": 38.923078, "is_reserved": 0, "lon": -77.04464433333334, "fusion_lon": 0.0, "is_disabled": 0, "fusion_lat": 0.0, "bike_id": "72e74a63cfe068ce38b04f838d46da01", "rental_uris": {"ios": "https://dc.lft.to/lastmile_qr_scan", "android": "https://dc.lft.to/lastmile_qr_scan"}}, {"name": "af0c4a24d25d7efd627a111f2fdab7a5", "type": "electric_scooter", "lat": 38.9134035, "is_reserved": 0, "lon": -77.031896, "fusion_lon": 0.0, "is_disabled": 0, "fusion_lat": 0.0, "bike_id": "af0c4a24d25d7efd627a111f2fdab7a5", "rental_uris": {"ios": "https://dc.lft.to/lastmile_qr_scan", "android": "https://dc.lft.to/lastmile_qr_scan"}}, {"name": "14c9d1d9fc0bf8dc6816bcc251e48567", "type": "electric_scooter", "lat": 38.90131483333333, "is_reserved": 0, "lon": -77.04203666666666, "fusion_lon": 0.0, "is_disabled": 0, "fusion_lat": 0.0, "bike_id": "14c9d1d9fc0bf8dc6816bcc251e48567", "rental_uris": {"ios": "https://dc.lft.to/lastmile_qr_scan", "android": "https://dc.lft.to/lastmile_qr_scan"}}, {"name": "3536c45e8606aeac3aeeb436a9475147", "type": "electric_scooter", "lat": 38.87765866666667, "is_reserved": 0, "lon": -77.00813266666667, "fusion_lon": 0.0, "is_disabled": 0, "fusion_lat": 0.0, "bike_id": "3536c45e8606aeac3aeeb436a9475147", "rental_uris": {"ios": "https://dc.lft.to/lastmile_qr_scan", "android": "https://dc.lft.to/lastmile_qr_scan"}}, {"name": "7919d1550ec1d857bf69ac245677f885", "type": "electric_scooter", "lat": 38.895520833333336, "is_reserved": 0, "lon": -76.9266315, "fusion_lon": 0.0, "is_disabled": 0, "fusion_lat": 0.0, "bike_id": "7919d1550ec1d857bf69ac245677f885", "rental_uris": {"ios": "https://dc.lft.to/lastmile_qr_scan", "android": "https://dc.lft.to/lastmile_qr_scan"}}, {"name": "b357bebeb13deaea3a08b9ec5a5ff6b0", "type": "electric_scooter", "lat": 38.920024, "is_reserved": 0, "lon": -76.9581435, "fusion_lon": 0.0, "is_disabled": 0, "fusion_lat": 0.0, "bike_id": "b357bebeb13deaea3a08b9ec5a5ff6b0", "rental_uris": {"ios": "https://dc.lft.to/lastmile_qr_scan", "android": "https://dc.lft.to/lastmile_qr_scan"}}, {"name": "c85e46e4a802da3406eea56c30d0e377", "type": "electric_bike", "lat": 38.95171716666667, "is_reserved": 0, "lon": -77.03748216666666, "fusion_lon": 0.0, "is_disabled": 0, "fusion_lat": 0.0, "bike_id": "c85e46e4a802da3406eea56c30d0e377", "rental_uris": {"ios": "https://dc.lft.to/lastmile_qr_scan", "android": "https://dc.lft.to/lastmile_qr_scan"}}, {"name": "a93b4bfab47adb09b71a06fd9875a824", "type": "electric_scooter", "lat": 38.923424, "is_reserved": 0, "lon": -77.04177983333334, "fusion_lon": 0.0, "is_disabled": 0, "fusion_lat": 0.0, "bike_id": "a93b4bfab47adb09b71a06fd9875a824", "rental_uris": {"ios": "https://dc.lft.to/lastmile_qr_scan", "android": "https://dc.lft.to/lastmile_qr_scan"}}, {"name": "65f9abc14e2a321fe6c23b6410169a08", "type": "electric_scooter", "lat": 38.909625166666665, "is_reserved": 0, "lon": -77.03935533333333, "fusion_lon": 0.0, "is_disabled": 0, "fusion_lat": 0.0, "bike_id": "65f9abc14e2a321fe6c23b6410169a08", "rental_uris": {"ios": "https://dc.lft.to/lastmile_qr_scan", "android": "https://dc.lft.to/lastmile_qr_scan"}}, {"name": "e9e304034283109d8bfbf556a72a849f", "type": "electric_scooter", "lat": 38.90061716666666, "is_reserved": 0, "lon": -77.0453695, "fusion_lon": 0.0, "is_disabled": 0, "fusion_lat": 0.0, "bike_id": "e9e304034283109d8bfbf556a72a849f", "rental_uris": {"ios": "https://dc.lft.to/lastmile_qr_scan", "android": "https://dc.lft.to/lastmile_qr_scan"}}, {"name": "a0bdd0a4be0656de0b455b9bc97c05b9", "type": "electric_scooter", "lat": 38.909228666666664, "is_reserved": 0, "lon": -77.03199616666667, "fusion_lon": 0.0, "is_disabled": 0, "fusion_lat": 0.0, "bike_id": "a0bdd0a4be0656de0b455b9bc97c05b9", "rental_uris": {"ios": "https://dc.lft.to/lastmile_qr_scan", "android": "https://dc.lft.to/lastmile_qr_scan"}}, {"name": "ac4e5602a798cddcc8d8bdb11aa9b06a", "type": "electric_scooter", "lat": 38.901224166666665, "is_reserved": 0, "lon": -77.04155133333333, "fusion_lon": 0.0, "is_disabled": 0, "fusion_lat": 0.0, "bike_id": "ac4e5602a798cddcc8d8bdb11aa9b06a", "rental_uris": {"ios": "https://dc.lft.to/lastmile_qr_scan", "android": "https://dc.lft.to/lastmile_qr_scan"}}, {"name": "2e2ba0feee42b6b231974d8ef34e402b", "type": "electric_scooter", "lat": 38.906095666666666, "is_reserved": 0, "lon": -77.0748575, "fusion_lon": 0.0, "is_disabled": 0, "fusion_lat": 0.0, "bike_id": "2e2ba0feee42b6b231974d8ef34e402b", "rental_uris": {"ios": "https://dc.lft.to/lastmile_qr_scan", "android": "https://dc.lft.to/lastmile_qr_scan"}}, {"name": "5536efb8cc9d308655f7e8b4a5867c4b", "type": "electric_scooter", "lat": 38.93428266666667, "is_reserved": 0, "lon": -77.04004433333333, "fusion_lon": 0.0, "is_disabled": 0, "fusion_lat": 0.0, "bike_id": "5536efb8cc9d308655f7e8b4a5867c4b", "rental_uris": {"ios": "https://dc.lft.to/lastmile_qr_scan", "android": "https://dc.lft.to/lastmile_qr_scan"}}, {"name": "7e8c26745d550a5b5a70ee02934b1f1e", "type": "electric_scooter", "lat": 38.91592816666667, "is_reserved": 0, "lon": -77.04476766666667, "fusion_lon": 0.0, "is_disabled": 0, "fusion_lat": 0.0, "bike_id": "7e8c26745d550a5b5a70ee02934b1f1e", "rental_uris": {"ios": "https://dc.lft.to/lastmile_qr_scan", "android": "https://dc.lft.to/lastmile_qr_scan"}}, {"name": "f6ae0a54839e3f38e9123ef5aa0e9f2c", "type": "electric_scooter", "lat": 38.885136833333334, "is_reserved": 0, "lon": -77.03068, "fusion_lon": 0.0, "is_disabled": 0, "fusion_lat": 0.0, "bike_id": "f6ae0a54839e3f38e9123ef5aa0e9f2c", "rental_uris": {"ios": "https://dc.lft.to/lastmile_qr_scan", "android": "https://dc.lft.to/lastmile_qr_scan"}}, {"name": "9392e321ebb8a50be3f137947f4db2cd", "type": "electric_scooter", "lat": 38.8832685, "is_reserved": 0, "lon": -77.01754033333333, "fusion_lon": 0.0, "is_disabled": 0, "fusion_lat": 0.0, "bike_id": "9392e321ebb8a50be3f137947f4db2cd", "rental_uris": {"ios": "https://dc.lft.to/lastmile_qr_scan", "android": "https://dc.lft.to/lastmile_qr_scan"}}, {"name": "afd64033c580ad06057ce981ac34425b", "type": "electric_scooter", "lat": 38.916832, "is_reserved": 0, "lon": -77.02404716666666, "fusion_lon": 0.0, "is_disabled": 0, "fusion_lat": 0.0, "bike_id": "afd64033c580ad06057ce981ac34425b", "rental_uris": {"ios": "https://dc.lft.to/lastmile_qr_scan", "android": "https://dc.lft.to/lastmile_qr_scan"}}, {"name": "8a33c802037cb0afa738944d6dbf4449", "type": "electric_scooter", "lat": 38.90867983333333, "is_reserved": 0, "lon": -77.03195866666667, "fusion_lon": 0.0, "is_disabled": 0, "fusion_lat": 0.0, "bike_id": "8a33c802037cb0afa738944d6dbf4449", "rental_uris": {"ios": "https://dc.lft.to/lastmile_qr_scan", "android": "https://dc.lft.to/lastmile_qr_scan"}}, {"name": "c5068b65336ceb6a289aa77acd8f4e72", "type": "electric_bike", "lat": 39.03883916666667, "is_reserved": 0, "lon": -76.99042666666666, "fusion_lon": 0.0, "is_disabled": 0, "fusion_lat": 0.0, "bike_id": "c5068b65336ceb6a289aa77acd8f4e72", "rental_uris": {"ios": "https://dc.lft.to/lastmile_qr_scan", "android": "https://dc.lft.to/lastmile_qr_scan"}}, {"name": "a345ea921fb4aac222bcd0446fd4e2de", "type": "electric_scooter", "lat": 38.943023833333335, "is_reserved": 0, "lon": -77.05936333333334, "fusion_lon": 0.0, "is_disabled": 0, "fusion_lat": 0.0, "bike_id": "a345ea921fb4aac222bcd0446fd4e2de", "rental_uris": {"ios": "https://dc.lft.to/lastmile_qr_scan", "android": "https://dc.lft.to/lastmile_qr_scan"}}, {"name": "f485402cb8669dcefe2f3a00138cd91a", "type": "electric_scooter", "lat": 38.900784333333334, "is_reserved": 0, "lon": -77.05019366666667, "fusion_lon": 0.0, "is_disabled": 0, "fusion_lat": 0.0, "bike_id": "f485402cb8669dcefe2f3a00138cd91a", "rental_uris": {"ios": "https://dc.lft.to/lastmile_qr_scan", "android": "https://dc.lft.to/lastmile_qr_scan"}}, {"name": "12898f91db8b202e54c6324f8bb46883", "type": "electric_scooter", "lat": 38.8999595, "is_reserved": 0, "lon": -77.02203883333334, "fusion_lon": 0.0, "is_disabled": 0, "fusion_lat": 0.0, "bike_id": "12898f91db8b202e54c6324f8bb46883", "rental_uris": {"ios": "https://dc.lft.to/lastmile_qr_scan", "android": "https://dc.lft.to/lastmile_qr_scan"}}, {"name": "3bf672ce72217d896160f9a879c8e155", "type": "electric_bike", "lat": 39.088580666666665, "is_reserved": 0, "lon": -77.178425, "fusion_lon": 0.0, "is_disabled": 0, "fusion_lat": 0.0, "bike_id": "3bf672ce72217d896160f9a879c8e155", "rental_uris": {"ios": "https://dc.lft.to/lastmile_qr_scan", "android": "https://dc.lft.to/lastmile_qr_scan"}}, {"name": "c52d3fe33fce47ad00bd17beaf7b2453", "type": "electric_scooter", "lat": 38.95652533333333, "is_reserved": 0, "lon": -77.0328555, "fusion_lon": 0.0, "is_disabled": 0, "fusion_lat": 0.0, "bike_id": "c52d3fe33fce47ad00bd17beaf7b2453", "rental_uris": {"ios": "https://dc.lft.to/lastmile_qr_scan", "android": "https://dc.lft.to/lastmile_qr_scan"}}, {"name": "c77dcace1c9aeed5509a97d275624b62", "type": "electric_scooter", "lat": 38.90676966666667, "is_reserved": 0, "lon": -77.02710166666667, "fusion_lon": 0.0, "is_disabled": 0, "fusion_lat": 0.0, "bike_id": "c77dcace1c9aeed5509a97d275624b62", "rental_uris": {"ios": "https://dc.lft.to/lastmile_qr_scan", "android": "https://dc.lft.to/lastmile_qr_scan"}}, {"name": "a6b77f88a4c61500dc603972e462de32", "type": "electric_scooter", "lat": 38.86536183333333, "is_reserved": 0, "lon": -76.987067, "fusion_lon": 0.0, "is_disabled": 0, "fusion_lat": 0.0, "bike_id": "a6b77f88a4c61500dc603972e462de32", "rental_uris": {"ios": "https://dc.lft.to/lastmile_qr_scan", "android": "https://dc.lft.to/lastmile_qr_scan"}}, {"name": "a2535fc9ee9b0ec7b2cf15032b6db39b", "type": "electric_scooter", "lat": 38.9274275, "is_reserved": 0, "lon": -77.012032, "fusion_lon": 0.0, "is_disabled": 0, "fusion_lat": 0.0, "bike_id": "a2535fc9ee9b0ec7b2cf15032b6db39b", "rental_uris": {"ios": "https://dc.lft.to/lastmile_qr_scan", "android": "https://dc.lft.to/lastmile_qr_scan"}}, {"name": "394f2ed52ac192e57911ea7df466d03b", "type": "electric_bike", "lat": 38.928548666666664, "is_reserved": 0, "lon": -77.22214533333333, "fusion_lon": 0.0, "is_disabled": 0, "fusion_lat": 0.0, "bike_id": "394f2ed52ac192e57911ea7df466d03b", "rental_uris": {"ios": "https://dc.lft.to/lastmile_qr_scan", "android": "https://dc.lft.to/lastmile_qr_scan"}}, {"name": "a1d548f87a2503bed71678d152806c42", "type": "electric_bike", "lat": 38.94709533333333, "is_reserved": 0, "lon": -76.942379, "fusion_lon": 0.0, "is_disabled": 0, "fusion_lat": 0.0, "bike_id": "a1d548f87a2503bed71678d152806c42", "rental_uris": {"ios": "https://dc.lft.to/lastmile_qr_scan", "android": "https://dc.lft.to/lastmile_qr_scan"}}, {"name": "087a039ac38027e625850df5c3886346", "type": "electric_scooter", "lat": 38.90140733333333, "is_reserved": 0, "lon": -77.04011916666667, "fusion_lon": 0.0, "is_disabled": 0, "fusion_lat": 0.0, "bike_id": "087a039ac38027e625850df5c3886346", "rental_uris": {"ios": "https://dc.lft.to/lastmile_qr_scan", "android": "https://dc.lft.to/lastmile_qr_scan"}}, {"name": "b48be0b2f25782e05381b62b3b09152b", "type": "electric_scooter", "lat": 38.905046166666665, "is_reserved": 0, "lon": -77.053138, "fusion_lon": 0.0, "is_disabled": 0, "fusion_lat": 0.0, "bike_id": "b48be0b2f25782e05381b62b3b09152b", "rental_uris": {"ios": "https://dc.lft.to/lastmile_qr_scan", "android": "https://dc.lft.to/lastmile_qr_scan"}}, {"name": "4c862b58da441817967994acf63c4102", "type": "electric_scooter", "lat": 38.939096166666666, "is_reserved": 0, "lon": -77.060492, "fusion_lon": 0.0, "is_disabled": 0, "fusion_lat": 0.0, "bike_id": "4c862b58da441817967994acf63c4102", "rental_uris": {"ios": "https://dc.lft.to/lastmile_qr_scan", "android": "https://dc.lft.to/lastmile_qr_scan"}}, {"name": "61f0928443cf414756ad703c0eeb4a46", "type": "electric_scooter", "lat": 38.87125966666667, "is_reserved": 0, "lon": -77.00600033333333, "fusion_lon": 0.0, "is_disabled": 0, "fusion_lat": 0.0, "bike_id": "61f0928443cf414756ad703c0eeb4a46", "rental_uris": {"ios": "https://dc.lft.to/lastmile_qr_scan", "android": "https://dc.lft.to/lastmile_qr_scan"}}, {"name": "ebfd0ef3e9d177dfb482372f607fb02e", "type": "electric_scooter", "lat": 38.8832825, "is_reserved": 0, "lon": -77.0153525, "fusion_lon": 0.0, "is_disabled": 0, "fusion_lat": 0.0, "bike_id": "ebfd0ef3e9d177dfb482372f607fb02e", "rental_uris": {"ios": "https://dc.lft.to/lastmile_qr_scan", "android": "https://dc.lft.to/lastmile_qr_scan"}}, {"name": "f3dfea95645419396d3624dcce8d4274", "type": "electric_scooter", "lat": 38.927400166666665, "is_reserved": 0, "lon": -77.02496283333333, "fusion_lon": 0.0, "is_disabled": 0, "fusion_lat": 0.0, "bike_id": "f3dfea95645419396d3624dcce8d4274", "rental_uris": {"ios": "https://dc.lft.to/lastmile_qr_scan", "android": "https://dc.lft.to/lastmile_qr_scan"}}, {"name": "3c13b97b8b6904769abf4a45aaff1ff9", "type": "electric_scooter", "lat": 38.8923185, "is_reserved": 0, "lon": -77.01272533333334, "fusion_lon": 0.0, "is_disabled": 0, "fusion_lat": 0.0, "bike_id": "3c13b97b8b6904769abf4a45aaff1ff9", "rental_uris": {"ios": "https://dc.lft.to/lastmile_qr_scan", "android": "https://dc.lft.to/lastmile_qr_scan"}}, {"name": "0f39f0d101abefb2a0fee078507bcf50", "type": "electric_scooter", "lat": 38.90012883333333, "is_reserved": 0, "lon": -77.00702216666667, "fusion_lon": 0.0, "is_disabled": 0, "fusion_lat": 0.0, "bike_id": "0f39f0d101abefb2a0fee078507bcf50", "rental_uris": {"ios": "https://dc.lft.to/lastmile_qr_scan", "android": "https://dc.lft.to/lastmile_qr_scan"}}, {"name": "60ebfcbc0f5fe4f53a263cf1620fee0c", "type": "electric_scooter", "lat": 38.88029133333333, "is_reserved": 0, "lon": -76.98833116666667, "fusion_lon": 0.0, "is_disabled": 0, "fusion_lat": 0.0, "bike_id": "60ebfcbc0f5fe4f53a263cf1620fee0c", "rental_uris": {"ios": "https://dc.lft.to/lastmile_qr_scan", "android": "https://dc.lft.to/lastmile_qr_scan"}}, {"name": "ac76d9fd6ef3d0f22c10b216abb79806", "type": "electric_scooter", "lat": 38.91012466666667, "is_reserved": 0, "lon": -76.99673466666667, "fusion_lon": 0.0, "is_disabled": 0, "fusion_lat": 0.0, "bike_id": "ac76d9fd6ef3d0f22c10b216abb79806", "rental_uris": {"ios": "https://dc.lft.to/lastmile_qr_scan", "android": "https://dc.lft.to/lastmile_qr_scan"}}, {"name": "a5a08bc6db5eb0487f938d53c6626400", "type": "electric_scooter", "lat": 38.9340045, "is_reserved": 0, "lon": -77.038885, "fusion_lon": 0.0, "is_disabled": 0, "fusion_lat": 0.0, "bike_id": "a5a08bc6db5eb0487f938d53c6626400", "rental_uris": {"ios": "https://dc.lft.to/lastmile_qr_scan", "android": "https://dc.lft.to/lastmile_qr_scan"}}, {"name": "f94ef90c0c6564d0843a00bc6969d0ba", "type": "electric_bike", "lat": 38.8074685, "is_reserved": 0, "lon": -77.09426316666666, "fusion_lon": 0.0, "is_disabled": 0, "fusion_lat": 0.0, "bike_id": "f94ef90c0c6564d0843a00bc6969d0ba", "rental_uris": {"ios": "https://dc.lft.to/lastmile_qr_scan", "android": "https://dc.lft.to/lastmile_qr_scan"}}, {"name": "fdd7604842eb541531796d2db00e6208", "type": "electric_scooter", "lat": 38.9054305, "is_reserved": 0, "lon": -77.02191583333334, "fusion_lon": 0.0, "is_disabled": 0, "fusion_lat": 0.0, "bike_id": "fdd7604842eb541531796d2db00e6208", "rental_uris": {"ios": "https://dc.lft.to/lastmile_qr_scan", "android": "https://dc.lft.to/lastmile_qr_scan"}}, {"name": "5b9c970098bb57900c6bf09ac198fd15", "type": "electric_scooter", "lat": 38.8666115, "is_reserved": 0, "lon": -76.98887233333333, "fusion_lon": 0.0, "is_disabled": 0, "fusion_lat": 0.0, "bike_id": "5b9c970098bb57900c6bf09ac198fd15", "rental_uris": {"ios": "https://dc.lft.to/lastmile_qr_scan", "android": "https://dc.lft.to/lastmile_qr_scan"}}, {"name": "7c0d307fa9308a45e46757d2d0b734a6", "type": "electric_scooter", "lat": 38.924715666666664, "is_reserved": 0, "lon": -77.039065, "fusion_lon": 0.0, "is_disabled": 0, "fusion_lat": 0.0, "bike_id": "7c0d307fa9308a45e46757d2d0b734a6", "rental_uris": {"ios": "https://dc.lft.to/lastmile_qr_scan", "android": "https://dc.lft.to/lastmile_qr_scan"}}, {"name": "210b2913c0421065867ead30ce3fe86c", "type": "electric_scooter", "lat": 38.899917333333335, "is_reserved": 0, "lon": -77.01986033333333, "fusion_lon": 0.0, "is_disabled": 0, "fusion_lat": 0.0, "bike_id": "210b2913c0421065867ead30ce3fe86c", "rental_uris": {"ios": "https://dc.lft.to/lastmile_qr_scan", "android": "https://dc.lft.to/lastmile_qr_scan"}}, {"name": "81ca0db833e23b42b79144a606bd6935", "type": "electric_scooter", "lat": 38.911007833333336, "is_reserved": 0, "lon": -77.0365945, "fusion_lon": 0.0, "is_disabled": 0, "fusion_lat": 0.0, "bike_id": "81ca0db833e23b42b79144a606bd6935", "rental_uris": {"ios": "https://dc.lft.to/lastmile_qr_scan", "android": "https://dc.lft.to/lastmile_qr_scan"}}, {"name": "d4650cb9236286ecf9e1c37e410880b6", "type": "electric_scooter", "lat": 38.89345683333333, "is_reserved": 0, "lon": -76.991453, "fusion_lon": 0.0, "is_disabled": 0, "fusion_lat": 0.0, "bike_id": "d4650cb9236286ecf9e1c37e410880b6", "rental_uris": {"ios": "https://dc.lft.to/lastmile_qr_scan", "android": "https://dc.lft.to/lastmile_qr_scan"}}, {"name": "7d6f1a890f1a2b19196cf746719411dd", "type": "electric_scooter", "lat": 38.917345833333336, "is_reserved": 0, "lon": -77.02299133333334, "fusion_lon": 0.0, "is_disabled": 0, "fusion_lat": 0.0, "bike_id": "7d6f1a890f1a2b19196cf746719411dd", "rental_uris": {"ios": "https://dc.lft.to/lastmile_qr_scan", "android": "https://dc.lft.to/lastmile_qr_scan"}},