{"data": {"bikes": [{"fusion_lat": 0.0, "name": "ff7f6e87ad7b5baa5d94ef2239d7953e", "is_disabled": 0, "rental_uris": {"android": "https://dc.lft.to/lastmile_qr_scan", "ios": "https://dc.lft.to/lastmile_qr_scan"}, "fusion_lon": 0.0, "lat": 38.8964665, "bike_id": "ff7f6e87ad7b5baa5d94ef2239d7953e", "type": "electric_scooter", "is_reserved": 0, "lon": -77.032351}, {"fusion_lat": 0.0, "name": "f3e50cf1261e09ba923f567f395b8497", "is_disabled": 0, "rental_uris": {"android": "https://dc.lft.to/lastmile_qr_scan", "ios": "https://dc.lft.to/lastmile_qr_scan"}, "fusion_lon": 0.0, "lat": 38.914399, "bike_id": "f3e50cf1261e09ba923f567f395b8497", "type": "electric_scooter", "is_reserved": 0, "lon": -77.0220235}, {"fusion_lat": 0.0, "name": "7f8cf222bbb977fd02b028a8e8d53a01", "is_disabled": 0, "rental_uris": {"android": "https://dc.lft.to/lastmile_qr_scan", "ios": "https://dc.lft.to/lastmile_qr_scan"}, "fusion_lon": 0.0, "lat": 38.9139875, "bike_id": "7f8cf222bbb977fd02b028a8e8d53a01", "type": "electric_scooter", "is_reserved": 0, "lon": -77.03184583333334}, {"fusion_lat": 0.0, "name": "44506656929a9aedf6175cfeddb14ed4", "is_disabled": 0, "rental_uris": {"android": "https://dc.lft.to/lastmile_qr_scan", "ios": "https://dc.lft.to/lastmile_qr_scan"}, "fusion_lon": 0.0, "lat": 38.904281833333336, "bike_id": "44506656929a9aedf6175cfeddb14ed4", "type": "electric_scooter", "is_reserved": 0, "lon": -76.949833}, {"fusion_lat": 0.0, "name": "85e292c062d4d120ebbb97006ee9b432", "is_disabled": 0, "rental_uris": {"android": "https://dc.lft.to/lastmile_qr_scan", "ios": "https://dc.lft.to/lastmile_qr_scan"}, "fusion_lon": 0.0, "lat": 38.91810233333333, "bike_id": "85e292c062d4d120ebbb97006ee9b432", "type": "electric_scooter", "is_reserved": 0, "lon": -77.037839}, {"fusion_lat": 0.0, "name": "795e9057c2535367ea2ced92895c64da", "is_disabled": 0, "rental_uris": {"android": "https://dc.lft.to/lastmile_qr_scan", "ios": "https://dc.lft.to/lastmile_qr_scan"}, "fusion_lon": 0.0, "lat": 38.92175783333333, "bike_id": "795e9057c2535367ea2ced92895c64da", "type": "electric_scooter", "is_reserved": 0, "lon": -77.03845283333334}, {"fusion_lat": 0.0, "name": "36a4095f7674a6a16ab500057328ca54", "is_disabled": 0, "rental_uris": {"android": "https://dc.lft.to/lastmile_qr_scan", "ios": "https://dc.lft.to/lastmile_qr_scan"}, "fusion_lon": 0.0, "lat": 38.92370833333333, "bike_id": "36a4095f7674a6a16ab500057328ca54", "type": "electric_scooter", "is_reserved": 0, "lon": -77.030637}, {"fusion_lat": 0.0, "name": "cb6b9d375b66391fb2c7beb2772cba1c", "is_disabled": 0, "rental_uris": {"android": "https://dc.lft.to/lastmile_qr_scan", "ios": "https://dc.lft.to/lastmile_qr_scan"}, "fusion_lon": 0.0, "lat": 38.916185, "bike_id": "cb6b9d375b66391fb2c7beb2772cba1c", "type": "electric_scooter", "is_reserved": 0, "lon": -77.036439}, {"fusion_lat": 0.0, "name": "74936574318f14c5660ca019895f35c6", "is_disabled": 0, "rental_uris": {"android": "https://dc.lft.to/lastmile_qr_scan", "ios": "https://dc.lft.to/lastmile_qr_scan"}, "fusion_lon": 0.0, "lat": 38.9307065, "bike_id": "74936574318f14c5660ca019895f35c6", "type": "electric_scooter", "is_reserved": 0, "lon": -77.03201983333334}, {"fusion_lat": 0.0, "name": "98fdd8b0de4bf3fced11540a5b4bc2eb", "is_disabled": 0, "rental_uris": {"android": "https://dc.lft.to/lastmile_qr_scan", "ios": "https://dc.lft.to/lastmile_qr_scan"}, "fusion_lon": 0.0, "lat": 38.924926166666665, "bike_id": "98fdd8b0de4bf3fced11540a5b4bc2eb", "type": "electric_scooter", "is_reserved": 0, "lon": -77.05756433333333}, {"fusion_lat": 0.0, "name": "c0f43c3a7251c734b5dfbf835e4de6f9", "is_disabled": 0, "rental_uris": {"android": "https://dc.lft.to/lastmile_qr_scan", "ios": "https://dc.lft.to/lastmile_qr_scan"}, "fusion_lon": 0.0, "lat": 38.909577, "bike_id": "c0f43c3a7251c734b5dfbf835e4de6f9", "type": "electric_scooter", "is_reserved": 0, "lon": -77.01040283333333}, {"fusion_lat": 0.0, "name": "ffa8939b4d4ea2dbe2080993e44bce89", "is_disabled": 0, "rental_uris": {"android": "https://dc.lft.to/lastmile_qr_scan", "ios": "https://dc.lft.to/lastmile_qr_scan"}, "fusion_lon": 0.0, "lat": 38.90019866666667, "bike_id": "ffa8939b4d4ea2dbe2080993e44bce89", "type": "electric_scooter", "is_reserved": 0, "lon": -77.00668383333333}, {"fusion_lat": 0.0, "name": "13014769543f9b9cf88cf9a822380907", "is_disabled": 0, "rental_uris": {"android": "https://dc.lft.to/lastmile_qr_scan", "ios": "https://dc.lft.to/lastmile_qr_scan"}, "fusion_lon": 0.0, "lat": 38.90067766666667, "bike_id": "13014769543f9b9cf88cf9a822380907", "type": "electric_scooter", "is_reserved": 0, "lon": -77.045324}, {"fusion_lat": 0.0, "name": "90eb8a21fe870306e0781b3f94263c9e", "is_disabled": 0, "rental_uris": {"android": "https://dc.lft.to/lastmile_qr_scan", "ios": "https://dc.lft.to/lastmile_qr_scan"}, "fusion_lon": 0.0, "lat": 38.8852925, "bike_id": "90eb8a21fe870306e0781b3f94263c9e", "type": "electric_scooter", "is_reserved": 0, "lon": -77.01530683333333}, {"fusion_lat": 0.0, "name": "168b18ed8796be065fa19f9366d16936", "is_disabled": 0, "rental_uris": {"android": "https://dc.lft.to/lastmile_qr_scan", "ios": "https://dc.lft.to/lastmile_qr_scan"}, "fusion_lon": 0.0, "lat": 38.898675833333336, "bike_id": "168b18ed8796be065fa19f9366d16936", "type": "electric_scooter", "is_reserved": 0, "lon": -77.0190455}, {"fusion_lat": 0.0, "name": "2e3d65cbe6850d904d4c6a9e5b1dcee7", "is_disabled": 0, "rental_uris": {"android": "https://dc.lft.to/lastmile_qr_scan", "ios": "https://dc.lft.to/lastmile_qr_scan"}, "fusion_lon": 0.0, "lat": 38.91490483333333, "bike_id": "2e3d65cbe6850d904d4c6a9e5b1dcee7", "type": "electric_scooter", "is_reserved": 0, "lon": -77.01327266666667}, {"fusion_lat": 0.0, "name": "5bf132928371a133b135f8e6c7cf5a09", "is_disabled": 0, "rental_uris": {"android": "https://dc.lft.to/lastmile_qr_scan", "ios": "https://dc.lft.to/lastmile_qr_scan"}, "fusion_lon": 0.0, "lat": 38.91029916666667, "bike_id": "5bf132928371a133b135f8e6c7cf5a09", "type": "electric_scooter", "is_reserved": 0, "lon": -77.0219705}, {"fusion_lat": 0.0, "name": "c70983b39450c6d25d73bcc0fdd2fc59", "is_disabled": 0, "rental_uris": {"android": "https://dc.lft.to/lastmile_qr_scan", "ios": "https://dc.lft.to/lastmile_qr_scan"}, "fusion_lon": 0.0, "lat": 38.905270333333334, "bike_id": "c70983b39450c6d25d73bcc0fdd2fc59", "type": "electric_scooter", "is_reserved": 0, "lon": -77.06458383333333}, {"fusion_lat": 0.0, "name": "34e112e2e05a2050d0d4334093c1ce92", "is_disabled": 0, "rental_uris": {"android": "https://dc.lft.to/lastmile_qr_scan", "ios": "https://dc.lft.to/lastmile_qr_scan"}, "fusion_lon": 0.0, "lat": 38.914264, "bike_id": "34e112e2e05a2050d0d4334093c1ce92", "type": "electric_scooter", "is_reserved": 0, "lon": -77.0321355}, {"fusion_lat": 0.0, "name": "58aa03bfa79d0781f1b994159cc4c632", "is_disabled": 0, "rental_uris": {"android": "https://dc.lft.to/lastmile_qr_scan", "ios": "https://dc.lft.to/lastmile_qr_scan"}, "fusion_lon": 0.0, "lat": 38.92467116666667, "bike_id": "58aa03bfa79d0781f1b994159cc4c632", "type": "electric_scooter", "is_reserved": 0, "lon": -77.03634616666666}, {"fusion_lat": 0.0, "name": "c157d197c1f90efa48a692b992c57449", "is_disabled": 0, "rental_uris": {"android": "https://dc.lft.to/lastmile_qr_scan", "ios": "https://dc.lft.to/lastmile_qr_scan"}, "fusion_lon": 0.0, "lat": 38.85357883333333, "bike_id": "c157d197c1f90efa48a692b992c57449", "type": "electric_bike", "is_reserved": 0, "lon": -77.13465133333334}, {"fusion_lat": 0.0, "name": "3f7dac373cb4e22fc1f7a70a78fec6c3", "is_disabled": 0, "rental_uris": {"android": "https://dc.lft.to/lastmile_qr_scan", "ios": "https://dc.lft.to/lastmile_qr_scan"}, "fusion_lon": 0.0, "lat": 38.901429666666665, "bike_id": "3f7dac373cb4e22fc1f7a70a78fec6c3", "type": "electric_scooter", "is_reserved": 0, "lon": -76.99842183333334}, {"fusion_lat": 0.0, "name": "7c4b9e9ee86e74df8fa39bb77a7a3d26", "is_disabled": 0, "rental_uris": {"android": "https://dc.lft.to/lastmile_qr_scan", "ios": "https://dc.lft.to/lastmile_qr_scan"}, "fusion_lon": 0.0, "lat": 38.84758883333333, "bike_id": "7c4b9e9ee86e74df8fa39bb77a7a3d26", "type": "electric_scooter", "is_reserved": 0, "lon": -76.99504066666667}, {"fusion_lat": 0.0, "name": "3d01126df963750d684121c96416761f", "is_disabled": 0, "rental_uris": {"android": "https://dc.lft.to/lastmile_qr_scan", "ios": "https://dc.lft.to/lastmile_qr_scan"}, "fusion_lon": 0.0, "lat": 38.90540083333333, "bike_id": "3d01126df963750d684121c96416761f", "type": "electric_scooter", "is_reserved": 0, "lon": -77.0487405}, {"fusion_lat": 0.0, "name": "a4d9b49a219d1d879acbf819edbae23f", "is_disabled": 0, "rental_uris": {"android": "https://dc.lft.to/lastmile_qr_scan", "ios": "https://dc.lft.to/lastmile_qr_scan"}, "fusion_lon": 0.0, "lat": 38.9867225, "bike_id": "a4d9b49a219d1d879acbf819edbae23f", "type": "electric_bike", "is_reserved": 0, "lon": -77.00000133333333}, {"fusion_lat": 0.0, "name": "2566093d0d4f06cdf39c02840ff00044", "is_disabled": 0, "rental_uris": {"android": "https://dc.lft.to/lastmile_qr_scan", "ios": "https://dc.lft.to/lastmile_qr_scan"}, "fusion_lon": 0.0, "lat": 38.9287015, "bike_id": "2566093d0d4f06cdf39c02840ff00044", "type": "electric_scooter", "is_reserved": 0, "lon": -77.03369133333334}, {"fusion_lat": 0.0, "name": "26e606c12f1ef746f84fa25c91d923fa", "is_disabled": 0, "rental_uris": {"android": "https://dc.lft.to/lastmile_qr_scan", "ios": "https://dc.lft.to/lastmile_qr_scan"}, "fusion_lon": 0.0, "lat": 38.916624166666665, "bike_id": "26e606c12f1ef746f84fa25c91d923fa", "type": "electric_scooter", "is_reserved": 0, "lon": -77.03458083333334}, {"fusion_lat": 0.0, "name": "04fc43dc11215585e16935177f36bce2", "is_disabled": 0, "rental_uris": {"android": "https://dc.lft.to/lastmile_qr_scan", "ios": "https://dc.lft.to/lastmile_qr_scan"}, "fusion_lon": 0.0, "lat": 38.8711705, "bike_id": "04fc43dc11215585e16935177f36bce2", "type": "electric_scooter", "is_reserved": 0, "lon": -76.96587883333333}, {"fusion_lat": 0.0, "name": "65ef8213865110b50437944a9bf77a0e", "is_disabled": 0, "rental_uris": {"android": "https://dc.lft.to/lastmile_qr_scan", "ios": "https://dc.lft.to/lastmile_qr_scan"}, "fusion_lon": 0.0, "lat": 38.994461, "bike_id": "65ef8213865110b50437944a9bf77a0e", "type": "electric_bike", "is_reserved": 0, "lon": -76.99592216666667}, {"fusion_lat": 0.0, "name": "fbd07f54334ddcee9b5093497d07e55c", "is_disabled": 0, "rental_uris": {"android": "https://dc.lft.to/lastmile_qr_scan", "ios": "https://dc.lft.to/lastmile_qr_scan"}, "fusion_lon": 0.0, "lat": 38.88163616666667, "bike_id": "fbd07f54334ddcee9b5093497d07e55c", "type": "electric_scooter", "is_reserved": 0, "lon": -77.0277355}, {"fusion_lat": 0.0, "name": "6b4c47b1578a535df35edaca36a87d66", "is_disabled": 0, "rental_uris": {"android": "https://dc.lft.to/lastmile_qr_scan", "ios": "https://dc.lft.to/lastmile_qr_scan"}, "fusion_lon": 0.0, "lat": 38.940514, "bike_id": "6b4c47b1578a535df35edaca36a87d66", "type": "electric_bike", "is_reserved": 0, "lon": -76.904201}, {"fusion_lat": 0.0, "name": "344bf09b992179df46eeeea11ed5bfe9", "is_disabled": 0, "rental_uris": {"android": "https://dc.lft.to/lastmile_qr_scan", "ios": "https://dc.lft.to/lastmile_qr_scan"}, "fusion_lon": 0.0, "lat": 38.95317566666667, "bike_id": "344bf09b992179df46eeeea11ed5bfe9", "type": "electric_scooter", "is_reserved": 0, "lon": -77.02780683333333}, {"fusion_lat": 0.0, "name": "550be3a432ca82429aabb8d0844dd2db", "is_disabled": 0, "rental_uris": {"android": "https://dc.lft.to/lastmile_qr_scan", "ios": "https://dc.lft.to/lastmile_qr_scan"}, "fusion_lon": 0.0, "lat": 38.92179516666667, "bike_id": "550be3a432ca82429aabb8d0844dd2db", "type": "electric_scooter", "is_reserved": 0, "lon": -76.99796483333333}, {"fusion_lat": 0.0, "name": "dd1c243ff7d9b1d55423fef6966ce6f2", "is_disabled": 0, "rental_uris": {"android": "https://dc.lft.to/lastmile_qr_scan", "ios": "https://dc.lft.to/lastmile_qr_scan"}, "fusion_lon": 0.0, "lat": 38.91545516666667, "bike_id": "dd1c243ff7d9b1d55423fef6966ce6f2", "type": "electric_scooter", "is_reserved": 0, "lon": -77.01270583333333}, {"fusion_lat": 0.0, "name": "981b535e131495e254798bd44c054175", "is_disabled": 0, "rental_uris": {"android": "https://dc.lft.to/lastmile_qr_scan", "ios": "https://dc.lft.to/lastmile_qr_scan"}, "fusion_lon": 0.0, "lat": 38.90699716666666, "bike_id": "981b535e131495e254798bd44c054175", "type": "electric_scooter", "is_reserved": 0, "lon": -76.999752}, {"fusion_lat": 0.0, "name": "4c8ee92bc43dfc59402f86ca13e275fe", "is_disabled": 0, "rental_uris": {"android": "https://dc.lft.to/lastmile_qr_scan", "ios": "https://dc.lft.to/lastmile_qr_scan"}, "fusion_lon": 0.0, "lat": 38.9418175, "bike_id": "4c8ee92bc43dfc59402f86ca13e275fe", "type": "electric_scooter", "is_reserved": 0, "lon": -77.03285466666667}, {"fusion_lat": 0.0, "name": "535d27271f5ab8b0ec3ddb5bb9291b2f", "is_disabled": 0, "rental_uris": {"android": "https://dc.lft.to/lastmile_qr_scan", "ios": "https://dc.lft.to/lastmile_qr_scan"}, "fusion_lon": 0.0, "lat": 38.91722516666667, "bike_id": "535d27271f5ab8b0ec3ddb5bb9291b2f", "type": "electric_scooter", "is_reserved": 0, "lon": -77.02892683333333}, {"fusion_lat": 0.0, "name": "94876b56a2d6d2b90dcc10f73aab8017", "is_disabled": 0, "rental_uris": {"android": "https://dc.lft.to/lastmile_qr_scan", "ios": "https://dc.lft.to/lastmile_qr_scan"}, "fusion_lon": 0.0, "lat": 38.90131433333333, "bike_id": "94876b56a2d6d2b90dcc10f73aab8017", "type": "electric_scooter", "is_reserved": 0, "lon": -77.033787}, {"fusion_lat": 0.0, "name": "26a2c15f4e0cafb1aa8ebe1036422b31", "is_disabled": 0, "rental_uris": {"android": "https://dc.lft.to/lastmile_qr_scan", "ios": "https://dc.lft.to/lastmile_qr_scan"}, "fusion_lon": 0.0, "lat": 38.926041166666664, "bike_id": "26a2c15f4e0cafb1aa8ebe1036422b31", "type": "electric_scooter", "is_reserved": 0, "lon": -77.02155383333333}, {"fusion_lat": 0.0, "name": "7e010df8b85f5a8e5005de224ef20f7a", "is_disabled": 0, "rental_uris": {"android": "https://dc.lft.to/lastmile_qr_scan", "ios": "https://dc.lft.to/lastmile_qr_scan"}, "fusion_lon": 0.0, "lat": 38.933128333333336, "bike_id": "7e010df8b85f5a8e5005de224ef20f7a", "type": "electric_bike", "is_reserved": 0, "lon": -77.03214866666667}, {"fusion_lat": 0.0, "name": "cf1b0ce669672de558e284a369a6d7a5", "is_disabled": 0, "rental_uris": {"android": "https://dc.lft.to/lastmile_qr_scan", "ios": "https://dc.lft.to/lastmile_qr_scan"}, "fusion_lon": 0.0, "lat": 38.9223875, "bike_id": "cf1b0ce669672de558e284a369a6d7a5", "type": "electric_scooter", "is_reserved": 0, "lon": -77.03517183333334}, {"fusion_lat": 0.0, "name": "1b38242b7939e3d6a1b78c687dd1fea9", "is_disabled": 0, "rental_uris": {"android": "https://dc.lft.to/lastmile_qr_scan", "ios": "https://dc.lft.to/lastmile_qr_scan"}, "fusion_lon": 0.0, "lat": 38.880386333333334, "bike_id": "1b38242b7939e3d6a1b78c687dd1fea9", "type": "electric_scooter", "is_reserved": 0, "lon": -77.01334966666667}, {"fusion_lat": 0.0, "name": "5cd4c9caea184b8d33a6fd6bc56bf435", "is_disabled": 0, "rental_uris": {"android": "https://dc.lft.to/lastmile_qr_scan", "ios": "https://dc.lft.to/lastmile_qr_scan"}, "fusion_lon": 0.0, "lat": 38.921642, "bike_id": "5cd4c9caea184b8d33a6fd6bc56bf435", "type": "electric_scooter", "is_reserved": 0, "lon": -76.99811633333333}, {"fusion_lat": 0.0, "name": "e43ef14f06aef2bcde9e27028b5ddada", "is_disabled": 0, "rental_uris": {"android": "https://dc.lft.to/lastmile_qr_scan", "ios": "https://dc.lft.to/lastmile_qr_scan"}, "fusion_lon": 0.0, "lat": 38.938801833333336, "bike_id": "e43ef14f06aef2bcde9e27028b5ddada", "type": "electric_scooter", "is_reserved": 0, "lon": -77.02464566666667}, {"fusion_lat": 0.0, "name": "78980d7bb3fef55c1f7b22f083003883", "is_disabled": 0, "rental_uris": {"android": "https://dc.lft.to/lastmile_qr_scan", "ios": "https://dc.lft.to/lastmile_qr_scan"}, "fusion_lon": 0.0, "lat": 38.91040516666666, "bike_id": "78980d7bb3fef55c1f7b22f083003883", "type": "electric_scooter", "is_reserved": 0, "lon": -77.00830333333333}, {"fusion_lat": 0.0, "name": "8f49726bc70874087267555e07fbcbe2", "is_disabled": 0, "rental_uris": {"android": "https://dc.lft.to/lastmile_qr_scan", "ios": "https://dc.lft.to/lastmile_qr_scan"}, "fusion_lon": 0.0, "lat": 38.928943833333335, "bike_id": "8f49726bc70874087267555e07fbcbe2", "type": "electric_bike", "is_reserved": 0, "lon": -77.23180816666667}, {"fusion_lat": 0.0, "name": "fa1db06a5fac59ae3f1492622abdcfe7", "is_disabled": 0, "rental_uris": {"android": "https://dc.lft.to/lastmile_qr_scan", "ios": "https://dc.lft.to/lastmile_qr_scan"}, "fusion_lon": 0.0, "lat": 38.897929166666664, "bike_id": "fa1db06a5fac59ae3f1492622abdcfe7", "type": "electric_scooter", "is_reserved": 0, "lon": -77.01194466666666}, {"fusion_lat": 0.0, "name": "e3987b468449f45e61093eeb2b147a72", "is_disabled": 0, "rental_uris": {"android": "https://dc.lft.to/lastmile_qr_scan", "ios": "https://dc.lft.to/lastmile_qr_scan"}, "fusion_lon": 0.0, "lat": 38.9000905, "bike_id": "e3987b468449f45e61093eeb2b147a72", "type": "electric_scooter", "is_reserved": 0, "lon": -76.9939795}, {"fusion_lat": 0.0, "name": "d2a71808546d12e5f0fc0a1cd954bee4", "is_disabled": 0, "rental_uris": {"android": "https://dc.lft.to/lastmile_qr_scan", "ios": "https://dc.lft.to/lastmile_qr_scan"}, "fusion_lon": 0.0, "lat": 38.944876666666666, "bike_id": "d2a71808546d12e5f0fc0a1cd954bee4", "type": "electric_scooter", "is_reserved": 0, "lon": -77.06405266666667}, {"fusion_lat": 0.0, "name": "3e5c62988d0888c92fb3b80af02fb1da", "is_disabled": 0, "rental_uris": {"android": "https://dc.lft.to/lastmile_qr_scan", "ios": "https://dc.lft.to/lastmile_qr_scan"}, "fusion_lon": 0.0, "lat": 38.918138666666664, "bike_id": "3e5c62988d0888c92fb3b80af02fb1da", "type": "electric_scooter", "is_reserved": 0, "lon": -77.01142233333333}, {"fusion_lat": 0.0, "name": "bcf84e86ad2f02e25889dc3827cf39ad", "is_disabled": 0, "rental_uris": {"android": "https://dc.lft.to/lastmile_qr_scan", "ios": "https://dc.lft.to/lastmile_qr_scan"}, "fusion_lon": 0.0, "lat": 38.92071266666667, "bike_id": "bcf84e86ad2f02e25889dc3827cf39ad", "type": "electric_scooter", "is_reserved": 0, "lon": -77.00214583333333}, {"fusion_lat": 0.0, "name": "08794e3f8746d81afc9c89d8ac67ae8b", "is_disabled": 0, "rental_uris": {"android": "https://dc.lft.to/lastmile_qr_scan", "ios": "https://dc.lft.to/lastmile_qr_scan"}, "fusion_lon": 0.0, "lat": 38.94894566666667, "bike_id": "08794e3f8746d81afc9c89d8ac67ae8b", "type": "electric_bike", "is_reserved": 0, "lon": -76.96370283333333}, {"fusion_lat": 0.0, "name": "614d386917a0269095ce022e5d05787c", "is_disabled": 0, "rental_uris": {"android": "https://dc.lft.to/lastmile_qr_scan", "ios": "https://dc.lft.to/lastmile_qr_scan"}, "fusion_lon": 0.0, "lat": 38.911220166666666, "bike_id": "614d386917a0269095ce022e5d05787c", "type": "electric_scooter", "is_reserved": 0, "lon": -77.04368966666667}, {"fusion_lat": 0.0, "name": "260cabc7d5b24c361cdd1930c4be3eb3", "is_disabled": 0, "rental_uris": {"android": "https://dc.lft.to/lastmile_qr_scan", "ios": "https://dc.lft.to/lastmile_qr_scan"}, "fusion_lon": 0.0, "lat": 38.9297445, "bike_id": "260cabc7d5b24c361cdd1930c4be3eb3", "type": "electric_scooter", "is_reserved": 0, "lon": -77.0279395}, {"fusion_lat": 0.0, "name": "b3ffedf05822f2588e19083bfe5a8b23", "is_disabled": 0, "rental_uris": {"android": "https://dc.lft.to/lastmile_qr_scan", "ios": "https://dc.lft.to/lastmile_qr_scan"}, "fusion_lon": 0.0, "lat": 38.927942, "bike_id": "b3ffedf05822f2588e19083bfe5a8b23", "type": "electric_scooter", "is_reserved": 0, "lon": -77.032151}, {"fusion_lat": 0.0, "name": "6b80e844b3188dff5985eab0c91aa09a", "is_disabled": 0, "rental_uris": {"android": "https://dc.lft.to/lastmile_qr_scan", "ios": "https://dc.lft.to/lastmile_qr_scan"}, "fusion_lon": 0.0, "lat": 38.86170766666667, "bike_id": "6b80e844b3188dff5985eab0c91aa09a", "type": "electric_scooter", "is_reserved": 0, "lon": -76.98369966666667}, {"fusion_lat": 0.0, "name": "1c8062b91ef9974746c98b7c9d629830", "is_disabled": 0, "rental_uris": {"android": "https://dc.lft.to/lastmile_qr_scan", "ios": "https://dc.lft.to/lastmile_qr_scan"}, "fusion_lon": 0.0, "lat": 38.81915133333333, "bike_id": "1c8062b91ef9974746c98b7c9d629830", "type": "electric_bike", "is_reserved": 0, "lon": -77.126644}, {"fusion_lat": 0.0, "name": "906c9605e0d64812ef75af67936320f8", "is_disabled": 0, "rental_uris": {"android": "https://dc.lft.to/lastmile_qr_scan", "ios": "https://dc.lft.to/lastmile_qr_scan"}, "fusion_lon": 0.0, "lat": 38.91112316666667, "bike_id": "906c9605e0d64812ef75af67936320f8", "type": "electric_scooter", "is_reserved": 0, "lon": -76.99767783333333}, {"fusion_lat": 0.0, "name": "452777c1acd8f77c15e59fc4f0224f5f", "is_disabled": 0, "rental_uris": {"android": "https://dc.lft.to/lastmile_qr_scan", "ios": "https://dc.lft.to/lastmile_qr_scan"}, "fusion_lon": 0.0, "lat": 38.909760666666664, "bike_id": "452777c1acd8f77c15e59fc4f0224f5f", "type": "electric_scooter", "is_reserved": 0, "lon": -77.03828766666666}, {"fusion_lat": 0.0, "name": "8a45f9ecabedd355023c5d32efe3ea51", "is_disabled": 0, "rental_uris": {"android": "https://dc.lft.to/lastmile_qr_scan", "ios": "https://dc.lft.to/lastmile_qr_scan"}, "fusion_lon": 0.0, "lat": 38.904581666666665, "bike_id": "8a45f9ecabedd355023c5d32efe3ea51", "type": "electric_scooter", "is_reserved": 0, "lon": -77.0321045}, {"fusion_lat": 0.0, "name": "8e06485e3de24e35f3fc49399dff5c58", "is_disabled": 0, "rental_uris": {"android": "https://dc.lft.to/lastmile_qr_scan", "ios": "https://dc.lft.to/lastmile_qr_scan"}, "fusion_lon": 0.0, "lat": 38.91306083333333, "bike_id": "8e06485e3de24e35f3fc49399dff5c58", "type": "electric_scooter", "is_reserved": 0, "lon": -77.04877066666667}, {"fusion_lat": 0.0, "name": "07425e5764b77d5cd31aca48aeb419da", "is_disabled": 0, "rental_uris": {"android": "https://dc.lft.to/lastmile_qr_scan", "ios": "https://dc.lft.to/lastmile_qr_scan"}, "fusion_lon": 0.0, "lat": 38.919680666666665, "bike_id": "07425e5764b77d5cd31aca48aeb419da", "type": "electric_scooter", "is_reserved": 0, "lon": -77.07088433333334}, {"fusion_lat": 0.0, "name": "022bf26303a8f08c69c4cf8010cfc213", "is_disabled": 0, "rental_uris": {"android": "https://dc.lft.to/lastmile_qr_scan", "ios": "https://dc.lft.to/lastmile_qr_scan"}, "fusion_lon": 0.0, "lat": 38.9176065, "bike_id": "022bf26303a8f08c69c4cf8010cfc213", "type": "electric_scooter", "is_reserved": 0, "lon": -77.03644783333333}, {"fusion_lat": 0.0, "name": "65d0fdca0a9153085a3696d9cd7f5f1b", "is_disabled": 0, "rental_uris": {"android": "https://dc.lft.to/lastmile_qr_scan", "ios": "https://dc.lft.to/lastmile_qr_scan"}, "fusion_lon": 0.0, "lat": 38.909131, "bike_id": "65d0fdca0a9153085a3696d9cd7f5f1b", "type": "electric_scooter", "is_reserved": 0, "lon": -77.03277533333333}, {"fusion_lat": 0.0, "name": "35a6f854355bb45a22d8fdb739364467", "is_disabled": 0, "rental_uris": {"android": "https://dc.lft.to/lastmile_qr_scan", "ios": "https://dc.lft.to/lastmile_qr_scan"}, "fusion_lon": 0.0, "lat": 38.892900833333336, "bike_id": "35a6f854355bb45a22d8fdb739364467", "type": "electric_scooter", "is_reserved": 0, "lon": -76.983105}, {"fusion_lat": 0.0, "name": "6aa9f6d5b504f153d98e49a0fc6a8f24", "is_disabled": 0, "rental_uris": {"android": "https://dc.lft.to/lastmile_qr_scan", "ios": "https://dc.lft.to/lastmile_qr_scan"}, "fusion_lon": 0.0, "lat": 38.9178905, "bike_id": "6aa9f6d5b504f153d98e49a0fc6a8f24", "type": "electric_scooter", "is_reserved": 0, "lon": -77.022993}, {"fusion_lat": 0.0, "name": "189636083c2f31005b7a05a9cdc3740d", "is_disabled": 0, "rental_uris": {"android": "https://dc.lft.to/lastmile_qr_scan", "ios": "https://dc.lft.to/lastmile_qr_scan"}, "fusion_lon": 0.0, "lat": 38.93197, "bike_id": "189636083c2f31005b7a05a9cdc3740d", "type": "electric_scooter", "is_reserved": 0, "lon": -77.04303416666667}, {"fusion_lat": 0.0, "name": "9fcd93211d85b50956db7fc1a9f0b621", "is_disabled": 0, "rental_uris": {"android": "https://dc.lft.to/lastmile_qr_scan", "ios": "https://dc.lft.to/lastmile_qr_scan"}, "fusion_lon": 0.0, "lat": 38.9102145, "bike_id": "9fcd93211d85b50956db7fc1a9f0b621", "type": "electric_scooter", "is_reserved": 0, "lon": -77.03867966666667}, {"fusion_lat": 0.0, "name": "78b08dd9006acdf42edd400ad9338097", "is_disabled": 0, "rental_uris": {"android": "https://dc.lft.to/lastmile_qr_scan", "ios": "https://dc.lft.to/lastmile_qr_scan"}, "fusion_lon": 0.0, "lat": 38.924392, "bike_id": "78b08dd9006acdf42edd400ad9338097", "type": "electric_scooter", "is_reserved": 0, "lon": -77.00073066666667}, {"fusion_lat": 0.0, "name": "d945c38dbfb686ac5ac5982f87cf3f4d", "is_disabled": 0, "rental_uris": {"android": "https://dc.lft.to/lastmile_qr_scan", "ios": "https://dc.lft.to/lastmile_qr_scan"}, "fusion_lon": 0.0, "lat": 38.887254166666665, "bike_id": "d945c38dbfb686ac5ac5982f87cf3f4d", "type": "electric_scooter", "is_reserved": 0, "lon": -76.98358383333333}, {"fusion_lat": 0.0, "name": "c06e7d17a1f68436f8bfe9de3a1cde1e", "is_disabled": 0, "rental_uris": {"android": "https://dc.lft.to/lastmile_qr_scan", "ios": "https://dc.lft.to/lastmile_qr_scan"}, "fusion_lon": 0.0, "lat": 38.902659166666666, "bike_id": "c06e7d17a1f68436f8bfe9de3a1cde1e", "type": "electric_scooter", "is_reserved": 0, "lon": -77.01744116666667}, {"fusion_lat": 0.0, "name": "660265b63d4498e9176985e32e938e56", "is_disabled": 0, "rental_uris": {"android": "https://dc.lft.to/lastmile_qr_scan", "ios": "https://dc.lft.to/lastmile_qr_scan"}, "fusion_lon": 0.0, "lat": 38.8413855, "bike_id": "660265b63d4498e9176985e32e938e56", "type": "electric_bike", "is_reserved": 0, "lon": -76.9476605}, {"fusion_lat": 0.0, "name": "fa8b41874bb0636e4f8adb930dfcdbca", "is_disabled": 0, "rental_uris": {"android": "https://dc.lft.to/lastmile_qr_scan", "ios": "https://dc.lft.to/lastmile_qr_scan"}, "fusion_lon": 0.0, "lat": 38.9225855, "bike_id": "fa8b41874bb0636e4f8adb930dfcdbca", "type": "electric_scooter", "is_reserved": 0, "lon": -77.05086283333333}, {"fusion_lat": 0.0, "name": "9740ec3a9988a8dcdf284beb3db01470", "is_disabled": 0, "rental_uris": {"android": "https://dc.lft.to/lastmile_qr_scan", "ios": "https://dc.lft.to/lastmile_qr_scan"}, "fusion_lon": 0.0, "lat": 38.9165695, "bike_id": "9740ec3a9988a8dcdf284beb3db01470", "type": "electric_scooter", "is_reserved": 0, "lon": -77.02281033333334}, {"fusion_lat": 0.0, "name": "b37bf99e6b1388f9c1494e8154afc600", "is_disabled": 0, "rental_uris": {"android": "https://dc.lft.to/lastmile_qr_scan", "ios": "https://dc.lft.to/lastmile_qr_scan"}, "fusion_lon": 0.0, "lat": 38.887545, "bike_id": "b37bf99e6b1388f9c1494e8154afc600", "type": "electric_scooter", "is_reserved": 0, "lon": -77.002586}, {"fusion_lat": 0.0, "name": "71cfea2c54d6dc3c29623bdd0c9a0391", "is_disabled": 0, "rental_uris": {"android": "https://dc.lft.to/lastmile_qr_scan", "ios": "https://dc.lft.to/lastmile_qr_scan"}, "fusion_lon": 0.0, "lat": 38.876390666666666, "bike_id": "71cfea2c54d6dc3c29623bdd0c9a0391", "type": "electric_scooter", "is_reserved": 0, "lon": -77.00912816666667}, {"fusion_lat": 0.0, "name": "0e70016eb7e74498c2011954618fad98", "is_disabled": 0, "rental_uris": {"android": "https://dc.lft.to/lastmile_qr_scan", "ios": "https://dc.lft.to/lastmile_qr_scan"}, "fusion_lon": 0.0, "lat": 38.90561433333333, "bike_id": "0e70016eb7e74498c2011954618fad98", "type": "electric_scooter", "is_reserved": 0, "lon": -77.06264166666666}, {"fusion_lat": 0.0, "name": "cc260a73a8493cbe1bc6bd364ffadc42", "is_disabled": 0, "rental_uris": {"android": "https://dc.lft.to/lastmile_qr_scan", "ios": "https://dc.lft.to/lastmile_qr_scan"}, "fusion_lon": 0.0, "lat": 38.83234266666667, "bike_id": "cc260a73a8493cbe1bc6bd364ffadc42", "type": "electric_bike", "is_reserved": 0, "lon": -76.94621016666666}, {"fusion_lat": 0.0, "name": "5448056a6f17e1df33a49cb9fef050d5", "is_disabled": 0, "rental_uris": {"android": "https://dc.lft.to/lastmile_qr_scan", "ios": "https://dc.lft.to/lastmile_qr_scan"}, "fusion_lon": 0.0, "lat": 38.904362, "bike_id": "5448056a6f17e1df33a49cb9fef050d5", "type": "electric_scooter", "is_reserved": 0, "lon": -77.04348583333334}, {"fusion_lat": 0.0, "name": "abc2981564057a84b036030c4e2ed166", "is_disabled": 0, "rental_uris": {"android": "https://dc.lft.to/lastmile_qr_scan", "ios": "https://dc.lft.to/lastmile_qr_scan"}, "fusion_lon": 0.0, "lat": 38.904129166666664, "bike_id": "abc2981564057a84b036030c4e2ed166", "type": "electric_scooter", "is_reserved": 0, "lon": -76.97334133333334}, {"fusion_lat": 0.0, "name": "f19fc9caf3b7e51358c97c3ef31b606c", "is_disabled": 0, "rental_uris": {"android": "https://dc.lft.to/lastmile_qr_scan", "ios": "https://dc.lft.to/lastmile_qr_scan"}, "fusion_lon": 0.0, "lat": 38.8789375, "bike_id": "f19fc9caf3b7e51358c97c3ef31b606c", "type": "electric_scooter", "is_reserved": 0, "lon": -77.0226625}, {"fusion_lat": 0.0, "name": "92cddfa90939e7b582587b6b0cb6583c", "is_disabled": 0, "rental_uris": {"android": "https://dc.lft.to/lastmile_qr_scan", "ios": "https://dc.lft.to/lastmile_qr_scan"}, "fusion_lon": 0.0, "lat": 38.922466166666666, "bike_id": "92cddfa90939e7b582587b6b0cb6583c", "type": "electric_scooter", "is_reserved": 0, "lon": -77.02218966666666}, {"fusion_lat": 0.0, "name": "98bb949d8cfe3563094f8c1b92797e73", "is_disabled": 0, "rental_uris": {"android": "https://dc.lft.to/lastmile_qr_scan", "ios": "https://dc.lft.to/lastmile_qr_scan"}, "fusion_lon": 0.0, "lat": 39.070544, "bike_id": "98bb949d8cfe3563094f8c1b92797e73", "type": "electric_bike", "is_reserved": 0, "lon": -77.11483066666666}, {"fusion_lat": 0.0, "name": "8f78bf0b149298dd5802f9d54095c03f", "is_disabled": 0, "rental_uris": {"android": "https://dc.lft.to/lastmile_qr_scan", "ios": "https://dc.lft.to/lastmile_qr_scan"}, "fusion_lon": 0.0, "lat": 38.900699833333334, "bike_id": "8f78bf0b149298dd5802f9d54095c03f", "type": "electric_scooter", "is_reserved": 0, "lon": -77.045033}, {"fusion_lat": 0.0, "name": "a044dc7168fe3f68f37235c43f2cfe6b", "is_disabled": 0, "rental_uris": {"android": "https://dc.lft.to/lastmile_qr_scan", "ios": "https://dc.lft.to/lastmile_qr_scan"}, "fusion_lon": 0.0, "lat": 38.88303666666667, "bike_id": "a044dc7168fe3f68f37235c43f2cfe6b", "type": "electric_scooter", "is_reserved": 0, "lon": -76.94855566666666}, {"fusion_lat": 0.0, "name": "c2f8ed92ab5a41d8e4fa96f8de192f38", "is_disabled": 0, "rental_uris": {"android": "https://dc.lft.to/lastmile_qr_scan", "ios": "https://dc.lft.to/lastmile_qr_scan"}, "fusion_lon": 0.0, "lat": 38.914927166666665, "bike_id": "c2f8ed92ab5a41d8e4fa96f8de192f38", "type": "electric_scooter", "is_reserved": 0, "lon": -77.01233483333333}, {"fusion_lat": 0.0, "name": "3a7e29ed917e989883c4ae593b335cec", "is_disabled": 0, "rental_uris": {"android": "https://dc.lft.to/lastmile_qr_scan", "ios": "https://dc.lft.to/lastmile_qr_scan"}, "fusion_lon": 0.0, "lat": 38.92249616666667, "bike_id": "3a7e29ed917e989883c4ae593b335cec", "type": "electric_scooter", "is_reserved": 0, "lon": -76.98415033333333}, {"fusion_lat": 0.0, "name": "884bfc8fefc2d4f1d0f1104a93ad56ce", "is_disabled": 0, "rental_uris": {"android": "https://dc.lft.to/lastmile_qr_scan", "ios": "https://dc.lft.to/lastmile_qr_scan"}, "fusion_lon": 0.0, "lat": 38.908667666666666, "bike_id": "884bfc8fefc2d4f1d0f1104a93ad56ce", "type": "electric_scooter", "is_reserved": 0, "lon": -77.00932116666667}, {"fusion_lat": 0.0, "name": "157112a8b44bc77813aefb2694eebe41", "is_disabled": 0, "rental_uris": {"android": "https://dc.lft.to/lastmile_qr_scan", "ios": "https://dc.lft.to/lastmile_qr_scan"}, "fusion_lon": 0.0, "lat": 38.91158466666667, "bike_id": "157112a8b44bc77813aefb2694eebe41", "type": "electric_scooter", "is_reserved": 0, "lon": -77.04142866666666}, {"fusion_lat": 0.0, "name": "aaec38bf3a1e4077f1d13e690a8935e3", "is_disabled": 0, "rental_uris": {"android": "https://dc.lft.to/lastmile_qr_scan", "ios": "https://dc.lft.to/lastmile_qr_scan"}, "fusion_lon": 0.0, "lat": 38.87641283333333, "bike_id": "aaec38bf3a1e4077f1d13e690a8935e3", "type": "electric_scooter", "is_reserved": 0, "lon": -77.00124616666666}, {"fusion_lat": 0.0, "name": "07872b588d0785feae4cf86ca6d0247c", "is_disabled": 0, "rental_uris": {"android": "https://dc.lft.to/lastmile_qr_scan", "ios": "https://dc.lft.to/lastmile_qr_scan"}, "fusion_lon": 0.0, "lat": 38.9214365, "bike_id": "07872b588d0785feae4cf86ca6d0247c", "type": "electric_scooter", "is_reserved": 0, "lon": -77.01808283333334}, {"fusion_lat": 0.0, "name": "19f04b6b3517aa8d353479ea13a7140e", "is_disabled": 0, "rental_uris": {"android": "https://dc.lft.to/lastmile_qr_scan", "ios": "https://dc.lft.to/lastmile_qr_scan"}, "fusion_lon": 0.0, "lat": 38.9039935, "bike_id": "19f04b6b3517aa8d353479ea13a7140e", "type": "electric_scooter", "is_reserved": 0, "lon": -77.04482366666667}, {"fusion_lat": 0.0, "name": "a56586886f5fc7d640adbec355e5c4ff", "is_disabled": 0, "rental_uris": {"android": "https://dc.lft.to/lastmile_qr_scan", "ios": "https://dc.lft.to/lastmile_qr_scan"}, "fusion_lon": 0.0, "lat": 38.99867483333333, "bike_id": "a56586886f5fc7d640adbec355e5c4ff", "type": "electric_bike", "is_reserved": 0, "lon": -77.03088516666666}, {"fusion_lat": 0.0, "name": "f3178656b88cd936383dfbcde8a35e51", "is_disabled": 0, "rental_uris": {"android": "https://dc.lft.to/lastmile_qr_scan", "ios": "https://dc.lft.to/lastmile_qr_scan"}, "fusion_lon": 0.0, "lat": 38.91959583333333, "bike_id": "f3178656b88cd936383dfbcde8a35e51", "type": "electric_bike", "is_reserved": 0, "lon": -77.10108483333333}, {"fusion_lat": 0.0, "name": "f951fb4cc4183e6cbc592babdbb08362", "is_disabled": 0, "rental_uris": {"android": "https://dc.lft.to/lastmile_qr_scan", "ios": "https://dc.lft.to/lastmile_qr_scan"}, "fusion_lon": 0.0, "lat": 38.915211166666666, "bike_id": "f951fb4cc4183e6cbc592babdbb08362", "type": "electric_scooter", "is_reserved": 0, "lon": -77.01224566666667}, {"fusion_lat": 0.0, "name": "f37a8710c316623d6f78f6ab4ea5439e", "is_disabled": 0, "rental_uris": {"android": "https://dc.lft.to/lastmile_qr_scan", "ios": "https://dc.lft.to/lastmile_qr_scan"}, "fusion_lon": 0.0, "lat": 38.907894666666664, "bike_id": "f37a8710c316623d6f78f6ab4ea5439e", "type": "electric_scooter", "is_reserved": 0, "lon": -77.043294}, {"fusion_lat": 0.0, "name": "44f21676c48b50ad6ec20db6233ad4a7", "is_disabled": 0, "rental_uris": {"android": "https://dc.lft.to/lastmile_qr_scan", "ios": "https://dc.lft.to/lastmile_qr_scan"}, "fusion_lon": 0.0, "lat": 38.90660783333333, "bike_id": "44f21676c48b50ad6ec20db6233ad4a7", "type": "electric_scooter", "is_reserved": 0, "lon": -77.01410333333334}, {"fusion_lat": 0.0, "name": "6c3ae346beb3cd0bf96598cb78e6779b", "is_disabled": 0, "rental_uris": {"android": "https://dc.lft.to/lastmile_qr_scan", "ios": "https://dc.lft.to/lastmile_qr_scan"}, "fusion_lon": 0.0, "lat": 38.905826833333336, "bike_id": "6c3ae346beb3cd0bf96598cb78e6779b", "type": "electric_scooter", "is_reserved": 0, "lon": -77.00619716666667}, {"fusion_lat": 0.0, "name": "d065669ce4a1962a54ca3e4b0b29b8de", "is_disabled": 0, "rental_uris": {"android": "https://dc.lft.to/lastmile_qr_scan", "ios": "https://dc.lft.to/lastmile_qr_scan"}, "fusion_lon": 0.0, "lat": 38.937209833333334, "bike_id": "d065669ce4a1962a54ca3e4b0b29b8de", "type": "electric_scooter", "is_reserved": 0, "lon": -77.02462216666666}, {"fusion_lat": 0.0, "name": "fc83d47a39e39c6f20576eac5e513999", "is_disabled": 0, "rental_uris": {"android": "https://dc.lft.to/lastmile_qr_scan", "ios": "https://dc.lft.to/lastmile_qr_scan"}, "fusion_lon": 0.0, "lat": 38.91709866666667, "bike_id": "fc83d47a39e39c6f20576eac5e513999", "type": "electric_scooter", "is_reserved": 0, "lon": -77.03471083333334}, {"fusion_lat": 0.0, "name": "daa69ee57114ed2be1a244fa1069e26f", "is_disabled": 0, "rental_uris": {"android": "https://dc.lft.to/lastmile_qr_scan", "ios": "https://dc.lft.to/lastmile_qr_scan"}, "fusion_lon": 0.0, "lat": 38.91021216666667, "bike_id": "daa69ee57114ed2be1a244fa1069e26f", "type": "electric_scooter", "is_reserved": 0, "lon": -77.0386775}, {"fusion_lat": 0.0, "name": "219c7dc43367878c7cda7b8b8b753da3", "is_disabled": 0, "rental_uris": {"android": "https://dc.lft.to/lastmile_qr_scan", "ios": "https://dc.lft.to/lastmile_qr_scan"}, "fusion_lon": 0.0, "lat": 38.8450805, "bike_id": "219c7dc43367878c7cda7b8b8b753da3", "type": "electric_bike", "is_reserved": 0, "lon": -76.99353683333334}, {"fusion_lat": 0.0, "name": "e7bb783528daaebd7c1c31eebef748b8", "is_disabled": 0, "rental_uris": {"android": "https://dc.lft.to/lastmile_qr_scan", "ios": "https://dc.lft.to/lastmile_qr_scan"}, "fusion_lon": 0.0, "lat": 38.89609733333333, "bike_id": "e7bb783528daaebd7c1c31eebef748b8", "type": "electric_scooter", "is_reserved": 0, "lon": -77.03173483333333}, {"fusion_lat": 0.0, "name": "6d7ab73840d2f5db76e68494fcb5f190", "is_disabled": 0, "rental_uris": {"android": "https://dc.lft.to/lastmile_qr_scan", "ios": "https://dc.lft.to/lastmile_qr_scan"}, "fusion_lon": 0.0, "lat": 38.9073475, "bike_id": "6d7ab73840d2f5db76e68494fcb5f190", "type": "electric_scooter", "is_reserved": 0, "lon": -77.03960733333334}, {"fusion_lat": 0.0, "name": "576d7ca2dc1fe9b986c0353a5361afb5", "is_disabled": 0, "rental_uris": {"android": "https://dc.lft.to/lastmile_qr_scan", "ios": "https://dc.lft.to/lastmile_qr_scan"}, "fusion_lon": 0.0, "lat": 38.95638833333334, "bike_id": "576d7ca2dc1fe9b986c0353a5361afb5", "type": "electric_scooter", "is_reserved": 0, "lon": -77.03304416666667}, {"fusion_lat": 0.0, "name": "39cbbbea2d15d2e1b5e68c71350365d0", "is_disabled": 0, "rental_uris": {"android": "https://dc.lft.to/lastmile_qr_scan", "ios": "https://dc.lft.to/lastmile_qr_scan"}, "fusion_lon": 0.0, "lat": 38.93078116666667, "bike_id": "39cbbbea2d15d2e1b5e68c71350365d0", "type": "electric_scooter", "is_reserved": 0, "lon": -77.031617}, {"fusion_lat": 0.0, "name": "3af4722270a8dccf73edb72b0b799686", "is_disabled": 0, "rental_uris": {"android": "https://dc.lft.to/lastmile_qr_scan", "ios": "https://dc.lft.to/lastmile_qr_scan"}, "fusion_lon": 0.0, "lat": 38.9020675, "bike_id": "3af4722270a8dccf73edb72b0b799686", "type": "electric_scooter", "is_reserved": 0, "lon": -77.02358816666667}, {"fusion_lat": 0.0, "name": "2fe30d7a86fcc55e17c00f7339c6485a", "is_disabled": 0, "rental_uris": {"android": "https://dc.lft.to/lastmile_qr_scan", "ios": "https://dc.lft.to/lastmile_qr_scan"}, "fusion_lon": 0.0, "lat": 38.90240416666666, "bike_id": "2fe30d7a86fcc55e17c00f7339c6485a", "type": "electric_scooter", "is_reserved": 0, "lon": -77.04416266666667}, {"fusion_lat": 0.0, "name": "ba1578698c06f12d8d648edde859467d", "is_disabled": 0, "rental_uris": {"android": "https://dc.lft.to/lastmile_qr_scan", "ios": "https://dc.lft.to/lastmile_qr_scan"}, "fusion_lon": 0.0, "lat": 38.958830666666664, "bike_id": "ba1578698c06f12d8d648edde859467d", "type": "electric_scooter", "is_reserved": 0, "lon": -77.01175733333334}, {"fusion_lat": 0.0, "name": "623a9255436692e4337e1a33be81b78e", "is_disabled": 0, "rental_uris": {"android": "https://dc.lft.to/lastmile_qr_scan", "ios": "https://dc.lft.to/lastmile_qr_scan"}, "fusion_lon": 0.0, "lat": 38.907379666666664, "bike_id": "623a9255436692e4337e1a33be81b78e", "type": "electric_scooter", "is_reserved": 0, "lon": -77.0271315}, {"fusion_lat": 0.0, "name": "536dd3ebe6b89d60d1b72b3d99715ee0", "is_disabled": 0, "rental_uris": {"android": "https://dc.lft.to/lastmile_qr_scan", "ios": "https://dc.lft.to/lastmile_qr_scan"}, "fusion_lon": 0.0, "lat": 38.902581166666664, "bike_id": "536dd3ebe6b89d60d1b72b3d99715ee0", "type": "electric_scooter", "is_reserved": 0, "lon": -77.0186745}, {"fusion_lat": 0.0, "name": "159e0f1f4cb7d8ce8f9c5bae0fe10540", "is_disabled": 0, "rental_uris": {"android": "https://dc.lft.to/lastmile_qr_scan", "ios": "https://dc.lft.to/lastmile_qr_scan"}, "fusion_lon": 0.0, "lat": 38.9169555, "bike_id": "159e0f1f4cb7d8ce8f9c5bae0fe10540", "type": "electric_scooter", "is_reserved": 0, "lon": -77.0303945}, {"fusion_lat": 0.0, "name": "07f921217cedfa315e2e42095a5515aa", "is_disabled": 0, "rental_uris": {"android": "https://dc.lft.to/lastmile_qr_scan", "ios": "https://dc.lft.to/lastmile_qr_scan"}, "fusion_lon": 0.0, "lat": 38.899103, "bike_id": "07f921217cedfa315e2e42095a5515aa", "type": "electric_scooter", "is_reserved": 0, "lon": -77.05150266666666}, {"fusion_lat": 0.0, "name": "499441d6243fd3362ccdfb4a394925c7", "is_disabled": 0, "rental_uris": {"android": "https://dc.lft.to/lastmile_qr_scan", "ios": "https://dc.lft.to/lastmile_qr_scan"}, "fusion_lon": 0.0, "lat": 38.90908866666667, "bike_id": "499441d6243fd3362ccdfb4a394925c7", "type": "electric_scooter", "is_reserved": 0, "lon": -77.0384185}, {"fusion_lat": 0.0, "name": "323b7c14be45bfc434a1377ec1ccd01d", "is_disabled": 0, "rental_uris": {"android": "https://dc.lft.to/lastmile_qr_scan", "ios": "https://dc.lft.to/lastmile_qr_scan"}, "fusion_lon": 0.0, "lat": 38.876595, "bike_id": "323b7c14be45bfc434a1377ec1ccd01d", "type": "electric_scooter", "is_reserved": 0, "lon": -77.0092355}, {"fusion_lat": 0.0, "name": "cad4d5ca881f04c477f162de5d79e64f", "is_disabled": 0, "rental_uris": {"android": "https://dc.lft.to/lastmile_qr_scan", "ios": "https://dc.lft.to/lastmile_qr_scan"}, "fusion_lon": 0.0, "lat": 38.90656583333333, "bike_id": "cad4d5ca881f04c477f162de5d79e64f", "type": "electric_scooter", "is_reserved": 0, "lon": -77.0294495}, {"fusion_lat": 0.0, "name": "f60901c9f0f51aea4e6cdb804fffbb30", "is_disabled": 0, "rental_uris": {"android": "https://dc.lft.to/lastmile_qr_scan", "ios": "https://dc.lft.to/lastmile_qr_scan"}, "fusion_lon": 0.0, "lat": 38.9345585, "bike_id": "f60901c9f0f51aea4e6cdb804fffbb30", "type": "electric_scooter", "is_reserved": 0, "lon": -77.02343366666666}, {"fusion_lat": 0.0, "name": "b74c908e93b9bcab742a367ecec3e7ef", "is_disabled": 0, "rental_uris": {"android": "https://dc.lft.to/lastmile_qr_scan", "ios": "https://dc.lft.to/lastmile_qr_scan"}, "fusion_lon": 0.0, "lat": 38.900626333333335, "bike_id": "b74c908e93b9bcab742a367ecec3e7ef", "type": "electric_scooter", "is_reserved": 0, "lon": -76.9338605}, {"fusion_lat": 0.0, "name": "9e06d84099abc1ac4c2481d379e55e3d", "is_disabled": 0, "rental_uris": {"android": "https://dc.lft.to/lastmile_qr_scan", "ios": "https://dc.lft.to/lastmile_qr_scan"}, "fusion_lon": 0.0, "lat": 38.89570833333333, "bike_id": "9e06d84099abc1ac4c2481d379e55e3d", "type": "electric_bike", "is_reserved": 0, "lon": -77.1273925}, {"fusion_lat": 0.0, "name": "ac1c80d1333b2f2d883d1978a14d5238", "is_disabled": 0, "rental_uris": {"android": "https://dc.lft.to/lastmile_qr_scan", "ios": "https://dc.lft.to/lastmile_qr_scan"}, "fusion_lon": 0.0, "lat": 38.95628083333333, "bike_id": "ac1c80d1333b2f2d883d1978a14d5238", "type": "electric_scooter", "is_reserved": 0, "lon": -77.02839933333334}, {"fusion_lat": 0.0, "name": "58a8d1e7b38f3a1bc8dd6a66ee8b5647", "is_disabled": 0, "rental_uris": {"android": "https://dc.lft.to/lastmile_qr_scan", "ios": "https://dc.lft.to/lastmile_qr_scan"}, "fusion_lon": 0.0, "lat": 38.846372833333334, "bike_id": "58a8d1e7b38f3a1bc8dd6a66ee8b5647", "type": "electric_scooter", "is_reserved": 0, "lon": -76.96923516666666}, {"fusion_lat": 0.0, "name": "e05aee5b9b0b666ff88dd45f6d9cf0db", "is_disabled": 0, "rental_uris": {"android": "https://dc.lft.to/lastmile_qr_scan", "ios": "https://dc.lft.to/lastmile_qr_scan"}, "fusion_lon": 0.0, "lat": 38.93749233333333, "bike_id": "e05aee5b9b0b666ff88dd45f6d9cf0db", "type": "electric_scooter", "is_reserved": 0, "lon": -77.02530866666666}, {"fusion_lat": 0.0, "name": "656df74ca039a25843e9ba8febc5277f", "is_disabled": 0, "rental_uris": {"android": "https://dc.lft.to/lastmile_qr_scan", "ios": "https://dc.lft.to/lastmile_qr_scan"}, "fusion_lon": 0.0, "lat": 38.900467666666664, "bike_id": "656df74ca039a25843e9ba8febc5277f", "type": "electric_scooter", "is_reserved": 0, "lon": -77.01704333333333}, {"fusion_lat": 0.0, "name": "1c9bb58401c3e7e30c55a86f91dbe278", "is_disabled": 0, "rental_uris": {"android": "https://dc.lft.to/lastmile_qr_scan", "ios": "https://dc.lft.to/lastmile_qr_scan"}, "fusion_lon": 0.0, "lat": 38.903896833333334, "bike_id": "1c9bb58401c3e7e30c55a86f91dbe278", "type": "electric_scooter", "is_reserved": 0, "lon": -77.0613745}, {"fusion_lat": 0.0, "name": "1c5284e63d26cc74a21831d1fe49f6ff", "is_disabled": 0, "rental_uris": {"android": "https://dc.lft.to/lastmile_qr_scan", "ios": "https://dc.lft.to/lastmile_qr_scan"}, "fusion_lon": 0.0, "lat": 38.9223795, "bike_id": "1c5284e63d26cc74a21831d1fe49f6ff", "type": "electric_scooter", "is_reserved": 0, "lon": -77.018065}, {"fusion_lat": 0.0, "name": "f02147d41199a62d462bca74cb24025e", "is_disabled": 0, "rental_uris": {"android": "https://dc.lft.to/lastmile_qr_scan", "ios": "https://dc.lft.to/lastmile_qr_scan"}, "fusion_lon": 0.0, "lat": 38.914779833333334, "bike_id": "f02147d41199a62d462bca74cb24025e", "type": "electric_scooter", "is_reserved": 0, "lon": -77.03190983333333}, {"fusion_lat": 0.0, "name": "a883871385ee77274636426b74c0085d", "is_disabled": 0, "rental_uris": {"android": "https://dc.lft.to/lastmile_qr_scan", "ios": "https://dc.lft.to/lastmile_qr_scan"}, "fusion_lon": 0.0, "lat": 38.941859666666666, "bike_id": "a883871385ee77274636426b74c0085d", "type": "electric_scooter", "is_reserved": 0, "lon": -77.02498883333334}, {"fusion_lat": 0.0, "name": "f9945afd7497292e7606d10c0a1a9dd3", "is_disabled": 0, "rental_uris": {"android": "https://dc.lft.to/lastmile_qr_scan", "ios": "https://dc.lft.to/lastmile_qr_scan"}, "fusion_lon": 0.0, "lat": 38.900820833333334, "bike_id": "f9945afd7497292e7606d10c0a1a9dd3", "type": "electric_scooter", "is_reserved": 0, "lon": -77.04796433333334}, {"fusion_lat": 0.0, "name": "8ea10f5392e22373c73427605707baf4", "is_disabled": 0, "rental_uris": {"android": "https://dc.lft.to/lastmile_qr_scan", "ios": "https://dc.lft.to/lastmile_qr_scan"}, "fusion_lon": 0.0, "lat": 38.91744116666667, "bike_id": "8ea10f5392e22373c73427605707baf4", "type": "electric_scooter", "is_reserved": 0, "lon": -77.0319625}, {"fusion_lat": 0.0, "name": "3a5d0dbdd744f8be837c653c6ae533e0", "is_disabled": 0, "rental_uris": {"android": "https://dc.lft.to/lastmile_qr_scan", "ios": "https://dc.lft.to/lastmile_qr_scan"}, "fusion_lon": 0.0, "lat": 38.916252166666666, "bike_id": "3a5d0dbdd744f8be837c653c6ae533e0", "type": "electric_scooter", "is_reserved": 0, "lon": -77.03851783333333}, {"fusion_lat": 0.0, "name": "1aef86b36226879a3620911eb30124b2", "is_disabled": 0, "rental_uris": {"android": "https://dc.lft.to/lastmile_qr_scan", "ios": "https://dc.lft.to/lastmile_qr_scan"}, "fusion_lon": 0.0, "lat": 38.935049666666664, "bike_id": "1aef86b36226879a3620911eb30124b2", "type": "electric_scooter", "is_reserved": 0, "lon": -77.07366133333333}, {"fusion_lat": 0.0, "name": "c865239f84d530de84ea2c32b78c4b94", "is_disabled": 0, "rental_uris": {"android": "https://dc.lft.to/lastmile_qr_scan", "ios": "https://dc.lft.to/lastmile_qr_scan"}, "fusion_lon": 0.0, "lat": 38.89020766666667, "bike_id": "c865239f84d530de84ea2c32b78c4b94", "type": "electric_scooter", "is_reserved": 0, "lon": -76.937365}, {"fusion_lat": 0.0, "name": "ff1aaa93f317da805f73044c3d33aaa0", "is_disabled": 0, "rental_uris": {"android": "https://dc.lft.to/lastmile_qr_scan", "ios": "https://dc.lft.to/lastmile_qr_scan"}, "fusion_lon": 0.0, "lat": 38.90364666666667, "bike_id": "ff1aaa93f317da805f73044c3d33aaa0", "type": "electric_scooter", "is_reserved": 0, "lon": -77.03656866666667}, {"fusion_lat": 0.0, "name": "68ca0168a99498d7e9153366acd3154e", "is_disabled": 0, "rental_uris": {"android": "https://dc.lft.to/lastmile_qr_scan", "ios": "https://dc.lft.to/lastmile_qr_scan"}, "fusion_lon": 0.0, "lat": 38.983946, "bike_id": "68ca0168a99498d7e9153366acd3154e", "type": "electric_scooter", "is_reserved": 0, "lon": -77.02629}, {"fusion_lat": 0.0, "name": "91bfbf45886a6e94944aa10a3b61241a", "is_disabled": 0, "rental_uris": {"android": "https://dc.lft.to/lastmile_qr_scan", "ios": "https://dc.lft.to/lastmile_qr_scan"}, "fusion_lon": 0.0, "lat": 38.90373266666667, "bike_id": "91bfbf45886a6e94944aa10a3b61241a", "type": "electric_scooter", "is_reserved": 0, "lon": -77.00754533333334}, {"fusion_lat": 0.0, "name": "4cddb87eed64e332b0ab190fa470142b", "is_disabled": 0, "rental_uris": {"android": "https://dc.lft.to/lastmile_qr_scan", "ios": "https://dc.lft.to/lastmile_qr_scan"}, "fusion_lon": 0.0, "lat": 38.945227833333334, "bike_id": "4cddb87eed64e332b0ab190fa470142b", "type": "electric_scooter", "is_reserved": 0, "lon": -77.02273166666667}, {"fusion_lat": 0.0, "name": "9e0dd72fde1e11549f5dbf59063d0e2b", "is_disabled": 0, "rental_uris": {"android": "https://dc.lft.to/lastmile_qr_scan", "ios": "https://dc.lft.to/lastmile_qr_scan"}, "fusion_lon": 0.0, "lat": 38.905018, "bike_id": "9e0dd72fde1e11549f5dbf59063d0e2b", "type": "electric_scooter", "is_reserved": 0, "lon": -77.029496}, {"fusion_lat": 0.0, "name": "076ce48853481b0bdb05be97f3ecca27", "is_disabled": 0, "rental_uris": {"android": "https://dc.lft.to/lastmile_qr_scan", "ios": "https://dc.lft.to/lastmile_qr_scan"}, "fusion_lon": 0.0, "lat": 38.91905033333333, "bike_id": "076ce48853481b0bdb05be97f3ecca27", "type": "electric_scooter", "is_reserved": 0, "lon": -77.0122225}, {"fusion_lat": 0.0, "name": "8bffe9f3aff8b83f9ba8b2fb612d28ad", "is_disabled": 0, "rental_uris": {"android": "https://dc.lft.to/lastmile_qr_scan", "ios": "https://dc.lft.to/lastmile_qr_scan"}, "fusion_lon": 0.0, "lat": 38.877116, "bike_id": "8bffe9f3aff8b83f9ba8b2fb612d28ad", "type": "electric_scooter", "is_reserved": 0, "lon": -76.99387}, {"fusion_lat": 0.0, "name": "dce07ea333e2197a3023ea5cbf964b9f", "is_disabled": 0, "rental_uris": {"android": "https://dc.lft.to/lastmile_qr_scan", "ios": "https://dc.lft.to/lastmile_qr_scan"}, "fusion_lon": 0.0, "lat": 38.906613, "bike_id": "dce07ea333e2197a3023ea5cbf964b9f", "type": "electric_scooter", "is_reserved": 0, "lon": -77.009408}, {"fusion_lat": 0.0, "name": "0329aef2d862b7c91bfb6ff750c9c4f1", "is_disabled": 0, "rental_uris": {"android": "https://dc.lft.to/lastmile_qr_scan", "ios": "https://dc.lft.to/lastmile_qr_scan"}, "fusion_lon": 0.0, "lat": 38.898337833333336, "bike_id": "0329aef2d862b7c91bfb6ff750c9c4f1", "type": "electric_scooter", "is_reserved": 0, "lon": -77.03326433333334}, {"fusion_lat": 0.0, "name": "09feb01e4dd8e90c04ae87bc3f308159", "is_disabled": 0, "rental_uris": {"android": "https://dc.lft.to/lastmile_qr_scan", "ios": "https://dc.lft.to/lastmile_qr_scan"}, "fusion_lon": 0.0, "lat": 38.899224, "bike_id": "09feb01e4dd8e90c04ae87bc3f308159", "type": "electric_scooter", "is_reserved": 0, "lon": -77.03303483333333}, {"fusion_lat": 0.0, "name": "57fec2145889765cdce7d2dcb84501c4", "is_disabled": 0, "rental_uris": {"android": "https://dc.lft.to/lastmile_qr_scan", "ios": "https://dc.lft.to/lastmile_qr_scan"}, "fusion_lon": 0.0, "lat": 38.96130266666667, "bike_id": "57fec2145889765cdce7d2dcb84501c4", "type": "electric_bike", "is_reserved": 0, "lon": -77.03275133333334}, {"fusion_lat": 0.0, "name": "abaeb6b0d769de8229d4e695dc8fd2f9", "is_disabled": 0, "rental_uris": {"android": "https://dc.lft.to/lastmile_qr_scan", "ios": "https://dc.lft.to/lastmile_qr_scan"}, "fusion_lon": 0.0, "lat": 38.90963933333333, "bike_id": "abaeb6b0d769de8229d4e695dc8fd2f9", "type": "electric_scooter", "is_reserved": 0, "lon": -77.04806083333334}, {"fusion_lat": 0.0, "name": "bd83ab649bc8d3993d2417dfc470321a", "is_disabled": 0, "rental_uris": {"android": "https://dc.lft.to/lastmile_qr_scan", "ios": "https://dc.lft.to/lastmile_qr_scan"}, "fusion_lon": 0.0, "lat": 38.920642, "bike_id": "bd83ab649bc8d3993d2417dfc470321a", "type": "electric_scooter", "is_reserved": 0, "lon": -77.03183116666666}, {"fusion_lat": 0.0, "name": "0ae64ebfd83c44e75553e659344c51f1", "is_disabled": 0, "rental_uris": {"android": "https://dc.lft.to/lastmile_qr_scan", "ios": "https://dc.lft.to/lastmile_qr_scan"}, "fusion_lon": 0.0, "lat": 38.946326666666664, "bike_id": "0ae64ebfd83c44e75553e659344c51f1", "type": "electric_scooter", "is_reserved": 0, "lon": -77.095417}, {"fusion_lat": 0.0, "name": "a4e517e1bdee9ad26e40d7fd0e01bf35", "is_disabled": 0, "rental_uris": {"android": "https://dc.lft.to/lastmile_qr_scan", "ios": "https://dc.lft.to/lastmile_qr_scan"}, "fusion_lon": 0.0, "lat": 38.91638833333333, "bike_id": "a4e517e1bdee9ad26e40d7fd0e01bf35", "type": "electric_scooter", "is_reserved": 0, "lon": -77.0297915}, {"fusion_lat": 0.0, "name": "6d5a22e27d658ed84042b00a039910e2", "is_disabled": 0, "rental_uris": {"android": "https://dc.lft.to/lastmile_qr_scan", "ios": "https://dc.lft.to/lastmile_qr_scan"}, "fusion_lon": 0.0, "lat": 38.879192333333336, "bike_id": "6d5a22e27d658ed84042b00a039910e2", "type": "electric_scooter", "is_reserved": 0, "lon": -77.00807816666666}, {"fusion_lat": 0.0, "name": "20c9469fea43fbda0adaaee73eb2de3a", "is_disabled": 0, "rental_uris": {"android": "https://dc.lft.to/lastmile_qr_scan", "ios": "https://dc.lft.to/lastmile_qr_scan"}, "fusion_lon": 0.0, "lat": 38.92080633333333, "bike_id": "20c9469fea43fbda0adaaee73eb2de3a", "type": "electric_scooter", "is_reserved": 0, "lon": -77.0148195}, {"fusion_lat": 0.0, "name": "a392675eb176e120991d0953d68d49e3", "is_disabled": 0, "rental_uris": {"android": "https://dc.lft.to/lastmile_qr_scan", "ios": "https://dc.lft.to/lastmile_qr_scan"}, "fusion_lon": 0.0, "lat": 38.915547, "bike_id": "a392675eb176e120991d0953d68d49e3", "type": "electric_scooter", "is_reserved": 0, "lon": -77.03171866666666}, {"fusion_lat": 0.0, "name": "28e4a96e1100ef1ddd739c22e0bfbf8f", "is_disabled": 0, "rental_uris": {"android": "https://dc.lft.to/lastmile_qr_scan", "ios": "https://dc.lft.to/lastmile_qr_scan"}, "fusion_lon": 0.0, "lat": 38.88473116666667, "bike_id": "28e4a96e1100ef1ddd739c22e0bfbf8f", "type": "electric_scooter", "is_reserved": 0, "lon": -76.92984266666667}, {"fusion_lat": 0.0, "name": "efe4ef97899a716893bf9da19109b736", "is_disabled": 0, "rental_uris": {"android": "https://dc.lft.to/lastmile_qr_scan", "ios": "https://dc.lft.to/lastmile_qr_scan"}, "fusion_lon": 0.0, "lat": 38.961344833333335, "bike_id": "efe4ef97899a716893bf9da19109b736", "type": "electric_scooter", "is_reserved": 0, "lon": -77.02788833333334}, {"fusion_lat": 0.0, "name": "02da5865e931cebba7c0396643e27b1d", "is_disabled": 0, "rental_uris": {"android": "https://dc.lft.to/lastmile_qr_scan", "ios": "https://dc.lft.to/lastmile_qr_scan"}, "fusion_lon": 0.0, "lat": 38.8846785, "bike_id": "02da5865e931cebba7c0396643e27b1d", "type": "electric_scooter", "is_reserved": 0, "lon": -76.9498845}, {"fusion_lat": 0.0, "name": "85e4421c25aab8927dcd7fa311b8543f", "is_disabled": 0, "rental_uris": {"android": "https://dc.lft.to/lastmile_qr_scan", "ios": "https://dc.lft.to/lastmile_qr_scan"}, "fusion_lon": 0.0, "lat": 38.8852875, "bike_id": "85e4421c25aab8927dcd7fa311b8543f", "type": "electric_scooter", "is_reserved": 0, "lon": -76.92916816666667}, {"fusion_lat": 0.0, "name": "378d5e93d8db29394218e18adb3b4a66", "is_disabled": 0, "rental_uris": {"android": "https://dc.lft.to/lastmile_qr_scan", "ios": "https://dc.lft.to/lastmile_qr_scan"}, "fusion_lon": 0.0, "lat": 38.917075833333335, "bike_id": "378d5e93d8db29394218e18adb3b4a66", "type": "electric_scooter", "is_reserved": 0, "lon": -77.02693933333333}, {"fusion_lat": 0.0, "name": "6721f371342e738239a63eb2784f5c2d", "is_disabled": 0, "rental_uris": {"android": "https://dc.lft.to/lastmile_qr_scan", "ios": "https://dc.lft.to/lastmile_qr_scan"}, "fusion_lon": 0.0, "lat": 38.93089633333334, "bike_id": "6721f371342e738239a63eb2784f5c2d", "type": "electric_scooter", "is_reserved": 0, "lon": -77.02557466666667}, {"fusion_lat": 0.0, "name": "d4367d4efc0aca82669c399024dcbdd5", "is_disabled": 0, "rental_uris": {"android": "https://dc.lft.to/lastmile_qr_scan", "ios": "https://dc.lft.to/lastmile_qr_scan"}, "fusion_lon": 0.0, "lat": 38.913973, "bike_id": "d4367d4efc0aca82669c399024dcbdd5", "type": "electric_scooter", "is_reserved": 0, "lon": -77.01664816666667}, {"fusion_lat": 0.0, "name": "e6b2041a7833a3fd6fec4e75c2ecb37a", "is_disabled": 0, "rental_uris": {"android": "https://dc.lft.to/lastmile_qr_scan", "ios": "https://dc.lft.to/lastmile_qr_scan"}, "fusion_lon": 0.0, "lat": 38.87581183333333, "bike_id": "e6b2041a7833a3fd6fec4e75c2ecb37a", "type": "electric_bike", "is_reserved": 0, "lon": -77.23411766666666}, {"fusion_lat": 0.0, "name": "ae1da60434b9e28f77a5e7d5919aa57a", "is_disabled": 0, "rental_uris": {"android": "https://dc.lft.to/lastmile_qr_scan", "ios": "https://dc.lft.to/lastmile_qr_scan"}, "fusion_lon": 0.0, "lat": 38.918177666666665, "bike_id": "ae1da60434b9e28f77a5e7d5919aa57a", "type": "electric_scooter", "is_reserved": 0, "lon": -77.03175633333333}, {"fusion_lat": 0.0, "name": "845acf991bd845ad51124c51da2c4e7c", "is_disabled": 0, "rental_uris": {"android": "https://dc.lft.to/lastmile_qr_scan", "ios": "https://dc.lft.to/lastmile_qr_scan"}, "fusion_lon": 0.0, "lat": 38.899130166666666, "bike_id": "845acf991bd845ad51124c51da2c4e7c", "type": "electric_scooter", "is_reserved": 0, "lon": -76.9458925}, {"fusion_lat": 0.0, "name": "eecf8277027b164ec7a899cae11867bf", "is_disabled": 0, "rental_uris": {"android": "https://dc.lft.to/lastmile_qr_scan", "ios": "https://dc.lft.to/lastmile_qr_scan"}, "fusion_lon": 0.0, "lat": 38.91426416666667, "bike_id": "eecf8277027b164ec7a899cae11867bf", "type": "electric_scooter", "is_reserved": 0, "lon": -77.03208933333333}, {"fusion_lat": 0.0, "name": "48027052740c25f089b8394f44011d61", "is_disabled": 0, "rental_uris": {"android": "https://dc.lft.to/lastmile_qr_scan", "ios": "https://dc.lft.to/lastmile_qr_scan"}, "fusion_lon": 0.0, "lat": 38.899044333333336, "bike_id": "48027052740c25f089b8394f44011d61", "type": "electric_scooter", "is_reserved": 0, "lon": -76.93357766666666}, {"fusion_lat": 0.0, "name": "6a6563e28397e0297aea9d4ec62d8dca", "is_disabled": 0, "rental_uris": {"android": "https://dc.lft.to/lastmile_qr_scan", "ios": "https://dc.lft.to/lastmile_qr_scan"}, "fusion_lon": 0.0, "lat": 38.8922675, "bike_id": "6a6563e28397e0297aea9d4ec62d8dca", "type": "electric_scooter", "is_reserved": 0, "lon": -77.03980483333333}, {"fusion_lat": 0.0, "name": "85d2f0c8645e348eb6778a1be7377b70", "is_disabled": 0, "rental_uris": {"android": "https://dc.lft.to/lastmile_qr_scan", "ios": "https://dc.lft.to/lastmile_qr_scan"}, "fusion_lon": 0.0, "lat": 38.88736016666667, "bike_id": "85d2f0c8645e348eb6778a1be7377b70", "type": "electric_scooter", "is_reserved": 0, "lon": -76.99488533333333}, {"fusion_lat": 0.0, "name": "75b53e18b648051aaec489e354232278", "is_disabled": 0, "rental_uris": {"android": "https://dc.lft.to/lastmile_qr_scan", "ios": "https://dc.lft.to/lastmile_qr_scan"}, "fusion_lon": 0.0, "lat": 38.91208066666667, "bike_id": "75b53e18b648051aaec489e354232278", "type": "electric_scooter", "is_reserved": 0, "lon": -77.0117055}, {"fusion_lat": 0.0, "name": "e91cd846586fd50718ab851f6df5026a", "is_disabled": 0, "rental_uris": {"android": "https://dc.lft.to/lastmile_qr_scan", "ios": "https://dc.lft.to/lastmile_qr_scan"}, "fusion_lon": 0.0, "lat": 38.9505765, "bike_id": "e91cd846586fd50718ab851f6df5026a", "type": "electric_scooter", "is_reserved": 0, "lon": -77.08028566666667}, {"fusion_lat": 0.0, "name": "dfce75f29b14e79546f29c8d97b38f2d", "is_disabled": 0, "rental_uris": {"android": "https://dc.lft.to/lastmile_qr_scan", "ios": "https://dc.lft.to/lastmile_qr_scan"}, "fusion_lon": 0.0, "lat": 38.9733915, "bike_id": "dfce75f29b14e79546f29c8d97b38f2d", "type": "electric_bike", "is_reserved": 0, "lon": -77.018016}, {"fusion_lat": 0.0, "name": "7b5346299ce215f3a70deb4bd2503d56", "is_disabled": 0, "rental_uris": {"android": "https://dc.lft.to/lastmile_qr_scan", "ios": "https://dc.lft.to/lastmile_qr_scan"}, "fusion_lon": 0.0, "lat": 38.923012666666665, "bike_id": "7b5346299ce215f3a70deb4bd2503d56", "type": "electric_scooter", "is_reserved": 0, "lon": -77.04203}, {"fusion_lat": 0.0, "name": "0b74be49116985dd5fa7643f8c9e648a", "is_disabled": 0, "rental_uris": {"android": "https://dc.lft.to/lastmile_qr_scan", "ios": "https://dc.lft.to/lastmile_qr_scan"}, "fusion_lon": 0.0, "lat": 38.890055833333335, "bike_id": "0b74be49116985dd5fa7643f8c9e648a", "type": "electric_scooter", "is_reserved": 0, "lon": -76.9823285}, {"fusion_lat": 0.0, "name": "d9b4eb00e317267ad4b3b0e0f3e3b65e", "is_disabled": 0, "rental_uris": {"android": "https://dc.lft.to/lastmile_qr_scan", "ios": "https://dc.lft.to/lastmile_qr_scan"}, "fusion_lon": 0.0, "lat": 38.915655, "bike_id": "d9b4eb00e317267ad4b3b0e0f3e3b65e", "type": "electric_scooter", "is_reserved": 0, "lon": -77.02214783333334}, {"fusion_lat": 0.0, "name": "2f92ea517c87cc5d1ec8fefd88959663", "is_disabled": 0, "rental_uris": {"android": "https://dc.lft.to/lastmile_qr_scan", "ios": "https://dc.lft.to/lastmile_qr_scan"}, "fusion_lon": 0.0, "lat": 38.9024215, "bike_id": "2f92ea517c87cc5d1ec8fefd88959663", "type": "electric_scooter", "is_reserved": 0, "lon": -77.02592516666667}, {"fusion_lat": 0.0, "name": "f76a22b2871e59c4e4e215e4cd676fc9", "is_disabled": 0, "rental_uris": {"android": "https://dc.lft.to/lastmile_qr_scan", "ios": "https://dc.lft.to/lastmile_qr_scan"}, "fusion_lon": 0.0, "lat": 38.91819983333333, "bike_id": "f76a22b2871e59c4e4e215e4cd676fc9", "type": "electric_scooter", "is_reserved": 0, "lon": -77.0316635}, {"fusion_lat": 0.0, "name": "a981f3507bc6308d14cc7422591b169e", "is_disabled": 0, "rental_uris": {"android": "https://dc.lft.to/lastmile_qr_scan", "ios": "https://dc.lft.to/lastmile_qr_scan"}, "fusion_lon": 0.0, "lat": 38.927908333333335, "bike_id": "a981f3507bc6308d14cc7422591b169e", "type": "electric_scooter", "is_reserved": 0, "lon": -77.03152433333334}, {"fusion_lat": 0.0, "name": "bc4cb50be92dfa8b1461433a423790a9", "is_disabled": 0, "rental_uris": {"android": "https://dc.lft.to/lastmile_qr_scan", "ios": "https://dc.lft.to/lastmile_qr_scan"}, "fusion_lon": 0.0, "lat": 38.9338935, "bike_id": "bc4cb50be92dfa8b1461433a423790a9", "type": "electric_scooter", "is_reserved": 0, "lon": -77.0241235}, {"fusion_lat": 0.0, "name": "1dd4686c82c9f79fae28d1f5bc5a269f", "is_disabled": 0, "rental_uris": {"android": "https://dc.lft.to/lastmile_qr_scan", "ios": "https://dc.lft.to/lastmile_qr_scan"}, "fusion_lon": 0.0, "lat": 38.9112255, "bike_id": "1dd4686c82c9f79fae28d1f5bc5a269f", "type": "electric_scooter", "is_reserved": 0, "lon": -77.04185583333333}, {"fusion_lat": 0.0, "name": "79a0bafb1061d5b021dbff2046beffe4", "is_disabled": 0, "rental_uris": {"android": "https://dc.lft.to/lastmile_qr_scan", "ios": "https://dc.lft.to/lastmile_qr_scan"}, "fusion_lon": 0.0, "lat": 38.931184333333334, "bike_id": "79a0bafb1061d5b021dbff2046beffe4", "type": "electric_scooter", "is_reserved": 0, "lon": -77.0212525}, {"fusion_lat": 0.0, "name": "c88efb335844e176a933c4443a63b20b", "is_disabled": 0, "rental_uris": {"android": "https://dc.lft.to/lastmile_qr_scan", "ios": "https://dc.lft.to/lastmile_qr_scan"}, "fusion_lon": 0.0, "lat": 38.9224915, "bike_id": "c88efb335844e176a933c4443a63b20b", "type": "electric_scooter", "is_reserved": 0, "lon": -77.042591}, {"fusion_lat": 0.0, "name": "1a0ffd1d4c5aabe62983dbb61470d2fc", "is_disabled": 0, "rental_uris": {"android": "https://dc.lft.to/lastmile_qr_scan", "ios": "https://dc.lft.to/lastmile_qr_scan"}, "fusion_lon": 0.0, "lat": 38.92932016666666, "bike_id": "1a0ffd1d4c5aabe62983dbb61470d2fc", "type": "electric_scooter", "is_reserved": 0, "lon": -77.03274533333334}, {"fusion_lat": 0.0, "name": "6e99d6ab283c285526882098d19e3c8e", "is_disabled": 0, "rental_uris": {"android": "https://dc.lft.to/lastmile_qr_scan", "ios": "https://dc.lft.to/lastmile_qr_scan"}, "fusion_lon": 0.0, "lat": 38.9039625, "bike_id": "6e99d6ab283c285526882098d19e3c8e", "type": "electric_scooter", "is_reserved": 0, "lon": -77.03450066666667}, {"fusion_lat": 0.0, "name": "277807887a9c566414eb2ea50eb8e83b", "is_disabled": 0, "rental_uris": {"android": "https://dc.lft.to/lastmile_qr_scan", "ios": "https://dc.lft.to/lastmile_qr_scan"}, "fusion_lon": 0.0, "lat": 38.904532, "bike_id": "277807887a9c566414eb2ea50eb8e83b", "type": "electric_bike", "is_reserved": 0, "lon": -76.9742405}, {"fusion_lat": 0.0, "name": "36ca469495d93bdfc44ec2605d06be18", "is_disabled": 0, "rental_uris": {"android": "https://dc.lft.to/lastmile_qr_scan", "ios": "https://dc.lft.to/lastmile_qr_scan"}, "fusion_lon": 0.0, "lat": 38.8984885, "bike_id": "36ca469495d93bdfc44ec2605d06be18", "type": "electric_scooter", "is_reserved": 0, "lon": -76.93181816666667}, {"fusion_lat": 0.0, "name": "2416e73f508b7696f5c0916231a22e5a", "is_disabled": 0, "rental_uris": {"android": "https://dc.lft.to/lastmile_qr_scan", "ios": "https://dc.lft.to/lastmile_qr_scan"}, "fusion_lon": 0.0, "lat": 38.8556585, "bike_id": "2416e73f508b7696f5c0916231a22e5a", "type": "electric_bike", "is_reserved": 0, "lon": -77.11317333333334}, {"fusion_lat": 0.0, "name": "e0f19ab4c092b0a9701e28a5db71d771", "is_disabled": 0, "rental_uris": {"android": "https://dc.lft.to/lastmile_qr_scan", "ios": "https://dc.lft.to/lastmile_qr_scan"}, "fusion_lon": 0.0, "lat": 38.9085775, "bike_id": "e0f19ab4c092b0a9701e28a5db71d771", "type": "electric_scooter", "is_reserved": 0, "lon": -77.02726566666666}, {"fusion_lat": 0.0, "name": "e4908ea7fe09ec1dcb8b3b7d08209325", "is_disabled": 0, "rental_uris": {"android": "https://dc.lft.to/lastmile_qr_scan", "ios": "https://dc.lft.to/lastmile_qr_scan"}, "fusion_lon": 0.0, "lat": 38.89729716666667, "bike_id": "e4908ea7fe09ec1dcb8b3b7d08209325", "type": "electric_scooter", "is_reserved": 0, "lon": -76.94703016666666}, {"fusion_lat": 0.0, "name": "ac968288c972e8c8ee0bac3c92c9ce4b", "is_disabled": 0, "rental_uris": {"android": "https://dc.lft.to/lastmile_qr_scan", "ios": "https://dc.lft.to/lastmile_qr_scan"}, "fusion_lon": 0.0, "lat": 38.949215, "bike_id": "ac968288c972e8c8ee0bac3c92c9ce4b", "type": "electric_scooter", "is_reserved": 0, "lon": -77.01851933333333}, {"fusion_lat": 0.0, "name": "2ca2847d4f5ad7de832e0b03fa6fe788", "is_disabled": 0, "rental_uris": {"android": "https://dc.lft.to/lastmile_qr_scan", "ios": "https://dc.lft.to/lastmile_qr_scan"}, "fusion_lon": 0.0, "lat": 38.988195166666664, "bike_id": "2ca2847d4f5ad7de832e0b03fa6fe788", "type": "electric_bike", "is_reserved": 0, "lon": -77.0265965}, {"fusion_lat": 0.0, "name": "6648b2450e2fa2f6f77b5d81eaf37061", "is_disabled": 0, "rental_uris": {"android": "https://dc.lft.to/lastmile_qr_scan", "ios": "https://dc.lft.to/lastmile_qr_scan"}, "fusion_lon": 0.0, "lat": 38.91195116666667, "bike_id": "6648b2450e2fa2f6f77b5d81eaf37061", "type": "electric_scooter", "is_reserved": 0, "lon": -77.04146966666667}, {"fusion_lat": 0.0, "name": "22d781a6e8b4888288efff0b56c06633", "is_disabled": 0, "rental_uris": {"android": "https://dc.lft.to/lastmile_qr_scan", "ios": "https://dc.lft.to/lastmile_qr_scan"}, "fusion_lon": 0.0, "lat": 38.90509633333333, "bike_id": "22d781a6e8b4888288efff0b56c06633", "type": "electric_scooter", "is_reserved": 0, "lon": -77.070348}, {"fusion_lat": 0.0, "name": "7d4cb34bdfa6c49ea1294cc2203a1020", "is_disabled": 0, "rental_uris": {"android": "https://dc.lft.to/lastmile_qr_scan", "ios": "https://dc.lft.to/lastmile_qr_scan"}, "fusion_lon": 0.0, "lat": 38.922856333333335, "bike_id": "7d4cb34bdfa6c49ea1294cc2203a1020", "type": "electric_scooter", "is_reserved": 0, "lon": -77.0421995}, {"fusion_lat": 0.0, "name": "8a2a10014ad9d78b53e66d617fa30e6e", "is_disabled": 0, "rental_uris": {"android": "https://dc.lft.to/lastmile_qr_scan", "ios": "https://dc.lft.to/lastmile_qr_scan"}, "fusion_lon": 0.0, "lat": 38.927947, "bike_id": "8a2a10014ad9d78b53e66d617fa30e6e", "type": "electric_scooter", "is_reserved": 0, "lon": -76.95556416666666}, {"fusion_lat": 0.0, "name": "b9b844e5456eccd46a6a2ca73f24e114", "is_disabled": 0, "rental_uris": {"android": "https://dc.lft.to/lastmile_qr_scan", "ios": "https://dc.lft.to/lastmile_qr_scan"}, "fusion_lon": 0.0, "lat": 38.87570266666667, "bike_id": "b9b844e5456eccd46a6a2ca73f24e114", "type": "electric_scooter", "is_reserved": 0, "lon": -77.00938066666667}, {"fusion_lat": 0.0, "name": "d8d48c7ddea93604c4b4033f40f7924b", "is_disabled": 0, "rental_uris": {"android": "https://dc.lft.to/lastmile_qr_scan", "ios": "https://dc.lft.to/lastmile_qr_scan"}, "fusion_lon": 0.0, "lat": 38.899891, "bike_id": "d8d48c7ddea93604c4b4033f40f7924b", "type": "electric_scooter", "is_reserved": 0, "lon": -77.02186}, {"fusion_lat": 0.0, "name": "5ea0572bde6e722ba1be9fe7a508c9fd", "is_disabled": 0, "rental_uris": {"android": "https://dc.lft.to/lastmile_qr_scan", "ios": "https://dc.lft.to/lastmile_qr_scan"}, "fusion_lon": 0.0, "lat": 38.899453333333334, "bike_id": "5ea0572bde6e722ba1be9fe7a508c9fd", "type": "electric_scooter", "is_reserved": 0, "lon": -77.02692216666667}, {"fusion_lat": 0.0, "name": "d94b8c897f3b783b4e3ee19797b2cfe8", "is_disabled": 0, "rental_uris": {"android": "https://dc.lft.to/lastmile_qr_scan", "ios": "https://dc.lft.to/lastmile_qr_scan"}, "fusion_lon": 0.0, "lat": 38.927203666666664, "bike_id": "d94b8c897f3b783b4e3ee19797b2cfe8", "type": "electric_scooter", "is_reserved": 0, "lon": -77.06014766666667}, {"fusion_lat": 0.0, "name": "4d5c19f98077ab44d88207bf6be06ded", "is_disabled": 0, "rental_uris": {"android": "https://dc.lft.to/lastmile_qr_scan", "ios": "https://dc.lft.to/lastmile_qr_scan"}, "fusion_lon": 0.0, "lat": 38.904853833333334, "bike_id": "4d5c19f98077ab44d88207bf6be06ded", "type": "electric_scooter", "is_reserved": 0, "lon": -76.9495965}, {"fusion_lat": 0.0, "name": "590a7d9fa64786d924d5065f5832ac8c", "is_disabled": 0, "rental_uris": {"android": "https://dc.lft.to/lastmile_qr_scan", "ios": "https://dc.lft.to/lastmile_qr_scan"}, "fusion_lon": 0.0, "lat": 38.910301, "bike_id": "590a7d9fa64786d924d5065f5832ac8c", "type": "electric_scooter", "is_reserved": 0, "lon": -77.02716483333333}, {"fusion_lat": 0.0, "name": "1b192d25139bf14a681fea646c452a37", "is_disabled": 0, "rental_uris": {"android": "https://dc.lft.to/lastmile_qr_scan", "ios": "https://dc.lft.to/lastmile_qr_scan"}, "fusion_lon": 0.0, "lat": 38.924445, "bike_id": "1b192d25139bf14a681fea646c452a37", "type": "electric_scooter", "is_reserved": 0, "lon": -77.0525225}, {"fusion_lat": 0.0, "name": "cee477920336f245fa8f27ab1af08ffc", "is_disabled": 0, "rental_uris": {"android": "https://dc.lft.to/lastmile_qr_scan", "ios": "https://dc.lft.to/lastmile_qr_scan"}, "fusion_lon": 0.0, "lat": 38.9147305, "bike_id": "cee477920336f245fa8f27ab1af08ffc", "type": "electric_scooter", "is_reserved": 0, "lon": -77.03901033333334}, {"fusion_lat": 0.0, "name": "e031f9ae01c4ea60e5480723a0d37cdb", "is_disabled": 0, "rental_uris": {"android": "https://dc.lft.to/lastmile_qr_scan", "ios": "https://dc.lft.to/lastmile_qr_scan"}, "fusion_lon": 0.0, "lat": 38.928741333333335, "bike_id": "e031f9ae01c4ea60e5480723a0d37cdb", "type": "electric_scooter", "is_reserved": 0, "lon": -77.03793183333333}, {"fusion_lat": 0.0, "name": "5f52afedda2e1c9ca4b4599ec91491a0", "is_disabled": 0, "rental_uris": {"android": "https://dc.lft.to/lastmile_qr_scan", "ios": "https://dc.lft.to/lastmile_qr_scan"}, "fusion_lon": 0.0, "lat": 38.921087166666666, "bike_id": "5f52afedda2e1c9ca4b4599ec91491a0", "type": "electric_scooter", "is_reserved": 0, "lon": -77.074803}, {"fusion_lat": 0.0, "name": "ad1a9f9e49e8c459376480aedbc4eaad", "is_disabled": 0, "rental_uris": {"android": "https://dc.lft.to/lastmile_qr_scan", "ios": "https://dc.lft.to/lastmile_qr_scan"}, "fusion_lon": 0.0, "lat": 38.8738975, "bike_id": "ad1a9f9e49e8c459376480aedbc4eaad", "type": "electric_scooter", "is_reserved": 0, "lon": -77.000261}, {"fusion_lat": 0.0, "name": "e7b7e133025c01cf67c75d24e382cb34", "is_disabled": 0, "rental_uris": {"android": "https://dc.lft.to/lastmile_qr_scan", "ios": "https://dc.lft.to/lastmile_qr_scan"}, "fusion_lon": 0.0, "lat": 38.898464, "bike_id": "e7b7e133025c01cf67c75d24e382cb34", "type": "electric_scooter", "is_reserved": 0, "lon": -77.0261515}, {"fusion_lat": 0.0, "name": "002fe0cd58baaae784b3b036363ec1e7", "is_disabled": 0, "rental_uris": {"android": "https://dc.lft.to/lastmile_qr_scan", "ios": "https://dc.lft.to/lastmile_qr_scan"}, "fusion_lon": 0.0, "lat": 38.91707433333333, "bike_id": "002fe0cd58baaae784b3b036363ec1e7", "type": "electric_scooter", "is_reserved": 0, "lon": -77.0011225}, {"fusion_lat": 0.0, "name": "c4d11fe649bb2fe5a5647f8134f96bb8", "is_disabled": 0, "rental_uris": {"android": "https://dc.lft.to/lastmile_qr_scan", "ios": "https://dc.lft.to/lastmile_qr_scan"}, "fusion_lon": 0.0, "lat": 38.92173233333333, "bike_id": "c4d11fe649bb2fe5a5647f8134f96bb8", "type": "electric_scooter", "is_reserved": 0, "lon": -77.03515616666667}, {"fusion_lat": 0.0, "name": "66a7540bfd3e8f9cdc5f28f917a26a62", "is_disabled": 0, "rental_uris": {"android": "https://dc.lft.to/lastmile_qr_scan", "ios": "https://dc.lft.to/lastmile_qr_scan"}, "fusion_lon": 0.0, "lat": 38.922616, "bike_id": "66a7540bfd3e8f9cdc5f28f917a26a62", "type": "electric_scooter", "is_reserved": 0, "lon": -77.018425}, {"fusion_lat": 0.0, "name": "acb7d2575292e2703ec45d5cff6fc5e6", "is_disabled": 0, "rental_uris": {"android": "https://dc.lft.to/lastmile_qr_scan", "ios": "https://dc.lft.to/lastmile_qr_scan"}, "fusion_lon": 0.0, "lat": 38.90054583333333, "bike_id": "acb7d2575292e2703ec45d5cff6fc5e6", "type": "electric_scooter", "is_reserved": 0, "lon": -77.00359533333334}, {"fusion_lat": 0.0, "name": "7f35c900edd5d5ebacdc2a1cc38200ea", "is_disabled": 0, "rental_uris": {"android": "https://dc.lft.to/lastmile_qr_scan", "ios": "https://dc.lft.to/lastmile_qr_scan"}, "fusion_lon": 0.0, "lat": 38.915044333333334, "bike_id": "7f35c900edd5d5ebacdc2a1cc38200ea", "type": "electric_scooter", "is_reserved": 0, "lon": -77.0091935}, {"fusion_lat": 0.0, "name": "e109e4f12e118f453364c2fbe17f6dd5", "is_disabled": 0, "rental_uris": {"android": "https://dc.lft.to/lastmile_qr_scan", "ios": "https://dc.lft.to/lastmile_qr_scan"}, "fusion_lon": 0.0, "lat": 38.898702, "bike_id": "e109e4f12e118f453364c2fbe17f6dd5", "type": "electric_scooter", "is_reserved": 0, "lon": -77.02052516666667}, {"fusion_lat": 0.0, "name": "49b19107c8644f3135b54a5a127f8902", "is_disabled": 0, "rental_uris": {"android": "https://dc.lft.to/lastmile_qr_scan", "ios": "https://dc.lft.to/lastmile_qr_scan"}, "fusion_lon": 0.0, "lat": 38.9287045, "bike_id": "49b19107c8644f3135b54a5a127f8902", "type": "electric_scooter", "is_reserved": 0, "lon": -77.0348185}, {"fusion_lat": 0.0, "name": "134c51cdef6d7804f3690e0255267a5d", "is_disabled": 0, "rental_uris": {"android": "https://dc.lft.to/lastmile_qr_scan", "ios": "https://dc.lft.to/lastmile_qr_scan"}, "fusion_lon": 0.0, "lat": 38.909542, "bike_id": "134c51cdef6d7804f3690e0255267a5d", "type": "electric_scooter", "is_reserved": 0, "lon": -76.98539533333333}, {"fusion_lat": 0.0, "name": "6d9d48ec9a8b22c7a0a6df226e5efbb5", "is_disabled": 0, "rental_uris": {"android": "https://dc.lft.to/lastmile_qr_scan", "ios": "https://dc.lft.to/lastmile_qr_scan"}, "fusion_lon": 0.0, "lat": 38.9073895, "bike_id": "6d9d48ec9a8b22c7a0a6df226e5efbb5", "type": "electric_scooter", "is_reserved": 0, "lon": -77.029702}, {"fusion_lat": 0.0, "name": "76712c206da85ce1977b66e62e740e02", "is_disabled": 0, "rental_uris": {"android": "https://dc.lft.to/lastmile_qr_scan", "ios": "https://dc.lft.to/lastmile_qr_scan"}, "fusion_lon": 0.0, "lat": 38.841313166666666, "bike_id": "76712c206da85ce1977b66e62e740e02", "type": "electric_bike", "is_reserved": 0, "lon": -77.063104}, {"fusion_lat": 0.0, "name": "d9f0a360adbba60f6e4fdb859171c25c", "is_disabled": 0, "rental_uris": {"android": "https://dc.lft.to/lastmile_qr_scan", "ios": "https://dc.lft.to/lastmile_qr_scan"}, "fusion_lon": 0.0, "lat": 38.883164666666666, "bike_id": "d9f0a360adbba60f6e4fdb859171c25c", "type": "electric_scooter", "is_reserved": 0, "lon": -77.01940416666666}, {"fusion_lat": 0.0, "name": "d4c83de2b7ca837aa156bb8807af5cc0", "is_disabled": 0, "rental_uris": {"android": "https://dc.lft.to/lastmile_qr_scan", "ios": "https://dc.lft.to/lastmile_qr_scan"}, "fusion_lon": 0.0, "lat": 38.819396, "bike_id": "d4c83de2b7ca837aa156bb8807af5cc0", "type": "electric_bike", "is_reserved": 0, "lon": -77.00205783333334}, {"fusion_lat": 0.0, "name": "1c6a2f19b0c456277030a70df05d2c96", "is_disabled": 0, "rental_uris": {"android": "https://dc.lft.to/lastmile_qr_scan", "ios": "https://dc.lft.to/lastmile_qr_scan"}, "fusion_lon": 0.0, "lat": 38.93755083333333, "bike_id": "1c6a2f19b0c456277030a70df05d2c96", "type": "electric_scooter", "is_reserved": 0, "lon": -77.02532583333333}, {"fusion_lat": 0.0, "name": "c6896d3e707c2d7d27cbbe903962b769", "is_disabled": 0, "rental_uris": {"android": "https://dc.lft.to/lastmile_qr_scan", "ios": "https://dc.lft.to/lastmile_qr_scan"}, "fusion_lon": 0.0, "lat": 38.9006805, "bike_id": "c6896d3e707c2d7d27cbbe903962b769", "type": "electric_scooter", "is_reserved": 0, "lon": -77.04533733333334}, {"fusion_lat": 0.0, "name": "98b04e4eab74614fa10e2d5ccff1ea3f", "is_disabled": 0, "rental_uris": {"android": "https://dc.lft.to/lastmile_qr_scan", "ios": "https://dc.lft.to/lastmile_qr_scan"}, "fusion_lon": 0.0, "lat": 38.89229383333333, "bike_id": "98b04e4eab74614fa10e2d5ccff1ea3f", "type": "electric_scooter", "is_reserved": 0, "lon": -77.00301483333334}, {"fusion_lat": 0.0, "name": "55375e900044c9bc941dff074d8ae771", "is_disabled": 0, "rental_uris": {"android": "https://dc.lft.to/lastmile_qr_scan", "ios": "https://dc.lft.to/lastmile_qr_scan"}, "fusion_lon": 0.0, "lat": 38.88968783333333, "bike_id": "55375e900044c9bc941dff074d8ae771", "type": "electric_scooter", "is_reserved": 0, "lon": -76.97970433333333}, {"fusion_lat": 0.0, "name": "b870edf1a590828150d33188906f929d", "is_disabled": 0, "rental_uris": {"android": "https://dc.lft.to/lastmile_qr_scan", "ios": "https://dc.lft.to/lastmile_qr_scan"}, "fusion_lon": 0.0, "lat": 38.90267383333333, "bike_id": "b870edf1a590828150d33188906f929d", "type": "electric_scooter", "is_reserved": 0, "lon": -77.03973383333333}, {"fusion_lat": 0.0, "name": "89539d6784d663de0395757de7a84377", "is_disabled": 0, "rental_uris": {"android": "https://dc.lft.to/lastmile_qr_scan", "ios": "https://dc.lft.to/lastmile_qr_scan"}, "fusion_lon": 0.0, "lat": 38.86354983333333, "bike_id": "89539d6784d663de0395757de7a84377", "type": "electric_bike", "is_reserved": 0, "lon": -77.07725666666667}, {"fusion_lat": 0.0, "name": "1dce0bea5edf1606137e1f47d264089e", "is_disabled": 0, "rental_uris": {"android": "https://dc.lft.to/lastmile_qr_scan", "ios": "https://dc.lft.to/lastmile_qr_scan"}, "fusion_lon": 0.0, "lat": 38.90022333333334, "bike_id": "1dce0bea5edf1606137e1f47d264089e", "type": "electric_scooter", "is_reserved": 0, "lon": -77.01123016666666}, {"fusion_lat": 0.0, "name": "bb188111ffa267510662236bf599dd07", "is_disabled": 0, "rental_uris": {"android": "https://dc.lft.to/lastmile_qr_scan", "ios": "https://dc.lft.to/lastmile_qr_scan"}, "fusion_lon": 0.0, "lat": 38.952976, "bike_id": "bb188111ffa267510662236bf599dd07", "type": "electric_bike", "is_reserved": 0, "lon": -76.99978083333333}, {"fusion_lat": 0.0, "name": "4dd940d7ba97694bace27b9c15e08724", "is_disabled": 0, "rental_uris": {"android": "https://dc.lft.to/lastmile_qr_scan", "ios": "https://dc.lft.to/lastmile_qr_scan"}, "fusion_lon": 0.0, "lat": 38.942522833333335, "bike_id": "4dd940d7ba97694bace27b9c15e08724", "type": "electric_scooter", "is_reserved": 0, "lon": -77.019492}, {"fusion_lat": 0.0, "name": "43b01ce3404f8e049202c7dfaeccfa8a", "is_disabled": 0, "rental_uris": {"android": "https://dc.lft.to/lastmile_qr_scan", "ios": "https://dc.lft.to/lastmile_qr_scan"}, "fusion_lon": 0.0, "lat": 38.9411185, "bike_id": "43b01ce3404f8e049202c7dfaeccfa8a", "type": "electric_scooter", "is_reserved": 0, "lon": -77.03480366666666}, {"fusion_lat": 0.0, "name": "1d3cdaa1b400eb64dfe71500d564b7d2", "is_disabled": 0, "rental_uris": {"android": "https://dc.lft.to/lastmile_qr_scan", "ios": "https://dc.lft.to/lastmile_qr_scan"}, "fusion_lon": 0.0, "lat": 38.909483, "bike_id": "1d3cdaa1b400eb64dfe71500d564b7d2", "type": "electric_scooter", "is_reserved": 0, "lon": -77.04414816666667}, {"fusion_lat": 0.0, "name": "174d6a4f3343005d626a2a6c22c2c476", "is_disabled": 0, "rental_uris": {"android": "https://dc.lft.to/lastmile_qr_scan", "ios": "https://dc.lft.to/lastmile_qr_scan"}, "fusion_lon": 0.0, "lat": 38.887548833333334, "bike_id": "174d6a4f3343005d626a2a6c22c2c476", "type": "electric_scooter", "is_reserved": 0, "lon": -76.99793916666667}, {"fusion_lat": 0.0, "name": "30d419d8a229fd92c145fcb13f0475d1", "is_disabled": 0, "rental_uris": {"android": "https://dc.lft.to/lastmile_qr_scan", "ios": "https://dc.lft.to/lastmile_qr_scan"}, "fusion_lon": 0.0, "lat": 38.889934, "bike_id": "30d419d8a229fd92c145fcb13f0475d1", "type": "electric_scooter", "is_reserved": 0, "lon": -76.92987466666666}, {"fusion_lat": 0.0, "name": "b86dcf298ed3097658e8b27da6f88ba8", "is_disabled": 0, "rental_uris": {"android": "https://dc.lft.to/lastmile_qr_scan", "ios": "https://dc.lft.to/lastmile_qr_scan"}, "fusion_lon": 0.0, "lat": 38.934197, "bike_id": "b86dcf298ed3097658e8b27da6f88ba8", "type": "electric_scooter", "is_reserved": 0, "lon": -77.02842083333333}, {"fusion_lat": 0.0, "name": "cca881fb026bb9a483b3ae9663c9307f", "is_disabled": 0, "rental_uris": {"android": "https://dc.lft.to/lastmile_qr_scan", "ios": "https://dc.lft.to/lastmile_qr_scan"}, "fusion_lon": 0.0, "lat": 38.898691666666664, "bike_id": "cca881fb026bb9a483b3ae9663c9307f", "type": "electric_scooter", "is_reserved": 0, "lon": -77.027239}, {"fusion_lat": 0.0, "name": "d322155f412b7a66a30dd1747c66171f", "is_disabled": 0, "rental_uris": {"android": "https://dc.lft.to/lastmile_qr_scan", "ios": "https://dc.lft.to/lastmile_qr_scan"}, "fusion_lon": 0.0, "lat": 38.945236333333334, "bike_id": "d322155f412b7a66a30dd1747c66171f", "type": "electric_scooter", "is_reserved": 0, "lon": -77.03888666666667}, {"fusion_lat": 0.0, "name": "cd29adafd887aa63671262a9b5eec32d", "is_disabled": 0, "rental_uris": {"android": "https://dc.lft.to/lastmile_qr_scan", "ios": "https://dc.lft.to/lastmile_qr_scan"}, "fusion_lon": 0.0, "lat": 38.8475765, "bike_id": "cd29adafd887aa63671262a9b5eec32d", "type": "electric_scooter", "is_reserved": 0, "lon": -76.99498616666666}, {"fusion_lat": 0.0, "name": "17262dcf7a53282266372815b86fc452", "is_disabled": 0, "rental_uris": {"android": "https://dc.lft.to/lastmile_qr_scan", "ios": "https://dc.lft.to/lastmile_qr_scan"}, "fusion_lon": 0.0, "lat": 38.90134666666667, "bike_id": "17262dcf7a53282266372815b86fc452", "type": "electric_scooter", "is_reserved": 0, "lon": -77.04041883333333}, {"fusion_lat": 0.0, "name": "965929df19b967ef4cc4613d303dec19", "is_disabled": 0, "rental_uris": {"android": "https://dc.lft.to/lastmile_qr_scan", "ios": "https://dc.lft.to/lastmile_qr_scan"}, "fusion_lon": 0.0, "lat": 38.937033166666666, "bike_id": "965929df19b967ef4cc4613d303dec19", "type": "electric_scooter", "is_reserved": 0, "lon": -77.06107266666666}, {"fusion_lat": 0.0, "name": "ba1c8202698748c346cbfa1df46a01a2", "is_disabled": 0, "rental_uris": {"android": "https://dc.lft.to/lastmile_qr_scan", "ios": "https://dc.lft.to/lastmile_qr_scan"}, "fusion_lon": 0.0, "lat": 38.920917833333334, "bike_id": "ba1c8202698748c346cbfa1df46a01a2", "type": "electric_scooter", "is_reserved": 0, "lon": -77.0242405}, {"fusion_lat": 0.0, "name": "4c4002af2eb475fab8cbfde95e2033fd", "is_disabled": 0, "rental_uris": {"android": "https://dc.lft.to/lastmile_qr_scan", "ios": "https://dc.lft.to/lastmile_qr_scan"}, "fusion_lon": 0.0, "lat": 38.918176333333335, "bike_id": "4c4002af2eb475fab8cbfde95e2033fd", "type": "electric_scooter", "is_reserved": 0, "lon": -77.02587616666666}, {"fusion_lat": 0.0, "name": "4a5cb9be259157fac35d59f7ece1fd17", "is_disabled": 0, "rental_uris": {"android": "https://dc.lft.to/lastmile_qr_scan", "ios": "https://dc.lft.to/lastmile_qr_scan"}, "fusion_lon": 0.0, "lat": 38.9223095, "bike_id": "4a5cb9be259157fac35d59f7ece1fd17", "type": "electric_scooter", "is_reserved": 0, "lon": -77.04397716666666}, {"fusion_lat": 0.0, "name": "b9c028c223b942da8e5a11ebbfb67075", "is_disabled": 0, "rental_uris": {"android": "https://dc.lft.to/lastmile_qr_scan", "ios": "https://dc.lft.to/lastmile_qr_scan"}, "fusion_lon": 0.0, "lat": 38.905644833333334, "bike_id": "b9c028c223b942da8e5a11ebbfb67075", "type": "electric_scooter", "is_reserved": 0, "lon": -77.01183916666666}, {"fusion_lat": 0.0, "name": "9fd4839965fe2f27f1d3cae763cf7eb7", "is_disabled": 0, "rental_uris": {"android": "https://dc.lft.to/lastmile_qr_scan", "ios": "https://dc.lft.to/lastmile_qr_scan"}, "fusion_lon": 0.0, "lat": 38.90655433333333, "bike_id": "9fd4839965fe2f27f1d3cae763cf7eb7", "type": "electric_scooter", "is_reserved": 0, "lon": -77.0253495}, {"fusion_lat": 0.0, "name": "a9d68d446953ecbb4b7a4ceb80662986", "is_disabled": 0, "rental_uris": {"android": "https://dc.lft.to/lastmile_qr_scan", "ios": "https://dc.lft.to/lastmile_qr_scan"}, "fusion_lon": 0.0, "lat": 38.905856166666666, "bike_id": "a9d68d446953ecbb4b7a4ceb80662986", "type": "electric_scooter", "is_reserved": 0, "lon": -77.0336045}, {"fusion_lat": 0.0, "name": "cace8fac859aa7994fe11ff7bd389c4d", "is_disabled": 0, "rental_uris": {"android": "https://dc.lft.to/lastmile_qr_scan", "ios": "https://dc.lft.to/lastmile_qr_scan"}, "fusion_lon": 0.0, "lat": 38.919467166666664, "bike_id": "cace8fac859aa7994fe11ff7bd389c4d", "type": "electric_scooter", "is_reserved": 0, "lon": -77.0394975}, {"fusion_lat": 0.0, "name": "02032243314212682f35aa5cdfe8d973", "is_disabled": 0, "rental_uris": {"android": "https://dc.lft.to/lastmile_qr_scan", "ios": "https://dc.lft.to/lastmile_qr_scan"}, "fusion_lon": 0.0, "lat": 38.916355333333335, "bike_id": "02032243314212682f35aa5cdfe8d973", "type": "electric_scooter", "is_reserved": 0, "lon": -77.0314035}, {"fusion_lat": 0.0, "name": "74f76d7a0367c2b7fd9fdde9abc4aefe", "is_disabled": 0, "rental_uris": {"android": "https://dc.lft.to/lastmile_qr_scan", "ios": "https://dc.lft.to/lastmile_qr_scan"}, "fusion_lon": 0.0, "lat": 38.91562016666666, "bike_id": "74f76d7a0367c2b7fd9fdde9abc4aefe", "type": "electric_scooter", "is_reserved": 0, "lon": -77.03151116666666}, {"fusion_lat": 0.0, "name": "96daf332e02d5829023abc5b6df6e020", "is_disabled": 0, "rental_uris": {"android": "https://dc.lft.to/lastmile_qr_scan", "ios": "https://dc.lft.to/lastmile_qr_scan"}, "fusion_lon": 0.0, "lat": 38.956902, "bike_id": "96daf332e02d5829023abc5b6df6e020", "type": "electric_scooter", "is_reserved": 0, "lon": -77.03257133333334}, {"fusion_lat": 0.0, "name": "ad3b90817c7cbbc7946ed704f8811d5d", "is_disabled": 0, "rental_uris": {"android": "https://dc.lft.to/lastmile_qr_scan", "ios": "https://dc.lft.to/lastmile_qr_scan"}, "fusion_lon": 0.0, "lat": 38.8935315, "bike_id": "ad3b90817c7cbbc7946ed704f8811d5d", "type": "electric_bike", "is_reserved": 0, "lon": -77.1874585}, {"fusion_lat": 0.0, "name": "b0f5bb53690c613ff8bc25179e6eceea", "is_disabled": 0, "rental_uris": {"android": "https://dc.lft.to/lastmile_qr_scan", "ios": "https://dc.lft.to/lastmile_qr_scan"}, "fusion_lon": 0.0, "lat": 38.91032233333333, "bike_id": "b0f5bb53690c613ff8bc25179e6eceea", "type": "electric_scooter", "is_reserved": 0, "lon": -77.01512616666666}, {"fusion_lat": 0.0, "name": "eae9578dcea3c83d83b55dd1b33eb851", "is_disabled": 0, "rental_uris": {"android": "https://dc.lft.to/lastmile_qr_scan", "ios": "https://dc.lft.to/lastmile_qr_scan"}, "fusion_lon": 0.0, "lat": 38.866812833333334, "bike_id": "eae9578dcea3c83d83b55dd1b33eb851", "type": "electric_bike", "is_reserved": 0, "lon": -76.98235733333334}, {"fusion_lat": 0.0, "name": "66b5eefa4086c78894d78f393668e682", "is_disabled": 0, "rental_uris": {"android": "https://dc.lft.to/lastmile_qr_scan", "ios": "https://dc.lft.to/lastmile_qr_scan"}, "fusion_lon": 0.0, "lat": 38.879259166666664, "bike_id": "66b5eefa4086c78894d78f393668e682", "type": "electric_scooter", "is_reserved": 0, "lon": -76.944829}, {"fusion_lat": 0.0, "name": "587ad33a8033e214c5541b9013327efe", "is_disabled": 0, "rental_uris": {"android": "https://dc.lft.to/lastmile_qr_scan", "ios": "https://dc.lft.to/lastmile_qr_scan"}, "fusion_lon": 0.0, "lat": 38.94951783333333, "bike_id": "587ad33a8033e214c5541b9013327efe", "type": "electric_scooter", "is_reserved": 0, "lon": -77.02314283333334}, {"fusion_lat": 0.0, "name": "ae514ea2e13aae27df7d2b8453e18236", "is_disabled": 0, "rental_uris": {"android": "https://dc.lft.to/lastmile_qr_scan", "ios": "https://dc.lft.to/lastmile_qr_scan"}, "fusion_lon": 0.0, "lat": 38.962375, "bike_id": "ae514ea2e13aae27df7d2b8453e18236", "type": "electric_bike", "is_reserved": 0, "lon": -76.92762916666666}, {"fusion_lat": 0.0, "name": "061bdda7759a916449ba6972b8032a54", "is_disabled": 0, "rental_uris": {"android": "https://dc.lft.to/lastmile_qr_scan", "ios": "https://dc.lft.to/lastmile_qr_scan"}, "fusion_lon": 0.0, "lat": 38.92060266666667, "bike_id": "061bdda7759a916449ba6972b8032a54", "type": "electric_bike", "is_reserved": 0, "lon": -77.03338033333333}, {"fusion_lat": 0.0, "name": "3b043133034ef871f26f2a97e838d2ab", "is_disabled": 0, "rental_uris": {"android": "https://dc.lft.to/lastmile_qr_scan", "ios": "https://dc.lft.to/lastmile_qr_scan"}, "fusion_lon": 0.0, "lat": 38.8771305, "bike_id": "3b043133034ef871f26f2a97e838d2ab", "type": "electric_scooter", "is_reserved": 0, "lon": -77.01854283333333}, {"fusion_lat": 0.0, "name": "73f014109bd57cbd21cbe5fa64aecd14", "is_disabled": 0, "rental_uris": {"android": "https://dc.lft.to/lastmile_qr_scan", "ios": "https://dc.lft.to/lastmile_qr_scan"}, "fusion_lon": 0.0, "lat": 38.932948, "bike_id": "73f014109bd57cbd21cbe5fa64aecd14", "type": "electric_scooter", "is_reserved": 0, "lon": -77.02797933333333}, {"fusion_lat": 0.0, "name": "265e707e11507d85eefa41729ad21fb9", "is_disabled": 0, "rental_uris": {"android": "https://dc.lft.to/lastmile_qr_scan", "ios": "https://dc.lft.to/lastmile_qr_scan"}, "fusion_lon": 0.0, "lat": 38.9061625, "bike_id": "265e707e11507d85eefa41729ad21fb9", "type": "electric_scooter", "is_reserved": 0, "lon": -77.03325033333333}, {"fusion_lat": 0.0, "name": "e36f0e124623f9d43e984fff5fde01ec", "is_disabled": 0, "rental_uris": {"android": "https://dc.lft.to/lastmile_qr_scan", "ios": "https://dc.lft.to/lastmile_qr_scan"}, "fusion_lon": 0.0, "lat": 38.88905533333333, "bike_id": "e36f0e124623f9d43e984fff5fde01ec", "type": "electric_scooter", "is_reserved": 0, "lon": -76.99205016666667}, {"fusion_lat": 0.0, "name": "1c99a41999a90b94630f83e068d70746", "is_disabled": 0, "rental_uris": {"android": "https://dc.lft.to/lastmile_qr_scan", "ios": "https://dc.lft.to/lastmile_qr_scan"}, "fusion_lon": 0.0, "lat": 38.9037475, "bike_id": "1c99a41999a90b94630f83e068d70746", "type": "electric_scooter", "is_reserved": 0, "lon": -77.0387425}, {"fusion_lat": 0.0, "name": "4f10e1515cd13f267c30b47ff907e9f3", "is_disabled": 0, "rental_uris": {"android": "https://dc.lft.to/lastmile_qr_scan", "ios": "https://dc.lft.to/lastmile_qr_scan"}, "fusion_lon": 0.0, "lat": 38.91974166666667, "bike_id": "4f10e1515cd13f267c30b47ff907e9f3", "type": "electric_scooter", "is_reserved": 0, "lon": -77.0710335}, {"fusion_lat": 0.0, "name": "7161f6d32a9d14f75b518162b1fb0901", "is_disabled": 0, "rental_uris": {"android": "https://dc.lft.to/lastmile_qr_scan", "ios": "https://dc.lft.to/lastmile_qr_scan"}, "fusion_lon": 0.0, "lat": 38.935152333333335, "bike_id": "7161f6d32a9d14f75b518162b1fb0901", "type": "electric_scooter", "is_reserved": 0, "lon": -77.0333725}, {"fusion_lat": 0.0, "name": "081641915bbc78c64693edbdfd97d56f", "is_disabled": 0, "rental_uris": {"android": "https://dc.lft.to/lastmile_qr_scan", "ios": "https://dc.lft.to/lastmile_qr_scan"}, "fusion_lon": 0.0, "lat": 38.92491283333333, "bike_id": "081641915bbc78c64693edbdfd97d56f", "type": "electric_scooter", "is_reserved": 0, "lon": -77.037763}, {"fusion_lat": 0.0, "name": "03e0ec8f712331802c42b15e57190120", "is_disabled": 0, "rental_uris": {"android": "https://dc.lft.to/lastmile_qr_scan", "ios": "https://dc.lft.to/lastmile_qr_scan"}, "fusion_lon": 0.0, "lat": 38.928759, "bike_id": "03e0ec8f712331802c42b15e57190120", "type": "electric_scooter", "is_reserved": 0, "lon": -77.03386033333334}, {"fusion_lat": 0.0, "name": "9db0be06db5fbc45a6615e584e0fd4f1", "is_disabled": 0, "rental_uris": {"android": "https://dc.lft.to/lastmile_qr_scan", "ios": "https://dc.lft.to/lastmile_qr_scan"}, "fusion_lon": 0.0, "lat": 38.9319475, "bike_id": "9db0be06db5fbc45a6615e584e0fd4f1", "type": "electric_bike", "is_reserved": 0, "lon": -77.22930016666666}, {"fusion_lat": 0.0, "name": "c5fe95332be509a81671b5d8e036922c", "is_disabled": 0, "rental_uris": {"android": "https://dc.lft.to/lastmile_qr_scan", "ios": "https://dc.lft.to/lastmile_qr_scan"}, "fusion_lon": 0.0, "lat": 38.916975, "bike_id": "c5fe95332be509a81671b5d8e036922c", "type": "electric_scooter", "is_reserved": 0, "lon": -77.02417766666667}, {"fusion_lat": 0.0, "name": "c5546f76a3ff7820d71d52f595d1a25c", "is_disabled": 0, "rental_uris": {"android": "https://dc.lft.to/lastmile_qr_scan", "ios": "https://dc.lft.to/lastmile_qr_scan"}, "fusion_lon": 0.0, "lat": 38.921259666666664, "bike_id": "c5546f76a3ff7820d71d52f595d1a25c", "type": "electric_scooter", "is_reserved": 0, "lon": -77.0242525}, {"fusion_lat": 0.0, "name": "c8d5097356beeaffd3d6c878b83034b9", "is_disabled": 0, "rental_uris": {"android": "https://dc.lft.to/lastmile_qr_scan", "ios": "https://dc.lft.to/lastmile_qr_scan"}, "fusion_lon": 0.0, "lat": 38.900302333333336, "bike_id": "c8d5097356beeaffd3d6c878b83034b9", "type": "electric_scooter", "is_reserved": 0, "lon": -77.01125133333333}, {"fusion_lat": 0.0, "name": "7654c7be6aff5878dcef4a10d66b4309", "is_disabled": 0, "rental_uris": {"android": "https://dc.lft.to/lastmile_qr_scan", "ios": "https://dc.lft.to/lastmile_qr_scan"}, "fusion_lon": 0.0, "lat": 38.903682, "bike_id": "7654c7be6aff5878dcef4a10d66b4309", "type": "electric_scooter", "is_reserved": 0, "lon": -77.038725}, {"fusion_lat": 0.0, "name": "506721ec3fd21b6f897d1ead5edcafad", "is_disabled": 0, "rental_uris": {"android": "https://dc.lft.to/lastmile_qr_scan", "ios": "https://dc.lft.to/lastmile_qr_scan"}, "fusion_lon": 0.0, "lat": 38.81918483333333, "bike_id": "506721ec3fd21b6f897d1ead5edcafad", "type": "electric_bike", "is_reserved": 0, "lon": -77.04800783333333}, {"fusion_lat": 0.0, "name": "c6ca75ea41ba8d1e70fb653cd0be4887", "is_disabled": 0, "rental_uris": {"android": "https://dc.lft.to/lastmile_qr_scan", "ios": "https://dc.lft.to/lastmile_qr_scan"}, "fusion_lon": 0.0, "lat": 38.856012, "bike_id": "c6ca75ea41ba8d1e70fb653cd0be4887", "type": "electric_scooter", "is_reserved": 0, "lon": -76.97275216666667}, {"fusion_lat": 0.0, "name": "6f6f93eba9df89b2dbd407a2254818b4", "is_disabled": 0, "rental_uris": {"android": "https://dc.lft.to/lastmile_qr_scan", "ios": "https://dc.lft.to/lastmile_qr_scan"}, "fusion_lon": 0.0, "lat": 38.908623666666664, "bike_id": "6f6f93eba9df89b2dbd407a2254818b4", "type": "electric_scooter", "is_reserved": 0, "lon": -77.03461033333333}, {"fusion_lat": 0.0, "name": "b2b4799c0bb40eb53479ac73ddbb67de", "is_disabled": 0, "rental_uris": {"android": "https://dc.lft.to/lastmile_qr_scan", "ios": "https://dc.lft.to/lastmile_qr_scan"}, "fusion_lon": 0.0, "lat": 38.926118333333335, "bike_id": "b2b4799c0bb40eb53479ac73ddbb67de", "type": "electric_scooter", "is_reserved": 0, "lon": -77.03965033333333}, {"fusion_lat": 0.0, "name": "d4bc59cc245507276a0a73c57d9def8b", "is_disabled": 0, "rental_uris": {"android": "https://dc.lft.to/lastmile_qr_scan", "ios": "https://dc.lft.to/lastmile_qr_scan"}, "fusion_lon": 0.0, "lat": 38.899714333333336, "bike_id": "d4bc59cc245507276a0a73c57d9def8b", "type": "electric_scooter", "is_reserved": 0, "lon": -77.03336083333333}, {"fusion_lat": 0.0, "name": "802e3c1fd11155404670c9a0edf7a33d", "is_disabled": 0, "rental_uris": {"android": "https://dc.lft.to/lastmile_qr_scan", "ios": "https://dc.lft.to/lastmile_qr_scan"}, "fusion_lon": 0.0, "lat": 38.88302866666667, "bike_id": "802e3c1fd11155404670c9a0edf7a33d", "type": "electric_scooter", "is_reserved": 0, "lon": -76.94857983333333}, {"fusion_lat": 0.0, "name": "cb927d07bbe82f0141a55d8f8141e687", "is_disabled": 0, "rental_uris": {"android": "https://dc.lft.to/lastmile_qr_scan", "ios": "https://dc.lft.to/lastmile_qr_scan"}, "fusion_lon": 0.0, "lat": 38.9169275, "bike_id": "cb927d07bbe82f0141a55d8f8141e687", "type": "electric_scooter", "is_reserved": 0, "lon": -77.02296866666667}, {"fusion_lat": 0.0, "name": "253b97e9c670c2ba38e881df96bb74cc", "is_disabled": 0, "rental_uris": {"android": "https://dc.lft.to/lastmile_qr_scan", "ios": "https://dc.lft.to/lastmile_qr_scan"}, "fusion_lon": 0.0, "lat": 38.892261166666664, "bike_id": "253b97e9c670c2ba38e881df96bb74cc", "type": "electric_scooter", "is_reserved": 0, "lon": -77.03173483333333}, {"fusion_lat": 0.0, "name": "9f3506c31021e1eb233f45e19b71eb39", "is_disabled": 0, "rental_uris": {"android": "https://dc.lft.to/lastmile_qr_scan", "ios": "https://dc.lft.to/lastmile_qr_scan"}, "fusion_lon": 0.0, "lat": 38.807561666666665, "bike_id": "9f3506c31021e1eb233f45e19b71eb39", "type": "electric_bike", "is_reserved": 0, "lon": -77.09454116666667}, {"fusion_lat": 0.0, "name": "670190c58a0d8e65e29f9f657b1f98c4", "is_disabled": 0, "rental_uris": {"android": "https://dc.lft.to/lastmile_qr_scan", "ios": "https://dc.lft.to/lastmile_qr_scan"}, "fusion_lon": 0.0, "lat": 38.908097166666664, "bike_id": "670190c58a0d8e65e29f9f657b1f98c4", "type": "electric_scooter", "is_reserved": 0, "lon": -77.03467866666666}, {"fusion_lat": 0.0, "name": "a067030d35153fadeca24e66cf46bb00", "is_disabled": 0, "rental_uris": {"android": "https://dc.lft.to/lastmile_qr_scan", "ios": "https://dc.lft.to/lastmile_qr_scan"}, "fusion_lon": 0.0, "lat": 38.8967065, "bike_id": "a067030d35153fadeca24e66cf46bb00", "type": "electric_scooter", "is_reserved": 0, "lon": -77.04899616666667}, {"fusion_lat": 0.0, "name": "9f7463ed78122aef245a69d7c40f8893", "is_disabled": 0, "rental_uris": {"android": "https://dc.lft.to/lastmile_qr_scan", "ios": "https://dc.lft.to/lastmile_qr_scan"}, "fusion_lon": 0.0, "lat": 38.90107583333333, "bike_id": "9f7463ed78122aef245a69d7c40f8893", "type": "electric_scooter", "is_reserved": 0, "lon": -77.0515605}, {"fusion_lat": 0.0, "name": "87b6003329ef01fe56037eb43d558dee", "is_disabled": 0, "rental_uris": {"android": "https://dc.lft.to/lastmile_qr_scan", "ios": "https://dc.lft.to/lastmile_qr_scan"}, "fusion_lon": 0.0, "lat": 38.905835333333336, "bike_id": "87b6003329ef01fe56037eb43d558dee", "type": "electric_scooter", "is_reserved": 0, "lon": -77.00885083333333}, {"fusion_lat": 0.0, "name": "fdf1d9b6a195def6d97d4ca3ec0e92af", "is_disabled": 0, "rental_uris": {"android": "https://dc.lft.to/lastmile_qr_scan", "ios": "https://dc.lft.to/lastmile_qr_scan"}, "fusion_lon": 0.0, "lat": 38.9037885, "bike_id": "fdf1d9b6a195def6d97d4ca3ec0e92af", "type": "electric_scooter", "is_reserved": 0, "lon": -77.03875283333333}, {"fusion_lat": 0.0, "name": "3fe8a2b62b77eab5b26824201b1951e4", "is_disabled": 0, "rental_uris": {"android": "https://dc.lft.to/lastmile_qr_scan", "ios": "https://dc.lft.to/lastmile_qr_scan"}, "fusion_lon": 0.0, "lat": 38.90361683333333, "bike_id": "3fe8a2b62b77eab5b26824201b1951e4", "type": "electric_scooter", "is_reserved": 0, "lon": -76.97247483333334}, {"fusion_lat": 0.0, "name": "f5f3e21d1ff0b3891f6dcff5f60ae9e3", "is_disabled": 0, "rental_uris": {"android": "https://dc.lft.to/lastmile_qr_scan", "ios": "https://dc.lft.to/lastmile_qr_scan"}, "fusion_lon": 0.0, "lat": 38.9097195, "bike_id": "f5f3e21d1ff0b3891f6dcff5f60ae9e3", "type": "electric_scooter", "is_reserved": 0, "lon": -77.00905983333334}, {"fusion_lat": 0.0, "name": "07a801829efbf561b26a23e8e872b47d", "is_disabled": 0, "rental_uris": {"android": "https://dc.lft.to/lastmile_qr_scan", "ios": "https://dc.lft.to/lastmile_qr_scan"}, "fusion_lon": 0.0, "lat": 38.928844166666664, "bike_id": "07a801829efbf561b26a23e8e872b47d", "type": "electric_scooter", "is_reserved": 0, "lon": -77.0337855}, {"fusion_lat": 0.0, "name": "ea94d3edf1437544520da1e7d0906110", "is_disabled": 0, "rental_uris": {"android": "https://dc.lft.to/lastmile_qr_scan", "ios": "https://dc.lft.to/lastmile_qr_scan"}, "fusion_lon": 0.0, "lat": 38.9413375, "bike_id": "ea94d3edf1437544520da1e7d0906110", "type": "electric_scooter", "is_reserved": 0, "lon": -77.00610566666667}, {"fusion_lat": 0.0, "name": "8fcaaea14420d28b2ccbf5664d048453", "is_disabled": 0, "rental_uris": {"android": "https://dc.lft.to/lastmile_qr_scan", "ios": "https://dc.lft.to/lastmile_qr_scan"},