{"data": {"bikes": [{"name": "8c47f8f84c5079e2eba46aa34cdaee72", "fusion_lat": 0.0, "type": "electric_scooter", "lat": 38.89857816666667, "is_reserved": 0, "is_disabled": 0, "fusion_lon": 0.0, "bike_id": "8c47f8f84c5079e2eba46aa34cdaee72", "lon": -77.01613933333333, "rental_uris": {"ios": "https://dc.lft.to/lastmile_qr_scan", "android": "https://dc.lft.to/lastmile_qr_scan"}}, {"name": "14e7fc3479595cdb410625b7b492707e", "fusion_lat": 0.0, "type": "electric_scooter", "lat": 38.87184666666667, "is_reserved": 0, "is_disabled": 0, "fusion_lon": 0.0, "bike_id": "14e7fc3479595cdb410625b7b492707e", "lon": -77.0060095, "rental_uris": {"ios": "https://dc.lft.to/lastmile_qr_scan", "android": "https://dc.lft.to/lastmile_qr_scan"}}, {"name": "0f8ac42819800c84ad43763d25aea005", "fusion_lat": 0.0, "type": "electric_scooter", "lat": 38.89372683333333, "is_reserved": 0, "is_disabled": 0, "fusion_lon": 0.0, "bike_id": "0f8ac42819800c84ad43763d25aea005", "lon": -76.94996233333333, "rental_uris": {"ios": "https://dc.lft.to/lastmile_qr_scan", "android": "https://dc.lft.to/lastmile_qr_scan"}}, {"name": "a14252b47fe260b99aec6d1a869f6b68", "fusion_lat": 0.0, "type": "electric_bike", "lat": 38.883446, "is_reserved": 0, "is_disabled": 0, "fusion_lon": 0.0, "bike_id": "a14252b47fe260b99aec6d1a869f6b68", "lon": -77.18292983333333, "rental_uris": {"ios": "https://dc.lft.to/lastmile_qr_scan", "android": "https://dc.lft.to/lastmile_qr_scan"}}, {"name": "35a42124f130c20bd72541e502789256", "fusion_lat": 0.0, "type": "electric_scooter", "lat": 38.94280216666667, "is_reserved": 0, "is_disabled": 0, "fusion_lon": 0.0, "bike_id": "35a42124f130c20bd72541e502789256", "lon": -77.025033, "rental_uris": {"ios": "https://dc.lft.to/lastmile_qr_scan", "android": "https://dc.lft.to/lastmile_qr_scan"}}, {"name": "560237e451b67756ef1078c59fd795d1", "fusion_lat": 0.0, "type": "electric_scooter", "lat": 38.927277833333335, "is_reserved": 0, "is_disabled": 0, "fusion_lon": 0.0, "bike_id": "560237e451b67756ef1078c59fd795d1", "lon": -77.07141366666667, "rental_uris": {"ios": "https://dc.lft.to/lastmile_qr_scan", "android": "https://dc.lft.to/lastmile_qr_scan"}}, {"name": "2eaa54a3c1e8f4d1697a44c41871da68", "fusion_lat": 0.0, "type": "electric_scooter", "lat": 38.93417483333333, "is_reserved": 0, "is_disabled": 0, "fusion_lon": 0.0, "bike_id": "2eaa54a3c1e8f4d1697a44c41871da68", "lon": -77.04187083333333, "rental_uris": {"ios": "https://dc.lft.to/lastmile_qr_scan", "android": "https://dc.lft.to/lastmile_qr_scan"}}, {"name": "bf4ea4184ab9b25a2bcfe6fb4831309f", "fusion_lat": 0.0, "type": "electric_scooter", "lat": 38.910483, "is_reserved": 0, "is_disabled": 0, "fusion_lon": 0.0, "bike_id": "bf4ea4184ab9b25a2bcfe6fb4831309f", "lon": -77.0437025, "rental_uris": {"ios": "https://dc.lft.to/lastmile_qr_scan", "android": "https://dc.lft.to/lastmile_qr_scan"}}, {"name": "c92d32854478d64d49e24263c01f8956", "fusion_lat": 0.0, "type": "electric_scooter", "lat": 38.885978, "is_reserved": 0, "is_disabled": 0, "fusion_lon": 0.0, "bike_id": "c92d32854478d64d49e24263c01f8956", "lon": -77.02201316666667, "rental_uris": {"ios": "https://dc.lft.to/lastmile_qr_scan", "android": "https://dc.lft.to/lastmile_qr_scan"}}, {"name": "a57649d57e9812ca71a3e8cba87687dc", "fusion_lat": 0.0, "type": "electric_scooter", "lat": 38.900276833333336, "is_reserved": 0, "is_disabled": 0, "fusion_lon": 0.0, "bike_id": "a57649d57e9812ca71a3e8cba87687dc", "lon": -76.99861266666667, "rental_uris": {"ios": "https://dc.lft.to/lastmile_qr_scan", "android": "https://dc.lft.to/lastmile_qr_scan"}}, {"name": "d11205d55410e169f1417d22ea22ebe3", "fusion_lat": 0.0, "type": "electric_scooter", "lat": 38.921033, "is_reserved": 0, "is_disabled": 0, "fusion_lon": 0.0, "bike_id": "d11205d55410e169f1417d22ea22ebe3", "lon": -77.0469385, "rental_uris": {"ios": "https://dc.lft.to/lastmile_qr_scan", "android": "https://dc.lft.to/lastmile_qr_scan"}}, {"name": "6cf4a49f8bd0b7072b9281fd44fd6531", "fusion_lat": 0.0, "type": "electric_scooter", "lat": 38.912052, "is_reserved": 0, "is_disabled": 0, "fusion_lon": 0.0, "bike_id": "6cf4a49f8bd0b7072b9281fd44fd6531", "lon": -77.03639183333334, "rental_uris": {"ios": "https://dc.lft.to/lastmile_qr_scan", "android": "https://dc.lft.to/lastmile_qr_scan"}}, {"name": "4a8c6a5c775f812def5200cc65c74262", "fusion_lat": 0.0, "type": "electric_scooter", "lat": 38.90329883333333, "is_reserved": 0, "is_disabled": 0, "fusion_lon": 0.0, "bike_id": "4a8c6a5c775f812def5200cc65c74262", "lon": -77.05437516666667, "rental_uris": {"ios": "https://dc.lft.to/lastmile_qr_scan", "android": "https://dc.lft.to/lastmile_qr_scan"}}, {"name": "e91345059404a46d26c080ee8ca9e736", "fusion_lat": 0.0, "type": "electric_scooter", "lat": 38.878668166666664, "is_reserved": 0, "is_disabled": 0, "fusion_lon": 0.0, "bike_id": "e91345059404a46d26c080ee8ca9e736", "lon": -76.96527316666666, "rental_uris": {"ios": "https://dc.lft.to/lastmile_qr_scan", "android": "https://dc.lft.to/lastmile_qr_scan"}}, {"name": "039ea1e64fd340c266f910c453290ad6", "fusion_lat": 0.0, "type": "electric_scooter", "lat": 38.92813133333333, "is_reserved": 0, "is_disabled": 0, "fusion_lon": 0.0, "bike_id": "039ea1e64fd340c266f910c453290ad6", "lon": -77.03634366666667, "rental_uris": {"ios": "https://dc.lft.to/lastmile_qr_scan", "android": "https://dc.lft.to/lastmile_qr_scan"}}, {"name": "4ff3339d267e6c3f6ee7ff491c9ba91c", "fusion_lat": 0.0, "type": "electric_scooter", "lat": 38.90272183333333, "is_reserved": 0, "is_disabled": 0, "fusion_lon": 0.0, "bike_id": "4ff3339d267e6c3f6ee7ff491c9ba91c", "lon": -77.0181155, "rental_uris": {"ios": "https://dc.lft.to/lastmile_qr_scan", "android": "https://dc.lft.to/lastmile_qr_scan"}}, {"name": "6d985f6d97994ba9e38cd1913ef3e794", "fusion_lat": 0.0, "type": "electric_scooter", "lat": 38.91806716666667, "is_reserved": 0, "is_disabled": 0, "fusion_lon": 0.0, "bike_id": "6d985f6d97994ba9e38cd1913ef3e794", "lon": -77.02493716666666, "rental_uris": {"ios": "https://dc.lft.to/lastmile_qr_scan", "android": "https://dc.lft.to/lastmile_qr_scan"}}, {"name": "dcfae4aa41b9085d9b9212a6fedaa961", "fusion_lat": 0.0, "type": "electric_scooter", "lat": 38.895235666666665, "is_reserved": 0, "is_disabled": 0, "fusion_lon": 0.0, "bike_id": "dcfae4aa41b9085d9b9212a6fedaa961", "lon": -76.9921245, "rental_uris": {"ios": "https://dc.lft.to/lastmile_qr_scan", "android": "https://dc.lft.to/lastmile_qr_scan"}}, {"name": "b913c789ecb0fd4a094ec1ed5913a0f3", "fusion_lat": 0.0, "type": "electric_scooter", "lat": 38.9023275, "is_reserved": 0, "is_disabled": 0, "fusion_lon": 0.0, "bike_id": "b913c789ecb0fd4a094ec1ed5913a0f3", "lon": -77.02686, "rental_uris": {"ios": "https://dc.lft.to/lastmile_qr_scan", "android": "https://dc.lft.to/lastmile_qr_scan"}}, {"name": "1e79def576e8d9f29bdaf8504f7ebda7", "fusion_lat": 0.0, "type": "electric_scooter", "lat": 38.899945833333334, "is_reserved": 0, "is_disabled": 0, "fusion_lon": 0.0, "bike_id": "1e79def576e8d9f29bdaf8504f7ebda7", "lon": -77.04575516666667, "rental_uris": {"ios": "https://dc.lft.to/lastmile_qr_scan", "android": "https://dc.lft.to/lastmile_qr_scan"}}, {"name": "c0ce86d88d29b4a450c80b55cb0cb67a", "fusion_lat": 0.0, "type": "electric_scooter", "lat": 38.903509, "is_reserved": 0, "is_disabled": 0, "fusion_lon": 0.0, "bike_id": "c0ce86d88d29b4a450c80b55cb0cb67a", "lon": -77.02605583333333, "rental_uris": {"ios": "https://dc.lft.to/lastmile_qr_scan", "android": "https://dc.lft.to/lastmile_qr_scan"}}, {"name": "b223b7990ebaadbd11cd3cd1c1d9645d", "fusion_lat": 0.0, "type": "electric_bike", "lat": 38.96011016666667, "is_reserved": 0, "is_disabled": 0, "fusion_lon": 0.0, "bike_id": "b223b7990ebaadbd11cd3cd1c1d9645d", "lon": -76.9985905, "rental_uris": {"ios": "https://dc.lft.to/lastmile_qr_scan", "android": "https://dc.lft.to/lastmile_qr_scan"}}, {"name": "385cbcaa8fc1d0b136c3ffd83f1e1d2a", "fusion_lat": 0.0, "type": "electric_bike", "lat": 38.8812245, "is_reserved": 0, "is_disabled": 0, "fusion_lon": 0.0, "bike_id": "385cbcaa8fc1d0b136c3ffd83f1e1d2a", "lon": -77.01344833333333, "rental_uris": {"ios": "https://dc.lft.to/lastmile_qr_scan", "android": "https://dc.lft.to/lastmile_qr_scan"}}, {"name": "b21b64479d2d33401f29ebd1ea48a085", "fusion_lat": 0.0, "type": "electric_scooter", "lat": 38.904813833333336, "is_reserved": 0, "is_disabled": 0, "fusion_lon": 0.0, "bike_id": "b21b64479d2d33401f29ebd1ea48a085", "lon": -77.02177366666666, "rental_uris": {"ios": "https://dc.lft.to/lastmile_qr_scan", "android": "https://dc.lft.to/lastmile_qr_scan"}}, {"name": "e262c902009021b46502c1e90b892293", "fusion_lat": 0.0, "type": "electric_bike", "lat": 38.84272083333333, "is_reserved": 0, "is_disabled": 0, "fusion_lon": 0.0, "bike_id": "e262c902009021b46502c1e90b892293", "lon": -76.988442, "rental_uris": {"ios": "https://dc.lft.to/lastmile_qr_scan", "android": "https://dc.lft.to/lastmile_qr_scan"}}, {"name": "35921bfe23c88dd5d46e7d22effc257f", "fusion_lat": 0.0, "type": "electric_scooter", "lat": 38.871864, "is_reserved": 0, "is_disabled": 0, "fusion_lon": 0.0, "bike_id": "35921bfe23c88dd5d46e7d22effc257f", "lon": -77.00597633333334, "rental_uris": {"ios": "https://dc.lft.to/lastmile_qr_scan", "android": "https://dc.lft.to/lastmile_qr_scan"}}, {"name": "f301ac9ff313f3fe73f1ef617fdfbfe1", "fusion_lat": 0.0, "type": "electric_scooter", "lat": 38.92127266666667, "is_reserved": 0, "is_disabled": 0, "fusion_lon": 0.0, "bike_id": "f301ac9ff313f3fe73f1ef617fdfbfe1", "lon": -77.02521683333333, "rental_uris": {"ios": "https://dc.lft.to/lastmile_qr_scan", "android": "https://dc.lft.to/lastmile_qr_scan"}}, {"name": "fe009d7f20d39d6a33fc42471bd7d153", "fusion_lat": 0.0, "type": "electric_scooter", "lat": 38.94201966666667, "is_reserved": 0, "is_disabled": 0, "fusion_lon": 0.0, "bike_id": "fe009d7f20d39d6a33fc42471bd7d153", "lon": -77.02511716666666, "rental_uris": {"ios": "https://dc.lft.to/lastmile_qr_scan", "android": "https://dc.lft.to/lastmile_qr_scan"}}, {"name": "b316d7b85c829c739ee1e5cde7841962", "fusion_lat": 0.0, "type": "electric_scooter", "lat": 38.9282555, "is_reserved": 0, "is_disabled": 0, "fusion_lon": 0.0, "bike_id": "b316d7b85c829c739ee1e5cde7841962", "lon": -77.02257666666667, "rental_uris": {"ios": "https://dc.lft.to/lastmile_qr_scan", "android": "https://dc.lft.to/lastmile_qr_scan"}}, {"name": "536e13b92027edc8b6b10e6a9ea0ba8e", "fusion_lat": 0.0, "type": "electric_scooter", "lat": 38.92577983333334, "is_reserved": 0, "is_disabled": 0, "fusion_lon": 0.0, "bike_id": "536e13b92027edc8b6b10e6a9ea0ba8e", "lon": -76.9948705, "rental_uris": {"ios": "https://dc.lft.to/lastmile_qr_scan", "android": "https://dc.lft.to/lastmile_qr_scan"}}, {"name": "85671b119ccce59787dded214a4ffcd5", "fusion_lat": 0.0, "type": "electric_scooter", "lat": 38.90370733333334, "is_reserved": 0, "is_disabled": 0, "fusion_lon": 0.0, "bike_id": "85671b119ccce59787dded214a4ffcd5", "lon": -77.05026483333333, "rental_uris": {"ios": "https://dc.lft.to/lastmile_qr_scan", "android": "https://dc.lft.to/lastmile_qr_scan"}}, {"name": "fd709fc33dd7dbab72452b3ede3c3b0f", "fusion_lat": 0.0, "type": "electric_scooter", "lat": 38.861592333333334, "is_reserved": 0, "is_disabled": 0, "fusion_lon": 0.0, "bike_id": "fd709fc33dd7dbab72452b3ede3c3b0f", "lon": -76.98922683333333, "rental_uris": {"ios": "https://dc.lft.to/lastmile_qr_scan", "android": "https://dc.lft.to/lastmile_qr_scan"}}, {"name": "eb29273999d7db3c1ba529bdcacfcfdb", "fusion_lat": 0.0, "type": "electric_scooter", "lat": 38.90264583333333, "is_reserved": 0, "is_disabled": 0, "fusion_lon": 0.0, "bike_id": "eb29273999d7db3c1ba529bdcacfcfdb", "lon": -77.03851066666667, "rental_uris": {"ios": "https://dc.lft.to/lastmile_qr_scan", "android": "https://dc.lft.to/lastmile_qr_scan"}}, {"name": "e49dd41fcb7691440816a84b595d5194", "fusion_lat": 0.0, "type": "electric_bike", "lat": 38.99457816666666, "is_reserved": 0, "is_disabled": 0, "fusion_lon": 0.0, "bike_id": "e49dd41fcb7691440816a84b595d5194", "lon": -76.908149, "rental_uris": {"ios": "https://dc.lft.to/lastmile_qr_scan", "android": "https://dc.lft.to/lastmile_qr_scan"}}, {"name": "1403674c8f94f8d59ef496de14679f80", "fusion_lat": 0.0, "type": "electric_scooter", "lat": 38.9117455, "is_reserved": 0, "is_disabled": 0, "fusion_lon": 0.0, "bike_id": "1403674c8f94f8d59ef496de14679f80", "lon": -77.031939, "rental_uris": {"ios": "https://dc.lft.to/lastmile_qr_scan", "android": "https://dc.lft.to/lastmile_qr_scan"}}, {"name": "87eb3c30daa1e21b45992e35b54bf3ef", "fusion_lat": 0.0, "type": "electric_scooter", "lat": 38.91412566666666, "is_reserved": 0, "is_disabled": 0, "fusion_lon": 0.0, "bike_id": "87eb3c30daa1e21b45992e35b54bf3ef", "lon": -77.0390845, "rental_uris": {"ios": "https://dc.lft.to/lastmile_qr_scan", "android": "https://dc.lft.to/lastmile_qr_scan"}}, {"name": "8aa7d3caf5030abe333778f695237ab1", "fusion_lat": 0.0, "type": "electric_bike", "lat": 38.873018, "is_reserved": 0, "is_disabled": 0, "fusion_lon": 0.0, "bike_id": "8aa7d3caf5030abe333778f695237ab1", "lon": -77.010933, "rental_uris": {"ios": "https://dc.lft.to/lastmile_qr_scan", "android": "https://dc.lft.to/lastmile_qr_scan"}}, {"name": "8a4c4a3f06c52cd749470e6523e49622", "fusion_lat": 0.0, "type": "electric_scooter", "lat": 38.91744083333333, "is_reserved": 0, "is_disabled": 0, "fusion_lon": 0.0, "bike_id": "8a4c4a3f06c52cd749470e6523e49622", "lon": -77.032059, "rental_uris": {"ios": "https://dc.lft.to/lastmile_qr_scan", "android": "https://dc.lft.to/lastmile_qr_scan"}}, {"name": "ffd11f1c95a01845621cbf12f7eafb36", "fusion_lat": 0.0, "type": "electric_bike", "lat": 38.905298, "is_reserved": 0, "is_disabled": 0, "fusion_lon": 0.0, "bike_id": "ffd11f1c95a01845621cbf12f7eafb36", "lon": -76.99805066666667, "rental_uris": {"ios": "https://dc.lft.to/lastmile_qr_scan", "android": "https://dc.lft.to/lastmile_qr_scan"}}, {"name": "68e24310fd6f727d53c4bcc7e655ed23", "fusion_lat": 0.0, "type": "electric_scooter", "lat": 38.899807, "is_reserved": 0, "is_disabled": 0, "fusion_lon": 0.0, "bike_id": "68e24310fd6f727d53c4bcc7e655ed23", "lon": -77.02707116666667, "rental_uris": {"ios": "https://dc.lft.to/lastmile_qr_scan", "android": "https://dc.lft.to/lastmile_qr_scan"}}, {"name": "bbecb2a33d3de52760b0dc373cdc4a92", "fusion_lat": 0.0, "type": "electric_scooter", "lat": 38.94374166666667, "is_reserved": 0, "is_disabled": 0, "fusion_lon": 0.0, "bike_id": "bbecb2a33d3de52760b0dc373cdc4a92", "lon": -77.06092683333334, "rental_uris": {"ios": "https://dc.lft.to/lastmile_qr_scan", "android": "https://dc.lft.to/lastmile_qr_scan"}}, {"name": "bf07d16677c54aa3f3a888ad2c222c1d", "fusion_lat": 0.0, "type": "electric_scooter", "lat": 38.923671166666665, "is_reserved": 0, "is_disabled": 0, "fusion_lon": 0.0, "bike_id": "bf07d16677c54aa3f3a888ad2c222c1d", "lon": -77.01925883333334, "rental_uris": {"ios": "https://dc.lft.to/lastmile_qr_scan", "android": "https://dc.lft.to/lastmile_qr_scan"}}, {"name": "3f26bc7e062e9849f0e38540e94c39bf", "fusion_lat": 0.0, "type": "electric_scooter", "lat": 38.88718516666667, "is_reserved": 0, "is_disabled": 0, "fusion_lon": 0.0, "bike_id": "3f26bc7e062e9849f0e38540e94c39bf", "lon": -77.0177725, "rental_uris": {"ios": "https://dc.lft.to/lastmile_qr_scan", "android": "https://dc.lft.to/lastmile_qr_scan"}}, {"name": "0f4fee39211c9a1211ea402cebda68a6", "fusion_lat": 0.0, "type": "electric_scooter", "lat": 38.93607183333334, "is_reserved": 0, "is_disabled": 0, "fusion_lon": 0.0, "bike_id": "0f4fee39211c9a1211ea402cebda68a6", "lon": -77.05860066666666, "rental_uris": {"ios": "https://dc.lft.to/lastmile_qr_scan", "android": "https://dc.lft.to/lastmile_qr_scan"}}, {"name": "a86b9dbd2e21fe6fa6850bdbf9329227", "fusion_lat": 0.0, "type": "electric_scooter", "lat": 38.93307733333333, "is_reserved": 0, "is_disabled": 0, "fusion_lon": 0.0, "bike_id": "a86b9dbd2e21fe6fa6850bdbf9329227", "lon": -77.037656, "rental_uris": {"ios": "https://dc.lft.to/lastmile_qr_scan", "android": "https://dc.lft.to/lastmile_qr_scan"}}, {"name": "c9c91ce3e65279b60dbe13ca0196513b", "fusion_lat": 0.0, "type": "electric_bike", "lat": 39.03345233333334, "is_reserved": 0, "is_disabled": 0, "fusion_lon": 0.0, "bike_id": "c9c91ce3e65279b60dbe13ca0196513b", "lon": -77.04906083333333, "rental_uris": {"ios": "https://dc.lft.to/lastmile_qr_scan", "android": "https://dc.lft.to/lastmile_qr_scan"}}, {"name": "075a7931dc7a0beb61e7cf01be3d6888", "fusion_lat": 0.0, "type": "electric_scooter", "lat": 38.87969966666667, "is_reserved": 0, "is_disabled": 0, "fusion_lon": 0.0, "bike_id": "075a7931dc7a0beb61e7cf01be3d6888", "lon": -77.010114, "rental_uris": {"ios": "https://dc.lft.to/lastmile_qr_scan", "android": "https://dc.lft.to/lastmile_qr_scan"}}, {"name": "2a97dbe8f410466e8ba9e3076278bd15", "fusion_lat": 0.0, "type": "electric_scooter", "lat": 38.910069166666666, "is_reserved": 0, "is_disabled": 0, "fusion_lon": 0.0, "bike_id": "2a97dbe8f410466e8ba9e3076278bd15", "lon": -77.04423583333333, "rental_uris": {"ios": "https://dc.lft.to/lastmile_qr_scan", "android": "https://dc.lft.to/lastmile_qr_scan"}}, {"name": "62560ba257ccdeb123c9957dc86ae07e", "fusion_lat": 0.0, "type": "electric_scooter", "lat": 38.975012, "is_reserved": 0, "is_disabled": 0, "fusion_lon": 0.0, "bike_id": "62560ba257ccdeb123c9957dc86ae07e", "lon": -77.0169225, "rental_uris": {"ios": "https://dc.lft.to/lastmile_qr_scan", "android": "https://dc.lft.to/lastmile_qr_scan"}}, {"name": "ac46636a148623eed080572314f2697c", "fusion_lat": 0.0, "type": "electric_bike", "lat": 38.83235466666667, "is_reserved": 0, "is_disabled": 0, "fusion_lon": 0.0, "bike_id": "ac46636a148623eed080572314f2697c", "lon": -76.94623433333334, "rental_uris": {"ios": "https://dc.lft.to/lastmile_qr_scan", "android": "https://dc.lft.to/lastmile_qr_scan"}}, {"name": "8e131e24eb01f3a09c83158d11e04a97", "fusion_lat": 0.0, "type": "electric_scooter", "lat": 38.8862885, "is_reserved": 0, "is_disabled": 0, "fusion_lon": 0.0, "bike_id": "8e131e24eb01f3a09c83158d11e04a97", "lon": -77.01528133333333, "rental_uris": {"ios": "https://dc.lft.to/lastmile_qr_scan", "android": "https://dc.lft.to/lastmile_qr_scan"}}, {"name": "cbf489108ff1302fe2ff99ad04cc114b", "fusion_lat": 0.0, "type": "electric_scooter", "lat": 38.87719633333333, "is_reserved": 0, "is_disabled": 0, "fusion_lon": 0.0, "bike_id": "cbf489108ff1302fe2ff99ad04cc114b", "lon": -77.01751466666667, "rental_uris": {"ios": "https://dc.lft.to/lastmile_qr_scan", "android": "https://dc.lft.to/lastmile_qr_scan"}}, {"name": "1300a98fcbe1fe98e04a2f9856ba7f33", "fusion_lat": 0.0, "type": "electric_scooter", "lat": 38.879237, "is_reserved": 0, "is_disabled": 0, "fusion_lon": 0.0, "bike_id": "1300a98fcbe1fe98e04a2f9856ba7f33", "lon": -77.02154216666666, "rental_uris": {"ios": "https://dc.lft.to/lastmile_qr_scan", "android": "https://dc.lft.to/lastmile_qr_scan"}}, {"name": "5c18e5859a300217e32cbbe26cffa987", "fusion_lat": 0.0, "type": "electric_scooter", "lat": 38.8909115, "is_reserved": 0, "is_disabled": 0, "fusion_lon": 0.0, "bike_id": "5c18e5859a300217e32cbbe26cffa987", "lon": -76.9914555, "rental_uris": {"ios": "https://dc.lft.to/lastmile_qr_scan", "android": "https://dc.lft.to/lastmile_qr_scan"}}, {"name": "05ce43eaa89a014b96de5450fc00b0d2", "fusion_lat": 0.0, "type": "electric_scooter", "lat": 38.920641333333336, "is_reserved": 0, "is_disabled": 0, "fusion_lon": 0.0, "bike_id": "05ce43eaa89a014b96de5450fc00b0d2", "lon": -77.02387116666667, "rental_uris": {"ios": "https://dc.lft.to/lastmile_qr_scan", "android": "https://dc.lft.to/lastmile_qr_scan"}}, {"name": "4afb288108e3e547cf8b03581c8227c2", "fusion_lat": 0.0, "type": "electric_scooter", "lat": 38.89297, "is_reserved": 0, "is_disabled": 0, "fusion_lon": 0.0, "bike_id": "4afb288108e3e547cf8b03581c8227c2", "lon": -76.93927283333333, "rental_uris": {"ios": "https://dc.lft.to/lastmile_qr_scan", "android": "https://dc.lft.to/lastmile_qr_scan"}}, {"name": "0ef05d80d13c80e7b8f5635f19cd3797", "fusion_lat": 0.0, "type": "electric_scooter", "lat": 38.939651833333336, "is_reserved": 0, "is_disabled": 0, "fusion_lon": 0.0, "bike_id": "0ef05d80d13c80e7b8f5635f19cd3797", "lon": -77.02749916666667, "rental_uris": {"ios": "https://dc.lft.to/lastmile_qr_scan", "android": "https://dc.lft.to/lastmile_qr_scan"}}, {"name": "4ab9df686847772465042a16c8656044", "fusion_lat": 0.0, "type": "electric_scooter", "lat": 38.92689683333333, "is_reserved": 0, "is_disabled": 0, "fusion_lon": 0.0, "bike_id": "4ab9df686847772465042a16c8656044", "lon": -77.02579616666667, "rental_uris": {"ios": "https://dc.lft.to/lastmile_qr_scan", "android": "https://dc.lft.to/lastmile_qr_scan"}}, {"name": "2a8a05faf073ff1f93bb19c57c2d10db", "fusion_lat": 0.0, "type": "electric_scooter", "lat": 38.89498016666667, "is_reserved": 0, "is_disabled": 0, "fusion_lon": 0.0, "bike_id": "2a8a05faf073ff1f93bb19c57c2d10db", "lon": -77.01123733333333, "rental_uris": {"ios": "https://dc.lft.to/lastmile_qr_scan", "android": "https://dc.lft.to/lastmile_qr_scan"}}, {"name": "7a87482c24fbe9bf3954be420358da8e", "fusion_lat": 0.0, "type": "electric_scooter", "lat": 38.916911666666664, "is_reserved": 0, "is_disabled": 0, "fusion_lon": 0.0, "bike_id": "7a87482c24fbe9bf3954be420358da8e", "lon": -77.01881266666666, "rental_uris": {"ios": "https://dc.lft.to/lastmile_qr_scan", "android": "https://dc.lft.to/lastmile_qr_scan"}}, {"name": "6e50c66147c22208e33b220064e852db", "fusion_lat": 0.0, "type": "electric_scooter", "lat": 38.900227, "is_reserved": 0, "is_disabled": 0, "fusion_lon": 0.0, "bike_id": "6e50c66147c22208e33b220064e852db", "lon": -77.001965, "rental_uris": {"ios": "https://dc.lft.to/lastmile_qr_scan", "android": "https://dc.lft.to/lastmile_qr_scan"}}, {"name": "cde322383a5d265d7d46548330be9b20", "fusion_lat": 0.0, "type": "electric_scooter", "lat": 38.91290866666667, "is_reserved": 0, "is_disabled": 0, "fusion_lon": 0.0, "bike_id": "cde322383a5d265d7d46548330be9b20", "lon": -76.93734883333333, "rental_uris": {"ios": "https://dc.lft.to/lastmile_qr_scan", "android": "https://dc.lft.to/lastmile_qr_scan"}}, {"name": "79e7933e03d6362357023891fe34a570", "fusion_lat": 0.0, "type": "electric_scooter", "lat": 38.90964816666666, "is_reserved": 0, "is_disabled": 0, "fusion_lon": 0.0, "bike_id": "79e7933e03d6362357023891fe34a570", "lon": -77.02745633333333, "rental_uris": {"ios": "https://dc.lft.to/lastmile_qr_scan", "android": "https://dc.lft.to/lastmile_qr_scan"}}, {"name": "328d74a4eee10fc30c6d78bbb7df5311", "fusion_lat": 0.0, "type": "electric_scooter", "lat": 38.923614, "is_reserved": 0, "is_disabled": 0, "fusion_lon": 0.0, "bike_id": "328d74a4eee10fc30c6d78bbb7df5311", "lon": -77.05840416666666, "rental_uris": {"ios": "https://dc.lft.to/lastmile_qr_scan", "android": "https://dc.lft.to/lastmile_qr_scan"}}, {"name": "a540efdf4d96c9865f8713ee37fee081", "fusion_lat": 0.0, "type": "electric_scooter", "lat": 38.91112316666667, "is_reserved": 0, "is_disabled": 0, "fusion_lon": 0.0, "bike_id": "a540efdf4d96c9865f8713ee37fee081", "lon": -77.02459783333333, "rental_uris": {"ios": "https://dc.lft.to/lastmile_qr_scan", "android": "https://dc.lft.to/lastmile_qr_scan"}}, {"name": "25ed2f273375bbf80a0f06ab90e875c9", "fusion_lat": 0.0, "type": "electric_scooter", "lat": 38.875808666666664, "is_reserved": 0, "is_disabled": 0, "fusion_lon": 0.0, "bike_id": "25ed2f273375bbf80a0f06ab90e875c9", "lon": -77.01058816666666, "rental_uris": {"ios": "https://dc.lft.to/lastmile_qr_scan", "android": "https://dc.lft.to/lastmile_qr_scan"}}, {"name": "b57795d945dbfcdcfb03902987c6d587", "fusion_lat": 0.0, "type": "electric_scooter", "lat": 38.91764966666667, "is_reserved": 0, "is_disabled": 0, "fusion_lon": 0.0, "bike_id": "b57795d945dbfcdcfb03902987c6d587", "lon": -77.09676066666667, "rental_uris": {"ios": "https://dc.lft.to/lastmile_qr_scan", "android": "https://dc.lft.to/lastmile_qr_scan"}}, {"name": "e1ddc17fe1dcc758346e5fad0e22f76b", "fusion_lat": 0.0, "type": "electric_scooter", "lat": 38.92514966666667, "is_reserved": 0, "is_disabled": 0, "fusion_lon": 0.0, "bike_id": "e1ddc17fe1dcc758346e5fad0e22f76b", "lon": -77.0017095, "rental_uris": {"ios": "https://dc.lft.to/lastmile_qr_scan", "android": "https://dc.lft.to/lastmile_qr_scan"}}, {"name": "c780b5f3d29de938d4f180b44683a2f9", "fusion_lat": 0.0, "type": "electric_scooter", "lat": 38.896004, "is_reserved": 0, "is_disabled": 0, "fusion_lon": 0.0, "bike_id": "c780b5f3d29de938d4f180b44683a2f9", "lon": -77.0265755, "rental_uris": {"ios": "https://dc.lft.to/lastmile_qr_scan", "android": "https://dc.lft.to/lastmile_qr_scan"}}, {"name": "199e4eaa0780ada6d46a048b63277ac3", "fusion_lat": 0.0, "type": "electric_scooter", "lat": 38.9067975, "is_reserved": 0, "is_disabled": 0, "fusion_lon": 0.0, "bike_id": "199e4eaa0780ada6d46a048b63277ac3", "lon": -77.04672833333333, "rental_uris": {"ios": "https://dc.lft.to/lastmile_qr_scan", "android": "https://dc.lft.to/lastmile_qr_scan"}}, {"name": "e0b728d9a0e4313acfba417b344bf3d7", "fusion_lat": 0.0, "type": "electric_scooter", "lat": 38.866601833333334, "is_reserved": 0, "is_disabled": 0, "fusion_lon": 0.0, "bike_id": "e0b728d9a0e4313acfba417b344bf3d7", "lon": -76.98886583333334, "rental_uris": {"ios": "https://dc.lft.to/lastmile_qr_scan", "android": "https://dc.lft.to/lastmile_qr_scan"}}, {"name": "f88af050e372d681248c103d23b6c94b", "fusion_lat": 0.0, "type": "electric_scooter", "lat": 38.8961645, "is_reserved": 0, "is_disabled": 0, "fusion_lon": 0.0, "bike_id": "f88af050e372d681248c103d23b6c94b", "lon": -77.044675, "rental_uris": {"ios": "https://dc.lft.to/lastmile_qr_scan", "android": "https://dc.lft.to/lastmile_qr_scan"}}, {"name": "775f4a0e127ca3f0c37f7c36314f4716", "fusion_lat": 0.0, "type": "electric_scooter", "lat": 38.89045266666667, "is_reserved": 0, "is_disabled": 0, "fusion_lon": 0.0, "bike_id": "775f4a0e127ca3f0c37f7c36314f4716", "lon": -76.93748133333334, "rental_uris": {"ios": "https://dc.lft.to/lastmile_qr_scan", "android": "https://dc.lft.to/lastmile_qr_scan"}}, {"name": "fdcc52a228c623af4587c22d3bff3dde", "fusion_lat": 0.0, "type": "electric_scooter", "lat": 38.91929116666667, "is_reserved": 0, "is_disabled": 0, "fusion_lon": 0.0, "bike_id": "fdcc52a228c623af4587c22d3bff3dde", "lon": -77.04154633333333, "rental_uris": {"ios": "https://dc.lft.to/lastmile_qr_scan", "android": "https://dc.lft.to/lastmile_qr_scan"}}, {"name": "f361858a68f6528ddc28e95a76dd5839", "fusion_lat": 0.0, "type": "electric_scooter", "lat": 38.937669, "is_reserved": 0, "is_disabled": 0, "fusion_lon": 0.0, "bike_id": "f361858a68f6528ddc28e95a76dd5839", "lon": -77.03281566666666, "rental_uris": {"ios": "https://dc.lft.to/lastmile_qr_scan", "android": "https://dc.lft.to/lastmile_qr_scan"}}, {"name": "5761fee9d956418657182f72490e03c8", "fusion_lat": 0.0, "type": "electric_scooter", "lat": 38.889187166666666, "is_reserved": 0, "is_disabled": 0, "fusion_lon": 0.0, "bike_id": "5761fee9d956418657182f72490e03c8", "lon": -76.95371916666667, "rental_uris": {"ios": "https://dc.lft.to/lastmile_qr_scan", "android": "https://dc.lft.to/lastmile_qr_scan"}}, {"name": "d233f65f673e6c27b110e2dae43e3c0e", "fusion_lat": 0.0, "type": "electric_scooter", "lat": 38.911998833333335, "is_reserved": 0, "is_disabled": 0, "fusion_lon": 0.0, "bike_id": "d233f65f673e6c27b110e2dae43e3c0e", "lon": -77.0446585, "rental_uris": {"ios": "https://dc.lft.to/lastmile_qr_scan", "android": "https://dc.lft.to/lastmile_qr_scan"}}, {"name": "a05adf9cb88527300bdb6c983c057f51", "fusion_lat": 0.0, "type": "electric_scooter", "lat": 38.9118985, "is_reserved": 0, "is_disabled": 0, "fusion_lon": 0.0, "bike_id": "a05adf9cb88527300bdb6c983c057f51", "lon": -77.0177845, "rental_uris": {"ios": "https://dc.lft.to/lastmile_qr_scan", "android": "https://dc.lft.to/lastmile_qr_scan"}}, {"name": "bf16c2ffa1a0a27e6712ac4b95428d23", "fusion_lat": 0.0, "type": "electric_scooter", "lat": 38.93471516666666, "is_reserved": 0, "is_disabled": 0, "fusion_lon": 0.0, "bike_id": "bf16c2ffa1a0a27e6712ac4b95428d23", "lon": -77.02843316666667, "rental_uris": {"ios": "https://dc.lft.to/lastmile_qr_scan", "android": "https://dc.lft.to/lastmile_qr_scan"}}, {"name": "169590d742281e47342c86c7012087f7", "fusion_lat": 0.0, "type": "electric_scooter", "lat": 38.915743, "is_reserved": 0, "is_disabled": 0, "fusion_lon": 0.0, "bike_id": "169590d742281e47342c86c7012087f7", "lon": -77.031812, "rental_uris": {"ios": "https://dc.lft.to/lastmile_qr_scan", "android": "https://dc.lft.to/lastmile_qr_scan"}}, {"name": "79a29f7929050a39d6c5b6ecdaa1a420", "fusion_lat": 0.0, "type": "electric_scooter", "lat": 38.90993533333334, "is_reserved": 0, "is_disabled": 0, "fusion_lon": 0.0, "bike_id": "79a29f7929050a39d6c5b6ecdaa1a420", "lon": -77.0339205, "rental_uris": {"ios": "https://dc.lft.to/lastmile_qr_scan", "android": "https://dc.lft.to/lastmile_qr_scan"}}, {"name": "cb71a0e8070f12ce55d46f45c49d5b47", "fusion_lat": 0.0, "type": "electric_scooter", "lat": 38.928883, "is_reserved": 0, "is_disabled": 0, "fusion_lon": 0.0, "bike_id": "cb71a0e8070f12ce55d46f45c49d5b47", "lon": -77.02307966666666, "rental_uris": {"ios": "https://dc.lft.to/lastmile_qr_scan", "android": "https://dc.lft.to/lastmile_qr_scan"}}, {"name": "f7931fc398b61c3d2906185d39fb8208", "fusion_lat": 0.0, "type": "electric_scooter", "lat": 38.92640316666667, "is_reserved": 0, "is_disabled": 0, "fusion_lon": 0.0, "bike_id": "f7931fc398b61c3d2906185d39fb8208", "lon": -77.03691183333333, "rental_uris": {"ios": "https://dc.lft.to/lastmile_qr_scan", "android": "https://dc.lft.to/lastmile_qr_scan"}}, {"name": "e415518555de6ba2a72f8d9cc0e4ee90", "fusion_lat": 0.0, "type": "electric_scooter", "lat": 38.90115766666667, "is_reserved": 0, "is_disabled": 0, "fusion_lon": 0.0, "bike_id": "e415518555de6ba2a72f8d9cc0e4ee90", "lon": -77.02192666666667, "rental_uris": {"ios": "https://dc.lft.to/lastmile_qr_scan", "android": "https://dc.lft.to/lastmile_qr_scan"}}, {"name": "645d70986a64149d4fc39bd7338b5f0c", "fusion_lat": 0.0, "type": "electric_scooter", "lat": 38.896088166666665, "is_reserved": 0, "is_disabled": 0, "fusion_lon": 0.0, "bike_id": "645d70986a64149d4fc39bd7338b5f0c", "lon": -77.05076433333333, "rental_uris": {"ios": "https://dc.lft.to/lastmile_qr_scan", "android": "https://dc.lft.to/lastmile_qr_scan"}}, {"name": "2727261161c1d5a4b2b1361a07d8253c", "fusion_lat": 0.0, "type": "electric_scooter", "lat": 38.911800166666666, "is_reserved": 0, "is_disabled": 0, "fusion_lon": 0.0, "bike_id": "2727261161c1d5a4b2b1361a07d8253c", "lon": -77.04154466666667, "rental_uris": {"ios": "https://dc.lft.to/lastmile_qr_scan", "android": "https://dc.lft.to/lastmile_qr_scan"}}, {"name": "81ffa90d4b686e13fc5c73add2dbc1f2", "fusion_lat": 0.0, "type": "electric_scooter", "lat": 38.93094883333333, "is_reserved": 0, "is_disabled": 0, "fusion_lon": 0.0, "bike_id": "81ffa90d4b686e13fc5c73add2dbc1f2", "lon": -77.02397483333333, "rental_uris": {"ios": "https://dc.lft.to/lastmile_qr_scan", "android": "https://dc.lft.to/lastmile_qr_scan"}}, {"name": "268d472dab66263686dfc2b141d5eb65", "fusion_lat": 0.0, "type": "electric_scooter", "lat": 38.9446285, "is_reserved": 0, "is_disabled": 0, "fusion_lon": 0.0, "bike_id": "268d472dab66263686dfc2b141d5eb65", "lon": -77.0065785, "rental_uris": {"ios": "https://dc.lft.to/lastmile_qr_scan", "android": "https://dc.lft.to/lastmile_qr_scan"}}, {"name": "1cac600c4bb9826a3cd73efd8b6bfa8e", "fusion_lat": 0.0, "type": "electric_scooter", "lat": 38.89548933333333, "is_reserved": 0, "is_disabled": 0, "fusion_lon": 0.0, "bike_id": "1cac600c4bb9826a3cd73efd8b6bfa8e", "lon": -77.024394, "rental_uris": {"ios": "https://dc.lft.to/lastmile_qr_scan", "android": "https://dc.lft.to/lastmile_qr_scan"}}, {"name": "c969c6dc8226432ff9aa9dbf08a28270", "fusion_lat": 0.0, "type": "electric_bike", "lat": 38.897699833333334, "is_reserved": 0, "is_disabled": 0, "fusion_lon": 0.0, "bike_id": "c969c6dc8226432ff9aa9dbf08a28270", "lon": -76.90431533333333, "rental_uris": {"ios": "https://dc.lft.to/lastmile_qr_scan", "android": "https://dc.lft.to/lastmile_qr_scan"}}, {"name": "e3b03e8454e329374c1a3a7027ef07b3", "fusion_lat": 0.0, "type": "electric_scooter", "lat": 38.907221166666666, "is_reserved": 0, "is_disabled": 0, "fusion_lon": 0.0, "bike_id": "e3b03e8454e329374c1a3a7027ef07b3", "lon": -77.01130716666667, "rental_uris": {"ios": "https://dc.lft.to/lastmile_qr_scan", "android": "https://dc.lft.to/lastmile_qr_scan"}}, {"name": "961fc8c3a55d98c3f9cd5222b7ee862e", "fusion_lat": 0.0, "type": "electric_scooter", "lat": 38.93896683333333, "is_reserved": 0, "is_disabled": 0, "fusion_lon": 0.0, "bike_id": "961fc8c3a55d98c3f9cd5222b7ee862e", "lon": -77.03281066666666, "rental_uris": {"ios": "https://dc.lft.to/lastmile_qr_scan", "android": "https://dc.lft.to/lastmile_qr_scan"}}, {"name": "41112d16aceb86444542ac5f90a4b745", "fusion_lat": 0.0, "type": "electric_scooter", "lat": 38.935659333333334, "is_reserved": 0, "is_disabled": 0, "fusion_lon": 0.0, "bike_id": "41112d16aceb86444542ac5f90a4b745", "lon": -77.021358, "rental_uris": {"ios": "https://dc.lft.to/lastmile_qr_scan", "android": "https://dc.lft.to/lastmile_qr_scan"}}, {"name": "bf6d0f7359f8f1fa539eefbbc0ba5a9a", "fusion_lat": 0.0, "type": "electric_scooter", "lat": 38.902445666666665, "is_reserved": 0, "is_disabled": 0, "fusion_lon": 0.0, "bike_id": "bf6d0f7359f8f1fa539eefbbc0ba5a9a", "lon": -76.99932766666667, "rental_uris": {"ios": "https://dc.lft.to/lastmile_qr_scan", "android": "https://dc.lft.to/lastmile_qr_scan"}}, {"name": "a101ca448c62e3e68d4a955e4f9162bb", "fusion_lat": 0.0, "type": "electric_scooter", "lat": 38.935699, "is_reserved": 0, "is_disabled": 0, "fusion_lon": 0.0, "bike_id": "a101ca448c62e3e68d4a955e4f9162bb", "lon": -77.02122966666667, "rental_uris": {"ios": "https://dc.lft.to/lastmile_qr_scan", "android": "https://dc.lft.to/lastmile_qr_scan"}}, {"name": "b42749087fe1217bb57839504a8eb83b", "fusion_lat": 0.0, "type": "electric_bike", "lat": 38.993404166666664, "is_reserved": 0, "is_disabled": 0, "fusion_lon": 0.0, "bike_id": "b42749087fe1217bb57839504a8eb83b", "lon": -77.026666, "rental_uris": {"ios": "https://dc.lft.to/lastmile_qr_scan", "android": "https://dc.lft.to/lastmile_qr_scan"}}, {"name": "a468c283bf62bb8f6285b14fe4ff58a4", "fusion_lat": 0.0, "type": "electric_scooter", "lat": 38.909402666666665, "is_reserved": 0, "is_disabled": 0, "fusion_lon": 0.0, "bike_id": "a468c283bf62bb8f6285b14fe4ff58a4", "lon": -77.046645, "rental_uris": {"ios": "https://dc.lft.to/lastmile_qr_scan", "android": "https://dc.lft.to/lastmile_qr_scan"}}, {"name": "da727fc718f238d1f6aa1ba7ee281f2e", "fusion_lat": 0.0, "type": "electric_scooter", "lat": 38.90015566666667, "is_reserved": 0, "is_disabled": 0, "fusion_lon": 0.0, "bike_id": "da727fc718f238d1f6aa1ba7ee281f2e", "lon": -77.00193033333333, "rental_uris": {"ios": "https://dc.lft.to/lastmile_qr_scan", "android": "https://dc.lft.to/lastmile_qr_scan"}}, {"name": "9ab90a5b14e4030f11c934f027711f8b", "fusion_lat": 0.0, "type": "electric_scooter", "lat": 38.9191265, "is_reserved": 0, "is_disabled": 0, "fusion_lon": 0.0, "bike_id": "9ab90a5b14e4030f11c934f027711f8b", "lon": -77.011255, "rental_uris": {"ios": "https://dc.lft.to/lastmile_qr_scan", "android": "https://dc.lft.to/lastmile_qr_scan"}}, {"name": "3200e7c7d80731b3c06a14446f13eba2", "fusion_lat": 0.0, "type": "electric_scooter", "lat": 38.89971116666667, "is_reserved": 0, "is_disabled": 0, "fusion_lon": 0.0, "bike_id": "3200e7c7d80731b3c06a14446f13eba2", "lon": -77.03906333333333, "rental_uris": {"ios": "https://dc.lft.to/lastmile_qr_scan", "android": "https://dc.lft.to/lastmile_qr_scan"}}, {"name": "d5dc5cbd7236c3c7951aa40e467af266", "fusion_lat": 0.0, "type": "electric_scooter", "lat": 38.894113, "is_reserved": 0, "is_disabled": 0, "fusion_lon": 0.0, "bike_id": "d5dc5cbd7236c3c7951aa40e467af266", "lon": -77.0219795, "rental_uris": {"ios": "https://dc.lft.to/lastmile_qr_scan", "android": "https://dc.lft.to/lastmile_qr_scan"}}, {"name": "25e0354e59a29a04f557f98a16b6e078", "fusion_lat": 0.0, "type": "electric_scooter", "lat": 38.92551233333333, "is_reserved": 0, "is_disabled": 0, "fusion_lon": 0.0, "bike_id": "25e0354e59a29a04f557f98a16b6e078", "lon": -77.00065616666667, "rental_uris": {"ios": "https://dc.lft.to/lastmile_qr_scan", "android": "https://dc.lft.to/lastmile_qr_scan"}}, {"name": "51e5148a0d9050309957389c55120c52", "fusion_lat": 0.0, "type": "electric_scooter", "lat": 38.921027333333335, "is_reserved": 0, "is_disabled": 0, "fusion_lon": 0.0, "bike_id": "51e5148a0d9050309957389c55120c52", "lon": -77.0392915, "rental_uris": {"ios": "https://dc.lft.to/lastmile_qr_scan", "android": "https://dc.lft.to/lastmile_qr_scan"}}, {"name": "d070f54ea249e58356964228226ae6d3", "fusion_lat": 0.0, "type": "electric_scooter", "lat": 38.93583566666667, "is_reserved": 0, "is_disabled": 0, "fusion_lon": 0.0, "bike_id": "d070f54ea249e58356964228226ae6d3", "lon": -77.02845733333334, "rental_uris": {"ios": "https://dc.lft.to/lastmile_qr_scan", "android": "https://dc.lft.to/lastmile_qr_scan"}}, {"name": "38832bd77f35ed44377e24f627e345be", "fusion_lat": 0.0, "type": "electric_scooter", "lat": 38.9248125, "is_reserved": 0, "is_disabled": 0, "fusion_lon": 0.0, "bike_id": "38832bd77f35ed44377e24f627e345be", "lon": -77.029958, "rental_uris": {"ios": "https://dc.lft.to/lastmile_qr_scan", "android": "https://dc.lft.to/lastmile_qr_scan"}}, {"name": "2396319ebd4ac743219917cb8a034a46", "fusion_lat": 0.0, "type": "electric_scooter", "lat": 38.93030916666667, "is_reserved": 0, "is_disabled": 0, "fusion_lon": 0.0, "bike_id": "2396319ebd4ac743219917cb8a034a46", "lon": -77.08364583333334, "rental_uris": {"ios": "https://dc.lft.to/lastmile_qr_scan", "android": "https://dc.lft.to/lastmile_qr_scan"}}, {"name": "8f4b8d3120cfb1382880efb7c325a8e7", "fusion_lat": 0.0, "type": "electric_scooter", "lat": 38.91419483333333, "is_reserved": 0, "is_disabled": 0, "fusion_lon": 0.0, "bike_id": "8f4b8d3120cfb1382880efb7c325a8e7", "lon": -77.045018, "rental_uris": {"ios": "https://dc.lft.to/lastmile_qr_scan", "android": "https://dc.lft.to/lastmile_qr_scan"}}, {"name": "7ba128a2cb2a2a49c324082e341bf6c0", "fusion_lat": 0.0, "type": "electric_scooter", "lat": 38.91414116666667, "is_reserved": 0, "is_disabled": 0, "fusion_lon": 0.0, "bike_id": "7ba128a2cb2a2a49c324082e341bf6c0", "lon": -77.04502166666667, "rental_uris": {"ios": "https://dc.lft.to/lastmile_qr_scan", "android": "https://dc.lft.to/lastmile_qr_scan"}}, {"name": "57515b940238209a1c9e5eec63405a21", "fusion_lat": 0.0, "type": "electric_scooter", "lat": 38.912827666666665, "is_reserved": 0, "is_disabled": 0, "fusion_lon": 0.0, "bike_id": "57515b940238209a1c9e5eec63405a21", "lon": -76.93801883333333, "rental_uris": {"ios": "https://dc.lft.to/lastmile_qr_scan", "android": "https://dc.lft.to/lastmile_qr_scan"}}, {"name": "09668c100480d12e3387943639b51f12", "fusion_lat": 0.0, "type": "electric_scooter", "lat": 38.898345166666665, "is_reserved": 0, "is_disabled": 0, "fusion_lon": 0.0, "bike_id": "09668c100480d12e3387943639b51f12", "lon": -76.94643766666667, "rental_uris": {"ios": "https://dc.lft.to/lastmile_qr_scan", "android": "https://dc.lft.to/lastmile_qr_scan"}}, {"name": "a26ad4a018a33e982c78307afc65ec86", "fusion_lat": 0.0, "type": "electric_scooter", "lat": 38.93893683333334, "is_reserved": 0, "is_disabled": 0, "fusion_lon": 0.0, "bike_id": "a26ad4a018a33e982c78307afc65ec86", "lon": -77.01760816666666, "rental_uris": {"ios": "https://dc.lft.to/lastmile_qr_scan", "android": "https://dc.lft.to/lastmile_qr_scan"}}, {"name": "af6b2bb5b88dd28051def2a53422318d", "fusion_lat": 0.0, "type": "electric_bike", "lat": 38.87734066666667, "is_reserved": 0, "is_disabled": 0, "fusion_lon": 0.0, "bike_id": "af6b2bb5b88dd28051def2a53422318d", "lon": -77.118471, "rental_uris": {"ios": "https://dc.lft.to/lastmile_qr_scan", "android": "https://dc.lft.to/lastmile_qr_scan"}}, {"name": "115215d1ca0a3be4e1b7724ec62bbf6f", "fusion_lat": 0.0, "type": "electric_scooter", "lat": 38.92726283333333, "is_reserved": 0, "is_disabled": 0, "fusion_lon": 0.0, "bike_id": "115215d1ca0a3be4e1b7724ec62bbf6f", "lon": -77.00560466666667, "rental_uris": {"ios": "https://dc.lft.to/lastmile_qr_scan", "android": "https://dc.lft.to/lastmile_qr_scan"}}, {"name": "d7c460fdfe823404a8653d0f15684c69", "fusion_lat": 0.0, "type": "electric_scooter", "lat": 38.90982533333333, "is_reserved": 0, "is_disabled": 0, "fusion_lon": 0.0, "bike_id": "d7c460fdfe823404a8653d0f15684c69", "lon": -77.04625383333334, "rental_uris": {"ios": "https://dc.lft.to/lastmile_qr_scan", "android": "https://dc.lft.to/lastmile_qr_scan"}}, {"name": "fe0be5d6c51e096b0adca417ffa2e61c", "fusion_lat": 0.0, "type": "electric_bike", "lat": 38.896100833333335, "is_reserved": 0, "is_disabled": 0, "fusion_lon": 0.0, "bike_id": "fe0be5d6c51e096b0adca417ffa2e61c", "lon": -76.99282133333334, "rental_uris": {"ios": "https://dc.lft.to/lastmile_qr_scan", "android": "https://dc.lft.to/lastmile_qr_scan"}}, {"name": "b8cb57157e42a89227910bfbee8fd4ce", "fusion_lat": 0.0, "type": "electric_scooter", "lat": 38.91816933333333, "is_reserved": 0, "is_disabled": 0, "fusion_lon": 0.0, "bike_id": "b8cb57157e42a89227910bfbee8fd4ce", "lon": -77.02798216666666, "rental_uris": {"ios": "https://dc.lft.to/lastmile_qr_scan", "android": "https://dc.lft.to/lastmile_qr_scan"}}, {"name": "e6592b718712182428505793ca3def24", "fusion_lat": 0.0, "type": "electric_scooter", "lat": 38.89218983333333, "is_reserved": 0, "is_disabled": 0, "fusion_lon": 0.0, "bike_id": "e6592b718712182428505793ca3def24", "lon": -77.02226083333333, "rental_uris": {"ios": "https://dc.lft.to/lastmile_qr_scan", "android": "https://dc.lft.to/lastmile_qr_scan"}}, {"name": "47358b41e224d625fc297a4447fa00b0", "fusion_lat": 0.0, "type": "electric_scooter", "lat": 38.923733, "is_reserved": 0, "is_disabled": 0, "fusion_lon": 0.0, "bike_id": "47358b41e224d625fc297a4447fa00b0", "lon": -77.02988666666667, "rental_uris": {"ios": "https://dc.lft.to/lastmile_qr_scan", "android": "https://dc.lft.to/lastmile_qr_scan"}}, {"name": "e47552580f1439a64c716ccfb540217c", "fusion_lat": 0.0, "type": "electric_bike", "lat": 38.8708065, "is_reserved": 0, "is_disabled": 0, "fusion_lon": 0.0, "bike_id": "e47552580f1439a64c716ccfb540217c", "lon": -77.012122, "rental_uris": {"ios": "https://dc.lft.to/lastmile_qr_scan", "android": "https://dc.lft.to/lastmile_qr_scan"}}, {"name": "fc7aafb6ff9920be7901685914a1c243", "fusion_lat": 0.0, "type": "electric_bike", "lat": 38.87529216666667, "is_reserved": 0, "is_disabled": 0, "fusion_lon": 0.0, "bike_id": "fc7aafb6ff9920be7901685914a1c243", "lon": -77.19907583333334, "rental_uris": {"ios": "https://dc.lft.to/lastmile_qr_scan", "android": "https://dc.lft.to/lastmile_qr_scan"}}, {"name": "12e00ac36075423de675494c16d58ed4", "fusion_lat": 0.0, "type": "electric_bike", "lat": 38.857904833333336, "is_reserved": 0, "is_disabled": 0, "fusion_lon": 0.0, "bike_id": "12e00ac36075423de675494c16d58ed4", "lon": -77.09960216666667, "rental_uris": {"ios": "https://dc.lft.to/lastmile_qr_scan", "android": "https://dc.lft.to/lastmile_qr_scan"}}, {"name": "a445f75e1d369b69bcf87ff727c075ce", "fusion_lat": 0.0, "type": "electric_scooter", "lat": 38.91266916666667, "is_reserved": 0, "is_disabled": 0, "fusion_lon": 0.0, "bike_id": "a445f75e1d369b69bcf87ff727c075ce", "lon": -77.03805383333334, "rental_uris": {"ios": "https://dc.lft.to/lastmile_qr_scan", "android": "https://dc.lft.to/lastmile_qr_scan"}}, {"name": "4db5c50d7e2836d2fcfb496523a84b85", "fusion_lat": 0.0, "type": "electric_scooter", "lat": 38.89910866666666, "is_reserved": 0, "is_disabled": 0, "fusion_lon": 0.0, "bike_id": "4db5c50d7e2836d2fcfb496523a84b85", "lon": -76.9336285, "rental_uris": {"ios": "https://dc.lft.to/lastmile_qr_scan", "android": "https://dc.lft.to/lastmile_qr_scan"}}, {"name": "2985840ad96316e2d6659fe93c6ab605", "fusion_lat": 0.0, "type": "electric_scooter", "lat": 38.90119683333333, "is_reserved": 0, "is_disabled": 0, "fusion_lon": 0.0, "bike_id": "2985840ad96316e2d6659fe93c6ab605", "lon": -77.02716883333333, "rental_uris": {"ios": "https://dc.lft.to/lastmile_qr_scan", "android": "https://dc.lft.to/lastmile_qr_scan"}}, {"name": "8e6e1cfe87b87be7dd0245dbdb0fdad4", "fusion_lat": 0.0, "type": "electric_bike", "lat": 39.094599333333335, "is_reserved": 0, "is_disabled": 0, "fusion_lon": 0.0, "bike_id": "8e6e1cfe87b87be7dd0245dbdb0fdad4", "lon": -77.14990483333334, "rental_uris": {"ios": "https://dc.lft.to/lastmile_qr_scan", "android": "https://dc.lft.to/lastmile_qr_scan"}}, {"name": "7f5b27f0f66e3cd82d7d7fcd7f4f3f31", "fusion_lat": 0.0, "type": "electric_bike", "lat": 38.95256166666667, "is_reserved": 0, "is_disabled": 0, "fusion_lon": 0.0, "bike_id": "7f5b27f0f66e3cd82d7d7fcd7f4f3f31", "lon": -77.06984083333333, "rental_uris": {"ios": "https://dc.lft.to/lastmile_qr_scan", "android": "https://dc.lft.to/lastmile_qr_scan"}}, {"name": "527fb5ea0ec793d3cc18a639d1055fa3", "fusion_lat": 0.0, "type": "electric_scooter", "lat": 38.88449416666667, "is_reserved": 0, "is_disabled": 0, "fusion_lon": 0.0, "bike_id": "527fb5ea0ec793d3cc18a639d1055fa3", "lon": -77.0261545, "rental_uris": {"ios": "https://dc.lft.to/lastmile_qr_scan", "android": "https://dc.lft.to/lastmile_qr_scan"}}, {"name": "ab04b89387d3304bb100af24cea8eb74", "fusion_lat": 0.0, "type": "electric_scooter", "lat": 38.874345, "is_reserved": 0, "is_disabled": 0, "fusion_lon": 0.0, "bike_id": "ab04b89387d3304bb100af24cea8eb74", "lon": -77.02063366666667, "rental_uris": {"ios": "https://dc.lft.to/lastmile_qr_scan", "android": "https://dc.lft.to/lastmile_qr_scan"}}, {"name": "bce950b88f316d36fcebe5afe0aeb224", "fusion_lat": 0.0, "type": "electric_scooter", "lat": 38.91769033333333, "is_reserved": 0, "is_disabled": 0, "fusion_lon": 0.0, "bike_id": "bce950b88f316d36fcebe5afe0aeb224", "lon": -77.015055, "rental_uris": {"ios": "https://dc.lft.to/lastmile_qr_scan", "android": "https://dc.lft.to/lastmile_qr_scan"}}, {"name": "e01f367f6b825f334c0d790afecf4f70", "fusion_lat": 0.0, "type": "electric_scooter", "lat": 38.900009, "is_reserved": 0, "is_disabled": 0, "fusion_lon": 0.0, "bike_id": "e01f367f6b825f334c0d790afecf4f70", "lon": -76.9856435, "rental_uris": {"ios": "https://dc.lft.to/lastmile_qr_scan", "android": "https://dc.lft.to/lastmile_qr_scan"}}, {"name": "98c9ae8b071198941ca2c7defe7c4e9b", "fusion_lat": 0.0, "type": "electric_scooter", "lat": 38.922089, "is_reserved": 0, "is_disabled": 0, "fusion_lon": 0.0, "bike_id": "98c9ae8b071198941ca2c7defe7c4e9b", "lon": -76.99752933333333, "rental_uris": {"ios": "https://dc.lft.to/lastmile_qr_scan", "android": "https://dc.lft.to/lastmile_qr_scan"}}, {"name": "1aec0bd3995de861757212e425df77fd", "fusion_lat": 0.0, "type": "electric_scooter", "lat": 38.90176366666667, "is_reserved": 0, "is_disabled": 0, "fusion_lon": 0.0, "bike_id": "1aec0bd3995de861757212e425df77fd", "lon": -77.0336595, "rental_uris": {"ios": "https://dc.lft.to/lastmile_qr_scan", "android": "https://dc.lft.to/lastmile_qr_scan"}}, {"name": "fd60c95220b3dcf3ed56fc1d07e967f5", "fusion_lat": 0.0, "type": "electric_bike", "lat": 38.943798666666666, "is_reserved": 0, "is_disabled": 0, "fusion_lon": 0.0, "bike_id": "fd60c95220b3dcf3ed56fc1d07e967f5", "lon": -76.96292666666666, "rental_uris": {"ios": "https://dc.lft.to/lastmile_qr_scan", "android": "https://dc.lft.to/lastmile_qr_scan"}}, {"name": "bc3f74285fcadc72aa2cc95235cb8daf", "fusion_lat": 0.0, "type": "electric_bike", "lat": 38.92199566666667, "is_reserved": 0, "is_disabled": 0, "fusion_lon": 0.0, "bike_id": "bc3f74285fcadc72aa2cc95235cb8daf", "lon": -77.04342516666667, "rental_uris": {"ios": "https://dc.lft.to/lastmile_qr_scan", "android": "https://dc.lft.to/lastmile_qr_scan"}}, {"name": "e7338a3c6cb84eaf624aae37e2543b38", "fusion_lat": 0.0, "type": "electric_scooter", "lat": 38.91856766666667, "is_reserved": 0, "is_disabled": 0, "fusion_lon": 0.0, "bike_id": "e7338a3c6cb84eaf624aae37e2543b38", "lon": -77.04591933333333, "rental_uris": {"ios": "https://dc.lft.to/lastmile_qr_scan", "android": "https://dc.lft.to/lastmile_qr_scan"}}, {"name": "1bd400fdf8cd157484c3a73d48ebf78e", "fusion_lat": 0.0, "type": "electric_scooter", "lat": 38.89337066666667, "is_reserved": 0, "is_disabled": 0, "fusion_lon": 0.0, "bike_id": "1bd400fdf8cd157484c3a73d48ebf78e", "lon": -76.92895283333333, "rental_uris": {"ios": "https://dc.lft.to/lastmile_qr_scan", "android": "https://dc.lft.to/lastmile_qr_scan"}}, {"name": "42fe6dbd3472a5eaa50749bd5cf46b44", "fusion_lat": 0.0, "type": "electric_scooter", "lat": 38.93264583333333, "is_reserved": 0, "is_disabled": 0, "fusion_lon": 0.0, "bike_id": "42fe6dbd3472a5eaa50749bd5cf46b44", "lon": -77.03258416666667, "rental_uris": {"ios": "https://dc.lft.to/lastmile_qr_scan", "android": "https://dc.lft.to/lastmile_qr_scan"}}, {"name": "b79284b0eb7dcb4db8ff8e6f038ca524", "fusion_lat": 0.0, "type": "electric_scooter", "lat": 38.89195266666667, "is_reserved": 0, "is_disabled": 0, "fusion_lon": 0.0, "bike_id": "b79284b0eb7dcb4db8ff8e6f038ca524", "lon": -77.002903, "rental_uris": {"ios": "https://dc.lft.to/lastmile_qr_scan", "android": "https://dc.lft.to/lastmile_qr_scan"}}, {"name": "70ca5c416d5c7545485c35f00740b52b", "fusion_lat": 0.0, "type": "electric_scooter", "lat": 38.911948833333334, "is_reserved": 0, "is_disabled": 0, "fusion_lon": 0.0, "bike_id": "70ca5c416d5c7545485c35f00740b52b", "lon": -77.04172633333333, "rental_uris": {"ios": "https://dc.lft.to/lastmile_qr_scan", "android": "https://dc.lft.to/lastmile_qr_scan"}}, {"name": "1fcb5412985ca264196ac9afb5609609", "fusion_lat": 0.0, "type": "electric_scooter", "lat": 38.8766405, "is_reserved": 0, "is_disabled": 0, "fusion_lon": 0.0, "bike_id": "1fcb5412985ca264196ac9afb5609609", "lon": -77.008337, "rental_uris": {"ios": "https://dc.lft.to/lastmile_qr_scan", "android": "https://dc.lft.to/lastmile_qr_scan"}}, {"name": "fd516eda0590fe5639ba581e27f1547b", "fusion_lat": 0.0, "type": "electric_bike", "lat": 38.82443166666667, "is_reserved": 0, "is_disabled": 0, "fusion_lon": 0.0, "bike_id": "fd516eda0590fe5639ba581e27f1547b", "lon": -77.0704265, "rental_uris": {"ios": "https://dc.lft.to/lastmile_qr_scan", "android": "https://dc.lft.to/lastmile_qr_scan"}}, {"name": "ecae0454d6b04a2ae769f5994b23334e", "fusion_lat": 0.0, "type": "electric_scooter", "lat": 38.917248, "is_reserved": 0, "is_disabled": 0, "fusion_lon": 0.0, "bike_id": "ecae0454d6b04a2ae769f5994b23334e", "lon": -77.03835733333334, "rental_uris": {"ios": "https://dc.lft.to/lastmile_qr_scan", "android": "https://dc.lft.to/lastmile_qr_scan"}}, {"name": "6c43b92a932fdd64e215cc9097376aff", "fusion_lat": 0.0, "type": "electric_scooter", "lat": 38.923116, "is_reserved": 0, "is_disabled": 0, "fusion_lon": 0.0, "bike_id": "6c43b92a932fdd64e215cc9097376aff", "lon": -77.029751, "rental_uris": {"ios": "https://dc.lft.to/lastmile_qr_scan", "android": "https://dc.lft.to/lastmile_qr_scan"}}, {"name": "276b6c631faa77f41bb45f378c0e0f0d", "fusion_lat": 0.0, "type": "electric_scooter", "lat": 38.93250366666667, "is_reserved": 0, "is_disabled": 0, "fusion_lon": 0.0, "bike_id": "276b6c631faa77f41bb45f378c0e0f0d", "lon": -77.02379883333333, "rental_uris": {"ios": "https://dc.lft.to/lastmile_qr_scan", "android": "https://dc.lft.to/lastmile_qr_scan"}}, {"name": "729e373b425af47dcaad7407f6ee3a1d", "fusion_lat": 0.0, "type": "electric_bike", "lat": 38.918622, "is_reserved": 0, "is_disabled": 0, "fusion_lon": 0.0, "bike_id": "729e373b425af47dcaad7407f6ee3a1d", "lon": -76.96089433333333, "rental_uris": {"ios": "https://dc.lft.to/lastmile_qr_scan", "android": "https://dc.lft.to/lastmile_qr_scan"}}, {"name": "1c836fdfc095c042065984299af3ab58", "fusion_lat": 0.0, "type": "electric_scooter", "lat": 38.8974885, "is_reserved": 0, "is_disabled": 0, "fusion_lon": 0.0, "bike_id": "1c836fdfc095c042065984299af3ab58", "lon": -77.046477, "rental_uris": {"ios": "https://dc.lft.to/lastmile_qr_scan", "android": "https://dc.lft.to/lastmile_qr_scan"}}, {"name": "e0bb94e6cd62644d951e8a1bddf7e85c", "fusion_lat": 0.0, "type": "electric_scooter", "lat": 38.907619, "is_reserved": 0, "is_disabled": 0, "fusion_lon": 0.0, "bike_id": "e0bb94e6cd62644d951e8a1bddf7e85c", "lon": -77.02795633333334, "rental_uris": {"ios": "https://dc.lft.to/lastmile_qr_scan", "android": "https://dc.lft.to/lastmile_qr_scan"}}, {"name": "527d7a3a2fdea80182e8451fbf7322f6", "fusion_lat": 0.0, "type": "electric_scooter", "lat": 38.89921566666666, "is_reserved": 0, "is_disabled": 0, "fusion_lon": 0.0, "bike_id": "527d7a3a2fdea80182e8451fbf7322f6", "lon": -76.93380933333333, "rental_uris": {"ios": "https://dc.lft.to/lastmile_qr_scan", "android": "https://dc.lft.to/lastmile_qr_scan"}}, {"name": "f30a065f1c63c230d53d48462b869da8", "fusion_lat": 0.0, "type": "electric_scooter", "lat": 38.884260833333336, "is_reserved": 0, "is_disabled": 0, "fusion_lon": 0.0, "bike_id": "f30a065f1c63c230d53d48462b869da8", "lon": -77.03048266666667, "rental_uris": {"ios": "https://dc.lft.to/lastmile_qr_scan", "android": "https://dc.lft.to/lastmile_qr_scan"}}, {"name": "c3b5c62017684ef436d29d932c592c48", "fusion_lat": 0.0, "type": "electric_scooter", "lat": 38.88449766666667, "is_reserved": 0, "is_disabled": 0, "fusion_lon": 0.0, "bike_id": "c3b5c62017684ef436d29d932c592c48", "lon": -77.021545, "rental_uris": {"ios": "https://dc.lft.to/lastmile_qr_scan", "android": "https://dc.lft.to/lastmile_qr_scan"}}, {"name": "bb2c7a9046671e1a79f9db49dc8a0c93", "fusion_lat": 0.0, "type": "electric_bike", "lat": 38.87742866666667, "is_reserved": 0, "is_disabled": 0, "fusion_lon": 0.0, "bike_id": "bb2c7a9046671e1a79f9db49dc8a0c93", "lon": -77.00695366666666, "rental_uris": {"ios": "https://dc.lft.to/lastmile_qr_scan", "android": "https://dc.lft.to/lastmile_qr_scan"}}, {"name": "9cf8cd03444b3e051fd826560d5974ee", "fusion_lat": 0.0, "type": "electric_scooter", "lat": 38.903179, "is_reserved": 0, "is_disabled": 0, "fusion_lon": 0.0, "bike_id": "9cf8cd03444b3e051fd826560d5974ee", "lon": -77.05179283333334, "rental_uris": {"ios": "https://dc.lft.to/lastmile_qr_scan", "android": "https://dc.lft.to/lastmile_qr_scan"}}, {"name": "04d8b39c18ec2e9b59294c0cc147264a", "fusion_lat": 0.0, "type": "electric_scooter", "lat": 38.92720533333333, "is_reserved": 0, "is_disabled": 0, "fusion_lon": 0.0, "bike_id": "04d8b39c18ec2e9b59294c0cc147264a", "lon": -77.03735816666666, "rental_uris": {"ios": "https://dc.lft.to/lastmile_qr_scan", "android": "https://dc.lft.to/lastmile_qr_scan"}}, {"name": "0b6431568d1316ee41b68e6fd590f1d2", "fusion_lat": 0.0, "type": "electric_scooter", "lat": 38.91193583333333, "is_reserved": 0, "is_disabled": 0, "fusion_lon": 0.0, "bike_id": "0b6431568d1316ee41b68e6fd590f1d2", "lon": -77.03263566666666, "rental_uris": {"ios": "https://dc.lft.to/lastmile_qr_scan", "android": "https://dc.lft.to/lastmile_qr_scan"}}, {"name": "130187d37034bdf9ff7f4a58d97b4e73", "fusion_lat": 0.0, "type": "electric_scooter", "lat": 38.90234783333333, "is_reserved": 0, "is_disabled": 0, "fusion_lon": 0.0, "bike_id": "130187d37034bdf9ff7f4a58d97b4e73", "lon": -77.05339633333334, "rental_uris": {"ios": "https://dc.lft.to/lastmile_qr_scan", "android": "https://dc.lft.to/lastmile_qr_scan"}}, {"name": "fe06378c2b4920daafbfe67c8296af41", "fusion_lat": 0.0, "type": "electric_bike", "lat": 38.815123, "is_reserved": 0, "is_disabled": 0, "fusion_lon": 0.0, "bike_id": "fe06378c2b4920daafbfe67c8296af41", "lon": -77.12666783333333, "rental_uris": {"ios": "https://dc.lft.to/lastmile_qr_scan", "android": "https://dc.lft.to/lastmile_qr_scan"}}, {"name": "6c0b52c24a6a10895a81988a554dff6e", "fusion_lat": 0.0, "type": "electric_scooter", "lat": 38.87673366666667, "is_reserved": 0, "is_disabled": 0, "fusion_lon": 0.0, "bike_id": "6c0b52c24a6a10895a81988a554dff6e", "lon": -77.005986, "rental_uris": {"ios": "https://dc.lft.to/lastmile_qr_scan", "android": "https://dc.lft.to/lastmile_qr_scan"}}, {"name": "d1b95efd26d0d8f58d58187ceeae6496", "fusion_lat": 0.0, "type": "electric_scooter", "lat": 38.862110666666666, "is_reserved": 0, "is_disabled": 0, "fusion_lon": 0.0, "bike_id": "d1b95efd26d0d8f58d58187ceeae6496", "lon": -76.9946755, "rental_uris": {"ios": "https://dc.lft.to/lastmile_qr_scan", "android": "https://dc.lft.to/lastmile_qr_scan"}}, {"name": "9457cab9134820d6d5722cd747454342", "fusion_lat": 0.0, "type": "electric_scooter", "lat": 38.8976255, "is_reserved": 0, "is_disabled": 0, "fusion_lon": 0.0, "bike_id": "9457cab9134820d6d5722cd747454342", "lon": -77.02580916666666, "rental_uris": {"ios": "https://dc.lft.to/lastmile_qr_scan", "android": "https://dc.lft.to/lastmile_qr_scan"}}, {"name": "662209546ae8797697e0d6d75ceb304d", "fusion_lat": 0.0, "type": "electric_scooter", "lat": 38.913403333333335, "is_reserved": 0, "is_disabled": 0, "fusion_lon": 0.0, "bike_id": "662209546ae8797697e0d6d75ceb304d", "lon": -77.042288, "rental_uris": {"ios": "https://dc.lft.to/lastmile_qr_scan", "android": "https://dc.lft.to/lastmile_qr_scan"}}, {"name": "00d6b94515fbff61c7f5c9d9cbbe1f44", "fusion_lat": 0.0, "type": "electric_scooter", "lat": 38.911276, "is_reserved": 0, "is_disabled": 0, "fusion_lon": 0.0, "bike_id": "00d6b94515fbff61c7f5c9d9cbbe1f44", "lon": -77.04772433333333, "rental_uris": {"ios": "https://dc.lft.to/lastmile_qr_scan", "android": "https://dc.lft.to/lastmile_qr_scan"}}, {"name": "eff3f33fed87b993b0868c6409e072b7", "fusion_lat": 0.0, "type": "electric_scooter", "lat": 38.89549866666667, "is_reserved": 0, "is_disabled": 0, "fusion_lon": 0.0, "bike_id": "eff3f33fed87b993b0868c6409e072b7", "lon": -76.94872016666666, "rental_uris": {"ios": "https://dc.lft.to/lastmile_qr_scan", "android": "https://dc.lft.to/lastmile_qr_scan"}}, {"name": "593f2baec29429c6f2d3cd05edf37414", "fusion_lat": 0.0, "type": "electric_scooter", "lat": 38.897356, "is_reserved": 0, "is_disabled": 0, "fusion_lon": 0.0, "bike_id": "593f2baec29429c6f2d3cd05edf37414", "lon": -77.03182233333334, "rental_uris": {"ios": "https://dc.lft.to/lastmile_qr_scan", "android": "https://dc.lft.to/lastmile_qr_scan"}}, {"name": "861e6dd2923c4baf83dc196cec84227e", "fusion_lat": 0.0, "type": "electric_scooter", "lat": 38.886640166666666, "is_reserved": 0, "is_disabled": 0, "fusion_lon": 0.0, "bike_id": "861e6dd2923c4baf83dc196cec84227e", "lon": -77.001304, "rental_uris": {"ios": "https://dc.lft.to/lastmile_qr_scan", "android": "https://dc.lft.to/lastmile_qr_scan"}}, {"name": "66f4b5aa7ba367aa05a192396409d3ee", "fusion_lat": 0.0, "type": "electric_scooter", "lat": 38.92743733333333, "is_reserved": 0, "is_disabled": 0, "fusion_lon": 0.0, "bike_id": "66f4b5aa7ba367aa05a192396409d3ee", "lon": -77.02494166666666, "rental_uris": {"ios": "https://dc.lft.to/lastmile_qr_scan", "android": "https://dc.lft.to/lastmile_qr_scan"}}, {"name": "5370ffe3dd38c5acef911881a2f22ecc", "fusion_lat": 0.0, "type": "electric_scooter", "lat": 38.9116645, "is_reserved": 0, "is_disabled": 0, "fusion_lon": 0.0, "bike_id": "5370ffe3dd38c5acef911881a2f22ecc", "lon": -77.04137366666667, "rental_uris": {"ios": "https://dc.lft.to/lastmile_qr_scan", "android": "https://dc.lft.to/lastmile_qr_scan"}}, {"name": "65407bd41c601ef9b83b826f77952f31", "fusion_lat": 0.0, "type": "electric_scooter", "lat": 38.910136666666666, "is_reserved": 0, "is_disabled": 0, "fusion_lon": 0.0, "bike_id": "65407bd41c601ef9b83b826f77952f31", "lon": -76.99674516666667, "rental_uris": {"ios": "https://dc.lft.to/lastmile_qr_scan", "android": "https://dc.lft.to/lastmile_qr_scan"}}, {"name": "544e8e33b28145bf0fc9786c4abfbd3f", "fusion_lat": 0.0, "type": "electric_scooter", "lat": 38.876466666666666, "is_reserved": 0, "is_disabled": 0, "fusion_lon": 0.0, "bike_id": "544e8e33b28145bf0fc9786c4abfbd3f", "lon": -77.00565866666666, "rental_uris": {"ios": "https://dc.lft.to/lastmile_qr_scan", "android": "https://dc.lft.to/lastmile_qr_scan"}}, {"name": "d326cf25bca4ba85031d5af9c274945f", "fusion_lat": 0.0, "type": "electric_scooter", "lat": 38.899720333333335, "is_reserved": 0, "is_disabled": 0, "fusion_lon": 0.0, "bike_id": "d326cf25bca4ba85031d5af9c274945f", "lon": -77.05286266666667, "rental_uris": {"ios": "https://dc.lft.to/lastmile_qr_scan", "android": "https://dc.lft.to/lastmile_qr_scan"}}, {"name": "956c722ce0b4654143d1140fc9b41ca2", "fusion_lat": 0.0, "type": "electric_bike", "lat": 38.88094133333333, "is_reserved": 0, "is_disabled": 0, "fusion_lon": 0.0, "bike_id": "956c722ce0b4654143d1140fc9b41ca2", "lon": -77.01048033333333, "rental_uris": {"ios": "https://dc.lft.to/lastmile_qr_scan", "android": "https://dc.lft.to/lastmile_qr_scan"}}, {"name": "518c98565849099fccf2b0832eb177eb", "fusion_lat": 0.0, "type": "electric_bike", "lat": 38.875563, "is_reserved": 0, "is_disabled": 0, "fusion_lon": 0.0, "bike_id": "518c98565849099fccf2b0832eb177eb", "lon": -76.96755266666666, "rental_uris": {"ios": "https://dc.lft.to/lastmile_qr_scan", "android": "https://dc.lft.to/lastmile_qr_scan"}}, {"name": "7c98ee6cde017b5ea83e07d88b51afb2", "fusion_lat": 0.0, "type": "electric_scooter", "lat": 38.93250966666667, "is_reserved": 0, "is_disabled": 0, "fusion_lon": 0.0, "bike_id": "7c98ee6cde017b5ea83e07d88b51afb2", "lon": -77.040041, "rental_uris": {"ios": "https://dc.lft.to/lastmile_qr_scan", "android": "https://dc.lft.to/lastmile_qr_scan"}}, {"name": "f00790e70f81d05f39a1d85b7b01d96f", "fusion_lat": 0.0, "type": "electric_scooter", "lat": 38.90039816666667, "is_reserved": 0, "is_disabled": 0, "fusion_lon": 0.0, "bike_id": "f00790e70f81d05f39a1d85b7b01d96f", "lon": -77.00632016666667, "rental_uris": {"ios": "https://dc.lft.to/lastmile_qr_scan", "android": "https://dc.lft.to/lastmile_qr_scan"}}, {"name": "27c72b958d16cd90654cf3cf462f9038", "fusion_lat": 0.0, "type": "electric_scooter", "lat": 38.87661283333333, "is_reserved": 0, "is_disabled": 0, "fusion_lon": 0.0, "bike_id": "27c72b958d16cd90654cf3cf462f9038", "lon": -77.00422, "rental_uris": {"ios": "https://dc.lft.to/lastmile_qr_scan", "android": "https://dc.lft.to/lastmile_qr_scan"}}, {"name": "3417aa9f9ebd6500ae883913224a871d", "fusion_lat": 0.0, "type": "electric_bike", "lat": 38.94968883333333, "is_reserved": 0, "is_disabled": 0, "fusion_lon": 0.0, "bike_id": "3417aa9f9ebd6500ae883913224a871d", "lon": -76.9727995, "rental_uris": {"ios": "https://dc.lft.to/lastmile_qr_scan", "android": "https://dc.lft.to/lastmile_qr_scan"}}, {"name": "76c838e9b860e064ed7f9476baebf6d3", "fusion_lat": 0.0, "type": "electric_scooter", "lat": 38.912601, "is_reserved": 0, "is_disabled": 0, "fusion_lon": 0.0, "bike_id": "76c838e9b860e064ed7f9476baebf6d3", "lon": -77.040343, "rental_uris": {"ios": "https://dc.lft.to/lastmile_qr_scan", "android": "https://dc.lft.to/lastmile_qr_scan"}}, {"name": "c7df65fc996813f1491498152fe98d76", "fusion_lat": 0.0, "type": "electric_scooter", "lat": 38.918373833333334, "is_reserved": 0, "is_disabled": 0, "fusion_lon": 0.0, "bike_id": "c7df65fc996813f1491498152fe98d76", "lon": -77.0364535, "rental_uris": {"ios": "https://dc.lft.to/lastmile_qr_scan", "android": "https://dc.lft.to/lastmile_qr_scan"}}, {"name": "d6fe2f9eeff5ded20640732316d073ae", "fusion_lat": 0.0, "type": "electric_scooter", "lat": 38.8761275, "is_reserved": 0, "is_disabled": 0, "fusion_lon": 0.0, "bike_id": "d6fe2f9eeff5ded20640732316d073ae", "lon": -77.00089366666667, "rental_uris": {"ios": "https://dc.lft.to/lastmile_qr_scan", "android": "https://dc.lft.to/lastmile_qr_scan"}}, {"name": "47c8d20cad1e9529fdc548b74e03ce8b", "fusion_lat": 0.0, "type": "electric_scooter", "lat": 38.9074005, "is_reserved": 0, "is_disabled": 0, "fusion_lon": 0.0, "bike_id": "47c8d20cad1e9529fdc548b74e03ce8b", "lon": -77.046658, "rental_uris": {"ios": "https://dc.lft.to/lastmile_qr_scan", "android": "https://dc.lft.to/lastmile_qr_scan"}}, {"name": "ff95daacf04bfc0fd0cd7eff64c25bae", "fusion_lat": 0.0, "type": "electric_scooter", "lat": 38.900000166666665, "is_reserved": 0, "is_disabled": 0, "fusion_lon": 0.0, "bike_id": "ff95daacf04bfc0fd0cd7eff64c25bae", "lon": -77.02173366666666, "rental_uris": {"ios": "https://dc.lft.to/lastmile_qr_scan", "android": "https://dc.lft.to/lastmile_qr_scan"}}, {"name": "22602b7b3818a3fc238b1e9d9a8ee9d2", "fusion_lat": 0.0, "type": "electric_scooter", "lat": 38.907960833333334, "is_reserved": 0, "is_disabled": 0, "fusion_lon": 0.0, "bike_id": "22602b7b3818a3fc238b1e9d9a8ee9d2", "lon": -76.99694433333333, "rental_uris": {"ios": "https://dc.lft.to/lastmile_qr_scan", "android": "https://dc.lft.to/lastmile_qr_scan"}}, {"name": "755d5199a24f48efabe1c03d548cfb8c", "fusion_lat": 0.0, "type": "electric_scooter", "lat": 38.92518316666666, "is_reserved": 0, "is_disabled": 0, "fusion_lon": 0.0, "bike_id": "755d5199a24f48efabe1c03d548cfb8c", "lon": -77.00208766666667, "rental_uris": {"ios": "https://dc.lft.to/lastmile_qr_scan", "android": "https://dc.lft.to/lastmile_qr_scan"}}, {"name": "314aad7b5f0e6a67360c2c09ec9ccaab", "fusion_lat": 0.0, "type": "electric_scooter", "lat": 38.91833066666667, "is_reserved": 0, "is_disabled": 0, "fusion_lon": 0.0, "bike_id": "314aad7b5f0e6a67360c2c09ec9ccaab", "lon": -77.02602716666667, "rental_uris": {"ios": "https://dc.lft.to/lastmile_qr_scan", "android": "https://dc.lft.to/lastmile_qr_scan"}}, {"name": "3155c9a3a4ce119b93371bbd05040d94", "fusion_lat": 0.0, "type": "electric_scooter", "lat": 38.94175216666667, "is_reserved": 0, "is_disabled": 0, "fusion_lon": 0.0, "bike_id": "3155c9a3a4ce119b93371bbd05040d94", "lon": -77.041406, "rental_uris": {"ios": "https://dc.lft.to/lastmile_qr_scan", "android": "https://dc.lft.to/lastmile_qr_scan"}}, {"name": "4ad485d1c2d819530cd8c675d5741ef0", "fusion_lat": 0.0, "type": "electric_scooter", "lat": 38.903599166666666, "is_reserved": 0, "is_disabled": 0, "fusion_lon": 0.0, "bike_id": "4ad485d1c2d819530cd8c675d5741ef0", "lon": -77.01098933333333, "rental_uris": {"ios": "https://dc.lft.to/lastmile_qr_scan", "android": "https://dc.lft.to/lastmile_qr_scan"}}, {"name": "47bb84dcc10e6b9110af9d53cebd1637", "fusion_lat": 0.0, "type": "electric_scooter", "lat": 38.884705833333335, "is_reserved": 0, "is_disabled": 0, "fusion_lon": 0.0, "bike_id": "47bb84dcc10e6b9110af9d53cebd1637", "lon": -77.0151895, "rental_uris": {"ios": "https://dc.lft.to/lastmile_qr_scan", "android": "https://dc.lft.to/lastmile_qr_scan"}}, {"name": "9d90c99fcf22fe38e0f619c1e05ea578", "fusion_lat": 0.0, "type": "electric_scooter", "lat": 38.911891833333335, "is_reserved": 0, "is_disabled": 0, "fusion_lon": 0.0, "bike_id": "9d90c99fcf22fe38e0f619c1e05ea578", "lon": -77.03969383333333, "rental_uris": {"ios": "https://dc.lft.to/lastmile_qr_scan", "android": "https://dc.lft.to/lastmile_qr_scan"}}, {"name": "dab425b4d02e8974aa1aeedd60f26866", "fusion_lat": 0.0, "type": "electric_scooter", "lat": 38.89879583333333, "is_reserved": 0, "is_disabled": 0, "fusion_lon": 0.0, "bike_id": "dab425b4d02e8974aa1aeedd60f26866", "lon": -76.93160783333333, "rental_uris": {"ios": "https://dc.lft.to/lastmile_qr_scan", "android": "https://dc.lft.to/lastmile_qr_scan"}}, {"name": "76f07e3751c18f5a28fdceee51203bed", "fusion_lat": 0.0, "type": "electric_bike", "lat": 38.948979, "is_reserved": 0, "is_disabled": 0, "fusion_lon": 0.0, "bike_id": "76f07e3751c18f5a28fdceee51203bed", "lon": -76.9637215, "rental_uris": {"ios": "https://dc.lft.to/lastmile_qr_scan", "android": "https://dc.lft.to/lastmile_qr_scan"}}, {"name": "dccfa15d7ea5f1b37d152735b0cd4b84", "fusion_lat": 0.0, "type": "electric_bike", "lat": 38.99824016666667, "is_reserved": 0, "is_disabled": 0, "fusion_lon": 0.0, "bike_id": "dccfa15d7ea5f1b37d152735b0cd4b84", "lon": -76.88369016666667, "rental_uris": {"ios": "https://dc.lft.to/lastmile_qr_scan", "android": "https://dc.lft.to/lastmile_qr_scan"}}, {"name": "ebbd5829e23b3e769a41be9f414d43d1", "fusion_lat": 0.0, "type": "electric_bike", "lat": 38.86390683333333, "is_reserved": 0, "is_disabled": 0, "fusion_lon": 0.0, "bike_id": "ebbd5829e23b3e769a41be9f414d43d1", "lon": -76.9899385, "rental_uris": {"ios": "https://dc.lft.to/lastmile_qr_scan", "android": "https://dc.lft.to/lastmile_qr_scan"}}, {"name": "23c37317374ebc06d7e72a11cf1ef424", "fusion_lat": 0.0, "type": "electric_scooter", "lat": 38.91483383333333, "is_reserved": 0, "is_disabled": 0, "fusion_lon": 0.0, "bike_id": "23c37317374ebc06d7e72a11cf1ef424", "lon": -77.03244333333333, "rental_uris": {"ios": "https://dc.lft.to/lastmile_qr_scan", "android": "https://dc.lft.to/lastmile_qr_scan"}}, {"name": "ba950a03795ac7e3dd2bebaba4d4f197", "fusion_lat": 0.0, "type": "electric_scooter", "lat": 38.906540666666665, "is_reserved": 0, "is_disabled": 0, "fusion_lon": 0.0, "bike_id": "ba950a03795ac7e3dd2bebaba4d4f197", "lon": -77.04176616666666, "rental_uris": {"ios": "https://dc.lft.to/lastmile_qr_scan", "android": "https://dc.lft.to/lastmile_qr_scan"}}, {"name": "e95c4ae81400103a8979576b0e7906de", "fusion_lat": 0.0, "type": "electric_scooter", "lat": 38.903417, "is_reserved": 0, "is_disabled": 0, "fusion_lon": 0.0, "bike_id": "e95c4ae81400103a8979576b0e7906de", "lon": -77.06645383333333, "rental_uris": {"ios": "https://dc.lft.to/lastmile_qr_scan", "android": "https://dc.lft.to/lastmile_qr_scan"}}, {"name": "f5de57fc296eeeddab591d8048402aa6", "fusion_lat": 0.0, "type": "electric_scooter", "lat": 38.9167775, "is_reserved": 0, "is_disabled": 0, "fusion_lon": 0.0, "bike_id": "f5de57fc296eeeddab591d8048402aa6", "lon": -77.02971216666667, "rental_uris": {"ios": "https://dc.lft.to/lastmile_qr_scan", "android": "https://dc.lft.to/lastmile_qr_scan"}}, {"name": "f3904c61a4833ba03990dc62793f09f8", "fusion_lat": 0.0, "type": "electric_scooter", "lat": 38.8742365, "is_reserved": 0, "is_disabled": 0, "fusion_lon": 0.0, "bike_id": "f3904c61a4833ba03990dc62793f09f8", "lon": -76.97180033333333, "rental_uris": {"ios": "https://dc.lft.to/lastmile_qr_scan", "android": "https://dc.lft.to/lastmile_qr_scan"}}, {"name": "9331fb381b248283eb5b97c303735146", "fusion_lat": 0.0, "type": "electric_scooter", "lat": 38.869596666666666, "is_reserved": 0, "is_disabled": 0, "fusion_lon": 0.0, "bike_id": "9331fb381b248283eb5b97c303735146", "lon": -77.01375133333333, "rental_uris": {"ios": "https://dc.lft.to/lastmile_qr_scan", "android": "https://dc.lft.to/lastmile_qr_scan"}}, {"name": "831b638f9d85ee6443efc2ac743bf5a0", "fusion_lat": 0.0, "type": "electric_scooter", "lat": 38.923425333333334, "is_reserved": 0, "is_disabled": 0, "fusion_lon": 0.0, "bike_id": "831b638f9d85ee6443efc2ac743bf5a0", "lon": -77.05014583333333, "rental_uris": {"ios": "https://dc.lft.to/lastmile_qr_scan", "android": "https://dc.lft.to/lastmile_qr_scan"}}, {"name": "e02059fae5ab2911c4c987bc437e6b63", "fusion_lat": 0.0, "type": "electric_scooter", "lat": 38.865103833333336, "is_reserved": 0, "is_disabled": 0, "fusion_lon": 0.0, "bike_id": "e02059fae5ab2911c4c987bc437e6b63", "lon": -76.99003366666666, "rental_uris": {"ios": "https://dc.lft.to/lastmile_qr_scan", "android": "https://dc.lft.to/lastmile_qr_scan"}}, {"name": "a14131d5c475cbd084869a78a2c581e4", "fusion_lat": 0.0, "type": "electric_scooter", "lat": 38.910092, "is_reserved": 0, "is_disabled": 0, "fusion_lon": 0.0, "bike_id": "a14131d5c475cbd084869a78a2c581e4", "lon": -77.022037, "rental_uris": {"ios": "https://dc.lft.to/lastmile_qr_scan", "android": "https://dc.lft.to/lastmile_qr_scan"}}, {"name": "a92b5866c8b2011ce56df9c2328a070c", "fusion_lat": 0.0, "type": "electric_scooter", "lat": 38.93693483333333, "is_reserved": 0, "is_disabled": 0, "fusion_lon": 0.0, "bike_id": "a92b5866c8b2011ce56df9c2328a070c", "lon": -77.02400166666666, "rental_uris": {"ios": "https://dc.lft.to/lastmile_qr_scan", "android": "https://dc.lft.to/lastmile_qr_scan"}}, {"name": "7c383ec43bd1ebe6d6c2818635f4d0eb", "fusion_lat": 0.0, "type": "electric_scooter", "lat": 38.8646355, "is_reserved": 0, "is_disabled": 0, "fusion_lon": 0.0, "bike_id": "7c383ec43bd1ebe6d6c2818635f4d0eb", "lon": -77.01189316666667, "rental_uris": {"ios": "https://dc.lft.to/lastmile_qr_scan", "android": "https://dc.lft.to/lastmile_qr_scan"}}, {"name": "bf08639f961094b4483bb13e9d29351b", "fusion_lat": 0.0, "type": "electric_scooter", "lat": 38.89486016666667, "is_reserved": 0, "is_disabled": 0, "fusion_lon": 0.0, "bike_id": "bf08639f961094b4483bb13e9d29351b", "lon": -77.0306525, "rental_uris": {"ios": "https://dc.lft.to/lastmile_qr_scan", "android": "https://dc.lft.to/lastmile_qr_scan"}}, {"name": "f4e0c3343014beedf044c142f35141fc", "fusion_lat": 0.0, "type": "electric_scooter", "lat": 38.902650333333334, "is_reserved": 0, "is_disabled": 0, "fusion_lon": 0.0, "bike_id": "f4e0c3343014beedf044c142f35141fc", "lon": -77.009275, "rental_uris": {"ios": "https://dc.lft.to/lastmile_qr_scan", "android": "https://dc.lft.to/lastmile_qr_scan"}}, {"name": "19607d52f4fa5fbb3a59951e5c74274f", "fusion_lat": 0.0, "type": "electric_scooter", "lat": 38.93823233333333, "is_reserved": 0, "is_disabled": 0, "fusion_lon": 0.0, "bike_id": "19607d52f4fa5fbb3a59951e5c74274f", "lon": -77.03282166666666, "rental_uris": {"ios": "https://dc.lft.to/lastmile_qr_scan", "android": "https://dc.lft.to/lastmile_qr_scan"}}, {"name": "ebe6b48e4e89942743e1672bdceb988a", "fusion_lat": 0.0, "type": "electric_scooter", "lat": 38.90657433333333, "is_reserved": 0, "is_disabled": 0, "fusion_lon": 0.0, "bike_id": "ebe6b48e4e89942743e1672bdceb988a", "lon": -77.04170133333334, "rental_uris": {"ios": "https://dc.lft.to/lastmile_qr_scan", "android": "https://dc.lft.to/lastmile_qr_scan"}}, {"name": "e29837d2233d1c49bd65944920b4a529", "fusion_lat": 0.0, "type": "electric_scooter", "lat": 38.9172675, "is_reserved": 0, "is_disabled": 0, "fusion_lon": 0.0, "bike_id": "e29837d2233d1c49bd65944920b4a529", "lon": -77.0383855, "rental_uris": {"ios": "https://dc.lft.to/lastmile_qr_scan", "android": "https://dc.lft.to/lastmile_qr_scan"}}, {"name": "b3189ec89f0c8dcab0a17345afba5bc7", "fusion_lat": 0.0, "type": "electric_bike", "lat": 38.852209333333334, "is_reserved": 0, "is_disabled": 0, "fusion_lon": 0.0, "bike_id": "b3189ec89f0c8dcab0a17345afba5bc7", "lon": -77.1295915, "rental_uris": {"ios": "https://dc.lft.to/lastmile_qr_scan", "android": "https://dc.lft.to/lastmile_qr_scan"}}, {"name": "939c1f0ca1cf66ab2e2a1f52283dfca4", "fusion_lat": 0.0, "type": "electric_scooter", "lat": 38.9305745, "is_reserved": 0, "is_disabled": 0, "fusion_lon": 0.0, "bike_id": "939c1f0ca1cf66ab2e2a1f52283dfca4", "lon": -77.0232005, "rental_uris": {"ios": "https://dc.lft.to/lastmile_qr_scan", "android": "https://dc.lft.to/lastmile_qr_scan"}}, {"name": "37fe0e1fbadfe562a862fdbc4b15df04", "fusion_lat": 0.0, "type": "electric_scooter", "lat": 38.87661166666667, "is_reserved": 0, "is_disabled": 0, "fusion_lon": 0.0, "bike_id": "37fe0e1fbadfe562a862fdbc4b15df04", "lon": -77.00321716666667, "rental_uris": {"ios": "https://dc.lft.to/lastmile_qr_scan", "android": "https://dc.lft.to/lastmile_qr_scan"}}, {"name": "a9df32521391bd29f7cf200d070d32e9", "fusion_lat": 0.0, "type": "electric_scooter", "lat": 38.91951566666667, "is_reserved": 0, "is_disabled": 0, "fusion_lon": 0.0, "bike_id": "a9df32521391bd29f7cf200d070d32e9", "lon": -77.013933, "rental_uris": {"ios": "https://dc.lft.to/lastmile_qr_scan", "android": "https://dc.lft.to/lastmile_qr_scan"}}, {"name": "ba33d9e5e6b323adf42b185ebc66a0ef", "fusion_lat": 0.0, "type": "electric_scooter", "lat": 38.895551833333336, "is_reserved": 0, "is_disabled": 0, "fusion_lon": 0.0, "bike_id": "ba33d9e5e6b323adf42b185ebc66a0ef", "lon": -76.98372483333333, "rental_uris": {"ios": "https://dc.lft.to/lastmile_qr_scan", "android": "https://dc.lft.to/lastmile_qr_scan"}}, {"name": "a1b2fab45ceec382e55e1082f25775aa", "fusion_lat": 0.0, "type": "electric_scooter", "lat": 38.915786833333335, "is_reserved": 0, "is_disabled": 0, "fusion_lon": 0.0, "bike_id": "a1b2fab45ceec382e55e1082f25775aa", "lon": -77.03195516666666, "rental_uris": {"ios": "https://dc.lft.to/lastmile_qr_scan", "android": "https://dc.lft.to/lastmile_qr_scan"}}, {"name": "5e32d5d9b9e94146344d82289b1077d2", "fusion_lat": 0.0, "type": "electric_scooter", "lat": 38.90081133333333, "is_reserved": 0, "is_disabled": 0, "fusion_lon": 0.0, "bike_id": "5e32d5d9b9e94146344d82289b1077d2", "lon": -76.94776833333333, "rental_uris": {"ios": "https://dc.lft.to/lastmile_qr_scan", "android": "https://dc.lft.to/lastmile_qr_scan"}}, {"name": "7b05be40e08a7d947c934b6320c82108", "fusion_lat": 0.0, "type": "electric_scooter", "lat": 38.88516533333333, "is_reserved": 0, "is_disabled": 0, "fusion_lon": 0.0, "bike_id": "7b05be40e08a7d947c934b6320c82108", "lon": -77.03353516666667, "rental_uris": {"ios": "https://dc.lft.to/lastmile_qr_scan", "android": "https://dc.lft.to/lastmile_qr_scan"}}, {"name": "794294e841eeb289f638eb2f26e7fe5f", "fusion_lat": 0.0, "type": "electric_scooter", "lat": 38.880492333333336, "is_reserved": 0, "is_disabled": 0, "fusion_lon": 0.0, "bike_id": "794294e841eeb289f638eb2f26e7fe5f", "lon": -76.95981683333333, "rental_uris": {"ios": "https://dc.lft.to/lastmile_qr_scan", "android": "https://dc.lft.to/lastmile_qr_scan"}}, {"name": "f75be5d86d67080037a1ea0364f3c1d0", "fusion_lat": 0.0, "type": "electric_scooter", "lat": 38.883163833333334, "is_reserved": 0, "is_disabled": 0, "fusion_lon": 0.0, "bike_id": "f75be5d86d67080037a1ea0364f3c1d0", "lon": -77.01541833333333, "rental_uris": {"ios": "https://dc.lft.to/lastmile_qr_scan", "android": "https://dc.lft.to/lastmile_qr_scan"}}, {"name": "1779a1fcd01bb718d4c8db8d5e3ecbca", "fusion_lat": 0.0, "type": "electric_bike", "lat": 38.865936166666664, "is_reserved": 0, "is_disabled": 0, "fusion_lon": 0.0, "bike_id": "1779a1fcd01bb718d4c8db8d5e3ecbca", "lon": -76.93227066666667, "rental_uris": {"ios": "https://dc.lft.to/lastmile_qr_scan", "android": "https://dc.lft.to/lastmile_qr_scan"}}, {"name": "7a06ca76de936fcd3f91291517de7d56", "fusion_lat": 0.0, "type": "electric_bike", "lat": 38.9845575, "is_reserved": 0, "is_disabled": 0, "fusion_lon": 0.0, "bike_id": "7a06ca76de936fcd3f91291517de7d56", "lon": -76.9552295, "rental_uris": {"ios": "https://dc.lft.to/lastmile_qr_scan", "android": "https://dc.lft.to/lastmile_qr_scan"}}, {"name": "7bd79f958743260696c8bd73d4b81cc2", "fusion_lat": 0.0, "type": "electric_scooter", "lat": 38.874586, "is_reserved": 0, "is_disabled": 0, "fusion_lon": 0.0, "bike_id": "7bd79f958743260696c8bd73d4b81cc2", "lon": -77.005438, "rental_uris": {"ios": "https://dc.lft.to/lastmile_qr_scan", "android": "https://dc.lft.to/lastmile_qr_scan"}}, {"name": "cb8c389856d2a5707660657121caa94e", "fusion_lat": 0.0, "type": "electric_scooter", "lat": 38.91185733333333, "is_reserved": 0, "is_disabled": 0, "fusion_lon": 0.0, "bike_id": "cb8c389856d2a5707660657121caa94e", "lon": -77.03864566666667, "rental_uris": {"ios": "https://dc.lft.to/lastmile_qr_scan", "android": "https://dc.lft.to/lastmile_qr_scan"}}, {"name": "75cfb78078a9e1086690e74b4693eab0", "fusion_lat": 0.0, "type": "electric_scooter", "lat": 38.8592875, "is_reserved": 0, "is_disabled": 0, "fusion_lon": 0.0, "bike_id": "75cfb78078a9e1086690e74b4693eab0", "lon": -76.98972266666667, "rental_uris": {"ios": "https://dc.lft.to/lastmile_qr_scan", "android": "https://dc.lft.to/lastmile_qr_scan"}}, {"name": "e96ca953586fb53fe7dc7c0cfd797060", "fusion_lat": 0.0, "type": "electric_bike", "lat": 38.87201133333333, "is_reserved": 0, "is_disabled": 0, "fusion_lon": 0.0, "bike_id": "e96ca953586fb53fe7dc7c0cfd797060", "lon": -77.0093435, "rental_uris": {"ios": "https://dc.lft.to/lastmile_qr_scan", "android": "https://dc.lft.to/lastmile_qr_scan"}}, {"name": "8223781213fdb58fd33eb0a8efa305d4", "fusion_lat": 0.0, "type": "electric_scooter", "lat": 38.928434833333334, "is_reserved": 0, "is_disabled": 0, "fusion_lon": 0.0, "bike_id": "8223781213fdb58fd33eb0a8efa305d4", "lon": -77.05423366666666, "rental_uris": {"ios": "https://dc.lft.to/lastmile_qr_scan", "android": "https://dc.lft.to/lastmile_qr_scan"}}, {"name": "10d586428a54da2c24ce97d2c1835a9e", "fusion_lat": 0.0, "type": "electric_bike", "lat": 38.8922125, "is_reserved": 0, "is_disabled": 0, "fusion_lon": 0.0, "bike_id": "10d586428a54da2c24ce97d2c1835a9e", "lon": -77.10778833333333, "rental_uris": {"ios": "https://dc.lft.to/lastmile_qr_scan", "android": "https://dc.lft.to/lastmile_qr_scan"}}, {"name": "3e923243a21b215785caa11105814b2e", "fusion_lat": 0.0, "type": "electric_scooter", "lat": 38.9339365, "is_reserved": 0, "is_disabled": 0, "fusion_lon": 0.0, "bike_id": "3e923243a21b215785caa11105814b2e", "lon": -77.0358115, "rental_uris": {"ios": "https://dc.lft.to/lastmile_qr_scan", "android": "https://dc.lft.to/lastmile_qr_scan"}}, {"name": "aac59eed6ac706a159b0ecaf418eb568", "fusion_lat": 0.0, "type": "electric_scooter", "lat": 38.912906166666666, "is_reserved": 0, "is_disabled": 0, "fusion_lon": 0.0, "bike_id": "aac59eed6ac706a159b0ecaf418eb568", "lon": -77.06156666666666, "rental_uris": {"ios": "https://dc.lft.to/lastmile_qr_scan", "android": "https://dc.lft.to/lastmile_qr_scan"}}, {"name": "58e60dba27226f5c00bfb9b226d5065b", "fusion_lat": 0.0, "type": "electric_scooter", "lat": 38.9126115, "is_reserved": 0, "is_disabled": 0, "fusion_lon": 0.0, "bike_id": "58e60dba27226f5c00bfb9b226d5065b", "lon": -77.0315705, "rental_uris": {"ios": "https://dc.lft.to/lastmile_qr_scan", "android": "https://dc.lft.to/lastmile_qr_scan"}}, {"name": "b0e88b92517ce2c8e106f63d672556cf", "fusion_lat": 0.0, "type": "electric_scooter", "lat": 38.8831765, "is_reserved": 0, "is_disabled": 0, "fusion_lon": 0.0, "bike_id": "b0e88b92517ce2c8e106f63d672556cf", "lon": -77.02403616666666, "rental_uris": {"ios": "https://dc.lft.to/lastmile_qr_scan", "android": "https://dc.lft.to/lastmile_qr_scan"}}, {"name": "d4f51d8790ae07664681343fdf99d23a", "fusion_lat": 0.0, "type": "electric_scooter", "lat": 38.91693183333334, "is_reserved": 0, "is_disabled": 0, "fusion_lon": 0.0, "bike_id": "d4f51d8790ae07664681343fdf99d23a", "lon": -77.02913583333333, "rental_uris": {"ios": "https://dc.lft.to/lastmile_qr_scan", "android": "https://dc.lft.to/lastmile_qr_scan"}}, {"name": "1902405703f3e1732047d5af1e80fd74", "fusion_lat": 0.0, "type": "electric_scooter", "lat": 38.93003783333333, "is_reserved": 0, "is_disabled": 0, "fusion_lon": 0.0, "bike_id": "1902405703f3e1732047d5af1e80fd74", "lon": -77.0551905, "rental_uris": {"ios": "https://dc.lft.to/lastmile_qr_scan", "android": "https://dc.lft.to/lastmile_qr_scan"}}, {"name": "0726fd7780a0bad2fe76234e3e7109cd", "fusion_lat": 0.0, "type": "electric_scooter", "lat": 38.90561066666667, "is_reserved": 0, "is_disabled": 0, "fusion_lon": 0.0, "bike_id": "0726fd7780a0bad2fe76234e3e7109cd", "lon": -77.02755916666666, "rental_uris": {"ios": "https://dc.lft.to/lastmile_qr_scan", "android": "https://dc.lft.to/lastmile_qr_scan"}}, {"name": "f05cfac799376eb5cc07c224d13ae806", "fusion_lat": 0.0, "type": "electric_scooter", "lat": 38.95734783333333, "is_reserved": 0, "is_disabled": 0, "fusion_lon": 0.0, "bike_id": "f05cfac799376eb5cc07c224d13ae806", "lon": -77.02385516666666, "rental_uris": {"ios": "https://dc.lft.to/lastmile_qr_scan", "android": "https://dc.lft.to/lastmile_qr_scan"}}, {"name": "bd9b8f513514dc2c7c7e4ee3398b4a63", "fusion_lat": 0.0, "type": "electric_scooter", "lat": 38.891912166666664, "is_reserved": 0, "is_disabled": 0, "fusion_lon": 0.0, "bike_id": "bd9b8f513514dc2c7c7e4ee3398b4a63", "lon": -77.01580966666667, "rental_uris": {"ios": "https://dc.lft.to/lastmile_qr_scan", "android": "https://dc.lft.to/lastmile_qr_scan"}}, {"name": "993599a3e977fbf12f414e4aa348c798", "fusion_lat": 0.0, "type": "electric_scooter", "lat": 38.91142583333333, "is_reserved": 0, "is_disabled": 0, "fusion_lon": 0.0, "bike_id": "993599a3e977fbf12f414e4aa348c798", "lon": -77.04191916666667, "rental_uris": {"ios": "https://dc.lft.to/lastmile_qr_scan", "android": "https://dc.lft.to/lastmile_qr_scan"}}, {"name": "8be5fa72a8d49815c633e63039db2c5e", "fusion_lat": 0.0, "type": "electric_scooter", "lat": 38.9110085, "is_reserved": 0, "is_disabled": 0, "fusion_lon": 0.0, "bike_id": "8be5fa72a8d49815c633e63039db2c5e", "lon": -77.07345766666667, "rental_uris": {"ios": "https://dc.lft.to/lastmile_qr_scan", "android": "https://dc.lft.to/lastmile_qr_scan"}}, {"name": "6029f85f86d5e37bb3d62e56223ea005", "fusion_lat": 0.0, "type": "electric_scooter", "lat": 38.94293233333333, "is_reserved": 0, "is_disabled": 0, "fusion_lon": 0.0, "bike_id": "6029f85f86d5e37bb3d62e56223ea005", "lon": -77.02171516666667, "rental_uris": {"ios": "https://dc.lft.to/lastmile_qr_scan", "android": "https://dc.lft.to/lastmile_qr_scan"}}, {"name": "c7589bfaa1d7072ee20d3ff4fb32bc77", "fusion_lat": 0.0, "type": "electric_bike", "lat": 38.910998166666666, "is_reserved": 0, "is_disabled": 0, "fusion_lon": 0.0, "bike_id": "c7589bfaa1d7072ee20d3ff4fb32bc77", "lon": -77.00495583333333, "rental_uris": {"ios": "https://dc.lft.to/lastmile_qr_scan", "android": "https://dc.lft.to/lastmile_qr_scan"}}, {"name": "91118ce1557bcedc821ae9dd16cdee81", "fusion_lat": 0.0, "type": "electric_scooter", "lat": 38.89225716666667, "is_reserved": 0, "is_disabled": 0, "fusion_lon": 0.0, "bike_id": "91118ce1557bcedc821ae9dd16cdee81", "lon": -77.0500915, "rental_uris": {"ios": "https://dc.lft.to/lastmile_qr_scan", "android": "https://dc.lft.to/lastmile_qr_scan"}}, {"name": "9c1e09a5a4d2eda6e59b64b6a1e03cc1", "fusion_lat": 0.0, "type": "electric_scooter", "lat": 38.919492, "is_reserved": 0, "is_disabled": 0, "fusion_lon": 0.0, "bike_id": "9c1e09a5a4d2eda6e59b64b6a1e03cc1", "lon": -77.013969, "rental_uris": {"ios": "https://dc.lft.to/lastmile_qr_scan", "android": "https://dc.lft.to/lastmile_qr_scan"}}, {"name": "04fcdefaca697fd2edc2a12bb129a586", "fusion_lat": 0.0, "type": "electric_scooter", "lat": 38.924188666666666, "is_reserved": 0, "is_disabled": 0, "fusion_lon": 0.0, "bike_id": "04fcdefaca697fd2edc2a12bb129a586", "lon": -77.01944533333334, "rental_uris": {"ios": "https://dc.lft.to/lastmile_qr_scan", "android": "https://dc.lft.to/lastmile_qr_scan"}}, {"name": "231056ad46645eb221df794c756ac51a", "fusion_lat": 0.0, "type": "electric_scooter", "lat": 38.9361405, "is_reserved": 0, "is_disabled": 0, "fusion_lon": 0.0, "bike_id": "231056ad46645eb221df794c756ac51a", "lon": -77.03210983333334, "rental_uris": {"ios": "https://dc.lft.to/lastmile_qr_scan", "android": "https://dc.lft.to/lastmile_qr_scan"}}, {"name": "d605939fc249508ddde8835750fbadd6", "fusion_lat": 0.0, "type": "electric_scooter", "lat": 38.87665283333333, "is_reserved": 0, "is_disabled": 0, "fusion_lon": 0.0, "bike_id": "d605939fc249508ddde8835750fbadd6", "lon": -77.0072855, "rental_uris": {"ios": "https://dc.lft.to/lastmile_qr_scan", "android": "https://dc.lft.to/lastmile_qr_scan"}}, {"name": "790a10ef4b2989958b7018f970d63f58", "fusion_lat": 0.0, "type": "electric_scooter", "lat": 38.92479683333333, "is_reserved": 0, "is_disabled": 0, "fusion_lon": 0.0, "bike_id": "790a10ef4b2989958b7018f970d63f58", "lon": -77.02837083333333, "rental_uris": {"ios": "https://dc.lft.to/lastmile_qr_scan", "android": "https://dc.lft.to/lastmile_qr_scan"}}, {"name": "80c2211b568c2ac3c085d6252c2171e8", "fusion_lat": 0.0, "type": "electric_scooter", "lat": 38.87748416666667, "is_reserved": 0, "is_disabled": 0, "fusion_lon": 0.0, "bike_id": "80c2211b568c2ac3c085d6252c2171e8", "lon": -77.01994816666667, "rental_uris": {"ios": "https://dc.lft.to/lastmile_qr_scan", "android": "https://dc.lft.to/lastmile_qr_scan"}}, {"name": "fb351e915bb580a420a945006b64e664", "fusion_lat": 0.0, "type": "electric_scooter", "lat": 38.918189, "is_reserved": 0, "is_disabled": 0, "fusion_lon": 0.0, "bike_id": "fb351e915bb580a420a945006b64e664", "lon": -77.04000983333333, "rental_uris": {"ios": "https://dc.lft.to/lastmile_qr_scan", "android": "https://dc.lft.to/lastmile_qr_scan"}}, {"name": "3a82ddb32835b8a622e4fec01fc4adea", "fusion_lat": 0.0, "type": "electric_scooter", "lat": 38.92165933333333, "is_reserved": 0, "is_disabled": 0, "fusion_lon": 0.0, "bike_id": "3a82ddb32835b8a622e4fec01fc4adea", "lon": -76.99634316666666, "rental_uris": {"ios": "https://dc.lft.to/lastmile_qr_scan", "android": "https://dc.lft.to/lastmile_qr_scan"}}, {"name": "f9f111c922c9f11eb53c11c6be7d1385", "fusion_lat": 0.0, "type": "electric_bike", "lat": 38.841584, "is_reserved": 0, "is_disabled": 0, "fusion_lon": 0.0, "bike_id": "f9f111c922c9f11eb53c11c6be7d1385", "lon": -77.08891566666667, "rental_uris": {"ios": "https://dc.lft.to/lastmile_qr_scan", "android": "https://dc.lft.to/lastmile_qr_scan"}}, {"name": "caad2340e922b82a0825b3ea8165aad5", "fusion_lat": 0.0, "type": "electric_scooter", "lat": 38.9005755, "is_reserved": 0, "is_disabled": 0, "fusion_lon": 0.0, "bike_id": "caad2340e922b82a0825b3ea8165aad5", "lon": -77.01384, "rental_uris": {"ios": "https://dc.lft.to/lastmile_qr_scan", "android": "https://dc.lft.to/lastmile_qr_scan"}}, {"name": "c4616a613b1c59085c18e410f9cc3c88", "fusion_lat": 0.0, "type": "electric_scooter", "lat": 38.901390666666664, "is_reserved": 0, "is_disabled": 0, "fusion_lon": 0.0, "bike_id": "c4616a613b1c59085c18e410f9cc3c88", "lon": -76.99121483333333, "rental_uris": {"ios": "https://dc.lft.to/lastmile_qr_scan", "android": "https://dc.lft.to/lastmile_qr_scan"}}, {"name": "64f899ad3b49cb6b30c561a2425fd24f", "fusion_lat": 0.0, "type": "electric_bike", "lat": 39.052045, "is_reserved": 0, "is_disabled": 0, "fusion_lon": 0.0, "bike_id": "64f899ad3b49cb6b30c561a2425fd24f", "lon": -77.1091025, "rental_uris": {"ios": "https://dc.lft.to/lastmile_qr_scan", "android": "https://dc.lft.to/lastmile_qr_scan"}}, {"name": "79fe235d63e96a8f038940b27b01a73b", "fusion_lat": 0.0, "type": "electric_scooter", "lat": 38.923687666666666, "is_reserved": 0, "is_disabled": 0, "fusion_lon": 0.0, "bike_id": "79fe235d63e96a8f038940b27b01a73b", "lon": -77.01921966666667, "rental_uris": {"ios": "https://dc.lft.to/lastmile_qr_scan", "android": "https://dc.lft.to/lastmile_qr_scan"}}, {"name": "064a6a50ccc8f0fab78e467b2f39c379", "fusion_lat": 0.0, "type": "electric_scooter", "lat": 38.88010033333333, "is_reserved": 0, "is_disabled": 0, "fusion_lon": 0.0, "bike_id": "064a6a50ccc8f0fab78e467b2f39c379", "lon": -77.0058585, "rental_uris": {"ios": "https://dc.lft.to/lastmile_qr_scan", "android": "https://dc.lft.to/lastmile_qr_scan"}}, {"name": "9a58a9825c1fbc5794626fedc141f57a", "fusion_lat": 0.0, "type": "electric_scooter", "lat": 38.88740683333333, "is_reserved": 0, "is_disabled": 0, "fusion_lon": 0.0, "bike_id": "9a58a9825c1fbc5794626fedc141f57a", "lon": -77.01531, "rental_uris": {"ios": "https://dc.lft.to/lastmile_qr_scan", "android": "https://dc.lft.to/lastmile_qr_scan"}}, {"name": "c53394b214180c3ffba6340a1b10e321", "fusion_lat": 0.0, "type": "electric_scooter", "lat": 38.91256716666667, "is_reserved": 0, "is_disabled": 0, "fusion_lon": 0.0, "bike_id": "c53394b214180c3ffba6340a1b10e321", "lon": -77.00771833333333, "rental_uris": {"ios": "https://dc.lft.to/lastmile_qr_scan", "android": "https://dc.lft.to/lastmile_qr_scan"}}, {"name": "3e626d9b19ea892e6eedf6d6767bf129", "fusion_lat": 0.0, "type": "electric_scooter", "lat": 38.93309416666666, "is_reserved": 0, "is_disabled": 0, "fusion_lon": 0.0, "bike_id": "3e626d9b19ea892e6eedf6d6767bf129", "lon": -77.03092433333333, "rental_uris": {"ios": "https://dc.lft.to/lastmile_qr_scan", "android": "https://dc.lft.to/lastmile_qr_scan"}}, {"name": "44d04eab358366f4ade484fc5c51bfa3", "fusion_lat": 0.0, "type": "electric_scooter", "lat": 38.933626, "is_reserved": 0, "is_disabled": 0, "fusion_lon": 0.0, "bike_id": "44d04eab358366f4ade484fc5c51bfa3", "lon": -77.05725116666666, "rental_uris": {"ios": "https://dc.lft.to/lastmile_qr_scan", "android": "https://dc.lft.to/lastmile_qr_scan"}}, {"name": "705072d83b434ba4a6b6a93eae62ecd8", "fusion_lat": 0.0, "type": "electric_scooter", "lat": 38.92382666666666, "is_reserved": 0, "is_disabled": 0, "fusion_lon": 0.0, "bike_id": "705072d83b434ba4a6b6a93eae62ecd8", "lon": -77.029526, "rental_uris": {"ios": "https://dc.lft.to/lastmile_qr_scan", "android": "https://dc.lft.to/lastmile_qr_scan"}}, {"name": "6c9ae88ed8134266d9f25c860ecd8022", "fusion_lat": 0.0, "type": "electric_bike", "lat": 38.898360333333336, "is_reserved": 0, "is_disabled": 0, "fusion_lon": 0.0, "bike_id": "6c9ae88ed8134266d9f25c860ecd8022", "lon": -77.1180025, "rental_uris": {"ios": "https://dc.lft.to/lastmile_qr_scan", "android": "https://dc.lft.to/lastmile_qr_scan"}}, {"name": "e1605d4575ede4309d6cc7feff193ea3", "fusion_lat": 0.0, "type": "electric_scooter", "lat": 38.931923166666664, "is_reserved": 0, "is_disabled": 0, "fusion_lon": 0.0, "bike_id": "e1605d4575ede4309d6cc7feff193ea3", "lon": -77.02793366666667, "rental_uris": {"ios": "https://dc.lft.to/lastmile_qr_scan", "android": "https://dc.lft.to/lastmile_qr_scan"}}, {"name": "2f791339f45a1b21ddd8b4225b3eb112", "fusion_lat": 0.0, "type": "electric_bike", "lat": 38.896827333333334, "is_reserved": 0, "is_disabled": 0, "fusion_lon": 0.0, "bike_id": "2f791339f45a1b21ddd8b4225b3eb112", "lon": -76.940591, "rental_uris": {"ios": "https://dc.lft.to/lastmile_qr_scan", "android": "https://dc.lft.to/lastmile_qr_scan"}}, {"name": "669c8ea0239dfb5389d0a4ede0c86b6e", "fusion_lat": 0.0, "type": "electric_bike", "lat": 38.88638516666666, "is_reserved": 0, "is_disabled": 0, "fusion_lon": 0.0, "bike_id": "669c8ea0239dfb5389d0a4ede0c86b6e", "lon": -76.954647, "rental_uris": {"ios": "https://dc.lft.to/lastmile_qr_scan", "android": "https://dc.lft.to/lastmile_qr_scan"}}, {"name": "98f16ac8103260d36ef95b822704a332", "fusion_lat": 0.0, "type": "electric_scooter", "lat": 38.9212475, "is_reserved": 0, "is_disabled": 0, "fusion_lon": 0.0, "bike_id": "98f16ac8103260d36ef95b822704a332", "lon": -77.04570966666667, "rental_uris": {"ios": "https://dc.lft.to/lastmile_qr_scan", "android": "https://dc.lft.to/lastmile_qr_scan"}}, {"name": "ccefd6a613f4b097d5b8ebf8110ef4a2", "fusion_lat": 0.0, "type": "electric_scooter", "lat": 38.920617, "is_reserved": 0, "is_disabled": 0, "fusion_lon": 0.0, "bike_id": "ccefd6a613f4b097d5b8ebf8110ef4a2", "lon": -77.02935066666667, "rental_uris": {"ios": "https://dc.lft.to/lastmile_qr_scan", "android": "https://dc.lft.to/lastmile_qr_scan"}}, {"name": "3f275818a56bead1b810f9f682457f95", "fusion_lat": 0.0, "type": "electric_scooter", "lat": 38.8861405, "is_reserved": 0, "is_disabled": 0, "fusion_lon": 0.0, "bike_id": "3f275818a56bead1b810f9f682457f95", "lon": -76.97817583333334, "rental_uris": {"ios": "https://dc.lft.to/lastmile_qr_scan", "android": "https://dc.lft.to/lastmile_qr_scan"}}, {"name": "c147caa292b08a33dac11ee468f5856c", "fusion_lat": 0.0, "type": "electric_scooter", "lat": 38.90645766666667, "is_reserved": 0, "is_disabled": 0, "fusion_lon": 0.0, "bike_id": "c147caa292b08a33dac11ee468f5856c", "lon": -76.98372233333333, "rental_uris": {"ios": "https://dc.lft.to/lastmile_qr_scan", "android": "https://dc.lft.to/lastmile_qr_scan"}}, {"name": "2fcfd97eef8334e62311865800f36637", "fusion_lat": 0.0, "type": "electric_scooter", "lat": 38.90589833333333, "is_reserved": 0, "is_disabled": 0, "fusion_lon": 0.0, "bike_id": "2fcfd97eef8334e62311865800f36637", "lon": -77.00647516666666, "rental_uris": {"ios": "https://dc.lft.to/lastmile_qr_scan", "android": "https://dc.lft.to/lastmile_qr_scan"}}, {"name": "efc3e7a8e6e218b1d1308e7abf7d2076", "fusion_lat": 0.0, "type": "electric_scooter", "lat": 38.89485, "is_reserved": 0, "is_disabled": 0, "fusion_lon": 0.0, "bike_id": "efc3e7a8e6e218b1d1308e7abf7d2076", "lon": -77.0241365, "rental_uris": {"ios": "https://dc.lft.to/lastmile_qr_scan", "android": "https://dc.lft.to/lastmile_qr_scan"}}, {"name": "c63bcfb7372db3afd8f5d0916bb64a30", "fusion_lat": 0.0, "type": "electric_scooter", "lat": 38.91360933333333, "is_reserved": 0, "is_disabled": 0, "fusion_lon": 0.0, "bike_id": "c63bcfb7372db3afd8f5d0916bb64a30", "lon": -77.03217083333334, "rental_uris": {"ios": "https://dc.lft.to/lastmile_qr_scan", "android": "https://dc.lft.to/lastmile_qr_scan"}}, {"name": "6bb276a2e20a67b4616b062ccdecfb2c", "fusion_lat": 0.0, "type": "electric_scooter", "lat": 38.910575333333334, "is_reserved": 0, "is_disabled": 0, "fusion_lon": 0.0, "bike_id": "6bb276a2e20a67b4616b062ccdecfb2c", "lon": -77.04575233333334, "rental_uris": {"ios": "https://dc.lft.to/lastmile_qr_scan", "android": "https://dc.lft.to/lastmile_qr_scan"}}, {"name": "2a1b301f0bdf8797be491a95f2549d34", "fusion_lat": 0.0, "type": "electric_scooter", "lat": 38.898910666666666, "is_reserved": 0, "is_disabled": 0, "fusion_lon": 0.0, "bike_id": "2a1b301f0bdf8797be491a95f2549d34", "lon": -77.03274916666666, "rental_uris": {"ios": "https://dc.lft.to/lastmile_qr_scan", "android": "https://dc.lft.to/lastmile_qr_scan"}}, {"name": "91214a94e6bb52e16f4da8904dcf1b1f", "fusion_lat": 0.0, "type": "electric_scooter", "lat": 38.93234966666667, "is_reserved": 0, "is_disabled": 0, "fusion_lon": 0.0, "bike_id": "91214a94e6bb52e16f4da8904dcf1b1f", "lon": -77.0309305, "rental_uris": {"ios": "https://dc.lft.to/lastmile_qr_scan", "android": "https://dc.lft.to/lastmile_qr_scan"}}, {"name": "1948d6ae84cd57e3935ad3de5e42e16e", "fusion_lat": 0.0, "type": "electric_scooter", "lat": 38.86510116666667, "is_reserved": 0, "is_disabled": 0, "fusion_lon": 0.0, "bike_id": "1948d6ae84cd57e3935ad3de5e42e16e", "lon": -76.9900185, "rental_uris": {"ios": "https://dc.lft.to/lastmile_qr_scan", "android": "https://dc.lft.to/lastmile_qr_scan"}}, {"name": "ca1e2ed1cfdd7e9dba0cadbf0824a5c7", "fusion_lat": 0.0, "type": "electric_scooter", "lat": 38.8985805, "is_reserved": 0, "is_disabled": 0, "fusion_lon": 0.0, "bike_id": "ca1e2ed1cfdd7e9dba0cadbf0824a5c7", "lon": -77.03341416666666, "rental_uris": {"ios": "https://dc.lft.to/lastmile_qr_scan", "android": "https://dc.lft.to/lastmile_qr_scan"}}, {"name": "4a2321980d3a9f83e2fb7d1b426cf080", "fusion_lat": 0.0, "type": "electric_scooter", "lat": 38.895104, "is_reserved": 0, "is_disabled": 0, "fusion_lon": 0.0, "bike_id": "4a2321980d3a9f83e2fb7d1b426cf080", "lon": -76.94889733333333, "rental_uris": {"ios": "https://dc.lft.to/lastmile_qr_scan", "android": "https://dc.lft.to/lastmile_qr_scan"}}, {"name": "bd122c5e76d6003376b7a73cd7355bea", "fusion_lat": 0.0, "type": "electric_scooter", "lat": 38.92834533333333, "is_reserved": 0, "is_disabled": 0, "fusion_lon": 0.0, "bike_id": "bd122c5e76d6003376b7a73cd7355bea", "lon": -77.05415016666667, "rental_uris": {"ios": "https://dc.lft.to/lastmile_qr_scan", "android": "https://dc.lft.to/lastmile_qr_scan"}}, {"name": "0b93ae2925bdae23715ea418409f2070", "fusion_lat": 0.0, "type": "electric_scooter", "lat": 38.9420375, "is_reserved": 0, "is_disabled": 0, "fusion_lon": 0.0, "bike_id": "0b93ae2925bdae23715ea418409f2070", "lon": -77.02511716666666, "rental_uris": {"ios": "https://dc.lft.to/lastmile_qr_scan", "android": "https://dc.lft.to/lastmile_qr_scan"}}, {"name": "ad0ad424c60c2ae043b2195a91981fc4", "fusion_lat": 0.0, "type": "electric_scooter", "lat": 38.92067383333333, "is_reserved": 0, "is_disabled": 0, "fusion_lon": 0.0, "bike_id": "ad0ad424c60c2ae043b2195a91981fc4", "lon": -77.02395283333334, "rental_uris": {"ios": "https://dc.lft.to/lastmile_qr_scan", "android": "https://dc.lft.to/lastmile_qr_scan"}}, {"name": "14e1297d065c56eba23c92d88fd8d757", "fusion_lat": 0.0, "type": "electric_scooter", "lat": 38.918921833333336, "is_reserved": 0, "is_disabled": 0, "fusion_lon": 0.0, "bike_id": "14e1297d065c56eba23c92d88fd8d757", "lon": -77.0529195, "rental_uris": {"ios": "https://dc.lft.to/lastmile_qr_scan", "android": "https://dc.lft.to/lastmile_qr_scan"}}, {"name": "1c905053da28343551cddc55417cf882", "fusion_lat": 0.0, "type": "electric_bike", "lat": 38.86629816666667, "is_reserved": 0, "is_disabled": 0, "fusion_lon": 0.0, "bike_id": "1c905053da28343551cddc55417cf882", "lon": -77.0105095, "rental_uris": {"ios": "https://dc.lft.to/lastmile_qr_scan", "android": "https://dc.lft.to/lastmile_qr_scan"}}, {"name": "0872dedce7ae76009c3a5f71023ae339", "fusion_lat": 0.0, "type": "electric_scooter", "lat": 38.905544, "is_reserved": 0, "is_disabled": 0, "fusion_lon": 0.0, "bike_id": "0872dedce7ae76009c3a5f71023ae339", "lon": -76.99129066666667, "rental_uris": {"ios": "https://dc.lft.to/lastmile_qr_scan", "android": "https://dc.lft.to/lastmile_qr_scan"}}, {"name": "4ee878a299abf080611052b172ace7c0", "fusion_lat": 0.0, "type": "electric_scooter", "lat": 38.90141766666667, "is_reserved": 0, "is_disabled": 0, "fusion_lon": 0.0, "bike_id": "4ee878a299abf080611052b172ace7c0", "lon": -77.00065716666667, "rental_uris": {"ios": "https://dc.lft.to/lastmile_qr_scan", "android": "https://dc.lft.to/lastmile_qr_scan"}},