{"data": {"bikes": [{"is_disabled": 0, "rental_uris": {"ios": "https://dc.lft.to/lastmile_qr_scan", "android": "https://dc.lft.to/lastmile_qr_scan"}, "lon": -77.0196875, "fusion_lon": 0.0, "is_reserved": 0, "fusion_lat": 0.0, "type": "electric_scooter", "lat": 38.923272833333336, "name": "591ede85e21f594a62dfff7dce0f93ce", "bike_id": "591ede85e21f594a62dfff7dce0f93ce"}, {"is_disabled": 0, "rental_uris": {"ios": "https://dc.lft.to/lastmile_qr_scan", "android": "https://dc.lft.to/lastmile_qr_scan"}, "lon": -76.991482, "fusion_lon": 0.0, "is_reserved": 0, "fusion_lat": 0.0, "type": "electric_scooter", "lat": 38.873403333333336, "name": "087a9112042455a4d8ebf1675529e8a3", "bike_id": "087a9112042455a4d8ebf1675529e8a3"}, {"is_disabled": 0, "rental_uris": {"ios": "https://dc.lft.to/lastmile_qr_scan", "android": "https://dc.lft.to/lastmile_qr_scan"}, "lon": -77.12886866666666, "fusion_lon": 0.0, "is_reserved": 0, "fusion_lat": 0.0, "type": "electric_bike", "lat": 38.90613866666666, "name": "7c53bda6973b3838a2107f26577944b1", "bike_id": "7c53bda6973b3838a2107f26577944b1"}, {"is_disabled": 0, "rental_uris": {"ios": "https://dc.lft.to/lastmile_qr_scan", "android": "https://dc.lft.to/lastmile_qr_scan"}, "lon": -76.9962635, "fusion_lon": 0.0, "is_reserved": 0, "fusion_lat": 0.0, "type": "electric_scooter", "lat": 38.877355333333334, "name": "cc956f899044c94d61be9becf57f671f", "bike_id": "cc956f899044c94d61be9becf57f671f"}, {"is_disabled": 0, "rental_uris": {"ios": "https://dc.lft.to/lastmile_qr_scan", "android": "https://dc.lft.to/lastmile_qr_scan"}, "lon": -77.027004, "fusion_lon": 0.0, "is_reserved": 0, "fusion_lat": 0.0, "type": "electric_scooter", "lat": 38.9166045, "name": "c8500d42d5147a5aebf6923d6f21ff78", "bike_id": "c8500d42d5147a5aebf6923d6f21ff78"}, {"is_disabled": 0, "rental_uris": {"ios": "https://dc.lft.to/lastmile_qr_scan", "android": "https://dc.lft.to/lastmile_qr_scan"}, "lon": -76.9689355, "fusion_lon": 0.0, "is_reserved": 0, "fusion_lat": 0.0, "type": "electric_bike", "lat": 38.8698405, "name": "3e646e30c5a16c34dfe6f6a285ac2fa9", "bike_id": "3e646e30c5a16c34dfe6f6a285ac2fa9"}, {"is_disabled": 0, "rental_uris": {"ios": "https://dc.lft.to/lastmile_qr_scan", "android": "https://dc.lft.to/lastmile_qr_scan"}, "lon": -77.009271, "fusion_lon": 0.0, "is_reserved": 0, "fusion_lat": 0.0, "type": "electric_scooter", "lat": 38.87441583333333, "name": "03c762f374d35f919bea158ee54fdd46", "bike_id": "03c762f374d35f919bea158ee54fdd46"}, {"is_disabled": 0, "rental_uris": {"ios": "https://dc.lft.to/lastmile_qr_scan", "android": "https://dc.lft.to/lastmile_qr_scan"}, "lon": -77.02341933333334, "fusion_lon": 0.0, "is_reserved": 0, "fusion_lat": 0.0, "type": "electric_scooter", "lat": 38.944828666666666, "name": "462e05a6f3889bcfc2950abb18fa1382", "bike_id": "462e05a6f3889bcfc2950abb18fa1382"}, {"is_disabled": 0, "rental_uris": {"ios": "https://dc.lft.to/lastmile_qr_scan", "android": "https://dc.lft.to/lastmile_qr_scan"}, "lon": -77.0190205, "fusion_lon": 0.0, "is_reserved": 0, "fusion_lat": 0.0, "type": "electric_scooter", "lat": 38.923400666666666, "name": "d07aebc6f98900137a055640ab8d8fc1", "bike_id": "d07aebc6f98900137a055640ab8d8fc1"}, {"is_disabled": 0, "rental_uris": {"ios": "https://dc.lft.to/lastmile_qr_scan", "android": "https://dc.lft.to/lastmile_qr_scan"}, "lon": -77.04335933333333, "fusion_lon": 0.0, "is_reserved": 0, "fusion_lat": 0.0, "type": "electric_scooter", "lat": 38.91046, "name": "ec6f3a11d22b4a3aa2967f26635352ac", "bike_id": "ec6f3a11d22b4a3aa2967f26635352ac"}, {"is_disabled": 0, "rental_uris": {"ios": "https://dc.lft.to/lastmile_qr_scan", "android": "https://dc.lft.to/lastmile_qr_scan"}, "lon": -77.0504605, "fusion_lon": 0.0, "is_reserved": 0, "fusion_lat": 0.0, "type": "electric_scooter", "lat": 38.903062, "name": "8171ad12004458d5f877a0d58903d5ab", "bike_id": "8171ad12004458d5f877a0d58903d5ab"}, {"is_disabled": 0, "rental_uris": {"ios": "https://dc.lft.to/lastmile_qr_scan", "android": "https://dc.lft.to/lastmile_qr_scan"}, "lon": -77.04698916666666, "fusion_lon": 0.0, "is_reserved": 0, "fusion_lat": 0.0, "type": "electric_scooter", "lat": 38.90286433333333, "name": "47bebc84c41797bc5eb0e37954ec1202", "bike_id": "47bebc84c41797bc5eb0e37954ec1202"}, {"is_disabled": 0, "rental_uris": {"ios": "https://dc.lft.to/lastmile_qr_scan", "android": "https://dc.lft.to/lastmile_qr_scan"}, "lon": -77.04003416666667, "fusion_lon": 0.0, "is_reserved": 0, "fusion_lat": 0.0, "type": "electric_scooter", "lat": 38.93428766666667, "name": "cb7b6aa90b2c10b708b94d7916b7334b", "bike_id": "cb7b6aa90b2c10b708b94d7916b7334b"}, {"is_disabled": 0, "rental_uris": {"ios": "https://dc.lft.to/lastmile_qr_scan", "android": "https://dc.lft.to/lastmile_qr_scan"}, "lon": -77.02007733333333, "fusion_lon": 0.0, "is_reserved": 0, "fusion_lat": 0.0, "type": "electric_scooter", "lat": 38.90157, "name": "ed212c12ea1563b31026ec075ac7c518", "bike_id": "ed212c12ea1563b31026ec075ac7c518"}, {"is_disabled": 0, "rental_uris": {"ios": "https://dc.lft.to/lastmile_qr_scan", "android": "https://dc.lft.to/lastmile_qr_scan"}, "lon": -77.01920616666666, "fusion_lon": 0.0, "is_reserved": 0, "fusion_lat": 0.0, "type": "electric_scooter", "lat": 38.91729016666667, "name": "21e5a595f2578cbb9b478592261ff280", "bike_id": "21e5a595f2578cbb9b478592261ff280"}, {"is_disabled": 0, "rental_uris": {"ios": "https://dc.lft.to/lastmile_qr_scan", "android": "https://dc.lft.to/lastmile_qr_scan"}, "lon": -77.03527883333334, "fusion_lon": 0.0, "is_reserved": 0, "fusion_lat": 0.0, "type": "electric_scooter", "lat": 38.935894166666664, "name": "8cd5cd3f6de718950f04467faab0cccd", "bike_id": "8cd5cd3f6de718950f04467faab0cccd"}, {"is_disabled": 0, "rental_uris": {"ios": "https://dc.lft.to/lastmile_qr_scan", "android": "https://dc.lft.to/lastmile_qr_scan"}, "lon": -76.95062816666666, "fusion_lon": 0.0, "is_reserved": 0, "fusion_lat": 0.0, "type": "electric_bike", "lat": 39.0850895, "name": "bf9aa315c1b17a01b909b05ddbfb7e8c", "bike_id": "bf9aa315c1b17a01b909b05ddbfb7e8c"}, {"is_disabled": 0, "rental_uris": {"ios": "https://dc.lft.to/lastmile_qr_scan", "android": "https://dc.lft.to/lastmile_qr_scan"}, "lon": -77.03488666666667, "fusion_lon": 0.0, "is_reserved": 0, "fusion_lat": 0.0, "type": "electric_scooter", "lat": 38.921559333333335, "name": "63450545a55f7dbfeb9311c1412d2727", "bike_id": "63450545a55f7dbfeb9311c1412d2727"}, {"is_disabled": 0, "rental_uris": {"ios": "https://dc.lft.to/lastmile_qr_scan", "android": "https://dc.lft.to/lastmile_qr_scan"}, "lon": -77.01558616666667, "fusion_lon": 0.0, "is_reserved": 0, "fusion_lat": 0.0, "type": "electric_scooter", "lat": 38.88313, "name": "88dcb6eb9197fccf9a3b453f38bc80a8", "bike_id": "88dcb6eb9197fccf9a3b453f38bc80a8"}, {"is_disabled": 0, "rental_uris": {"ios": "https://dc.lft.to/lastmile_qr_scan", "android": "https://dc.lft.to/lastmile_qr_scan"}, "lon": -77.01312166666666, "fusion_lon": 0.0, "is_reserved": 0, "fusion_lat": 0.0, "type": "electric_scooter", "lat": 38.89741983333333, "name": "704d3a8c6264b087231d8670cf81c677", "bike_id": "704d3a8c6264b087231d8670cf81c677"}, {"is_disabled": 0, "rental_uris": {"ios": "https://dc.lft.to/lastmile_qr_scan", "android": "https://dc.lft.to/lastmile_qr_scan"}, "lon": -77.0184005, "fusion_lon": 0.0, "is_reserved": 0, "fusion_lat": 0.0, "type": "electric_scooter", "lat": 38.9214135, "name": "e0f0c81234fc0319547f8f5f13de5f87", "bike_id": "e0f0c81234fc0319547f8f5f13de5f87"}, {"is_disabled": 0, "rental_uris": {"ios": "https://dc.lft.to/lastmile_qr_scan", "android": "https://dc.lft.to/lastmile_qr_scan"}, "lon": -77.07333616666666, "fusion_lon": 0.0, "is_reserved": 0, "fusion_lat": 0.0, "type": "electric_scooter", "lat": 38.926069166666665, "name": "95bead3e8eb949211ffa895e3744ecf3", "bike_id": "95bead3e8eb949211ffa895e3744ecf3"}, {"is_disabled": 0, "rental_uris": {"ios": "https://dc.lft.to/lastmile_qr_scan", "android": "https://dc.lft.to/lastmile_qr_scan"}, "lon": -76.98612633333333, "fusion_lon": 0.0, "is_reserved": 0, "fusion_lat": 0.0, "type": "electric_scooter", "lat": 38.90730333333333, "name": "660de4b67bbac942edd7f2242126c0ae", "bike_id": "660de4b67bbac942edd7f2242126c0ae"}, {"is_disabled": 0, "rental_uris": {"ios": "https://dc.lft.to/lastmile_qr_scan", "android": "https://dc.lft.to/lastmile_qr_scan"}, "lon": -77.00331466666667, "fusion_lon": 0.0, "is_reserved": 0, "fusion_lat": 0.0, "type": "electric_scooter", "lat": 38.89502866666667, "name": "a14fe12d039fa98a6a6f3ffc461a55d9", "bike_id": "a14fe12d039fa98a6a6f3ffc461a55d9"}, {"is_disabled": 0, "rental_uris": {"ios": "https://dc.lft.to/lastmile_qr_scan", "android": "https://dc.lft.to/lastmile_qr_scan"}, "lon": -77.033425, "fusion_lon": 0.0, "is_reserved": 0, "fusion_lat": 0.0, "type": "electric_scooter", "lat": 38.935161, "name": "e04b2431bbf0c1956268cb0c332a2bb6", "bike_id": "e04b2431bbf0c1956268cb0c332a2bb6"}, {"is_disabled": 0, "rental_uris": {"ios": "https://dc.lft.to/lastmile_qr_scan", "android": "https://dc.lft.to/lastmile_qr_scan"}, "lon": -77.01774166666667, "fusion_lon": 0.0, "is_reserved": 0, "fusion_lat": 0.0, "type": "electric_scooter", "lat": 38.921383, "name": "6f91cd00174f3dea552e0f038c9e9213", "bike_id": "6f91cd00174f3dea552e0f038c9e9213"}, {"is_disabled": 0, "rental_uris": {"ios": "https://dc.lft.to/lastmile_qr_scan", "android": "https://dc.lft.to/lastmile_qr_scan"}, "lon": -77.01097033333333, "fusion_lon": 0.0, "is_reserved": 0, "fusion_lat": 0.0, "type": "electric_scooter", "lat": 38.8948735, "name": "73da24fc24d073062d20439c697a84ff", "bike_id": "73da24fc24d073062d20439c697a84ff"}, {"is_disabled": 0, "rental_uris": {"ios": "https://dc.lft.to/lastmile_qr_scan", "android": "https://dc.lft.to/lastmile_qr_scan"}, "lon": -77.04423866666667, "fusion_lon": 0.0, "is_reserved": 0, "fusion_lat": 0.0, "type": "electric_scooter", "lat": 38.896103833333335, "name": "d522bfba43337248467f1eadf6cf4d9c", "bike_id": "d522bfba43337248467f1eadf6cf4d9c"}, {"is_disabled": 0, "rental_uris": {"ios": "https://dc.lft.to/lastmile_qr_scan", "android": "https://dc.lft.to/lastmile_qr_scan"}, "lon": -77.01828183333333, "fusion_lon": 0.0, "is_reserved": 0, "fusion_lat": 0.0, "type": "electric_scooter", "lat": 38.921519, "name": "454a1adc22964991e7cf8fef7aa8cd5f", "bike_id": "454a1adc22964991e7cf8fef7aa8cd5f"}, {"is_disabled": 0, "rental_uris": {"ios": "https://dc.lft.to/lastmile_qr_scan", "android": "https://dc.lft.to/lastmile_qr_scan"}, "lon": -76.99679083333334, "fusion_lon": 0.0, "is_reserved": 0, "fusion_lat": 0.0, "type": "electric_bike", "lat": 38.8382085, "name": "cf83c3c04d388fa347b4490149ae5101", "bike_id": "cf83c3c04d388fa347b4490149ae5101"}, {"is_disabled": 0, "rental_uris": {"ios": "https://dc.lft.to/lastmile_qr_scan", "android": "https://dc.lft.to/lastmile_qr_scan"}, "lon": -77.00057433333333, "fusion_lon": 0.0, "is_reserved": 0, "fusion_lat": 0.0, "type": "electric_scooter", "lat": 38.87494183333333, "name": "1925bbfd6a76f82f1778ca6e88cda1d1", "bike_id": "1925bbfd6a76f82f1778ca6e88cda1d1"}, {"is_disabled": 0, "rental_uris": {"ios": "https://dc.lft.to/lastmile_qr_scan", "android": "https://dc.lft.to/lastmile_qr_scan"}, "lon": -77.03660883333333, "fusion_lon": 0.0, "is_reserved": 0, "fusion_lat": 0.0, "type": "electric_scooter", "lat": 38.9363445, "name": "9c64af14e9af20c4b521f65fe788004c", "bike_id": "9c64af14e9af20c4b521f65fe788004c"}, {"is_disabled": 0, "rental_uris": {"ios": "https://dc.lft.to/lastmile_qr_scan", "android": "https://dc.lft.to/lastmile_qr_scan"}, "lon": -77.01049233333333, "fusion_lon": 0.0, "is_reserved": 0, "fusion_lat": 0.0, "type": "electric_bike", "lat": 38.87765383333333, "name": "fd87ba957f665ef8253de20493f3f781", "bike_id": "fd87ba957f665ef8253de20493f3f781"}, {"is_disabled": 0, "rental_uris": {"ios": "https://dc.lft.to/lastmile_qr_scan", "android": "https://dc.lft.to/lastmile_qr_scan"}, "lon": -77.027275, "fusion_lon": 0.0, "is_reserved": 0, "fusion_lat": 0.0, "type": "electric_scooter", "lat": 38.89659866666667, "name": "353fea493ee88172650810641f87b5f8", "bike_id": "353fea493ee88172650810641f87b5f8"}, {"is_disabled": 0, "rental_uris": {"ios": "https://dc.lft.to/lastmile_qr_scan", "android": "https://dc.lft.to/lastmile_qr_scan"}, "lon": -77.0175965, "fusion_lon": 0.0, "is_reserved": 0, "fusion_lat": 0.0, "type": "electric_scooter", "lat": 38.902327, "name": "5c273ec39593907976fe1ae9007806ef", "bike_id": "5c273ec39593907976fe1ae9007806ef"}, {"is_disabled": 0, "rental_uris": {"ios": "https://dc.lft.to/lastmile_qr_scan", "android": "https://dc.lft.to/lastmile_qr_scan"}, "lon": -77.06033816666667, "fusion_lon": 0.0, "is_reserved": 0, "fusion_lat": 0.0, "type": "electric_scooter", "lat": 38.90239016666666, "name": "d84b48dd03427da6e54bd1795845b387", "bike_id": "d84b48dd03427da6e54bd1795845b387"}, {"is_disabled": 0, "rental_uris": {"ios": "https://dc.lft.to/lastmile_qr_scan", "android": "https://dc.lft.to/lastmile_qr_scan"}, "lon": -76.98858183333333, "fusion_lon": 0.0, "is_reserved": 0, "fusion_lat": 0.0, "type": "electric_scooter", "lat": 38.844195666666664, "name": "5af7f30c1916c8fac998d898c9fb2d9d", "bike_id": "5af7f30c1916c8fac998d898c9fb2d9d"}, {"is_disabled": 0, "rental_uris": {"ios": "https://dc.lft.to/lastmile_qr_scan", "android": "https://dc.lft.to/lastmile_qr_scan"}, "lon": -77.02399916666667, "fusion_lon": 0.0, "is_reserved": 0, "fusion_lat": 0.0, "type": "electric_scooter", "lat": 38.9165055, "name": "8daa281e4013335252caa86458649a86", "bike_id": "8daa281e4013335252caa86458649a86"}, {"is_disabled": 0, "rental_uris": {"ios": "https://dc.lft.to/lastmile_qr_scan", "android": "https://dc.lft.to/lastmile_qr_scan"}, "lon": -77.06834966666666, "fusion_lon": 0.0, "is_reserved": 0, "fusion_lat": 0.0, "type": "electric_scooter", "lat": 38.9040585, "name": "5aa479a7e0a50758852180d88dd4cb82", "bike_id": "5aa479a7e0a50758852180d88dd4cb82"}, {"is_disabled": 0, "rental_uris": {"ios": "https://dc.lft.to/lastmile_qr_scan", "android": "https://dc.lft.to/lastmile_qr_scan"}, "lon": -77.0265385, "fusion_lon": 0.0, "is_reserved": 0, "fusion_lat": 0.0, "type": "electric_scooter", "lat": 38.9238295, "name": "8aa7faeefdc06fb3c62593f6d1573cc3", "bike_id": "8aa7faeefdc06fb3c62593f6d1573cc3"}, {"is_disabled": 0, "rental_uris": {"ios": "https://dc.lft.to/lastmile_qr_scan", "android": "https://dc.lft.to/lastmile_qr_scan"}, "lon": -77.05062183333334, "fusion_lon": 0.0, "is_reserved": 0, "fusion_lat": 0.0, "type": "electric_scooter", "lat": 38.90379933333333, "name": "f04cb5cee6f0f796f62c1e5b28375868", "bike_id": "f04cb5cee6f0f796f62c1e5b28375868"}, {"is_disabled": 0, "rental_uris": {"ios": "https://dc.lft.to/lastmile_qr_scan", "android": "https://dc.lft.to/lastmile_qr_scan"}, "lon": -76.95450266666667, "fusion_lon": 0.0, "is_reserved": 0, "fusion_lat": 0.0, "type": "electric_scooter", "lat": 38.883951333333336, "name": "f2eefd66dec8fb28b5f8de1c72a6a955", "bike_id": "f2eefd66dec8fb28b5f8de1c72a6a955"}, {"is_disabled": 0, "rental_uris": {"ios": "https://dc.lft.to/lastmile_qr_scan", "android": "https://dc.lft.to/lastmile_qr_scan"}, "lon": -76.99601233333334, "fusion_lon": 0.0, "is_reserved": 0, "fusion_lat": 0.0, "type": "electric_scooter", "lat": 38.884266333333336, "name": "5ae28b48737cd35438fa4667ee2aa34a", "bike_id": "5ae28b48737cd35438fa4667ee2aa34a"}, {"is_disabled": 0, "rental_uris": {"ios": "https://dc.lft.to/lastmile_qr_scan", "android": "https://dc.lft.to/lastmile_qr_scan"}, "lon": -77.04243933333333, "fusion_lon": 0.0, "is_reserved": 0, "fusion_lat": 0.0, "type": "electric_scooter", "lat": 38.90728, "name": "5221b0a89cc390cff3b37901ee961d64", "bike_id": "5221b0a89cc390cff3b37901ee961d64"}, {"is_disabled": 0, "rental_uris": {"ios": "https://dc.lft.to/lastmile_qr_scan", "android": "https://dc.lft.to/lastmile_qr_scan"}, "lon": -77.029731, "fusion_lon": 0.0, "is_reserved": 0, "fusion_lat": 0.0, "type": "electric_scooter", "lat": 38.901841833333336, "name": "13ef185917a1f4e1faeb969c60ee32ba", "bike_id": "13ef185917a1f4e1faeb969c60ee32ba"}, {"is_disabled": 0, "rental_uris": {"ios": "https://dc.lft.to/lastmile_qr_scan", "android": "https://dc.lft.to/lastmile_qr_scan"}, "lon": -77.022029, "fusion_lon": 0.0, "is_reserved": 0, "fusion_lat": 0.0, "type": "electric_scooter", "lat": 38.905388, "name": "f2925e3fdd43a04321350e90d6fda82e", "bike_id": "f2925e3fdd43a04321350e90d6fda82e"}, {"is_disabled": 0, "rental_uris": {"ios": "https://dc.lft.to/lastmile_qr_scan", "android": "https://dc.lft.to/lastmile_qr_scan"}, "lon": -77.05811333333334, "fusion_lon": 0.0, "is_reserved": 0, "fusion_lat": 0.0, "type": "electric_scooter", "lat": 38.905018166666665, "name": "46d306754cb42ad39b490a4180280683", "bike_id": "46d306754cb42ad39b490a4180280683"}, {"is_disabled": 0, "rental_uris": {"ios": "https://dc.lft.to/lastmile_qr_scan", "android": "https://dc.lft.to/lastmile_qr_scan"}, "lon": -77.00956183333334, "fusion_lon": 0.0, "is_reserved": 0, "fusion_lat": 0.0, "type": "electric_scooter", "lat": 38.9170655, "name": "a027c915756a3f1843449a9f4c08075f", "bike_id": "a027c915756a3f1843449a9f4c08075f"}, {"is_disabled": 0, "rental_uris": {"ios": "https://dc.lft.to/lastmile_qr_scan", "android": "https://dc.lft.to/lastmile_qr_scan"}, "lon": -76.98702116666666, "fusion_lon": 0.0, "is_reserved": 0, "fusion_lat": 0.0, "type": "electric_scooter", "lat": 38.85962033333333, "name": "78d1a16714b215b85fc8bba800ef4b5b", "bike_id": "78d1a16714b215b85fc8bba800ef4b5b"}, {"is_disabled": 0, "rental_uris": {"ios": "https://dc.lft.to/lastmile_qr_scan", "android": "https://dc.lft.to/lastmile_qr_scan"}, "lon": -77.03986533333334, "fusion_lon": 0.0, "is_reserved": 0, "fusion_lat": 0.0, "type": "electric_scooter", "lat": 38.899465666666664, "name": "8f908ae7c6dbe1d9c954ead710286fa8", "bike_id": "8f908ae7c6dbe1d9c954ead710286fa8"}, {"is_disabled": 0, "rental_uris": {"ios": "https://dc.lft.to/lastmile_qr_scan", "android": "https://dc.lft.to/lastmile_qr_scan"}, "lon": -77.02406583333334, "fusion_lon": 0.0, "is_reserved": 0, "fusion_lat": 0.0, "type": "electric_scooter", "lat": 38.896274, "name": "7f554423a64d6d0a659b964420705f43", "bike_id": "7f554423a64d6d0a659b964420705f43"}, {"is_disabled": 0, "rental_uris": {"ios": "https://dc.lft.to/lastmile_qr_scan", "android": "https://dc.lft.to/lastmile_qr_scan"}, "lon": -76.97349416666667, "fusion_lon": 0.0, "is_reserved": 0, "fusion_lat": 0.0, "type": "electric_scooter", "lat": 38.85005983333333, "name": "ce00c6a41a568db1e86a153cb3bbb7e7", "bike_id": "ce00c6a41a568db1e86a153cb3bbb7e7"}, {"is_disabled": 0, "rental_uris": {"ios": "https://dc.lft.to/lastmile_qr_scan", "android": "https://dc.lft.to/lastmile_qr_scan"}, "lon": -77.0385225, "fusion_lon": 0.0, "is_reserved": 0, "fusion_lat": 0.0, "type": "electric_scooter", "lat": 38.91324433333333, "name": "e2a5ad88e9b078e1bc9f7441303a0482", "bike_id": "e2a5ad88e9b078e1bc9f7441303a0482"}, {"is_disabled": 0, "rental_uris": {"ios": "https://dc.lft.to/lastmile_qr_scan", "android": "https://dc.lft.to/lastmile_qr_scan"}, "lon": -77.04596083333334, "fusion_lon": 0.0, "is_reserved": 0, "fusion_lat": 0.0, "type": "electric_scooter", "lat": 38.902892333333334, "name": "06245ed40a30de41fa382dc3b85e8f0f", "bike_id": "06245ed40a30de41fa382dc3b85e8f0f"}, {"is_disabled": 0, "rental_uris": {"ios": "https://dc.lft.to/lastmile_qr_scan", "android": "https://dc.lft.to/lastmile_qr_scan"}, "lon": -77.04347516666667, "fusion_lon": 0.0, "is_reserved": 0, "fusion_lat": 0.0, "type": "electric_scooter", "lat": 38.90734716666667, "name": "6e180544d2969314c7468fb9c837bd8a", "bike_id": "6e180544d2969314c7468fb9c837bd8a"}, {"is_disabled": 0, "rental_uris": {"ios": "https://dc.lft.to/lastmile_qr_scan", "android": "https://dc.lft.to/lastmile_qr_scan"}, "lon": -77.07349366666666, "fusion_lon": 0.0, "is_reserved": 0, "fusion_lat": 0.0, "type": "electric_bike", "lat": 38.91094183333333, "name": "c2b9f2bb7c5d9aba80124bf165aae7f6", "bike_id": "c2b9f2bb7c5d9aba80124bf165aae7f6"}, {"is_disabled": 0, "rental_uris": {"ios": "https://dc.lft.to/lastmile_qr_scan", "android": "https://dc.lft.to/lastmile_qr_scan"}, "lon": -77.0221075, "fusion_lon": 0.0, "is_reserved": 0, "fusion_lat": 0.0, "type": "electric_scooter", "lat": 38.89500833333334, "name": "7fc3a3318e20fdfe8dd5ae5b71230f92", "bike_id": "7fc3a3318e20fdfe8dd5ae5b71230f92"}, {"is_disabled": 0, "rental_uris": {"ios": "https://dc.lft.to/lastmile_qr_scan", "android": "https://dc.lft.to/lastmile_qr_scan"}, "lon": -77.0386055, "fusion_lon": 0.0, "is_reserved": 0, "fusion_lat": 0.0, "type": "electric_scooter", "lat": 38.9112065, "name": "444629358446e1d15e388d512c71af4c", "bike_id": "444629358446e1d15e388d512c71af4c"}, {"is_disabled": 0, "rental_uris": {"ios": "https://dc.lft.to/lastmile_qr_scan", "android": "https://dc.lft.to/lastmile_qr_scan"}, "lon": -77.03148416666667, "fusion_lon": 0.0, "is_reserved": 0, "fusion_lat": 0.0, "type": "electric_scooter", "lat": 38.9169805, "name": "856aead341f5e4f252768ac6b5c70eda", "bike_id": "856aead341f5e4f252768ac6b5c70eda"}, {"is_disabled": 0, "rental_uris": {"ios": "https://dc.lft.to/lastmile_qr_scan", "android": "https://dc.lft.to/lastmile_qr_scan"}, "lon": -77.039547, "fusion_lon": 0.0, "is_reserved": 0, "fusion_lat": 0.0, "type": "electric_scooter", "lat": 38.90832116666667, "name": "829280e5da7ef981a7b7937d388cd0f4", "bike_id": "829280e5da7ef981a7b7937d388cd0f4"}, {"is_disabled": 0, "rental_uris": {"ios": "https://dc.lft.to/lastmile_qr_scan", "android": "https://dc.lft.to/lastmile_qr_scan"}, "lon": -76.99509716666667, "fusion_lon": 0.0, "is_reserved": 0, "fusion_lat": 0.0, "type": "electric_scooter", "lat": 38.887884666666665, "name": "f873d951ac872d2e3e91b84f29d822a7", "bike_id": "f873d951ac872d2e3e91b84f29d822a7"}, {"is_disabled": 0, "rental_uris": {"ios": "https://dc.lft.to/lastmile_qr_scan", "android": "https://dc.lft.to/lastmile_qr_scan"}, "lon": -76.989904, "fusion_lon": 0.0, "is_reserved": 0, "fusion_lat": 0.0, "type": "electric_scooter", "lat": 38.86438166666667, "name": "f3d250e47ef3b3fc7d92ee0f38d12857", "bike_id": "f3d250e47ef3b3fc7d92ee0f38d12857"}, {"is_disabled": 0, "rental_uris": {"ios": "https://dc.lft.to/lastmile_qr_scan", "android": "https://dc.lft.to/lastmile_qr_scan"}, "lon": -77.04354916666666, "fusion_lon": 0.0, "is_reserved": 0, "fusion_lat": 0.0, "type": "electric_scooter", "lat": 38.9052735, "name": "eeef4d010a1b515d810afbdd493a9e74", "bike_id": "eeef4d010a1b515d810afbdd493a9e74"}, {"is_disabled": 0, "rental_uris": {"ios": "https://dc.lft.to/lastmile_qr_scan", "android": "https://dc.lft.to/lastmile_qr_scan"}, "lon": -77.04519116666667, "fusion_lon": 0.0, "is_reserved": 0, "fusion_lat": 0.0, "type": "electric_scooter", "lat": 38.923226666666665, "name": "e5ffe05e7d7e3eeef6d040945a477916", "bike_id": "e5ffe05e7d7e3eeef6d040945a477916"}, {"is_disabled": 0, "rental_uris": {"ios": "https://dc.lft.to/lastmile_qr_scan", "android": "https://dc.lft.to/lastmile_qr_scan"}, "lon": -76.96527616666667, "fusion_lon": 0.0, "is_reserved": 0, "fusion_lat": 0.0, "type": "electric_scooter", "lat": 38.876318833333336, "name": "8e6740c62de7972b98a5ae78dc4245cb", "bike_id": "8e6740c62de7972b98a5ae78dc4245cb"}, {"is_disabled": 0, "rental_uris": {"ios": "https://dc.lft.to/lastmile_qr_scan", "android": "https://dc.lft.to/lastmile_qr_scan"}, "lon": -77.04878283333333, "fusion_lon": 0.0, "is_reserved": 0, "fusion_lat": 0.0, "type": "electric_scooter", "lat": 38.899682, "name": "c0e19d549554a4e40a4d3f9611ef7f38", "bike_id": "c0e19d549554a4e40a4d3f9611ef7f38"}, {"is_disabled": 0, "rental_uris": {"ios": "https://dc.lft.to/lastmile_qr_scan", "android": "https://dc.lft.to/lastmile_qr_scan"}, "lon": -77.01607016666667, "fusion_lon": 0.0, "is_reserved": 0, "fusion_lat": 0.0, "type": "electric_scooter", "lat": 38.906106, "name": "a8f44c07f0ffe9c49168ac4e583c08ac", "bike_id": "a8f44c07f0ffe9c49168ac4e583c08ac"}, {"is_disabled": 0, "rental_uris": {"ios": "https://dc.lft.to/lastmile_qr_scan", "android": "https://dc.lft.to/lastmile_qr_scan"}, "lon": -76.98309283333333, "fusion_lon": 0.0, "is_reserved": 0, "fusion_lat": 0.0, "type": "electric_scooter", "lat": 38.86898033333333, "name": "b982974c04827f8443dae8b6a80ca237", "bike_id": "b982974c04827f8443dae8b6a80ca237"}, {"is_disabled": 0, "rental_uris": {"ios": "https://dc.lft.to/lastmile_qr_scan", "android": "https://dc.lft.to/lastmile_qr_scan"}, "lon": -77.03257516666666, "fusion_lon": 0.0, "is_reserved": 0, "fusion_lat": 0.0, "type": "electric_scooter", "lat": 38.939685, "name": "4646da382809ddaa9d6137ee9c1c36dc", "bike_id": "4646da382809ddaa9d6137ee9c1c36dc"}, {"is_disabled": 0, "rental_uris": {"ios": "https://dc.lft.to/lastmile_qr_scan", "android": "https://dc.lft.to/lastmile_qr_scan"}, "lon": -77.017814, "fusion_lon": 0.0, "is_reserved": 0, "fusion_lat": 0.0, "type": "electric_scooter", "lat": 38.91995083333333, "name": "f29cd212511405eff0c21ff81a2e79a5", "bike_id": "f29cd212511405eff0c21ff81a2e79a5"}, {"is_disabled": 0, "rental_uris": {"ios": "https://dc.lft.to/lastmile_qr_scan", "android": "https://dc.lft.to/lastmile_qr_scan"}, "lon": -77.0353255, "fusion_lon": 0.0, "is_reserved": 0, "fusion_lat": 0.0, "type": "electric_scooter", "lat": 38.91831833333333, "name": "096c72d167cc2e4f469455e48fb4cc0e", "bike_id": "096c72d167cc2e4f469455e48fb4cc0e"}, {"is_disabled": 0, "rental_uris": {"ios": "https://dc.lft.to/lastmile_qr_scan", "android": "https://dc.lft.to/lastmile_qr_scan"}, "lon": -77.01853733333333, "fusion_lon": 0.0, "is_reserved": 0, "fusion_lat": 0.0, "type": "electric_scooter", "lat": 38.90386183333333, "name": "7a4faece61303bec22892afa0ef82931", "bike_id": "7a4faece61303bec22892afa0ef82931"}, {"is_disabled": 0, "rental_uris": {"ios": "https://dc.lft.to/lastmile_qr_scan", "android": "https://dc.lft.to/lastmile_qr_scan"}, "lon": -77.01468433333334, "fusion_lon": 0.0, "is_reserved": 0, "fusion_lat": 0.0, "type": "electric_scooter", "lat": 38.92674933333333, "name": "d18489d469d9f0e5aeb75e7b120de86f", "bike_id": "d18489d469d9f0e5aeb75e7b120de86f"}, {"is_disabled": 0, "rental_uris": {"ios": "https://dc.lft.to/lastmile_qr_scan", "android": "https://dc.lft.to/lastmile_qr_scan"}, "lon": -77.03627566666667, "fusion_lon": 0.0, "is_reserved": 0, "fusion_lat": 0.0, "type": "electric_scooter", "lat": 38.93676966666666, "name": "df2fd93dc4ebac464c17bf3d254dcde3", "bike_id": "df2fd93dc4ebac464c17bf3d254dcde3"}, {"is_disabled": 0, "rental_uris": {"ios": "https://dc.lft.to/lastmile_qr_scan", "android": "https://dc.lft.to/lastmile_qr_scan"}, "lon": -77.03183033333333, "fusion_lon": 0.0, "is_reserved": 0, "fusion_lat": 0.0, "type": "electric_scooter", "lat": 38.918204833333334, "name": "4f2c52331824456b49ea51e563e48c2a", "bike_id": "4f2c52331824456b49ea51e563e48c2a"}, {"is_disabled": 0, "rental_uris": {"ios": "https://dc.lft.to/lastmile_qr_scan", "android": "https://dc.lft.to/lastmile_qr_scan"}, "lon": -77.02810066666666, "fusion_lon": 0.0, "is_reserved": 0, "fusion_lat": 0.0, "type": "electric_scooter", "lat": 38.907360833333335, "name": "1541e31f402c2c10e014b4fdf42daead", "bike_id": "1541e31f402c2c10e014b4fdf42daead"}, {"is_disabled": 0, "rental_uris": {"ios": "https://dc.lft.to/lastmile_qr_scan", "android": "https://dc.lft.to/lastmile_qr_scan"}, "lon": -77.0745525, "fusion_lon": 0.0, "is_reserved": 0, "fusion_lat": 0.0, "type": "electric_scooter", "lat": 38.937818, "name": "855347e62494a60b1ffcda5effd19256", "bike_id": "855347e62494a60b1ffcda5effd19256"}, {"is_disabled": 0, "rental_uris": {"ios": "https://dc.lft.to/lastmile_qr_scan", "android": "https://dc.lft.to/lastmile_qr_scan"}, "lon": -77.05315533333334, "fusion_lon": 0.0, "is_reserved": 0, "fusion_lat": 0.0, "type": "electric_scooter", "lat": 38.904497, "name": "2c441cfec992307d64ff537fc0e97b61", "bike_id": "2c441cfec992307d64ff537fc0e97b61"}, {"is_disabled": 0, "rental_uris": {"ios": "https://dc.lft.to/lastmile_qr_scan", "android": "https://dc.lft.to/lastmile_qr_scan"}, "lon": -77.0451485, "fusion_lon": 0.0, "is_reserved": 0, "fusion_lat": 0.0, "type": "electric_scooter", "lat": 38.90385033333333, "name": "be02f84beafb24e734a8e5205cf1b34f", "bike_id": "be02f84beafb24e734a8e5205cf1b34f"}, {"is_disabled": 0, "rental_uris": {"ios": "https://dc.lft.to/lastmile_qr_scan", "android": "https://dc.lft.to/lastmile_qr_scan"}, "lon": -77.01972083333334, "fusion_lon": 0.0, "is_reserved": 0, "fusion_lat": 0.0, "type": "electric_scooter", "lat": 38.9231965, "name": "7e40965561bc227083b4b6b655e2e44b", "bike_id": "7e40965561bc227083b4b6b655e2e44b"}, {"is_disabled": 0, "rental_uris": {"ios": "https://dc.lft.to/lastmile_qr_scan", "android": "https://dc.lft.to/lastmile_qr_scan"}, "lon": -77.04303733333333, "fusion_lon": 0.0, "is_reserved": 0, "fusion_lat": 0.0, "type": "electric_bike", "lat": 39.034259, "name": "f9e854c386b1151d6e11adac0152ee0b", "bike_id": "f9e854c386b1151d6e11adac0152ee0b"}, {"is_disabled": 0, "rental_uris": {"ios": "https://dc.lft.to/lastmile_qr_scan", "android": "https://dc.lft.to/lastmile_qr_scan"}, "lon": -76.998809, "fusion_lon": 0.0, "is_reserved": 0, "fusion_lat": 0.0, "type": "electric_scooter", "lat": 38.92058933333333, "name": "9e05d8b1028e9141ed3e365311c6e13a", "bike_id": "9e05d8b1028e9141ed3e365311c6e13a"}, {"is_disabled": 0, "rental_uris": {"ios": "https://dc.lft.to/lastmile_qr_scan", "android": "https://dc.lft.to/lastmile_qr_scan"}, "lon": -76.973022, "fusion_lon": 0.0, "is_reserved": 0, "fusion_lat": 0.0, "type": "electric_scooter", "lat": 38.91993383333333, "name": "e7cf8d428a8d0fef5ff80dd408dca896", "bike_id": "e7cf8d428a8d0fef5ff80dd408dca896"}, {"is_disabled": 0, "rental_uris": {"ios": "https://dc.lft.to/lastmile_qr_scan", "android": "https://dc.lft.to/lastmile_qr_scan"}, "lon": -77.02811383333334, "fusion_lon": 0.0, "is_reserved": 0, "fusion_lat": 0.0, "type": "electric_scooter", "lat": 38.910387666666665, "name": "09234079edbfd41077d08125751dcd02", "bike_id": "09234079edbfd41077d08125751dcd02"}, {"is_disabled": 0, "rental_uris": {"ios": "https://dc.lft.to/lastmile_qr_scan", "android": "https://dc.lft.to/lastmile_qr_scan"}, "lon": -77.0350535, "fusion_lon": 0.0, "is_reserved": 0, "fusion_lat": 0.0, "type": "electric_scooter", "lat": 38.92150816666667, "name": "24619ea08b4430d5eefe73e96bdf9ec0", "bike_id": "24619ea08b4430d5eefe73e96bdf9ec0"}, {"is_disabled": 0, "rental_uris": {"ios": "https://dc.lft.to/lastmile_qr_scan", "android": "https://dc.lft.to/lastmile_qr_scan"}, "lon": -77.022145, "fusion_lon": 0.0, "is_reserved": 0, "fusion_lat": 0.0, "type": "electric_scooter", "lat": 38.89321433333333, "name": "2e8d0bebb1ac2b81226a945349d0f887", "bike_id": "2e8d0bebb1ac2b81226a945349d0f887"}, {"is_disabled": 0, "rental_uris": {"ios": "https://dc.lft.to/lastmile_qr_scan", "android": "https://dc.lft.to/lastmile_qr_scan"}, "lon": -77.0191515, "fusion_lon": 0.0, "is_reserved": 0, "fusion_lat": 0.0, "type": "electric_scooter", "lat": 38.92024166666667, "name": "0df77d6b2b3948f5c9b7a45100dca535", "bike_id": "0df77d6b2b3948f5c9b7a45100dca535"}, {"is_disabled": 0, "rental_uris": {"ios": "https://dc.lft.to/lastmile_qr_scan", "android": "https://dc.lft.to/lastmile_qr_scan"}, "lon": -77.01757916666666, "fusion_lon": 0.0, "is_reserved": 0, "fusion_lat": 0.0, "type": "electric_scooter", "lat": 38.876879333333335, "name": "bc66fc3549ec7c236ae5c7675b6464d8", "bike_id": "bc66fc3549ec7c236ae5c7675b6464d8"}, {"is_disabled": 0, "rental_uris": {"ios": "https://dc.lft.to/lastmile_qr_scan", "android": "https://dc.lft.to/lastmile_qr_scan"}, "lon": -77.02175033333333, "fusion_lon": 0.0, "is_reserved": 0, "fusion_lat": 0.0, "type": "electric_scooter", "lat": 38.9199875, "name": "ad024e688b53b880d1031201fd0b4abd", "bike_id": "ad024e688b53b880d1031201fd0b4abd"}, {"is_disabled": 0, "rental_uris": {"ios": "https://dc.lft.to/lastmile_qr_scan", "android": "https://dc.lft.to/lastmile_qr_scan"}, "lon": -76.983504, "fusion_lon": 0.0, "is_reserved": 0, "fusion_lat": 0.0, "type": "electric_bike", "lat": 38.86264633333333, "name": "87193ecb0575badf5a188452b718a610", "bike_id": "87193ecb0575badf5a188452b718a610"}, {"is_disabled": 0, "rental_uris": {"ios": "https://dc.lft.to/lastmile_qr_scan", "android": "https://dc.lft.to/lastmile_qr_scan"}, "lon": -77.0513205, "fusion_lon": 0.0, "is_reserved": 0, "fusion_lat": 0.0, "type": "electric_scooter", "lat": 38.905336, "name": "b7c03c0edfd46ee135a2a93ac8386e8a", "bike_id": "b7c03c0edfd46ee135a2a93ac8386e8a"}, {"is_disabled": 0, "rental_uris": {"ios": "https://dc.lft.to/lastmile_qr_scan", "android": "https://dc.lft.to/lastmile_qr_scan"}, "lon": -77.00487066666666, "fusion_lon": 0.0, "is_reserved": 0, "fusion_lat": 0.0, "type": "electric_scooter", "lat": 38.87459, "name": "d609202452a198cd8058530465babe83", "bike_id": "d609202452a198cd8058530465babe83"}, {"is_disabled": 0, "rental_uris": {"ios": "https://dc.lft.to/lastmile_qr_scan", "android": "https://dc.lft.to/lastmile_qr_scan"}, "lon": -77.01947233333334, "fusion_lon": 0.0, "is_reserved": 0, "fusion_lat": 0.0, "type": "electric_scooter", "lat": 38.92423316666667, "name": "e9cd9d66c14ea0017f6e53322e44b5a3", "bike_id": "e9cd9d66c14ea0017f6e53322e44b5a3"}, {"is_disabled": 0, "rental_uris": {"ios": "https://dc.lft.to/lastmile_qr_scan", "android": "https://dc.lft.to/lastmile_qr_scan"}, "lon": -77.032407, "fusion_lon": 0.0, "is_reserved": 0, "fusion_lat": 0.0, "type": "electric_scooter", "lat": 38.920053833333334, "name": "b478210ef1e0505c7ecf0b82738ebe8b", "bike_id": "b478210ef1e0505c7ecf0b82738ebe8b"}, {"is_disabled": 0, "rental_uris": {"ios": "https://dc.lft.to/lastmile_qr_scan", "android": "https://dc.lft.to/lastmile_qr_scan"}, "lon": -77.01925666666666, "fusion_lon": 0.0, "is_reserved": 0, "fusion_lat": 0.0, "type": "electric_scooter", "lat": 38.923219, "name": "ad128e906c92209142163d8b3e32dd38", "bike_id": "ad128e906c92209142163d8b3e32dd38"}, {"is_disabled": 0, "rental_uris": {"ios": "https://dc.lft.to/lastmile_qr_scan", "android": "https://dc.lft.to/lastmile_qr_scan"}, "lon": -77.036564, "fusion_lon": 0.0, "is_reserved": 0, "fusion_lat": 0.0, "type": "electric_scooter", "lat": 38.92093833333333, "name": "8f6fe2ea9a0f56c83d5abc51a7c3bc60", "bike_id": "8f6fe2ea9a0f56c83d5abc51a7c3bc60"}, {"is_disabled": 0, "rental_uris": {"ios": "https://dc.lft.to/lastmile_qr_scan", "android": "https://dc.lft.to/lastmile_qr_scan"}, "lon": -77.02970866666666, "fusion_lon": 0.0, "is_reserved": 0, "fusion_lat": 0.0, "type": "electric_scooter", "lat": 38.931936666666665, "name": "8287dfd21638412f72d7facd3fcd720d", "bike_id": "8287dfd21638412f72d7facd3fcd720d"}, {"is_disabled": 0, "rental_uris": {"ios": "https://dc.lft.to/lastmile_qr_scan", "android": "https://dc.lft.to/lastmile_qr_scan"}, "lon": -77.02736816666666, "fusion_lon": 0.0, "is_reserved": 0, "fusion_lat": 0.0, "type": "electric_scooter", "lat": 38.9248385, "name": "9a52f3e915e9c0bc1ad1bcb296110af4", "bike_id": "9a52f3e915e9c0bc1ad1bcb296110af4"}, {"is_disabled": 0, "rental_uris": {"ios": "https://dc.lft.to/lastmile_qr_scan", "android": "https://dc.lft.to/lastmile_qr_scan"}, "lon": -77.0628645, "fusion_lon": 0.0, "is_reserved": 0, "fusion_lat": 0.0, "type": "electric_scooter", "lat": 38.904589666666666, "name": "8ed6917987f1d1b25fb6509de26a66a4", "bike_id": "8ed6917987f1d1b25fb6509de26a66a4"}, {"is_disabled": 0, "rental_uris": {"ios": "https://dc.lft.to/lastmile_qr_scan", "android": "https://dc.lft.to/lastmile_qr_scan"}, "lon": -77.03260066666667, "fusion_lon": 0.0, "is_reserved": 0, "fusion_lat": 0.0, "type": "electric_scooter", "lat": 38.93971116666667, "name": "37b90261b63129a6920beb33df7778c3", "bike_id": "37b90261b63129a6920beb33df7778c3"}, {"is_disabled": 0, "rental_uris": {"ios": "https://dc.lft.to/lastmile_qr_scan", "android": "https://dc.lft.to/lastmile_qr_scan"}, "lon": -77.01357516666667, "fusion_lon": 0.0, "is_reserved": 0, "fusion_lat": 0.0, "type": "electric_scooter", "lat": 38.892221, "name": "b7b39583521952e50873dc7679a1ef12", "bike_id": "b7b39583521952e50873dc7679a1ef12"}, {"is_disabled": 0, "rental_uris": {"ios": "https://dc.lft.to/lastmile_qr_scan", "android": "https://dc.lft.to/lastmile_qr_scan"}, "lon": -77.02340483333333, "fusion_lon": 0.0, "is_reserved": 0, "fusion_lat": 0.0, "type": "electric_scooter", "lat": 38.881410333333335, "name": "e494ac3bf1f8816d5a488e23e21aaf79", "bike_id": "e494ac3bf1f8816d5a488e23e21aaf79"}, {"is_disabled": 0, "rental_uris": {"ios": "https://dc.lft.to/lastmile_qr_scan", "android": "https://dc.lft.to/lastmile_qr_scan"}, "lon": -77.01639166666666, "fusion_lon": 0.0, "is_reserved": 0, "fusion_lat": 0.0, "type": "electric_scooter", "lat": 38.91590566666667, "name": "d0b928613828e5648bc62bf44279f247", "bike_id": "d0b928613828e5648bc62bf44279f247"}, {"is_disabled": 0, "rental_uris": {"ios": "https://dc.lft.to/lastmile_qr_scan", "android": "https://dc.lft.to/lastmile_qr_scan"}, "lon": -77.04209783333333, "fusion_lon": 0.0, "is_reserved": 0, "fusion_lat": 0.0, "type": "electric_scooter", "lat": 38.9111235, "name": "4ff2732c5ca54191aaaefc77f38ccfa8", "bike_id": "4ff2732c5ca54191aaaefc77f38ccfa8"}, {"is_disabled": 0, "rental_uris": {"ios": "https://dc.lft.to/lastmile_qr_scan", "android": "https://dc.lft.to/lastmile_qr_scan"}, "lon": -77.02208866666666, "fusion_lon": 0.0, "is_reserved": 0, "fusion_lat": 0.0, "type": "electric_scooter", "lat": 38.8987955, "name": "c4d847e0c1d518299c855f1b4f5096bc", "bike_id": "c4d847e0c1d518299c855f1b4f5096bc"}, {"is_disabled": 0, "rental_uris": {"ios": "https://dc.lft.to/lastmile_qr_scan", "android": "https://dc.lft.to/lastmile_qr_scan"}, "lon": -77.0131325, "fusion_lon": 0.0, "is_reserved": 0, "fusion_lat": 0.0, "type": "electric_scooter", "lat": 38.89741316666667, "name": "b3dce6b6a3405aa6a9b235577c501e32", "bike_id": "b3dce6b6a3405aa6a9b235577c501e32"}, {"is_disabled": 0, "rental_uris": {"ios": "https://dc.lft.to/lastmile_qr_scan", "android": "https://dc.lft.to/lastmile_qr_scan"}, "lon": -77.03974566666666, "fusion_lon": 0.0, "is_reserved": 0, "fusion_lat": 0.0, "type": "electric_scooter", "lat": 38.8986695, "name": "0c92ab2e93574bd5bd16f6e0959985ae", "bike_id": "0c92ab2e93574bd5bd16f6e0959985ae"}, {"is_disabled": 0, "rental_uris": {"ios": "https://dc.lft.to/lastmile_qr_scan", "android": "https://dc.lft.to/lastmile_qr_scan"}, "lon": -77.025691, "fusion_lon": 0.0, "is_reserved": 0, "fusion_lat": 0.0, "type": "electric_scooter", "lat": 38.9419865, "name": "e99ffa6e607139e8d61a6f9c0e39b848", "bike_id": "e99ffa6e607139e8d61a6f9c0e39b848"}, {"is_disabled": 0, "rental_uris": {"ios": "https://dc.lft.to/lastmile_qr_scan", "android": "https://dc.lft.to/lastmile_qr_scan"}, "lon": -77.05321383333333, "fusion_lon": 0.0, "is_reserved": 0, "fusion_lat": 0.0, "type": "electric_scooter", "lat": 38.91554033333333, "name": "3a82fd7ddadf1fea881f0b965a2849c6", "bike_id": "3a82fd7ddadf1fea881f0b965a2849c6"}, {"is_disabled": 0, "rental_uris": {"ios": "https://dc.lft.to/lastmile_qr_scan", "android": "https://dc.lft.to/lastmile_qr_scan"}, "lon": -77.031862, "fusion_lon": 0.0, "is_reserved": 0, "fusion_lat": 0.0, "type": "electric_scooter", "lat": 38.919315166666664, "name": "8fc2382b627ad716f996319e34e8bd94", "bike_id": "8fc2382b627ad716f996319e34e8bd94"}, {"is_disabled": 0, "rental_uris": {"ios": "https://dc.lft.to/lastmile_qr_scan", "android": "https://dc.lft.to/lastmile_qr_scan"}, "lon": -77.032601, "fusion_lon": 0.0, "is_reserved": 0, "fusion_lat": 0.0, "type": "electric_scooter", "lat": 38.93310316666667, "name": "a16ff0d25096e0ebd54b874ce7073181", "bike_id": "a16ff0d25096e0ebd54b874ce7073181"}, {"is_disabled": 0, "rental_uris": {"ios": "https://dc.lft.to/lastmile_qr_scan", "android": "https://dc.lft.to/lastmile_qr_scan"}, "lon": -77.02184766666667, "fusion_lon": 0.0, "is_reserved": 0, "fusion_lat": 0.0, "type": "electric_scooter", "lat": 38.919779166666665, "name": "52ba66baa04e2a09daf785dd403a30ed", "bike_id": "52ba66baa04e2a09daf785dd403a30ed"}, {"is_disabled": 0, "rental_uris": {"ios": "https://dc.lft.to/lastmile_qr_scan", "android": "https://dc.lft.to/lastmile_qr_scan"}, "lon": -77.09707183333333, "fusion_lon": 0.0, "is_reserved": 0, "fusion_lat": 0.0, "type": "electric_bike", "lat": 38.886833333333335, "name": "d008b2ea71038e3be8a79491df26514c", "bike_id": "d008b2ea71038e3be8a79491df26514c"}, {"is_disabled": 0, "rental_uris": {"ios": "https://dc.lft.to/lastmile_qr_scan", "android": "https://dc.lft.to/lastmile_qr_scan"}, "lon": -77.0363565, "fusion_lon": 0.0, "is_reserved": 0, "fusion_lat": 0.0, "type": "electric_scooter", "lat": 38.927031, "name": "7a3df81fdf2c16105b1beb966ed4e3be", "bike_id": "7a3df81fdf2c16105b1beb966ed4e3be"}, {"is_disabled": 0, "rental_uris": {"ios": "https://dc.lft.to/lastmile_qr_scan", "android": "https://dc.lft.to/lastmile_qr_scan"}, "lon": -77.02284383333334, "fusion_lon": 0.0, "is_reserved": 0, "fusion_lat": 0.0, "type": "electric_scooter", "lat": 38.92684033333333, "name": "c9feb3d3177a2928e3be9dc63f385d33", "bike_id": "c9feb3d3177a2928e3be9dc63f385d33"}, {"is_disabled": 0, "rental_uris": {"ios": "https://dc.lft.to/lastmile_qr_scan", "android": "https://dc.lft.to/lastmile_qr_scan"}, "lon": -77.0133415, "fusion_lon": 0.0, "is_reserved": 0, "fusion_lat": 0.0, "type": "electric_scooter", "lat": 38.881262, "name": "32449b12d23e57c6bc253230f3e4728e", "bike_id": "32449b12d23e57c6bc253230f3e4728e"}, {"is_disabled": 0, "rental_uris": {"ios": "https://dc.lft.to/lastmile_qr_scan", "android": "https://dc.lft.to/lastmile_qr_scan"}, "lon": -76.979001, "fusion_lon": 0.0, "is_reserved": 0, "fusion_lat": 0.0, "type": "electric_bike", "lat": 38.92693216666667, "name": "82b652f2bc84af060ab0d8a5fc41d1d8", "bike_id": "82b652f2bc84af060ab0d8a5fc41d1d8"}, {"is_disabled": 0, "rental_uris": {"ios": "https://dc.lft.to/lastmile_qr_scan", "android": "https://dc.lft.to/lastmile_qr_scan"}, "lon": -77.04322733333333, "fusion_lon": 0.0, "is_reserved": 0, "fusion_lat": 0.0, "type": "electric_scooter", "lat": 38.905544, "name": "3775a8d30bc565373751ef67e8cceaf9", "bike_id": "3775a8d30bc565373751ef67e8cceaf9"}, {"is_disabled": 0, "rental_uris": {"ios": "https://dc.lft.to/lastmile_qr_scan", "android": "https://dc.lft.to/lastmile_qr_scan"}, "lon": -77.01804016666667, "fusion_lon": 0.0, "is_reserved": 0, "fusion_lat": 0.0, "type": "electric_scooter", "lat": 38.92129083333333, "name": "5bffde6506ba8b26ded03b33ac521f88", "bike_id": "5bffde6506ba8b26ded03b33ac521f88"}, {"is_disabled": 0, "rental_uris": {"ios": "https://dc.lft.to/lastmile_qr_scan", "android": "https://dc.lft.to/lastmile_qr_scan"}, "lon": -77.0168965, "fusion_lon": 0.0, "is_reserved": 0, "fusion_lat": 0.0, "type": "electric_scooter", "lat": 38.901469666666664, "name": "d3dcaf1d2491ac55791d741d247bfebe", "bike_id": "d3dcaf1d2491ac55791d741d247bfebe"}, {"is_disabled": 0, "rental_uris": {"ios": "https://dc.lft.to/lastmile_qr_scan", "android": "https://dc.lft.to/lastmile_qr_scan"}, "lon": -77.05059833333334, "fusion_lon": 0.0, "is_reserved": 0, "fusion_lat": 0.0, "type": "electric_bike", "lat": 38.90155216666667, "name": "bf8df47e59d3793b27b581be320f0895", "bike_id": "bf8df47e59d3793b27b581be320f0895"}, {"is_disabled": 0, "rental_uris": {"ios": "https://dc.lft.to/lastmile_qr_scan", "android": "https://dc.lft.to/lastmile_qr_scan"}, "lon": -77.0379595, "fusion_lon": 0.0, "is_reserved": 0, "fusion_lat": 0.0, "type": "electric_scooter", "lat": 38.933222666666666, "name": "9e425b1fb49f263b54666670508c5ed5", "bike_id": "9e425b1fb49f263b54666670508c5ed5"}, {"is_disabled": 0, "rental_uris": {"ios": "https://dc.lft.to/lastmile_qr_scan", "android": "https://dc.lft.to/lastmile_qr_scan"}, "lon": -77.03247783333333, "fusion_lon": 0.0, "is_reserved": 0, "fusion_lat": 0.0, "type": "electric_scooter", "lat": 38.8972275, "name": "c0add325b772a980c186c50dc652cab0", "bike_id": "c0add325b772a980c186c50dc652cab0"}, {"is_disabled": 0, "rental_uris": {"ios": "https://dc.lft.to/lastmile_qr_scan", "android": "https://dc.lft.to/lastmile_qr_scan"}, "lon": -77.01028133333334, "fusion_lon": 0.0, "is_reserved": 0, "fusion_lat": 0.0, "type": "electric_scooter", "lat": 38.91145516666667, "name": "3e0e5ae7e94ab8d99fd47cef784573e5", "bike_id": "3e0e5ae7e94ab8d99fd47cef784573e5"}, {"is_disabled": 0, "rental_uris": {"ios": "https://dc.lft.to/lastmile_qr_scan", "android": "https://dc.lft.to/lastmile_qr_scan"}, "lon": -77.01337466666666, "fusion_lon": 0.0, "is_reserved": 0, "fusion_lat": 0.0, "type": "electric_scooter", "lat": 38.881314, "name": "3461317b86483fe43261e395f3f3a52d", "bike_id": "3461317b86483fe43261e395f3f3a52d"}, {"is_disabled": 0, "rental_uris": {"ios": "https://dc.lft.to/lastmile_qr_scan", "android": "https://dc.lft.to/lastmile_qr_scan"}, "lon": -77.05353083333334, "fusion_lon": 0.0, "is_reserved": 0, "fusion_lat": 0.0, "type": "electric_scooter", "lat": 38.923296, "name": "a26d29d61484ed04eb8078ef891cc2c6", "bike_id": "a26d29d61484ed04eb8078ef891cc2c6"}, {"is_disabled": 0, "rental_uris": {"ios": "https://dc.lft.to/lastmile_qr_scan", "android": "https://dc.lft.to/lastmile_qr_scan"}, "lon": -77.0209445, "fusion_lon": 0.0, "is_reserved": 0, "fusion_lat": 0.0, "type": "electric_scooter", "lat": 38.907334166666665, "name": "0f65c39361c4966a93315afd16e6eab7", "bike_id": "0f65c39361c4966a93315afd16e6eab7"}, {"is_disabled": 0, "rental_uris": {"ios": "https://dc.lft.to/lastmile_qr_scan", "android": "https://dc.lft.to/lastmile_qr_scan"}, "lon": -77.04011483333333, "fusion_lon": 0.0, "is_reserved": 0, "fusion_lat": 0.0, "type": "electric_scooter", "lat": 38.89949383333333, "name": "6df9981f9939e85d92b0c5d2af8698a0", "bike_id": "6df9981f9939e85d92b0c5d2af8698a0"}, {"is_disabled": 0, "rental_uris": {"ios": "https://dc.lft.to/lastmile_qr_scan", "android": "https://dc.lft.to/lastmile_qr_scan"}, "lon": -77.03889266666667, "fusion_lon": 0.0, "is_reserved": 0, "fusion_lat": 0.0, "type": "electric_scooter", "lat": 38.92215483333333, "name": "8d56e31f39a29f19af90cbcb5a9d286c", "bike_id": "8d56e31f39a29f19af90cbcb5a9d286c"}, {"is_disabled": 0, "rental_uris": {"ios": "https://dc.lft.to/lastmile_qr_scan", "android": "https://dc.lft.to/lastmile_qr_scan"}, "lon": -77.029424, "fusion_lon": 0.0, "is_reserved": 0, "fusion_lat": 0.0, "type": "electric_scooter", "lat": 38.897902, "name": "b56afdd220289f1d9bcc4dd68a546e1c", "bike_id": "b56afdd220289f1d9bcc4dd68a546e1c"}, {"is_disabled": 0, "rental_uris": {"ios": "https://dc.lft.to/lastmile_qr_scan", "android": "https://dc.lft.to/lastmile_qr_scan"}, "lon": -77.01068, "fusion_lon": 0.0, "is_reserved": 0, "fusion_lat": 0.0, "type": "electric_scooter", "lat": 38.91817983333333, "name": "ad1eb958a30345fa7ec607b4186bd0cf", "bike_id": "ad1eb958a30345fa7ec607b4186bd0cf"}, {"is_disabled": 0, "rental_uris": {"ios": "https://dc.lft.to/lastmile_qr_scan", "android": "https://dc.lft.to/lastmile_qr_scan"}, "lon": -77.04563016666667, "fusion_lon": 0.0, "is_reserved": 0, "fusion_lat": 0.0, "type": "electric_scooter", "lat": 38.903894666666666, "name": "86ed7ec05739ffeb3437e9a3f8a09c39", "bike_id": "86ed7ec05739ffeb3437e9a3f8a09c39"}, {"is_disabled": 0, "rental_uris": {"ios": "https://dc.lft.to/lastmile_qr_scan", "android": "https://dc.lft.to/lastmile_qr_scan"}, "lon": -77.06589316666667, "fusion_lon": 0.0, "is_reserved": 0, "fusion_lat": 0.0, "type": "electric_scooter", "lat": 38.904087, "name": "0d67f85d13ac9c6f38da5ba1522ed597", "bike_id": "0d67f85d13ac9c6f38da5ba1522ed597"}, {"is_disabled": 0, "rental_uris": {"ios": "https://dc.lft.to/lastmile_qr_scan", "android": "https://dc.lft.to/lastmile_qr_scan"}, "lon": -77.00747383333334, "fusion_lon": 0.0, "is_reserved": 0, "fusion_lat": 0.0, "type": "electric_scooter", "lat": 38.9054455, "name": "e2915c6abeb2925070c9c04a927ac318", "bike_id": "e2915c6abeb2925070c9c04a927ac318"}, {"is_disabled": 0, "rental_uris": {"ios": "https://dc.lft.to/lastmile_qr_scan", "android": "https://dc.lft.to/lastmile_qr_scan"}, "lon": -76.983441, "fusion_lon": 0.0, "is_reserved": 0, "fusion_lat": 0.0, "type": "electric_scooter", "lat": 38.90096416666667, "name": "785598987a084ace43de09fb928b9677", "bike_id": "785598987a084ace43de09fb928b9677"}, {"is_disabled": 0, "rental_uris": {"ios": "https://dc.lft.to/lastmile_qr_scan", "android": "https://dc.lft.to/lastmile_qr_scan"}, "lon": -77.01519916666666, "fusion_lon": 0.0, "is_reserved": 0, "fusion_lat": 0.0, "type": "electric_scooter", "lat": 38.872252, "name": "d4ae10f8708e7dd38682d3c2f8320c5f", "bike_id": "d4ae10f8708e7dd38682d3c2f8320c5f"}, {"is_disabled": 0, "rental_uris": {"ios": "https://dc.lft.to/lastmile_qr_scan", "android": "https://dc.lft.to/lastmile_qr_scan"}, "lon": -76.98336933333333, "fusion_lon": 0.0, "is_reserved": 0, "fusion_lat": 0.0, "type": "electric_scooter", "lat": 38.89547483333333, "name": "efa5d5afb71ea7d08dcd5b2f632729f5", "bike_id": "efa5d5afb71ea7d08dcd5b2f632729f5"}, {"is_disabled": 0, "rental_uris": {"ios": "https://dc.lft.to/lastmile_qr_scan", "android": "https://dc.lft.to/lastmile_qr_scan"}, "lon": -77.02596316666667, "fusion_lon": 0.0, "is_reserved": 0, "fusion_lat": 0.0, "type": "electric_scooter", "lat": 38.903436, "name": "5aedecfdd59100f088e2406ee84a7544", "bike_id": "5aedecfdd59100f088e2406ee84a7544"}, {"is_disabled": 0, "rental_uris": {"ios": "https://dc.lft.to/lastmile_qr_scan", "android": "https://dc.lft.to/lastmile_qr_scan"}, "lon": -77.04874733333334, "fusion_lon": 0.0, "is_reserved": 0, "fusion_lat": 0.0, "type": "electric_scooter", "lat": 38.901626666666665, "name": "6914582b0c129e6f5c6f3c8ba257e2ce", "bike_id": "6914582b0c129e6f5c6f3c8ba257e2ce"}, {"is_disabled": 0, "rental_uris": {"ios": "https://dc.lft.to/lastmile_qr_scan", "android": "https://dc.lft.to/lastmile_qr_scan"}, "lon": -77.044816, "fusion_lon": 0.0, "is_reserved": 0, "fusion_lat": 0.0, "type": "electric_scooter", "lat": 38.90569416666666, "name": "27cd047668cf19bbecbf348fe543d6b5", "bike_id": "27cd047668cf19bbecbf348fe543d6b5"}, {"is_disabled": 0, "rental_uris": {"ios": "https://dc.lft.to/lastmile_qr_scan", "android": "https://dc.lft.to/lastmile_qr_scan"}, "lon": -77.04932883333333, "fusion_lon": 0.0, "is_reserved": 0, "fusion_lat": 0.0, "type": "electric_scooter", "lat": 38.895526833333335, "name": "3b04bfb49708c4c95f7b88c8822de172", "bike_id": "3b04bfb49708c4c95f7b88c8822de172"}, {"is_disabled": 0, "rental_uris": {"ios": "https://dc.lft.to/lastmile_qr_scan", "android": "https://dc.lft.to/lastmile_qr_scan"}, "lon": -77.01220033333334, "fusion_lon": 0.0, "is_reserved": 0, "fusion_lat": 0.0, "type": "electric_scooter", "lat": 38.9127445, "name": "29a642aa991288d19e2053a97d8401bc", "bike_id": "29a642aa991288d19e2053a97d8401bc"}, {"is_disabled": 0, "rental_uris": {"ios": "https://dc.lft.to/lastmile_qr_scan", "android": "https://dc.lft.to/lastmile_qr_scan"}, "lon": -77.03207833333333, "fusion_lon": 0.0, "is_reserved": 0, "fusion_lat": 0.0, "type": "electric_scooter", "lat": 38.919127833333334, "name": "5bf644c6a1a7c1ec066bd6a192a87f11", "bike_id": "5bf644c6a1a7c1ec066bd6a192a87f11"}, {"is_disabled": 0, "rental_uris": {"ios": "https://dc.lft.to/lastmile_qr_scan", "android": "https://dc.lft.to/lastmile_qr_scan"}, "lon": -77.03453533333334, "fusion_lon": 0.0, "is_reserved": 0, "fusion_lat": 0.0, "type": "electric_scooter", "lat": 38.90809866666667, "name": "7dde59274e3849b3336eac77208c3459", "bike_id": "7dde59274e3849b3336eac77208c3459"}, {"is_disabled": 0, "rental_uris": {"ios": "https://dc.lft.to/lastmile_qr_scan", "android": "https://dc.lft.to/lastmile_qr_scan"}, "lon": -77.023908, "fusion_lon": 0.0, "is_reserved": 0, "fusion_lat": 0.0, "type": "electric_scooter", "lat": 38.909738833333336, "name": "49c451560531298ca45c990a5a7beaad", "bike_id": "49c451560531298ca45c990a5a7beaad"}, {"is_disabled": 0, "rental_uris": {"ios": "https://dc.lft.to/lastmile_qr_scan", "android": "https://dc.lft.to/lastmile_qr_scan"}, "lon": -77.026425, "fusion_lon": 0.0, "is_reserved": 0, "fusion_lat": 0.0, "type": "electric_scooter", "lat": 38.93104983333333, "name": "860b8853d0f56e6979a60eb41d6b10e6", "bike_id": "860b8853d0f56e6979a60eb41d6b10e6"}, {"is_disabled": 0, "rental_uris": {"ios": "https://dc.lft.to/lastmile_qr_scan", "android": "https://dc.lft.to/lastmile_qr_scan"}, "lon": -76.99458416666667, "fusion_lon": 0.0, "is_reserved": 0, "fusion_lat": 0.0, "type": "electric_scooter", "lat": 38.82775266666667, "name": "a00a0d937e67237ec8634e32f685d9c6", "bike_id": "a00a0d937e67237ec8634e32f685d9c6"}, {"is_disabled": 0, "rental_uris": {"ios": "https://dc.lft.to/lastmile_qr_scan", "android": "https://dc.lft.to/lastmile_qr_scan"}, "lon": -77.00586866666667, "fusion_lon": 0.0, "is_reserved": 0, "fusion_lat": 0.0, "type": "electric_scooter", "lat": 38.902928, "name": "67616bb96cd8141c1aea3402abc3c1f6", "bike_id": "67616bb96cd8141c1aea3402abc3c1f6"}, {"is_disabled": 0, "rental_uris": {"ios": "https://dc.lft.to/lastmile_qr_scan", "android": "https://dc.lft.to/lastmile_qr_scan"}, "lon": -77.04345983333333, "fusion_lon": 0.0, "is_reserved": 0, "fusion_lat": 0.0, "type": "electric_scooter", "lat": 38.904215, "name": "391b4fdff28b659ce0d568d501ef9ac4", "bike_id": "391b4fdff28b659ce0d568d501ef9ac4"}, {"is_disabled": 0, "rental_uris": {"ios": "https://dc.lft.to/lastmile_qr_scan", "android": "https://dc.lft.to/lastmile_qr_scan"}, "lon": -77.0501835, "fusion_lon": 0.0, "is_reserved": 0, "fusion_lat": 0.0, "type": "electric_scooter", "lat": 38.905263833333336, "name": "d574e94b5ae4ada0459527e6fe6cc61a", "bike_id": "d574e94b5ae4ada0459527e6fe6cc61a"}, {"is_disabled": 0, "rental_uris": {"ios": "https://dc.lft.to/lastmile_qr_scan", "android": "https://dc.lft.to/lastmile_qr_scan"}, "lon": -77.03548033333334, "fusion_lon": 0.0, "is_reserved": 0, "fusion_lat": 0.0, "type": "electric_scooter", "lat": 38.9235095, "name": "8ee907c9310803b2c8b1a02660adbb95", "bike_id": "8ee907c9310803b2c8b1a02660adbb95"}, {"is_disabled": 0, "rental_uris": {"ios": "https://dc.lft.to/lastmile_qr_scan", "android": "https://dc.lft.to/lastmile_qr_scan"}, "lon": -77.00984866666667, "fusion_lon": 0.0, "is_reserved": 0, "fusion_lat": 0.0, "type": "electric_scooter", "lat": 38.87296533333333, "name": "1dcec3f106982d0fb200cae043a4110f", "bike_id": "1dcec3f106982d0fb200cae043a4110f"}, {"is_disabled": 0, "rental_uris": {"ios": "https://dc.lft.to/lastmile_qr_scan", "android": "https://dc.lft.to/lastmile_qr_scan"}, "lon": -77.03613383333334, "fusion_lon": 0.0, "is_reserved": 0, "fusion_lat": 0.0, "type": "electric_scooter", "lat": 38.93741266666667, "name": "4681fd2666d47b77bf685dc152d564df", "bike_id": "4681fd2666d47b77bf685dc152d564df"}, {"is_disabled": 0, "rental_uris": {"ios": "https://dc.lft.to/lastmile_qr_scan", "android": "https://dc.lft.to/lastmile_qr_scan"}, "lon": -77.106136, "fusion_lon": 0.0, "is_reserved": 0, "fusion_lat": 0.0, "type": "electric_bike", "lat": 38.837283, "name": "bf3a970e36a33b4416ef3ae975293ee3", "bike_id": "bf3a970e36a33b4416ef3ae975293ee3"}, {"is_disabled": 0, "rental_uris": {"ios": "https://dc.lft.to/lastmile_qr_scan", "android": "https://dc.lft.to/lastmile_qr_scan"}, "lon": -76.973316, "fusion_lon": 0.0, "is_reserved": 0, "fusion_lat": 0.0, "type": "electric_bike", "lat": 38.865150166666666, "name": "faa7b81d129f57e12b28090d3b00e018", "bike_id": "faa7b81d129f57e12b28090d3b00e018"}, {"is_disabled": 0, "rental_uris": {"ios": "https://dc.lft.to/lastmile_qr_scan", "android": "https://dc.lft.to/lastmile_qr_scan"}, "lon": -77.01452033333334, "fusion_lon": 0.0, "is_reserved": 0, "fusion_lat": 0.0, "type": "electric_scooter", "lat": 38.899482, "name": "60f870430c79bd1253edf8f31be9c640", "bike_id": "60f870430c79bd1253edf8f31be9c640"}, {"is_disabled": 0, "rental_uris": {"ios": "https://dc.lft.to/lastmile_qr_scan", "android": "https://dc.lft.to/lastmile_qr_scan"}, "lon": -77.028162, "fusion_lon": 0.0, "is_reserved": 0, "fusion_lat": 0.0, "type": "electric_scooter", "lat": 38.91434983333333, "name": "99a889e76bf34e2a7c36f4ba206523a5", "bike_id": "99a889e76bf34e2a7c36f4ba206523a5"}, {"is_disabled": 0, "rental_uris": {"ios": "https://dc.lft.to/lastmile_qr_scan", "android": "https://dc.lft.to/lastmile_qr_scan"}, "lon": -77.01880016666667, "fusion_lon": 0.0, "is_reserved": 0, "fusion_lat": 0.0, "type": "electric_scooter", "lat": 38.92136583333333, "name": "313f55f0ff962de32a991c609aaa89d8", "bike_id": "313f55f0ff962de32a991c609aaa89d8"}, {"is_disabled": 0, "rental_uris": {"ios": "https://dc.lft.to/lastmile_qr_scan", "android": "https://dc.lft.to/lastmile_qr_scan"}, "lon": -77.04151533333334, "fusion_lon": 0.0, "is_reserved": 0, "fusion_lat": 0.0, "type": "electric_scooter", "lat": 38.92336816666667, "name": "b17cdbdec2f23b23fe9a6cfa2eb493c4", "bike_id": "b17cdbdec2f23b23fe9a6cfa2eb493c4"}, {"is_disabled": 0, "rental_uris": {"ios": "https://dc.lft.to/lastmile_qr_scan", "android": "https://dc.lft.to/lastmile_qr_scan"}, "lon": -77.001695, "fusion_lon": 0.0, "is_reserved": 0, "fusion_lat": 0.0, "type": "electric_scooter", "lat": 38.90757516666667, "name": "4ea595c50aac2499474ab04cad35f7c7", "bike_id": "4ea595c50aac2499474ab04cad35f7c7"}, {"is_disabled": 0, "rental_uris": {"ios": "https://dc.lft.to/lastmile_qr_scan", "android": "https://dc.lft.to/lastmile_qr_scan"}, "lon": -77.01839283333334, "fusion_lon": 0.0, "is_reserved": 0, "fusion_lat": 0.0, "type": "electric_scooter", "lat": 38.90958633333334, "name": "827c52e72a07beaa188117fe74e1e5d5", "bike_id": "827c52e72a07beaa188117fe74e1e5d5"}, {"is_disabled": 0, "rental_uris": {"ios": "https://dc.lft.to/lastmile_qr_scan", "android": "https://dc.lft.to/lastmile_qr_scan"}, "lon": -77.03447666666666, "fusion_lon": 0.0, "is_reserved": 0, "fusion_lat": 0.0, "type": "electric_scooter", "lat": 38.92222983333333, "name": "ccbfd7addfd2e7104b93dffda0b58989", "bike_id": "ccbfd7addfd2e7104b93dffda0b58989"}, {"is_disabled": 0, "rental_uris": {"ios": "https://dc.lft.to/lastmile_qr_scan", "android": "https://dc.lft.to/lastmile_qr_scan"}, "lon": -77.028172, "fusion_lon": 0.0, "is_reserved": 0, "fusion_lat": 0.0, "type": "electric_scooter", "lat": 38.881797166666665, "name": "48e71c7566b78a755cc53b7dfdc94519", "bike_id": "48e71c7566b78a755cc53b7dfdc94519"}, {"is_disabled": 0, "rental_uris": {"ios": "https://dc.lft.to/lastmile_qr_scan", "android": "https://dc.lft.to/lastmile_qr_scan"}, "lon": -77.00213166666667, "fusion_lon": 0.0, "is_reserved": 0, "fusion_lat": 0.0, "type": "electric_scooter", "lat": 38.900291333333335, "name": "eedb7241d9c9cfff87622d7d5ec7e49f", "bike_id": "eedb7241d9c9cfff87622d7d5ec7e49f"}, {"is_disabled": 0, "rental_uris": {"ios": "https://dc.lft.to/lastmile_qr_scan", "android": "https://dc.lft.to/lastmile_qr_scan"}, "lon": -77.03629283333333, "fusion_lon": 0.0, "is_reserved": 0, "fusion_lat": 0.0, "type": "electric_bike", "lat": 38.972981, "name": "a704b7ff2b9b37a23c6d99fcce1cca90", "bike_id": "a704b7ff2b9b37a23c6d99fcce1cca90"}, {"is_disabled": 0, "rental_uris": {"ios": "https://dc.lft.to/lastmile_qr_scan", "android": "https://dc.lft.to/lastmile_qr_scan"}, "lon": -76.98686533333333, "fusion_lon": 0.0, "is_reserved": 0, "fusion_lat": 0.0, "type": "electric_bike", "lat": 38.9447075, "name": "4a27f2f5bf289bdab03353853f1f338c", "bike_id": "4a27f2f5bf289bdab03353853f1f338c"}, {"is_disabled": 0, "rental_uris": {"ios": "https://dc.lft.to/lastmile_qr_scan", "android": "https://dc.lft.to/lastmile_qr_scan"}, "lon": -77.03422483333334, "fusion_lon": 0.0, "is_reserved": 0, "fusion_lat": 0.0, "type": "electric_scooter", "lat": 38.930882833333335, "name": "998a792e85ca8d1f27b6e5123afc5fe1", "bike_id": "998a792e85ca8d1f27b6e5123afc5fe1"}, {"is_disabled": 0, "rental_uris": {"ios": "https://dc.lft.to/lastmile_qr_scan", "android": "https://dc.lft.to/lastmile_qr_scan"}, "lon": -77.02011, "fusion_lon": 0.0, "is_reserved": 0, "fusion_lat": 0.0, "type": "electric_scooter", "lat": 38.9241495, "name": "41d1d42d6209935fb91ccf935ec76ee9", "bike_id": "41d1d42d6209935fb91ccf935ec76ee9"}, {"is_disabled": 0, "rental_uris": {"ios": "https://dc.lft.to/lastmile_qr_scan", "android": "https://dc.lft.to/lastmile_qr_scan"}, "lon": -77.08619366666667, "fusion_lon": 0.0, "is_reserved": 0, "fusion_lat": 0.0, "type": "electric_bike", "lat": 38.93128883333333, "name": "be2236e46455215c2f40b4e9c33e5a8a", "bike_id": "be2236e46455215c2f40b4e9c33e5a8a"}, {"is_disabled": 0, "rental_uris": {"ios": "https://dc.lft.to/lastmile_qr_scan", "android": "https://dc.lft.to/lastmile_qr_scan"}, "lon": -77.0187195, "fusion_lon": 0.0, "is_reserved": 0, "fusion_lat": 0.0, "type": "electric_scooter", "lat": 38.876608, "name": "99c39e71da95c8dd0051e8c263d4c26b", "bike_id": "99c39e71da95c8dd0051e8c263d4c26b"}, {"is_disabled": 0, "rental_uris": {"ios": "https://dc.lft.to/lastmile_qr_scan", "android": "https://dc.lft.to/lastmile_qr_scan"}, "lon": -77.00669916666666, "fusion_lon": 0.0, "is_reserved": 0, "fusion_lat": 0.0, "type": "electric_scooter", "lat": 38.89990783333333, "name": "27a6376428256f4f0f4d913f5997b7cf", "bike_id": "27a6376428256f4f0f4d913f5997b7cf"}, {"is_disabled": 0, "rental_uris": {"ios": "https://dc.lft.to/lastmile_qr_scan", "android": "https://dc.lft.to/lastmile_qr_scan"}, "lon": -76.9626595, "fusion_lon": 0.0, "is_reserved": 0, "fusion_lat": 0.0, "type": "electric_bike", "lat": 38.96787483333333, "name": "d74ab359a15c71056103a5fdf38e4b7a", "bike_id": "d74ab359a15c71056103a5fdf38e4b7a"}, {"is_disabled": 0, "rental_uris": {"ios": "https://dc.lft.to/lastmile_qr_scan", "android": "https://dc.lft.to/lastmile_qr_scan"}, "lon": -77.02821933333334, "fusion_lon": 0.0, "is_reserved": 0, "fusion_lat": 0.0, "type": "electric_scooter", "lat": 38.90460733333333, "name": "6daaa835cca18abc385b6a27abb9ba79", "bike_id": "6daaa835cca18abc385b6a27abb9ba79"}, {"is_disabled": 0, "rental_uris": {"ios": "https://dc.lft.to/lastmile_qr_scan", "android": "https://dc.lft.to/lastmile_qr_scan"}, "lon": -77.0230635, "fusion_lon": 0.0, "is_reserved": 0, "fusion_lat": 0.0, "type": "electric_scooter", "lat": 38.94563433333333, "name": "62f44ff20539f41b48dc449c2c66e57f", "bike_id": "62f44ff20539f41b48dc449c2c66e57f"}, {"is_disabled": 0, "rental_uris": {"ios": "https://dc.lft.to/lastmile_qr_scan", "android": "https://dc.lft.to/lastmile_qr_scan"}, "lon": -76.9609075, "fusion_lon": 0.0, "is_reserved": 0, "fusion_lat": 0.0, "type": "electric_bike", "lat": 38.91863016666667, "name": "3be74665fa302510388bdf7c0700e4db", "bike_id": "3be74665fa302510388bdf7c0700e4db"}, {"is_disabled": 0, "rental_uris": {"ios": "https://dc.lft.to/lastmile_qr_scan", "android": "https://dc.lft.to/lastmile_qr_scan"}, "lon": -77.0841425, "fusion_lon": 0.0, "is_reserved": 0, "fusion_lat": 0.0, "type": "electric_bike", "lat": 38.91303883333333, "name": "999bc081aebc579699bf90fbce62a01e", "bike_id": "999bc081aebc579699bf90fbce62a01e"}, {"is_disabled": 0, "rental_uris": {"ios": "https://dc.lft.to/lastmile_qr_scan", "android": "https://dc.lft.to/lastmile_qr_scan"}, "lon": -77.102148, "fusion_lon": 0.0, "is_reserved": 0, "fusion_lat": 0.0, "type": "electric_bike", "lat": 38.9199725, "name": "2e4867b6fcef61d026bab3dc1aa93365", "bike_id": "2e4867b6fcef61d026bab3dc1aa93365"}, {"is_disabled": 0, "rental_uris": {"ios": "https://dc.lft.to/lastmile_qr_scan", "android": "https://dc.lft.to/lastmile_qr_scan"}, "lon": -77.0449095, "fusion_lon": 0.0, "is_reserved": 0, "fusion_lat": 0.0, "type": "electric_scooter", "lat": 38.907535833333334, "name": "42a382a9fb98cf2fd126d639b5629d3e", "bike_id": "42a382a9fb98cf2fd126d639b5629d3e"}, {"is_disabled": 0, "rental_uris": {"ios": "https://dc.lft.to/lastmile_qr_scan", "android": "https://dc.lft.to/lastmile_qr_scan"}, "lon": -77.00423333333333, "fusion_lon": 0.0, "is_reserved": 0, "fusion_lat": 0.0, "type": "electric_bike", "lat": 38.985226833333336, "name": "de3c0ddafc021c646d88d1bd28d383ad", "bike_id": "de3c0ddafc021c646d88d1bd28d383ad"}, {"is_disabled": 0, "rental_uris": {"ios": "https://dc.lft.to/lastmile_qr_scan", "android": "https://dc.lft.to/lastmile_qr_scan"}, "lon": -77.0317465, "fusion_lon": 0.0, "is_reserved": 0, "fusion_lat": 0.0, "type": "electric_scooter", "lat": 38.92868333333333, "name": "29dab91d776acdfc59027eaf223a7875", "bike_id": "29dab91d776acdfc59027eaf223a7875"}, {"is_disabled": 0, "rental_uris": {"ios": "https://dc.lft.to/lastmile_qr_scan", "android": "https://dc.lft.to/lastmile_qr_scan"}, "lon": -77.04185466666667, "fusion_lon": 0.0, "is_reserved": 0, "fusion_lat": 0.0, "type": "electric_scooter", "lat": 38.905564166666665, "name": "679b89163ac9db159c4b0b139d81cc84", "bike_id": "679b89163ac9db159c4b0b139d81cc84"}, {"is_disabled": 0, "rental_uris": {"ios": "https://dc.lft.to/lastmile_qr_scan", "android": "https://dc.lft.to/lastmile_qr_scan"}, "lon": -77.00020733333334, "fusion_lon": 0.0, "is_reserved": 0, "fusion_lat": 0.0, "type": "electric_scooter", "lat": 38.900181, "name": "1e42613ee997560511dd07dcb85a81c8", "bike_id": "1e42613ee997560511dd07dcb85a81c8"}, {"is_disabled": 0, "rental_uris": {"ios": "https://dc.lft.to/lastmile_qr_scan", "android": "https://dc.lft.to/lastmile_qr_scan"}, "lon": -77.020265, "fusion_lon": 0.0, "is_reserved": 0, "fusion_lat": 0.0, "type": "electric_scooter", "lat": 38.93415266666667, "name": "4acffe0c24d436ac2c1332ca28df6e7c", "bike_id": "4acffe0c24d436ac2c1332ca28df6e7c"}, {"is_disabled": 0, "rental_uris": {"ios": "https://dc.lft.to/lastmile_qr_scan", "android": "https://dc.lft.to/lastmile_qr_scan"}, "lon": -77.03188666666667, "fusion_lon": 0.0, "is_reserved": 0, "fusion_lat": 0.0, "type": "electric_scooter", "lat": 38.911727666666664, "name": "8ceb226c168eda43349eb376f304c216", "bike_id": "8ceb226c168eda43349eb376f304c216"}, {"is_disabled": 0, "rental_uris": {"ios": "https://dc.lft.to/lastmile_qr_scan", "android": "https://dc.lft.to/lastmile_qr_scan"}, "lon": -77.02145116666667, "fusion_lon": 0.0, "is_reserved": 0, "fusion_lat": 0.0, "type": "electric_scooter", "lat": 38.89963933333333, "name": "59ffc3f19785878013641219a0a32191", "bike_id": "59ffc3f19785878013641219a0a32191"}, {"is_disabled": 0, "rental_uris": {"ios": "https://dc.lft.to/lastmile_qr_scan", "android": "https://dc.lft.to/lastmile_qr_scan"}, "lon": -76.99916483333334, "fusion_lon": 0.0, "is_reserved": 0, "fusion_lat": 0.0, "type": "electric_bike", "lat": 38.86450416666667, "name": "08917b86139b25d62c099b64724ddc58", "bike_id": "08917b86139b25d62c099b64724ddc58"}, {"is_disabled": 0, "rental_uris": {"ios": "https://dc.lft.to/lastmile_qr_scan", "android": "https://dc.lft.to/lastmile_qr_scan"}, "lon": -77.06240433333333, "fusion_lon": 0.0, "is_reserved": 0, "fusion_lat": 0.0, "type": "electric_scooter", "lat": 38.91159283333333, "name": "0d1219c9b6d5e386f8945bde19c6f33b", "bike_id": "0d1219c9b6d5e386f8945bde19c6f33b"}, {"is_disabled": 0, "rental_uris": {"ios": "https://dc.lft.to/lastmile_qr_scan", "android": "https://dc.lft.to/lastmile_qr_scan"}, "lon": -77.02595733333334, "fusion_lon": 0.0, "is_reserved": 0, "fusion_lat": 0.0, "type": "electric_scooter", "lat": 38.904306166666665, "name": "70a69467e915d5dd7ee1330980ffe10a", "bike_id": "70a69467e915d5dd7ee1330980ffe10a"}, {"is_disabled": 0, "rental_uris": {"ios": "https://dc.lft.to/lastmile_qr_scan", "android": "https://dc.lft.to/lastmile_qr_scan"}, "lon": -77.01674516666667, "fusion_lon": 0.0, "is_reserved": 0, "fusion_lat": 0.0, "type": "electric_scooter", "lat": 38.920466166666664, "name": "607c222a39d9e11b8f4648ddcdf07b1b", "bike_id": "607c222a39d9e11b8f4648ddcdf07b1b"}, {"is_disabled": 0, "rental_uris": {"ios": "https://dc.lft.to/lastmile_qr_scan", "android": "https://dc.lft.to/lastmile_qr_scan"}, "lon": -76.93631983333333, "fusion_lon": 0.0, "is_reserved": 0, "fusion_lat": 0.0, "type": "electric_scooter", "lat": 38.9027165, "name": "f5cd6cc571e873c9698f2198f9beeb0f", "bike_id": "f5cd6cc571e873c9698f2198f9beeb0f"}, {"is_disabled": 0, "rental_uris": {"ios": "https://dc.lft.to/lastmile_qr_scan", "android": "https://dc.lft.to/lastmile_qr_scan"}, "lon": -77.02359716666666, "fusion_lon": 0.0, "is_reserved": 0, "fusion_lat": 0.0, "type": "electric_scooter", "lat": 38.8947625, "name": "b8151b7d62ebac7977fa3de7ad4452df", "bike_id": "b8151b7d62ebac7977fa3de7ad4452df"}, {"is_disabled": 0, "rental_uris": {"ios": "https://dc.lft.to/lastmile_qr_scan", "android": "https://dc.lft.to/lastmile_qr_scan"}, "lon": -77.05318916666667, "fusion_lon": 0.0, "is_reserved": 0, "fusion_lat": 0.0, "type": "electric_scooter", "lat": 38.925574166666664, "name": "ca837693c5c0c4dd4a426af7b23ff3dd", "bike_id": "ca837693c5c0c4dd4a426af7b23ff3dd"}, {"is_disabled": 0, "rental_uris": {"ios": "https://dc.lft.to/lastmile_qr_scan", "android": "https://dc.lft.to/lastmile_qr_scan"}, "lon": -77.029664, "fusion_lon": 0.0, "is_reserved": 0, "fusion_lat": 0.0, "type": "electric_scooter", "lat": 38.892152, "name": "bb63670ceefe905bc4271298809c997d", "bike_id": "bb63670ceefe905bc4271298809c997d"}, {"is_disabled": 0, "rental_uris": {"ios": "https://dc.lft.to/lastmile_qr_scan", "android": "https://dc.lft.to/lastmile_qr_scan"}, "lon": -77.02972883333334, "fusion_lon": 0.0, "is_reserved": 0, "fusion_lat": 0.0, "type": "electric_scooter", "lat": 38.907159666666665, "name": "e9d3d646ac947b7bbae48e5e99d9036f", "bike_id": "e9d3d646ac947b7bbae48e5e99d9036f"}, {"is_disabled": 0, "rental_uris": {"ios": "https://dc.lft.to/lastmile_qr_scan", "android": "https://dc.lft.to/lastmile_qr_scan"}, "lon": -77.029101, "fusion_lon": 0.0, "is_reserved": 0, "fusion_lat": 0.0, "type": "electric_bike", "lat": 38.994915166666665, "name": "b7a5671e18bc7c27f00b7e96dca56591", "bike_id": "b7a5671e18bc7c27f00b7e96dca56591"}, {"is_disabled": 0, "rental_uris": {"ios": "https://dc.lft.to/lastmile_qr_scan", "android": "https://dc.lft.to/lastmile_qr_scan"}, "lon": -77.04204366666667, "fusion_lon": 0.0, "is_reserved": 0, "fusion_lat": 0.0, "type": "electric_scooter", "lat": 38.9229735, "name": "00af2a4836052cff67241ca8862830e8", "bike_id": "00af2a4836052cff67241ca8862830e8"}, {"is_disabled": 0, "rental_uris": {"ios": "https://dc.lft.to/lastmile_qr_scan", "android": "https://dc.lft.to/lastmile_qr_scan"}, "lon": -77.0249605, "fusion_lon": 0.0, "is_reserved": 0, "fusion_lat": 0.0, "type": "electric_scooter", "lat": 38.920831166666666, "name": "6c9c1b7e98c55225a734672cf2867a49", "bike_id": "6c9c1b7e98c55225a734672cf2867a49"}, {"is_disabled": 0, "rental_uris": {"ios": "https://dc.lft.to/lastmile_qr_scan", "android": "https://dc.lft.to/lastmile_qr_scan"}, "lon": -76.99851466666667, "fusion_lon": 0.0, "is_reserved": 0, "fusion_lat": 0.0, "type": "electric_scooter", "lat": 38.9064305, "name": "1cc10e84e25ff8bbba4c45e87cd6219e", "bike_id": "1cc10e84e25ff8bbba4c45e87cd6219e"}, {"is_disabled": 0, "rental_uris": {"ios": "https://dc.lft.to/lastmile_qr_scan", "android": "https://dc.lft.to/lastmile_qr_scan"}, "lon": -77.01297283333334, "fusion_lon": 0.0, "is_reserved": 0, "fusion_lat": 0.0, "type": "electric_scooter", "lat": 38.898396166666664, "name": "b59ac23c0a6d6bda543a41458c4a5b77", "bike_id": "b59ac23c0a6d6bda543a41458c4a5b77"}, {"is_disabled": 0, "rental_uris": {"ios": "https://dc.lft.to/lastmile_qr_scan", "android": "https://dc.lft.to/lastmile_qr_scan"}, "lon": -77.01143633333334, "fusion_lon": 0.0, "is_reserved": 0, "fusion_lat": 0.0, "type": "electric_scooter", "lat": 38.929636333333335, "name": "308c6d40f7aee6eb233fc5307272b89d", "bike_id": "308c6d40f7aee6eb233fc5307272b89d"}, {"is_disabled": 0, "rental_uris": {"ios": "https://dc.lft.to/lastmile_qr_scan", "android": "https://dc.lft.to/lastmile_qr_scan"}, "lon": -77.0579195, "fusion_lon": 0.0, "is_reserved": 0, "fusion_lat": 0.0, "type": "electric_scooter", "lat": 38.93482, "name": "4601532e949711f3b806f3708dab72ca", "bike_id": "4601532e949711f3b806f3708dab72ca"}, {"is_disabled": 0, "rental_uris": {"ios": "https://dc.lft.to/lastmile_qr_scan", "android": "https://dc.lft.to/lastmile_qr_scan"}, "lon": -76.90304266666666, "fusion_lon": 0.0, "is_reserved": 0, "fusion_lat": 0.0, "type": "electric_bike", "lat": 39.002898333333334, "name": "e90d77d73347ad00a34f2bc23413936a", "bike_id": "e90d77d73347ad00a34f2bc23413936a"}, {"is_disabled": 0, "rental_uris": {"ios": "https://dc.lft.to/lastmile_qr_scan", "android": "https://dc.lft.to/lastmile_qr_scan"}, "lon": -76.99409433333334, "fusion_lon": 0.0, "is_reserved": 0, "fusion_lat": 0.0, "type": "electric_scooter", "lat": 38.877947666666664, "name": "18b3d050df06333f8d66bf3e416a0de0", "bike_id": "18b3d050df06333f8d66bf3e416a0de0"}, {"is_disabled": 0, "rental_uris": {"ios": "https://dc.lft.to/lastmile_qr_scan", "android": "https://dc.lft.to/lastmile_qr_scan"}, "lon": -77.06004133333333, "fusion_lon": 0.0, "is_reserved": 0, "fusion_lat": 0.0, "type": "electric_scooter", "lat": 38.938222333333336, "name": "18c2833b2191396a8dce80613076d72b", "bike_id": "18c2833b2191396a8dce80613076d72b"}, {"is_disabled": 0, "rental_uris": {"ios": "https://dc.lft.to/lastmile_qr_scan", "android": "https://dc.lft.to/lastmile_qr_scan"}, "lon": -77.03846716666666, "fusion_lon": 0.0, "is_reserved": 0, "fusion_lat": 0.0, "type": "electric_scooter", "lat": 38.91545333333333, "name": "2e7964d78e27737ba4e4ba7270eaa8f1", "bike_id": "2e7964d78e27737ba4e4ba7270eaa8f1"}, {"is_disabled": 0, "rental_uris": {"ios": "https://dc.lft.to/lastmile_qr_scan", "android": "https://dc.lft.to/lastmile_qr_scan"}, "lon": -77.014086, "fusion_lon": 0.0, "is_reserved": 0, "fusion_lat": 0.0, "type": "electric_scooter", "lat": 38.92863916666667, "name": "a626c18fe932a64748a5b49521f5b646", "bike_id": "a626c18fe932a64748a5b49521f5b646"}, {"is_disabled": 0, "rental_uris": {"ios": "https://dc.lft.to/lastmile_qr_scan", "android": "https://dc.lft.to/lastmile_qr_scan"}, "lon": -77.01915233333334, "fusion_lon": 0.0, "is_reserved": 0, "fusion_lat": 0.0, "type": "electric_scooter", "lat": 38.923431, "name": "371b502fbf225b4734e7ed000907cc4e", "bike_id": "371b502fbf225b4734e7ed000907cc4e"}, {"is_disabled": 0, "rental_uris": {"ios": "https://dc.lft.to/lastmile_qr_scan", "android": "https://dc.lft.to/lastmile_qr_scan"}, "lon": -77.05595783333334, "fusion_lon": 0.0, "is_reserved": 0, "fusion_lat": 0.0, "type": "electric_scooter", "lat": 38.89427083333333, "name": "aa0c5e32b52e44512bad166440415ca1", "bike_id": "aa0c5e32b52e44512bad166440415ca1"}, {"is_disabled": 0, "rental_uris": {"ios": "https://dc.lft.to/lastmile_qr_scan", "android": "https://dc.lft.to/lastmile_qr_scan"}, "lon": -77.02476516666667, "fusion_lon": 0.0, "is_reserved": 0, "fusion_lat": 0.0, "type": "electric_scooter", "lat": 38.91816433333334, "name": "e26d1e70e9927b405a7bb02ef85a8a4d", "bike_id": "e26d1e70e9927b405a7bb02ef85a8a4d"}, {"is_disabled": 0, "rental_uris": {"ios": "https://dc.lft.to/lastmile_qr_scan", "android": "https://dc.lft.to/lastmile_qr_scan"}, "lon": -77.0198275, "fusion_lon": 0.0, "is_reserved": 0, "fusion_lat": 0.0, "type": "electric_scooter", "lat": 38.898770999999996, "name": "64387748306de41f1763883cdf54664f", "bike_id": "64387748306de41f1763883cdf54664f"}, {"is_disabled": 0, "rental_uris": {"ios": "https://dc.lft.to/lastmile_qr_scan", "android": "https://dc.lft.to/lastmile_qr_scan"}, "lon": -77.04365666666666, "fusion_lon": 0.0, "is_reserved": 0, "fusion_lat": 0.0, "type": "electric_scooter", "lat": 38.9111705, "name": "398c1c19ef1f45f62bfbd3bd0a17e9d4", "bike_id": "398c1c19ef1f45f62bfbd3bd0a17e9d4"}, {"is_disabled": 0, "rental_uris": {"ios": "https://dc.lft.to/lastmile_qr_scan", "android": "https://dc.lft.to/lastmile_qr_scan"}, "lon": -77.083226, "fusion_lon": 0.0, "is_reserved": 0, "fusion_lat": 0.0, "type": "electric_bike", "lat": 38.93342616666666, "name": "2bd446c80b6034147d883f66e141e4e8", "bike_id": "2bd446c80b6034147d883f66e141e4e8"}, {"is_disabled": 0, "rental_uris": {"ios": "https://dc.lft.to/lastmile_qr_scan", "android": "https://dc.lft.to/lastmile_qr_scan"}, "lon": -77.02106466666666, "fusion_lon": 0.0, "is_reserved": 0, "fusion_lat": 0.0, "type": "electric_scooter", "lat": 38.9056535, "name": "4ef206c6c23dde25c0452e195ea09ff4", "bike_id": "4ef206c6c23dde25c0452e195ea09ff4"}, {"is_disabled": 0, "rental_uris": {"ios": "https://dc.lft.to/lastmile_qr_scan", "android": "https://dc.lft.to/lastmile_qr_scan"}, "lon": -77.02393333333333, "fusion_lon": 0.0, "is_reserved": 0, "fusion_lat": 0.0, "type": "electric_scooter", "lat": 38.9097325, "name": "a12b73165c950c49036d5459b17fe9f2", "bike_id": "a12b73165c950c49036d5459b17fe9f2"}, {"is_disabled": 0, "rental_uris": {"ios": "https://dc.lft.to/lastmile_qr_scan", "android": "https://dc.lft.to/lastmile_qr_scan"}, "lon": -77.03199616666667, "fusion_lon": 0.0, "is_reserved": 0, "fusion_lat": 0.0, "type": "electric_scooter", "lat": 38.914660166666664, "name": "839f8a0354acc492287f2bc45a85de47", "bike_id": "839f8a0354acc492287f2bc45a85de47"}, {"is_disabled": 0, "rental_uris": {"ios": "https://dc.lft.to/lastmile_qr_scan", "android": "https://dc.lft.to/lastmile_qr_scan"}, "lon": -77.038346, "fusion_lon": 0.0, "is_reserved": 0, "fusion_lat": 0.0, "type": "electric_scooter", "lat": 38.9119305, "name": "d4aa08ce5b35ecda9b97c585d8b20e99", "bike_id": "d4aa08ce5b35ecda9b97c585d8b20e99"}, {"is_disabled": 0, "rental_uris": {"ios": "https://dc.lft.to/lastmile_qr_scan", "android": "https://dc.lft.to/lastmile_qr_scan"}, "lon": -76.98479183333333, "fusion_lon": 0.0, "is_reserved": 0, "fusion_lat": 0.0, "type": "electric_scooter", "lat": 38.900312, "name": "63d60b2c1751e0a422e2e42e35bba7a4", "bike_id": "63d60b2c1751e0a422e2e42e35bba7a4"}, {"is_disabled": 0, "rental_uris": {"ios": "https://dc.lft.to/lastmile_qr_scan", "android": "https://dc.lft.to/lastmile_qr_scan"}, "lon": -77.0133855, "fusion_lon": 0.0, "is_reserved": 0, "fusion_lat": 0.0, "type": "electric_scooter", "lat": 38.88121066666667, "name": "c14c98469743d9a462b3459345ea42b6", "bike_id": "c14c98469743d9a462b3459345ea42b6"}, {"is_disabled": 0, "rental_uris": {"ios": "https://dc.lft.to/lastmile_qr_scan", "android": "https://dc.lft.to/lastmile_qr_scan"}, "lon": -77.02965433333334, "fusion_lon": 0.0, "is_reserved": 0, "fusion_lat": 0.0, "type": "electric_scooter", "lat": 38.93247816666667, "name": "357ed69f4888364e5f8bbddeaf91a043", "bike_id": "357ed69f4888364e5f8bbddeaf91a043"}, {"is_disabled": 0, "rental_uris": {"ios": "https://dc.lft.to/lastmile_qr_scan", "android": "https://dc.lft.to/lastmile_qr_scan"}, "lon": -77.03291116666666, "fusion_lon": 0.0, "is_reserved": 0, "fusion_lat": 0.0, "type": "electric_scooter", "lat": 38.9245665, "name": "f50ffff7348583b8ede57eb151e546e5", "bike_id": "f50ffff7348583b8ede57eb151e546e5"}, {"is_disabled": 0, "rental_uris": {"ios": "https://dc.lft.to/lastmile_qr_scan", "android": "https://dc.lft.to/lastmile_qr_scan"}, "lon": -77.03780233333333, "fusion_lon": 0.0, "is_reserved": 0, "fusion_lat": 0.0, "type": "electric_scooter", "lat": 38.90730333333333, "name": "abdc8381af9f9220e7c34d8633dc5e1c", "bike_id": "abdc8381af9f9220e7c34d8633dc5e1c"}, {"is_disabled": 0, "rental_uris": {"ios": "https://dc.lft.to/lastmile_qr_scan", "android": "https://dc.lft.to/lastmile_qr_scan"}, "lon": -77.02501366666667, "fusion_lon": 0.0, "is_reserved": 0, "fusion_lat": 0.0, "type": "electric_scooter", "lat": 38.918124166666665, "name": "157b8495e707c9c81f95a8492f93f5ec", "bike_id": "157b8495e707c9c81f95a8492f93f5ec"}, {"is_disabled": 0, "rental_uris": {"ios": "https://dc.lft.to/lastmile_qr_scan", "android": "https://dc.lft.to/lastmile_qr_scan"}, "lon": -77.02257983333334, "fusion_lon": 0.0, "is_reserved": 0, "fusion_lat": 0.0, "type": "electric_scooter", "lat": 38.893670166666666, "name": "b0290053e3c9fe4888d5ab4ceea3febe", "bike_id": "b0290053e3c9fe4888d5ab4ceea3febe"}, {"is_disabled": 0, "rental_uris": {"ios": "https://dc.lft.to/lastmile_qr_scan", "android": "https://dc.lft.to/lastmile_qr_scan"}, "lon": -77.01706316666667, "fusion_lon": 0.0, "is_reserved": 0, "fusion_lat": 0.0, "type": "electric_scooter", "lat": 38.8729495, "name": "c9bcbf2d5cd5822091304ee07a3f0089", "bike_id": "c9bcbf2d5cd5822091304ee07a3f0089"}, {"is_disabled": 0, "rental_uris": {"ios": "https://dc.lft.to/lastmile_qr_scan", "android": "https://dc.lft.to/lastmile_qr_scan"}, "lon": -77.036285, "fusion_lon": 0.0, "is_reserved": 0, "fusion_lat": 0.0, "type": "electric_scooter", "lat": 38.90386316666667, "name": "e6a13d48954493329532df79058385c6", "bike_id": "e6a13d48954493329532df79058385c6"}, {"is_disabled": 0, "rental_uris": {"ios": "https://dc.lft.to/lastmile_qr_scan", "android": "https://dc.lft.to/lastmile_qr_scan"}, "lon": -76.92504466666666, "fusion_lon": 0.0, "is_reserved": 0, "fusion_lat": 0.0, "type": "electric_scooter", "lat": 38.88601533333333, "name": "7019eb3d7d2abde2e49e3c6120da53f6", "bike_id": "7019eb3d7d2abde2e49e3c6120da53f6"}, {"is_disabled": 0, "rental_uris": {"ios": "https://dc.lft.to/lastmile_qr_scan", "android": "https://dc.lft.to/lastmile_qr_scan"}, "lon": -76.92628916666666, "fusion_lon": 0.0, "is_reserved": 0, "fusion_lat": 0.0, "type": "electric_scooter", "lat": 38.88376016666667, "name": "aee2b80c19588a25378cbbc1930eff47", "bike_id": "aee2b80c19588a25378cbbc1930eff47"}, {"is_disabled": 0, "rental_uris": {"ios": "https://dc.lft.to/lastmile_qr_scan", "android": "https://dc.lft.to/lastmile_qr_scan"}, "lon": -77.04679, "fusion_lon": 0.0, "is_reserved": 0, "fusion_lat": 0.0, "type": "electric_scooter", "lat": 38.89829566666667, "name": "ef3f1e83aa077170568581fe3aa3bd06", "bike_id": "ef3f1e83aa077170568581fe3aa3bd06"}, {"is_disabled": 0, "rental_uris": {"ios": "https://dc.lft.to/lastmile_qr_scan", "android": "https://dc.lft.to/lastmile_qr_scan"}, "lon": -77.01612883333334, "fusion_lon": 0.0, "is_reserved": 0, "fusion_lat": 0.0, "type": "electric_scooter", "lat": 38.913106, "name": "729855dfdc237be53020509890ba416d", "bike_id": "729855dfdc237be53020509890ba416d"}, {"is_disabled": 0, "rental_uris": {"ios": "https://dc.lft.to/lastmile_qr_scan", "android": "https://dc.lft.to/lastmile_qr_scan"}, "lon": -77.05268066666666, "fusion_lon": 0.0, "is_reserved": 0, "fusion_lat": 0.0, "type": "electric_scooter", "lat": 38.92369733333334, "name": "641e953a5c5fc9b03a50f82b3c1abe9f", "bike_id": "641e953a5c5fc9b03a50f82b3c1abe9f"}, {"is_disabled": 0, "rental_uris": {"ios": "https://dc.lft.to/lastmile_qr_scan", "android": "https://dc.lft.to/lastmile_qr_scan"}, "lon": -77.04671783333333, "fusion_lon": 0.0, "is_reserved": 0, "fusion_lat": 0.0, "type": "electric_scooter", "lat": 38.905970833333335, "name": "7961f143e6751962f5b34626b488fdfd", "bike_id": "7961f143e6751962f5b34626b488fdfd"}, {"is_disabled": 0, "rental_uris": {"ios": "https://dc.lft.to/lastmile_qr_scan", "android": "https://dc.lft.to/lastmile_qr_scan"}, "lon": -77.01764083333333, "fusion_lon": 0.0, "is_reserved": 0, "fusion_lat": 0.0, "type": "electric_scooter", "lat": 38.87680816666666, "name": "295262f3ff55dfe06b6be3e0e37942a0", "bike_id": "295262f3ff55dfe06b6be3e0e37942a0"}, {"is_disabled": 0, "rental_uris": {"ios": "https://dc.lft.to/lastmile_qr_scan", "android": "https://dc.lft.to/lastmile_qr_scan"}, "lon": -77.0292115, "fusion_lon": 0.0, "is_reserved": 0, "fusion_lat": 0.0, "type": "electric_scooter", "lat": 38.9003, "name": "89c28dc9a581bc7ff37632eafc4cd5d6", "bike_id": "89c28dc9a581bc7ff37632eafc4cd5d6"}, {"is_disabled": 0, "rental_uris": {"ios": "https://dc.lft.to/lastmile_qr_scan", "android": "https://dc.lft.to/lastmile_qr_scan"}, "lon": -77.03634066666666, "fusion_lon": 0.0, "is_reserved": 0, "fusion_lat": 0.0, "type": "electric_scooter", "lat": 38.930588166666666, "name": "550654b0aead660e8639035aadb98a54", "bike_id": "550654b0aead660e8639035aadb98a54"}, {"is_disabled": 0, "rental_uris": {"ios": "https://dc.lft.to/lastmile_qr_scan", "android": "https://dc.lft.to/lastmile_qr_scan"}, "lon": -77.014387, "fusion_lon": 0.0, "is_reserved": 0, "fusion_lat": 0.0, "type": "electric_scooter", "lat": 38.909622, "name": "58a2fd64165a6a57e4560211a2e4c128", "bike_id": "58a2fd64165a6a57e4560211a2e4c128"}, {"is_disabled": 0, "rental_uris": {"ios": "https://dc.lft.to/lastmile_qr_scan", "android": "https://dc.lft.to/lastmile_qr_scan"}, "lon": -77.00219, "fusion_lon": 0.0, "is_reserved": 0, "fusion_lat": 0.0, "type": "electric_scooter", "lat": 38.900336833333334, "name": "e6ea2374c68c43ff8713a2f67c0df0b2", "bike_id": "e6ea2374c68c43ff8713a2f67c0df0b2"}, {"is_disabled": 0, "rental_uris": {"ios": "https://dc.lft.to/lastmile_qr_scan", "android": "https://dc.lft.to/lastmile_qr_scan"}, "lon": -76.97029833333333, "fusion_lon": 0.0, "is_reserved": 0, "fusion_lat": 0.0, "type": "electric_scooter", "lat": 38.8731815, "name": "4f978dc8479539b27acc527af73bbc60", "bike_id": "4f978dc8479539b27acc527af73bbc60"}, {"is_disabled": 0, "rental_uris": {"ios": "https://dc.lft.to/lastmile_qr_scan", "android": "https://dc.lft.to/lastmile_qr_scan"}, "lon": -77.00345366666667, "fusion_lon": 0.0, "is_reserved": 0, "fusion_lat": 0.0, "type": "electric_scooter", "lat": 38.87777966666667, "name": "058980f3e84e0cc21375e6f330a87ccd", "bike_id": "058980f3e84e0cc21375e6f330a87ccd"}, {"is_disabled": 0, "rental_uris": {"ios": "https://dc.lft.to/lastmile_qr_scan", "android": "https://dc.lft.to/lastmile_qr_scan"}, "lon": -77.0384815, "fusion_lon": 0.0, "is_reserved": 0, "fusion_lat": 0.0, "type": "electric_scooter", "lat": 38.909735166666664, "name": "20b04296e3f9209b722e1b74c49b3bdb", "bike_id": "20b04296e3f9209b722e1b74c49b3bdb"}, {"is_disabled": 0, "rental_uris": {"ios": "https://dc.lft.to/lastmile_qr_scan", "android": "https://dc.lft.to/lastmile_qr_scan"}, "lon": -77.04004416666666, "fusion_lon": 0.0, "is_reserved": 0, "fusion_lat": 0.0, "type": "electric_scooter", "lat": 38.93422616666667, "name": "cd747835158f4cdc035a7622b0437542", "bike_id": "cd747835158f4cdc035a7622b0437542"}, {"is_disabled": 0, "rental_uris": {"ios": "https://dc.lft.to/lastmile_qr_scan", "android": "https://dc.lft.to/lastmile_qr_scan"}, "lon": -77.02786983333333, "fusion_lon": 0.0, "is_reserved": 0, "fusion_lat": 0.0, "type": "electric_scooter", "lat": 38.96192533333333, "name": "e312906e162afc6748960c0a29f03539", "bike_id": "e312906e162afc6748960c0a29f03539"}, {"is_disabled": 0, "rental_uris": {"ios": "https://dc.lft.to/lastmile_qr_scan", "android": "https://dc.lft.to/lastmile_qr_scan"}, "lon": -77.02095183333333, "fusion_lon": 0.0, "is_reserved": 0, "fusion_lat": 0.0, "type": "electric_scooter", "lat": 38.881805, "name": "37a6fccb9b5e69d831a89c92636f15d4", "bike_id": "37a6fccb9b5e69d831a89c92636f15d4"}, {"is_disabled": 0, "rental_uris": {"ios": "https://dc.lft.to/lastmile_qr_scan", "android": "https://dc.lft.to/lastmile_qr_scan"}, "lon": -76.99371, "fusion_lon": 0.0, "is_reserved": 0, "fusion_lat": 0.0, "type": "electric_bike", "lat": 38.99102083333333, "name": "2aef4dce34d0368ae8e278cd1b2b74f6", "bike_id": "2aef4dce34d0368ae8e278cd1b2b74f6"}, {"is_disabled": 0, "rental_uris": {"ios": "https://dc.lft.to/lastmile_qr_scan", "android": "https://dc.lft.to/lastmile_qr_scan"}, "lon": -77.00747083333333, "fusion_lon": 0.0, "is_reserved": 0, "fusion_lat": 0.0, "type": "electric_scooter", "lat": 38.876052666666666, "name": "5b7259af47d6dcf1ac44a97eec8a8029", "bike_id": "5b7259af47d6dcf1ac44a97eec8a8029"}, {"is_disabled": 0, "rental_uris": {"ios": "https://dc.lft.to/lastmile_qr_scan", "android": "https://dc.lft.to/lastmile_qr_scan"}, "lon": -77.04184366666667, "fusion_lon": 0.0, "is_reserved": 0, "fusion_lat": 0.0, "type": "electric_scooter", "lat": 38.920533, "name": "5033e82a25692aaca1d875852c675205", "bike_id": "5033e82a25692aaca1d875852c675205"}, {"is_disabled": 0, "rental_uris": {"ios": "https://dc.lft.to/lastmile_qr_scan", "android": "https://dc.lft.to/lastmile_qr_scan"}, "lon": -77.01911166666666, "fusion_lon": 0.0, "is_reserved": 0, "fusion_lat": 0.0, "type": "electric_scooter", "lat": 38.92340866666667, "name": "09d52054b7813e885f7f91088993e509", "bike_id": "09d52054b7813e885f7f91088993e509"}, {"is_disabled": 0, "rental_uris": {"ios": "https://dc.lft.to/lastmile_qr_scan", "android": "https://dc.lft.to/lastmile_qr_scan"}, "lon": -76.99735716666666, "fusion_lon": 0.0, "is_reserved": 0, "fusion_lat": 0.0, "type": "electric_scooter", "lat": 38.92263, "name": "249e57aaa551ec92bb60d3412f2fc439", "bike_id": "249e57aaa551ec92bb60d3412f2fc439"}, {"is_disabled": 0, "rental_uris": {"ios": "https://dc.lft.to/lastmile_qr_scan", "android": "https://dc.lft.to/lastmile_qr_scan"}, "lon": -76.93629183333333, "fusion_lon": 0.0, "is_reserved": 0, "fusion_lat": 0.0, "type": "electric_scooter", "lat": 38.883522166666665, "name": "6367fd94c9a2539ce01cf7625054f74e", "bike_id": "6367fd94c9a2539ce01cf7625054f74e"}, {"is_disabled": 0, "rental_uris": {"ios": "https://dc.lft.to/lastmile_qr_scan", "android": "https://dc.lft.to/lastmile_qr_scan"}, "lon": -76.9423275, "fusion_lon": 0.0, "is_reserved": 0, "fusion_lat": 0.0, "type": "electric_bike", "lat": 38.890493666666664, "name": "ae7a40cec6e758c963aa9ded97b4e143", "bike_id": "ae7a40cec6e758c963aa9ded97b4e143"}, {"is_disabled": 0, "rental_uris": {"ios": "https://dc.lft.to/lastmile_qr_scan", "android": "https://dc.lft.to/lastmile_qr_scan"}, "lon": -77.02117416666667, "fusion_lon": 0.0, "is_reserved": 0, "fusion_lat": 0.0, "type": "electric_scooter", "lat": 38.923617166666666, "name": "873318c2c794c640f63b0d2d80a36935", "bike_id": "873318c2c794c640f63b0d2d80a36935"}, {"is_disabled": 0, "rental_uris": {"ios": "https://dc.lft.to/lastmile_qr_scan", "android": "https://dc.lft.to/lastmile_qr_scan"}, "lon": -77.06696266666667, "fusion_lon": 0.0, "is_reserved": 0, "fusion_lat": 0.0, "type": "electric_bike", "lat": 38.83169866666667, "name": "2dee704dce7d6c9340b3b020b7d811d9", "bike_id": "2dee704dce7d6c9340b3b020b7d811d9"}, {"is_disabled": 0, "rental_uris": {"ios": "https://dc.lft.to/lastmile_qr_scan", "android": "https://dc.lft.to/lastmile_qr_scan"}, "lon": -77.03726133333333, "fusion_lon": 0.0, "is_reserved": 0, "fusion_lat": 0.0, "type": "electric_scooter", "lat": 38.920303, "name": "efef9caecb845b8bf876b96bbed68388", "bike_id": "efef9caecb845b8bf876b96bbed68388"}, {"is_disabled": 0, "rental_uris": {"ios": "https://dc.lft.to/lastmile_qr_scan", "android": "https://dc.lft.to/lastmile_qr_scan"}, "lon": -77.02658633333333, "fusion_lon": 0.0, "is_reserved": 0, "fusion_lat": 0.0, "type": "electric_bike", "lat": 38.988163166666666, "name": "dff33ed3bd9a258050c12cb1da20e7a3", "bike_id": "dff33ed3bd9a258050c12cb1da20e7a3"}, {"is_disabled": 0, "rental_uris": {"ios": "https://dc.lft.to/lastmile_qr_scan", "android": "https://dc.lft.to/lastmile_qr_scan"}, "lon": -77.00487966666667, "fusion_lon": 0.0, "is_reserved": 0, "fusion_lat": 0.0, "type": "electric_scooter", "lat": 38.874582833333335, "name": "37c34951f069e3aef6c2a4e55c873f96", "bike_id": "37c34951f069e3aef6c2a4e55c873f96"}, {"is_disabled": 0, "rental_uris": {"ios": "https://dc.lft.to/lastmile_qr_scan", "android": "https://dc.lft.to/lastmile_qr_scan"}, "lon": -76.938055, "fusion_lon": 0.0, "is_reserved": 0, "fusion_lat": 0.0, "type": "electric_bike", "lat": 38.97974466666667, "name": "caba42474ae7edcd9728b0d1af29f195", "bike_id": "caba42474ae7edcd9728b0d1af29f195"}, {"is_disabled": 0, "rental_uris": {"ios": "https://dc.lft.to/lastmile_qr_scan", "android": "https://dc.lft.to/lastmile_qr_scan"}, "lon": -77.03362, "fusion_lon": 0.0, "is_reserved": 0, "fusion_lat": 0.0, "type": "electric_scooter", "lat": 38.92439433333333, "name": "c06d064ba45a111f69f1db5e83558721", "bike_id": "c06d064ba45a111f69f1db5e83558721"}, {"is_disabled": 0, "rental_uris": {"ios": "https://dc.lft.to/lastmile_qr_scan", "android": "https://dc.lft.to/lastmile_qr_scan"}, "lon": -77.0216825, "fusion_lon": 0.0, "is_reserved": 0, "fusion_lat": 0.0, "type": "electric_scooter", "lat": 38.9195015, "name": "02df4bb4dae4e06cdc6a0fc8502c07c6", "bike_id": "02df4bb4dae4e06cdc6a0fc8502c07c6"}, {"is_disabled": 0, "rental_uris": {"ios": "https://dc.lft.to/lastmile_qr_scan", "android": "https://dc.lft.to/lastmile_qr_scan"}, "lon": -77.03482616666666, "fusion_lon": 0.0, "is_reserved": 0, "fusion_lat": 0.0, "type": "electric_scooter", "lat": 38.928897, "name": "3a551f36183415a00faa248d2381a2df", "bike_id": "3a551f36183415a00faa248d2381a2df"}, {"is_disabled": 0, "rental_uris": {"ios": "https://dc.lft.to/lastmile_qr_scan", "android": "https://dc.lft.to/lastmile_qr_scan"}, "lon": -77.03263733333333, "fusion_lon": 0.0, "is_reserved": 0, "fusion_lat": 0.0, "type": "electric_scooter", "lat": 38.935249, "name": "c176a8ed4bba9505e8835c35a40cfae6", "bike_id": "c176a8ed4bba9505e8835c35a40cfae6"}, {"is_disabled": 0, "rental_uris": {"ios": "https://dc.lft.to/lastmile_qr_scan", "android": "https://dc.lft.to/lastmile_qr_scan"}, "lon": -77.00287916666667, "fusion_lon": 0.0, "is_reserved": 0, "fusion_lat": 0.0, "type": "electric_scooter", "lat": 38.892065333333335, "name": "9548ad3d540bdc5d141dfee955bf103b", "bike_id": "9548ad3d540bdc5d141dfee955bf103b"}, {"is_disabled": 0, "rental_uris": {"ios": "https://dc.lft.to/lastmile_qr_scan", "android": "https://dc.lft.to/lastmile_qr_scan"}, "lon": -77.04252716666667, "fusion_lon": 0.0, "is_reserved": 0, "fusion_lat": 0.0, "type": "electric_scooter", "lat": 38.919262833333335, "name": "2a0976795878945d98cb3c84998eed81", "bike_id": "2a0976795878945d98cb3c84998eed81"}, {"is_disabled": 0, "rental_uris": {"ios": "https://dc.lft.to/lastmile_qr_scan", "android": "https://dc.lft.to/lastmile_qr_scan"}, "lon": -77.04558083333333, "fusion_lon": 0.0, "is_reserved": 0, "fusion_lat": 0.0, "type": "electric_scooter", "lat": 38.9007595, "name": "4b0e4c1e9e997aa77804ba21b56a3d73", "bike_id": "4b0e4c1e9e997aa77804ba21b56a3d73"}, {"is_disabled": 0, "rental_uris": {"ios": "https://dc.lft.to/lastmile_qr_scan", "android": "https://dc.lft.to/lastmile_qr_scan"}, "lon": -77.03851416666667, "fusion_lon": 0.0, "is_reserved": 0, "fusion_lat": 0.0, "type": "electric_scooter", "lat": 38.90973616666667, "name": "4722daace528242e341f16139ff92fa4", "bike_id": "4722daace528242e341f16139ff92fa4"}, {"is_disabled": 0, "rental_uris": {"ios": "https://dc.lft.to/lastmile_qr_scan", "android": "https://dc.lft.to/lastmile_qr_scan"}, "lon": -77.036676, "fusion_lon": 0.0, "is_reserved": 0, "fusion_lat": 0.0, "type": "electric_scooter", "lat": 38.92274, "name": "8fa7ad5841c296d74a2210b6b4746cb8", "bike_id": "8fa7ad5841c296d74a2210b6b4746cb8"}, {"is_disabled": 0, "rental_uris": {"ios": "https://dc.lft.to/lastmile_qr_scan", "android": "https://dc.lft.to/lastmile_qr_scan"}, "lon": -77.0376695, "fusion_lon": 0.0, "is_reserved": 0, "fusion_lat": 0.0, "type": "electric_scooter", "lat": 38.906741833333335, "name": "7c6f11c41d31619918158fd4055ff61b", "bike_id": "7c6f11c41d31619918158fd4055ff61b"}, {"is_disabled": 0, "rental_uris": {"ios": "https://dc.lft.to/lastmile_qr_scan", "android": "https://dc.lft.to/lastmile_qr_scan"}, "lon": -77.04895283333333, "fusion_lon": 0.0, "is_reserved": 0, "fusion_lat": 0.0, "type": "electric_scooter", "lat": 38.900832333333334, "name": "7fd84616f8eaa5428618ac400b35caf7", "bike_id": "7fd84616f8eaa5428618ac400b35caf7"}, {"is_disabled": 0, "rental_uris": {"ios": "https://dc.lft.to/lastmile_qr_scan", "android": "https://dc.lft.to/lastmile_qr_scan"}, "lon": -76.99660033333333, "fusion_lon": 0.0, "is_reserved": 0, "fusion_lat": 0.0, "type": "electric_scooter", "lat": 38.93236433333333, "name": "6d45b6345634c77f57abe5359cb85013", "bike_id": "6d45b6345634c77f57abe5359cb85013"}, {"is_disabled": 0, "rental_uris": {"ios": "https://dc.lft.to/lastmile_qr_scan", "android": "https://dc.lft.to/lastmile_qr_scan"}, "lon": -77.0321705, "fusion_lon": 0.0, "is_reserved": 0, "fusion_lat": 0.0, "type": "electric_scooter", "lat": 38.91841016666667, "name": "4efc35b396b7e9cd92c766766ba96757", "bike_id": "4efc35b396b7e9cd92c766766ba96757"}, {"is_disabled": 0, "rental_uris": {"ios": "https://dc.lft.to/lastmile_qr_scan", "android": "https://dc.lft.to/lastmile_qr_scan"}, "lon": -77.047319, "fusion_lon": 0.0, "is_reserved": 0, "fusion_lat": 0.0, "type": "electric_scooter", "lat": 38.895535333333335, "name": "b47da811436c57755d7d607b7611c4fd", "bike_id": "b47da811436c57755d7d607b7611c4fd"}, {"is_disabled": 0, "rental_uris": {"ios": "https://dc.lft.to/lastmile_qr_scan", "android": "https://dc.lft.to/lastmile_qr_scan"}, "lon": -77.023284, "fusion_lon": 0.0, "is_reserved": 0, "fusion_lat": 0.0, "type": "electric_scooter", "lat": 38.89729883333333, "name": "6797378f746314386eb6f3f87e7dba82", "bike_id": "6797378f746314386eb6f3f87e7dba82"}, {"is_disabled": 0, "rental_uris": {"ios": "https://dc.lft.to/lastmile_qr_scan", "android": "https://dc.lft.to/lastmile_qr_scan"}, "lon": -77.069844, "fusion_lon": 0.0, "is_reserved": 0, "fusion_lat": 0.0, "type": "electric_scooter", "lat": 38.95530433333333, "name": "1a93f3d62663726a8f3af0a9733e8b6f", "bike_id": "1a93f3d62663726a8f3af0a9733e8b6f"}, {"is_disabled": 0, "rental_uris": {"ios": "https://dc.lft.to/lastmile_qr_scan", "android": "https://dc.lft.to/lastmile_qr_scan"}, "lon": -77.04618866666667, "fusion_lon": 0.0, "is_reserved": 0, "fusion_lat": 0.0, "type": "electric_scooter", "lat": 38.90277833333333, "name": "8e5e88327942661e66602f3c576cc6d8", "bike_id": "8e5e88327942661e66602f3c576cc6d8"}, {"is_disabled": 0, "rental_uris": {"ios": "https://dc.lft.to/lastmile_qr_scan", "android": "https://dc.lft.to/lastmile_qr_scan"}, "lon": -77.05002883333333, "fusion_lon": 0.0, "is_reserved": 0, "fusion_lat": 0.0, "type": "electric_scooter", "lat": 38.90532783333333, "name": "cdea49980cd5ff9f9c0f771600f48e8e", "bike_id": "cdea49980cd5ff9f9c0f771600f48e8e"}, {"is_disabled": 0, "rental_uris": {"ios": "https://dc.lft.to/lastmile_qr_scan", "android": "https://dc.lft.to/lastmile_qr_scan"}, "lon": -76.93189816666667, "fusion_lon": 0.0, "is_reserved": 0, "fusion_lat": 0.0, "type": "electric_scooter", "lat": 38.8985775, "name": "25418624cc7dcbab539a31e1c8b9f628", "bike_id": "25418624cc7dcbab539a31e1c8b9f628"}, {"is_disabled": 0, "rental_uris": {"ios": "https://dc.lft.to/lastmile_qr_scan", "android": "https://dc.lft.to/lastmile_qr_scan"}, "lon": -77.05759616666667, "fusion_lon": 0.0, "is_reserved": 0, "fusion_lat": 0.0, "type": "electric_scooter", "lat": 38.92444833333333, "name": "62e981880364a893b600d332697c75f4", "bike_id": "62e981880364a893b600d332697c75f4"}, {"is_disabled": 0, "rental_uris": {"ios": "https://dc.lft.to/lastmile_qr_scan", "android": "https://dc.lft.to/lastmile_qr_scan"}, "lon": -77.0101695, "fusion_lon": 0.0, "is_reserved": 0, "fusion_lat": 0.0, "type": "electric_scooter", "lat": 38.912675, "name": "1d0cd8244ba2fd8c1a76e60eab2113e7", "bike_id": "1d0cd8244ba2fd8c1a76e60eab2113e7"}, {"is_disabled": 0, "rental_uris": {"ios": "https://dc.lft.to/lastmile_qr_scan", "android": "https://dc.lft.to/lastmile_qr_scan"}, "lon": -77.03665066666667, "fusion_lon": 0.0, "is_reserved": 0, "fusion_lat": 0.0, "type": "electric_scooter", "lat": 38.9227385, "name": "7fa444a756b66bf7348ec050a0bfbf3a", "bike_id": "7fa444a756b66bf7348ec050a0bfbf3a"}, {"is_disabled": 0, "rental_uris": {"ios": "https://dc.lft.to/lastmile_qr_scan", "android": "https://dc.lft.to/lastmile_qr_scan"}, "lon": -77.05168633333334, "fusion_lon": 0.0, "is_reserved": 0, "fusion_lat": 0.0, "type": "electric_scooter", "lat": 38.903232333333335, "name": "ce8397ae8b33aa98604ef457fc2a37cb", "bike_id": "ce8397ae8b33aa98604ef457fc2a37cb"}, {"is_disabled": 0, "rental_uris": {"ios": "https://dc.lft.to/lastmile_qr_scan", "android": "https://dc.lft.to/lastmile_qr_scan"}, "lon": -77.01559916666666, "fusion_lon": 0.0, "is_reserved": 0, "fusion_lat": 0.0, "type": "electric_scooter", "lat": 38.8860035, "name": "50f0c9a3fe77881dbbe32df746053fca", "bike_id": "50f0c9a3fe77881dbbe32df746053fca"}, {"is_disabled": 0, "rental_uris": {"ios": "https://dc.lft.to/lastmile_qr_scan", "android": "https://dc.lft.to/lastmile_qr_scan"}, "lon": -77.0217765, "fusion_lon": 0.0, "is_reserved": 0, "fusion_lat": 0.0, "type": "electric_scooter", "lat": 38.9429235, "name": "51be7364f90ec9c1dd099083281d455d", "bike_id": "51be7364f90ec9c1dd099083281d455d"}, {"is_disabled": 0, "rental_uris": {"ios": "https://dc.lft.to/lastmile_qr_scan", "android": "https://dc.lft.to/lastmile_qr_scan"}, "lon": -77.01184683333334, "fusion_lon": 0.0, "is_reserved": 0, "fusion_lat": 0.0, "type": "electric_scooter", "lat": 38.90008616666667, "name": "b41dc8f19be835875a196a0b04cd4597", "bike_id": "b41dc8f19be835875a196a0b04cd4597"}, {"is_disabled": 0, "rental_uris": {"ios": "https://dc.lft.to/lastmile_qr_scan", "android": "https://dc.lft.to/lastmile_qr_scan"}, "lon": -76.99732016666667, "fusion_lon": 0.0, "is_reserved": 0, "fusion_lat": 0.0, "type": "electric_scooter", "lat": 38.9204075, "name": "1da7ab2224f93c8caac36d8aea7fa34e", "bike_id": "1da7ab2224f93c8caac36d8aea7fa34e"}, {"is_disabled": 0, "rental_uris": {"ios": "https://dc.lft.to/lastmile_qr_scan", "android": "https://dc.lft.to/lastmile_qr_scan"},