{"data": {"bikes": [{"fusion_lon": 0.0, "is_reserved": 0, "type": "electric_scooter", "lon": -77.02203966666667, "fusion_lat": 0.0, "name": "83a402b511d793b6ec833b4f5c228b2a", "bike_id": "83a402b511d793b6ec833b4f5c228b2a", "lat": 38.9210935, "is_disabled": 0, "rental_uris": {"ios": "https://dc.lft.to/lastmile_qr_scan", "android": "https://dc.lft.to/lastmile_qr_scan"}}, {"fusion_lon": 0.0, "is_reserved": 0, "type": "electric_bike", "lon": -77.01407633333334, "fusion_lat": 0.0, "name": "98097f5610a479422977f73e97b8f1fe", "bike_id": "98097f5610a479422977f73e97b8f1fe", "lat": 38.958781, "is_disabled": 0, "rental_uris": {"ios": "https://dc.lft.to/lastmile_qr_scan", "android": "https://dc.lft.to/lastmile_qr_scan"}}, {"fusion_lon": 0.0, "is_reserved": 0, "type": "electric_scooter", "lon": -77.01922616666667, "fusion_lat": 0.0, "name": "b24bf77364cd7474e4f377fc56cf080a", "bike_id": "b24bf77364cd7474e4f377fc56cf080a", "lat": 38.917788, "is_disabled": 0, "rental_uris": {"ios": "https://dc.lft.to/lastmile_qr_scan", "android": "https://dc.lft.to/lastmile_qr_scan"}}, {"fusion_lon": 0.0, "is_reserved": 0, "type": "electric_scooter", "lon": -77.0467785, "fusion_lat": 0.0, "name": "db507f890053b1e9d817c92d7af72dc7", "bike_id": "db507f890053b1e9d817c92d7af72dc7", "lat": 38.91662683333333, "is_disabled": 0, "rental_uris": {"ios": "https://dc.lft.to/lastmile_qr_scan", "android": "https://dc.lft.to/lastmile_qr_scan"}}, {"fusion_lon": 0.0, "is_reserved": 0, "type": "electric_bike", "lon": -76.90753050000001, "fusion_lat": 0.0, "name": "065178c4fd345f259830bc82455f985b", "bike_id": "065178c4fd345f259830bc82455f985b", "lat": 38.896246833333336, "is_disabled": 0, "rental_uris": {"ios": "https://dc.lft.to/lastmile_qr_scan", "android": "https://dc.lft.to/lastmile_qr_scan"}}, {"fusion_lon": 0.0, "is_reserved": 0, "type": "electric_scooter", "lon": -77.03098016666667, "fusion_lat": 0.0, "name": "373efd325a63f9827e0d3fdbc484ba17", "bike_id": "373efd325a63f9827e0d3fdbc484ba17", "lat": 38.910157833333336, "is_disabled": 0, "rental_uris": {"ios": "https://dc.lft.to/lastmile_qr_scan", "android": "https://dc.lft.to/lastmile_qr_scan"}}, {"fusion_lon": 0.0, "is_reserved": 0, "type": "electric_scooter", "lon": -77.0342305, "fusion_lat": 0.0, "name": "fc6551d63a28765348693a58558568c2", "bike_id": "fc6551d63a28765348693a58558568c2", "lat": 38.92245283333333, "is_disabled": 0, "rental_uris": {"ios": "https://dc.lft.to/lastmile_qr_scan", "android": "https://dc.lft.to/lastmile_qr_scan"}}, {"fusion_lon": 0.0, "is_reserved": 0, "type": "electric_scooter", "lon": -77.00385483333334, "fusion_lat": 0.0, "name": "9e3a326b84d7530785593d172d1f7919", "bike_id": "9e3a326b84d7530785593d172d1f7919", "lat": 38.91065416666667, "is_disabled": 0, "rental_uris": {"ios": "https://dc.lft.to/lastmile_qr_scan", "android": "https://dc.lft.to/lastmile_qr_scan"}}, {"fusion_lon": 0.0, "is_reserved": 0, "type": "electric_scooter", "lon": -77.022307, "fusion_lat": 0.0, "name": "90e00b44f6d579a03b5dd6e0a3fad5b0", "bike_id": "90e00b44f6d579a03b5dd6e0a3fad5b0", "lat": 38.9568215, "is_disabled": 0, "rental_uris": {"ios": "https://dc.lft.to/lastmile_qr_scan", "android": "https://dc.lft.to/lastmile_qr_scan"}}, {"fusion_lon": 0.0, "is_reserved": 0, "type": "electric_scooter", "lon": -77.03794683333334, "fusion_lat": 0.0, "name": "f52b7c4cf2820a86a3505323aae7077b", "bike_id": "f52b7c4cf2820a86a3505323aae7077b", "lat": 38.92503283333333, "is_disabled": 0, "rental_uris": {"ios": "https://dc.lft.to/lastmile_qr_scan", "android": "https://dc.lft.to/lastmile_qr_scan"}}, {"fusion_lon": 0.0, "is_reserved": 0, "type": "electric_scooter", "lon": -77.03961983333333, "fusion_lat": 0.0, "name": "4d465c68724622fa172094d420b25653", "bike_id": "4d465c68724622fa172094d420b25653", "lat": 38.9025555, "is_disabled": 0, "rental_uris": {"ios": "https://dc.lft.to/lastmile_qr_scan", "android": "https://dc.lft.to/lastmile_qr_scan"}}, {"fusion_lon": 0.0, "is_reserved": 0, "type": "electric_scooter", "lon": -76.965465, "fusion_lat": 0.0, "name": "c3033587ce99321e4b24a3ea583709b8", "bike_id": "c3033587ce99321e4b24a3ea583709b8", "lat": 38.8788605, "is_disabled": 0, "rental_uris": {"ios": "https://dc.lft.to/lastmile_qr_scan", "android": "https://dc.lft.to/lastmile_qr_scan"}}, {"fusion_lon": 0.0, "is_reserved": 0, "type": "electric_scooter", "lon": -77.024394, "fusion_lat": 0.0, "name": "430a15bb94bada81c838c31291bf8138", "bike_id": "430a15bb94bada81c838c31291bf8138", "lat": 38.956286, "is_disabled": 0, "rental_uris": {"ios": "https://dc.lft.to/lastmile_qr_scan", "android": "https://dc.lft.to/lastmile_qr_scan"}}, {"fusion_lon": 0.0, "is_reserved": 0, "type": "electric_scooter", "lon": -77.01523966666667, "fusion_lat": 0.0, "name": "3eab93fb8c26a2057079d06abeab5b12", "bike_id": "3eab93fb8c26a2057079d06abeab5b12", "lat": 38.92699133333333, "is_disabled": 0, "rental_uris": {"ios": "https://dc.lft.to/lastmile_qr_scan", "android": "https://dc.lft.to/lastmile_qr_scan"}}, {"fusion_lon": 0.0, "is_reserved": 0, "type": "electric_scooter", "lon": -77.02964866666667, "fusion_lat": 0.0, "name": "50fd701cd5cd4c9b13caf3673a4475a3", "bike_id": "50fd701cd5cd4c9b13caf3673a4475a3", "lat": 38.916783, "is_disabled": 0, "rental_uris": {"ios": "https://dc.lft.to/lastmile_qr_scan", "android": "https://dc.lft.to/lastmile_qr_scan"}}, {"fusion_lon": 0.0, "is_reserved": 0, "type": "electric_scooter", "lon": -77.03918116666667, "fusion_lat": 0.0, "name": "d6b8a1c1eb3511dca95715d9ed74f22b", "bike_id": "d6b8a1c1eb3511dca95715d9ed74f22b", "lat": 38.899004, "is_disabled": 0, "rental_uris": {"ios": "https://dc.lft.to/lastmile_qr_scan", "android": "https://dc.lft.to/lastmile_qr_scan"}}, {"fusion_lon": 0.0, "is_reserved": 0, "type": "electric_scooter", "lon": -77.04884333333334, "fusion_lat": 0.0, "name": "10e7159ece1ae7605462004de9dd7694", "bike_id": "10e7159ece1ae7605462004de9dd7694", "lat": 38.899018166666664, "is_disabled": 0, "rental_uris": {"ios": "https://dc.lft.to/lastmile_qr_scan", "android": "https://dc.lft.to/lastmile_qr_scan"}}, {"fusion_lon": 0.0, "is_reserved": 0, "type": "electric_scooter", "lon": -77.00674483333333, "fusion_lat": 0.0, "name": "1cd50daa98306902b661c819faeea406", "bike_id": "1cd50daa98306902b661c819faeea406", "lat": 38.929307333333334, "is_disabled": 0, "rental_uris": {"ios": "https://dc.lft.to/lastmile_qr_scan", "android": "https://dc.lft.to/lastmile_qr_scan"}}, {"fusion_lon": 0.0, "is_reserved": 0, "type": "electric_scooter", "lon": -76.99502766666667, "fusion_lat": 0.0, "name": "0d09a914c570e63c87606e0208cfc84b", "bike_id": "0d09a914c570e63c87606e0208cfc84b", "lat": 38.895112, "is_disabled": 0, "rental_uris": {"ios": "https://dc.lft.to/lastmile_qr_scan", "android": "https://dc.lft.to/lastmile_qr_scan"}}, {"fusion_lon": 0.0, "is_reserved": 0, "type": "electric_scooter", "lon": -77.02807633333333, "fusion_lat": 0.0, "name": "5ecb3bb5c0c5245d0f40bbdbd80ef691", "bike_id": "5ecb3bb5c0c5245d0f40bbdbd80ef691", "lat": 38.93182083333333, "is_disabled": 0, "rental_uris": {"ios": "https://dc.lft.to/lastmile_qr_scan", "android": "https://dc.lft.to/lastmile_qr_scan"}}, {"fusion_lon": 0.0, "is_reserved": 0, "type": "electric_bike", "lon": -77.038083, "fusion_lat": 0.0, "name": "544d17ca568e4e5ecff3a588e8c7778c", "bike_id": "544d17ca568e4e5ecff3a588e8c7778c", "lat": 38.92321333333334, "is_disabled": 0, "rental_uris": {"ios": "https://dc.lft.to/lastmile_qr_scan", "android": "https://dc.lft.to/lastmile_qr_scan"}}, {"fusion_lon": 0.0, "is_reserved": 0, "type": "electric_scooter", "lon": -77.0035595, "fusion_lat": 0.0, "name": "8f155fbe705e58d44e54ad859ec10605", "bike_id": "8f155fbe705e58d44e54ad859ec10605", "lat": 38.892647833333335, "is_disabled": 0, "rental_uris": {"ios": "https://dc.lft.to/lastmile_qr_scan", "android": "https://dc.lft.to/lastmile_qr_scan"}}, {"fusion_lon": 0.0, "is_reserved": 0, "type": "electric_scooter", "lon": -77.04672033333334, "fusion_lat": 0.0, "name": "dd6aad32974f29f4ab41525cfb9b6f4d", "bike_id": "dd6aad32974f29f4ab41525cfb9b6f4d", "lat": 38.91662816666667, "is_disabled": 0, "rental_uris": {"ios": "https://dc.lft.to/lastmile_qr_scan", "android": "https://dc.lft.to/lastmile_qr_scan"}}, {"fusion_lon": 0.0, "is_reserved": 0, "type": "electric_scooter", "lon": -77.029586, "fusion_lat": 0.0, "name": "6f270d7a947ae5b818ac6fdde0b5eb61", "bike_id": "6f270d7a947ae5b818ac6fdde0b5eb61", "lat": 38.91791966666667, "is_disabled": 0, "rental_uris": {"ios": "https://dc.lft.to/lastmile_qr_scan", "android": "https://dc.lft.to/lastmile_qr_scan"}}, {"fusion_lon": 0.0, "is_reserved": 0, "type": "electric_scooter", "lon": -77.00752733333333, "fusion_lat": 0.0, "name": "b8d99ac49891c8658211eee6b48d7bbd", "bike_id": "b8d99ac49891c8658211eee6b48d7bbd", "lat": 38.907582166666664, "is_disabled": 0, "rental_uris": {"ios": "https://dc.lft.to/lastmile_qr_scan", "android": "https://dc.lft.to/lastmile_qr_scan"}}, {"fusion_lon": 0.0, "is_reserved": 0, "type": "electric_scooter", "lon": -77.02597933333334, "fusion_lat": 0.0, "name": "9a1e2fdda6c9d01434b27f3a3295ab96", "bike_id": "9a1e2fdda6c9d01434b27f3a3295ab96", "lat": 38.920299, "is_disabled": 0, "rental_uris": {"ios": "https://dc.lft.to/lastmile_qr_scan", "android": "https://dc.lft.to/lastmile_qr_scan"}}, {"fusion_lon": 0.0, "is_reserved": 0, "type": "electric_scooter", "lon": -76.93447866666666, "fusion_lat": 0.0, "name": "6e3d4c8ad1dd00429d83c221fd0ced16", "bike_id": "6e3d4c8ad1dd00429d83c221fd0ced16", "lat": 38.90843733333333, "is_disabled": 0, "rental_uris": {"ios": "https://dc.lft.to/lastmile_qr_scan", "android": "https://dc.lft.to/lastmile_qr_scan"}}, {"fusion_lon": 0.0, "is_reserved": 0, "type": "electric_scooter", "lon": -77.024286, "fusion_lat": 0.0, "name": "b5c2e48b1eacac46aaaa3bee6e9df586", "bike_id": "b5c2e48b1eacac46aaaa3bee6e9df586", "lat": 38.967947333333335, "is_disabled": 0, "rental_uris": {"ios": "https://dc.lft.to/lastmile_qr_scan", "android": "https://dc.lft.to/lastmile_qr_scan"}}, {"fusion_lon": 0.0, "is_reserved": 0, "type": "electric_scooter", "lon": -77.03178883333334, "fusion_lat": 0.0, "name": "4df023c984fbdd57d8f986f7f3060432", "bike_id": "4df023c984fbdd57d8f986f7f3060432", "lat": 38.914162833333336, "is_disabled": 0, "rental_uris": {"ios": "https://dc.lft.to/lastmile_qr_scan", "android": "https://dc.lft.to/lastmile_qr_scan"}}, {"fusion_lon": 0.0, "is_reserved": 0, "type": "electric_scooter", "lon": -77.02684116666667, "fusion_lat": 0.0, "name": "c982075a54169e7643e8e58fb94e5861", "bike_id": "c982075a54169e7643e8e58fb94e5861", "lat": 38.8945125, "is_disabled": 0, "rental_uris": {"ios": "https://dc.lft.to/lastmile_qr_scan", "android": "https://dc.lft.to/lastmile_qr_scan"}}, {"fusion_lon": 0.0, "is_reserved": 0, "type": "electric_scooter", "lon": -77.02946466666667, "fusion_lat": 0.0, "name": "22aecf7cf01a1f32f09c579650a7ab11", "bike_id": "22aecf7cf01a1f32f09c579650a7ab11", "lat": 38.916758333333334, "is_disabled": 0, "rental_uris": {"ios": "https://dc.lft.to/lastmile_qr_scan", "android": "https://dc.lft.to/lastmile_qr_scan"}}, {"fusion_lon": 0.0, "is_reserved": 0, "type": "electric_scooter", "lon": -77.02436433333334, "fusion_lat": 0.0, "name": "073085c40289f8767c1459a70d75c274", "bike_id": "073085c40289f8767c1459a70d75c274", "lat": 38.922608833333335, "is_disabled": 0, "rental_uris": {"ios": "https://dc.lft.to/lastmile_qr_scan", "android": "https://dc.lft.to/lastmile_qr_scan"}}, {"fusion_lon": 0.0, "is_reserved": 0, "type": "electric_scooter", "lon": -77.0225945, "fusion_lat": 0.0, "name": "e75baf503c5911f269cfef79790d5b6e", "bike_id": "e75baf503c5911f269cfef79790d5b6e", "lat": 38.925506, "is_disabled": 0, "rental_uris": {"ios": "https://dc.lft.to/lastmile_qr_scan", "android": "https://dc.lft.to/lastmile_qr_scan"}}, {"fusion_lon": 0.0, "is_reserved": 0, "type": "electric_scooter", "lon": -77.03099566666667, "fusion_lat": 0.0, "name": "3f4603b8d85b5316ec4b9be6b8262638", "bike_id": "3f4603b8d85b5316ec4b9be6b8262638", "lat": 38.92378583333333, "is_disabled": 0, "rental_uris": {"ios": "https://dc.lft.to/lastmile_qr_scan", "android": "https://dc.lft.to/lastmile_qr_scan"}}, {"fusion_lon": 0.0, "is_reserved": 0, "type": "electric_scooter", "lon": -77.02654716666666, "fusion_lat": 0.0, "name": "26a617b7b71516b733ad8e01e1824689", "bike_id": "26a617b7b71516b733ad8e01e1824689", "lat": 38.975471666666664, "is_disabled": 0, "rental_uris": {"ios": "https://dc.lft.to/lastmile_qr_scan", "android": "https://dc.lft.to/lastmile_qr_scan"}}, {"fusion_lon": 0.0, "is_reserved": 0, "type": "electric_bike", "lon": -76.9451875, "fusion_lat": 0.0, "name": "e251da01621e13de43d2cd5f90e15e2c", "bike_id": "e251da01621e13de43d2cd5f90e15e2c", "lat": 38.86282416666667, "is_disabled": 0, "rental_uris": {"ios": "https://dc.lft.to/lastmile_qr_scan", "android": "https://dc.lft.to/lastmile_qr_scan"}}, {"fusion_lon": 0.0, "is_reserved": 0, "type": "electric_scooter", "lon": -77.04179233333333, "fusion_lat": 0.0, "name": "3817a5b31113fd40cd3d68cbbe36aae1", "bike_id": "3817a5b31113fd40cd3d68cbbe36aae1", "lat": 38.9000285, "is_disabled": 0, "rental_uris": {"ios": "https://dc.lft.to/lastmile_qr_scan", "android": "https://dc.lft.to/lastmile_qr_scan"}}, {"fusion_lon": 0.0, "is_reserved": 0, "type": "electric_scooter", "lon": -77.04670316666666, "fusion_lat": 0.0, "name": "5d97771155708c2da5197eba0c18b875", "bike_id": "5d97771155708c2da5197eba0c18b875", "lat": 38.90966216666666, "is_disabled": 0, "rental_uris": {"ios": "https://dc.lft.to/lastmile_qr_scan", "android": "https://dc.lft.to/lastmile_qr_scan"}}, {"fusion_lon": 0.0, "is_reserved": 0, "type": "electric_scooter", "lon": -77.04200116666667, "fusion_lat": 0.0, "name": "d93694345927c1bc5e5286314f2ab57c", "bike_id": "d93694345927c1bc5e5286314f2ab57c", "lat": 38.923332, "is_disabled": 0, "rental_uris": {"ios": "https://dc.lft.to/lastmile_qr_scan", "android": "https://dc.lft.to/lastmile_qr_scan"}}, {"fusion_lon": 0.0, "is_reserved": 0, "type": "electric_scooter", "lon": -77.032193, "fusion_lat": 0.0, "name": "b9be0c653f45edf52e36aad2ea0056ae", "bike_id": "b9be0c653f45edf52e36aad2ea0056ae", "lat": 38.928671666666666, "is_disabled": 0, "rental_uris": {"ios": "https://dc.lft.to/lastmile_qr_scan", "android": "https://dc.lft.to/lastmile_qr_scan"}}, {"fusion_lon": 0.0, "is_reserved": 0, "type": "electric_scooter", "lon": -77.07302616666666, "fusion_lat": 0.0, "name": "f8890d53b0f0ce69112ec9d82cb4523b", "bike_id": "f8890d53b0f0ce69112ec9d82cb4523b", "lat": 38.935457666666665, "is_disabled": 0, "rental_uris": {"ios": "https://dc.lft.to/lastmile_qr_scan", "android": "https://dc.lft.to/lastmile_qr_scan"}}, {"fusion_lon": 0.0, "is_reserved": 0, "type": "electric_scooter", "lon": -77.07511783333334, "fusion_lat": 0.0, "name": "cec5e56e93a94dfa2df1da229d791584", "bike_id": "cec5e56e93a94dfa2df1da229d791584", "lat": 38.906688333333335, "is_disabled": 0, "rental_uris": {"ios": "https://dc.lft.to/lastmile_qr_scan", "android": "https://dc.lft.to/lastmile_qr_scan"}}, {"fusion_lon": 0.0, "is_reserved": 0, "type": "electric_scooter", "lon": -77.03121866666666, "fusion_lat": 0.0, "name": "6d4f21a963d6cc218cea956d11a18847", "bike_id": "6d4f21a963d6cc218cea956d11a18847", "lat": 38.923791666666666, "is_disabled": 0, "rental_uris": {"ios": "https://dc.lft.to/lastmile_qr_scan", "android": "https://dc.lft.to/lastmile_qr_scan"}}, {"fusion_lon": 0.0, "is_reserved": 0, "type": "electric_scooter", "lon": -76.97941216666666, "fusion_lat": 0.0, "name": "0785d7f1c0abf0764ce01b454ad6eaa8", "bike_id": "0785d7f1c0abf0764ce01b454ad6eaa8", "lat": 38.90651533333333, "is_disabled": 0, "rental_uris": {"ios": "https://dc.lft.to/lastmile_qr_scan", "android": "https://dc.lft.to/lastmile_qr_scan"}}, {"fusion_lon": 0.0, "is_reserved": 0, "type": "electric_scooter", "lon": -77.007408, "fusion_lat": 0.0, "name": "738034ba38e526a12931f2ade6816248", "bike_id": "738034ba38e526a12931f2ade6816248", "lat": 38.898441166666665, "is_disabled": 0, "rental_uris": {"ios": "https://dc.lft.to/lastmile_qr_scan", "android": "https://dc.lft.to/lastmile_qr_scan"}}, {"fusion_lon": 0.0, "is_reserved": 0, "type": "electric_scooter", "lon": -77.060454, "fusion_lat": 0.0, "name": "7a3fcfadb456849e2b43b3334db11ee7", "bike_id": "7a3fcfadb456849e2b43b3334db11ee7", "lat": 38.90511016666667, "is_disabled": 0, "rental_uris": {"ios": "https://dc.lft.to/lastmile_qr_scan", "android": "https://dc.lft.to/lastmile_qr_scan"}}, {"fusion_lon": 0.0, "is_reserved": 0, "type": "electric_bike", "lon": -77.019892, "fusion_lat": 0.0, "name": "756fd78cb6504d5973e07536069d900e", "bike_id": "756fd78cb6504d5973e07536069d900e", "lat": 38.91556333333333, "is_disabled": 0, "rental_uris": {"ios": "https://dc.lft.to/lastmile_qr_scan", "android": "https://dc.lft.to/lastmile_qr_scan"}}, {"fusion_lon": 0.0, "is_reserved": 0, "type": "electric_bike", "lon": -77.03686766666667, "fusion_lat": 0.0, "name": "66cd7974be5ab148c65098eb35ea449e", "bike_id": "66cd7974be5ab148c65098eb35ea449e", "lat": 39.0264595, "is_disabled": 0, "rental_uris": {"ios": "https://dc.lft.to/lastmile_qr_scan", "android": "https://dc.lft.to/lastmile_qr_scan"}}, {"fusion_lon": 0.0, "is_reserved": 0, "type": "electric_scooter", "lon": -77.03622033333333, "fusion_lat": 0.0, "name": "22f9f5b4a5f354f58c2010118d5d940c", "bike_id": "22f9f5b4a5f354f58c2010118d5d940c", "lat": 38.900265166666664, "is_disabled": 0, "rental_uris": {"ios": "https://dc.lft.to/lastmile_qr_scan", "android": "https://dc.lft.to/lastmile_qr_scan"}}, {"fusion_lon": 0.0, "is_reserved": 0, "type": "electric_scooter", "lon": -77.00918133333333, "fusion_lat": 0.0, "name": "35136d6ea5de41f80560669fa5660452", "bike_id": "35136d6ea5de41f80560669fa5660452", "lat": 38.91472666666667, "is_disabled": 0, "rental_uris": {"ios": "https://dc.lft.to/lastmile_qr_scan", "android": "https://dc.lft.to/lastmile_qr_scan"}}, {"fusion_lon": 0.0, "is_reserved": 0, "type": "electric_scooter", "lon": -76.95198933333333, "fusion_lat": 0.0, "name": "8549dc60a8b590453a0ebed93af293af", "bike_id": "8549dc60a8b590453a0ebed93af293af", "lat": 38.9050545, "is_disabled": 0, "rental_uris": {"ios": "https://dc.lft.to/lastmile_qr_scan", "android": "https://dc.lft.to/lastmile_qr_scan"}}, {"fusion_lon": 0.0, "is_reserved": 0, "type": "electric_scooter", "lon": -77.00163883333333, "fusion_lat": 0.0, "name": "5a4958ce1503d0ad1c52ec7c6c284e68", "bike_id": "5a4958ce1503d0ad1c52ec7c6c284e68", "lat": 38.90733183333333, "is_disabled": 0, "rental_uris": {"ios": "https://dc.lft.to/lastmile_qr_scan", "android": "https://dc.lft.to/lastmile_qr_scan"}}, {"fusion_lon": 0.0, "is_reserved": 0, "type": "electric_scooter", "lon": -76.995585, "fusion_lat": 0.0, "name": "58df2cf35c3ee60e9e20c2765a7b795d", "bike_id": "58df2cf35c3ee60e9e20c2765a7b795d", "lat": 38.925062, "is_disabled": 0, "rental_uris": {"ios": "https://dc.lft.to/lastmile_qr_scan", "android": "https://dc.lft.to/lastmile_qr_scan"}}, {"fusion_lon": 0.0, "is_reserved": 0, "type": "electric_scooter", "lon": -77.04333483333333, "fusion_lat": 0.0, "name": "662a36b512dd62c832397d21ace7ff77", "bike_id": "662a36b512dd62c832397d21ace7ff77", "lat": 38.8922235, "is_disabled": 0, "rental_uris": {"ios": "https://dc.lft.to/lastmile_qr_scan", "android": "https://dc.lft.to/lastmile_qr_scan"}}, {"fusion_lon": 0.0, "is_reserved": 0, "type": "electric_scooter", "lon": -76.92634166666667, "fusion_lat": 0.0, "name": "c75f2ae82ffdeaee6d734d122e1de51a", "bike_id": "c75f2ae82ffdeaee6d734d122e1de51a", "lat": 38.88622983333333, "is_disabled": 0, "rental_uris": {"ios": "https://dc.lft.to/lastmile_qr_scan", "android": "https://dc.lft.to/lastmile_qr_scan"}}, {"fusion_lon": 0.0, "is_reserved": 0, "type": "electric_scooter", "lon": -77.052055, "fusion_lat": 0.0, "name": "cb7905744242a989f4d3686a40b36080", "bike_id": "cb7905744242a989f4d3686a40b36080", "lat": 38.914142166666664, "is_disabled": 0, "rental_uris": {"ios": "https://dc.lft.to/lastmile_qr_scan", "android": "https://dc.lft.to/lastmile_qr_scan"}}, {"fusion_lon": 0.0, "is_reserved": 0, "type": "electric_scooter", "lon": -77.02691433333334, "fusion_lat": 0.0, "name": "ddf9bc97351b488c144173e125cdee0f", "bike_id": "ddf9bc97351b488c144173e125cdee0f", "lat": 38.943302333333335, "is_disabled": 0, "rental_uris": {"ios": "https://dc.lft.to/lastmile_qr_scan", "android": "https://dc.lft.to/lastmile_qr_scan"}}, {"fusion_lon": 0.0, "is_reserved": 0, "type": "electric_scooter", "lon": -77.027091, "fusion_lat": 0.0, "name": "f57b8e39dd8a02c9ff66b5f209517491", "bike_id": "f57b8e39dd8a02c9ff66b5f209517491", "lat": 38.90006283333334, "is_disabled": 0, "rental_uris": {"ios": "https://dc.lft.to/lastmile_qr_scan", "android": "https://dc.lft.to/lastmile_qr_scan"}}, {"fusion_lon": 0.0, "is_reserved": 0, "type": "electric_scooter", "lon": -77.01778666666667, "fusion_lat": 0.0, "name": "ac2d80c3fe66034638965ead29d8455c", "bike_id": "ac2d80c3fe66034638965ead29d8455c", "lat": 38.90030183333333, "is_disabled": 0, "rental_uris": {"ios": "https://dc.lft.to/lastmile_qr_scan", "android": "https://dc.lft.to/lastmile_qr_scan"}}, {"fusion_lon": 0.0, "is_reserved": 0, "type": "electric_scooter", "lon": -77.0388845, "fusion_lat": 0.0, "name": "933b9359244aa784430f88690c6aa569", "bike_id": "933b9359244aa784430f88690c6aa569", "lat": 38.92236483333333, "is_disabled": 0, "rental_uris": {"ios": "https://dc.lft.to/lastmile_qr_scan", "android": "https://dc.lft.to/lastmile_qr_scan"}}, {"fusion_lon": 0.0, "is_reserved": 0, "type": "electric_scooter", "lon": -77.04116766666667, "fusion_lat": 0.0, "name": "46d2beb9b13ed8f14ed4530d26fd1eb8", "bike_id": "46d2beb9b13ed8f14ed4530d26fd1eb8", "lat": 38.91830183333333, "is_disabled": 0, "rental_uris": {"ios": "https://dc.lft.to/lastmile_qr_scan", "android": "https://dc.lft.to/lastmile_qr_scan"}}, {"fusion_lon": 0.0, "is_reserved": 0, "type": "electric_scooter", "lon": -77.03397966666667, "fusion_lat": 0.0, "name": "a2c45e5c49ed3f013817b1bbf9f95385", "bike_id": "a2c45e5c49ed3f013817b1bbf9f95385", "lat": 38.901923833333335, "is_disabled": 0, "rental_uris": {"ios": "https://dc.lft.to/lastmile_qr_scan", "android": "https://dc.lft.to/lastmile_qr_scan"}}, {"fusion_lon": 0.0, "is_reserved": 0, "type": "electric_bike", "lon": -77.13330266666667, "fusion_lat": 0.0, "name": "39732a3532b9ca49a0cd0231a142081c", "bike_id": "39732a3532b9ca49a0cd0231a142081c", "lat": 38.87082633333333, "is_disabled": 0, "rental_uris": {"ios": "https://dc.lft.to/lastmile_qr_scan", "android": "https://dc.lft.to/lastmile_qr_scan"}}, {"fusion_lon": 0.0, "is_reserved": 0, "type": "electric_scooter", "lon": -76.98345033333334, "fusion_lat": 0.0, "name": "21992169496ca923d5a6a4c7346f8a79", "bike_id": "21992169496ca923d5a6a4c7346f8a79", "lat": 38.887091, "is_disabled": 0, "rental_uris": {"ios": "https://dc.lft.to/lastmile_qr_scan", "android": "https://dc.lft.to/lastmile_qr_scan"}}, {"fusion_lon": 0.0, "is_reserved": 0, "type": "electric_scooter", "lon": -77.03581366666667, "fusion_lat": 0.0, "name": "446aa9c89381d8874804865c43ea757e", "bike_id": "446aa9c89381d8874804865c43ea757e", "lat": 38.902346, "is_disabled": 0, "rental_uris": {"ios": "https://dc.lft.to/lastmile_qr_scan", "android": "https://dc.lft.to/lastmile_qr_scan"}}, {"fusion_lon": 0.0, "is_reserved": 0, "type": "electric_scooter", "lon": -77.02149733333333, "fusion_lat": 0.0, "name": "61caef138724ee5504834ca730d83a70", "bike_id": "61caef138724ee5504834ca730d83a70", "lat": 38.924960166666665, "is_disabled": 0, "rental_uris": {"ios": "https://dc.lft.to/lastmile_qr_scan", "android": "https://dc.lft.to/lastmile_qr_scan"}}, {"fusion_lon": 0.0, "is_reserved": 0, "type": "electric_scooter", "lon": -77.00606183333333, "fusion_lat": 0.0, "name": "9a20d997db119902aa15f31eb9f43470", "bike_id": "9a20d997db119902aa15f31eb9f43470", "lat": 38.91118866666667, "is_disabled": 0, "rental_uris": {"ios": "https://dc.lft.to/lastmile_qr_scan", "android": "https://dc.lft.to/lastmile_qr_scan"}}, {"fusion_lon": 0.0, "is_reserved": 0, "type": "electric_scooter", "lon": -76.9836895, "fusion_lat": 0.0, "name": "3a35064d80ba318c2b5327088754556d", "bike_id": "3a35064d80ba318c2b5327088754556d", "lat": 38.90672083333333, "is_disabled": 0, "rental_uris": {"ios": "https://dc.lft.to/lastmile_qr_scan", "android": "https://dc.lft.to/lastmile_qr_scan"}}, {"fusion_lon": 0.0, "is_reserved": 0, "type": "electric_scooter", "lon": -77.00361083333334, "fusion_lat": 0.0, "name": "0ced2e102b05e41dbb99df5bda33fde7", "bike_id": "0ced2e102b05e41dbb99df5bda33fde7", "lat": 38.846447833333336, "is_disabled": 0, "rental_uris": {"ios": "https://dc.lft.to/lastmile_qr_scan", "android": "https://dc.lft.to/lastmile_qr_scan"}}, {"fusion_lon": 0.0, "is_reserved": 0, "type": "electric_scooter", "lon": -77.02051783333333, "fusion_lat": 0.0, "name": "97c0292bd980a3ed69573555b9bdfd5b", "bike_id": "97c0292bd980a3ed69573555b9bdfd5b", "lat": 38.9136535, "is_disabled": 0, "rental_uris": {"ios": "https://dc.lft.to/lastmile_qr_scan", "android": "https://dc.lft.to/lastmile_qr_scan"}}, {"fusion_lon": 0.0, "is_reserved": 0, "type": "electric_scooter", "lon": -77.04718416666667, "fusion_lat": 0.0, "name": "7787f227d6db29e6254f54d14618c4f5", "bike_id": "7787f227d6db29e6254f54d14618c4f5", "lat": 38.899689333333335, "is_disabled": 0, "rental_uris": {"ios": "https://dc.lft.to/lastmile_qr_scan", "android": "https://dc.lft.to/lastmile_qr_scan"}}, {"fusion_lon": 0.0, "is_reserved": 0, "type": "electric_scooter", "lon": -77.01198483333333, "fusion_lat": 0.0, "name": "6c41bc3c76160cb9687684d79b00e4c8", "bike_id": "6c41bc3c76160cb9687684d79b00e4c8", "lat": 38.8979465, "is_disabled": 0, "rental_uris": {"ios": "https://dc.lft.to/lastmile_qr_scan", "android": "https://dc.lft.to/lastmile_qr_scan"}}, {"fusion_lon": 0.0, "is_reserved": 0, "type": "electric_scooter", "lon": -76.943221, "fusion_lat": 0.0, "name": "41b52cc445157933205c51fd7c69aa4d", "bike_id": "41b52cc445157933205c51fd7c69aa4d", "lat": 38.8802165, "is_disabled": 0, "rental_uris": {"ios": "https://dc.lft.to/lastmile_qr_scan", "android": "https://dc.lft.to/lastmile_qr_scan"}}, {"fusion_lon": 0.0, "is_reserved": 0, "type": "electric_scooter", "lon": -77.03178616666666, "fusion_lat": 0.0, "name": "ce687dbcb8987cdc1c52b41caa179b46", "bike_id": "ce687dbcb8987cdc1c52b41caa179b46", "lat": 38.913080666666666, "is_disabled": 0, "rental_uris": {"ios": "https://dc.lft.to/lastmile_qr_scan", "android": "https://dc.lft.to/lastmile_qr_scan"}}, {"fusion_lon": 0.0, "is_reserved": 0, "type": "electric_bike", "lon": -77.0252135, "fusion_lat": 0.0, "name": "6d1f3fa17e9fa8d7ec868a4389f78716", "bike_id": "6d1f3fa17e9fa8d7ec868a4389f78716", "lat": 38.8849515, "is_disabled": 0, "rental_uris": {"ios": "https://dc.lft.to/lastmile_qr_scan", "android": "https://dc.lft.to/lastmile_qr_scan"}}, {"fusion_lon": 0.0, "is_reserved": 0, "type": "electric_scooter", "lon": -77.06721733333333, "fusion_lat": 0.0, "name": "70ecc0b94a836bf46df068e79218b33f", "bike_id": "70ecc0b94a836bf46df068e79218b33f", "lat": 38.90519483333333, "is_disabled": 0, "rental_uris": {"ios": "https://dc.lft.to/lastmile_qr_scan", "android": "https://dc.lft.to/lastmile_qr_scan"}}, {"fusion_lon": 0.0, "is_reserved": 0, "type": "electric_scooter", "lon": -77.01715983333334, "fusion_lat": 0.0, "name": "2c7bb2123b07c19b5582de1699658143", "bike_id": "2c7bb2123b07c19b5582de1699658143", "lat": 38.91466233333333, "is_disabled": 0, "rental_uris": {"ios": "https://dc.lft.to/lastmile_qr_scan", "android": "https://dc.lft.to/lastmile_qr_scan"}}, {"fusion_lon": 0.0, "is_reserved": 0, "type": "electric_scooter", "lon": -77.00063166666666, "fusion_lat": 0.0, "name": "a2bbe799257c7c35e8de9bc263a86370", "bike_id": "a2bbe799257c7c35e8de9bc263a86370", "lat": 38.923869333333336, "is_disabled": 0, "rental_uris": {"ios": "https://dc.lft.to/lastmile_qr_scan", "android": "https://dc.lft.to/lastmile_qr_scan"}}, {"fusion_lon": 0.0, "is_reserved": 0, "type": "electric_bike", "lon": -76.997942, "fusion_lat": 0.0, "name": "3108d3c7c01f097b4429fa7d01e7fde3", "bike_id": "3108d3c7c01f097b4429fa7d01e7fde3", "lat": 38.950831, "is_disabled": 0, "rental_uris": {"ios": "https://dc.lft.to/lastmile_qr_scan", "android": "https://dc.lft.to/lastmile_qr_scan"}}, {"fusion_lon": 0.0, "is_reserved": 0, "type": "electric_bike", "lon": -76.997371, "fusion_lat": 0.0, "name": "a7eaedd83943abc482c5b7123d359a9d", "bike_id": "a7eaedd83943abc482c5b7123d359a9d", "lat": 39.042314166666664, "is_disabled": 0, "rental_uris": {"ios": "https://dc.lft.to/lastmile_qr_scan", "android": "https://dc.lft.to/lastmile_qr_scan"}}, {"fusion_lon": 0.0, "is_reserved": 0, "type": "electric_scooter", "lon": -77.02062183333334, "fusion_lat": 0.0, "name": "4aba619af8b76f87cdd2b9572b9eed2e", "bike_id": "4aba619af8b76f87cdd2b9572b9eed2e", "lat": 38.89978466666667, "is_disabled": 0, "rental_uris": {"ios": "https://dc.lft.to/lastmile_qr_scan", "android": "https://dc.lft.to/lastmile_qr_scan"}}, {"fusion_lon": 0.0, "is_reserved": 0, "type": "electric_bike", "lon": -77.00248566666667, "fusion_lat": 0.0, "name": "482d81665705ed1049b5bd7beecb924a", "bike_id": "482d81665705ed1049b5bd7beecb924a", "lat": 38.998481, "is_disabled": 0, "rental_uris": {"ios": "https://dc.lft.to/lastmile_qr_scan", "android": "https://dc.lft.to/lastmile_qr_scan"}}, {"fusion_lon": 0.0, "is_reserved": 0, "type": "electric_scooter", "lon": -77.0231645, "fusion_lat": 0.0, "name": "d90c97227f12acaa348b8eca52ff2cd2", "bike_id": "d90c97227f12acaa348b8eca52ff2cd2", "lat": 38.9209005, "is_disabled": 0, "rental_uris": {"ios": "https://dc.lft.to/lastmile_qr_scan", "android": "https://dc.lft.to/lastmile_qr_scan"}}, {"fusion_lon": 0.0, "is_reserved": 0, "type": "electric_scooter", "lon": -77.019699, "fusion_lat": 0.0, "name": "0b1ba8abe0e2cd553c148632f0d3fe63", "bike_id": "0b1ba8abe0e2cd553c148632f0d3fe63", "lat": 38.913991333333335, "is_disabled": 0, "rental_uris": {"ios": "https://dc.lft.to/lastmile_qr_scan", "android": "https://dc.lft.to/lastmile_qr_scan"}}, {"fusion_lon": 0.0, "is_reserved": 0, "type": "electric_scooter", "lon": -76.99337766666666, "fusion_lat": 0.0, "name": "a81de9609b3678d8d3a5a6773ca1e03c", "bike_id": "a81de9609b3678d8d3a5a6773ca1e03c", "lat": 38.910320166666665, "is_disabled": 0, "rental_uris": {"ios": "https://dc.lft.to/lastmile_qr_scan", "android": "https://dc.lft.to/lastmile_qr_scan"}}, {"fusion_lon": 0.0, "is_reserved": 0, "type": "electric_scooter", "lon": -76.98035083333333, "fusion_lat": 0.0, "name": "044cb91b5c754a550eab420cbee6203d", "bike_id": "044cb91b5c754a550eab420cbee6203d", "lat": 38.870322333333334, "is_disabled": 0, "rental_uris": {"ios": "https://dc.lft.to/lastmile_qr_scan", "android": "https://dc.lft.to/lastmile_qr_scan"}}, {"fusion_lon": 0.0, "is_reserved": 0, "type": "electric_scooter", "lon": -77.00201016666666, "fusion_lat": 0.0, "name": "66038ca041bfb58bc22707abb1e13444", "bike_id": "66038ca041bfb58bc22707abb1e13444", "lat": 38.886511166666665, "is_disabled": 0, "rental_uris": {"ios": "https://dc.lft.to/lastmile_qr_scan", "android": "https://dc.lft.to/lastmile_qr_scan"}}, {"fusion_lon": 0.0, "is_reserved": 0, "type": "electric_scooter", "lon": -77.02217966666667, "fusion_lat": 0.0, "name": "d439d71e4eb95b8f125e68048201b305", "bike_id": "d439d71e4eb95b8f125e68048201b305", "lat": 38.924586, "is_disabled": 0, "rental_uris": {"ios": "https://dc.lft.to/lastmile_qr_scan", "android": "https://dc.lft.to/lastmile_qr_scan"}}, {"fusion_lon": 0.0, "is_reserved": 0, "type": "electric_scooter", "lon": -77.02168966666666, "fusion_lat": 0.0, "name": "59101ac968bba32b6b855fa96d4fc490", "bike_id": "59101ac968bba32b6b855fa96d4fc490", "lat": 38.9306605, "is_disabled": 0, "rental_uris": {"ios": "https://dc.lft.to/lastmile_qr_scan", "android": "https://dc.lft.to/lastmile_qr_scan"}}, {"fusion_lon": 0.0, "is_reserved": 0, "type": "electric_scooter", "lon": -77.03661033333333, "fusion_lat": 0.0, "name": "6b5b02aef3af2df411df0709df8dc482", "bike_id": "6b5b02aef3af2df411df0709df8dc482", "lat": 38.91828666666667, "is_disabled": 0, "rental_uris": {"ios": "https://dc.lft.to/lastmile_qr_scan", "android": "https://dc.lft.to/lastmile_qr_scan"}}, {"fusion_lon": 0.0, "is_reserved": 0, "type": "electric_scooter", "lon": -77.04409383333333, "fusion_lat": 0.0, "name": "899e83f06d980b46f672149e7c906a1d", "bike_id": "899e83f06d980b46f672149e7c906a1d", "lat": 38.89621483333333, "is_disabled": 0, "rental_uris": {"ios": "https://dc.lft.to/lastmile_qr_scan", "android": "https://dc.lft.to/lastmile_qr_scan"}}, {"fusion_lon": 0.0, "is_reserved": 0, "type": "electric_scooter", "lon": -77.03705183333334, "fusion_lat": 0.0, "name": "7af26beb8ab4efeb3c45a1c9bd7f29c9", "bike_id": "7af26beb8ab4efeb3c45a1c9bd7f29c9", "lat": 38.9263855, "is_disabled": 0, "rental_uris": {"ios": "https://dc.lft.to/lastmile_qr_scan", "android": "https://dc.lft.to/lastmile_qr_scan"}}, {"fusion_lon": 0.0, "is_reserved": 0, "type": "electric_scooter", "lon": -76.9914375, "fusion_lat": 0.0, "name": "6fc5f1dfebe0785100b415c8bd85d271", "bike_id": "6fc5f1dfebe0785100b415c8bd85d271", "lat": 38.90044666666667, "is_disabled": 0, "rental_uris": {"ios": "https://dc.lft.to/lastmile_qr_scan", "android": "https://dc.lft.to/lastmile_qr_scan"}}, {"fusion_lon": 0.0, "is_reserved": 0, "type": "electric_scooter", "lon": -77.01780933333333, "fusion_lat": 0.0, "name": "fbe8822d6d325cfcaa191592911dc3df", "bike_id": "fbe8822d6d325cfcaa191592911dc3df", "lat": 38.919932333333335, "is_disabled": 0, "rental_uris": {"ios": "https://dc.lft.to/lastmile_qr_scan", "android": "https://dc.lft.to/lastmile_qr_scan"}}, {"fusion_lon": 0.0, "is_reserved": 0, "type": "electric_scooter", "lon": -77.03196066666666, "fusion_lat": 0.0, "name": "32a782d24c2caaf4ab1d56f4ac91cd92", "bike_id": "32a782d24c2caaf4ab1d56f4ac91cd92", "lat": 38.89227666666667, "is_disabled": 0, "rental_uris": {"ios": "https://dc.lft.to/lastmile_qr_scan", "android": "https://dc.lft.to/lastmile_qr_scan"}}, {"fusion_lon": 0.0, "is_reserved": 0, "type": "electric_scooter", "lon": -77.02188366666667, "fusion_lat": 0.0, "name": "e18b0564d980ec267e1460bdadf15233", "bike_id": "e18b0564d980ec267e1460bdadf15233", "lat": 38.894628, "is_disabled": 0, "rental_uris": {"ios": "https://dc.lft.to/lastmile_qr_scan", "android": "https://dc.lft.to/lastmile_qr_scan"}}, {"fusion_lon": 0.0, "is_reserved": 0, "type": "electric_scooter", "lon": -77.03499316666667, "fusion_lat": 0.0, "name": "67dd82b95d0232f7421a1d4f8c4652d8", "bike_id": "67dd82b95d0232f7421a1d4f8c4652d8", "lat": 38.92858866666667, "is_disabled": 0, "rental_uris": {"ios": "https://dc.lft.to/lastmile_qr_scan", "android": "https://dc.lft.to/lastmile_qr_scan"}}, {"fusion_lon": 0.0, "is_reserved": 0, "type": "electric_scooter", "lon": -77.02602466666667, "fusion_lat": 0.0, "name": "6d610fbfca20ee4139c4d3f604be5005", "bike_id": "6d610fbfca20ee4139c4d3f604be5005", "lat": 38.9042625, "is_disabled": 0, "rental_uris": {"ios": "https://dc.lft.to/lastmile_qr_scan", "android": "https://dc.lft.to/lastmile_qr_scan"}}, {"fusion_lon": 0.0, "is_reserved": 0, "type": "electric_scooter", "lon": -77.03185216666667, "fusion_lat": 0.0, "name": "23045e737def60fd71cd17840e042361", "bike_id": "23045e737def60fd71cd17840e042361", "lat": 38.9330915, "is_disabled": 0, "rental_uris": {"ios": "https://dc.lft.to/lastmile_qr_scan", "android": "https://dc.lft.to/lastmile_qr_scan"}}, {"fusion_lon": 0.0, "is_reserved": 0, "type": "electric_scooter", "lon": -77.042562, "fusion_lat": 0.0, "name": "119e0f7f0af67edbef366f31b06c5865", "bike_id": "119e0f7f0af67edbef366f31b06c5865", "lat": 38.90783916666667, "is_disabled": 0, "rental_uris": {"ios": "https://dc.lft.to/lastmile_qr_scan", "android": "https://dc.lft.to/lastmile_qr_scan"}}, {"fusion_lon": 0.0, "is_reserved": 0, "type": "electric_scooter", "lon": -77.0502565, "fusion_lat": 0.0, "name": "90a034c9528e3f1bd57d2cd245fcc9e3", "bike_id": "90a034c9528e3f1bd57d2cd245fcc9e3", "lat": 38.892595, "is_disabled": 0, "rental_uris": {"ios": "https://dc.lft.to/lastmile_qr_scan", "android": "https://dc.lft.to/lastmile_qr_scan"}}, {"fusion_lon": 0.0, "is_reserved": 0, "type": "electric_scooter", "lon": -77.01753116666667, "fusion_lat": 0.0, "name": "b289c24735ecfe101745ae6ed168a365", "bike_id": "b289c24735ecfe101745ae6ed168a365", "lat": 38.876689166666665, "is_disabled": 0, "rental_uris": {"ios": "https://dc.lft.to/lastmile_qr_scan", "android": "https://dc.lft.to/lastmile_qr_scan"}}, {"fusion_lon": 0.0, "is_reserved": 0, "type": "electric_scooter", "lon": -76.92302433333333, "fusion_lat": 0.0, "name": "fb84708e685ba0e7506f87dd31fbde15", "bike_id": "fb84708e685ba0e7506f87dd31fbde15", "lat": 38.89381066666667, "is_disabled": 0, "rental_uris": {"ios": "https://dc.lft.to/lastmile_qr_scan", "android": "https://dc.lft.to/lastmile_qr_scan"}}, {"fusion_lon": 0.0, "is_reserved": 0, "type": "electric_scooter", "lon": -77.021396, "fusion_lat": 0.0, "name": "5c5a60f0a2084cedd6d3be20846c1696", "bike_id": "5c5a60f0a2084cedd6d3be20846c1696", "lat": 38.92479866666667, "is_disabled": 0, "rental_uris": {"ios": "https://dc.lft.to/lastmile_qr_scan", "android": "https://dc.lft.to/lastmile_qr_scan"}}, {"fusion_lon": 0.0, "is_reserved": 0, "type": "electric_scooter", "lon": -77.03184733333333, "fusion_lat": 0.0, "name": "f3bee07fda41edd094ca52ed3b9bed1e", "bike_id": "f3bee07fda41edd094ca52ed3b9bed1e", "lat": 38.894650666666664, "is_disabled": 0, "rental_uris": {"ios": "https://dc.lft.to/lastmile_qr_scan", "android": "https://dc.lft.to/lastmile_qr_scan"}}, {"fusion_lon": 0.0, "is_reserved": 0, "type": "electric_scooter", "lon": -77.0335385, "fusion_lat": 0.0, "name": "33c31a72107645e6daabc612596206e7", "bike_id": "33c31a72107645e6daabc612596206e7", "lat": 38.88473533333333, "is_disabled": 0, "rental_uris": {"ios": "https://dc.lft.to/lastmile_qr_scan", "android": "https://dc.lft.to/lastmile_qr_scan"}}, {"fusion_lon": 0.0, "is_reserved": 0, "type": "electric_scooter", "lon": -77.04533233333333, "fusion_lat": 0.0, "name": "ef60ebb942ba770c70ab815f6ab715b3", "bike_id": "ef60ebb942ba770c70ab815f6ab715b3", "lat": 38.911975166666664, "is_disabled": 0, "rental_uris": {"ios": "https://dc.lft.to/lastmile_qr_scan", "android": "https://dc.lft.to/lastmile_qr_scan"}}, {"fusion_lon": 0.0, "is_reserved": 0, "type": "electric_scooter", "lon": -77.0365985, "fusion_lat": 0.0, "name": "4a2cb2e511600393c789fbeb480b69b6", "bike_id": "4a2cb2e511600393c789fbeb480b69b6", "lat": 38.92282133333333, "is_disabled": 0, "rental_uris": {"ios": "https://dc.lft.to/lastmile_qr_scan", "android": "https://dc.lft.to/lastmile_qr_scan"}}, {"fusion_lon": 0.0, "is_reserved": 0, "type": "electric_scooter", "lon": -77.02509683333334, "fusion_lat": 0.0, "name": "55f908729042c7b03ef476ef5a2b9d4c", "bike_id": "55f908729042c7b03ef476ef5a2b9d4c", "lat": 38.911036, "is_disabled": 0, "rental_uris": {"ios": "https://dc.lft.to/lastmile_qr_scan", "android": "https://dc.lft.to/lastmile_qr_scan"}}, {"fusion_lon": 0.0, "is_reserved": 0, "type": "electric_scooter", "lon": -77.023554, "fusion_lat": 0.0, "name": "fefdca6b1acc1ab806c7fdaaad1bbde5", "bike_id": "fefdca6b1acc1ab806c7fdaaad1bbde5", "lat": 38.902231, "is_disabled": 0, "rental_uris": {"ios": "https://dc.lft.to/lastmile_qr_scan", "android": "https://dc.lft.to/lastmile_qr_scan"}}, {"fusion_lon": 0.0, "is_reserved": 0, "type": "electric_scooter", "lon": -77.02099216666667, "fusion_lat": 0.0, "name": "b8a3582c7620b605a224db5f2c6ec151", "bike_id": "b8a3582c7620b605a224db5f2c6ec151", "lat": 38.91200933333333, "is_disabled": 0, "rental_uris": {"ios": "https://dc.lft.to/lastmile_qr_scan", "android": "https://dc.lft.to/lastmile_qr_scan"}}, {"fusion_lon": 0.0, "is_reserved": 0, "type": "electric_scooter", "lon": -77.05310083333333, "fusion_lat": 0.0, "name": "10f6949e44c2e99a79ef4fb3de2ac15d", "bike_id": "10f6949e44c2e99a79ef4fb3de2ac15d", "lat": 38.9071665, "is_disabled": 0, "rental_uris": {"ios": "https://dc.lft.to/lastmile_qr_scan", "android": "https://dc.lft.to/lastmile_qr_scan"}}, {"fusion_lon": 0.0, "is_reserved": 0, "type": "electric_bike", "lon": -76.9354675, "fusion_lat": 0.0, "name": "cd00905080fa7c7040a99144a34daaf8", "bike_id": "cd00905080fa7c7040a99144a34daaf8", "lat": 38.87640366666667, "is_disabled": 0, "rental_uris": {"ios": "https://dc.lft.to/lastmile_qr_scan", "android": "https://dc.lft.to/lastmile_qr_scan"}}, {"fusion_lon": 0.0, "is_reserved": 0, "type": "electric_scooter", "lon": -77.0343315, "fusion_lat": 0.0, "name": "62836dd3d3714c7d51545ef529d660dd", "bike_id": "62836dd3d3714c7d51545ef529d660dd", "lat": 38.91805083333333, "is_disabled": 0, "rental_uris": {"ios": "https://dc.lft.to/lastmile_qr_scan", "android": "https://dc.lft.to/lastmile_qr_scan"}}, {"fusion_lon": 0.0, "is_reserved": 0, "type": "electric_scooter", "lon": -77.05938433333333, "fusion_lat": 0.0, "name": "0c03325e31ea0d786b527539dbc4eb32", "bike_id": "0c03325e31ea0d786b527539dbc4eb32", "lat": 38.942904666666664, "is_disabled": 0, "rental_uris": {"ios": "https://dc.lft.to/lastmile_qr_scan", "android": "https://dc.lft.to/lastmile_qr_scan"}}, {"fusion_lon": 0.0, "is_reserved": 0, "type": "electric_bike", "lon": -76.98849716666666, "fusion_lat": 0.0, "name": "b674ae39af3861904cc989a69859ec33", "bike_id": "b674ae39af3861904cc989a69859ec33", "lat": 38.9836485, "is_disabled": 0, "rental_uris": {"ios": "https://dc.lft.to/lastmile_qr_scan", "android": "https://dc.lft.to/lastmile_qr_scan"}}, {"fusion_lon": 0.0, "is_reserved": 0, "type": "electric_scooter", "lon": -77.02707933333333, "fusion_lat": 0.0, "name": "77b2fe9394b94c155f52f2ffa98a92d5", "bike_id": "77b2fe9394b94c155f52f2ffa98a92d5", "lat": 38.896622666666666, "is_disabled": 0, "rental_uris": {"ios": "https://dc.lft.to/lastmile_qr_scan", "android": "https://dc.lft.to/lastmile_qr_scan"}}, {"fusion_lon": 0.0, "is_reserved": 0, "type": "electric_scooter", "lon": -77.02950716666666, "fusion_lat": 0.0, "name": "d809c9056e202a71cdbcb436eb609273", "bike_id": "d809c9056e202a71cdbcb436eb609273", "lat": 38.93239766666667, "is_disabled": 0, "rental_uris": {"ios": "https://dc.lft.to/lastmile_qr_scan", "android": "https://dc.lft.to/lastmile_qr_scan"}}, {"fusion_lon": 0.0, "is_reserved": 0, "type": "electric_scooter", "lon": -77.0271575, "fusion_lat": 0.0, "name": "6cf63f9948116fce83797f731b0c1d1e", "bike_id": "6cf63f9948116fce83797f731b0c1d1e", "lat": 38.911040166666666, "is_disabled": 0, "rental_uris": {"ios": "https://dc.lft.to/lastmile_qr_scan", "android": "https://dc.lft.to/lastmile_qr_scan"}}, {"fusion_lon": 0.0, "is_reserved": 0, "type": "electric_scooter", "lon": -77.0486565, "fusion_lat": 0.0, "name": "945b3a485f6815c50d86a97557d85173", "bike_id": "945b3a485f6815c50d86a97557d85173", "lat": 38.91623283333333, "is_disabled": 0, "rental_uris": {"ios": "https://dc.lft.to/lastmile_qr_scan", "android": "https://dc.lft.to/lastmile_qr_scan"}}, {"fusion_lon": 0.0, "is_reserved": 0, "type": "electric_scooter", "lon": -77.04167683333333, "fusion_lat": 0.0, "name": "61aaa9e64f6838fa36bc539d010beec6", "bike_id": "61aaa9e64f6838fa36bc539d010beec6", "lat": 38.89478666666667, "is_disabled": 0, "rental_uris": {"ios": "https://dc.lft.to/lastmile_qr_scan", "android": "https://dc.lft.to/lastmile_qr_scan"}}, {"fusion_lon": 0.0, "is_reserved": 0, "type": "electric_scooter", "lon": -77.05682133333333, "fusion_lat": 0.0, "name": "dad1666c08525ec7ea394f63ebca4fa6", "bike_id": "dad1666c08525ec7ea394f63ebca4fa6", "lat": 38.9233075, "is_disabled": 0, "rental_uris": {"ios": "https://dc.lft.to/lastmile_qr_scan", "android": "https://dc.lft.to/lastmile_qr_scan"}}, {"fusion_lon": 0.0, "is_reserved": 0, "type": "electric_bike", "lon": -77.06328433333333, "fusion_lat": 0.0, "name": "88c773d4316c3f13ffc7f2bcf233113d", "bike_id": "88c773d4316c3f13ffc7f2bcf233113d", "lat": 38.85558666666667, "is_disabled": 0, "rental_uris": {"ios": "https://dc.lft.to/lastmile_qr_scan", "android": "https://dc.lft.to/lastmile_qr_scan"}}, {"fusion_lon": 0.0, "is_reserved": 0, "type": "electric_scooter", "lon": -77.02972683333333, "fusion_lat": 0.0, "name": "2c68491c0092dd26a4dcf2b5deb452fd", "bike_id": "2c68491c0092dd26a4dcf2b5deb452fd", "lat": 38.906891333333334, "is_disabled": 0, "rental_uris": {"ios": "https://dc.lft.to/lastmile_qr_scan", "android": "https://dc.lft.to/lastmile_qr_scan"}}, {"fusion_lon": 0.0, "is_reserved": 0, "type": "electric_scooter", "lon": -76.99529066666666, "fusion_lat": 0.0, "name": "25d52aac04a6adcbfc7267bdac4fd274", "bike_id": "25d52aac04a6adcbfc7267bdac4fd274", "lat": 38.843945, "is_disabled": 0, "rental_uris": {"ios": "https://dc.lft.to/lastmile_qr_scan", "android": "https://dc.lft.to/lastmile_qr_scan"}}, {"fusion_lon": 0.0, "is_reserved": 0, "type": "electric_scooter", "lon": -77.050051, "fusion_lat": 0.0, "name": "997c6ec0fce90854e98d3ec9f63f931b", "bike_id": "997c6ec0fce90854e98d3ec9f63f931b", "lat": 38.89224266666667, "is_disabled": 0, "rental_uris": {"ios": "https://dc.lft.to/lastmile_qr_scan", "android": "https://dc.lft.to/lastmile_qr_scan"}}, {"fusion_lon": 0.0, "is_reserved": 0, "type": "electric_scooter", "lon": -77.00071683333333, "fusion_lat": 0.0, "name": "a791ae81e547c34d863b5ad11a99dd3b", "bike_id": "a791ae81e547c34d863b5ad11a99dd3b", "lat": 38.8768095, "is_disabled": 0, "rental_uris": {"ios": "https://dc.lft.to/lastmile_qr_scan", "android": "https://dc.lft.to/lastmile_qr_scan"}}, {"fusion_lon": 0.0, "is_reserved": 0, "type": "electric_scooter", "lon": -77.0218855, "fusion_lat": 0.0, "name": "bc223bc027f348f599269e5ac66ea38b", "bike_id": "bc223bc027f348f599269e5ac66ea38b", "lat": 38.9104715, "is_disabled": 0, "rental_uris": {"ios": "https://dc.lft.to/lastmile_qr_scan", "android": "https://dc.lft.to/lastmile_qr_scan"}}, {"fusion_lon": 0.0, "is_reserved": 0, "type": "electric_scooter", "lon": -77.0248045, "fusion_lat": 0.0, "name": "039579823783f079646ec638590424d8", "bike_id": "039579823783f079646ec638590424d8", "lat": 38.919837333333334, "is_disabled": 0, "rental_uris": {"ios": "https://dc.lft.to/lastmile_qr_scan", "android": "https://dc.lft.to/lastmile_qr_scan"}}, {"fusion_lon": 0.0, "is_reserved": 0, "type": "electric_scooter", "lon": -77.00067966666667, "fusion_lat": 0.0, "name": "17425dc8a9cef57b94345e5d76bff605", "bike_id": "17425dc8a9cef57b94345e5d76bff605", "lat": 38.924301666666665, "is_disabled": 0, "rental_uris": {"ios": "https://dc.lft.to/lastmile_qr_scan", "android": "https://dc.lft.to/lastmile_qr_scan"}}, {"fusion_lon": 0.0, "is_reserved": 0, "type": "electric_scooter", "lon": -77.02801533333333, "fusion_lat": 0.0, "name": "e02f3b1b66af25cea37c991f90be4b62", "bike_id": "e02f3b1b66af25cea37c991f90be4b62", "lat": 38.89229566666667, "is_disabled": 0, "rental_uris": {"ios": "https://dc.lft.to/lastmile_qr_scan", "android": "https://dc.lft.to/lastmile_qr_scan"}}, {"fusion_lon": 0.0, "is_reserved": 0, "type": "electric_scooter", "lon": -77.06752516666667, "fusion_lat": 0.0, "name": "aa505c6edb2adfcc3d609a64b8f54f1c", "bike_id": "aa505c6edb2adfcc3d609a64b8f54f1c", "lat": 38.949654333333335, "is_disabled": 0, "rental_uris": {"ios": "https://dc.lft.to/lastmile_qr_scan", "android": "https://dc.lft.to/lastmile_qr_scan"}}, {"fusion_lon": 0.0, "is_reserved": 0, "type": "electric_scooter", "lon": -77.02827233333333, "fusion_lat": 0.0, "name": "8108d8ce781ac1b750f5034da5e64dd7", "bike_id": "8108d8ce781ac1b750f5034da5e64dd7", "lat": 38.908517333333336, "is_disabled": 0, "rental_uris": {"ios": "https://dc.lft.to/lastmile_qr_scan", "android": "https://dc.lft.to/lastmile_qr_scan"}}, {"fusion_lon": 0.0, "is_reserved": 0, "type": "electric_scooter", "lon": -77.03854233333334, "fusion_lat": 0.0, "name": "58ade315981b4b052fa9c066bc46f924", "bike_id": "58ade315981b4b052fa9c066bc46f924", "lat": 38.912880333333334, "is_disabled": 0, "rental_uris": {"ios": "https://dc.lft.to/lastmile_qr_scan", "android": "https://dc.lft.to/lastmile_qr_scan"}}, {"fusion_lon": 0.0, "is_reserved": 0, "type": "electric_scooter", "lon": -77.02402783333334, "fusion_lat": 0.0, "name": "383c54c4ac07f9d567ec5b4e755b809e", "bike_id": "383c54c4ac07f9d567ec5b4e755b809e", "lat": 38.95729733333334, "is_disabled": 0, "rental_uris": {"ios": "https://dc.lft.to/lastmile_qr_scan", "android": "https://dc.lft.to/lastmile_qr_scan"}}, {"fusion_lon": 0.0, "is_reserved": 0, "type": "electric_scooter", "lon": -77.02232066666667, "fusion_lat": 0.0, "name": "21ba9201f5365349f2351f4898d2d881", "bike_id": "21ba9201f5365349f2351f4898d2d881", "lat": 38.956813, "is_disabled": 0, "rental_uris": {"ios": "https://dc.lft.to/lastmile_qr_scan", "android": "https://dc.lft.to/lastmile_qr_scan"}}, {"fusion_lon": 0.0, "is_reserved": 0, "type": "electric_bike", "lon": -77.060133, "fusion_lat": 0.0, "name": "30633596fb0b8b5c0b23c193aa57477a", "bike_id": "30633596fb0b8b5c0b23c193aa57477a", "lat": 38.8277005, "is_disabled": 0, "rental_uris": {"ios": "https://dc.lft.to/lastmile_qr_scan", "android": "https://dc.lft.to/lastmile_qr_scan"}}, {"fusion_lon": 0.0, "is_reserved": 0, "type": "electric_scooter", "lon": -76.98569516666667, "fusion_lat": 0.0, "name": "74004f4b690cd7af2ffb24406dd38180", "bike_id": "74004f4b690cd7af2ffb24406dd38180", "lat": 38.8801485, "is_disabled": 0, "rental_uris": {"ios": "https://dc.lft.to/lastmile_qr_scan", "android": "https://dc.lft.to/lastmile_qr_scan"}}, {"fusion_lon": 0.0, "is_reserved": 0, "type": "electric_scooter", "lon": -76.98996583333333, "fusion_lat": 0.0, "name": "a870b9d06edc669e8e7d7c3be6fabc22", "bike_id": "a870b9d06edc669e8e7d7c3be6fabc22", "lat": 38.858141, "is_disabled": 0, "rental_uris": {"ios": "https://dc.lft.to/lastmile_qr_scan", "android": "https://dc.lft.to/lastmile_qr_scan"}}, {"fusion_lon": 0.0, "is_reserved": 0, "type": "electric_scooter", "lon": -77.03877316666667, "fusion_lat": 0.0, "name": "701e0c885587341b654d078324757761", "bike_id": "701e0c885587341b654d078324757761", "lat": 38.93608183333333, "is_disabled": 0, "rental_uris": {"ios": "https://dc.lft.to/lastmile_qr_scan", "android": "https://dc.lft.to/lastmile_qr_scan"}}, {"fusion_lon": 0.0, "is_reserved": 0, "type": "electric_bike", "lon": -76.990256, "fusion_lat": 0.0, "name": "49a134dc5c7a0b02d1f34cbdf1b11c90", "bike_id": "49a134dc5c7a0b02d1f34cbdf1b11c90", "lat": 38.83581483333333, "is_disabled": 0, "rental_uris": {"ios": "https://dc.lft.to/lastmile_qr_scan", "android": "https://dc.lft.to/lastmile_qr_scan"}}, {"fusion_lon": 0.0, "is_reserved": 0, "type": "electric_scooter", "lon": -77.02462716666666, "fusion_lat": 0.0, "name": "8f131eaba1a68b4e6cca0ede7c7bb81d", "bike_id": "8f131eaba1a68b4e6cca0ede7c7bb81d", "lat": 38.906386833333336, "is_disabled": 0, "rental_uris": {"ios": "https://dc.lft.to/lastmile_qr_scan", "android": "https://dc.lft.to/lastmile_qr_scan"}}, {"fusion_lon": 0.0, "is_reserved": 0, "type": "electric_scooter", "lon": -77.041767, "fusion_lat": 0.0, "name": "3ca96a2525fccb8da38e207c49531a0e", "bike_id": "3ca96a2525fccb8da38e207c49531a0e", "lat": 38.90537033333333, "is_disabled": 0, "rental_uris": {"ios": "https://dc.lft.to/lastmile_qr_scan", "android": "https://dc.lft.to/lastmile_qr_scan"}}, {"fusion_lon": 0.0, "is_reserved": 0, "type": "electric_scooter", "lon": -77.0318915, "fusion_lat": 0.0, "name": "d3067030e55e2734bf462d1f159aa03c", "bike_id": "d3067030e55e2734bf462d1f159aa03c", "lat": 38.9208455, "is_disabled": 0, "rental_uris": {"ios": "https://dc.lft.to/lastmile_qr_scan", "android": "https://dc.lft.to/lastmile_qr_scan"}}, {"fusion_lon": 0.0, "is_reserved": 0, "type": "electric_scooter", "lon": -77.04038266666667, "fusion_lat": 0.0, "name": "956fb8a620b834f8d191ad8189306d8b", "bike_id": "956fb8a620b834f8d191ad8189306d8b", "lat": 38.905844, "is_disabled": 0, "rental_uris": {"ios": "https://dc.lft.to/lastmile_qr_scan", "android": "https://dc.lft.to/lastmile_qr_scan"}}, {"fusion_lon": 0.0, "is_reserved": 0, "type": "electric_scooter", "lon": -77.00676733333333, "fusion_lat": 0.0, "name": "26412d5176535e49d0b0ab2adcecef82", "bike_id": "26412d5176535e49d0b0ab2adcecef82", "lat": 38.899974666666665, "is_disabled": 0, "rental_uris": {"ios": "https://dc.lft.to/lastmile_qr_scan", "android": "https://dc.lft.to/lastmile_qr_scan"}}, {"fusion_lon": 0.0, "is_reserved": 0, "type": "electric_scooter", "lon": -77.01568733333333, "fusion_lat": 0.0, "name": "fdbf26e2cb209f0958e7a8b44ef52e25", "bike_id": "fdbf26e2cb209f0958e7a8b44ef52e25", "lat": 38.89176466666667, "is_disabled": 0, "rental_uris": {"ios": "https://dc.lft.to/lastmile_qr_scan", "android": "https://dc.lft.to/lastmile_qr_scan"}}, {"fusion_lon": 0.0, "is_reserved": 0, "type": "electric_scooter", "lon": -77.04665716666666, "fusion_lat": 0.0, "name": "7cae149e5e78caf092ec1b49485235de", "bike_id": "7cae149e5e78caf092ec1b49485235de", "lat": 38.9077735, "is_disabled": 0, "rental_uris": {"ios": "https://dc.lft.to/lastmile_qr_scan", "android": "https://dc.lft.to/lastmile_qr_scan"}}, {"fusion_lon": 0.0, "is_reserved": 0, "type": "electric_scooter", "lon": -77.07012566666667, "fusion_lat": 0.0, "name": "586a60b87ca28151e00170a20098f0d8", "bike_id": "586a60b87ca28151e00170a20098f0d8", "lat": 38.9050895, "is_disabled": 0, "rental_uris": {"ios": "https://dc.lft.to/lastmile_qr_scan", "android": "https://dc.lft.to/lastmile_qr_scan"}}, {"fusion_lon": 0.0, "is_reserved": 0, "type": "electric_bike", "lon": -77.1017255, "fusion_lat": 0.0, "name": "d7179c908fa9ff28298ee58739de1126", "bike_id": "d7179c908fa9ff28298ee58739de1126", "lat": 38.918913833333335, "is_disabled": 0, "rental_uris": {"ios": "https://dc.lft.to/lastmile_qr_scan", "android": "https://dc.lft.to/lastmile_qr_scan"}}, {"fusion_lon": 0.0, "is_reserved": 0, "type": "electric_scooter", "lon": -77.02702833333333, "fusion_lat": 0.0, "name": "e4c14c5e28ed2153e152a1089f600d56", "bike_id": "e4c14c5e28ed2153e152a1089f600d56", "lat": 38.8978105, "is_disabled": 0, "rental_uris": {"ios": "https://dc.lft.to/lastmile_qr_scan", "android": "https://dc.lft.to/lastmile_qr_scan"}}, {"fusion_lon": 0.0, "is_reserved": 0, "type": "electric_scooter", "lon": -76.98532766666666, "fusion_lat": 0.0, "name": "0d674ec700b59b9eaad75465a0ba5216", "bike_id": "0d674ec700b59b9eaad75465a0ba5216", "lat": 38.899429, "is_disabled": 0, "rental_uris": {"ios": "https://dc.lft.to/lastmile_qr_scan", "android": "https://dc.lft.to/lastmile_qr_scan"}}, {"fusion_lon": 0.0, "is_reserved": 0, "type": "electric_scooter", "lon": -76.9951155, "fusion_lat": 0.0, "name": "152f3bd5c15372aaee1dec91ef70a9b5", "bike_id": "152f3bd5c15372aaee1dec91ef70a9b5", "lat": 38.883731, "is_disabled": 0, "rental_uris": {"ios": "https://dc.lft.to/lastmile_qr_scan", "android": "https://dc.lft.to/lastmile_qr_scan"}}, {"fusion_lon": 0.0, "is_reserved": 0, "type": "electric_scooter", "lon": -77.020012, "fusion_lat": 0.0, "name": "70255deb04b7d97e2aac77897dd29739", "bike_id": "70255deb04b7d97e2aac77897dd29739", "lat": 38.915775333333336, "is_disabled": 0, "rental_uris": {"ios": "https://dc.lft.to/lastmile_qr_scan", "android": "https://dc.lft.to/lastmile_qr_scan"}}, {"fusion_lon": 0.0, "is_reserved": 0, "type": "electric_scooter", "lon": -77.038945, "fusion_lat": 0.0, "name": "84b5d4e3dfc50ac34de9337a908fee34", "bike_id": "84b5d4e3dfc50ac34de9337a908fee34", "lat": 38.9024935, "is_disabled": 0, "rental_uris": {"ios": "https://dc.lft.to/lastmile_qr_scan", "android": "https://dc.lft.to/lastmile_qr_scan"}}, {"fusion_lon": 0.0, "is_reserved": 0, "type": "electric_scooter", "lon": -76.94979166666667, "fusion_lat": 0.0, "name": "d9441d6650217e0cd761de40cd8b1c24", "bike_id": "d9441d6650217e0cd761de40cd8b1c24", "lat": 38.900638, "is_disabled": 0, "rental_uris": {"ios": "https://dc.lft.to/lastmile_qr_scan", "android": "https://dc.lft.to/lastmile_qr_scan"}}, {"fusion_lon": 0.0, "is_reserved": 0, "type": "electric_bike", "lon": -76.98251766666667, "fusion_lat": 0.0, "name": "627255a5638cf99472cda8a9618a4e9a", "bike_id": "627255a5638cf99472cda8a9618a4e9a", "lat": 38.95328716666667, "is_disabled": 0, "rental_uris": {"ios": "https://dc.lft.to/lastmile_qr_scan", "android": "https://dc.lft.to/lastmile_qr_scan"}}, {"fusion_lon": 0.0, "is_reserved": 0, "type": "electric_scooter", "lon": -77.03941616666667, "fusion_lat": 0.0, "name": "a96efbbd7941736d45ad48e8413d64e8", "bike_id": "a96efbbd7941736d45ad48e8413d64e8", "lat": 38.93055016666667, "is_disabled": 0, "rental_uris": {"ios": "https://dc.lft.to/lastmile_qr_scan", "android": "https://dc.lft.to/lastmile_qr_scan"}}, {"fusion_lon": 0.0, "is_reserved": 0, "type": "electric_scooter", "lon": -76.9914905, "fusion_lat": 0.0, "name": "8cf84d19f655d003971add7292801096", "bike_id": "8cf84d19f655d003971add7292801096", "lat": 38.90044416666667, "is_disabled": 0, "rental_uris": {"ios": "https://dc.lft.to/lastmile_qr_scan", "android": "https://dc.lft.to/lastmile_qr_scan"}}, {"fusion_lon": 0.0, "is_reserved": 0, "type": "electric_scooter", "lon": -77.0417615, "fusion_lat": 0.0, "name": "d9496de1fdc867e0c0ad9e701e1b998d", "bike_id": "d9496de1fdc867e0c0ad9e701e1b998d", "lat": 38.901609, "is_disabled": 0, "rental_uris": {"ios": "https://dc.lft.to/lastmile_qr_scan", "android": "https://dc.lft.to/lastmile_qr_scan"}}, {"fusion_lon": 0.0, "is_reserved": 0, "type": "electric_scooter", "lon": -77.05629183333333, "fusion_lat": 0.0, "name": "51626a28a7b83ab47511c1e57dcc604e", "bike_id": "51626a28a7b83ab47511c1e57dcc604e", "lat": 38.9069095, "is_disabled": 0, "rental_uris": {"ios": "https://dc.lft.to/lastmile_qr_scan", "android": "https://dc.lft.to/lastmile_qr_scan"}}, {"fusion_lon": 0.0, "is_reserved": 0, "type": "electric_scooter", "lon": -77.01401866666667, "fusion_lat": 0.0, "name": "96e6707d1fad452e755fa9d4d6e0dd90", "bike_id": "96e6707d1fad452e755fa9d4d6e0dd90", "lat": 38.928706, "is_disabled": 0, "rental_uris": {"ios": "https://dc.lft.to/lastmile_qr_scan", "android": "https://dc.lft.to/lastmile_qr_scan"}}, {"fusion_lon": 0.0, "is_reserved": 0, "type": "electric_scooter", "lon": -77.02243616666667, "fusion_lat": 0.0, "name": "38dfa8ee295aa68d3e78552eafd2efac", "bike_id": "38dfa8ee295aa68d3e78552eafd2efac", "lat": 38.9245705, "is_disabled": 0, "rental_uris": {"ios": "https://dc.lft.to/lastmile_qr_scan", "android": "https://dc.lft.to/lastmile_qr_scan"}}, {"fusion_lon": 0.0, "is_reserved": 0, "type": "electric_scooter", "lon": -77.042302, "fusion_lat": 0.0, "name": "43eb2965ba91e402247799acd28ea24e", "bike_id": "43eb2965ba91e402247799acd28ea24e", "lat": 38.9216535, "is_disabled": 0, "rental_uris": {"ios": "https://dc.lft.to/lastmile_qr_scan", "android": "https://dc.lft.to/lastmile_qr_scan"}}, {"fusion_lon": 0.0, "is_reserved": 0, "type": "electric_scooter", "lon": -77.01884316666667, "fusion_lat": 0.0, "name": "fdf990d28b1e5a1dbfaa5f16b9a50590", "bike_id": "fdf990d28b1e5a1dbfaa5f16b9a50590", "lat": 38.91476266666667, "is_disabled": 0, "rental_uris": {"ios": "https://dc.lft.to/lastmile_qr_scan", "android": "https://dc.lft.to/lastmile_qr_scan"}}, {"fusion_lon": 0.0, "is_reserved": 0, "type": "electric_scooter", "lon": -77.03772166666667, "fusion_lat": 0.0, "name": "16a8340a5dab95b0242824e70e8ca547", "bike_id": "16a8340a5dab95b0242824e70e8ca547", "lat": 38.91674716666667, "is_disabled": 0, "rental_uris": {"ios": "https://dc.lft.to/lastmile_qr_scan", "android": "https://dc.lft.to/lastmile_qr_scan"}}, {"fusion_lon": 0.0, "is_reserved": 0, "type": "electric_scooter", "lon": -77.03862133333334, "fusion_lat": 0.0, "name": "6975cbdcbd153002a2b02a2089451693", "bike_id": "6975cbdcbd153002a2b02a2089451693", "lat": 38.90876883333333, "is_disabled": 0, "rental_uris": {"ios": "https://dc.lft.to/lastmile_qr_scan", "android": "https://dc.lft.to/lastmile_qr_scan"}}, {"fusion_lon": 0.0, "is_reserved": 0, "type": "electric_bike", "lon": -76.9910645, "fusion_lat": 0.0, "name": "9b540911f0efc9590db2097f773d7ded", "bike_id": "9b540911f0efc9590db2097f773d7ded", "lat": 38.804786, "is_disabled": 0, "rental_uris": {"ios": "https://dc.lft.to/lastmile_qr_scan", "android": "https://dc.lft.to/lastmile_qr_scan"}}, {"fusion_lon": 0.0, "is_reserved": 0, "type": "electric_scooter", "lon": -77.03206133333333, "fusion_lat": 0.0, "name": "2a4506ec127b5b0b17abdeefc44b5bb3", "bike_id": "2a4506ec127b5b0b17abdeefc44b5bb3", "lat": 38.91120816666667, "is_disabled": 0, "rental_uris": {"ios": "https://dc.lft.to/lastmile_qr_scan", "android": "https://dc.lft.to/lastmile_qr_scan"}}, {"fusion_lon": 0.0, "is_reserved": 0, "type": "electric_bike", "lon": -77.05438566666666, "fusion_lat": 0.0, "name": "c387268c3dcd24a1979a896433c0466c", "bike_id": "c387268c3dcd24a1979a896433c0466c", "lat": 38.78459183333333, "is_disabled": 0, "rental_uris": {"ios": "https://dc.lft.to/lastmile_qr_scan", "android": "https://dc.lft.to/lastmile_qr_scan"}}, {"fusion_lon": 0.0, "is_reserved": 0, "type": "electric_bike", "lon": -76.9809895, "fusion_lat": 0.0, "name": "fdaaa6c71c68d2d14e605858de0e869f", "bike_id": "fdaaa6c71c68d2d14e605858de0e869f", "lat": 38.958815, "is_disabled": 0, "rental_uris": {"ios": "https://dc.lft.to/lastmile_qr_scan", "android": "https://dc.lft.to/lastmile_qr_scan"}}, {"fusion_lon": 0.0, "is_reserved": 0, "type": "electric_scooter", "lon": -77.01800583333333, "fusion_lat": 0.0, "name": "1559221ec1302406d2b6c13f7f73c56c", "bike_id": "1559221ec1302406d2b6c13f7f73c56c", "lat": 38.91417933333334, "is_disabled": 0, "rental_uris": {"ios": "https://dc.lft.to/lastmile_qr_scan", "android": "https://dc.lft.to/lastmile_qr_scan"}}, {"fusion_lon": 0.0, "is_reserved": 0, "type": "electric_scooter", "lon": -77.01565383333333, "fusion_lat": 0.0, "name": "09d9f919e5f6914de0b044cb51450d91", "bike_id": "09d9f919e5f6914de0b044cb51450d91", "lat": 38.927972, "is_disabled": 0, "rental_uris": {"ios": "https://dc.lft.to/lastmile_qr_scan", "android": "https://dc.lft.to/lastmile_qr_scan"}}, {"fusion_lon": 0.0, "is_reserved": 0, "type": "electric_scooter", "lon": -77.04633366666667, "fusion_lat": 0.0, "name": "04d54f8dc1739172fdebf5ece1e1f5e8", "bike_id": "04d54f8dc1739172fdebf5ece1e1f5e8", "lat": 38.915724, "is_disabled": 0, "rental_uris": {"ios": "https://dc.lft.to/lastmile_qr_scan", "android": "https://dc.lft.to/lastmile_qr_scan"}}, {"fusion_lon": 0.0, "is_reserved": 0, "type": "electric_scooter", "lon": -77.048262, "fusion_lat": 0.0, "name": "dfa7bc53243c7ea03cdefb12a2196d9b", "bike_id": "dfa7bc53243c7ea03cdefb12a2196d9b", "lat": 38.900666666666666, "is_disabled": 0, "rental_uris": {"ios": "https://dc.lft.to/lastmile_qr_scan", "android": "https://dc.lft.to/lastmile_qr_scan"}}, {"fusion_lon": 0.0, "is_reserved": 0, "type": "electric_scooter", "lon": -77.02702833333333, "fusion_lat": 0.0, "name": "6d3318c0ac49f04e214fc48b1e9ef2f9", "bike_id": "6d3318c0ac49f04e214fc48b1e9ef2f9", "lat": 38.9066745, "is_disabled": 0, "rental_uris": {"ios": "https://dc.lft.to/lastmile_qr_scan", "android": "https://dc.lft.to/lastmile_qr_scan"}}, {"fusion_lon": 0.0, "is_reserved": 0, "type": "electric_scooter", "lon": -77.02955816666666, "fusion_lat": 0.0, "name": "89f5adc7d0ac943179d8430d72717fc8", "bike_id": "89f5adc7d0ac943179d8430d72717fc8", "lat": 38.904935333333334, "is_disabled": 0, "rental_uris": {"ios": "https://dc.lft.to/lastmile_qr_scan", "android": "https://dc.lft.to/lastmile_qr_scan"}}, {"fusion_lon": 0.0, "is_reserved": 0, "type": "electric_scooter", "lon": -77.02408366666667, "fusion_lat": 0.0, "name": "4f0c8d485c86222ec5bbaaef4ff7a018", "bike_id": "4f0c8d485c86222ec5bbaaef4ff7a018", "lat": 38.89930183333333, "is_disabled": 0, "rental_uris": {"ios": "https://dc.lft.to/lastmile_qr_scan", "android": "https://dc.lft.to/lastmile_qr_scan"}}, {"fusion_lon": 0.0, "is_reserved": 0, "type": "electric_scooter", "lon": -77.029487, "fusion_lat": 0.0, "name": "3f709c8e17f42a17eb4be370d5911e64", "bike_id": "3f709c8e17f42a17eb4be370d5911e64", "lat": 38.898306833333336, "is_disabled": 0, "rental_uris": {"ios": "https://dc.lft.to/lastmile_qr_scan", "android": "https://dc.lft.to/lastmile_qr_scan"}}, {"fusion_lon": 0.0, "is_reserved": 0, "type": "electric_scooter", "lon": -77.02302083333333, "fusion_lat": 0.0, "name": "eba1be3ce01b53ab292ccfd4b32224a5", "bike_id": "eba1be3ce01b53ab292ccfd4b32224a5", "lat": 38.927247, "is_disabled": 0, "rental_uris": {"ios": "https://dc.lft.to/lastmile_qr_scan", "android": "https://dc.lft.to/lastmile_qr_scan"}}, {"fusion_lon": 0.0, "is_reserved": 0, "type": "electric_scooter", "lon": -77.02794, "fusion_lat": 0.0, "name": "f70681d1ca1781c0aed22dcda61fed91", "bike_id": "f70681d1ca1781c0aed22dcda61fed91", "lat": 38.90717183333334, "is_disabled": 0, "rental_uris": {"ios": "https://dc.lft.to/lastmile_qr_scan", "android": "https://dc.lft.to/lastmile_qr_scan"}}, {"fusion_lon": 0.0, "is_reserved": 0, "type": "electric_scooter", "lon": -77.0410135, "fusion_lat": 0.0, "name": "81c54b5be31408a8c98cb2e2149de081", "bike_id": "81c54b5be31408a8c98cb2e2149de081", "lat": 38.923769666666665, "is_disabled": 0, "rental_uris": {"ios": "https://dc.lft.to/lastmile_qr_scan", "android": "https://dc.lft.to/lastmile_qr_scan"}}, {"fusion_lon": 0.0, "is_reserved": 0, "type": "electric_scooter", "lon": -77.0366625, "fusion_lat": 0.0, "name": "6d3bacd573d951d3078cff972a09cd6c", "bike_id": "6d3bacd573d951d3078cff972a09cd6c", "lat": 38.9226905, "is_disabled": 0, "rental_uris": {"ios": "https://dc.lft.to/lastmile_qr_scan", "android": "https://dc.lft.to/lastmile_qr_scan"}}, {"fusion_lon": 0.0, "is_reserved": 0, "type": "electric_scooter", "lon": -77.02516883333334, "fusion_lat": 0.0, "name": "9d8f1697f6ef9f2d41c4588023a10c3a", "bike_id": "9d8f1697f6ef9f2d41c4588023a10c3a", "lat": 38.89725883333333, "is_disabled": 0, "rental_uris": {"ios": "https://dc.lft.to/lastmile_qr_scan", "android": "https://dc.lft.to/lastmile_qr_scan"}}, {"fusion_lon": 0.0, "is_reserved": 0, "type": "electric_scooter", "lon": -77.055844, "fusion_lat": 0.0, "name": "1c5da7c69a12f0fb7a236ca3c885d52a", "bike_id": "1c5da7c69a12f0fb7a236ca3c885d52a", "lat": 38.92789916666667, "is_disabled": 0, "rental_uris": {"ios": "https://dc.lft.to/lastmile_qr_scan", "android": "https://dc.lft.to/lastmile_qr_scan"}}, {"fusion_lon": 0.0, "is_reserved": 0, "type": "electric_scooter", "lon": -77.02348633333334, "fusion_lat": 0.0, "name": "fced0256844e884031855dfa706a9dc0", "bike_id": "fced0256844e884031855dfa706a9dc0", "lat": 38.902154833333334, "is_disabled": 0, "rental_uris": {"ios": "https://dc.lft.to/lastmile_qr_scan", "android": "https://dc.lft.to/lastmile_qr_scan"}}, {"fusion_lon": 0.0, "is_reserved": 0, "type": "electric_scooter", "lon": -77.0386795, "fusion_lat": 0.0, "name": "714e0b14dc073fd7402ab61ccac7718c", "bike_id": "714e0b14dc073fd7402ab61ccac7718c", "lat": 38.921522833333334, "is_disabled": 0, "rental_uris": {"ios": "https://dc.lft.to/lastmile_qr_scan", "android": "https://dc.lft.to/lastmile_qr_scan"}}, {"fusion_lon": 0.0, "is_reserved": 0, "type": "electric_scooter", "lon": -77.0240135, "fusion_lat": 0.0, "name": "ad49c6df86d4f22b931c4ebb94cf522b", "bike_id": "ad49c6df86d4f22b931c4ebb94cf522b", "lat": 38.9370335, "is_disabled": 0, "rental_uris": {"ios": "https://dc.lft.to/lastmile_qr_scan", "android": "https://dc.lft.to/lastmile_qr_scan"}}, {"fusion_lon": 0.0, "is_reserved": 0, "type": "electric_scooter", "lon": -77.012746, "fusion_lat": 0.0, "name": "d1fa6b3334ec26e362148bfe09bed6e4", "bike_id": "d1fa6b3334ec26e362148bfe09bed6e4", "lat": 38.8973, "is_disabled": 0, "rental_uris": {"ios": "https://dc.lft.to/lastmile_qr_scan", "android": "https://dc.lft.to/lastmile_qr_scan"}}, {"fusion_lon": 0.0, "is_reserved": 0, "type": "electric_scooter", "lon": -77.04347783333333, "fusion_lat": 0.0, "name": "70ad23d7671ef8fb074703e94b6ce2dc", "bike_id": "70ad23d7671ef8fb074703e94b6ce2dc", "lat": 38.923511833333336, "is_disabled": 0, "rental_uris": {"ios": "https://dc.lft.to/lastmile_qr_scan", "android": "https://dc.lft.to/lastmile_qr_scan"}}, {"fusion_lon": 0.0, "is_reserved": 0, "type": "electric_scooter", "lon": -77.03163566666667, "fusion_lat": 0.0, "name": "f79ca8e72529bfb3e8ee09d8b65db4f9", "bike_id": "f79ca8e72529bfb3e8ee09d8b65db4f9", "lat": 38.8922295, "is_disabled": 0, "rental_uris": {"ios": "https://dc.lft.to/lastmile_qr_scan", "android": "https://dc.lft.to/lastmile_qr_scan"}}, {"fusion_lon": 0.0, "is_reserved": 0, "type": "electric_scooter", "lon": -77.037901, "fusion_lat": 0.0, "name": "774f5bd27bfe19e0293c93223578c6f8", "bike_id": "774f5bd27bfe19e0293c93223578c6f8", "lat": 38.928263666666666, "is_disabled": 0, "rental_uris": {"ios": "https://dc.lft.to/lastmile_qr_scan", "android": "https://dc.lft.to/lastmile_qr_scan"}}, {"fusion_lon": 0.0, "is_reserved": 0, "type": "electric_scooter", "lon": -77.01638266666667, "fusion_lat": 0.0, "name": "dff6549635ff61c28709069015d09952", "bike_id": "dff6549635ff61c28709069015d09952", "lat": 38.89979616666667, "is_disabled": 0, "rental_uris": {"ios": "https://dc.lft.to/lastmile_qr_scan", "android": "https://dc.lft.to/lastmile_qr_scan"}}, {"fusion_lon": 0.0, "is_reserved": 0, "type": "electric_scooter", "lon": -77.0428635, "fusion_lat": 0.0, "name": "b04ebcc28fcc6fda567986c43c8b485c", "bike_id": "b04ebcc28fcc6fda567986c43c8b485c", "lat": 38.9118565, "is_disabled": 0, "rental_uris": {"ios": "https://dc.lft.to/lastmile_qr_scan", "android": "https://dc.lft.to/lastmile_qr_scan"}}, {"fusion_lon": 0.0, "is_reserved": 0, "type": "electric_scooter", "lon": -77.02810883333333, "fusion_lat": 0.0, "name": "a58da299d2f94495da2747b2474141de", "bike_id": "a58da299d2f94495da2747b2474141de", "lat": 38.897108, "is_disabled": 0, "rental_uris": {"ios": "https://dc.lft.to/lastmile_qr_scan", "android": "https://dc.lft.to/lastmile_qr_scan"}}, {"fusion_lon": 0.0, "is_reserved": 0, "type": "electric_scooter", "lon": -77.06265083333334, "fusion_lat": 0.0, "name": "1a0ef96e06a79306c3bbbea90377b080", "bike_id": "1a0ef96e06a79306c3bbbea90377b080", "lat": 38.904397833333334, "is_disabled": 0, "rental_uris": {"ios": "https://dc.lft.to/lastmile_qr_scan", "android": "https://dc.lft.to/lastmile_qr_scan"}}, {"fusion_lon": 0.0, "is_reserved": 0, "type": "electric_bike", "lon": -77.05697533333333, "fusion_lat": 0.0, "name": "a7e44aec27d4560149a005cd4da793f0", "bike_id": "a7e44aec27d4560149a005cd4da793f0", "lat": 38.905666333333336, "is_disabled": 0, "rental_uris": {"ios": "https://dc.lft.to/lastmile_qr_scan", "android": "https://dc.lft.to/lastmile_qr_scan"}}, {"fusion_lon": 0.0, "is_reserved": 0, "type": "electric_scooter", "lon": -77.02620683333333, "fusion_lat": 0.0, "name": "43e3dc13ecce16a316ab554810dc0a24", "bike_id": "43e3dc13ecce16a316ab554810dc0a24", "lat": 38.897274333333336, "is_disabled": 0, "rental_uris": {"ios": "https://dc.lft.to/lastmile_qr_scan", "android": "https://dc.lft.to/lastmile_qr_scan"}}, {"fusion_lon": 0.0, "is_reserved": 0, "type": "electric_scooter", "lon": -77.04753533333333, "fusion_lat": 0.0, "name": "a63b37434398dcdd1259e47c30c0370d", "bike_id": "a63b37434398dcdd1259e47c30c0370d", "lat": 38.912633, "is_disabled": 0, "rental_uris": {"ios": "https://dc.lft.to/lastmile_qr_scan", "android": "https://dc.lft.to/lastmile_qr_scan"}}, {"fusion_lon": 0.0, "is_reserved": 0, "type": "electric_scooter", "lon": -77.02714916666666, "fusion_lat": 0.0, "name": "0b009f42b87bfa4dbaba308a3e4a08ce", "bike_id": "0b009f42b87bfa4dbaba308a3e4a08ce", "lat": 38.89849433333333, "is_disabled": 0, "rental_uris": {"ios": "https://dc.lft.to/lastmile_qr_scan", "android": "https://dc.lft.to/lastmile_qr_scan"}}, {"fusion_lon": 0.0, "is_reserved": 0, "type": "electric_scooter", "lon": -77.04493116666667, "fusion_lat": 0.0, "name": "b47042cbc908339ef0df4e2738abcb65", "bike_id": "b47042cbc908339ef0df4e2738abcb65", "lat": 38.89944833333333, "is_disabled": 0, "rental_uris": {"ios": "https://dc.lft.to/lastmile_qr_scan", "android": "https://dc.lft.to/lastmile_qr_scan"}}, {"fusion_lon": 0.0, "is_reserved": 0, "type": "electric_scooter", "lon": -76.99836666666667, "fusion_lat": 0.0, "name": "2f772296128391a3804acac6a3a298b1", "bike_id": "2f772296128391a3804acac6a3a298b1", "lat": 38.892043666666666, "is_disabled": 0, "rental_uris": {"ios": "https://dc.lft.to/lastmile_qr_scan", "android": "https://dc.lft.to/lastmile_qr_scan"}}, {"fusion_lon": 0.0, "is_reserved": 0, "type": "electric_scooter", "lon": -77.00749416666666, "fusion_lat": 0.0, "name": "9e8920a36f996d1e2b6f82980ca71f0c", "bike_id": "9e8920a36f996d1e2b6f82980ca71f0c", "lat": 38.904686833333336, "is_disabled": 0, "rental_uris": {"ios": "https://dc.lft.to/lastmile_qr_scan", "android": "https://dc.lft.to/lastmile_qr_scan"}}, {"fusion_lon": 0.0, "is_reserved": 0, "type": "electric_scooter", "lon": -76.97986983333334, "fusion_lat": 0.0, "name": "48fb67840e8daefa23262758cb8d1e0f", "bike_id": "48fb67840e8daefa23262758cb8d1e0f", "lat": 38.899994666666665, "is_disabled": 0, "rental_uris": {"ios": "https://dc.lft.to/lastmile_qr_scan", "android": "https://dc.lft.to/lastmile_qr_scan"}}, {"fusion_lon": 0.0, "is_reserved": 0, "type": "electric_scooter", "lon": -77.00595583333333, "fusion_lat": 0.0, "name": "dcecfe743e1d6f564a07dfb7af8b2bd9", "bike_id": "dcecfe743e1d6f564a07dfb7af8b2bd9", "lat": 38.906966833333335, "is_disabled": 0, "rental_uris": {"ios": "https://dc.lft.to/lastmile_qr_scan", "android": "https://dc.lft.to/lastmile_qr_scan"}}, {"fusion_lon": 0.0, "is_reserved": 0, "type": "electric_scooter", "lon": -77.04984216666666, "fusion_lat": 0.0, "name": "7fbccce6a6df0023f8aa2cfc624e02e9", "bike_id": "7fbccce6a6df0023f8aa2cfc624e02e9", "lat": 38.90795383333333, "is_disabled": 0, "rental_uris": {"ios": "https://dc.lft.to/lastmile_qr_scan", "android": "https://dc.lft.to/lastmile_qr_scan"}}, {"fusion_lon": 0.0, "is_reserved": 0, "type": "electric_scooter", "lon": -77.041523, "fusion_lat": 0.0, "name": "e3b20c6f145eb3463af1a3dbb645eef3", "bike_id": "e3b20c6f145eb3463af1a3dbb645eef3", "lat": 38.90495716666667, "is_disabled": 0, "rental_uris": {"ios": "https://dc.lft.to/lastmile_qr_scan", "android": "https://dc.lft.to/lastmile_qr_scan"}}, {"fusion_lon": 0.0, "is_reserved": 0, "type": "electric_scooter", "lon": -77.07288233333334, "fusion_lat": 0.0, "name": "d9820605dcbe8948b44392195c320b4c", "bike_id": "d9820605dcbe8948b44392195c320b4c", "lat": 38.935229166666666, "is_disabled": 0, "rental_uris": {"ios": "https://dc.lft.to/lastmile_qr_scan", "android": "https://dc.lft.to/lastmile_qr_scan"}}, {"fusion_lon": 0.0, "is_reserved": 0, "type": "electric_scooter", "lon": -77.05003583333334, "fusion_lat": 0.0, "name": "9256e652bc521b82388fbd6098a2b3a6", "bike_id": "9256e652bc521b82388fbd6098a2b3a6", "lat": 38.89229733333333, "is_disabled": 0, "rental_uris": {"ios": "https://dc.lft.to/lastmile_qr_scan", "android": "https://dc.lft.to/lastmile_qr_scan"}}, {"fusion_lon": 0.0, "is_reserved": 0, "type": "electric_scooter", "lon": -76.95760733333333, "fusion_lat": 0.0, "name": "93c482783cc12a7d838bac1f62982c95", "bike_id": "93c482783cc12a7d838bac1f62982c95", "lat": 38.883900833333335, "is_disabled": 0, "rental_uris": {"ios": "https://dc.lft.to/lastmile_qr_scan", "android": "https://dc.lft.to/lastmile_qr_scan"}}, {"fusion_lon": 0.0, "is_reserved": 0, "type": "electric_bike", "lon": -76.93971683333334, "fusion_lat": 0.0, "name": "3ffb9a19ea806770ca1291f023abf3f4", "bike_id": "3ffb9a19ea806770ca1291f023abf3f4", "lat": 38.900451, "is_disabled": 0, "rental_uris": {"ios": "https://dc.lft.to/lastmile_qr_scan", "android": "https://dc.lft.to/lastmile_qr_scan"}}, {"fusion_lon": 0.0, "is_reserved": 0, "type": "electric_scooter", "lon": -77.03907466666666, "fusion_lat": 0.0, "name": "7b561d87565840660c756dc1f0b2c76e", "bike_id": "7b561d87565840660c756dc1f0b2c76e", "lat": 38.91749183333334, "is_disabled": 0, "rental_uris": {"ios": "https://dc.lft.to/lastmile_qr_scan", "android": "https://dc.lft.to/lastmile_qr_scan"}}, {"fusion_lon": 0.0, "is_reserved": 0, "type": "electric_scooter", "lon": -77.02512516666667, "fusion_lat": 0.0, "name": "6385dbf7d648e369c3ec0f7b2de1411e", "bike_id": "6385dbf7d648e369c3ec0f7b2de1411e", "lat": 38.92078766666667, "is_disabled": 0, "rental_uris": {"ios": "https://dc.lft.to/lastmile_qr_scan", "android": "https://dc.lft.to/lastmile_qr_scan"}}, {"fusion_lon": 0.0, "is_reserved": 0, "type": "electric_scooter", "lon": -77.02183766666667, "fusion_lat": 0.0, "name": "6b43a47164ef035799cd3ec2d48c2cc9", "bike_id": "6b43a47164ef035799cd3ec2d48c2cc9", "lat": 38.906918, "is_disabled": 0, "rental_uris": {"ios": "https://dc.lft.to/lastmile_qr_scan", "android": "https://dc.lft.to/lastmile_qr_scan"}}, {"fusion_lon": 0.0, "is_reserved": 0, "type": "electric_scooter", "lon": -77.0271045, "fusion_lat": 0.0, "name": "1786fd27b3a142a5fd7462640b154c8c", "bike_id": "1786fd27b3a142a5fd7462640b154c8c", "lat": 38.918155, "is_disabled": 0, "rental_uris": {"ios": "https://dc.lft.to/lastmile_qr_scan", "android": "https://dc.lft.to/lastmile_qr_scan"}}, {"fusion_lon": 0.0, "is_reserved": 0, "type": "electric_scooter", "lon": -77.04746583333333, "fusion_lat": 0.0, "name": "73e0247c5de1063b5579d317a23c0de8", "bike_id": "73e0247c5de1063b5579d317a23c0de8", "lat": 38.919943833333335, "is_disabled": 0, "rental_uris": {"ios": "https://dc.lft.to/lastmile_qr_scan", "android": "https://dc.lft.to/lastmile_qr_scan"}}, {"fusion_lon": 0.0, "is_reserved": 0, "type": "electric_scooter", "lon": -77.04861083333333, "fusion_lat": 0.0, "name": "4a262cb86e88cf6ca09a5eaebf45f196", "bike_id": "4a262cb86e88cf6ca09a5eaebf45f196", "lat": 38.9047255, "is_disabled": 0, "rental_uris": {"ios": "https://dc.lft.to/lastmile_qr_scan", "android": "https://dc.lft.to/lastmile_qr_scan"}}, {"fusion_lon": 0.0, "is_reserved": 0, "type": "electric_scooter", "lon": -76.937308, "fusion_lat": 0.0, "name": "14bd6c9f984697c27b92355248dd5faf", "bike_id": "14bd6c9f984697c27b92355248dd5faf", "lat": 38.890148, "is_disabled": 0, "rental_uris": {"ios": "https://dc.lft.to/lastmile_qr_scan", "android": "https://dc.lft.to/lastmile_qr_scan"}}, {"fusion_lon": 0.0, "is_reserved": 0, "type": "electric_scooter", "lon": -77.01773016666667, "fusion_lat": 0.0, "name": "5d264433287ee2f3fe09978759779aab", "bike_id": "5d264433287ee2f3fe09978759779aab", "lat": 38.9204315, "is_disabled": 0, "rental_uris": {"ios": "https://dc.lft.to/lastmile_qr_scan", "android": "https://dc.lft.to/lastmile_qr_scan"}}, {"fusion_lon": 0.0, "is_reserved": 0, "type": "electric_scooter", "lon": -77.03648333333334, "fusion_lat": 0.0, "name": "4df7ac7c2fe1ad43afa5fdc81ecf6c8f", "bike_id": "4df7ac7c2fe1ad43afa5fdc81ecf6c8f", "lat": 38.90272983333333, "is_disabled": 0, "rental_uris": {"ios": "https://dc.lft.to/lastmile_qr_scan", "android": "https://dc.lft.to/lastmile_qr_scan"}}, {"fusion_lon": 0.0, "is_reserved": 0, "type": "electric_scooter", "lon": -77.02714483333334, "fusion_lat": 0.0, "name": "7c0e8ac5d37a0a16ba7cc320138f90b5", "bike_id": "7c0e8ac5d37a0a16ba7cc320138f90b5", "lat": 38.924709666666665, "is_disabled": 0, "rental_uris": {"ios": "https://dc.lft.to/lastmile_qr_scan", "android": "https://dc.lft.to/lastmile_qr_scan"}}, {"fusion_lon": 0.0, "is_reserved": 0, "type": "electric_scooter", "lon": -77.04523983333333, "fusion_lat": 0.0, "name": "9182e8c90c0b4e66cb961459ac4e7333", "bike_id": "9182e8c90c0b4e66cb961459ac4e7333", "lat": 38.90765733333333, "is_disabled": 0, "rental_uris": {"ios": "https://dc.lft.to/lastmile_qr_scan", "android": "https://dc.lft.to/lastmile_qr_scan"}}, {"fusion_lon": 0.0, "is_reserved": 0, "type": "electric_scooter", "lon": -77.02945516666666, "fusion_lat": 0.0, "name": "a2407877eff212ccc47667667fa79b0d", "bike_id": "a2407877eff212ccc47667667fa79b0d", "lat": 38.91924616666667, "is_disabled": 0, "rental_uris": {"ios": "https://dc.lft.to/lastmile_qr_scan", "android": "https://dc.lft.to/lastmile_qr_scan"}}, {"fusion_lon": 0.0, "is_reserved": 0, "type": "electric_scooter", "lon": -77.02034833333333, "fusion_lat": 0.0, "name": "329aa1fb9002d07877c8101569c22d7c", "bike_id": "329aa1fb9002d07877c8101569c22d7c", "lat": 38.924455333333334, "is_disabled": 0, "rental_uris": {"ios": "https://dc.lft.to/lastmile_qr_scan", "android": "https://dc.lft.to/lastmile_qr_scan"}}, {"fusion_lon": 0.0, "is_reserved": 0, "type": "electric_bike", "lon": -76.9925815, "fusion_lat": 0.0, "name": "db5f29387c2764c279ac43115b594840", "bike_id": "db5f29387c2764c279ac43115b594840", "lat": 38.8072995, "is_disabled": 0, "rental_uris": {"ios": "https://dc.lft.to/lastmile_qr_scan", "android": "https://dc.lft.to/lastmile_qr_scan"}}, {"fusion_lon": 0.0, "is_reserved": 0, "type": "electric_scooter", "lon": -77.04006316666667, "fusion_lat": 0.0, "name": "289e2b4b38cc6026cbfcd82dbbf24a42", "bike_id": "289e2b4b38cc6026cbfcd82dbbf24a42", "lat": 38.90352716666666, "is_disabled": 0, "rental_uris": {"ios": "https://dc.lft.to/lastmile_qr_scan", "android": "https://dc.lft.to/lastmile_qr_scan"}}, {"fusion_lon": 0.0, "is_reserved": 0, "type": "electric_scooter", "lon": -77.01213, "fusion_lat": 0.0, "name": "074e5a54055815d4d61ad9556a851102", "bike_id": "074e5a54055815d4d61ad9556a851102", "lat": 38.897654833333334, "is_disabled": 0, "rental_uris": {"ios": "https://dc.lft.to/lastmile_qr_scan", "android": "https://dc.lft.to/lastmile_qr_scan"}}, {"fusion_lon": 0.0, "is_reserved": 0, "type": "electric_scooter", "lon": -76.9883185, "fusion_lat": 0.0, "name": "857c719cea60908f9198452a13371af8", "bike_id": "857c719cea60908f9198452a13371af8", "lat": 38.900417166666664, "is_disabled": 0, "rental_uris": {"ios": "https://dc.lft.to/lastmile_qr_scan", "android": "https://dc.lft.to/lastmile_qr_scan"}}, {"fusion_lon": 0.0, "is_reserved": 0, "type": "electric_scooter", "lon": -77.0451215, "fusion_lat": 0.0, "name": "57ed9022d075f21e7a92037b828f16c7", "bike_id": "57ed9022d075f21e7a92037b828f16c7", "lat": 38.8995315, "is_disabled": 0, "rental_uris": {"ios": "https://dc.lft.to/lastmile_qr_scan", "android": "https://dc.lft.to/lastmile_qr_scan"}}, {"fusion_lon": 0.0, "is_reserved": 0, "type": "electric_scooter", "lon": -77.01778666666667, "fusion_lat": 0.0, "name": "a64baf1a2124a7220cf5940d231c75c0", "bike_id": "a64baf1a2124a7220cf5940d231c75c0", "lat": 38.87736733333333, "is_disabled": 0, "rental_uris": {"ios": "https://dc.lft.to/lastmile_qr_scan", "android": "https://dc.lft.to/lastmile_qr_scan"}}, {"fusion_lon": 0.0, "is_reserved": 0, "type": "electric_scooter", "lon": -77.05019083333333, "fusion_lat": 0.0, "name": "46a900712a0c459ef9c0012d20cd6d58", "bike_id": "46a900712a0c459ef9c0012d20cd6d58", "lat": 38.90171866666667, "is_disabled": 0, "rental_uris": {"ios": "https://dc.lft.to/lastmile_qr_scan", "android": "https://dc.lft.to/lastmile_qr_scan"}}, {"fusion_lon": 0.0, "is_reserved": 0, "type": "electric_scooter", "lon": -77.0271275, "fusion_lat": 0.0, "name": "35731230ef04aa61e525cc753d0b2357", "bike_id": "35731230ef04aa61e525cc753d0b2357", "lat": 38.924661666666665, "is_disabled": 0, "rental_uris": {"ios": "https://dc.lft.to/lastmile_qr_scan", "android": "https://dc.lft.to/lastmile_qr_scan"}}, {"fusion_lon": 0.0, "is_reserved": 0, "type": "electric_scooter", "lon": -77.0289035, "fusion_lat": 0.0, "name": "56a689760dceacc8f21589bbc7961b99", "bike_id": "56a689760dceacc8f21589bbc7961b99", "lat": 38.9232585, "is_disabled": 0, "rental_uris": {"ios": "https://dc.lft.to/lastmile_qr_scan", "android": "https://dc.lft.to/lastmile_qr_scan"}}, {"fusion_lon": 0.0, "is_reserved": 0, "type": "electric_scooter", "lon": -77.03796833333334, "fusion_lat": 0.0, "name": "6aed4152df854ed6877aa674e305796d", "bike_id": "6aed4152df854ed6877aa674e305796d", "lat": 38.9219695, "is_disabled": 0, "rental_uris": {"ios": "https://dc.lft.to/lastmile_qr_scan", "android": "https://dc.lft.to/lastmile_qr_scan"}}, {"fusion_lon": 0.0, "is_reserved": 0, "type": "electric_scooter", "lon": -77.04645866666667, "fusion_lat": 0.0, "name": "b82abeae133119e3be8ffddb6eb22d73", "bike_id": "b82abeae133119e3be8ffddb6eb22d73", "lat": 38.89336866666667, "is_disabled": 0, "rental_uris": {"ios": "https://dc.lft.to/lastmile_qr_scan", "android": "https://dc.lft.to/lastmile_qr_scan"}}, {"fusion_lon": 0.0, "is_reserved": 0, "type": "electric_scooter", "lon": -77.02207633333333, "fusion_lat": 0.0, "name": "ea278bc8412a7811cc7e71fd0dc0244d", "bike_id": "ea278bc8412a7811cc7e71fd0dc0244d", "lat": 38.887369166666666, "is_disabled": 0, "rental_uris": {"ios": "https://dc.lft.to/lastmile_qr_scan", "android": "https://dc.lft.to/lastmile_qr_scan"}}, {"fusion_lon": 0.0, "is_reserved": 0, "type": "electric_scooter", "lon": -77.03091416666666, "fusion_lat": 0.0, "name": "d2f6832f8d00bce12225e51f2951edfa", "bike_id": "d2f6832f8d00bce12225e51f2951edfa", "lat": 38.919227166666666, "is_disabled": 0, "rental_uris": {"ios": "https://dc.lft.to/lastmile_qr_scan", "android": "https://dc.lft.to/lastmile_qr_scan"}}, {"fusion_lon": 0.0, "is_reserved": 0, "type": "electric_scooter", "lon": -77.03962883333334, "fusion_lat": 0.0, "name": "70a56fc65703711018e9996bb84a3139", "bike_id": "70a56fc65703711018e9996bb84a3139", "lat": 38.90154866666666, "is_disabled": 0, "rental_uris": {"ios": "https://dc.lft.to/lastmile_qr_scan", "android": "https://dc.lft.to/lastmile_qr_scan"}}, {"fusion_lon": 0.0, "is_reserved": 0, "type": "electric_scooter", "lon": -77.0347405, "fusion_lat": 0.0, "name": "6dfde4419a07bc8d81574eef6b06f0ac", "bike_id": "6dfde4419a07bc8d81574eef6b06f0ac", "lat": 38.9233755, "is_disabled": 0, "rental_uris": {"ios": "https://dc.lft.to/lastmile_qr_scan", "android": "https://dc.lft.to/lastmile_qr_scan"}}, {"fusion_lon": 0.0, "is_reserved": 0, "type": "electric_scooter", "lon": -77.020175, "fusion_lat": 0.0, "name": "91f7bf6ff95ca4143f85f4346bdc2843", "bike_id": "91f7bf6ff95ca4143f85f4346bdc2843", "lat": 38.92435, "is_disabled": 0, "rental_uris": {"ios": "https://dc.lft.to/lastmile_qr_scan", "android": "https://dc.lft.to/lastmile_qr_scan"}}, {"fusion_lon": 0.0, "is_reserved": 0, "type": "electric_scooter", "lon": -77.01560883333333, "fusion_lat": 0.0, "name": "a6a9b896cb4282b6db11a629f543f9c3", "bike_id": "a6a9b896cb4282b6db11a629f543f9c3", "lat": 38.89172833333333, "is_disabled": 0, "rental_uris": {"ios": "https://dc.lft.to/lastmile_qr_scan", "android": "https://dc.lft.to/lastmile_qr_scan"}}, {"fusion_lon": 0.0, "is_reserved": 0, "type": "electric_scooter", "lon": -77.0569115, "fusion_lat": 0.0, "name": "a0cec146db1be7a7f56454fce364f429", "bike_id": "a0cec146db1be7a7f56454fce364f429", "lat": 38.90601433333333, "is_disabled": 0, "rental_uris": {"ios": "https://dc.lft.to/lastmile_qr_scan", "android": "https://dc.lft.to/lastmile_qr_scan"}}, {"fusion_lon": 0.0, "is_reserved": 0, "type": "electric_scooter", "lon": -77.0417405, "fusion_lat": 0.0, "name": "58c684d8438e1e8e79b959ed388f41fb", "bike_id": "58c684d8438e1e8e79b959ed388f41fb", "lat": 38.9099635, "is_disabled": 0, "rental_uris": {"ios": "https://dc.lft.to/lastmile_qr_scan", "android": "https://dc.lft.to/lastmile_qr_scan"}}, {"fusion_lon": 0.0, "is_reserved": 0, "type": "electric_scooter", "lon": -77.04995066666666, "fusion_lat": 0.0, "name": "4bb6707c646b7da00380cb3bb04cdf7c", "bike_id": "4bb6707c646b7da00380cb3bb04cdf7c", "lat": 38.904665, "is_disabled": 0, "rental_uris": {"ios": "https://dc.lft.to/lastmile_qr_scan", "android": "https://dc.lft.to/lastmile_qr_scan"}}, {"fusion_lon": 0.0, "is_reserved": 0, "type": "electric_scooter", "lon": -76.99039616666667, "fusion_lat": 0.0, "name": "a56be7215eb5e882804b196d35f7ea1d", "bike_id": "a56be7215eb5e882804b196d35f7ea1d", "lat": 38.89743, "is_disabled": 0, "rental_uris": {"ios": "https://dc.lft.to/lastmile_qr_scan", "android": "https://dc.lft.to/lastmile_qr_scan"}}, {"fusion_lon": 0.0, "is_reserved": 0, "type": "electric_scooter", "lon": -77.01564983333333, "fusion_lat": 0.0, "name": "7be3c47da32e0dd732590ff6e70c878e", "bike_id": "7be3c47da32e0dd732590ff6e70c878e", "lat": 38.89172883333333, "is_disabled": 0, "rental_uris": {"ios": "https://dc.lft.to/lastmile_qr_scan", "android": "https://dc.lft.to/lastmile_qr_scan"}}, {"fusion_lon": 0.0, "is_reserved": 0, "type": "electric_scooter", "lon": -77.02953416666666, "fusion_lat": 0.0, "name": "366de1ae4ca9451beebe0d530607cf98", "bike_id": "366de1ae4ca9451beebe0d530607cf98", "lat": 38.917696666666664, "is_disabled": 0, "rental_uris": {"ios": "https://dc.lft.to/lastmile_qr_scan", "android": "https://dc.lft.to/lastmile_qr_scan"}}, {"fusion_lon": 0.0, "is_reserved": 0, "type": "electric_scooter", "lon": -77.0371165, "fusion_lat": 0.0, "name": "377fd2a213cb5199dcf72c1806d66bd2", "bike_id": "377fd2a213cb5199dcf72c1806d66bd2", "lat": 38.90360966666667, "is_disabled": 0, "rental_uris": {"ios": "https://dc.lft.to/lastmile_qr_scan", "android": "https://dc.lft.to/lastmile_qr_scan"}}, {"fusion_lon": 0.0, "is_reserved": 0, "type": "electric_scooter", "lon": -77.035044, "fusion_lat": 0.0, "name": "a84dbe54e8ee3e0a0bbaaa1ceeb663d5", "bike_id": "a84dbe54e8ee3e0a0bbaaa1ceeb663d5", "lat": 38.909597833333336, "is_disabled": 0, "rental_uris": {"ios": "https://dc.lft.to/lastmile_qr_scan", "android": "https://dc.lft.to/lastmile_qr_scan"}}, {"fusion_lon": 0.0, "is_reserved": 0, "type": "electric_scooter", "lon": -77.03793483333334, "fusion_lat": 0.0, "name": "0530c2301654c0ed2f91c26b8291956b", "bike_id": "0530c2301654c0ed2f91c26b8291956b", "lat": 38.9181325, "is_disabled": 0, "rental_uris": {"ios": "https://dc.lft.to/lastmile_qr_scan", "android": "https://dc.lft.to/lastmile_qr_scan"}}, {"fusion_lon": 0.0, "is_reserved": 0, "type": "electric_bike", "lon": -76.97237383333334, "fusion_lat": 0.0, "name": "86138120ff11d165574509bb12adaa2c", "bike_id": "86138120ff11d165574509bb12adaa2c", "lat": 38.9043195, "is_disabled": 0, "rental_uris": {"ios": "https://dc.lft.to/lastmile_qr_scan", "android": "https://dc.lft.to/lastmile_qr_scan"}}, {"fusion_lon": 0.0, "is_reserved": 0, "type": "electric_scooter", "lon": -77.0372525, "fusion_lat": 0.0, "name": "5660e0e2aaa803906bd7867ad2f2b155", "bike_id": "5660e0e2aaa803906bd7867ad2f2b155", "lat": 38.926547, "is_disabled": 0, "rental_uris": {"ios": "https://dc.lft.to/lastmile_qr_scan", "android": "https://dc.lft.to/lastmile_qr_scan"}}, {"fusion_lon": 0.0, "is_reserved": 0, "type": "electric_scooter", "lon": -77.0670445, "fusion_lat": 0.0, "name": "9cffb2e2c53033748093f9368bfec8e3", "bike_id": "9cffb2e2c53033748093f9368bfec8e3", "lat": 38.943394, "is_disabled": 0, "rental_uris": {"ios": "https://dc.lft.to/lastmile_qr_scan", "android": "https://dc.lft.to/lastmile_qr_scan"}}, {"fusion_lon": 0.0, "is_reserved": 0, "type": "electric_scooter", "lon": -77.03902366666667, "fusion_lat": 0.0, "name": "749363b5c69d1e26c0cbbfcaa546cb4b", "bike_id": "749363b5c69d1e26c0cbbfcaa546cb4b", "lat": 38.912567, "is_disabled": 0, "rental_uris": {"ios": "https://dc.lft.to/lastmile_qr_scan", "android": "https://dc.lft.to/lastmile_qr_scan"}}, {"fusion_lon": 0.0, "is_reserved": 0, "type": "electric_bike", "lon": -76.91130166666667, "fusion_lat": 0.0, "name": "34e0a27523407452d0e8b8aee964ad56", "bike_id": "34e0a27523407452d0e8b8aee964ad56", "lat": 38.998802, "is_disabled": 0, "rental_uris": {"ios": "https://dc.lft.to/lastmile_qr_scan", "android": "https://dc.lft.to/lastmile_qr_scan"}}, {"fusion_lon": 0.0, "is_reserved": 0, "type": "electric_scooter", "lon": -77.04359616666666, "fusion_lat": 0.0, "name": "70598e359ffb68db8d263047cca9c4e7", "bike_id": "70598e359ffb68db8d263047cca9c4e7", "lat": 38.89834366666667, "is_disabled": 0, "rental_uris": {"ios": "https://dc.lft.to/lastmile_qr_scan", "android": "https://dc.lft.to/lastmile_qr_scan"}}, {"fusion_lon": 0.0, "is_reserved": 0, "type": "electric_scooter", "lon": -77.02291883333334, "fusion_lat": 0.0, "name": "5b0d0dc3ebff3bc73d614877ef223e5b", "bike_id": "5b0d0dc3ebff3bc73d614877ef223e5b", "lat": 38.92684533333333, "is_disabled": 0, "rental_uris": {"ios": "https://dc.lft.to/lastmile_qr_scan", "android": "https://dc.lft.to/lastmile_qr_scan"}}, {"fusion_lon": 0.0, "is_reserved": 0, "type": "electric_scooter", "lon": -77.012094, "fusion_lat": 0.0, "name": "acd5e7d8613c88223f4a3f8142b3c5d6", "bike_id": "acd5e7d8613c88223f4a3f8142b3c5d6", "lat": 38.92115, "is_disabled": 0, "rental_uris": {"ios": "https://dc.lft.to/lastmile_qr_scan", "android": "https://dc.lft.to/lastmile_qr_scan"}}, {"fusion_lon": 0.0, "is_reserved": 0, "type": "electric_scooter", "lon": -77.0398205, "fusion_lat": 0.0, "name": "d8ae8b392e0ad32513d2be24c633e86e", "bike_id": "d8ae8b392e0ad32513d2be24c633e86e", "lat": 38.8999655, "is_disabled": 0, "rental_uris": {"ios": "https://dc.lft.to/lastmile_qr_scan", "android": "https://dc.lft.to/lastmile_qr_scan"}}, {"fusion_lon": 0.0, "is_reserved": 0, "type": "electric_scooter", "lon": -77.02158016666667, "fusion_lat": 0.0, "name": "ca1c4650a9a8676f2a431a2ccd07fee7", "bike_id": "ca1c4650a9a8676f2a431a2ccd07fee7", "lat": 38.92482416666667, "is_disabled": 0, "rental_uris": {"ios": "https://dc.lft.to/lastmile_qr_scan", "android": "https://dc.lft.to/lastmile_qr_scan"}}, {"fusion_lon": 0.0, "is_reserved": 0, "type": "electric_scooter", "lon": -77.01185933333333, "fusion_lat": 0.0, "name": "14e6d9217fd8d522cb64a27aae4bf05b", "bike_id": "14e6d9217fd8d522cb64a27aae4bf05b", "lat": 38.900177666666664, "is_disabled": 0, "rental_uris": {"ios": "https://dc.lft.to/lastmile_qr_scan", "android": "https://dc.lft.to/lastmile_qr_scan"}}, {"fusion_lon": 0.0, "is_reserved": 0, "type": "electric_scooter", "lon": -77.026824, "fusion_lat": 0.0, "name": "bd0fa46ae59c9516b207dc254eaf0fd9", "bike_id": "bd0fa46ae59c9516b207dc254eaf0fd9", "lat": 38.89628616666667, "is_disabled": 0, "rental_uris": {"ios": "https://dc.lft.to/lastmile_qr_scan", "android": "https://dc.lft.to/lastmile_qr_scan"}}, {"fusion_lon": 0.0, "is_reserved": 0, "type": "electric_scooter", "lon": -76.98489333333333, "fusion_lat": 0.0, "name": "4c28e6a56e6f179adc254bb24279e572", "bike_id": "4c28e6a56e6f179adc254bb24279e572", "lat": 38.909887, "is_disabled": 0, "rental_uris": {"ios": "https://dc.lft.to/lastmile_qr_scan", "android": "https://dc.lft.to/lastmile_qr_scan"}}, {"fusion_lon": 0.0, "is_reserved": 0, "type": "electric_scooter", "lon": -77.02300333333334, "fusion_lat": 0.0, "name": "14d46328f1073070b3a7d42e721749ac", "bike_id": "14d46328f1073070b3a7d42e721749ac", "lat": 38.91899016666667, "is_disabled": 0, "rental_uris": {"ios": "https://dc.lft.to/lastmile_qr_scan", "android": "https://dc.lft.to/lastmile_qr_scan"}}, {"fusion_lon": 0.0, "is_reserved": 0, "type": "electric_scooter", "lon": -77.02177416666666, "fusion_lat": 0.0, "name": "d751bbb8b1f3374464761896468cca8c", "bike_id": "d751bbb8b1f3374464761896468cca8c", "lat": 38.898698833333334, "is_disabled": 0, "rental_uris": {"ios": "https://dc.lft.to/lastmile_qr_scan", "android": "https://dc.lft.to/lastmile_qr_scan"}}, {"fusion_lon": 0.0, "is_reserved": 0, "type": "electric_bike", "lon": -76.94525666666667, "fusion_lat": 0.0, "name": "b0d091f5b794153981c6d78dadf94696", "bike_id": "b0d091f5b794153981c6d78dadf94696", "lat": 38.862837, "is_disabled": 0, "rental_uris": {"ios": "https://dc.lft.to/lastmile_qr_scan", "android": "https://dc.lft.to/lastmile_qr_scan"}}, {"fusion_lon": 0.0, "is_reserved": 0, "type": "electric_scooter", "lon": -77.03038233333334, "fusion_lat": 0.0, "name": "56960294dd55264f02f87b3695000e5c", "bike_id": "56960294dd55264f02f87b3695000e5c", "lat": 38.912617833333336, "is_disabled": 0, "rental_uris": {"ios": "https://dc.lft.to/lastmile_qr_scan", "android": "https://dc.lft.to/lastmile_qr_scan"}}, {"fusion_lon": 0.0, "is_reserved": 0, "type": "electric_scooter", "lon": -76.99147783333333, "fusion_lat": 0.0, "name": "84e069a7597d23d746b3af03a4c47a23", "bike_id": "84e069a7597d23d746b3af03a4c47a23", "lat": 38.9004725, "is_disabled": 0, "rental_uris": {"ios": "https://dc.lft.to/lastmile_qr_scan", "android": "https://dc.lft.to/lastmile_qr_scan"}}, {"fusion_lon": 0.0, "is_reserved": 0, "type": "electric_scooter", "lon": -77.06665466666666, "fusion_lat": 0.0, "name": "963260d2a2b8c147cb8ba8cbfb79a0dd", "bike_id": "963260d2a2b8c147cb8ba8cbfb79a0dd", "lat": 38.94957316666667, "is_disabled": 0, "rental_uris": {"ios": "https://dc.lft.to/lastmile_qr_scan", "android": "https://dc.lft.to/lastmile_qr_scan"}}, {"fusion_lon": 0.0, "is_reserved": 0, "type": "electric_scooter", "lon": -77.031844, "fusion_lat": 0.0, "name": "10619bc4cc4a8472e5b0c6909a6b31a1", "bike_id": "10619bc4cc4a8472e5b0c6909a6b31a1", "lat": 38.92110433333333, "is_disabled": 0, "rental_uris": {"ios": "https://dc.lft.to/lastmile_qr_scan", "android": "https://dc.lft.to/lastmile_qr_scan"}}, {"fusion_lon": 0.0, "is_reserved": 0, "type": "electric_scooter", "lon": -76.986835, "fusion_lat": 0.0, "name": "f1b020961a987860b6b902e9b5029017", "bike_id": "f1b020961a987860b6b902e9b5029017", "lat": 38.89885683333333, "is_disabled": 0, "rental_uris": {"ios": "https://dc.lft.to/lastmile_qr_scan", "android": "https://dc.lft.to/lastmile_qr_scan"}}, {"fusion_lon": 0.0, "is_reserved": 0, "type": "electric_scooter", "lon": -77.03942633333334, "fusion_lat": 0.0, "name": "c3eacfb8a5a42e1558c6cd3f7bba717f", "bike_id": "c3eacfb8a5a42e1558c6cd3f7bba717f", "lat": 38.91558583333333, "is_disabled": 0, "rental_uris": {"ios": "https://dc.lft.to/lastmile_qr_scan", "android": "https://dc.lft.to/lastmile_qr_scan"}}, {"fusion_lon": 0.0, "is_reserved": 0, "type": "electric_scooter", "lon": -77.03738683333333, "fusion_lat": 0.0, "name": "8ed07c4b792fd9d23ca904db267be05b", "bike_id": "8ed07c4b792fd9d23ca904db267be05b", "lat": 38.902621333333336, "is_disabled": 0, "rental_uris": {"ios": "https://dc.lft.to/lastmile_qr_scan", "android": "https://dc.lft.to/lastmile_qr_scan"}}, {"fusion_lon": 0.0, "is_reserved": 0, "type": "electric_scooter", "lon": -77.05029833333333, "fusion_lat": 0.0, "name": "dc600637f89c71bfc225d834438b4477", "bike_id": "dc600637f89c71bfc225d834438b4477", "lat": 38.9236765, "is_disabled": 0, "rental_uris": {"ios": "https://dc.lft.to/lastmile_qr_scan", "android": "https://dc.lft.to/lastmile_qr_scan"}}, {"fusion_lon": 0.0, "is_reserved": 0, "type": "electric_scooter", "lon": -77.0447035, "fusion_lat": 0.0, "name": "cd0c1e731a56ff0c491d8782d00a431a", "bike_id": "cd0c1e731a56ff0c491d8782d00a431a", "lat": 38.905614666666665, "is_disabled": 0, "rental_uris": {"ios": "https://dc.lft.to/lastmile_qr_scan", "android": "https://dc.lft.to/lastmile_qr_scan"}}, {"fusion_lon": 0.0, "is_reserved": 0, "type": "electric_scooter", "lon": -77.0263125, "fusion_lat": 0.0, "name": "92f793d0dbe45edc001a3e4385c8da4a", "bike_id": "92f793d0dbe45edc001a3e4385c8da4a", "lat": 38.896055833333335, "is_disabled": 0, "rental_uris": {"ios": "https://dc.lft.to/lastmile_qr_scan", "android": "https://dc.lft.to/lastmile_qr_scan"}}, {"fusion_lon": 0.0, "is_reserved": 0, "type": "electric_scooter", "lon": -76.92803366666666, "fusion_lat": 0.0, "name": "dc7d9e09d77a34c94ecb929eb8987dbe", "bike_id": "dc7d9e09d77a34c94ecb929eb8987dbe", "lat": 38.8963915, "is_disabled": 0, "rental_uris": {"ios": "https://dc.lft.to/lastmile_qr_scan", "android": "https://dc.lft.to/lastmile_qr_scan"}}, {"fusion_lon": 0.0, "is_reserved": 0, "type": "electric_scooter", "lon": -77.04810666666667, "fusion_lat": 0.0, "name": "e18c6c7e37e1f86cee640694b09fcd7f", "bike_id": "e18c6c7e37e1f86cee640694b09fcd7f", "lat": 38.91636333333334, "is_disabled": 0, "rental_uris": {"ios": "https://dc.lft.to/lastmile_qr_scan", "android": "https://dc.lft.to/lastmile_qr_scan"}}, {"fusion_lon": 0.0, "is_reserved": 0, "type": "electric_scooter", "lon": -76.9817645, "fusion_lat": 0.0, "name": "3841d14a9620452c2c75fe0819a5718e", "bike_id": "3841d14a9620452c2c75fe0819a5718e", "lat": 38.8897245, "is_disabled": 0, "rental_uris": {"ios": "https://dc.lft.to/lastmile_qr_scan", "android": "https://dc.lft.to/lastmile_qr_scan"}}, {"fusion_lon": 0.0, "is_reserved": 0, "type": "electric_scooter", "lon": -77.03222616666666, "fusion_lat": 0.0, "name": "a62cd8d08c00c9fcf245b46e7e65544c", "bike_id": "a62cd8d08c00c9fcf245b46e7e65544c", "lat": 38.916517666666664, "is_disabled": 0, "rental_uris": {"ios": "https://dc.lft.to/lastmile_qr_scan", "android": "https://dc.lft.to/lastmile_qr_scan"}}, {"fusion_lon": 0.0, "is_reserved": 0, "type": "electric_bike", "lon": -77.00299933333334, "fusion_lat": 0.0, "name": "aac9bdcfe3b79de18792f0387a5a070b", "bike_id": "aac9bdcfe3b79de18792f0387a5a070b", "lat": 38.94293283333333, "is_disabled": 0, "rental_uris": {"ios": "https://dc.lft.to/lastmile_qr_scan", "android": "https://dc.lft.to/lastmile_qr_scan"}}, {"fusion_lon": 0.0, "is_reserved": 0, "type": "electric_scooter", "lon": -77.01500983333334, "fusion_lat": 0.0, "name": "1d1381da32c664c260c6832e2a32a222", "bike_id": "1d1381da32c664c260c6832e2a32a222", "lat": 38.90147, "is_disabled": 0, "rental_uris": {"ios": "https://dc.lft.to/lastmile_qr_scan", "android": "https://dc.lft.to/lastmile_qr_scan"}},