{"data": {"bikes": [{"fusion_lat": 0.0, "name": "31b1adbf0de68a1913d1ca44465b61e1", "is_disabled": 0, "rental_uris": {"android": "https://dc.lft.to/lastmile_qr_scan", "ios": "https://dc.lft.to/lastmile_qr_scan"}, "fusion_lon": 0.0, "lat": 38.92442916666667, "bike_id": "31b1adbf0de68a1913d1ca44465b61e1", "type": "electric_scooter", "is_reserved": 0, "lon": -77.03522166666667}, {"fusion_lat": 0.0, "name": "68b3592e69c40c36bb37e929d28d17b0", "is_disabled": 0, "rental_uris": {"android": "https://dc.lft.to/lastmile_qr_scan", "ios": "https://dc.lft.to/lastmile_qr_scan"}, "fusion_lon": 0.0, "lat": 38.920542, "bike_id": "68b3592e69c40c36bb37e929d28d17b0", "type": "electric_scooter", "is_reserved": 0, "lon": -77.034716}, {"fusion_lat": 0.0, "name": "775bda8950b7145eebdba2c218f3bb09", "is_disabled": 0, "rental_uris": {"android": "https://dc.lft.to/lastmile_qr_scan", "ios": "https://dc.lft.to/lastmile_qr_scan"}, "fusion_lon": 0.0, "lat": 38.906173, "bike_id": "775bda8950b7145eebdba2c218f3bb09", "type": "electric_scooter", "is_reserved": 0, "lon": -77.02607933333333}, {"fusion_lat": 0.0, "name": "be1e80fbdd9285f2acde3e112e4643d9", "is_disabled": 0, "rental_uris": {"android": "https://dc.lft.to/lastmile_qr_scan", "ios": "https://dc.lft.to/lastmile_qr_scan"}, "fusion_lon": 0.0, "lat": 38.97373, "bike_id": "be1e80fbdd9285f2acde3e112e4643d9", "type": "electric_scooter", "is_reserved": 0, "lon": -77.02435233333334}, {"fusion_lat": 0.0, "name": "ee4ab847daba56f436e0c7074aa5b70c", "is_disabled": 0, "rental_uris": {"android": "https://dc.lft.to/lastmile_qr_scan", "ios": "https://dc.lft.to/lastmile_qr_scan"}, "fusion_lon": 0.0, "lat": 38.90509733333333, "bike_id": "ee4ab847daba56f436e0c7074aa5b70c", "type": "electric_scooter", "is_reserved": 0, "lon": -77.04762583333333}, {"fusion_lat": 0.0, "name": "92dc3a705a123621c0f35d911f69dee9", "is_disabled": 0, "rental_uris": {"android": "https://dc.lft.to/lastmile_qr_scan", "ios": "https://dc.lft.to/lastmile_qr_scan"}, "fusion_lon": 0.0, "lat": 38.900637, "bike_id": "92dc3a705a123621c0f35d911f69dee9", "type": "electric_scooter", "is_reserved": 0, "lon": -76.93383483333334}, {"fusion_lat": 0.0, "name": "1f0a847940d294e779d9afdf49f14bc2", "is_disabled": 0, "rental_uris": {"android": "https://dc.lft.to/lastmile_qr_scan", "ios": "https://dc.lft.to/lastmile_qr_scan"}, "fusion_lon": 0.0, "lat": 38.89834483333333, "bike_id": "1f0a847940d294e779d9afdf49f14bc2", "type": "electric_scooter", "is_reserved": 0, "lon": -76.94633916666666}, {"fusion_lat": 0.0, "name": "391e293ca7b7d177cfb804ed8b8596a1", "is_disabled": 0, "rental_uris": {"android": "https://dc.lft.to/lastmile_qr_scan", "ios": "https://dc.lft.to/lastmile_qr_scan"}, "fusion_lon": 0.0, "lat": 38.92379783333333, "bike_id": "391e293ca7b7d177cfb804ed8b8596a1", "type": "electric_scooter", "is_reserved": 0, "lon": -77.05250466666666}, {"fusion_lat": 0.0, "name": "0aa787c63fd90ac2c20510be0bac8804", "is_disabled": 0, "rental_uris": {"android": "https://dc.lft.to/lastmile_qr_scan", "ios": "https://dc.lft.to/lastmile_qr_scan"}, "fusion_lon": 0.0, "lat": 38.90569883333333, "bike_id": "0aa787c63fd90ac2c20510be0bac8804", "type": "electric_scooter", "is_reserved": 0, "lon": -77.00547233333333}, {"fusion_lat": 0.0, "name": "bc0b325ab159d096df0ffc7b223407c0", "is_disabled": 0, "rental_uris": {"android": "https://dc.lft.to/lastmile_qr_scan", "ios": "https://dc.lft.to/lastmile_qr_scan"}, "fusion_lon": 0.0, "lat": 38.90387666666667, "bike_id": "bc0b325ab159d096df0ffc7b223407c0", "type": "electric_scooter", "is_reserved": 0, "lon": -77.06135783333333}, {"fusion_lat": 0.0, "name": "3b3f474127f35d3578b7dff4ce52ba9b", "is_disabled": 0, "rental_uris": {"android": "https://dc.lft.to/lastmile_qr_scan", "ios": "https://dc.lft.to/lastmile_qr_scan"}, "fusion_lon": 0.0, "lat": 38.9095245, "bike_id": "3b3f474127f35d3578b7dff4ce52ba9b", "type": "electric_scooter", "is_reserved": 0, "lon": -77.023734}, {"fusion_lat": 0.0, "name": "cfd787b261a7bc8d340f1b0f18251515", "is_disabled": 0, "rental_uris": {"android": "https://dc.lft.to/lastmile_qr_scan", "ios": "https://dc.lft.to/lastmile_qr_scan"}, "fusion_lon": 0.0, "lat": 38.898574833333335, "bike_id": "cfd787b261a7bc8d340f1b0f18251515", "type": "electric_scooter", "is_reserved": 0, "lon": -77.022206}, {"fusion_lat": 0.0, "name": "62add382247f0c36b340ba30b9c36f91", "is_disabled": 0, "rental_uris": {"android": "https://dc.lft.to/lastmile_qr_scan", "ios": "https://dc.lft.to/lastmile_qr_scan"}, "fusion_lon": 0.0, "lat": 38.9065195, "bike_id": "62add382247f0c36b340ba30b9c36f91", "type": "electric_scooter", "is_reserved": 0, "lon": -77.0486955}, {"fusion_lat": 0.0, "name": "62d88f1daae8ab09fb38a947067fc0b3", "is_disabled": 0, "rental_uris": {"android": "https://dc.lft.to/lastmile_qr_scan", "ios": "https://dc.lft.to/lastmile_qr_scan"}, "fusion_lon": 0.0, "lat": 38.878874833333334, "bike_id": "62d88f1daae8ab09fb38a947067fc0b3", "type": "electric_scooter", "is_reserved": 0, "lon": -76.96545833333333}, {"fusion_lat": 0.0, "name": "0dda641d8c05bc2ab2abd9fa2a1f59e4", "is_disabled": 0, "rental_uris": {"android": "https://dc.lft.to/lastmile_qr_scan", "ios": "https://dc.lft.to/lastmile_qr_scan"}, "fusion_lon": 0.0, "lat": 38.904044666666664, "bike_id": "0dda641d8c05bc2ab2abd9fa2a1f59e4", "type": "electric_scooter", "is_reserved": 0, "lon": -77.0366295}, {"fusion_lat": 0.0, "name": "20f03fd85c77f01bf5abc6f379afa561", "is_disabled": 0, "rental_uris": {"android": "https://dc.lft.to/lastmile_qr_scan", "ios": "https://dc.lft.to/lastmile_qr_scan"}, "fusion_lon": 0.0, "lat": 38.89519933333333, "bike_id": "20f03fd85c77f01bf5abc6f379afa561", "type": "electric_scooter", "is_reserved": 0, "lon": -77.00923466666667}, {"fusion_lat": 0.0, "name": "d661195f798a61b4af902e9927b31ba1", "is_disabled": 0, "rental_uris": {"android": "https://dc.lft.to/lastmile_qr_scan", "ios": "https://dc.lft.to/lastmile_qr_scan"}, "fusion_lon": 0.0, "lat": 38.90162183333333, "bike_id": "d661195f798a61b4af902e9927b31ba1", "type": "electric_scooter", "is_reserved": 0, "lon": -77.03172533333333}, {"fusion_lat": 0.0, "name": "6041792822f2be47dad0ab857d9c1b35", "is_disabled": 0, "rental_uris": {"android": "https://dc.lft.to/lastmile_qr_scan", "ios": "https://dc.lft.to/lastmile_qr_scan"}, "fusion_lon": 0.0, "lat": 38.92252516666667, "bike_id": "6041792822f2be47dad0ab857d9c1b35", "type": "electric_scooter", "is_reserved": 0, "lon": -77.042455}, {"fusion_lat": 0.0, "name": "f4183a5c6fddd33379f18b5976ad92f0", "is_disabled": 0, "rental_uris": {"android": "https://dc.lft.to/lastmile_qr_scan", "ios": "https://dc.lft.to/lastmile_qr_scan"}, "fusion_lon": 0.0, "lat": 38.9238145, "bike_id": "f4183a5c6fddd33379f18b5976ad92f0", "type": "electric_scooter", "is_reserved": 0, "lon": -77.027377}, {"fusion_lat": 0.0, "name": "97ca33c1dfadcdb8d26cc5af5baa144d", "is_disabled": 0, "rental_uris": {"android": "https://dc.lft.to/lastmile_qr_scan", "ios": "https://dc.lft.to/lastmile_qr_scan"}, "fusion_lon": 0.0, "lat": 38.9129115, "bike_id": "97ca33c1dfadcdb8d26cc5af5baa144d", "type": "electric_scooter", "is_reserved": 0, "lon": -77.04516866666667}, {"fusion_lat": 0.0, "name": "c7fdfef7576b0aa59168f2eea6d311a9", "is_disabled": 0, "rental_uris": {"android": "https://dc.lft.to/lastmile_qr_scan", "ios": "https://dc.lft.to/lastmile_qr_scan"}, "fusion_lon": 0.0, "lat": 38.92260516666666, "bike_id": "c7fdfef7576b0aa59168f2eea6d311a9", "type": "electric_scooter", "is_reserved": 0, "lon": -77.03661116666666}, {"fusion_lat": 0.0, "name": "85186c5e52c3f2bf2b3540aff4e80b3b", "is_disabled": 0, "rental_uris": {"android": "https://dc.lft.to/lastmile_qr_scan", "ios": "https://dc.lft.to/lastmile_qr_scan"}, "fusion_lon": 0.0, "lat": 38.911690666666665, "bike_id": "85186c5e52c3f2bf2b3540aff4e80b3b", "type": "electric_scooter", "is_reserved": 0, "lon": -76.987232}, {"fusion_lat": 0.0, "name": "17c03f2bc81421d3f1d7cee90f307528", "is_disabled": 0, "rental_uris": {"android": "https://dc.lft.to/lastmile_qr_scan", "ios": "https://dc.lft.to/lastmile_qr_scan"}, "fusion_lon": 0.0, "lat": 38.945382333333335, "bike_id": "17c03f2bc81421d3f1d7cee90f307528", "type": "electric_scooter", "is_reserved": 0, "lon": -77.01684166666666}, {"fusion_lat": 0.0, "name": "92e40a71d7bd118731e96e98d30b108c", "is_disabled": 0, "rental_uris": {"android": "https://dc.lft.to/lastmile_qr_scan", "ios": "https://dc.lft.to/lastmile_qr_scan"}, "fusion_lon": 0.0, "lat": 38.934858166666665, "bike_id": "92e40a71d7bd118731e96e98d30b108c", "type": "electric_scooter", "is_reserved": 0, "lon": -77.03015966666666}, {"fusion_lat": 0.0, "name": "60a216bae9ffa75e8dcb1ebe07914d34", "is_disabled": 0, "rental_uris": {"android": "https://dc.lft.to/lastmile_qr_scan", "ios": "https://dc.lft.to/lastmile_qr_scan"}, "fusion_lon": 0.0, "lat": 38.83307283333333, "bike_id": "60a216bae9ffa75e8dcb1ebe07914d34", "type": "electric_bike", "is_reserved": 0, "lon": -77.04176783333334}, {"fusion_lat": 0.0, "name": "936557cbacbf444b56924001e0429cea", "is_disabled": 0, "rental_uris": {"android": "https://dc.lft.to/lastmile_qr_scan", "ios": "https://dc.lft.to/lastmile_qr_scan"}, "fusion_lon": 0.0, "lat": 38.874396833333336, "bike_id": "936557cbacbf444b56924001e0429cea", "type": "electric_scooter", "is_reserved": 0, "lon": -77.00581783333334}, {"fusion_lat": 0.0, "name": "8bbe10ad9c31e65a3307a2b5b83b9102", "is_disabled": 0, "rental_uris": {"android": "https://dc.lft.to/lastmile_qr_scan", "ios": "https://dc.lft.to/lastmile_qr_scan"}, "fusion_lon": 0.0, "lat": 38.913694666666665, "bike_id": "8bbe10ad9c31e65a3307a2b5b83b9102", "type": "electric_scooter", "is_reserved": 0, "lon": -77.02072333333334}, {"fusion_lat": 0.0, "name": "174b2bd5803e80127b90c187f7ce76f7", "is_disabled": 0, "rental_uris": {"android": "https://dc.lft.to/lastmile_qr_scan", "ios": "https://dc.lft.to/lastmile_qr_scan"}, "fusion_lon": 0.0, "lat": 38.897384833333334, "bike_id": "174b2bd5803e80127b90c187f7ce76f7", "type": "electric_scooter", "is_reserved": 0, "lon": -77.03349316666667}, {"fusion_lat": 0.0, "name": "3577df34728a3d7e92fa805064a95b35", "is_disabled": 0, "rental_uris": {"android": "https://dc.lft.to/lastmile_qr_scan", "ios": "https://dc.lft.to/lastmile_qr_scan"}, "fusion_lon": 0.0, "lat": 38.92388783333333, "bike_id": "3577df34728a3d7e92fa805064a95b35", "type": "electric_scooter", "is_reserved": 0, "lon": -77.03645}, {"fusion_lat": 0.0, "name": "989f376a1ada78c293be3e07a39be561", "is_disabled": 0, "rental_uris": {"android": "https://dc.lft.to/lastmile_qr_scan", "ios": "https://dc.lft.to/lastmile_qr_scan"}, "fusion_lon": 0.0, "lat": 38.9201845, "bike_id": "989f376a1ada78c293be3e07a39be561", "type": "electric_scooter", "is_reserved": 0, "lon": -77.02501583333333}, {"fusion_lat": 0.0, "name": "3f3a42cfbad7213b1b4d4de1ce5c5d1f", "is_disabled": 0, "rental_uris": {"android": "https://dc.lft.to/lastmile_qr_scan", "ios": "https://dc.lft.to/lastmile_qr_scan"}, "fusion_lon": 0.0, "lat": 38.91481783333333, "bike_id": "3f3a42cfbad7213b1b4d4de1ce5c5d1f", "type": "electric_scooter", "is_reserved": 0, "lon": -77.0352135}, {"fusion_lat": 0.0, "name": "0991ae5f3666e90fce431417676e4755", "is_disabled": 0, "rental_uris": {"android": "https://dc.lft.to/lastmile_qr_scan", "ios": "https://dc.lft.to/lastmile_qr_scan"}, "fusion_lon": 0.0, "lat": 38.86575, "bike_id": "0991ae5f3666e90fce431417676e4755", "type": "electric_bike", "is_reserved": 0, "lon": -76.9737695}, {"fusion_lat": 0.0, "name": "102c5896a219af26fa30c688994dc430", "is_disabled": 0, "rental_uris": {"android": "https://dc.lft.to/lastmile_qr_scan", "ios": "https://dc.lft.to/lastmile_qr_scan"}, "fusion_lon": 0.0, "lat": 38.900627, "bike_id": "102c5896a219af26fa30c688994dc430", "type": "electric_scooter", "is_reserved": 0, "lon": -77.01612916666667}, {"fusion_lat": 0.0, "name": "a4f7bb889bcba2d18b696d8eeb63f3f7", "is_disabled": 0, "rental_uris": {"android": "https://dc.lft.to/lastmile_qr_scan", "ios": "https://dc.lft.to/lastmile_qr_scan"}, "fusion_lon": 0.0, "lat": 38.94098533333333, "bike_id": "a4f7bb889bcba2d18b696d8eeb63f3f7", "type": "electric_scooter", "is_reserved": 0, "lon": -77.03279566666667}, {"fusion_lat": 0.0, "name": "96a0334b9e26194dfc44947f54cc41eb", "is_disabled": 0, "rental_uris": {"android": "https://dc.lft.to/lastmile_qr_scan", "ios": "https://dc.lft.to/lastmile_qr_scan"}, "fusion_lon": 0.0, "lat": 38.90600883333333, "bike_id": "96a0334b9e26194dfc44947f54cc41eb", "type": "electric_scooter", "is_reserved": 0, "lon": -77.0260295}, {"fusion_lat": 0.0, "name": "b362af04f03a7344aa92654bcbee00b5", "is_disabled": 0, "rental_uris": {"android": "https://dc.lft.to/lastmile_qr_scan", "ios": "https://dc.lft.to/lastmile_qr_scan"}, "fusion_lon": 0.0, "lat": 38.920184, "bike_id": "b362af04f03a7344aa92654bcbee00b5", "type": "electric_scooter", "is_reserved": 0, "lon": -77.02498466666667}, {"fusion_lat": 0.0, "name": "e0704370ccfdbc309eaf74ed47ad599f", "is_disabled": 0, "rental_uris": {"android": "https://dc.lft.to/lastmile_qr_scan", "ios": "https://dc.lft.to/lastmile_qr_scan"}, "fusion_lon": 0.0, "lat": 38.916828833333334, "bike_id": "e0704370ccfdbc309eaf74ed47ad599f", "type": "electric_scooter", "is_reserved": 0, "lon": -77.01578533333333}, {"fusion_lat": 0.0, "name": "eac45f5a85b3b3863cbf57cfaedde37b", "is_disabled": 0, "rental_uris": {"android": "https://dc.lft.to/lastmile_qr_scan", "ios": "https://dc.lft.to/lastmile_qr_scan"}, "fusion_lon": 0.0, "lat": 38.9308435, "bike_id": "eac45f5a85b3b3863cbf57cfaedde37b", "type": "electric_scooter", "is_reserved": 0, "lon": -77.01999966666666}, {"fusion_lat": 0.0, "name": "29140c979d9be61b0efdfbce32f3a732", "is_disabled": 0, "rental_uris": {"android": "https://dc.lft.to/lastmile_qr_scan", "ios": "https://dc.lft.to/lastmile_qr_scan"}, "fusion_lon": 0.0, "lat": 38.93080483333333, "bike_id": "29140c979d9be61b0efdfbce32f3a732", "type": "electric_scooter", "is_reserved": 0, "lon": -77.0775775}, {"fusion_lat": 0.0, "name": "850f0ce5f8dfd68ac40f29c5487399be", "is_disabled": 0, "rental_uris": {"android": "https://dc.lft.to/lastmile_qr_scan", "ios": "https://dc.lft.to/lastmile_qr_scan"}, "fusion_lon": 0.0, "lat": 38.95756083333333, "bike_id": "850f0ce5f8dfd68ac40f29c5487399be", "type": "electric_bike", "is_reserved": 0, "lon": -77.020498}, {"fusion_lat": 0.0, "name": "c2a39cf0c5aaf3aa4be4a8d5764ea11d", "is_disabled": 0, "rental_uris": {"android": "https://dc.lft.to/lastmile_qr_scan", "ios": "https://dc.lft.to/lastmile_qr_scan"}, "fusion_lon": 0.0, "lat": 38.91335866666667, "bike_id": "c2a39cf0c5aaf3aa4be4a8d5764ea11d", "type": "electric_scooter", "is_reserved": 0, "lon": -77.03168266666667}, {"fusion_lat": 0.0, "name": "b0405359c3b3916c2439d4862b0897a7", "is_disabled": 0, "rental_uris": {"android": "https://dc.lft.to/lastmile_qr_scan", "ios": "https://dc.lft.to/lastmile_qr_scan"}, "fusion_lon": 0.0, "lat": 38.935989, "bike_id": "b0405359c3b3916c2439d4862b0897a7", "type": "electric_scooter", "is_reserved": 0, "lon": -77.03653533333333}, {"fusion_lat": 0.0, "name": "16e52a21864304a034283b52fc23adbd", "is_disabled": 0, "rental_uris": {"android": "https://dc.lft.to/lastmile_qr_scan", "ios": "https://dc.lft.to/lastmile_qr_scan"}, "fusion_lon": 0.0, "lat": 38.92377333333334, "bike_id": "16e52a21864304a034283b52fc23adbd", "type": "electric_scooter", "is_reserved": 0, "lon": -77.03193766666666}, {"fusion_lat": 0.0, "name": "d92ade8e0997d1fc4dfa7659e2bf0049", "is_disabled": 0, "rental_uris": {"android": "https://dc.lft.to/lastmile_qr_scan", "ios": "https://dc.lft.to/lastmile_qr_scan"}, "fusion_lon": 0.0, "lat": 38.86017183333333, "bike_id": "d92ade8e0997d1fc4dfa7659e2bf0049", "type": "electric_bike", "is_reserved": 0, "lon": -77.12801666666667}, {"fusion_lat": 0.0, "name": "e9f063309ea9a7e1203d5f5ed76c99e9", "is_disabled": 0, "rental_uris": {"android": "https://dc.lft.to/lastmile_qr_scan", "ios": "https://dc.lft.to/lastmile_qr_scan"}, "fusion_lon": 0.0, "lat": 38.874488666666664, "bike_id": "e9f063309ea9a7e1203d5f5ed76c99e9", "type": "electric_scooter", "is_reserved": 0, "lon": -77.00305833333333}, {"fusion_lat": 0.0, "name": "8cd66794e5ee7a43e2b842e0ae06040c", "is_disabled": 0, "rental_uris": {"android": "https://dc.lft.to/lastmile_qr_scan", "ios": "https://dc.lft.to/lastmile_qr_scan"}, "fusion_lon": 0.0, "lat": 38.93265816666667, "bike_id": "8cd66794e5ee7a43e2b842e0ae06040c", "type": "electric_scooter", "is_reserved": 0, "lon": -77.01918383333333}, {"fusion_lat": 0.0, "name": "4682aa71d2a48e776f0793a4a6931b4c", "is_disabled": 0, "rental_uris": {"android": "https://dc.lft.to/lastmile_qr_scan", "ios": "https://dc.lft.to/lastmile_qr_scan"}, "fusion_lon": 0.0, "lat": 38.84755366666667, "bike_id": "4682aa71d2a48e776f0793a4a6931b4c", "type": "electric_scooter", "is_reserved": 0, "lon": -76.9949875}, {"fusion_lat": 0.0, "name": "50f4b467609f55701b8d6d6c28958626", "is_disabled": 0, "rental_uris": {"android": "https://dc.lft.to/lastmile_qr_scan", "ios": "https://dc.lft.to/lastmile_qr_scan"}, "fusion_lon": 0.0, "lat": 38.901651333333334, "bike_id": "50f4b467609f55701b8d6d6c28958626", "type": "electric_scooter", "is_reserved": 0, "lon": -76.9926175}, {"fusion_lat": 0.0, "name": "f9dcf01121e1afdeefac81f7dcb9b3d1", "is_disabled": 0, "rental_uris": {"android": "https://dc.lft.to/lastmile_qr_scan", "ios": "https://dc.lft.to/lastmile_qr_scan"}, "fusion_lon": 0.0, "lat": 38.88760283333333, "bike_id": "f9dcf01121e1afdeefac81f7dcb9b3d1", "type": "electric_scooter", "is_reserved": 0, "lon": -76.99786216666666}, {"fusion_lat": 0.0, "name": "6a28ad27bcc53a939dce5b364392dfaf", "is_disabled": 0, "rental_uris": {"android": "https://dc.lft.to/lastmile_qr_scan", "ios": "https://dc.lft.to/lastmile_qr_scan"}, "fusion_lon": 0.0, "lat": 38.90059566666667, "bike_id": "6a28ad27bcc53a939dce5b364392dfaf", "type": "electric_scooter", "is_reserved": 0, "lon": -77.0448005}, {"fusion_lat": 0.0, "name": "e960c7754adc64b00a3a8fcc806d45b4", "is_disabled": 0, "rental_uris": {"android": "https://dc.lft.to/lastmile_qr_scan", "ios": "https://dc.lft.to/lastmile_qr_scan"}, "fusion_lon": 0.0, "lat": 38.94515233333333, "bike_id": "e960c7754adc64b00a3a8fcc806d45b4", "type": "electric_scooter", "is_reserved": 0, "lon": -77.03887866666666}, {"fusion_lat": 0.0, "name": "795ace562befbec131ce8a3f67aa8a48", "is_disabled": 0, "rental_uris": {"android": "https://dc.lft.to/lastmile_qr_scan", "ios": "https://dc.lft.to/lastmile_qr_scan"}, "fusion_lon": 0.0, "lat": 38.905834666666664, "bike_id": "795ace562befbec131ce8a3f67aa8a48", "type": "electric_scooter", "is_reserved": 0, "lon": -77.0067495}, {"fusion_lat": 0.0, "name": "351f175589757bde998efe4e9824ecc7", "is_disabled": 0, "rental_uris": {"android": "https://dc.lft.to/lastmile_qr_scan", "ios": "https://dc.lft.to/lastmile_qr_scan"}, "fusion_lon": 0.0, "lat": 38.936324666666664, "bike_id": "351f175589757bde998efe4e9824ecc7", "type": "electric_scooter", "is_reserved": 0, "lon": -77.07307733333333}, {"fusion_lat": 0.0, "name": "08b0c98c5ce5f8266febbe30a27cf1f7", "is_disabled": 0, "rental_uris": {"android": "https://dc.lft.to/lastmile_qr_scan", "ios": "https://dc.lft.to/lastmile_qr_scan"}, "fusion_lon": 0.0, "lat": 38.935114666666664, "bike_id": "08b0c98c5ce5f8266febbe30a27cf1f7", "type": "electric_scooter", "is_reserved": 0, "lon": -77.03291783333333}, {"fusion_lat": 0.0, "name": "f6e226e37b619549a97bec0f27ebb6d2", "is_disabled": 0, "rental_uris": {"android": "https://dc.lft.to/lastmile_qr_scan", "ios": "https://dc.lft.to/lastmile_qr_scan"}, "fusion_lon": 0.0, "lat": 38.883426, "bike_id": "f6e226e37b619549a97bec0f27ebb6d2", "type": "electric_scooter", "is_reserved": 0, "lon": -77.0316645}, {"fusion_lat": 0.0, "name": "20b354c0ee71d72b5c50f14a3f4ce6f1", "is_disabled": 0, "rental_uris": {"android": "https://dc.lft.to/lastmile_qr_scan", "ios": "https://dc.lft.to/lastmile_qr_scan"}, "fusion_lon": 0.0, "lat": 38.93531516666667, "bike_id": "20b354c0ee71d72b5c50f14a3f4ce6f1", "type": "electric_scooter", "is_reserved": 0, "lon": -77.02353366666667}, {"fusion_lat": 0.0, "name": "ad129c6a8bc6f7e352db4d9ea20b1573", "is_disabled": 0, "rental_uris": {"android": "https://dc.lft.to/lastmile_qr_scan", "ios": "https://dc.lft.to/lastmile_qr_scan"}, "fusion_lon": 0.0, "lat": 38.920758, "bike_id": "ad129c6a8bc6f7e352db4d9ea20b1573", "type": "electric_scooter", "is_reserved": 0, "lon": -77.017489}, {"fusion_lat": 0.0, "name": "daf7bfa61ab4133a51484d0bbe53125a", "is_disabled": 0, "rental_uris": {"android": "https://dc.lft.to/lastmile_qr_scan", "ios": "https://dc.lft.to/lastmile_qr_scan"}, "fusion_lon": 0.0, "lat": 38.91267716666667, "bike_id": "daf7bfa61ab4133a51484d0bbe53125a", "type": "electric_scooter", "is_reserved": 0, "lon": -77.01929583333333}, {"fusion_lat": 0.0, "name": "d57326ddbae123e508e933ee069836c6", "is_disabled": 0, "rental_uris": {"android": "https://dc.lft.to/lastmile_qr_scan", "ios": "https://dc.lft.to/lastmile_qr_scan"}, "fusion_lon": 0.0, "lat": 38.902458333333335, "bike_id": "d57326ddbae123e508e933ee069836c6", "type": "electric_scooter", "is_reserved": 0, "lon": -77.06333383333333}, {"fusion_lat": 0.0, "name": "620829e48c771c405991abc59eeaecd8", "is_disabled": 0, "rental_uris": {"android": "https://dc.lft.to/lastmile_qr_scan", "ios": "https://dc.lft.to/lastmile_qr_scan"}, "fusion_lon": 0.0, "lat": 38.91903116666667, "bike_id": "620829e48c771c405991abc59eeaecd8", "type": "electric_scooter", "is_reserved": 0, "lon": -77.00046666666667}, {"fusion_lat": 0.0, "name": "fb81a2db49d3ebde82e1948524d088ff", "is_disabled": 0, "rental_uris": {"android": "https://dc.lft.to/lastmile_qr_scan", "ios": "https://dc.lft.to/lastmile_qr_scan"}, "fusion_lon": 0.0, "lat": 38.96666733333333, "bike_id": "fb81a2db49d3ebde82e1948524d088ff", "type": "electric_scooter", "is_reserved": 0, "lon": -77.02545233333333}, {"fusion_lat": 0.0, "name": "cf61302a9dceb023ab33b8c66a4f6fc8", "is_disabled": 0, "rental_uris": {"android": "https://dc.lft.to/lastmile_qr_scan", "ios": "https://dc.lft.to/lastmile_qr_scan"}, "fusion_lon": 0.0, "lat": 38.90558033333333, "bike_id": "cf61302a9dceb023ab33b8c66a4f6fc8", "type": "electric_scooter", "is_reserved": 0, "lon": -77.0345955}, {"fusion_lat": 0.0, "name": "a2f4bbec1ccfa2af187b9eef31f91090", "is_disabled": 0, "rental_uris": {"android": "https://dc.lft.to/lastmile_qr_scan", "ios": "https://dc.lft.to/lastmile_qr_scan"}, "fusion_lon": 0.0, "lat": 38.889943, "bike_id": "a2f4bbec1ccfa2af187b9eef31f91090", "type": "electric_scooter", "is_reserved": 0, "lon": -76.992449}, {"fusion_lat": 0.0, "name": "92dfbc139a29077e89dd275e85445138", "is_disabled": 0, "rental_uris": {"android": "https://dc.lft.to/lastmile_qr_scan", "ios": "https://dc.lft.to/lastmile_qr_scan"}, "fusion_lon": 0.0, "lat": 38.8757965, "bike_id": "92dfbc139a29077e89dd275e85445138", "type": "electric_scooter", "is_reserved": 0, "lon": -77.00566216666667}, {"fusion_lat": 0.0, "name": "b5cca7c43644dc94b21cbaa4a684c899", "is_disabled": 0, "rental_uris": {"android": "https://dc.lft.to/lastmile_qr_scan", "ios": "https://dc.lft.to/lastmile_qr_scan"}, "fusion_lon": 0.0, "lat": 38.905595, "bike_id": "b5cca7c43644dc94b21cbaa4a684c899", "type": "electric_scooter", "is_reserved": 0, "lon": -77.04660616666666}, {"fusion_lat": 0.0, "name": "20153f3268471aabe5c09dc623c41639", "is_disabled": 0, "rental_uris": {"android": "https://dc.lft.to/lastmile_qr_scan", "ios": "https://dc.lft.to/lastmile_qr_scan"}, "fusion_lon": 0.0, "lat": 38.920201666666664, "bike_id": "20153f3268471aabe5c09dc623c41639", "type": "electric_scooter", "is_reserved": 0, "lon": -77.0818465}, {"fusion_lat": 0.0, "name": "e74aa811c1a65dbcf2303c442131059b", "is_disabled": 0, "rental_uris": {"android": "https://dc.lft.to/lastmile_qr_scan", "ios": "https://dc.lft.to/lastmile_qr_scan"}, "fusion_lon": 0.0, "lat": 38.9366, "bike_id": "e74aa811c1a65dbcf2303c442131059b", "type": "electric_scooter", "is_reserved": 0, "lon": -77.03695283333333}, {"fusion_lat": 0.0, "name": "5619c72a5f6789252ba6cc57d83602c6", "is_disabled": 0, "rental_uris": {"android": "https://dc.lft.to/lastmile_qr_scan", "ios": "https://dc.lft.to/lastmile_qr_scan"}, "fusion_lon": 0.0, "lat": 38.848391666666664, "bike_id": "5619c72a5f6789252ba6cc57d83602c6", "type": "electric_bike", "is_reserved": 0, "lon": -77.079101}, {"fusion_lat": 0.0, "name": "8c3de024583aa1d45f56330845fd210e", "is_disabled": 0, "rental_uris": {"android": "https://dc.lft.to/lastmile_qr_scan", "ios": "https://dc.lft.to/lastmile_qr_scan"}, "fusion_lon": 0.0, "lat": 38.918392, "bike_id": "8c3de024583aa1d45f56330845fd210e", "type": "electric_scooter", "is_reserved": 0, "lon": -77.016127}, {"fusion_lat": 0.0, "name": "4cf342535f92763576331339fbd4c847", "is_disabled": 0, "rental_uris": {"android": "https://dc.lft.to/lastmile_qr_scan", "ios": "https://dc.lft.to/lastmile_qr_scan"}, "fusion_lon": 0.0, "lat": 38.91454266666667, "bike_id": "4cf342535f92763576331339fbd4c847", "type": "electric_scooter", "is_reserved": 0, "lon": -77.02197466666667}, {"fusion_lat": 0.0, "name": "080e9085ce76a13df368680e5a4b3c93", "is_disabled": 0, "rental_uris": {"android": "https://dc.lft.to/lastmile_qr_scan", "ios": "https://dc.lft.to/lastmile_qr_scan"}, "fusion_lon": 0.0, "lat": 38.89754383333333, "bike_id": "080e9085ce76a13df368680e5a4b3c93", "type": "electric_scooter", "is_reserved": 0, "lon": -77.048872}, {"fusion_lat": 0.0, "name": "1882ea4080394f92e83b3514648b2df9", "is_disabled": 0, "rental_uris": {"android": "https://dc.lft.to/lastmile_qr_scan", "ios": "https://dc.lft.to/lastmile_qr_scan"}, "fusion_lon": 0.0, "lat": 38.90841283333334, "bike_id": "1882ea4080394f92e83b3514648b2df9", "type": "electric_scooter", "is_reserved": 0, "lon": -77.03634883333334}, {"fusion_lat": 0.0, "name": "06744e1d579e25792195dd49cab2be08", "is_disabled": 0, "rental_uris": {"android": "https://dc.lft.to/lastmile_qr_scan", "ios": "https://dc.lft.to/lastmile_qr_scan"}, "fusion_lon": 0.0, "lat": 38.96442316666667, "bike_id": "06744e1d579e25792195dd49cab2be08", "type": "electric_bike", "is_reserved": 0, "lon": -77.02072733333334}, {"fusion_lat": 0.0, "name": "bedaacc92bc833f21f2f9997bf9fd62c", "is_disabled": 0, "rental_uris": {"android": "https://dc.lft.to/lastmile_qr_scan", "ios": "https://dc.lft.to/lastmile_qr_scan"}, "fusion_lon": 0.0, "lat": 38.918166166666666, "bike_id": "bedaacc92bc833f21f2f9997bf9fd62c", "type": "electric_scooter", "is_reserved": 0, "lon": -77.03140183333333}, {"fusion_lat": 0.0, "name": "45c66f8f864d02a65511ed89ca06e93c", "is_disabled": 0, "rental_uris": {"android": "https://dc.lft.to/lastmile_qr_scan", "ios": "https://dc.lft.to/lastmile_qr_scan"}, "fusion_lon": 0.0, "lat": 38.93381, "bike_id": "45c66f8f864d02a65511ed89ca06e93c", "type": "electric_scooter", "is_reserved": 0, "lon": -77.03249383333333}, {"fusion_lat": 0.0, "name": "3fb283bd99f36c26d858968dbb3db846", "is_disabled": 0, "rental_uris": {"android": "https://dc.lft.to/lastmile_qr_scan", "ios": "https://dc.lft.to/lastmile_qr_scan"}, "fusion_lon": 0.0, "lat": 38.9083955, "bike_id": "3fb283bd99f36c26d858968dbb3db846", "type": "electric_scooter", "is_reserved": 0, "lon": -77.03289783333334}, {"fusion_lat": 0.0, "name": "42e10b4a240e08dad694fd9c01951e16", "is_disabled": 0, "rental_uris": {"android": "https://dc.lft.to/lastmile_qr_scan", "ios": "https://dc.lft.to/lastmile_qr_scan"}, "fusion_lon": 0.0, "lat": 38.88737483333333, "bike_id": "42e10b4a240e08dad694fd9c01951e16", "type": "electric_scooter", "is_reserved": 0, "lon": -77.02581516666666}, {"fusion_lat": 0.0, "name": "a5f87887abb35ef294463d0b5239b92f", "is_disabled": 0, "rental_uris": {"android": "https://dc.lft.to/lastmile_qr_scan", "ios": "https://dc.lft.to/lastmile_qr_scan"}, "fusion_lon": 0.0, "lat": 38.93865366666667, "bike_id": "a5f87887abb35ef294463d0b5239b92f", "type": "electric_scooter", "is_reserved": 0, "lon": -77.0320605}, {"fusion_lat": 0.0, "name": "db1ede465d5aa6986a292240c2df8a4c", "is_disabled": 0, "rental_uris": {"android": "https://dc.lft.to/lastmile_qr_scan", "ios": "https://dc.lft.to/lastmile_qr_scan"}, "fusion_lon": 0.0, "lat": 39.03426616666667, "bike_id": "db1ede465d5aa6986a292240c2df8a4c", "type": "electric_bike", "is_reserved": 0, "lon": -77.04307983333334}, {"fusion_lat": 0.0, "name": "cfd33e21e5371ba79150219cd9ecdc68", "is_disabled": 0, "rental_uris": {"android": "https://dc.lft.to/lastmile_qr_scan", "ios": "https://dc.lft.to/lastmile_qr_scan"}, "fusion_lon": 0.0, "lat": 38.87359466666667, "bike_id": "cfd33e21e5371ba79150219cd9ecdc68", "type": "electric_scooter", "is_reserved": 0, "lon": -77.000573}, {"fusion_lat": 0.0, "name": "60b1a5d7c289f7e134429117f87b5c0d", "is_disabled": 0, "rental_uris": {"android": "https://dc.lft.to/lastmile_qr_scan", "ios": "https://dc.lft.to/lastmile_qr_scan"}, "fusion_lon": 0.0, "lat": 38.91375983333333, "bike_id": "60b1a5d7c289f7e134429117f87b5c0d", "type": "electric_scooter", "is_reserved": 0, "lon": -77.01994466666666}, {"fusion_lat": 0.0, "name": "a53eaf265e203837a1c96a1f70b2d3e8", "is_disabled": 0, "rental_uris": {"android": "https://dc.lft.to/lastmile_qr_scan", "ios": "https://dc.lft.to/lastmile_qr_scan"}, "fusion_lon": 0.0, "lat": 38.91924516666667, "bike_id": "a53eaf265e203837a1c96a1f70b2d3e8", "type": "electric_scooter", "is_reserved": 0, "lon": -77.02408816666667}, {"fusion_lat": 0.0, "name": "c3079d7ae412b61a99309775f107c277", "is_disabled": 0, "rental_uris": {"android": "https://dc.lft.to/lastmile_qr_scan", "ios": "https://dc.lft.to/lastmile_qr_scan"}, "fusion_lon": 0.0, "lat": 38.878338, "bike_id": "c3079d7ae412b61a99309775f107c277", "type": "electric_scooter", "is_reserved": 0, "lon": -76.9903625}, {"fusion_lat": 0.0, "name": "53a38829baf5855774625ee5cbc727a3", "is_disabled": 0, "rental_uris": {"android": "https://dc.lft.to/lastmile_qr_scan", "ios": "https://dc.lft.to/lastmile_qr_scan"}, "fusion_lon": 0.0, "lat": 38.92273316666667, "bike_id": "53a38829baf5855774625ee5cbc727a3", "type": "electric_scooter", "is_reserved": 0, "lon": -77.04283583333333}, {"fusion_lat": 0.0, "name": "0717ba685e530c203fd40f9d511194f3", "is_disabled": 0, "rental_uris": {"android": "https://dc.lft.to/lastmile_qr_scan", "ios": "https://dc.lft.to/lastmile_qr_scan"}, "fusion_lon": 0.0, "lat": 38.8536935, "bike_id": "0717ba685e530c203fd40f9d511194f3", "type": "electric_bike", "is_reserved": 0, "lon": -77.11474583333333}, {"fusion_lat": 0.0, "name": "46a1db2b52ec93349631873c09bf544c", "is_disabled": 0, "rental_uris": {"android": "https://dc.lft.to/lastmile_qr_scan", "ios": "https://dc.lft.to/lastmile_qr_scan"}, "fusion_lon": 0.0, "lat": 38.89760416666667, "bike_id": "46a1db2b52ec93349631873c09bf544c", "type": "electric_scooter", "is_reserved": 0, "lon": -77.02674}, {"fusion_lat": 0.0, "name": "d5711bf2783ad9d7d15244b596fc90ad", "is_disabled": 0, "rental_uris": {"android": "https://dc.lft.to/lastmile_qr_scan", "ios": "https://dc.lft.to/lastmile_qr_scan"}, "fusion_lon": 0.0, "lat": 38.877355, "bike_id": "d5711bf2783ad9d7d15244b596fc90ad", "type": "electric_scooter", "is_reserved": 0, "lon": -76.99660333333334}, {"fusion_lat": 0.0, "name": "6d40a8ceb8f399fba73772bedd82196a", "is_disabled": 0, "rental_uris": {"android": "https://dc.lft.to/lastmile_qr_scan", "ios": "https://dc.lft.to/lastmile_qr_scan"}, "fusion_lon": 0.0, "lat": 38.883130333333334, "bike_id": "6d40a8ceb8f399fba73772bedd82196a", "type": "electric_scooter", "is_reserved": 0, "lon": -77.01742166666666}, {"fusion_lat": 0.0, "name": "451578c87651ac974f9c078372012228", "is_disabled": 0, "rental_uris": {"android": "https://dc.lft.to/lastmile_qr_scan", "ios": "https://dc.lft.to/lastmile_qr_scan"}, "fusion_lon": 0.0, "lat": 38.9180065, "bike_id": "451578c87651ac974f9c078372012228", "type": "electric_scooter", "is_reserved": 0, "lon": -77.03439833333333}, {"fusion_lat": 0.0, "name": "97cb30062f189786c30f90c30eabc8f9", "is_disabled": 0, "rental_uris": {"android": "https://dc.lft.to/lastmile_qr_scan", "ios": "https://dc.lft.to/lastmile_qr_scan"}, "fusion_lon": 0.0, "lat": 38.91741416666667, "bike_id": "97cb30062f189786c30f90c30eabc8f9", "type": "electric_scooter", "is_reserved": 0, "lon": -77.03190766666667}, {"fusion_lat": 0.0, "name": "cc18af01bcbc35020f4dcb747178125f", "is_disabled": 0, "rental_uris": {"android": "https://dc.lft.to/lastmile_qr_scan", "ios": "https://dc.lft.to/lastmile_qr_scan"}, "fusion_lon": 0.0, "lat": 38.90569683333333, "bike_id": "cc18af01bcbc35020f4dcb747178125f", "type": "electric_scooter", "is_reserved": 0, "lon": -77.021985}, {"fusion_lat": 0.0, "name": "a96b664c1eada095e5dab2c8689dacd9", "is_disabled": 0, "rental_uris": {"android": "https://dc.lft.to/lastmile_qr_scan", "ios": "https://dc.lft.to/lastmile_qr_scan"}, "fusion_lon": 0.0, "lat": 38.919799, "bike_id": "a96b664c1eada095e5dab2c8689dacd9", "type": "electric_scooter", "is_reserved": 0, "lon": -77.02301933333334}, {"fusion_lat": 0.0, "name": "75ea709ae08f0cdd1b03ce50b79b7418", "is_disabled": 0, "rental_uris": {"android": "https://dc.lft.to/lastmile_qr_scan", "ios": "https://dc.lft.to/lastmile_qr_scan"}, "fusion_lon": 0.0, "lat": 38.884758833333336, "bike_id": "75ea709ae08f0cdd1b03ce50b79b7418", "type": "electric_scooter", "is_reserved": 0, "lon": -77.023596}, {"fusion_lat": 0.0, "name": "9083b9ebe0509b64c72c9b49c3e05b6e", "is_disabled": 0, "rental_uris": {"android": "https://dc.lft.to/lastmile_qr_scan", "ios": "https://dc.lft.to/lastmile_qr_scan"}, "fusion_lon": 0.0, "lat": 38.99442833333333, "bike_id": "9083b9ebe0509b64c72c9b49c3e05b6e", "type": "electric_bike", "is_reserved": 0, "lon": -76.99587733333334}, {"fusion_lat": 0.0, "name": "b0b296f7d06d1f18f8a6b66cd67b0a47", "is_disabled": 0, "rental_uris": {"android": "https://dc.lft.to/lastmile_qr_scan", "ios": "https://dc.lft.to/lastmile_qr_scan"}, "fusion_lon": 0.0, "lat": 38.9030715, "bike_id": "b0b296f7d06d1f18f8a6b66cd67b0a47", "type": "electric_scooter", "is_reserved": 0, "lon": -76.97654716666666}, {"fusion_lat": 0.0, "name": "8ffeb11744471cd1f7c80ca698d82b36", "is_disabled": 0, "rental_uris": {"android": "https://dc.lft.to/lastmile_qr_scan", "ios": "https://dc.lft.to/lastmile_qr_scan"}, "fusion_lon": 0.0, "lat": 38.93440866666667, "bike_id": "8ffeb11744471cd1f7c80ca698d82b36", "type": "electric_scooter", "is_reserved": 0, "lon": -77.02383816666666}, {"fusion_lat": 0.0, "name": "15e87472e4b964d3bdf09fdb6b970daf", "is_disabled": 0, "rental_uris": {"android": "https://dc.lft.to/lastmile_qr_scan", "ios": "https://dc.lft.to/lastmile_qr_scan"}, "fusion_lon": 0.0, "lat": 38.92103216666667, "bike_id": "15e87472e4b964d3bdf09fdb6b970daf", "type": "electric_scooter", "is_reserved": 0, "lon": -77.03169033333333}, {"fusion_lat": 0.0, "name": "d6169aa60261ba19f5a91740c79cc42a", "is_disabled": 0, "rental_uris": {"android": "https://dc.lft.to/lastmile_qr_scan", "ios": "https://dc.lft.to/lastmile_qr_scan"}, "fusion_lon": 0.0, "lat": 38.87814433333333, "bike_id": "d6169aa60261ba19f5a91740c79cc42a", "type": "electric_scooter", "is_reserved": 0, "lon": -77.00126116666667}, {"fusion_lat": 0.0, "name": "22a2ab37e277430942b3c27b9d9b3a30", "is_disabled": 0, "rental_uris": {"android": "https://dc.lft.to/lastmile_qr_scan", "ios": "https://dc.lft.to/lastmile_qr_scan"}, "fusion_lon": 0.0, "lat": 38.91925083333334, "bike_id": "22a2ab37e277430942b3c27b9d9b3a30", "type": "electric_scooter", "is_reserved": 0, "lon": -77.03196383333334}, {"fusion_lat": 0.0, "name": "53a56d87d64dadeb7fa320d83bf94e81", "is_disabled": 0, "rental_uris": {"android": "https://dc.lft.to/lastmile_qr_scan", "ios": "https://dc.lft.to/lastmile_qr_scan"}, "fusion_lon": 0.0, "lat": 38.92810933333333, "bike_id": "53a56d87d64dadeb7fa320d83bf94e81", "type": "electric_scooter", "is_reserved": 0, "lon": -77.04359483333333}, {"fusion_lat": 0.0, "name": "d4618a7a2d390af2d5506c463af85dbb", "is_disabled": 0, "rental_uris": {"android": "https://dc.lft.to/lastmile_qr_scan", "ios": "https://dc.lft.to/lastmile_qr_scan"}, "fusion_lon": 0.0, "lat": 38.865187166666665, "bike_id": "d4618a7a2d390af2d5506c463af85dbb", "type": "electric_bike", "is_reserved": 0, "lon": -76.973347}, {"fusion_lat": 0.0, "name": "c9046470dba19c5ad0ca747ee3d15fc6", "is_disabled": 0, "rental_uris": {"android": "https://dc.lft.to/lastmile_qr_scan", "ios": "https://dc.lft.to/lastmile_qr_scan"}, "fusion_lon": 0.0, "lat": 38.90662116666667, "bike_id": "c9046470dba19c5ad0ca747ee3d15fc6", "type": "electric_scooter", "is_reserved": 0, "lon": -77.03853266666667}, {"fusion_lat": 0.0, "name": "5788e95bd7cdd5d20edf032c42415e1e", "is_disabled": 0, "rental_uris": {"android": "https://dc.lft.to/lastmile_qr_scan", "ios": "https://dc.lft.to/lastmile_qr_scan"}, "fusion_lon": 0.0, "lat": 38.90535783333333, "bike_id": "5788e95bd7cdd5d20edf032c42415e1e", "type": "electric_bike", "is_reserved": 0, "lon": -77.0590815}, {"fusion_lat": 0.0, "name": "f6192912a31f0d621dc3aad13ad12bb4", "is_disabled": 0, "rental_uris": {"android": "https://dc.lft.to/lastmile_qr_scan", "ios": "https://dc.lft.to/lastmile_qr_scan"}, "fusion_lon": 0.0, "lat": 38.89108133333333, "bike_id": "f6192912a31f0d621dc3aad13ad12bb4", "type": "electric_scooter", "is_reserved": 0, "lon": -76.98356216666667}, {"fusion_lat": 0.0, "name": "e50a70baaa9f53913608fde9018a0281", "is_disabled": 0, "rental_uris": {"android": "https://dc.lft.to/lastmile_qr_scan", "ios": "https://dc.lft.to/lastmile_qr_scan"}, "fusion_lon": 0.0, "lat": 38.917107, "bike_id": "e50a70baaa9f53913608fde9018a0281", "type": "electric_scooter", "is_reserved": 0, "lon": -77.03869016666667}, {"fusion_lat": 0.0, "name": "0fddba1e09f8daae394533eb34fc101d", "is_disabled": 0, "rental_uris": {"android": "https://dc.lft.to/lastmile_qr_scan", "ios": "https://dc.lft.to/lastmile_qr_scan"}, "fusion_lon": 0.0, "lat": 38.916662, "bike_id": "0fddba1e09f8daae394533eb34fc101d", "type": "electric_scooter", "is_reserved": 0, "lon": -77.0385555}, {"fusion_lat": 0.0, "name": "7f93421c4971c8cb9dbd4b082e0b1578", "is_disabled": 0, "rental_uris": {"android": "https://dc.lft.to/lastmile_qr_scan", "ios": "https://dc.lft.to/lastmile_qr_scan"}, "fusion_lon": 0.0, "lat": 38.917142166666665, "bike_id": "7f93421c4971c8cb9dbd4b082e0b1578", "type": "electric_scooter", "is_reserved": 0, "lon": -77.03189133333333}, {"fusion_lat": 0.0, "name": "dc75d929057b303c18c39063376976e6", "is_disabled": 0, "rental_uris": {"android": "https://dc.lft.to/lastmile_qr_scan", "ios": "https://dc.lft.to/lastmile_qr_scan"}, "fusion_lon": 0.0, "lat": 38.849145666666665, "bike_id": "dc75d929057b303c18c39063376976e6", "type": "electric_bike", "is_reserved": 0, "lon": -77.0998215}, {"fusion_lat": 0.0, "name": "6184a6014294feef6f8106dcc363d52f", "is_disabled": 0, "rental_uris": {"android": "https://dc.lft.to/lastmile_qr_scan", "ios": "https://dc.lft.to/lastmile_qr_scan"}, "fusion_lon": 0.0, "lat": 38.9363025, "bike_id": "6184a6014294feef6f8106dcc363d52f", "type": "electric_scooter", "is_reserved": 0, "lon": -77.03692383333333}, {"fusion_lat": 0.0, "name": "efd91a14c32d17ee43171022fef61d98", "is_disabled": 0, "rental_uris": {"android": "https://dc.lft.to/lastmile_qr_scan", "ios": "https://dc.lft.to/lastmile_qr_scan"}, "fusion_lon": 0.0, "lat": 38.92814083333333, "bike_id": "efd91a14c32d17ee43171022fef61d98", "type": "electric_scooter", "is_reserved": 0, "lon": -77.02330833333333}, {"fusion_lat": 0.0, "name": "bbed9e72e6471688bcb3d6349d42bec4", "is_disabled": 0, "rental_uris": {"android": "https://dc.lft.to/lastmile_qr_scan", "ios": "https://dc.lft.to/lastmile_qr_scan"}, "fusion_lon": 0.0, "lat": 38.857428, "bike_id": "bbed9e72e6471688bcb3d6349d42bec4", "type": "electric_bike", "is_reserved": 0, "lon": -77.05339583333334}, {"fusion_lat": 0.0, "name": "b9a8265ab97e90cf4598de9cd086a7e0", "is_disabled": 0, "rental_uris": {"android": "https://dc.lft.to/lastmile_qr_scan", "ios": "https://dc.lft.to/lastmile_qr_scan"}, "fusion_lon": 0.0, "lat": 38.892372, "bike_id": "b9a8265ab97e90cf4598de9cd086a7e0", "type": "electric_scooter", "is_reserved": 0, "lon": -77.04654366666666}, {"fusion_lat": 0.0, "name": "e464fc1ba9b96fc826616d9dc65f45f3", "is_disabled": 0, "rental_uris": {"android": "https://dc.lft.to/lastmile_qr_scan", "ios": "https://dc.lft.to/lastmile_qr_scan"}, "fusion_lon": 0.0, "lat": 38.927550833333335, "bike_id": "e464fc1ba9b96fc826616d9dc65f45f3", "type": "electric_scooter", "is_reserved": 0, "lon": -77.02447266666667}, {"fusion_lat": 0.0, "name": "cb2e649483fab35f1fe25fb2f99e51f0", "is_disabled": 0, "rental_uris": {"android": "https://dc.lft.to/lastmile_qr_scan", "ios": "https://dc.lft.to/lastmile_qr_scan"}, "fusion_lon": 0.0, "lat": 38.922199, "bike_id": "cb2e649483fab35f1fe25fb2f99e51f0", "type": "electric_scooter", "is_reserved": 0, "lon": -76.996391}, {"fusion_lat": 0.0, "name": "48339b2fd88ecf8e5386589a94cbd49d", "is_disabled": 0, "rental_uris": {"android": "https://dc.lft.to/lastmile_qr_scan", "ios": "https://dc.lft.to/lastmile_qr_scan"}, "fusion_lon": 0.0, "lat": 38.90739166666667, "bike_id": "48339b2fd88ecf8e5386589a94cbd49d", "type": "electric_scooter", "is_reserved": 0, "lon": -77.0344255}, {"fusion_lat": 0.0, "name": "05761a7a848628cd8bd08510effa43c9", "is_disabled": 0, "rental_uris": {"android": "https://dc.lft.to/lastmile_qr_scan", "ios": "https://dc.lft.to/lastmile_qr_scan"}, "fusion_lon": 0.0, "lat": 38.9081195, "bike_id": "05761a7a848628cd8bd08510effa43c9", "type": "electric_scooter", "is_reserved": 0, "lon": -77.04261066666666}, {"fusion_lat": 0.0, "name": "97aa89c6078bf1efb089f28564910397", "is_disabled": 0, "rental_uris": {"android": "https://dc.lft.to/lastmile_qr_scan", "ios": "https://dc.lft.to/lastmile_qr_scan"}, "fusion_lon": 0.0, "lat": 38.842840333333335, "bike_id": "97aa89c6078bf1efb089f28564910397", "type": "electric_bike", "is_reserved": 0, "lon": -77.04491533333334}, {"fusion_lat": 0.0, "name": "1be042dea85a39bed3ea328dc1214219", "is_disabled": 0, "rental_uris": {"android": "https://dc.lft.to/lastmile_qr_scan", "ios": "https://dc.lft.to/lastmile_qr_scan"}, "fusion_lon": 0.0, "lat": 38.90331666666667, "bike_id": "1be042dea85a39bed3ea328dc1214219", "type": "electric_bike", "is_reserved": 0, "lon": -76.9752705}, {"fusion_lat": 0.0, "name": "45001b8109aef16f36d92448fceddad1", "is_disabled": 0, "rental_uris": {"android": "https://dc.lft.to/lastmile_qr_scan", "ios": "https://dc.lft.to/lastmile_qr_scan"}, "fusion_lon": 0.0, "lat": 38.9045785, "bike_id": "45001b8109aef16f36d92448fceddad1", "type": "electric_scooter", "is_reserved": 0, "lon": -77.02002033333333}, {"fusion_lat": 0.0, "name": "1403afb0a0678e9acdfcd4409e3ca6c1", "is_disabled": 0, "rental_uris": {"android": "https://dc.lft.to/lastmile_qr_scan", "ios": "https://dc.lft.to/lastmile_qr_scan"}, "fusion_lon": 0.0, "lat": 38.93586616666666, "bike_id": "1403afb0a0678e9acdfcd4409e3ca6c1", "type": "electric_scooter", "is_reserved": 0, "lon": -77.02845083333334}, {"fusion_lat": 0.0, "name": "c80f6515767d0ea0723c301ad1475dc9", "is_disabled": 0, "rental_uris": {"android": "https://dc.lft.to/lastmile_qr_scan", "ios": "https://dc.lft.to/lastmile_qr_scan"}, "fusion_lon": 0.0, "lat": 38.895304833333334, "bike_id": "c80f6515767d0ea0723c301ad1475dc9", "type": "electric_scooter", "is_reserved": 0, "lon": -76.94893416666666}, {"fusion_lat": 0.0, "name": "6ce6ee4b989acc53bbd95adf3537a436", "is_disabled": 0, "rental_uris": {"android": "https://dc.lft.to/lastmile_qr_scan", "ios": "https://dc.lft.to/lastmile_qr_scan"}, "fusion_lon": 0.0, "lat": 38.90534683333333, "bike_id": "6ce6ee4b989acc53bbd95adf3537a436", "type": "electric_bike", "is_reserved": 0, "lon": -76.99804133333333}, {"fusion_lat": 0.0, "name": "f60ffcb9d1781d1c03deede3779e62a0", "is_disabled": 0, "rental_uris": {"android": "https://dc.lft.to/lastmile_qr_scan", "ios": "https://dc.lft.to/lastmile_qr_scan"}, "fusion_lon": 0.0, "lat": 38.908694833333335, "bike_id": "f60ffcb9d1781d1c03deede3779e62a0", "type": "electric_scooter", "is_reserved": 0, "lon": -77.04336533333333}, {"fusion_lat": 0.0, "name": "09122ab2fba3ac7e104bedcce159011c", "is_disabled": 0, "rental_uris": {"android": "https://dc.lft.to/lastmile_qr_scan", "ios": "https://dc.lft.to/lastmile_qr_scan"}, "fusion_lon": 0.0, "lat": 38.928709833333336, "bike_id": "09122ab2fba3ac7e104bedcce159011c", "type": "electric_scooter", "is_reserved": 0, "lon": -77.0339355}, {"fusion_lat": 0.0, "name": "faafdf46be744d961f40f2c117567f4c", "is_disabled": 0, "rental_uris": {"android": "https://dc.lft.to/lastmile_qr_scan", "ios": "https://dc.lft.to/lastmile_qr_scan"}, "fusion_lon": 0.0, "lat": 38.93478783333333, "bike_id": "faafdf46be744d961f40f2c117567f4c", "type": "electric_scooter", "is_reserved": 0, "lon": -77.07348883333333}, {"fusion_lat": 0.0, "name": "de3588f919ddb83c7c535ba70cfcf4ea", "is_disabled": 0, "rental_uris": {"android": "https://dc.lft.to/lastmile_qr_scan", "ios": "https://dc.lft.to/lastmile_qr_scan"}, "fusion_lon": 0.0, "lat": 38.90369466666667, "bike_id": "de3588f919ddb83c7c535ba70cfcf4ea", "type": "electric_scooter", "is_reserved": 0, "lon": -77.04492333333333}, {"fusion_lat": 0.0, "name": "ca16f81606277d4f55fc9c70e5c42530", "is_disabled": 0, "rental_uris": {"android": "https://dc.lft.to/lastmile_qr_scan", "ios": "https://dc.lft.to/lastmile_qr_scan"}, "fusion_lon": 0.0, "lat": 38.92246166666666, "bike_id": "ca16f81606277d4f55fc9c70e5c42530", "type": "electric_scooter", "is_reserved": 0, "lon": -77.030837}, {"fusion_lat": 0.0, "name": "0904389beae65228db3eb5bce6b1a4ac", "is_disabled": 0, "rental_uris": {"android": "https://dc.lft.to/lastmile_qr_scan", "ios": "https://dc.lft.to/lastmile_qr_scan"}, "fusion_lon": 0.0, "lat": 38.89566116666666, "bike_id": "0904389beae65228db3eb5bce6b1a4ac", "type": "electric_bike", "is_reserved": 0, "lon": -77.12735483333333}, {"fusion_lat": 0.0, "name": "5d90f51cce1576a86cbb100448ff06b4", "is_disabled": 0, "rental_uris": {"android": "https://dc.lft.to/lastmile_qr_scan", "ios": "https://dc.lft.to/lastmile_qr_scan"}, "fusion_lon": 0.0, "lat": 38.915014166666666, "bike_id": "5d90f51cce1576a86cbb100448ff06b4", "type": "electric_scooter", "is_reserved": 0, "lon": -77.03267933333333}, {"fusion_lat": 0.0, "name": "a684c5f8590f87d5b12b0d216583c557", "is_disabled": 0, "rental_uris": {"android": "https://dc.lft.to/lastmile_qr_scan", "ios": "https://dc.lft.to/lastmile_qr_scan"}, "fusion_lon": 0.0, "lat": 38.9300805, "bike_id": "a684c5f8590f87d5b12b0d216583c557", "type": "electric_bike", "is_reserved": 0, "lon": -77.01611816666667}, {"fusion_lat": 0.0, "name": "463dbc36c386d7f7eaf423a6549a1bbe", "is_disabled": 0, "rental_uris": {"android": "https://dc.lft.to/lastmile_qr_scan", "ios": "https://dc.lft.to/lastmile_qr_scan"}, "fusion_lon": 0.0, "lat": 38.92378683333333, "bike_id": "463dbc36c386d7f7eaf423a6549a1bbe", "type": "electric_scooter", "is_reserved": 0, "lon": -77.04109183333334}, {"fusion_lat": 0.0, "name": "2d335a5bedbf6eafbf38d36520703f60", "is_disabled": 0, "rental_uris": {"android": "https://dc.lft.to/lastmile_qr_scan", "ios": "https://dc.lft.to/lastmile_qr_scan"}, "fusion_lon": 0.0, "lat": 38.87374633333334, "bike_id": "2d335a5bedbf6eafbf38d36520703f60", "type": "electric_bike", "is_reserved": 0, "lon": -77.11799933333333}, {"fusion_lat": 0.0, "name": "8d203c86ced2459c7c0942e7e68a2fa1", "is_disabled": 0, "rental_uris": {"android": "https://dc.lft.to/lastmile_qr_scan", "ios": "https://dc.lft.to/lastmile_qr_scan"}, "fusion_lon": 0.0, "lat": 38.956971833333334, "bike_id": "8d203c86ced2459c7c0942e7e68a2fa1", "type": "electric_bike", "is_reserved": 0, "lon": -77.01956366666667}, {"fusion_lat": 0.0, "name": "1f5eae13f9fe75bb1db2292193cae628", "is_disabled": 0, "rental_uris": {"android": "https://dc.lft.to/lastmile_qr_scan", "ios": "https://dc.lft.to/lastmile_qr_scan"}, "fusion_lon": 0.0, "lat": 38.91107683333333, "bike_id": "1f5eae13f9fe75bb1db2292193cae628", "type": "electric_scooter", "is_reserved": 0, "lon": -77.02097633333334}, {"fusion_lat": 0.0, "name": "738680ed5c42e7b1187776bc646aaacf", "is_disabled": 0, "rental_uris": {"android": "https://dc.lft.to/lastmile_qr_scan", "ios": "https://dc.lft.to/lastmile_qr_scan"}, "fusion_lon": 0.0, "lat": 39.014178666666666, "bike_id": "738680ed5c42e7b1187776bc646aaacf", "type": "electric_bike", "is_reserved": 0, "lon": -77.0449735}, {"fusion_lat": 0.0, "name": "1ef15e9cfdb619b1b3a544731eebd0ac", "is_disabled": 0, "rental_uris": {"android": "https://dc.lft.to/lastmile_qr_scan", "ios": "https://dc.lft.to/lastmile_qr_scan"}, "fusion_lon": 0.0, "lat": 38.88208516666667, "bike_id": "1ef15e9cfdb619b1b3a544731eebd0ac", "type": "electric_bike", "is_reserved": 0, "lon": -76.99272783333333}, {"fusion_lat": 0.0, "name": "8c4c176f6f2418e33ff3a70b51e7cc35", "is_disabled": 0, "rental_uris": {"android": "https://dc.lft.to/lastmile_qr_scan", "ios": "https://dc.lft.to/lastmile_qr_scan"}, "fusion_lon": 0.0, "lat": 38.8956055, "bike_id": "8c4c176f6f2418e33ff3a70b51e7cc35", "type": "electric_scooter", "is_reserved": 0, "lon": -76.994234}, {"fusion_lat": 0.0, "name": "470d8d8f26e8db3c0d701f7edf82a5ee", "is_disabled": 0, "rental_uris": {"android": "https://dc.lft.to/lastmile_qr_scan", "ios": "https://dc.lft.to/lastmile_qr_scan"}, "fusion_lon": 0.0, "lat": 38.876704, "bike_id": "470d8d8f26e8db3c0d701f7edf82a5ee", "type": "electric_scooter", "is_reserved": 0, "lon": -77.017585}, {"fusion_lat": 0.0, "name": "244baa1c0c9653a76f7bc6da24a5ebe8", "is_disabled": 0, "rental_uris": {"android": "https://dc.lft.to/lastmile_qr_scan", "ios": "https://dc.lft.to/lastmile_qr_scan"}, "fusion_lon": 0.0, "lat": 38.898738, "bike_id": "244baa1c0c9653a76f7bc6da24a5ebe8", "type": "electric_bike", "is_reserved": 0, "lon": -77.11325266666667}, {"fusion_lat": 0.0, "name": "0d6343033d83724e58dc7567e9debddf", "is_disabled": 0, "rental_uris": {"android": "https://dc.lft.to/lastmile_qr_scan", "ios": "https://dc.lft.to/lastmile_qr_scan"}, "fusion_lon": 0.0, "lat": 38.92044966666667, "bike_id": "0d6343033d83724e58dc7567e9debddf", "type": "electric_scooter", "is_reserved": 0, "lon": -77.00341433333334}, {"fusion_lat": 0.0, "name": "77d6f41ab8298e7a78299e81aa73eb45", "is_disabled": 0, "rental_uris": {"android": "https://dc.lft.to/lastmile_qr_scan", "ios": "https://dc.lft.to/lastmile_qr_scan"}, "fusion_lon": 0.0, "lat": 38.905049, "bike_id": "77d6f41ab8298e7a78299e81aa73eb45", "type": "electric_scooter", "is_reserved": 0, "lon": -77.02951933333334}, {"fusion_lat": 0.0, "name": "30e2b189b82d6a1817a044291a9e87c9", "is_disabled": 0, "rental_uris": {"android": "https://dc.lft.to/lastmile_qr_scan", "ios": "https://dc.lft.to/lastmile_qr_scan"}, "fusion_lon": 0.0, "lat": 38.892245, "bike_id": "30e2b189b82d6a1817a044291a9e87c9", "type": "electric_scooter", "is_reserved": 0, "lon": -77.0279185}, {"fusion_lat": 0.0, "name": "0cc392031e80f910424b54d0515ff198", "is_disabled": 0, "rental_uris": {"android": "https://dc.lft.to/lastmile_qr_scan", "ios": "https://dc.lft.to/lastmile_qr_scan"}, "fusion_lon": 0.0, "lat": 38.936372, "bike_id": "0cc392031e80f910424b54d0515ff198", "type": "electric_scooter", "is_reserved": 0, "lon": -77.03259016666667}, {"fusion_lat": 0.0, "name": "ef16f97de758016bdbcfbf57653557b4", "is_disabled": 0, "rental_uris": {"android": "https://dc.lft.to/lastmile_qr_scan", "ios": "https://dc.lft.to/lastmile_qr_scan"}, "fusion_lon": 0.0, "lat": 38.92669016666667, "bike_id": "ef16f97de758016bdbcfbf57653557b4", "type": "electric_scooter", "is_reserved": 0, "lon": -77.03046616666667}, {"fusion_lat": 0.0, "name": "1df103206558aad78cb502a332833730", "is_disabled": 0, "rental_uris": {"android": "https://dc.lft.to/lastmile_qr_scan", "ios": "https://dc.lft.to/lastmile_qr_scan"}, "fusion_lon": 0.0, "lat": 38.920762333333336, "bike_id": "1df103206558aad78cb502a332833730", "type": "electric_scooter", "is_reserved": 0, "lon": -76.99169333333333}, {"fusion_lat": 0.0, "name": "cd9ddb1278656c343b809c7f312d2490", "is_disabled": 0, "rental_uris": {"android": "https://dc.lft.to/lastmile_qr_scan", "ios": "https://dc.lft.to/lastmile_qr_scan"}, "fusion_lon": 0.0, "lat": 38.89092683333333, "bike_id": "cd9ddb1278656c343b809c7f312d2490", "type": "electric_scooter", "is_reserved": 0, "lon": -76.91930983333333}, {"fusion_lat": 0.0, "name": "50c9da859d05ee3164f0f4ce7a728130", "is_disabled": 0, "rental_uris": {"android": "https://dc.lft.to/lastmile_qr_scan", "ios": "https://dc.lft.to/lastmile_qr_scan"}, "fusion_lon": 0.0, "lat": 38.90508616666666, "bike_id": "50c9da859d05ee3164f0f4ce7a728130", "type": "electric_scooter", "is_reserved": 0, "lon": -76.984813}, {"fusion_lat": 0.0, "name": "301363e7a9ddbc7b8567188e0b0b8d6e", "is_disabled": 0, "rental_uris": {"android": "https://dc.lft.to/lastmile_qr_scan", "ios": "https://dc.lft.to/lastmile_qr_scan"}, "fusion_lon": 0.0, "lat": 38.954676666666664, "bike_id": "301363e7a9ddbc7b8567188e0b0b8d6e", "type": "electric_scooter", "is_reserved": 0, "lon": -77.00782266666667}, {"fusion_lat": 0.0, "name": "48d7fe5d33a506ab47b3fd13da30705b", "is_disabled": 0, "rental_uris": {"android": "https://dc.lft.to/lastmile_qr_scan", "ios": "https://dc.lft.to/lastmile_qr_scan"}, "fusion_lon": 0.0, "lat": 38.944284, "bike_id": "48d7fe5d33a506ab47b3fd13da30705b", "type": "electric_bike", "is_reserved": 0, "lon": -77.02600366666667}, {"fusion_lat": 0.0, "name": "77f816b68cbe46bd7165347fb95b2076", "is_disabled": 0, "rental_uris": {"android": "https://dc.lft.to/lastmile_qr_scan", "ios": "https://dc.lft.to/lastmile_qr_scan"}, "fusion_lon": 0.0, "lat": 38.91052, "bike_id": "77f816b68cbe46bd7165347fb95b2076", "type": "electric_scooter", "is_reserved": 0, "lon": -77.06451116666666}, {"fusion_lat": 0.0, "name": "e4a6a788ef52e16522b241328161eb6b", "is_disabled": 0, "rental_uris": {"android": "https://dc.lft.to/lastmile_qr_scan", "ios": "https://dc.lft.to/lastmile_qr_scan"}, "fusion_lon": 0.0, "lat": 38.918225, "bike_id": "e4a6a788ef52e16522b241328161eb6b", "type": "electric_scooter", "is_reserved": 0, "lon": -77.03681333333333}, {"fusion_lat": 0.0, "name": "35415b4b5c24af5ac050d64dcaa0e300", "is_disabled": 0, "rental_uris": {"android": "https://dc.lft.to/lastmile_qr_scan", "ios": "https://dc.lft.to/lastmile_qr_scan"}, "fusion_lon": 0.0, "lat": 38.922520166666665, "bike_id": "35415b4b5c24af5ac050d64dcaa0e300", "type": "electric_scooter", "is_reserved": 0, "lon": -77.07450216666666}, {"fusion_lat": 0.0, "name": "9352ea275a4ee9aa84f27f4c1664bebd", "is_disabled": 0, "rental_uris": {"android": "https://dc.lft.to/lastmile_qr_scan", "ios": "https://dc.lft.to/lastmile_qr_scan"}, "fusion_lon": 0.0, "lat": 38.92565666666667, "bike_id": "9352ea275a4ee9aa84f27f4c1664bebd", "type": "electric_scooter", "is_reserved": 0, "lon": -77.0438085}, {"fusion_lat": 0.0, "name": "89d000c2b3a778f945e6a71f56a1010d", "is_disabled": 0, "rental_uris": {"android": "https://dc.lft.to/lastmile_qr_scan", "ios": "https://dc.lft.to/lastmile_qr_scan"}, "fusion_lon": 0.0, "lat": 38.91328433333334, "bike_id": "89d000c2b3a778f945e6a71f56a1010d", "type": "electric_scooter", "is_reserved": 0, "lon": -77.031685}, {"fusion_lat": 0.0, "name": "f8d0a054d98346f048d4777045f4f312", "is_disabled": 0, "rental_uris": {"android": "https://dc.lft.to/lastmile_qr_scan", "ios": "https://dc.lft.to/lastmile_qr_scan"}, "fusion_lon": 0.0, "lat": 38.90719433333334, "bike_id": "f8d0a054d98346f048d4777045f4f312", "type": "electric_scooter", "is_reserved": 0, "lon": -77.049958}, {"fusion_lat": 0.0, "name": "993a4e93404d943056bfaf4567af8e5c", "is_disabled": 0, "rental_uris": {"android": "https://dc.lft.to/lastmile_qr_scan", "ios": "https://dc.lft.to/lastmile_qr_scan"}, "fusion_lon": 0.0, "lat": 38.91633516666667, "bike_id": "993a4e93404d943056bfaf4567af8e5c", "type": "electric_scooter", "is_reserved": 0, "lon": -77.0505375}, {"fusion_lat": 0.0, "name": "fdd25cd45bc3fcd645b757ea64a14e12", "is_disabled": 0, "rental_uris": {"android": "https://dc.lft.to/lastmile_qr_scan", "ios": "https://dc.lft.to/lastmile_qr_scan"}, "fusion_lon": 0.0, "lat": 38.917078333333336, "bike_id": "fdd25cd45bc3fcd645b757ea64a14e12", "type": "electric_scooter", "is_reserved": 0, "lon": -77.0241435}, {"fusion_lat": 0.0, "name": "12fef2a3571dc55fca173e0e3d66f427", "is_disabled": 0, "rental_uris": {"android": "https://dc.lft.to/lastmile_qr_scan", "ios": "https://dc.lft.to/lastmile_qr_scan"}, "fusion_lon": 0.0, "lat": 38.90764683333333, "bike_id": "12fef2a3571dc55fca173e0e3d66f427", "type": "electric_scooter", "is_reserved": 0, "lon": -77.03585766666667}, {"fusion_lat": 0.0, "name": "3306c86db2e9030a8ce68283423e7c85", "is_disabled": 0, "rental_uris": {"android": "https://dc.lft.to/lastmile_qr_scan", "ios": "https://dc.lft.to/lastmile_qr_scan"}, "fusion_lon": 0.0, "lat": 38.905305, "bike_id": "3306c86db2e9030a8ce68283423e7c85", "type": "electric_scooter", "is_reserved": 0, "lon": -77.0290185}, {"fusion_lat": 0.0, "name": "97b10532759c4d730c77fc44dc3d7bfe", "is_disabled": 0, "rental_uris": {"android": "https://dc.lft.to/lastmile_qr_scan", "ios": "https://dc.lft.to/lastmile_qr_scan"}, "fusion_lon": 0.0, "lat": 38.90485566666667, "bike_id": "97b10532759c4d730c77fc44dc3d7bfe", "type": "electric_scooter", "is_reserved": 0, "lon": -77.04855133333334}, {"fusion_lat": 0.0, "name": "e139f4bc30fc407e4a8d874e5f326280", "is_disabled": 0, "rental_uris": {"android": "https://dc.lft.to/lastmile_qr_scan", "ios": "https://dc.lft.to/lastmile_qr_scan"}, "fusion_lon": 0.0, "lat": 38.852058666666665, "bike_id": "e139f4bc30fc407e4a8d874e5f326280", "type": "electric_scooter", "is_reserved": 0, "lon": -76.96293066666667}, {"fusion_lat": 0.0, "name": "fa7e7879cc5872f3900ec72b3d25fbde", "is_disabled": 0, "rental_uris": {"android": "https://dc.lft.to/lastmile_qr_scan", "ios": "https://dc.lft.to/lastmile_qr_scan"}, "fusion_lon": 0.0, "lat": 38.91563683333333, "bike_id": "fa7e7879cc5872f3900ec72b3d25fbde", "type": "electric_scooter", "is_reserved": 0, "lon": -77.03137766666667}, {"fusion_lat": 0.0, "name": "94442392838c69b1842a1f556d6dd791", "is_disabled": 0, "rental_uris": {"android": "https://dc.lft.to/lastmile_qr_scan", "ios": "https://dc.lft.to/lastmile_qr_scan"}, "fusion_lon": 0.0, "lat": 39.036095833333334, "bike_id": "94442392838c69b1842a1f556d6dd791", "type": "electric_bike", "is_reserved": 0, "lon": -77.05539416666667}, {"fusion_lat": 0.0, "name": "adc24678902ef11f4529df3b44cf5bdb", "is_disabled": 0, "rental_uris": {"android": "https://dc.lft.to/lastmile_qr_scan", "ios": "https://dc.lft.to/lastmile_qr_scan"}, "fusion_lon": 0.0, "lat": 38.90969283333333, "bike_id": "adc24678902ef11f4529df3b44cf5bdb", "type": "electric_scooter", "is_reserved": 0, "lon": -77.03863533333333}, {"fusion_lat": 0.0, "name": "8ae73914a1f77c84b298fff58ed2d791", "is_disabled": 0, "rental_uris": {"android": "https://dc.lft.to/lastmile_qr_scan", "ios": "https://dc.lft.to/lastmile_qr_scan"}, "fusion_lon": 0.0, "lat": 38.88625566666666, "bike_id": "8ae73914a1f77c84b298fff58ed2d791", "type": "electric_scooter", "is_reserved": 0, "lon": -77.02849183333333}, {"fusion_lat": 0.0, "name": "ef08026ada1f305ce4b4ac6ca58bc45f", "is_disabled": 0, "rental_uris": {"android": "https://dc.lft.to/lastmile_qr_scan", "ios": "https://dc.lft.to/lastmile_qr_scan"}, "fusion_lon": 0.0, "lat": 38.88726883333333, "bike_id": "ef08026ada1f305ce4b4ac6ca58bc45f", "type": "electric_scooter", "is_reserved": 0, "lon": -76.98351383333333}, {"fusion_lat": 0.0, "name": "f7e2da48373fbf53318de0567c3a4018", "is_disabled": 0, "rental_uris": {"android": "https://dc.lft.to/lastmile_qr_scan", "ios": "https://dc.lft.to/lastmile_qr_scan"}, "fusion_lon": 0.0, "lat": 38.89968283333333, "bike_id": "f7e2da48373fbf53318de0567c3a4018", "type": "electric_scooter", "is_reserved": 0, "lon": -76.9870935}, {"fusion_lat": 0.0, "name": "d310d526ece71938f24b3a781472f572", "is_disabled": 0, "rental_uris": {"android": "https://dc.lft.to/lastmile_qr_scan", "ios": "https://dc.lft.to/lastmile_qr_scan"}, "fusion_lon": 0.0, "lat": 38.9422765, "bike_id": "d310d526ece71938f24b3a781472f572", "type": "electric_scooter", "is_reserved": 0, "lon": -77.01380333333333}, {"fusion_lat": 0.0, "name": "c487128227843a8c38be3fd18df4ae34", "is_disabled": 0, "rental_uris": {"android": "https://dc.lft.to/lastmile_qr_scan", "ios": "https://dc.lft.to/lastmile_qr_scan"}, "fusion_lon": 0.0, "lat": 38.89976816666667, "bike_id": "c487128227843a8c38be3fd18df4ae34", "type": "electric_scooter", "is_reserved": 0, "lon": -77.0122055}, {"fusion_lat": 0.0, "name": "183c3136da81b8ca9b758e9dbf36f307", "is_disabled": 0, "rental_uris": {"android": "https://dc.lft.to/lastmile_qr_scan", "ios": "https://dc.lft.to/lastmile_qr_scan"}, "fusion_lon": 0.0, "lat": 38.9207695, "bike_id": "183c3136da81b8ca9b758e9dbf36f307", "type": "electric_bike", "is_reserved": 0, "lon": -76.98948566666667}, {"fusion_lat": 0.0, "name": "7456931409f5248d820769ab30c2757d", "is_disabled": 0, "rental_uris": {"android": "https://dc.lft.to/lastmile_qr_scan", "ios": "https://dc.lft.to/lastmile_qr_scan"}, "fusion_lon": 0.0, "lat": 38.887390333333336, "bike_id": "7456931409f5248d820769ab30c2757d", "type": "electric_scooter", "is_reserved": 0, "lon": -77.03177333333333}, {"fusion_lat": 0.0, "name": "61b18ac2c12e6c64324ab186fbd26a1d", "is_disabled": 0, "rental_uris": {"android": "https://dc.lft.to/lastmile_qr_scan", "ios": "https://dc.lft.to/lastmile_qr_scan"}, "fusion_lon": 0.0, "lat": 38.918146, "bike_id": "61b18ac2c12e6c64324ab186fbd26a1d", "type": "electric_scooter", "is_reserved": 0, "lon": -77.03679416666667}, {"fusion_lat": 0.0, "name": "47878e122b3f2f06caa45426a5dd30f3", "is_disabled": 0, "rental_uris": {"android": "https://dc.lft.to/lastmile_qr_scan", "ios": "https://dc.lft.to/lastmile_qr_scan"}, "fusion_lon": 0.0, "lat": 38.91993333333333, "bike_id": "47878e122b3f2f06caa45426a5dd30f3", "type": "electric_scooter", "is_reserved": 0, "lon": -77.032856}, {"fusion_lat": 0.0, "name": "83e7447160810457578b3be0c9a18a32", "is_disabled": 0, "rental_uris": {"android": "https://dc.lft.to/lastmile_qr_scan", "ios": "https://dc.lft.to/lastmile_qr_scan"}, "fusion_lon": 0.0, "lat": 38.903911, "bike_id": "83e7447160810457578b3be0c9a18a32", "type": "electric_scooter", "is_reserved": 0, "lon": -77.0382185}, {"fusion_lat": 0.0, "name": "c6420967acd70d3338cf843a05b8e795", "is_disabled": 0, "rental_uris": {"android": "https://dc.lft.to/lastmile_qr_scan", "ios": "https://dc.lft.to/lastmile_qr_scan"}, "fusion_lon": 0.0, "lat": 38.887384833333336, "bike_id": "c6420967acd70d3338cf843a05b8e795", "type": "electric_scooter", "is_reserved": 0, "lon": -77.00316233333334}, {"fusion_lat": 0.0, "name": "070e0280c31c82214c2365e6dff02aea", "is_disabled": 0, "rental_uris": {"android": "https://dc.lft.to/lastmile_qr_scan", "ios": "https://dc.lft.to/lastmile_qr_scan"}, "fusion_lon": 0.0, "lat": 38.92436283333333, "bike_id": "070e0280c31c82214c2365e6dff02aea", "type": "electric_scooter", "is_reserved": 0, "lon": -77.00067283333334}, {"fusion_lat": 0.0, "name": "bc8cbd7444415762912666acb74aebae", "is_disabled": 0, "rental_uris": {"android": "https://dc.lft.to/lastmile_qr_scan", "ios": "https://dc.lft.to/lastmile_qr_scan"}, "fusion_lon": 0.0, "lat": 38.90726816666667, "bike_id": "bc8cbd7444415762912666acb74aebae", "type": "electric_scooter", "is_reserved": 0, "lon": -77.029577}, {"fusion_lat": 0.0, "name": "4537645ad0b097d002c2f09b3f0c6eb8", "is_disabled": 0, "rental_uris": {"android": "https://dc.lft.to/lastmile_qr_scan", "ios": "https://dc.lft.to/lastmile_qr_scan"}, "fusion_lon": 0.0, "lat": 38.90294516666667, "bike_id": "4537645ad0b097d002c2f09b3f0c6eb8", "type": "electric_scooter", "is_reserved": 0, "lon": -77.03955366666666}, {"fusion_lat": 0.0, "name": "86a86b88b397eff8d8e11fc6e6e38e1f", "is_disabled": 0, "rental_uris": {"android": "https://dc.lft.to/lastmile_qr_scan", "ios": "https://dc.lft.to/lastmile_qr_scan"}, "fusion_lon": 0.0, "lat": 38.93301116666667, "bike_id": "86a86b88b397eff8d8e11fc6e6e38e1f", "type": "electric_scooter", "is_reserved": 0, "lon": -77.0307875}, {"fusion_lat": 0.0, "name": "6e41ba00d36253a9c10cbcfcd775d010", "is_disabled": 0, "rental_uris": {"android": "https://dc.lft.to/lastmile_qr_scan", "ios": "https://dc.lft.to/lastmile_qr_scan"}, "fusion_lon": 0.0, "lat": 38.90047783333333, "bike_id": "6e41ba00d36253a9c10cbcfcd775d010", "type": "electric_bike", "is_reserved": 0, "lon": -77.00221866666666}, {"fusion_lat": 0.0, "name": "ad1594624868c496a2025a4683e04251", "is_disabled": 0, "rental_uris": {"android": "https://dc.lft.to/lastmile_qr_scan", "ios": "https://dc.lft.to/lastmile_qr_scan"}, "fusion_lon": 0.0, "lat": 38.90641466666667, "bike_id": "ad1594624868c496a2025a4683e04251", "type": "electric_scooter", "is_reserved": 0, "lon": -77.06300866666666}, {"fusion_lat": 0.0, "name": "ee66e2904e70b5a03467d7b0a91edbb4", "is_disabled": 0, "rental_uris": {"android": "https://dc.lft.to/lastmile_qr_scan", "ios": "https://dc.lft.to/lastmile_qr_scan"}, "fusion_lon": 0.0, "lat": 38.9175495, "bike_id": "ee66e2904e70b5a03467d7b0a91edbb4", "type": "electric_scooter", "is_reserved": 0, "lon": -77.02299433333333}, {"fusion_lat": 0.0, "name": "5d16384349d5d169691630dc8c47a1b7", "is_disabled": 0, "rental_uris": {"android": "https://dc.lft.to/lastmile_qr_scan", "ios": "https://dc.lft.to/lastmile_qr_scan"}, "fusion_lon": 0.0, "lat": 38.91058483333333, "bike_id": "5d16384349d5d169691630dc8c47a1b7", "type": "electric_scooter", "is_reserved": 0, "lon": -77.0410805}, {"fusion_lat": 0.0, "name": "c29bcea99d44a096d0f006c5758d68ea", "is_disabled": 0, "rental_uris": {"android": "https://dc.lft.to/lastmile_qr_scan", "ios": "https://dc.lft.to/lastmile_qr_scan"}, "fusion_lon": 0.0, "lat": 38.9459775, "bike_id": "c29bcea99d44a096d0f006c5758d68ea", "type": "electric_scooter", "is_reserved": 0, "lon": -77.029797}, {"fusion_lat": 0.0, "name": "a0ac7b5b6eef4e58c30f05a8986cb549", "is_disabled": 0, "rental_uris": {"android": "https://dc.lft.to/lastmile_qr_scan", "ios": "https://dc.lft.to/lastmile_qr_scan"}, "fusion_lon": 0.0, "lat": 38.9054835, "bike_id": "a0ac7b5b6eef4e58c30f05a8986cb549", "type": "electric_scooter", "is_reserved": 0, "lon": -77.05808283333333}, {"fusion_lat": 0.0, "name": "9499a54ae2ca3b9027f1675d02f629ab", "is_disabled": 0, "rental_uris": {"android": "https://dc.lft.to/lastmile_qr_scan", "ios": "https://dc.lft.to/lastmile_qr_scan"}, "fusion_lon": 0.0, "lat": 38.91670583333333, "bike_id": "9499a54ae2ca3b9027f1675d02f629ab", "type": "electric_scooter", "is_reserved": 0, "lon": -77.02286033333333}, {"fusion_lat": 0.0, "name": "726646d70129711314ec9efa8ab3861f", "is_disabled": 0, "rental_uris": {"android": "https://dc.lft.to/lastmile_qr_scan", "ios": "https://dc.lft.to/lastmile_qr_scan"}, "fusion_lon": 0.0, "lat": 38.87162716666667, "bike_id": "726646d70129711314ec9efa8ab3861f", "type": "electric_scooter", "is_reserved": 0, "lon": -77.01185116666667}, {"fusion_lat": 0.0, "name": "7968c0af47b7651d00d6b31ead6b5f63", "is_disabled": 0, "rental_uris": {"android": "https://dc.lft.to/lastmile_qr_scan", "ios": "https://dc.lft.to/lastmile_qr_scan"}, "fusion_lon": 0.0, "lat": 38.919203, "bike_id": "7968c0af47b7651d00d6b31ead6b5f63", "type": "electric_scooter", "is_reserved": 0, "lon": -77.02405016666667}, {"fusion_lat": 0.0, "name": "e5226676491dac45807f4ab3f95dec46", "is_disabled": 0, "rental_uris": {"android": "https://dc.lft.to/lastmile_qr_scan", "ios": "https://dc.lft.to/lastmile_qr_scan"}, "fusion_lon": 0.0, "lat": 38.912790666666666, "bike_id": "e5226676491dac45807f4ab3f95dec46", "type": "electric_scooter", "is_reserved": 0, "lon": -77.037639}, {"fusion_lat": 0.0, "name": "72e0dfdb7a31be607477f3d4bb58be5a", "is_disabled": 0, "rental_uris": {"android": "https://dc.lft.to/lastmile_qr_scan", "ios": "https://dc.lft.to/lastmile_qr_scan"}, "fusion_lon": 0.0, "lat": 38.9213645, "bike_id": "72e0dfdb7a31be607477f3d4bb58be5a", "type": "electric_scooter", "is_reserved": 0, "lon": -77.0040125}, {"fusion_lat": 0.0, "name": "9e4620366a4ce91632944263cfa535a6", "is_disabled": 0, "rental_uris": {"android": "https://dc.lft.to/lastmile_qr_scan", "ios": "https://dc.lft.to/lastmile_qr_scan"}, "fusion_lon": 0.0, "lat": 38.916347333333334, "bike_id": "9e4620366a4ce91632944263cfa535a6", "type": "electric_scooter", "is_reserved": 0, "lon": -77.00390766666666}, {"fusion_lat": 0.0, "name": "40b9dbff85721c8334e62ba398e2c9b8", "is_disabled": 0, "rental_uris": {"android": "https://dc.lft.to/lastmile_qr_scan", "ios": "https://dc.lft.to/lastmile_qr_scan"}, "fusion_lon": 0.0, "lat": 38.865123833333335, "bike_id": "40b9dbff85721c8334e62ba398e2c9b8", "type": "electric_scooter", "is_reserved": 0, "lon": -76.97342616666667}, {"fusion_lat": 0.0, "name": "c79297907a1192b52dfe0e5dffb36ce7", "is_disabled": 0, "rental_uris": {"android": "https://dc.lft.to/lastmile_qr_scan", "ios": "https://dc.lft.to/lastmile_qr_scan"}, "fusion_lon": 0.0, "lat": 38.97879016666667, "bike_id": "c79297907a1192b52dfe0e5dffb36ce7", "type": "electric_bike", "is_reserved": 0, "lon": -77.060254}, {"fusion_lat": 0.0, "name": "6090c73e881a099f199e5849c679fb21", "is_disabled": 0, "rental_uris": {"android": "https://dc.lft.to/lastmile_qr_scan", "ios": "https://dc.lft.to/lastmile_qr_scan"}, "fusion_lon": 0.0, "lat": 38.83934683333333, "bike_id": "6090c73e881a099f199e5849c679fb21", "type": "electric_bike", "is_reserved": 0, "lon": -77.07896866666667}, {"fusion_lat": 0.0, "name": "5f84331e4c805b6c6d7c9c4835e776e4", "is_disabled": 0, "rental_uris": {"android": "https://dc.lft.to/lastmile_qr_scan", "ios": "https://dc.lft.to/lastmile_qr_scan"}, "fusion_lon": 0.0, "lat": 38.927326, "bike_id": "5f84331e4c805b6c6d7c9c4835e776e4", "type": "electric_scooter", "is_reserved": 0, "lon": -77.052508}, {"fusion_lat": 0.0, "name": "015583b33c8a07ef87c4ea9d976b88df", "is_disabled": 0, "rental_uris": {"android": "https://dc.lft.to/lastmile_qr_scan", "ios": "https://dc.lft.to/lastmile_qr_scan"}, "fusion_lon": 0.0, "lat": 38.90422233333334, "bike_id": "015583b33c8a07ef87c4ea9d976b88df", "type": "electric_scooter", "is_reserved": 0, "lon": -77.05124066666667}, {"fusion_lat": 0.0, "name": "2350f5fcd38b6e9cad0a17b327db7b77", "is_disabled": 0, "rental_uris": {"android": "https://dc.lft.to/lastmile_qr_scan", "ios": "https://dc.lft.to/lastmile_qr_scan"}, "fusion_lon": 0.0, "lat": 38.923803666666664, "bike_id": "2350f5fcd38b6e9cad0a17b327db7b77", "type": "electric_scooter", "is_reserved": 0, "lon": -77.04461416666666}, {"fusion_lat": 0.0, "name": "248b83ac2dd8d157d7857f24cde25dcd", "is_disabled": 0, "rental_uris": {"android": "https://dc.lft.to/lastmile_qr_scan", "ios": "https://dc.lft.to/lastmile_qr_scan"}, "fusion_lon": 0.0, "lat": 38.92018766666666, "bike_id": "248b83ac2dd8d157d7857f24cde25dcd", "type": "electric_scooter", "is_reserved": 0, "lon": -77.03878666666667}, {"fusion_lat": 0.0, "name": "5351917cebc60beccee88ae7fc0f6e30", "is_disabled": 0, "rental_uris": {"android": "https://dc.lft.to/lastmile_qr_scan", "ios": "https://dc.lft.to/lastmile_qr_scan"}, "fusion_lon": 0.0, "lat": 38.90379883333333, "bike_id": "5351917cebc60beccee88ae7fc0f6e30", "type": "electric_scooter", "is_reserved": 0, "lon": -76.9760865}, {"fusion_lat": 0.0, "name": "4ff5474a04be8e7cc5f0d82ea0b9b445", "is_disabled": 0, "rental_uris": {"android": "https://dc.lft.to/lastmile_qr_scan", "ios": "https://dc.lft.to/lastmile_qr_scan"}, "fusion_lon": 0.0, "lat": 38.802992833333334, "bike_id": "4ff5474a04be8e7cc5f0d82ea0b9b445", "type": "electric_bike", "is_reserved": 0, "lon": -77.05939866666667}, {"fusion_lat": 0.0, "name": "3b7b304e02a7e2c69d29af1315194009", "is_disabled": 0, "rental_uris": {"android": "https://dc.lft.to/lastmile_qr_scan", "ios": "https://dc.lft.to/lastmile_qr_scan"}, "fusion_lon": 0.0, "lat": 38.96392983333333, "bike_id": "3b7b304e02a7e2c69d29af1315194009", "type": "electric_scooter", "is_reserved": 0, "lon": -77.02590816666667}, {"fusion_lat": 0.0, "name": "301da801075f03777e6254bd1f70946c", "is_disabled": 0, "rental_uris": {"android": "https://dc.lft.to/lastmile_qr_scan", "ios": "https://dc.lft.to/lastmile_qr_scan"}, "fusion_lon": 0.0, "lat": 38.9325275, "bike_id": "301da801075f03777e6254bd1f70946c", "type": "electric_scooter", "is_reserved": 0, "lon": -77.03267066666666}, {"fusion_lat": 0.0, "name": "bad5794d3319e6f43df119887a34d5fe", "is_disabled": 0, "rental_uris": {"android": "https://dc.lft.to/lastmile_qr_scan", "ios": "https://dc.lft.to/lastmile_qr_scan"}, "fusion_lon": 0.0, "lat": 38.87968983333333, "bike_id": "bad5794d3319e6f43df119887a34d5fe", "type": "electric_scooter", "is_reserved": 0, "lon": -77.00587983333334}, {"fusion_lat": 0.0, "name": "3f27b180986607bce3c55524e5b90feb", "is_disabled": 0, "rental_uris": {"android": "https://dc.lft.to/lastmile_qr_scan", "ios": "https://dc.lft.to/lastmile_qr_scan"}, "fusion_lon": 0.0, "lat": 38.900235333333335, "bike_id": "3f27b180986607bce3c55524e5b90feb", "type": "electric_scooter", "is_reserved": 0, "lon": -77.01177733333333}, {"fusion_lat": 0.0, "name": "bb48c82f46a317d1b4d99e432b588f42", "is_disabled": 0, "rental_uris": {"android": "https://dc.lft.to/lastmile_qr_scan", "ios": "https://dc.lft.to/lastmile_qr_scan"}, "fusion_lon": 0.0, "lat": 38.89241066666666, "bike_id": "bb48c82f46a317d1b4d99e432b588f42", "type": "electric_scooter", "is_reserved": 0, "lon": -77.04359033333333}, {"fusion_lat": 0.0, "name": "cc99baa7ae40c90d43817a7c40e718e2", "is_disabled": 0, "rental_uris": {"android": "https://dc.lft.to/lastmile_qr_scan", "ios": "https://dc.lft.to/lastmile_qr_scan"}, "fusion_lon": 0.0, "lat": 38.92283883333333, "bike_id": "cc99baa7ae40c90d43817a7c40e718e2", "type": "electric_scooter", "is_reserved": 0, "lon": -77.03654983333334}, {"fusion_lat": 0.0, "name": "aa22b103cedfff35d7df3bf4401adcc2", "is_disabled": 0, "rental_uris": {"android": "https://dc.lft.to/lastmile_qr_scan", "ios": "https://dc.lft.to/lastmile_qr_scan"}, "fusion_lon": 0.0, "lat": 38.92097233333333, "bike_id": "aa22b103cedfff35d7df3bf4401adcc2", "type": "electric_scooter", "is_reserved": 0, "lon": -77.03166816666666}, {"fusion_lat": 0.0, "name": "a0930021fcb077e3a1f88bdde4bc5383", "is_disabled": 0, "rental_uris": {"android": "https://dc.lft.to/lastmile_qr_scan", "ios": "https://dc.lft.to/lastmile_qr_scan"}, "fusion_lon": 0.0, "lat": 38.8818715, "bike_id": "a0930021fcb077e3a1f88bdde4bc5383", "type": "electric_scooter", "is_reserved": 0, "lon": -77.00352316666667}, {"fusion_lat": 0.0, "name": "3a4d15fdda5c094d071461a0e1eaebeb", "is_disabled": 0, "rental_uris": {"android": "https://dc.lft.to/lastmile_qr_scan", "ios": "https://dc.lft.to/lastmile_qr_scan"}, "fusion_lon": 0.0, "lat": 38.90687033333333, "bike_id": "3a4d15fdda5c094d071461a0e1eaebeb", "type": "electric_scooter", "is_reserved": 0, "lon": -77.01010733333334}, {"fusion_lat": 0.0, "name": "5192ccfc4d4baf10d20836f0753791d3", "is_disabled": 0, "rental_uris": {"android": "https://dc.lft.to/lastmile_qr_scan", "ios": "https://dc.lft.to/lastmile_qr_scan"}, "fusion_lon": 0.0, "lat": 38.897287166666665, "bike_id": "5192ccfc4d4baf10d20836f0753791d3", "type": "electric_scooter", "is_reserved": 0, "lon": -76.9913475}, {"fusion_lat": 0.0, "name": "9a6c55ded2d46de3167e0d235fe8e2b2", "is_disabled": 0, "rental_uris": {"android": "https://dc.lft.to/lastmile_qr_scan", "ios": "https://dc.lft.to/lastmile_qr_scan"}, "fusion_lon": 0.0, "lat": 38.92335833333333, "bike_id": "9a6c55ded2d46de3167e0d235fe8e2b2", "type": "electric_scooter", "is_reserved": 0, "lon": -77.05299116666667}, {"fusion_lat": 0.0, "name": "e3a52614ebcf659a82e61301d0549724", "is_disabled": 0, "rental_uris": {"android": "https://dc.lft.to/lastmile_qr_scan", "ios": "https://dc.lft.to/lastmile_qr_scan"}, "fusion_lon": 0.0, "lat": 38.8817975, "bike_id": "e3a52614ebcf659a82e61301d0549724", "type": "electric_bike", "is_reserved": 0, "lon": -77.08636633333333}, {"fusion_lat": 0.0, "name": "2980989e68db6c19f3ec056c3756c0b1", "is_disabled": 0, "rental_uris": {"android": "https://dc.lft.to/lastmile_qr_scan", "ios": "https://dc.lft.to/lastmile_qr_scan"}, "fusion_lon": 0.0, "lat": 38.908534833333334, "bike_id": "2980989e68db6c19f3ec056c3756c0b1", "type": "electric_scooter", "is_reserved": 0, "lon": -77.02343483333334}, {"fusion_lat": 0.0, "name": "bc13ebd7616d1f1bbd54577be965d2c1", "is_disabled": 0, "rental_uris": {"android": "https://dc.lft.to/lastmile_qr_scan", "ios": "https://dc.lft.to/lastmile_qr_scan"}, "fusion_lon": 0.0, "lat": 38.950859, "bike_id": "bc13ebd7616d1f1bbd54577be965d2c1", "type": "electric_bike", "is_reserved": 0, "lon": -77.012245}, {"fusion_lat": 0.0, "name": "013a854d50c8ae6a7d5099158ec92923", "is_disabled": 0, "rental_uris": {"android": "https://dc.lft.to/lastmile_qr_scan", "ios": "https://dc.lft.to/lastmile_qr_scan"}, "fusion_lon": 0.0, "lat": 38.90229133333333, "bike_id": "013a854d50c8ae6a7d5099158ec92923", "type": "electric_scooter", "is_reserved": 0, "lon": -77.03466133333333}, {"fusion_lat": 0.0, "name": "73cd49a70a3828b42a1db91849c444de", "is_disabled": 0, "rental_uris": {"android": "https://dc.lft.to/lastmile_qr_scan", "ios": "https://dc.lft.to/lastmile_qr_scan"}, "fusion_lon": 0.0, "lat": 38.918266333333335, "bike_id": "73cd49a70a3828b42a1db91849c444de", "type": "electric_scooter", "is_reserved": 0, "lon": -77.04504266666666}, {"fusion_lat": 0.0, "name": "90b70789d138964bdf1f6ae1ee0c4171", "is_disabled": 0, "rental_uris": {"android": "https://dc.lft.to/lastmile_qr_scan", "ios": "https://dc.lft.to/lastmile_qr_scan"}, "fusion_lon": 0.0, "lat": 38.87858283333333, "bike_id": "90b70789d138964bdf1f6ae1ee0c4171", "type": "electric_scooter", "is_reserved": 0, "lon": -77.0175825}, {"fusion_lat": 0.0, "name": "7a09a1ecd7cf845eac589b83d22d763e", "is_disabled": 0, "rental_uris": {"android": "https://dc.lft.to/lastmile_qr_scan", "ios": "https://dc.lft.to/lastmile_qr_scan"}, "fusion_lon": 0.0, "lat": 38.920655833333335, "bike_id": "7a09a1ecd7cf845eac589b83d22d763e", "type": "electric_scooter", "is_reserved": 0, "lon": -77.02354333333334}, {"fusion_lat": 0.0, "name": "3c53fdde949cec19898e77912b1126f7", "is_disabled": 0, "rental_uris": {"android": "https://dc.lft.to/lastmile_qr_scan", "ios": "https://dc.lft.to/lastmile_qr_scan"}, "fusion_lon": 0.0, "lat": 38.90361266666667, "bike_id": "3c53fdde949cec19898e77912b1126f7", "type": "electric_scooter", "is_reserved": 0, "lon": -77.04491616666667}, {"fusion_lat": 0.0, "name": "0da7a8f1f8b427162bd46dd881d42756", "is_disabled": 0, "rental_uris": {"android": "https://dc.lft.to/lastmile_qr_scan", "ios": "https://dc.lft.to/lastmile_qr_scan"}, "fusion_lon": 0.0, "lat": 38.90029766666667, "bike_id": "0da7a8f1f8b427162bd46dd881d42756", "type": "electric_scooter", "is_reserved": 0, "lon": -76.99865483333333}, {"fusion_lat": 0.0, "name": "8d49459e8d7b992bbad07dd6ba4e1bde", "is_disabled": 0, "rental_uris": {"android": "https://dc.lft.to/lastmile_qr_scan", "ios": "https://dc.lft.to/lastmile_qr_scan"}, "fusion_lon": 0.0, "lat": 38.89544683333333, "bike_id": "8d49459e8d7b992bbad07dd6ba4e1bde", "type": "electric_scooter", "is_reserved": 0, "lon": -76.98337233333334}, {"fusion_lat": 0.0, "name": "c341eed229bbfdf551dae10d09bbacce", "is_disabled": 0, "rental_uris": {"android": "https://dc.lft.to/lastmile_qr_scan", "ios": "https://dc.lft.to/lastmile_qr_scan"}, "fusion_lon": 0.0, "lat": 38.923770166666664, "bike_id": "c341eed229bbfdf551dae10d09bbacce", "type": "electric_scooter", "is_reserved": 0, "lon": -77.031235}, {"fusion_lat": 0.0, "name": "22263c48b6700d130d1b7985ae7d5fcd", "is_disabled": 0, "rental_uris": {"android": "https://dc.lft.to/lastmile_qr_scan", "ios": "https://dc.lft.to/lastmile_qr_scan"}, "fusion_lon": 0.0, "lat": 38.920947, "bike_id": "22263c48b6700d130d1b7985ae7d5fcd", "type": "electric_scooter", "is_reserved": 0, "lon": -77.02518483333333}, {"fusion_lat": 0.0, "name": "348c7f0d93616084d515cb7e38e8ee90", "is_disabled": 0, "rental_uris": {"android": "https://dc.lft.to/lastmile_qr_scan", "ios": "https://dc.lft.to/lastmile_qr_scan"}, "fusion_lon": 0.0, "lat": 38.920911, "bike_id": "348c7f0d93616084d515cb7e38e8ee90", "type": "electric_scooter", "is_reserved": 0, "lon": -77.02393016666667}, {"fusion_lat": 0.0, "name": "f30c0679f74e8ec27059e152e7983a21", "is_disabled": 0, "rental_uris": {"android": "https://dc.lft.to/lastmile_qr_scan", "ios": "https://dc.lft.to/lastmile_qr_scan"}, "fusion_lon": 0.0, "lat": 38.918175833333336, "bike_id": "f30c0679f74e8ec27059e152e7983a21", "type": "electric_scooter", "is_reserved": 0, "lon": -77.045174}, {"fusion_lat": 0.0, "name": "b9de22efeb9daa1d2b90dd25d856eb8d", "is_disabled": 0, "rental_uris": {"android": "https://dc.lft.to/lastmile_qr_scan", "ios": "https://dc.lft.to/lastmile_qr_scan"}, "fusion_lon": 0.0, "lat": 38.924479833333336, "bike_id": "b9de22efeb9daa1d2b90dd25d856eb8d", "type": "electric_scooter", "is_reserved": 0, "lon": -77.02020016666667}, {"fusion_lat": 0.0, "name": "5278f3aab0d69ff6bd73ce5349598d58", "is_disabled": 0, "rental_uris": {"android": "https://dc.lft.to/lastmile_qr_scan", "ios": "https://dc.lft.to/lastmile_qr_scan"}, "fusion_lon": 0.0, "lat": 38.935327, "bike_id": "5278f3aab0d69ff6bd73ce5349598d58", "type": "electric_scooter", "is_reserved": 0, "lon": -77.02349016666666}, {"fusion_lat": 0.0, "name": "32528037504b5c3c24d4b3649e98cc7d", "is_disabled": 0, "rental_uris": {"android": "https://dc.lft.to/lastmile_qr_scan", "ios": "https://dc.lft.to/lastmile_qr_scan"}, "fusion_lon": 0.0, "lat": 38.911103, "bike_id": "32528037504b5c3c24d4b3649e98cc7d", "type": "electric_scooter", "is_reserved": 0, "lon": -77.00246633333333}, {"fusion_lat": 0.0, "name": "2824ccf4174f71842c2e8c8faa1e4d6c", "is_disabled": 0, "rental_uris": {"android": "https://dc.lft.to/lastmile_qr_scan", "ios": "https://dc.lft.to/lastmile_qr_scan"}, "fusion_lon": 0.0, "lat": 38.8849175, "bike_id": "2824ccf4174f71842c2e8c8faa1e4d6c", "type": "electric_scooter", "is_reserved": 0, "lon": -77.00712833333333}, {"fusion_lat": 0.0, "name": "a2e6cf45a9d8f9d59e8e80a26f2629c5", "is_disabled": 0, "rental_uris": {"android": "https://dc.lft.to/lastmile_qr_scan", "ios": "https://dc.lft.to/lastmile_qr_scan"}, "fusion_lon": 0.0, "lat": 38.897497, "bike_id": "a2e6cf45a9d8f9d59e8e80a26f2629c5", "type": "electric_scooter", "is_reserved": 0, "lon": -77.0462115}, {"fusion_lat": 0.0, "name": "a6185861916e66facf132d0259ff1e2d", "is_disabled": 0, "rental_uris": {"android": "https://dc.lft.to/lastmile_qr_scan", "ios": "https://dc.lft.to/lastmile_qr_scan"}, "fusion_lon": 0.0, "lat": 38.9188785, "bike_id": "a6185861916e66facf132d0259ff1e2d", "type": "electric_scooter", "is_reserved": 0, "lon": -77.0229165}, {"fusion_lat": 0.0, "name": "d4a71008aec5cf64826dfb5769f9530d", "is_disabled": 0, "rental_uris": {"android": "https://dc.lft.to/lastmile_qr_scan", "ios": "https://dc.lft.to/lastmile_qr_scan"}, "fusion_lon": 0.0, "lat": 38.8781275, "bike_id": "d4a71008aec5cf64826dfb5769f9530d", "type": "electric_scooter", "is_reserved": 0, "lon": -77.01324083333333}, {"fusion_lat": 0.0, "name": "e27d4b0c08dfc1615794bf6d8f4a89a9", "is_disabled": 0, "rental_uris": {"android": "https://dc.lft.to/lastmile_qr_scan", "ios": "https://dc.lft.to/lastmile_qr_scan"}, "fusion_lon": 0.0, "lat": 38.9171385, "bike_id": "e27d4b0c08dfc1615794bf6d8f4a89a9", "type": "electric_scooter", "is_reserved": 0, "lon": -76.97663733333333}, {"fusion_lat": 0.0, "name": "9ef18485140a0e6b8f2b1e9dca2af111", "is_disabled": 0, "rental_uris": {"android": "https://dc.lft.to/lastmile_qr_scan", "ios": "https://dc.lft.to/lastmile_qr_scan"}, "fusion_lon": 0.0, "lat": 38.898753166666665, "bike_id": "9ef18485140a0e6b8f2b1e9dca2af111", "type": "electric_scooter", "is_reserved": 0, "lon": -76.93184066666667}, {"fusion_lat": 0.0, "name": "8da0d6d12fce12669f3ba509ef580229", "is_disabled": 0, "rental_uris": {"android": "https://dc.lft.to/lastmile_qr_scan", "ios": "https://dc.lft.to/lastmile_qr_scan"}, "fusion_lon": 0.0, "lat": 38.915525833333334, "bike_id": "8da0d6d12fce12669f3ba509ef580229", "type": "electric_scooter", "is_reserved": 0, "lon": -77.03126616666667}, {"fusion_lat": 0.0, "name": "e97ea3fb8cd33799530d4f70cb49eb59", "is_disabled": 0, "rental_uris": {"android": "https://dc.lft.to/lastmile_qr_scan", "ios": "https://dc.lft.to/lastmile_qr_scan"}, "fusion_lon": 0.0, "lat": 38.928904333333335, "bike_id": "e97ea3fb8cd33799530d4f70cb49eb59", "type": "electric_scooter", "is_reserved": 0, "lon": -77.0325425}, {"fusion_lat": 0.0, "name": "faac5044ed0aa49ab22ce718856d6c55", "is_disabled": 0, "rental_uris": {"android": "https://dc.lft.to/lastmile_qr_scan", "ios": "https://dc.lft.to/lastmile_qr_scan"}, "fusion_lon": 0.0, "lat": 38.90168666666667, "bike_id": "faac5044ed0aa49ab22ce718856d6c55", "type": "electric_scooter", "is_reserved": 0, "lon": -77.02289333333333}, {"fusion_lat": 0.0, "name": "dd72da02b43a608e8e27a9eb125764b9", "is_disabled": 0, "rental_uris": {"android": "https://dc.lft.to/lastmile_qr_scan", "ios": "https://dc.lft.to/lastmile_qr_scan"}, "fusion_lon": 0.0, "lat": 38.964875666666664, "bike_id": "dd72da02b43a608e8e27a9eb125764b9", "type": "electric_bike", "is_reserved": 0, "lon": -77.02211233333334}, {"fusion_lat": 0.0, "name": "165860a2d2884bd77f17818f701d3bcd", "is_disabled": 0, "rental_uris": {"android": "https://dc.lft.to/lastmile_qr_scan", "ios": "https://dc.lft.to/lastmile_qr_scan"}, "fusion_lon": 0.0, "lat": 38.922406, "bike_id": "165860a2d2884bd77f17818f701d3bcd", "type": "electric_scooter", "is_reserved": 0, "lon": -77.02911383333333}, {"fusion_lat": 0.0, "name": "d10f5e07ab3b25bdc7c565aa263164a0", "is_disabled": 0, "rental_uris": {"android": "https://dc.lft.to/lastmile_qr_scan", "ios": "https://dc.lft.to/lastmile_qr_scan"}, "fusion_lon": 0.0, "lat": 38.898789666666666, "bike_id": "d10f5e07ab3b25bdc7c565aa263164a0", "type": "electric_scooter", "is_reserved": 0, "lon": -77.05353716666667}, {"fusion_lat": 0.0, "name": "8d5033a4ea8275c9da11226461a977cb", "is_disabled": 0, "rental_uris": {"android": "https://dc.lft.to/lastmile_qr_scan", "ios": "https://dc.lft.to/lastmile_qr_scan"}, "fusion_lon": 0.0, "lat": 38.89926716666667, "bike_id": "8d5033a4ea8275c9da11226461a977cb", "type": "electric_scooter", "is_reserved": 0, "lon": -77.02192366666667}, {"fusion_lat": 0.0, "name": "c5d16b15188605fc352274fac41435ba", "is_disabled": 0, "rental_uris": {"android": "https://dc.lft.to/lastmile_qr_scan", "ios": "https://dc.lft.to/lastmile_qr_scan"}, "fusion_lon": 0.0, "lat": 38.919142666666666, "bike_id": "c5d16b15188605fc352274fac41435ba", "type": "electric_scooter", "is_reserved": 0, "lon": -77.03387883333333}, {"fusion_lat": 0.0, "name": "81ad9d90ffef40c84bc4fe5ccbb7bc9e", "is_disabled": 0, "rental_uris": {"android": "https://dc.lft.to/lastmile_qr_scan", "ios": "https://dc.lft.to/lastmile_qr_scan"}, "fusion_lon": 0.0, "lat": 38.95890766666667, "bike_id": "81ad9d90ffef40c84bc4fe5ccbb7bc9e", "type": "electric_scooter", "is_reserved": 0, "lon": -77.002858}, {"fusion_lat": 0.0, "name": "237a3c054d323ae4156840d0879790f0", "is_disabled": 0, "rental_uris": {"android": "https://dc.lft.to/lastmile_qr_scan", "ios": "https://dc.lft.to/lastmile_qr_scan"}, "fusion_lon": 0.0, "lat": 38.8767185, "bike_id": "237a3c054d323ae4156840d0879790f0", "type": "electric_scooter", "is_reserved": 0, "lon": -77.0047375}, {"fusion_lat": 0.0, "name": "48f2940879ed633dd9c608006e2d0f3c", "is_disabled": 0, "rental_uris": {"android": "https://dc.lft.to/lastmile_qr_scan", "ios": "https://dc.lft.to/lastmile_qr_scan"}, "fusion_lon": 0.0, "lat": 38.92742533333333, "bike_id": "48f2940879ed633dd9c608006e2d0f3c", "type": "electric_scooter", "is_reserved": 0, "lon": -77.02264683333334}, {"fusion_lat": 0.0, "name": "b4711aef55b5df136b03082a6493df2d", "is_disabled": 0, "rental_uris": {"android": "https://dc.lft.to/lastmile_qr_scan", "ios": "https://dc.lft.to/lastmile_qr_scan"}, "fusion_lon": 0.0, "lat": 38.916932, "bike_id": "b4711aef55b5df136b03082a6493df2d", "type": "electric_scooter", "is_reserved": 0, "lon": -77.0258915}, {"fusion_lat": 0.0, "name": "1e5f430abe9a36e5193b2f2e7c3815f0", "is_disabled": 0, "rental_uris": {"android": "https://dc.lft.to/lastmile_qr_scan", "ios": "https://dc.lft.to/lastmile_qr_scan"}, "fusion_lon": 0.0, "lat": 38.921192833333336, "bike_id": "1e5f430abe9a36e5193b2f2e7c3815f0", "type": "electric_scooter", "is_reserved": 0, "lon": -77.04426}, {"fusion_lat": 0.0, "name": "df808354e983ff61bfa33e0c6a6b7455", "is_disabled": 0, "rental_uris": {"android": "https://dc.lft.to/lastmile_qr_scan", "ios": "https://dc.lft.to/lastmile_qr_scan"}, "fusion_lon": 0.0, "lat": 38.91997083333333, "bike_id": "df808354e983ff61bfa33e0c6a6b7455", "type": "electric_scooter", "is_reserved": 0, "lon": -77.03284716666667}, {"fusion_lat": 0.0, "name": "53298fc28ea3b0d33d919fac822e84b2", "is_disabled": 0, "rental_uris": {"android": "https://dc.lft.to/lastmile_qr_scan", "ios": "https://dc.lft.to/lastmile_qr_scan"}, "fusion_lon": 0.0, "lat": 38.92241683333334, "bike_id": "53298fc28ea3b0d33d919fac822e84b2", "type": "electric_bike", "is_reserved": 0, "lon": -77.0307205}, {"fusion_lat": 0.0, "name": "bd0778cb5b706316f6142fa3d8c4a8a9", "is_disabled": 0, "rental_uris": {"android": "https://dc.lft.to/lastmile_qr_scan", "ios": "https://dc.lft.to/lastmile_qr_scan"}, "fusion_lon": 0.0, "lat": 38.906704166666664, "bike_id": "bd0778cb5b706316f6142fa3d8c4a8a9", "type": "electric_scooter", "is_reserved": 0, "lon": -77.02707883333333}, {"fusion_lat": 0.0, "name": "40b9683ff5f31891aee032ffa0ac22c7", "is_disabled": 0, "rental_uris": {"android": "https://dc.lft.to/lastmile_qr_scan", "ios": "https://dc.lft.to/lastmile_qr_scan"}, "fusion_lon": 0.0, "lat": 38.919216666666664, "bike_id": "40b9683ff5f31891aee032ffa0ac22c7", "type": "electric_scooter", "is_reserved": 0, "lon": -77.02408433333333}, {"fusion_lat": 0.0, "name": "ea96eda8b197879e04ca32991ecf2e77", "is_disabled": 0, "rental_uris": {"android": "https://dc.lft.to/lastmile_qr_scan", "ios": "https://dc.lft.to/lastmile_qr_scan"}, "fusion_lon": 0.0, "lat": 38.9212085, "bike_id": "ea96eda8b197879e04ca32991ecf2e77", "type": "electric_scooter", "is_reserved": 0, "lon": -77.01208666666666}, {"fusion_lat": 0.0, "name": "41d74483d6bedc5eb45dac54b0c49828", "is_disabled": 0, "rental_uris": {"android": "https://dc.lft.to/lastmile_qr_scan", "ios": "https://dc.lft.to/lastmile_qr_scan"}, "fusion_lon": 0.0, "lat": 38.94524466666667, "bike_id": "41d74483d6bedc5eb45dac54b0c49828", "type": "electric_scooter", "is_reserved": 0, "lon": -77.0208495}, {"fusion_lat": 0.0, "name": "f8b9a7ee6436b329da72861b1929d501", "is_disabled": 0, "rental_uris": {"android": "https://dc.lft.to/lastmile_qr_scan", "ios": "https://dc.lft.to/lastmile_qr_scan"}, "fusion_lon": 0.0, "lat": 38.919255666666665, "bike_id": "f8b9a7ee6436b329da72861b1929d501", "type": "electric_scooter", "is_reserved": 0, "lon": -77.01204233333333}, {"fusion_lat": 0.0, "name": "eff81c8c9c6ca2b134f8c3b63b8a4f72", "is_disabled": 0, "rental_uris": {"android": "https://dc.lft.to/lastmile_qr_scan", "ios": "https://dc.lft.to/lastmile_qr_scan"}, "fusion_lon": 0.0, "lat": 38.923362833333336, "bike_id": "eff81c8c9c6ca2b134f8c3b63b8a4f72", "type": "electric_scooter", "is_reserved": 0, "lon": -77.05349716666667}, {"fusion_lat": 0.0, "name": "51f13c1f7b85792dccaa2ebb6c451ec1", "is_disabled": 0, "rental_uris": {"android": "https://dc.lft.to/lastmile_qr_scan", "ios": "https://dc.lft.to/lastmile_qr_scan"}, "fusion_lon": 0.0, "lat": 39.003077, "bike_id": "51f13c1f7b85792dccaa2ebb6c451ec1", "type": "electric_bike", "is_reserved": 0, "lon": -76.90317716666667}, {"fusion_lat": 0.0, "name": "99ac3e1b3c2d1acebc166904c507cfe0", "is_disabled": 0, "rental_uris": {"android": "https://dc.lft.to/lastmile_qr_scan", "ios": "https://dc.lft.to/lastmile_qr_scan"}, "fusion_lon": 0.0, "lat": 38.918127, "bike_id": "99ac3e1b3c2d1acebc166904c507cfe0", "type": "electric_scooter", "is_reserved": 0, "lon": -77.02476333333334}, {"fusion_lat": 0.0, "name": "4fb71723e885af757bdb46600450cedb", "is_disabled": 0, "rental_uris": {"android": "https://dc.lft.to/lastmile_qr_scan", "ios": "https://dc.lft.to/lastmile_qr_scan"}, "fusion_lon": 0.0, "lat": 38.91572, "bike_id": "4fb71723e885af757bdb46600450cedb", "type": "electric_scooter", "is_reserved": 0, "lon": -77.03638533333333}, {"fusion_lat": 0.0, "name": "4b966c13bf1588ad1db22f665741aaf9", "is_disabled": 0, "rental_uris": {"android": "https://dc.lft.to/lastmile_qr_scan", "ios": "https://dc.lft.to/lastmile_qr_scan"}, "fusion_lon": 0.0, "lat": 38.9024435, "bike_id": "4b966c13bf1588ad1db22f665741aaf9", "type": "electric_scooter", "is_reserved": 0, "lon": -77.027701}, {"fusion_lat": 0.0, "name": "9768ac8435cdcc46874cfe1bf98d11a6", "is_disabled": 0, "rental_uris": {"android": "https://dc.lft.to/lastmile_qr_scan", "ios": "https://dc.lft.to/lastmile_qr_scan"}, "fusion_lon": 0.0, "lat": 38.911078, "bike_id": "9768ac8435cdcc46874cfe1bf98d11a6", "type": "electric_scooter", "is_reserved": 0, "lon": -77.038415}, {"fusion_lat": 0.0, "name": "4844141008786116bf4b683262bb211a", "is_disabled": 0, "rental_uris": {"android": "https://dc.lft.to/lastmile_qr_scan", "ios": "https://dc.lft.to/lastmile_qr_scan"}, "fusion_lon": 0.0, "lat": 38.902704666666665, "bike_id": "4844141008786116bf4b683262bb211a", "type": "electric_scooter", "is_reserved": 0, "lon": -77.03941383333333}, {"fusion_lat": 0.0, "name": "13f3f6b26a3c0d3b56ff435656d578fe", "is_disabled": 0, "rental_uris": {"android": "https://dc.lft.to/lastmile_qr_scan", "ios": "https://dc.lft.to/lastmile_qr_scan"}, "fusion_lon": 0.0, "lat": 38.9370075, "bike_id": "13f3f6b26a3c0d3b56ff435656d578fe", "type": "electric_scooter", "is_reserved": 0, "lon": -77.02424733333334}, {"fusion_lat": 0.0, "name": "26317e598c848cf597d70b42f70e8d4f", "is_disabled": 0, "rental_uris": {"android": "https://dc.lft.to/lastmile_qr_scan", "ios": "https://dc.lft.to/lastmile_qr_scan"}, "fusion_lon": 0.0, "lat": 38.93704183333333, "bike_id": "26317e598c848cf597d70b42f70e8d4f", "type": "electric_scooter", "is_reserved": 0, "lon": -77.0610215}, {"fusion_lat": 0.0, "name": "6073e4dfc372eecf555072f99ac9bdb8", "is_disabled": 0, "rental_uris": {"android": "https://dc.lft.to/lastmile_qr_scan", "ios": "https://dc.lft.to/lastmile_qr_scan"}, "fusion_lon": 0.0, "lat": 38.900912, "bike_id": "6073e4dfc372eecf555072f99ac9bdb8", "type": "electric_scooter", "is_reserved": 0, "lon": -77.020115}, {"fusion_lat": 0.0, "name": "00992116223abdf2cb28474ad94d9fd5", "is_disabled": 0, "rental_uris": {"android": "https://dc.lft.to/lastmile_qr_scan", "ios": "https://dc.lft.to/lastmile_qr_scan"}, "fusion_lon": 0.0, "lat": 38.876406333333335, "bike_id": "00992116223abdf2cb28474ad94d9fd5", "type": "electric_scooter", "is_reserved": 0, "lon": -77.008207}, {"fusion_lat": 0.0, "name": "d07fc55bb77be4412926b2f461f8dd8f", "is_disabled": 0, "rental_uris": {"android": "https://dc.lft.to/lastmile_qr_scan", "ios": "https://dc.lft.to/lastmile_qr_scan"}, "fusion_lon": 0.0, "lat": 38.876588166666664, "bike_id": "d07fc55bb77be4412926b2f461f8dd8f", "type": "electric_scooter", "is_reserved": 0, "lon": -77.007397}, {"fusion_lat": 0.0, "name": "5c9a345f57d10a1397f1069ed989e904", "is_disabled": 0, "rental_uris": {"android": "https://dc.lft.to/lastmile_qr_scan", "ios": "https://dc.lft.to/lastmile_qr_scan"}, "fusion_lon": 0.0, "lat": 38.87468466666667, "bike_id": "5c9a345f57d10a1397f1069ed989e904", "type": "electric_scooter", "is_reserved": 0, "lon": -77.00557483333333}, {"fusion_lat": 0.0, "name": "8d330472e18069f569d5fdd3b6a34548", "is_disabled": 0, "rental_uris": {"android": "https://dc.lft.to/lastmile_qr_scan", "ios": "https://dc.lft.to/lastmile_qr_scan"}, "fusion_lon": 0.0, "lat": 38.933797166666665, "bike_id": "8d330472e18069f569d5fdd3b6a34548", "type": "electric_scooter", "is_reserved": 0, "lon": -77.03873133333333}, {"fusion_lat": 0.0, "name": "3ea402e7fbe303417b23918159af1292", "is_disabled": 0, "rental_uris": {"android": "https://dc.lft.to/lastmile_qr_scan", "ios": "https://dc.lft.to/lastmile_qr_scan"}, "fusion_lon": 0.0, "lat": 38.9263045, "bike_id": "3ea402e7fbe303417b23918159af1292", "type": "electric_scooter", "is_reserved": 0, "lon": -77.03494483333333}, {"fusion_lat": 0.0, "name": "b7e326423da6c6a58cc891b984cd9fd7", "is_disabled": 0, "rental_uris": {"android": "https://dc.lft.to/lastmile_qr_scan", "ios": "https://dc.lft.to/lastmile_qr_scan"}, "fusion_lon": 0.0, "lat": 38.935984166666664, "bike_id": "b7e326423da6c6a58cc891b984cd9fd7", "type": "electric_scooter", "is_reserved": 0, "lon": -77.03650533333334}, {"fusion_lat": 0.0, "name": "468ab945662d5dbb6146cc6e1bbbdeca", "is_disabled": 0, "rental_uris": {"android": "https://dc.lft.to/lastmile_qr_scan", "ios": "https://dc.lft.to/lastmile_qr_scan"}, "fusion_lon": 0.0, "lat": 38.9246, "bike_id": "468ab945662d5dbb6146cc6e1bbbdeca", "type": "electric_scooter", "is_reserved": 0, "lon": -76.99906216666666}, {"fusion_lat": 0.0, "name": "17fce5c11501292af2569f3414c8e262", "is_disabled": 0, "rental_uris": {"android": "https://dc.lft.to/lastmile_qr_scan", "ios": "https://dc.lft.to/lastmile_qr_scan"}, "fusion_lon": 0.0, "lat": 38.91290083333333, "bike_id": "17fce5c11501292af2569f3414c8e262", "type": "electric_scooter", "is_reserved": 0, "lon": -77.04509783333333}, {"fusion_lat": 0.0, "name": "edccd964ec4d476c7bf48b2d10b5edf2", "is_disabled": 0, "rental_uris": {"android": "https://dc.lft.to/lastmile_qr_scan", "ios": "https://dc.lft.to/lastmile_qr_scan"}, "fusion_lon": 0.0, "lat": 38.908441333333336, "bike_id": "edccd964ec4d476c7bf48b2d10b5edf2", "type": "electric_scooter", "is_reserved": 0, "lon": -77.03627916666667}, {"fusion_lat": 0.0, "name": "5c8d32adb9e2829761df677069047427", "is_disabled": 0, "rental_uris": {"android": "https://dc.lft.to/lastmile_qr_scan", "ios": "https://dc.lft.to/lastmile_qr_scan"}, "fusion_lon": 0.0, "lat": 38.96593416666666, "bike_id": "5c8d32adb9e2829761df677069047427", "type": "electric_scooter", "is_reserved": 0, "lon": -77.01594616666667}, {"fusion_lat": 0.0, "name": "88987b61ea517b9df9f19ed7df00860a", "is_disabled": 0, "rental_uris": {"android": "https://dc.lft.to/lastmile_qr_scan", "ios": "https://dc.lft.to/lastmile_qr_scan"}, "fusion_lon": 0.0, "lat": 38.89224266666667, "bike_id": "88987b61ea517b9df9f19ed7df00860a", "type": "electric_scooter", "is_reserved": 0, "lon": -77.022181}, {"fusion_lat": 0.0, "name": "576c739e0aef8cefd91cd163a662a0f9", "is_disabled": 0, "rental_uris": {"android": "https://dc.lft.to/lastmile_qr_scan", "ios": "https://dc.lft.to/lastmile_qr_scan"}, "fusion_lon": 0.0, "lat": 38.899726333333334, "bike_id": "576c739e0aef8cefd91cd163a662a0f9", "type": "electric_scooter", "is_reserved": 0, "lon": -77.05470183333334}, {"fusion_lat": 0.0, "name": "16cfe04277ff912443d9bc67b16afb55", "is_disabled": 0, "rental_uris": {"android": "https://dc.lft.to/lastmile_qr_scan", "ios": "https://dc.lft.to/lastmile_qr_scan"}, "fusion_lon": 0.0, "lat": 38.92680216666667, "bike_id": "16cfe04277ff912443d9bc67b16afb55", "type": "electric_scooter", "is_reserved": 0, "lon": -77.03143633333333}, {"fusion_lat": 0.0, "name": "70677e2a95832cdaf7c99ffab22dd8e8", "is_disabled": 0, "rental_uris": {"android": "https://dc.lft.to/lastmile_qr_scan", "ios": "https://dc.lft.to/lastmile_qr_scan"}, "fusion_lon": 0.0, "lat": 38.90962916666667, "bike_id": "70677e2a95832cdaf7c99ffab22dd8e8", "type": "electric_scooter", "is_reserved": 0, "lon": -77.02282433333333}, {"fusion_lat": 0.0, "name": "c1f2f9d4d47eb91705ea7f7526de872e", "is_disabled": 0, "rental_uris": {"android": "https://dc.lft.to/lastmile_qr_scan", "ios": "https://dc.lft.to/lastmile_qr_scan"}, "fusion_lon": 0.0, "lat": 38.90138666666667, "bike_id": "c1f2f9d4d47eb91705ea7f7526de872e", "type": "electric_scooter", "is_reserved": 0, "lon": -76.9912095}, {"fusion_lat": 0.0, "name": "61e132ee7a11107536924b362781476a", "is_disabled": 0, "rental_uris": {"android": "https://dc.lft.to/lastmile_qr_scan", "ios": "https://dc.lft.to/lastmile_qr_scan"}, "fusion_lon": 0.0, "lat": 38.91978866666667, "bike_id": "61e132ee7a11107536924b362781476a", "type": "electric_scooter", "is_reserved": 0, "lon": -77.04085816666667}, {"fusion_lat": 0.0, "name": "f146f0565771df1119b49d3b35fab7c3", "is_disabled": 0, "rental_uris": {"android": "https://dc.lft.to/lastmile_qr_scan", "ios": "https://dc.lft.to/lastmile_qr_scan"}, "fusion_lon": 0.0, "lat": 38.87821616666667, "bike_id": "f146f0565771df1119b49d3b35fab7c3", "type": "electric_scooter", "is_reserved": 0, "lon": -77.0153205}, {"fusion_lat": 0.0, "name": "1f8cbffe29a3a1857fdf616f2030055b", "is_disabled": 0, "rental_uris": {"android": "https://dc.lft.to/lastmile_qr_scan", "ios": "https://dc.lft.to/lastmile_qr_scan"}, "fusion_lon": 0.0, "lat": 38.91345783333333, "bike_id": "1f8cbffe29a3a1857fdf616f2030055b", "type": "electric_bike", "is_reserved": 0, "lon": -76.98895333333333},