{"data": {"bikes": [{"is_reserved": 0, "fusion_lon": 0.0, "fusion_lat": 0.0, "name": "253bb5ea76f14e16e602f6cd5cc78d51", "type": "electric_bike", "is_disabled": 0, "lat": 38.957354333333335, "rental_uris": {"android": "https://dc.lft.to/lastmile_qr_scan", "ios": "https://dc.lft.to/lastmile_qr_scan"}, "bike_id": "253bb5ea76f14e16e602f6cd5cc78d51", "lon": -77.02422616666666}, {"is_reserved": 0, "fusion_lon": 0.0, "fusion_lat": 0.0, "name": "9511c419495b2c3f8d5294ca400274f9", "type": "electric_scooter", "is_disabled": 0, "lat": 38.88613216666667, "rental_uris": {"android": "https://dc.lft.to/lastmile_qr_scan", "ios": "https://dc.lft.to/lastmile_qr_scan"}, "bike_id": "9511c419495b2c3f8d5294ca400274f9", "lon": -77.00137933333333}, {"is_reserved": 0, "fusion_lon": 0.0, "fusion_lat": 0.0, "name": "4468da5008cc27e03db6367723a788ed", "type": "electric_bike", "is_disabled": 0, "lat": 38.85937033333333, "rental_uris": {"android": "https://dc.lft.to/lastmile_qr_scan", "ios": "https://dc.lft.to/lastmile_qr_scan"}, "bike_id": "4468da5008cc27e03db6367723a788ed", "lon": -77.11829433333334}, {"is_reserved": 0, "fusion_lon": 0.0, "fusion_lat": 0.0, "name": "0afe9b7430cf085c2f76491d217c6b78", "type": "electric_scooter", "is_disabled": 0, "lat": 38.86467483333333, "rental_uris": {"android": "https://dc.lft.to/lastmile_qr_scan", "ios": "https://dc.lft.to/lastmile_qr_scan"}, "bike_id": "0afe9b7430cf085c2f76491d217c6b78", "lon": -76.9823765}, {"is_reserved": 0, "fusion_lon": 0.0, "fusion_lat": 0.0, "name": "e777df7d2f109571d812632d61fc27f1", "type": "electric_scooter", "is_disabled": 0, "lat": 38.939983, "rental_uris": {"android": "https://dc.lft.to/lastmile_qr_scan", "ios": "https://dc.lft.to/lastmile_qr_scan"}, "bike_id": "e777df7d2f109571d812632d61fc27f1", "lon": -77.017457}, {"is_reserved": 0, "fusion_lon": 0.0, "fusion_lat": 0.0, "name": "998bfbe5ba27c66319ae325d2058dbdf", "type": "electric_bike", "is_disabled": 0, "lat": 38.87420783333334, "rental_uris": {"android": "https://dc.lft.to/lastmile_qr_scan", "ios": "https://dc.lft.to/lastmile_qr_scan"}, "bike_id": "998bfbe5ba27c66319ae325d2058dbdf", "lon": -76.97165216666667}, {"is_reserved": 0, "fusion_lon": 0.0, "fusion_lat": 0.0, "name": "b1d38bc3f7408c1e7912cf857c7e0d07", "type": "electric_scooter", "is_disabled": 0, "lat": 38.90834516666666, "rental_uris": {"android": "https://dc.lft.to/lastmile_qr_scan", "ios": "https://dc.lft.to/lastmile_qr_scan"}, "bike_id": "b1d38bc3f7408c1e7912cf857c7e0d07", "lon": -77.03854616666666}, {"is_reserved": 0, "fusion_lon": 0.0, "fusion_lat": 0.0, "name": "5940e6f0b07bb4350547a4246c6eed61", "type": "electric_bike", "is_disabled": 0, "lat": 38.8237015, "rental_uris": {"android": "https://dc.lft.to/lastmile_qr_scan", "ios": "https://dc.lft.to/lastmile_qr_scan"}, "bike_id": "5940e6f0b07bb4350547a4246c6eed61", "lon": -77.00219916666667}, {"is_reserved": 0, "fusion_lon": 0.0, "fusion_lat": 0.0, "name": "2e30aedc8b8baa46b01bd0c224846113", "type": "electric_scooter", "is_disabled": 0, "lat": 38.913664, "rental_uris": {"android": "https://dc.lft.to/lastmile_qr_scan", "ios": "https://dc.lft.to/lastmile_qr_scan"}, "bike_id": "2e30aedc8b8baa46b01bd0c224846113", "lon": -77.04554716666667}, {"is_reserved": 0, "fusion_lon": 0.0, "fusion_lat": 0.0, "name": "6f5a182b77e5ca3bd3458911dc8ef396", "type": "electric_scooter", "is_disabled": 0, "lat": 38.956159, "rental_uris": {"android": "https://dc.lft.to/lastmile_qr_scan", "ios": "https://dc.lft.to/lastmile_qr_scan"}, "bike_id": "6f5a182b77e5ca3bd3458911dc8ef396", "lon": -77.02782633333334}, {"is_reserved": 0, "fusion_lon": 0.0, "fusion_lat": 0.0, "name": "2bc2e122da379be8a5b4b7bea3b1f05c", "type": "electric_bike", "is_disabled": 0, "lat": 38.89822266666667, "rental_uris": {"android": "https://dc.lft.to/lastmile_qr_scan", "ios": "https://dc.lft.to/lastmile_qr_scan"}, "bike_id": "2bc2e122da379be8a5b4b7bea3b1f05c", "lon": -77.00597183333333}, {"is_reserved": 0, "fusion_lon": 0.0, "fusion_lat": 0.0, "name": "c3d8a518fb1c879c315d83e5c2c3dfd4", "type": "electric_scooter", "is_disabled": 0, "lat": 38.8922235, "rental_uris": {"android": "https://dc.lft.to/lastmile_qr_scan", "ios": "https://dc.lft.to/lastmile_qr_scan"}, "bike_id": "c3d8a518fb1c879c315d83e5c2c3dfd4", "lon": -77.04505983333334}, {"is_reserved": 0, "fusion_lon": 0.0, "fusion_lat": 0.0, "name": "472874b831c6a9ee25ee29bd256e8047", "type": "electric_scooter", "is_disabled": 0, "lat": 38.9227545, "rental_uris": {"android": "https://dc.lft.to/lastmile_qr_scan", "ios": "https://dc.lft.to/lastmile_qr_scan"}, "bike_id": "472874b831c6a9ee25ee29bd256e8047", "lon": -77.03222766666667}, {"is_reserved": 0, "fusion_lon": 0.0, "fusion_lat": 0.0, "name": "b29c3eb35f63bd80008737b8eb705dff", "type": "electric_scooter", "is_disabled": 0, "lat": 38.878792833333335, "rental_uris": {"android": "https://dc.lft.to/lastmile_qr_scan", "ios": "https://dc.lft.to/lastmile_qr_scan"}, "bike_id": "b29c3eb35f63bd80008737b8eb705dff", "lon": -77.02321033333334}, {"is_reserved": 0, "fusion_lon": 0.0, "fusion_lat": 0.0, "name": "1e36deb76e2ed304e66f8b920bb03934", "type": "electric_scooter", "is_disabled": 0, "lat": 38.952319333333335, "rental_uris": {"android": "https://dc.lft.to/lastmile_qr_scan", "ios": "https://dc.lft.to/lastmile_qr_scan"}, "bike_id": "1e36deb76e2ed304e66f8b920bb03934", "lon": -77.01429083333333}, {"is_reserved": 0, "fusion_lon": 0.0, "fusion_lat": 0.0, "name": "00193fd2b76d8cda3070eae7c6210229", "type": "electric_scooter", "is_disabled": 0, "lat": 38.907308666666665, "rental_uris": {"android": "https://dc.lft.to/lastmile_qr_scan", "ios": "https://dc.lft.to/lastmile_qr_scan"}, "bike_id": "00193fd2b76d8cda3070eae7c6210229", "lon": -77.0383565}, {"is_reserved": 0, "fusion_lon": 0.0, "fusion_lat": 0.0, "name": "ade2a8234c69c4b0da25707ed5d2505a", "type": "electric_scooter", "is_disabled": 0, "lat": 38.88703266666667, "rental_uris": {"android": "https://dc.lft.to/lastmile_qr_scan", "ios": "https://dc.lft.to/lastmile_qr_scan"}, "bike_id": "ade2a8234c69c4b0da25707ed5d2505a", "lon": -77.02186666666667}, {"is_reserved": 0, "fusion_lon": 0.0, "fusion_lat": 0.0, "name": "52f21af262dd1fed584aba5fac4cc28e", "type": "electric_scooter", "is_disabled": 0, "lat": 38.919347, "rental_uris": {"android": "https://dc.lft.to/lastmile_qr_scan", "ios": "https://dc.lft.to/lastmile_qr_scan"}, "bike_id": "52f21af262dd1fed584aba5fac4cc28e", "lon": -77.070651}, {"is_reserved": 0, "fusion_lon": 0.0, "fusion_lat": 0.0, "name": "7b38a53e55e8c596ac2bf1296a708800", "type": "electric_scooter", "is_disabled": 0, "lat": 38.89495016666667, "rental_uris": {"android": "https://dc.lft.to/lastmile_qr_scan", "ios": "https://dc.lft.to/lastmile_qr_scan"}, "bike_id": "7b38a53e55e8c596ac2bf1296a708800", "lon": -77.00206866666667}, {"is_reserved": 0, "fusion_lon": 0.0, "fusion_lat": 0.0, "name": "05b4fe9d0ddedf13bf6c15ab58ee0235", "type": "electric_scooter", "is_disabled": 0, "lat": 38.90865733333333, "rental_uris": {"android": "https://dc.lft.to/lastmile_qr_scan", "ios": "https://dc.lft.to/lastmile_qr_scan"}, "bike_id": "05b4fe9d0ddedf13bf6c15ab58ee0235", "lon": -77.00074266666667}, {"is_reserved": 0, "fusion_lon": 0.0, "fusion_lat": 0.0, "name": "e8de01deab59ff1f900a985ac9512caa", "type": "electric_scooter", "is_disabled": 0, "lat": 38.9247305, "rental_uris": {"android": "https://dc.lft.to/lastmile_qr_scan", "ios": "https://dc.lft.to/lastmile_qr_scan"}, "bike_id": "e8de01deab59ff1f900a985ac9512caa", "lon": -77.03496766666666}, {"is_reserved": 0, "fusion_lon": 0.0, "fusion_lat": 0.0, "name": "1891edbb57198bb97424b29923e539c9", "type": "electric_scooter", "is_disabled": 0, "lat": 38.93029933333333, "rental_uris": {"android": "https://dc.lft.to/lastmile_qr_scan", "ios": "https://dc.lft.to/lastmile_qr_scan"}, "bike_id": "1891edbb57198bb97424b29923e539c9", "lon": -77.012981}, {"is_reserved": 0, "fusion_lon": 0.0, "fusion_lat": 0.0, "name": "b7921f494f101e0318dd91f6c81b34a3", "type": "electric_scooter", "is_disabled": 0, "lat": 38.91811833333333, "rental_uris": {"android": "https://dc.lft.to/lastmile_qr_scan", "ios": "https://dc.lft.to/lastmile_qr_scan"}, "bike_id": "b7921f494f101e0318dd91f6c81b34a3", "lon": -77.03575716666667}, {"is_reserved": 0, "fusion_lon": 0.0, "fusion_lat": 0.0, "name": "04d2f537101016706d6e755713f437c3", "type": "electric_scooter", "is_disabled": 0, "lat": 38.90028733333333, "rental_uris": {"android": "https://dc.lft.to/lastmile_qr_scan", "ios": "https://dc.lft.to/lastmile_qr_scan"}, "bike_id": "04d2f537101016706d6e755713f437c3", "lon": -77.01185633333333}, {"is_reserved": 0, "fusion_lon": 0.0, "fusion_lat": 0.0, "name": "5114cd826e1f94ae4ef1d4124a35b168", "type": "electric_scooter", "is_disabled": 0, "lat": 38.907191833333336, "rental_uris": {"android": "https://dc.lft.to/lastmile_qr_scan", "ios": "https://dc.lft.to/lastmile_qr_scan"}, "bike_id": "5114cd826e1f94ae4ef1d4124a35b168", "lon": -77.01749416666667}, {"is_reserved": 0, "fusion_lon": 0.0, "fusion_lat": 0.0, "name": "c54d40caa5bb90e46dfcc876d43bf968", "type": "electric_scooter", "is_disabled": 0, "lat": 38.90033783333333, "rental_uris": {"android": "https://dc.lft.to/lastmile_qr_scan", "ios": "https://dc.lft.to/lastmile_qr_scan"}, "bike_id": "c54d40caa5bb90e46dfcc876d43bf968", "lon": -77.01768166666666}, {"is_reserved": 0, "fusion_lon": 0.0, "fusion_lat": 0.0, "name": "6059ab0d7c847236c959a185385a8764", "type": "electric_scooter", "is_disabled": 0, "lat": 38.9111865, "rental_uris": {"android": "https://dc.lft.to/lastmile_qr_scan", "ios": "https://dc.lft.to/lastmile_qr_scan"}, "bike_id": "6059ab0d7c847236c959a185385a8764", "lon": -77.02385733333334}, {"is_reserved": 0, "fusion_lon": 0.0, "fusion_lat": 0.0, "name": "d99851ac8f41624f3ab769df69535860", "type": "electric_bike", "is_disabled": 0, "lat": 38.865112333333336, "rental_uris": {"android": "https://dc.lft.to/lastmile_qr_scan", "ios": "https://dc.lft.to/lastmile_qr_scan"}, "bike_id": "d99851ac8f41624f3ab769df69535860", "lon": -76.97329366666666}, {"is_reserved": 0, "fusion_lon": 0.0, "fusion_lat": 0.0, "name": "d5c78777b1c07277a9b2f4e86f0e67c0", "type": "electric_scooter", "is_disabled": 0, "lat": 38.9209955, "rental_uris": {"android": "https://dc.lft.to/lastmile_qr_scan", "ios": "https://dc.lft.to/lastmile_qr_scan"}, "bike_id": "d5c78777b1c07277a9b2f4e86f0e67c0", "lon": -77.03173866666667}, {"is_reserved": 0, "fusion_lon": 0.0, "fusion_lat": 0.0, "name": "e67209b593ce5018e3b33a3ca41b53a4", "type": "electric_scooter", "is_disabled": 0, "lat": 38.863884, "rental_uris": {"android": "https://dc.lft.to/lastmile_qr_scan", "ios": "https://dc.lft.to/lastmile_qr_scan"}, "bike_id": "e67209b593ce5018e3b33a3ca41b53a4", "lon": -76.98912033333333}, {"is_reserved": 0, "fusion_lon": 0.0, "fusion_lat": 0.0, "name": "18dfbad25322a0c7f6da98708e5e0bfc", "type": "electric_scooter", "is_disabled": 0, "lat": 38.93533933333333, "rental_uris": {"android": "https://dc.lft.to/lastmile_qr_scan", "ios": "https://dc.lft.to/lastmile_qr_scan"}, "bike_id": "18dfbad25322a0c7f6da98708e5e0bfc", "lon": -77.0235345}, {"is_reserved": 0, "fusion_lon": 0.0, "fusion_lat": 0.0, "name": "0ec0eb48106ac3442fd0ccb96804dece", "type": "electric_scooter", "is_disabled": 0, "lat": 38.938606, "rental_uris": {"android": "https://dc.lft.to/lastmile_qr_scan", "ios": "https://dc.lft.to/lastmile_qr_scan"}, "bike_id": "0ec0eb48106ac3442fd0ccb96804dece", "lon": -77.02650433333334}, {"is_reserved": 0, "fusion_lon": 0.0, "fusion_lat": 0.0, "name": "d7307bced47394cccfaf30bd66de30a8", "type": "electric_scooter", "is_disabled": 0, "lat": 38.887453666666666, "rental_uris": {"android": "https://dc.lft.to/lastmile_qr_scan", "ios": "https://dc.lft.to/lastmile_qr_scan"}, "bike_id": "d7307bced47394cccfaf30bd66de30a8", "lon": -77.02732666666667}, {"is_reserved": 0, "fusion_lon": 0.0, "fusion_lat": 0.0, "name": "eaa5e8bde15fb5e3dc026a219c2bf186", "type": "electric_scooter", "is_disabled": 0, "lat": 38.90983633333333, "rental_uris": {"android": "https://dc.lft.to/lastmile_qr_scan", "ios": "https://dc.lft.to/lastmile_qr_scan"}, "bike_id": "eaa5e8bde15fb5e3dc026a219c2bf186", "lon": -77.042549}, {"is_reserved": 0, "fusion_lon": 0.0, "fusion_lat": 0.0, "name": "89222fd50d9e307c865309c5b6321807", "type": "electric_scooter", "is_disabled": 0, "lat": 38.9167465, "rental_uris": {"android": "https://dc.lft.to/lastmile_qr_scan", "ios": "https://dc.lft.to/lastmile_qr_scan"}, "bike_id": "89222fd50d9e307c865309c5b6321807", "lon": -77.02971316666667}, {"is_reserved": 0, "fusion_lon": 0.0, "fusion_lat": 0.0, "name": "3f3a7d9fc384a5e6768c5eb01b1c1f68", "type": "electric_scooter", "is_disabled": 0, "lat": 38.94203983333333, "rental_uris": {"android": "https://dc.lft.to/lastmile_qr_scan", "ios": "https://dc.lft.to/lastmile_qr_scan"}, "bike_id": "3f3a7d9fc384a5e6768c5eb01b1c1f68", "lon": -77.02501333333333}, {"is_reserved": 0, "fusion_lon": 0.0, "fusion_lat": 0.0, "name": "48035b362cc35a1032c37fc95ceb66d3", "type": "electric_scooter", "is_disabled": 0, "lat": 38.92661316666667, "rental_uris": {"android": "https://dc.lft.to/lastmile_qr_scan", "ios": "https://dc.lft.to/lastmile_qr_scan"}, "bike_id": "48035b362cc35a1032c37fc95ceb66d3", "lon": -76.995405}, {"is_reserved": 0, "fusion_lon": 0.0, "fusion_lat": 0.0, "name": "e460b9101f3e5219824f874effda4bf6", "type": "electric_scooter", "is_disabled": 0, "lat": 38.90970383333333, "rental_uris": {"android": "https://dc.lft.to/lastmile_qr_scan", "ios": "https://dc.lft.to/lastmile_qr_scan"}, "bike_id": "e460b9101f3e5219824f874effda4bf6", "lon": -77.040152}, {"is_reserved": 0, "fusion_lon": 0.0, "fusion_lat": 0.0, "name": "0a0dce2853228b5be3532c70905f169c", "type": "electric_bike", "is_disabled": 0, "lat": 38.86581783333333, "rental_uris": {"android": "https://dc.lft.to/lastmile_qr_scan", "ios": "https://dc.lft.to/lastmile_qr_scan"}, "bike_id": "0a0dce2853228b5be3532c70905f169c", "lon": -77.04760116666667}, {"is_reserved": 0, "fusion_lon": 0.0, "fusion_lat": 0.0, "name": "adabe7d796bc73055376f27506b98ad0", "type": "electric_scooter", "is_disabled": 0, "lat": 38.912519333333336, "rental_uris": {"android": "https://dc.lft.to/lastmile_qr_scan", "ios": "https://dc.lft.to/lastmile_qr_scan"}, "bike_id": "adabe7d796bc73055376f27506b98ad0", "lon": -77.0312355}, {"is_reserved": 0, "fusion_lon": 0.0, "fusion_lat": 0.0, "name": "241bb432026d93c869ec95c6befffe9b", "type": "electric_scooter", "is_disabled": 0, "lat": 38.9176575, "rental_uris": {"android": "https://dc.lft.to/lastmile_qr_scan", "ios": "https://dc.lft.to/lastmile_qr_scan"}, "bike_id": "241bb432026d93c869ec95c6befffe9b", "lon": -77.0476375}, {"is_reserved": 0, "fusion_lon": 0.0, "fusion_lat": 0.0, "name": "2be36db1dac2e8d59e9df366b0275fb4", "type": "electric_scooter", "is_disabled": 0, "lat": 38.900362, "rental_uris": {"android": "https://dc.lft.to/lastmile_qr_scan", "ios": "https://dc.lft.to/lastmile_qr_scan"}, "bike_id": "2be36db1dac2e8d59e9df366b0275fb4", "lon": -77.01171566666666}, {"is_reserved": 0, "fusion_lon": 0.0, "fusion_lat": 0.0, "name": "92ac09662f13cb5f3392281aee2655f2", "type": "electric_scooter", "is_disabled": 0, "lat": 38.91698233333334, "rental_uris": {"android": "https://dc.lft.to/lastmile_qr_scan", "ios": "https://dc.lft.to/lastmile_qr_scan"}, "bike_id": "92ac09662f13cb5f3392281aee2655f2", "lon": -77.031267}, {"is_reserved": 0, "fusion_lon": 0.0, "fusion_lat": 0.0, "name": "9ccd1bc86980361c3453154607a5b380", "type": "electric_scooter", "is_disabled": 0, "lat": 38.90885466666667, "rental_uris": {"android": "https://dc.lft.to/lastmile_qr_scan", "ios": "https://dc.lft.to/lastmile_qr_scan"}, "bike_id": "9ccd1bc86980361c3453154607a5b380", "lon": -76.985403}, {"is_reserved": 0, "fusion_lon": 0.0, "fusion_lat": 0.0, "name": "fd30917f1f1e5ca2ea2a89e103ac1b9c", "type": "electric_scooter", "is_disabled": 0, "lat": 38.9154995, "rental_uris": {"android": "https://dc.lft.to/lastmile_qr_scan", "ios": "https://dc.lft.to/lastmile_qr_scan"}, "bike_id": "fd30917f1f1e5ca2ea2a89e103ac1b9c", "lon": -77.02208983333334}, {"is_reserved": 0, "fusion_lon": 0.0, "fusion_lat": 0.0, "name": "adc3cc2a102a72fe12c80de72772d93a", "type": "electric_scooter", "is_disabled": 0, "lat": 38.900300333333334, "rental_uris": {"android": "https://dc.lft.to/lastmile_qr_scan", "ios": "https://dc.lft.to/lastmile_qr_scan"}, "bike_id": "adc3cc2a102a72fe12c80de72772d93a", "lon": -76.99599533333334}, {"is_reserved": 0, "fusion_lon": 0.0, "fusion_lat": 0.0, "name": "2bae3f3346b8231832fe029c166a8c54", "type": "electric_scooter", "is_disabled": 0, "lat": 38.8631985, "rental_uris": {"android": "https://dc.lft.to/lastmile_qr_scan", "ios": "https://dc.lft.to/lastmile_qr_scan"}, "bike_id": "2bae3f3346b8231832fe029c166a8c54", "lon": -76.98686866666667}, {"is_reserved": 0, "fusion_lon": 0.0, "fusion_lat": 0.0, "name": "3b23b9fb4a1883b0dd1171b23fe76cd6", "type": "electric_scooter", "is_disabled": 0, "lat": 38.9265965, "rental_uris": {"android": "https://dc.lft.to/lastmile_qr_scan", "ios": "https://dc.lft.to/lastmile_qr_scan"}, "bike_id": "3b23b9fb4a1883b0dd1171b23fe76cd6", "lon": -77.02275983333334}, {"is_reserved": 0, "fusion_lon": 0.0, "fusion_lat": 0.0, "name": "cafe94d1b432f2a36243710adf3b32a5", "type": "electric_scooter", "is_disabled": 0, "lat": 38.88689433333333, "rental_uris": {"android": "https://dc.lft.to/lastmile_qr_scan", "ios": "https://dc.lft.to/lastmile_qr_scan"}, "bike_id": "cafe94d1b432f2a36243710adf3b32a5", "lon": -76.95472866666667}, {"is_reserved": 0, "fusion_lon": 0.0, "fusion_lat": 0.0, "name": "a72b776deff321380fa014ae3bac3387", "type": "electric_scooter", "is_disabled": 0, "lat": 38.887417166666665, "rental_uris": {"android": "https://dc.lft.to/lastmile_qr_scan", "ios": "https://dc.lft.to/lastmile_qr_scan"}, "bike_id": "a72b776deff321380fa014ae3bac3387", "lon": -77.02733533333334}, {"is_reserved": 0, "fusion_lon": 0.0, "fusion_lat": 0.0, "name": "415889e4dcb28e55480265219ce6cb91", "type": "electric_scooter", "is_disabled": 0, "lat": 38.907241, "rental_uris": {"android": "https://dc.lft.to/lastmile_qr_scan", "ios": "https://dc.lft.to/lastmile_qr_scan"}, "bike_id": "415889e4dcb28e55480265219ce6cb91", "lon": -77.050016}, {"is_reserved": 0, "fusion_lon": 0.0, "fusion_lat": 0.0, "name": "552d36dedcf5fef27cb5e3d9bb2c7e4f", "type": "electric_scooter", "is_disabled": 0, "lat": 38.8924885, "rental_uris": {"android": "https://dc.lft.to/lastmile_qr_scan", "ios": "https://dc.lft.to/lastmile_qr_scan"}, "bike_id": "552d36dedcf5fef27cb5e3d9bb2c7e4f", "lon": -77.03143416666667}, {"is_reserved": 0, "fusion_lon": 0.0, "fusion_lat": 0.0, "name": "b61dd4621b0fa5762ee273b5d40c13c8", "type": "electric_scooter", "is_disabled": 0, "lat": 38.86256433333333, "rental_uris": {"android": "https://dc.lft.to/lastmile_qr_scan", "ios": "https://dc.lft.to/lastmile_qr_scan"}, "bike_id": "b61dd4621b0fa5762ee273b5d40c13c8", "lon": -76.99515916666667}, {"is_reserved": 0, "fusion_lon": 0.0, "fusion_lat": 0.0, "name": "da4013818930be54f4f650342c5a8060", "type": "electric_scooter", "is_disabled": 0, "lat": 38.927498666666665, "rental_uris": {"android": "https://dc.lft.to/lastmile_qr_scan", "ios": "https://dc.lft.to/lastmile_qr_scan"}, "bike_id": "da4013818930be54f4f650342c5a8060", "lon": -77.0214825}, {"is_reserved": 0, "fusion_lon": 0.0, "fusion_lat": 0.0, "name": "c9c4cb1e3ad33a1ce34b2bfa87f0d3a3", "type": "electric_scooter", "is_disabled": 0, "lat": 38.921235833333334, "rental_uris": {"android": "https://dc.lft.to/lastmile_qr_scan", "ios": "https://dc.lft.to/lastmile_qr_scan"}, "bike_id": "c9c4cb1e3ad33a1ce34b2bfa87f0d3a3", "lon": -77.04376333333333}, {"is_reserved": 0, "fusion_lon": 0.0, "fusion_lat": 0.0, "name": "f301d73188b6fd42badd36952999f091", "type": "electric_scooter", "is_disabled": 0, "lat": 38.92046233333333, "rental_uris": {"android": "https://dc.lft.to/lastmile_qr_scan", "ios": "https://dc.lft.to/lastmile_qr_scan"}, "bike_id": "f301d73188b6fd42badd36952999f091", "lon": -76.98945566666667}, {"is_reserved": 0, "fusion_lon": 0.0, "fusion_lat": 0.0, "name": "7deab2c4b83110c91d5e883e8e898cca", "type": "electric_bike", "is_disabled": 0, "lat": 38.829486333333335, "rental_uris": {"android": "https://dc.lft.to/lastmile_qr_scan", "ios": "https://dc.lft.to/lastmile_qr_scan"}, "bike_id": "7deab2c4b83110c91d5e883e8e898cca", "lon": -77.12363433333333}, {"is_reserved": 0, "fusion_lon": 0.0, "fusion_lat": 0.0, "name": "c7eeb83196cdb9bb91c50848de0cd5fb", "type": "electric_scooter", "is_disabled": 0, "lat": 38.926483, "rental_uris": {"android": "https://dc.lft.to/lastmile_qr_scan", "ios": "https://dc.lft.to/lastmile_qr_scan"}, "bike_id": "c7eeb83196cdb9bb91c50848de0cd5fb", "lon": -77.02501116666667}, {"is_reserved": 0, "fusion_lon": 0.0, "fusion_lat": 0.0, "name": "6f4c5d41640dcfc335e6ab6cf656da2d", "type": "electric_scooter", "is_disabled": 0, "lat": 38.916827166666664, "rental_uris": {"android": "https://dc.lft.to/lastmile_qr_scan", "ios": "https://dc.lft.to/lastmile_qr_scan"}, "bike_id": "6f4c5d41640dcfc335e6ab6cf656da2d", "lon": -77.0322185}, {"is_reserved": 0, "fusion_lon": 0.0, "fusion_lat": 0.0, "name": "76fc3aebe6ce014d4d825bc108c23016", "type": "electric_scooter", "is_disabled": 0, "lat": 38.880419333333336, "rental_uris": {"android": "https://dc.lft.to/lastmile_qr_scan", "ios": "https://dc.lft.to/lastmile_qr_scan"}, "bike_id": "76fc3aebe6ce014d4d825bc108c23016", "lon": -76.986352}, {"is_reserved": 0, "fusion_lon": 0.0, "fusion_lat": 0.0, "name": "64a0e75aef4108a3a19a772ab5ae40b5", "type": "electric_scooter", "is_disabled": 0, "lat": 38.909774666666664, "rental_uris": {"android": "https://dc.lft.to/lastmile_qr_scan", "ios": "https://dc.lft.to/lastmile_qr_scan"}, "bike_id": "64a0e75aef4108a3a19a772ab5ae40b5", "lon": -77.02690916666667}, {"is_reserved": 0, "fusion_lon": 0.0, "fusion_lat": 0.0, "name": "5fd724a7db6e35e0cb3a40b16caeaa86", "type": "electric_scooter", "is_disabled": 0, "lat": 38.92067383333333, "rental_uris": {"android": "https://dc.lft.to/lastmile_qr_scan", "ios": "https://dc.lft.to/lastmile_qr_scan"}, "bike_id": "5fd724a7db6e35e0cb3a40b16caeaa86", "lon": -77.04381533333333}, {"is_reserved": 0, "fusion_lon": 0.0, "fusion_lat": 0.0, "name": "71c12ed9644ad8d513d19b8a0de221b0", "type": "electric_scooter", "is_disabled": 0, "lat": 38.905795833333336, "rental_uris": {"android": "https://dc.lft.to/lastmile_qr_scan", "ios": "https://dc.lft.to/lastmile_qr_scan"}, "bike_id": "71c12ed9644ad8d513d19b8a0de221b0", "lon": -77.03448033333333}, {"is_reserved": 0, "fusion_lon": 0.0, "fusion_lat": 0.0, "name": "462154133b7148cdd326f6ac5af7ccf5", "type": "electric_scooter", "is_disabled": 0, "lat": 38.93598866666667, "rental_uris": {"android": "https://dc.lft.to/lastmile_qr_scan", "ios": "https://dc.lft.to/lastmile_qr_scan"}, "bike_id": "462154133b7148cdd326f6ac5af7ccf5", "lon": -77.03790266666667}, {"is_reserved": 0, "fusion_lon": 0.0, "fusion_lat": 0.0, "name": "221d708ec3cc5547ff2a2f8df201063c", "type": "electric_scooter", "is_disabled": 0, "lat": 38.93534, "rental_uris": {"android": "https://dc.lft.to/lastmile_qr_scan", "ios": "https://dc.lft.to/lastmile_qr_scan"}, "bike_id": "221d708ec3cc5547ff2a2f8df201063c", "lon": -77.02348066666667}, {"is_reserved": 0, "fusion_lon": 0.0, "fusion_lat": 0.0, "name": "e51467a43db87ad5179b68fbdb39af7f", "type": "electric_scooter", "is_disabled": 0, "lat": 38.926709333333335, "rental_uris": {"android": "https://dc.lft.to/lastmile_qr_scan", "ios": "https://dc.lft.to/lastmile_qr_scan"}, "bike_id": "e51467a43db87ad5179b68fbdb39af7f", "lon": -77.01525316666667}, {"is_reserved": 0, "fusion_lon": 0.0, "fusion_lat": 0.0, "name": "0c39858ef9f50e8e54515e766ee36892", "type": "electric_scooter", "is_disabled": 0, "lat": 38.920956, "rental_uris": {"android": "https://dc.lft.to/lastmile_qr_scan", "ios": "https://dc.lft.to/lastmile_qr_scan"}, "bike_id": "0c39858ef9f50e8e54515e766ee36892", "lon": -77.021909}, {"is_reserved": 0, "fusion_lon": 0.0, "fusion_lat": 0.0, "name": "c2edab49025ef24d7e0c73842f495023", "type": "electric_scooter", "is_disabled": 0, "lat": 38.91825333333333, "rental_uris": {"android": "https://dc.lft.to/lastmile_qr_scan", "ios": "https://dc.lft.to/lastmile_qr_scan"}, "bike_id": "c2edab49025ef24d7e0c73842f495023", "lon": -77.0345305}, {"is_reserved": 0, "fusion_lon": 0.0, "fusion_lat": 0.0, "name": "545b368a92be9c3ec1f06d0342f7a860", "type": "electric_scooter", "is_disabled": 0, "lat": 38.9004235, "rental_uris": {"android": "https://dc.lft.to/lastmile_qr_scan", "ios": "https://dc.lft.to/lastmile_qr_scan"}, "bike_id": "545b368a92be9c3ec1f06d0342f7a860", "lon": -77.039447}, {"is_reserved": 0, "fusion_lon": 0.0, "fusion_lat": 0.0, "name": "9f510114b4ceca601b430bac65acbab8", "type": "electric_bike", "is_disabled": 0, "lat": 38.945651833333336, "rental_uris": {"android": "https://dc.lft.to/lastmile_qr_scan", "ios": "https://dc.lft.to/lastmile_qr_scan"}, "bike_id": "9f510114b4ceca601b430bac65acbab8", "lon": -76.96687116666666}, {"is_reserved": 0, "fusion_lon": 0.0, "fusion_lat": 0.0, "name": "a350f15e54f062259affb5be4049268e", "type": "electric_scooter", "is_disabled": 0, "lat": 38.9007565, "rental_uris": {"android": "https://dc.lft.to/lastmile_qr_scan", "ios": "https://dc.lft.to/lastmile_qr_scan"}, "bike_id": "a350f15e54f062259affb5be4049268e", "lon": -77.00208283333333}, {"is_reserved": 0, "fusion_lon": 0.0, "fusion_lat": 0.0, "name": "3af4b82f30d099c04f71c44fb4e3d125", "type": "electric_bike", "is_disabled": 0, "lat": 38.94759483333333, "rental_uris": {"android": "https://dc.lft.to/lastmile_qr_scan", "ios": "https://dc.lft.to/lastmile_qr_scan"}, "bike_id": "3af4b82f30d099c04f71c44fb4e3d125", "lon": -77.02374316666666}, {"is_reserved": 0, "fusion_lon": 0.0, "fusion_lat": 0.0, "name": "94ef0d7c999cac845d3a3c5d259cd250", "type": "electric_scooter", "is_disabled": 0, "lat": 38.91681783333333, "rental_uris": {"android": "https://dc.lft.to/lastmile_qr_scan", "ios": "https://dc.lft.to/lastmile_qr_scan"}, "bike_id": "94ef0d7c999cac845d3a3c5d259cd250", "lon": -77.02290716666667}, {"is_reserved": 0, "fusion_lon": 0.0, "fusion_lat": 0.0, "name": "193f23acf744a45eda07e4788b365d56", "type": "electric_scooter", "is_disabled": 0, "lat": 38.90721166666667, "rental_uris": {"android": "https://dc.lft.to/lastmile_qr_scan", "ios": "https://dc.lft.to/lastmile_qr_scan"}, "bike_id": "193f23acf744a45eda07e4788b365d56", "lon": -76.99812266666666}, {"is_reserved": 0, "fusion_lon": 0.0, "fusion_lat": 0.0, "name": "4afa09f0eb34255dbced90d517abb777", "type": "electric_scooter", "is_disabled": 0, "lat": 38.9110725, "rental_uris": {"android": "https://dc.lft.to/lastmile_qr_scan", "ios": "https://dc.lft.to/lastmile_qr_scan"}, "bike_id": "4afa09f0eb34255dbced90d517abb777", "lon": -77.024197}, {"is_reserved": 0, "fusion_lon": 0.0, "fusion_lat": 0.0, "name": "84e60d604b0fe278049ffe7e10c94cdd", "type": "electric_scooter", "is_disabled": 0, "lat": 38.8901625, "rental_uris": {"android": "https://dc.lft.to/lastmile_qr_scan", "ios": "https://dc.lft.to/lastmile_qr_scan"}, "bike_id": "84e60d604b0fe278049ffe7e10c94cdd", "lon": -76.93731233333334}, {"is_reserved": 0, "fusion_lon": 0.0, "fusion_lat": 0.0, "name": "d617341c52b2f16d6177d2dff748327c", "type": "electric_scooter", "is_disabled": 0, "lat": 38.9317085, "rental_uris": {"android": "https://dc.lft.to/lastmile_qr_scan", "ios": "https://dc.lft.to/lastmile_qr_scan"}, "bike_id": "d617341c52b2f16d6177d2dff748327c", "lon": -77.028149}, {"is_reserved": 0, "fusion_lon": 0.0, "fusion_lat": 0.0, "name": "6f91a4879ecb85568d0086d96ae45541", "type": "electric_scooter", "is_disabled": 0, "lat": 38.915737166666666, "rental_uris": {"android": "https://dc.lft.to/lastmile_qr_scan", "ios": "https://dc.lft.to/lastmile_qr_scan"}, "bike_id": "6f91a4879ecb85568d0086d96ae45541", "lon": -77.031866}, {"is_reserved": 0, "fusion_lon": 0.0, "fusion_lat": 0.0, "name": "44419092493bb8230212559c0c02a963", "type": "electric_scooter", "is_disabled": 0, "lat": 38.9353395, "rental_uris": {"android": "https://dc.lft.to/lastmile_qr_scan", "ios": "https://dc.lft.to/lastmile_qr_scan"}, "bike_id": "44419092493bb8230212559c0c02a963", "lon": -77.03472833333333}, {"is_reserved": 0, "fusion_lon": 0.0, "fusion_lat": 0.0, "name": "a4682be5b44f3a266f912db5d526d972", "type": "electric_scooter", "is_disabled": 0, "lat": 38.9276975, "rental_uris": {"android": "https://dc.lft.to/lastmile_qr_scan", "ios": "https://dc.lft.to/lastmile_qr_scan"}, "bike_id": "a4682be5b44f3a266f912db5d526d972", "lon": -77.020635}, {"is_reserved": 0, "fusion_lon": 0.0, "fusion_lat": 0.0, "name": "86dc15b59abbbc527254f9f5487382c5", "type": "electric_scooter", "is_disabled": 0, "lat": 38.86703216666667, "rental_uris": {"android": "https://dc.lft.to/lastmile_qr_scan", "ios": "https://dc.lft.to/lastmile_qr_scan"}, "bike_id": "86dc15b59abbbc527254f9f5487382c5", "lon": -76.98604966666667}, {"is_reserved": 0, "fusion_lon": 0.0, "fusion_lat": 0.0, "name": "ab95310c8c02f5593c822749189712ac", "type": "electric_scooter", "is_disabled": 0, "lat": 38.894830666666664, "rental_uris": {"android": "https://dc.lft.to/lastmile_qr_scan", "ios": "https://dc.lft.to/lastmile_qr_scan"}, "bike_id": "ab95310c8c02f5593c822749189712ac", "lon": -77.02325983333333}, {"is_reserved": 0, "fusion_lon": 0.0, "fusion_lat": 0.0, "name": "b40884e014267d9931c8916a8cbbe067", "type": "electric_bike", "is_disabled": 0, "lat": 38.8427235, "rental_uris": {"android": "https://dc.lft.to/lastmile_qr_scan", "ios": "https://dc.lft.to/lastmile_qr_scan"}, "bike_id": "b40884e014267d9931c8916a8cbbe067", "lon": -76.98841283333333}, {"is_reserved": 0, "fusion_lon": 0.0, "fusion_lat": 0.0, "name": "0973e3739c73c0031b81f42ee6074976", "type": "electric_scooter", "is_disabled": 0, "lat": 38.91561466666667, "rental_uris": {"android": "https://dc.lft.to/lastmile_qr_scan", "ios": "https://dc.lft.to/lastmile_qr_scan"}, "bike_id": "0973e3739c73c0031b81f42ee6074976", "lon": -77.02376883333334}, {"is_reserved": 0, "fusion_lon": 0.0, "fusion_lat": 0.0, "name": "ad957dbbaa74176739f7ddba22b77659", "type": "electric_scooter", "is_disabled": 0, "lat": 38.8987715, "rental_uris": {"android": "https://dc.lft.to/lastmile_qr_scan", "ios": "https://dc.lft.to/lastmile_qr_scan"}, "bike_id": "ad957dbbaa74176739f7ddba22b77659", "lon": -76.93187683333333}, {"is_reserved": 0, "fusion_lon": 0.0, "fusion_lat": 0.0, "name": "eb48bd787efd28869767fb15ebca0b07", "type": "electric_scooter", "is_disabled": 0, "lat": 38.90144133333333, "rental_uris": {"android": "https://dc.lft.to/lastmile_qr_scan", "ios": "https://dc.lft.to/lastmile_qr_scan"}, "bike_id": "eb48bd787efd28869767fb15ebca0b07", "lon": -77.04031433333333}, {"is_reserved": 0, "fusion_lon": 0.0, "fusion_lat": 0.0, "name": "9d3b0d94b005f28ff2a9eb305fd3ff26", "type": "electric_scooter", "is_disabled": 0, "lat": 38.9105645, "rental_uris": {"android": "https://dc.lft.to/lastmile_qr_scan", "ios": "https://dc.lft.to/lastmile_qr_scan"}, "bike_id": "9d3b0d94b005f28ff2a9eb305fd3ff26", "lon": -77.02970233333333}, {"is_reserved": 0, "fusion_lon": 0.0, "fusion_lat": 0.0, "name": "39acb9c821b7e8a53a543e08724602d3", "type": "electric_scooter", "is_disabled": 0, "lat": 38.887348333333335, "rental_uris": {"android": "https://dc.lft.to/lastmile_qr_scan", "ios": "https://dc.lft.to/lastmile_qr_scan"}, "bike_id": "39acb9c821b7e8a53a543e08724602d3", "lon": -77.01746116666666}, {"is_reserved": 0, "fusion_lon": 0.0, "fusion_lat": 0.0, "name": "d43412ff718f45d13b1c6b668e2ef082", "type": "electric_scooter", "is_disabled": 0, "lat": 38.8999875, "rental_uris": {"android": "https://dc.lft.to/lastmile_qr_scan", "ios": "https://dc.lft.to/lastmile_qr_scan"}, "bike_id": "d43412ff718f45d13b1c6b668e2ef082", "lon": -76.998407}, {"is_reserved": 0, "fusion_lon": 0.0, "fusion_lat": 0.0, "name": "542753d4ef88dd937775d62a4eb8fc5f", "type": "electric_scooter", "is_disabled": 0, "lat": 38.90657616666667, "rental_uris": {"android": "https://dc.lft.to/lastmile_qr_scan", "ios": "https://dc.lft.to/lastmile_qr_scan"}, "bike_id": "542753d4ef88dd937775d62a4eb8fc5f", "lon": -77.041467}, {"is_reserved": 0, "fusion_lon": 0.0, "fusion_lat": 0.0, "name": "4fa04387c2771033700f889db18c2253", "type": "electric_scooter", "is_disabled": 0, "lat": 38.90566583333333, "rental_uris": {"android": "https://dc.lft.to/lastmile_qr_scan", "ios": "https://dc.lft.to/lastmile_qr_scan"}, "bike_id": "4fa04387c2771033700f889db18c2253", "lon": -77.00593883333333}, {"is_reserved": 0, "fusion_lon": 0.0, "fusion_lat": 0.0, "name": "36261055aed098e9db23dffd451d74ea", "type": "electric_scooter", "is_disabled": 0, "lat": 38.902422333333334, "rental_uris": {"android": "https://dc.lft.to/lastmile_qr_scan", "ios": "https://dc.lft.to/lastmile_qr_scan"}, "bike_id": "36261055aed098e9db23dffd451d74ea", "lon": -76.98971433333334}, {"is_reserved": 0, "fusion_lon": 0.0, "fusion_lat": 0.0, "name": "2cfba3252bb42b365d47a2110a88d690", "type": "electric_scooter", "is_disabled": 0, "lat": 38.90859583333334, "rental_uris": {"android": "https://dc.lft.to/lastmile_qr_scan", "ios": "https://dc.lft.to/lastmile_qr_scan"}, "bike_id": "2cfba3252bb42b365d47a2110a88d690", "lon": -77.00204}, {"is_reserved": 0, "fusion_lon": 0.0, "fusion_lat": 0.0, "name": "b79b8769501a5f394aabc9fac65ae6dc", "type": "electric_scooter", "is_disabled": 0, "lat": 38.89149283333333, "rental_uris": {"android": "https://dc.lft.to/lastmile_qr_scan", "ios": "https://dc.lft.to/lastmile_qr_scan"}, "bike_id": "b79b8769501a5f394aabc9fac65ae6dc", "lon": -76.98377983333333}, {"is_reserved": 0, "fusion_lon": 0.0, "fusion_lat": 0.0, "name": "4da9c83129d7454f9c7e8df700652380", "type": "electric_scooter", "is_disabled": 0, "lat": 38.920113, "rental_uris": {"android": "https://dc.lft.to/lastmile_qr_scan", "ios": "https://dc.lft.to/lastmile_qr_scan"}, "bike_id": "4da9c83129d7454f9c7e8df700652380", "lon": -77.03475183333333}, {"is_reserved": 0, "fusion_lon": 0.0, "fusion_lat": 0.0, "name": "aedaac67f971f052f6e48a80ef9de9d8", "type": "electric_scooter", "is_disabled": 0, "lat": 38.87165483333333, "rental_uris": {"android": "https://dc.lft.to/lastmile_qr_scan", "ios": "https://dc.lft.to/lastmile_qr_scan"}, "bike_id": "aedaac67f971f052f6e48a80ef9de9d8", "lon": -76.97741416666666}, {"is_reserved": 0, "fusion_lon": 0.0, "fusion_lat": 0.0, "name": "ea34d9dc960726d12630d1f6f79ad6c0", "type": "electric_scooter", "is_disabled": 0, "lat": 38.91806316666667, "rental_uris": {"android": "https://dc.lft.to/lastmile_qr_scan", "ios": "https://dc.lft.to/lastmile_qr_scan"}, "bike_id": "ea34d9dc960726d12630d1f6f79ad6c0", "lon": -77.024948}, {"is_reserved": 0, "fusion_lon": 0.0, "fusion_lat": 0.0, "name": "4c011cffba72f17e4da7f7359e64d3ad", "type": "electric_scooter", "is_disabled": 0, "lat": 38.90074666666667, "rental_uris": {"android": "https://dc.lft.to/lastmile_qr_scan", "ios": "https://dc.lft.to/lastmile_qr_scan"}, "bike_id": "4c011cffba72f17e4da7f7359e64d3ad", "lon": -77.04884133333333}, {"is_reserved": 0, "fusion_lon": 0.0, "fusion_lat": 0.0, "name": "b9c630a71bbc1c7c214cc70fd1dcd0b9", "type": "electric_scooter", "is_disabled": 0, "lat": 38.91718, "rental_uris": {"android": "https://dc.lft.to/lastmile_qr_scan", "ios": "https://dc.lft.to/lastmile_qr_scan"}, "bike_id": "b9c630a71bbc1c7c214cc70fd1dcd0b9", "lon": -77.0365855}, {"is_reserved": 0, "fusion_lon": 0.0, "fusion_lat": 0.0, "name": "a7d14b4ca82058504cbbf19c5f3d294e", "type": "electric_scooter", "is_disabled": 0, "lat": 38.919321, "rental_uris": {"android": "https://dc.lft.to/lastmile_qr_scan", "ios": "https://dc.lft.to/lastmile_qr_scan"}, "bike_id": "a7d14b4ca82058504cbbf19c5f3d294e", "lon": -77.044782}, {"is_reserved": 0, "fusion_lon": 0.0, "fusion_lat": 0.0, "name": "2c4a1808fd871c975eab8855b4ea24bb", "type": "electric_scooter", "is_disabled": 0, "lat": 38.92458966666667, "rental_uris": {"android": "https://dc.lft.to/lastmile_qr_scan", "ios": "https://dc.lft.to/lastmile_qr_scan"}, "bike_id": "2c4a1808fd871c975eab8855b4ea24bb", "lon": -77.03284283333333}, {"is_reserved": 0, "fusion_lon": 0.0, "fusion_lat": 0.0, "name": "e0977d042a9c68ab5887fa8338c0424f", "type": "electric_scooter", "is_disabled": 0, "lat": 38.91466783333333, "rental_uris": {"android": "https://dc.lft.to/lastmile_qr_scan", "ios": "https://dc.lft.to/lastmile_qr_scan"}, "bike_id": "e0977d042a9c68ab5887fa8338c0424f", "lon": -77.020926}, {"is_reserved": 0, "fusion_lon": 0.0, "fusion_lat": 0.0, "name": "83b6ffcfc2d016b87db29f40ac674207", "type": "electric_scooter", "is_disabled": 0, "lat": 38.909743, "rental_uris": {"android": "https://dc.lft.to/lastmile_qr_scan", "ios": "https://dc.lft.to/lastmile_qr_scan"}, "bike_id": "83b6ffcfc2d016b87db29f40ac674207", "lon": -77.03411683333333}, {"is_reserved": 0, "fusion_lon": 0.0, "fusion_lat": 0.0, "name": "219e55b57b6160dcdf394b6f6fc875c3", "type": "electric_scooter", "is_disabled": 0, "lat": 38.92149383333334, "rental_uris": {"android": "https://dc.lft.to/lastmile_qr_scan", "ios": "https://dc.lft.to/lastmile_qr_scan"}, "bike_id": "219e55b57b6160dcdf394b6f6fc875c3", "lon": -77.02098416666666}, {"is_reserved": 0, "fusion_lon": 0.0, "fusion_lat": 0.0, "name": "b521711878bc69ca16fb09f20b6cf2af", "type": "electric_scooter", "is_disabled": 0, "lat": 38.916884833333334, "rental_uris": {"android": "https://dc.lft.to/lastmile_qr_scan", "ios": "https://dc.lft.to/lastmile_qr_scan"}, "bike_id": "b521711878bc69ca16fb09f20b6cf2af", "lon": -77.0321045}, {"is_reserved": 0, "fusion_lon": 0.0, "fusion_lat": 0.0, "name": "ec17952d4018fd9b19215fe014f1f951", "type": "electric_bike", "is_disabled": 0, "lat": 38.924271833333336, "rental_uris": {"android": "https://dc.lft.to/lastmile_qr_scan", "ios": "https://dc.lft.to/lastmile_qr_scan"}, "bike_id": "ec17952d4018fd9b19215fe014f1f951", "lon": -76.996522}, {"is_reserved": 0, "fusion_lon": 0.0, "fusion_lat": 0.0, "name": "95c210ab448a9c4c5daf71f1b0bb1a66", "type": "electric_scooter", "is_disabled": 0, "lat": 38.91109133333333, "rental_uris": {"android": "https://dc.lft.to/lastmile_qr_scan", "ios": "https://dc.lft.to/lastmile_qr_scan"}, "bike_id": "95c210ab448a9c4c5daf71f1b0bb1a66", "lon": -77.03257783333333}, {"is_reserved": 0, "fusion_lon": 0.0, "fusion_lat": 0.0, "name": "94853ac68584d29e7b8f77b8965d076c", "type": "electric_scooter", "is_disabled": 0, "lat": 38.908639666666666, "rental_uris": {"android": "https://dc.lft.to/lastmile_qr_scan", "ios": "https://dc.lft.to/lastmile_qr_scan"}, "bike_id": "94853ac68584d29e7b8f77b8965d076c", "lon": -77.04495233333333}, {"is_reserved": 0, "fusion_lon": 0.0, "fusion_lat": 0.0, "name": "a0d0d2a24dc90e25e4c874d52b3f217d", "type": "electric_scooter", "is_disabled": 0, "lat": 38.91642183333333, "rental_uris": {"android": "https://dc.lft.to/lastmile_qr_scan", "ios": "https://dc.lft.to/lastmile_qr_scan"}, "bike_id": "a0d0d2a24dc90e25e4c874d52b3f217d", "lon": -77.04806}, {"is_reserved": 0, "fusion_lon": 0.0, "fusion_lat": 0.0, "name": "0da8811ad1cd4ca28999405b5305f2da", "type": "electric_bike", "is_disabled": 0, "lat": 38.932333, "rental_uris": {"android": "https://dc.lft.to/lastmile_qr_scan", "ios": "https://dc.lft.to/lastmile_qr_scan"}, "bike_id": "0da8811ad1cd4ca28999405b5305f2da", "lon": -77.18121833333333}, {"is_reserved": 0, "fusion_lon": 0.0, "fusion_lat": 0.0, "name": "17c799ab692a80e4ac758d44ff47bbcf", "type": "electric_scooter", "is_disabled": 0, "lat": 38.926164, "rental_uris": {"android": "https://dc.lft.to/lastmile_qr_scan", "ios": "https://dc.lft.to/lastmile_qr_scan"}, "bike_id": "17c799ab692a80e4ac758d44ff47bbcf", "lon": -77.04318916666666}, {"is_reserved": 0, "fusion_lon": 0.0, "fusion_lat": 0.0, "name": "da9fa07287857575eed89491ca01aacd", "type": "electric_scooter", "is_disabled": 0, "lat": 38.95190633333333, "rental_uris": {"android": "https://dc.lft.to/lastmile_qr_scan", "ios": "https://dc.lft.to/lastmile_qr_scan"}, "bike_id": "da9fa07287857575eed89491ca01aacd", "lon": -77.026194}, {"is_reserved": 0, "fusion_lon": 0.0, "fusion_lat": 0.0, "name": "5d175df3c3e5a5f06638e99b29302549", "type": "electric_bike", "is_disabled": 0, "lat": 38.95323833333333, "rental_uris": {"android": "https://dc.lft.to/lastmile_qr_scan", "ios": "https://dc.lft.to/lastmile_qr_scan"}, "bike_id": "5d175df3c3e5a5f06638e99b29302549", "lon": -76.95437566666666}, {"is_reserved": 0, "fusion_lon": 0.0, "fusion_lat": 0.0, "name": "e3225e76ce46457789b390d10efd7e23", "type": "electric_scooter", "is_disabled": 0, "lat": 38.91267783333333, "rental_uris": {"android": "https://dc.lft.to/lastmile_qr_scan", "ios": "https://dc.lft.to/lastmile_qr_scan"}, "bike_id": "e3225e76ce46457789b390d10efd7e23", "lon": -77.04102333333333}, {"is_reserved": 0, "fusion_lon": 0.0, "fusion_lat": 0.0, "name": "8608d868e7eaac3448622aa1d9a9f48e", "type": "electric_scooter", "is_disabled": 0, "lat": 38.912607333333334, "rental_uris": {"android": "https://dc.lft.to/lastmile_qr_scan", "ios": "https://dc.lft.to/lastmile_qr_scan"}, "bike_id": "8608d868e7eaac3448622aa1d9a9f48e", "lon": -77.073179}, {"is_reserved": 0, "fusion_lon": 0.0, "fusion_lat": 0.0, "name": "ce480ce090dc6f9638e93c88363bd4a1", "type": "electric_scooter", "is_disabled": 0, "lat": 38.90069783333333, "rental_uris": {"android": "https://dc.lft.to/lastmile_qr_scan", "ios": "https://dc.lft.to/lastmile_qr_scan"}, "bike_id": "ce480ce090dc6f9638e93c88363bd4a1", "lon": -77.00217166666667}, {"is_reserved": 0, "fusion_lon": 0.0, "fusion_lat": 0.0, "name": "4479d7bca03d4f3e49e3b592aeda218c", "type": "electric_scooter", "is_disabled": 0, "lat": 38.894255, "rental_uris": {"android": "https://dc.lft.to/lastmile_qr_scan", "ios": "https://dc.lft.to/lastmile_qr_scan"}, "bike_id": "4479d7bca03d4f3e49e3b592aeda218c", "lon": -77.0400415}, {"is_reserved": 0, "fusion_lon": 0.0, "fusion_lat": 0.0, "name": "e8a5622ac1dba159b83ee4a7148813c8", "type": "electric_scooter", "is_disabled": 0, "lat": 38.92161316666667, "rental_uris": {"android": "https://dc.lft.to/lastmile_qr_scan", "ios": "https://dc.lft.to/lastmile_qr_scan"}, "bike_id": "e8a5622ac1dba159b83ee4a7148813c8", "lon": -77.033782}, {"is_reserved": 0, "fusion_lon": 0.0, "fusion_lat": 0.0, "name": "dbda3527702da5af2a1dad1adbfe12da", "type": "electric_scooter", "is_disabled": 0, "lat": 38.90492533333333, "rental_uris": {"android": "https://dc.lft.to/lastmile_qr_scan", "ios": "https://dc.lft.to/lastmile_qr_scan"}, "bike_id": "dbda3527702da5af2a1dad1adbfe12da", "lon": -76.98716783333333}, {"is_reserved": 0, "fusion_lon": 0.0, "fusion_lat": 0.0, "name": "c3aee8a652f960d0d55e45d33676cb4a", "type": "electric_scooter", "is_disabled": 0, "lat": 38.91575116666667, "rental_uris": {"android": "https://dc.lft.to/lastmile_qr_scan", "ios": "https://dc.lft.to/lastmile_qr_scan"}, "bike_id": "c3aee8a652f960d0d55e45d33676cb4a", "lon": -77.019876}, {"is_reserved": 0, "fusion_lon": 0.0, "fusion_lat": 0.0, "name": "7f52c3bf2047697195acde638d220f6d", "type": "electric_scooter", "is_disabled": 0, "lat": 38.905607, "rental_uris": {"android": "https://dc.lft.to/lastmile_qr_scan", "ios": "https://dc.lft.to/lastmile_qr_scan"}, "bike_id": "7f52c3bf2047697195acde638d220f6d", "lon": -77.0344675}, {"is_reserved": 0, "fusion_lon": 0.0, "fusion_lat": 0.0, "name": "3ad44271f8868d8f793ae4898f82fb53", "type": "electric_bike", "is_disabled": 0, "lat": 39.062962, "rental_uris": {"android": "https://dc.lft.to/lastmile_qr_scan", "ios": "https://dc.lft.to/lastmile_qr_scan"}, "bike_id": "3ad44271f8868d8f793ae4898f82fb53", "lon": -77.049821}, {"is_reserved": 0, "fusion_lon": 0.0, "fusion_lat": 0.0, "name": "6e2da165fceea28d8a9339c92f764855", "type": "electric_scooter", "is_disabled": 0, "lat": 38.892207166666665, "rental_uris": {"android": "https://dc.lft.to/lastmile_qr_scan", "ios": "https://dc.lft.to/lastmile_qr_scan"}, "bike_id": "6e2da165fceea28d8a9339c92f764855", "lon": -77.02350016666666}, {"is_reserved": 0, "fusion_lon": 0.0, "fusion_lat": 0.0, "name": "a87d9b82763649dc2199278a7ee98ed6", "type": "electric_scooter", "is_disabled": 0, "lat": 38.906384833333334, "rental_uris": {"android": "https://dc.lft.to/lastmile_qr_scan", "ios": "https://dc.lft.to/lastmile_qr_scan"}, "bike_id": "a87d9b82763649dc2199278a7ee98ed6", "lon": -77.04810033333334}, {"is_reserved": 0, "fusion_lon": 0.0, "fusion_lat": 0.0, "name": "987f2b6d3984b8620f3fb3f5449551b5", "type": "electric_scooter", "is_disabled": 0, "lat": 38.883088666666666, "rental_uris": {"android": "https://dc.lft.to/lastmile_qr_scan", "ios": "https://dc.lft.to/lastmile_qr_scan"}, "bike_id": "987f2b6d3984b8620f3fb3f5449551b5", "lon": -76.97865683333333}, {"is_reserved": 0, "fusion_lon": 0.0, "fusion_lat": 0.0, "name": "b405ed572bb7b5c23934461f8b24a3b8", "type": "electric_scooter", "is_disabled": 0, "lat": 38.89917966666667, "rental_uris": {"android": "https://dc.lft.to/lastmile_qr_scan", "ios": "https://dc.lft.to/lastmile_qr_scan"}, "bike_id": "b405ed572bb7b5c23934461f8b24a3b8", "lon": -76.93380366666666}, {"is_reserved": 0, "fusion_lon": 0.0, "fusion_lat": 0.0, "name": "8d8a9f5cabed8f8412e8c1c74336faec", "type": "electric_scooter", "is_disabled": 0, "lat": 38.893185333333335, "rental_uris": {"android": "https://dc.lft.to/lastmile_qr_scan", "ios": "https://dc.lft.to/lastmile_qr_scan"}, "bike_id": "8d8a9f5cabed8f8412e8c1c74336faec", "lon": -76.943094}, {"is_reserved": 0, "fusion_lon": 0.0, "fusion_lat": 0.0, "name": "23559c76d8fb6dbdac6b91947db31fb4", "type": "electric_scooter", "is_disabled": 0, "lat": 38.92677966666667, "rental_uris": {"android": "https://dc.lft.to/lastmile_qr_scan", "ios": "https://dc.lft.to/lastmile_qr_scan"}, "bike_id": "23559c76d8fb6dbdac6b91947db31fb4", "lon": -77.0298695}, {"is_reserved": 0, "fusion_lon": 0.0, "fusion_lat": 0.0, "name": "b44aeec55eae21ad313553bb1b0b320e", "type": "electric_scooter", "is_disabled": 0, "lat": 38.90739383333333, "rental_uris": {"android": "https://dc.lft.to/lastmile_qr_scan", "ios": "https://dc.lft.to/lastmile_qr_scan"}, "bike_id": "b44aeec55eae21ad313553bb1b0b320e", "lon": -77.02692016666667}, {"is_reserved": 0, "fusion_lon": 0.0, "fusion_lat": 0.0, "name": "32c74b2dc53074fd525fd773cae5e9a9", "type": "electric_scooter", "is_disabled": 0, "lat": 38.917678333333335, "rental_uris": {"android": "https://dc.lft.to/lastmile_qr_scan", "ios": "https://dc.lft.to/lastmile_qr_scan"}, "bike_id": "32c74b2dc53074fd525fd773cae5e9a9", "lon": -77.045538}, {"is_reserved": 0, "fusion_lon": 0.0, "fusion_lat": 0.0, "name": "3948f4c5addb22a2ba5cbfaed51156fc", "type": "electric_bike", "is_disabled": 0, "lat": 38.91433116666666, "rental_uris": {"android": "https://dc.lft.to/lastmile_qr_scan", "ios": "https://dc.lft.to/lastmile_qr_scan"}, "bike_id": "3948f4c5addb22a2ba5cbfaed51156fc", "lon": -77.01703583333334}, {"is_reserved": 0, "fusion_lon": 0.0, "fusion_lat": 0.0, "name": "5c49cbea3c75dc253c56bf61d7992a92", "type": "electric_bike", "is_disabled": 0, "lat": 38.8934955, "rental_uris": {"android": "https://dc.lft.to/lastmile_qr_scan", "ios": "https://dc.lft.to/lastmile_qr_scan"}, "bike_id": "5c49cbea3c75dc253c56bf61d7992a92", "lon": -77.18739183333334}, {"is_reserved": 0, "fusion_lon": 0.0, "fusion_lat": 0.0, "name": "f2be00b2a7d782bdf06df541684cadcb", "type": "electric_scooter", "is_disabled": 0, "lat": 38.92159766666666, "rental_uris": {"android": "https://dc.lft.to/lastmile_qr_scan", "ios": "https://dc.lft.to/lastmile_qr_scan"}, "bike_id": "f2be00b2a7d782bdf06df541684cadcb", "lon": -77.04351716666666}, {"is_reserved": 0, "fusion_lon": 0.0, "fusion_lat": 0.0, "name": "264bcae19ec4b07148e1a0bc1a935b86", "type": "electric_scooter", "is_disabled": 0, "lat": 38.9169405, "rental_uris": {"android": "https://dc.lft.to/lastmile_qr_scan", "ios": "https://dc.lft.to/lastmile_qr_scan"}, "bike_id": "264bcae19ec4b07148e1a0bc1a935b86", "lon": -77.02288116666666}, {"is_reserved": 0, "fusion_lon": 0.0, "fusion_lat": 0.0, "name": "ac6cdad72585786f6108b6999f6b111d", "type": "electric_bike", "is_disabled": 0, "lat": 38.854293, "rental_uris": {"android": "https://dc.lft.to/lastmile_qr_scan", "ios": "https://dc.lft.to/lastmile_qr_scan"}, "bike_id": "ac6cdad72585786f6108b6999f6b111d", "lon": -77.12075766666666}, {"is_reserved": 0, "fusion_lon": 0.0, "fusion_lat": 0.0, "name": "562232ec58d15eea4f8c962d273a332b", "type": "electric_scooter", "is_disabled": 0, "lat": 38.8974385, "rental_uris": {"android": "https://dc.lft.to/lastmile_qr_scan", "ios": "https://dc.lft.to/lastmile_qr_scan"}, "bike_id": "562232ec58d15eea4f8c962d273a332b", "lon": -77.04718}, {"is_reserved": 0, "fusion_lon": 0.0, "fusion_lat": 0.0, "name": "bcd004be1f131d4de2730d304be91208", "type": "electric_scooter", "is_disabled": 0, "lat": 38.8938935, "rental_uris": {"android": "https://dc.lft.to/lastmile_qr_scan", "ios": "https://dc.lft.to/lastmile_qr_scan"}, "bike_id": "bcd004be1f131d4de2730d304be91208", "lon": -77.02250783333334}, {"is_reserved": 0, "fusion_lon": 0.0, "fusion_lat": 0.0, "name": "2c29fa6584469578e2451858ece59d42", "type": "electric_scooter", "is_disabled": 0, "lat": 38.899289833333334, "rental_uris": {"android": "https://dc.lft.to/lastmile_qr_scan", "ios": "https://dc.lft.to/lastmile_qr_scan"}, "bike_id": "2c29fa6584469578e2451858ece59d42", "lon": -76.94571166666667}, {"is_reserved": 0, "fusion_lon": 0.0, "fusion_lat": 0.0, "name": "2912d8b83295c110469f2114650708fd", "type": "electric_scooter", "is_disabled": 0, "lat": 38.908078833333335, "rental_uris": {"android": "https://dc.lft.to/lastmile_qr_scan", "ios": "https://dc.lft.to/lastmile_qr_scan"}, "bike_id": "2912d8b83295c110469f2114650708fd", "lon": -77.03450483333333}, {"is_reserved": 0, "fusion_lon": 0.0, "fusion_lat": 0.0, "name": "db58593e56ef814b50d43adc467082e0", "type": "electric_scooter", "is_disabled": 0, "lat": 38.91264266666667, "rental_uris": {"android": "https://dc.lft.to/lastmile_qr_scan", "ios": "https://dc.lft.to/lastmile_qr_scan"}, "bike_id": "db58593e56ef814b50d43adc467082e0", "lon": -77.03179716666666}, {"is_reserved": 0, "fusion_lon": 0.0, "fusion_lat": 0.0, "name": "0f833bb4eca850cfb11be101393e1fc8", "type": "electric_scooter", "is_disabled": 0, "lat": 38.932390166666664, "rental_uris": {"android": "https://dc.lft.to/lastmile_qr_scan", "ios": "https://dc.lft.to/lastmile_qr_scan"}, "bike_id": "0f833bb4eca850cfb11be101393e1fc8", "lon": -77.03849583333333}, {"is_reserved": 0, "fusion_lon": 0.0, "fusion_lat": 0.0, "name": "cb4fbba08c175cec8cd525c390340d41", "type": "electric_scooter", "is_disabled": 0, "lat": 38.91727566666667, "rental_uris": {"android": "https://dc.lft.to/lastmile_qr_scan", "ios": "https://dc.lft.to/lastmile_qr_scan"}, "bike_id": "cb4fbba08c175cec8cd525c390340d41", "lon": -77.06837233333333}, {"is_reserved": 0, "fusion_lon": 0.0, "fusion_lat": 0.0, "name": "b695b92e3170326af3e0bdbe8632492a", "type": "electric_scooter", "is_disabled": 0, "lat": 38.8989895, "rental_uris": {"android": "https://dc.lft.to/lastmile_qr_scan", "ios": "https://dc.lft.to/lastmile_qr_scan"}, "bike_id": "b695b92e3170326af3e0bdbe8632492a", "lon": -76.99161983333333}, {"is_reserved": 0, "fusion_lon": 0.0, "fusion_lat": 0.0, "name": "e6e14d749b2b01245dd8956f854bdc4c", "type": "electric_scooter", "is_disabled": 0, "lat": 38.90504383333333, "rental_uris": {"android": "https://dc.lft.to/lastmile_qr_scan", "ios": "https://dc.lft.to/lastmile_qr_scan"}, "bike_id": "e6e14d749b2b01245dd8956f854bdc4c", "lon": -76.97924633333334}, {"is_reserved": 0, "fusion_lon": 0.0, "fusion_lat": 0.0, "name": "0973c359e6b2627157916d770e3d146c", "type": "electric_scooter", "is_disabled": 0, "lat": 38.871186, "rental_uris": {"android": "https://dc.lft.to/lastmile_qr_scan", "ios": "https://dc.lft.to/lastmile_qr_scan"}, "bike_id": "0973c359e6b2627157916d770e3d146c", "lon": -77.007594}, {"is_reserved": 0, "fusion_lon": 0.0, "fusion_lat": 0.0, "name": "12aa6798a3f3c0411fcde82305824cc6", "type": "electric_scooter", "is_disabled": 0, "lat": 38.899150666666664, "rental_uris": {"android": "https://dc.lft.to/lastmile_qr_scan", "ios": "https://dc.lft.to/lastmile_qr_scan"}, "bike_id": "12aa6798a3f3c0411fcde82305824cc6", "lon": -76.93380433333333}, {"is_reserved": 0, "fusion_lon": 0.0, "fusion_lat": 0.0, "name": "564deda411037d64b3786224e54d62c8", "type": "electric_bike", "is_disabled": 0, "lat": 38.966117833333335, "rental_uris": {"android": "https://dc.lft.to/lastmile_qr_scan", "ios": "https://dc.lft.to/lastmile_qr_scan"}, "bike_id": "564deda411037d64b3786224e54d62c8", "lon": -77.0342815}, {"is_reserved": 0, "fusion_lon": 0.0, "fusion_lat": 0.0, "name": "f61119e2a95ae2501a34c79f7d5d7797", "type": "electric_scooter", "is_disabled": 0, "lat": 38.916915333333336, "rental_uris": {"android": "https://dc.lft.to/lastmile_qr_scan", "ios": "https://dc.lft.to/lastmile_qr_scan"}, "bike_id": "f61119e2a95ae2501a34c79f7d5d7797", "lon": -77.028908}, {"is_reserved": 0, "fusion_lon": 0.0, "fusion_lat": 0.0, "name": "444094e29164ec65f09227d9d7f3744d", "type": "electric_scooter", "is_disabled": 0, "lat": 38.896225666666666, "rental_uris": {"android": "https://dc.lft.to/lastmile_qr_scan", "ios": "https://dc.lft.to/lastmile_qr_scan"}, "bike_id": "444094e29164ec65f09227d9d7f3744d", "lon": -77.031797}, {"is_reserved": 0, "fusion_lon": 0.0, "fusion_lat": 0.0, "name": "70a88b38029346beafa72bf4b0e422cd", "type": "electric_scooter", "is_disabled": 0, "lat": 38.8976255, "rental_uris": {"android": "https://dc.lft.to/lastmile_qr_scan", "ios": "https://dc.lft.to/lastmile_qr_scan"}, "bike_id": "70a88b38029346beafa72bf4b0e422cd", "lon": -77.04412033333334}, {"is_reserved": 0, "fusion_lon": 0.0, "fusion_lat": 0.0, "name": "9ac8bb8022c726cae17a1d34a330ef7e", "type": "electric_bike", "is_disabled": 0, "lat": 38.853743333333334, "rental_uris": {"android": "https://dc.lft.to/lastmile_qr_scan", "ios": "https://dc.lft.to/lastmile_qr_scan"}, "bike_id": "9ac8bb8022c726cae17a1d34a330ef7e", "lon": -77.12463933333333}, {"is_reserved": 0, "fusion_lon": 0.0, "fusion_lat": 0.0, "name": "a7238658049e5e85d983c563078cb206", "type": "electric_scooter", "is_disabled": 0, "lat": 38.904602833333335, "rental_uris": {"android": "https://dc.lft.to/lastmile_qr_scan", "ios": "https://dc.lft.to/lastmile_qr_scan"}, "bike_id": "a7238658049e5e85d983c563078cb206", "lon": -77.0356025}, {"is_reserved": 0, "fusion_lon": 0.0, "fusion_lat": 0.0, "name": "30689c7afe8b353c4af46cb46fc896f5", "type": "electric_scooter", "is_disabled": 0, "lat": 38.90420683333333, "rental_uris": {"android": "https://dc.lft.to/lastmile_qr_scan", "ios": "https://dc.lft.to/lastmile_qr_scan"}, "bike_id": "30689c7afe8b353c4af46cb46fc896f5", "lon": -77.034266}, {"is_reserved": 0, "fusion_lon": 0.0, "fusion_lat": 0.0, "name": "922e1d4b9b0f75ceb6fd34070252c4f2", "type": "electric_scooter", "is_disabled": 0, "lat": 38.910956166666665, "rental_uris": {"android": "https://dc.lft.to/lastmile_qr_scan", "ios": "https://dc.lft.to/lastmile_qr_scan"}, "bike_id": "922e1d4b9b0f75ceb6fd34070252c4f2", "lon": -77.04479116666667}, {"is_reserved": 0, "fusion_lon": 0.0, "fusion_lat": 0.0, "name": "f82b7759ad6c2efd023a86cb63514f91", "type": "electric_scooter", "is_disabled": 0, "lat": 38.904173166666666, "rental_uris": {"android": "https://dc.lft.to/lastmile_qr_scan", "ios": "https://dc.lft.to/lastmile_qr_scan"}, "bike_id": "f82b7759ad6c2efd023a86cb63514f91", "lon": -77.0311045}, {"is_reserved": 0, "fusion_lon": 0.0, "fusion_lat": 0.0, "name": "1969785d02a397b8d1a1edef239b70d9", "type": "electric_bike", "is_disabled": 0, "lat": 38.8729455, "rental_uris": {"android": "https://dc.lft.to/lastmile_qr_scan", "ios": "https://dc.lft.to/lastmile_qr_scan"}, "bike_id": "1969785d02a397b8d1a1edef239b70d9", "lon": -77.1393}, {"is_reserved": 0, "fusion_lon": 0.0, "fusion_lat": 0.0, "name": "b15eb9003ce47ae801d6933db36f5bdd", "type": "electric_scooter", "is_disabled": 0, "lat": 38.9362465, "rental_uris": {"android": "https://dc.lft.to/lastmile_qr_scan", "ios": "https://dc.lft.to/lastmile_qr_scan"}, "bike_id": "b15eb9003ce47ae801d6933db36f5bdd", "lon": -77.06758033333334}, {"is_reserved": 0, "fusion_lon": 0.0, "fusion_lat": 0.0, "name": "43237ff9bd56b0131a98f904c27d1d93", "type": "electric_scooter", "is_disabled": 0, "lat": 38.950159666666664, "rental_uris": {"android": "https://dc.lft.to/lastmile_qr_scan", "ios": "https://dc.lft.to/lastmile_qr_scan"}, "bike_id": "43237ff9bd56b0131a98f904c27d1d93", "lon": -77.0668195}, {"is_reserved": 0, "fusion_lon": 0.0, "fusion_lat": 0.0, "name": "61ec40b610710a5410c7c8ed8819a377", "type": "electric_scooter", "is_disabled": 0, "lat": 38.9325035, "rental_uris": {"android": "https://dc.lft.to/lastmile_qr_scan", "ios": "https://dc.lft.to/lastmile_qr_scan"}, "bike_id": "61ec40b610710a5410c7c8ed8819a377", "lon": -77.03271533333333}, {"is_reserved": 0, "fusion_lon": 0.0, "fusion_lat": 0.0, "name": "352c4e33727f71b094ac73bceb00e97c", "type": "electric_scooter", "is_disabled": 0, "lat": 38.8670035, "rental_uris": {"android": "https://dc.lft.to/lastmile_qr_scan", "ios": "https://dc.lft.to/lastmile_qr_scan"}, "bike_id": "352c4e33727f71b094ac73bceb00e97c", "lon": -76.9859365}, {"is_reserved": 0, "fusion_lon": 0.0, "fusion_lat": 0.0, "name": "4a15ffdce4efb22cff77cdb81b8d037b", "type": "electric_scooter", "is_disabled": 0, "lat": 38.8923395, "rental_uris": {"android": "https://dc.lft.to/lastmile_qr_scan", "ios": "https://dc.lft.to/lastmile_qr_scan"}, "bike_id": "4a15ffdce4efb22cff77cdb81b8d037b", "lon": -77.02382816666666}, {"is_reserved": 0, "fusion_lon": 0.0, "fusion_lat": 0.0, "name": "feec662562be00dfe2b736e4a12c1dfd", "type": "electric_scooter", "is_disabled": 0, "lat": 38.925357166666664, "rental_uris": {"android": "https://dc.lft.to/lastmile_qr_scan", "ios": "https://dc.lft.to/lastmile_qr_scan"}, "bike_id": "feec662562be00dfe2b736e4a12c1dfd", "lon": -76.97219583333333}, {"is_reserved": 0, "fusion_lon": 0.0, "fusion_lat": 0.0, "name": "cfbaffe8b5ef2fcaa9689e181f1cf00f", "type": "electric_scooter", "is_disabled": 0, "lat": 38.90974516666667, "rental_uris": {"android": "https://dc.lft.to/lastmile_qr_scan", "ios": "https://dc.lft.to/lastmile_qr_scan"}, "bike_id": "cfbaffe8b5ef2fcaa9689e181f1cf00f", "lon": -77.031875}, {"is_reserved": 0, "fusion_lon": 0.0, "fusion_lat": 0.0, "name": "8875f44c7e64119eff757638bb6037a5", "type": "electric_scooter", "is_disabled": 0, "lat": 38.92848016666667, "rental_uris": {"android": "https://dc.lft.to/lastmile_qr_scan", "ios": "https://dc.lft.to/lastmile_qr_scan"}, "bike_id": "8875f44c7e64119eff757638bb6037a5", "lon": -77.03737333333333}, {"is_reserved": 0, "fusion_lon": 0.0, "fusion_lat": 0.0, "name": "6d35240bec47dc8e9b5f6c94c6bbfbb1", "type": "electric_scooter", "is_disabled": 0, "lat": 38.90589383333333, "rental_uris": {"android": "https://dc.lft.to/lastmile_qr_scan", "ios": "https://dc.lft.to/lastmile_qr_scan"}, "bike_id": "6d35240bec47dc8e9b5f6c94c6bbfbb1", "lon": -77.03431283333333}, {"is_reserved": 0, "fusion_lon": 0.0, "fusion_lat": 0.0, "name": "8fd66d89d918826cac02c9a2fc247f3f", "type": "electric_scooter", "is_disabled": 0, "lat": 38.9082815, "rental_uris": {"android": "https://dc.lft.to/lastmile_qr_scan", "ios": "https://dc.lft.to/lastmile_qr_scan"}, "bike_id": "8fd66d89d918826cac02c9a2fc247f3f", "lon": -77.043542}, {"is_reserved": 0, "fusion_lon": 0.0, "fusion_lat": 0.0, "name": "61061e01f19ed5f4021f62ced68c1e2c", "type": "electric_scooter", "is_disabled": 0, "lat": 38.90619616666667, "rental_uris": {"android": "https://dc.lft.to/lastmile_qr_scan", "ios": "https://dc.lft.to/lastmile_qr_scan"}, "bike_id": "61061e01f19ed5f4021f62ced68c1e2c", "lon": -77.04109716666666}, {"is_reserved": 0, "fusion_lon": 0.0, "fusion_lat": 0.0, "name": "911027998a433de699af208ccccd36e4", "type": "electric_scooter", "is_disabled": 0, "lat": 38.9181585, "rental_uris": {"android": "https://dc.lft.to/lastmile_qr_scan", "ios": "https://dc.lft.to/lastmile_qr_scan"}, "bike_id": "911027998a433de699af208ccccd36e4", "lon": -77.03454166666667}, {"is_reserved": 0, "fusion_lon": 0.0, "fusion_lat": 0.0, "name": "ce4334a1f69f69ee74b22af05f9813f9", "type": "electric_scooter", "is_disabled": 0, "lat": 38.90012766666667, "rental_uris": {"android": "https://dc.lft.to/lastmile_qr_scan", "ios": "https://dc.lft.to/lastmile_qr_scan"}, "bike_id": "ce4334a1f69f69ee74b22af05f9813f9", "lon": -76.930299}, {"is_reserved": 0, "fusion_lon": 0.0, "fusion_lat": 0.0, "name": "8c98a7ff2e97001beb04efd6380d126c", "type": "electric_scooter", "is_disabled": 0, "lat": 38.912656166666665, "rental_uris": {"android": "https://dc.lft.to/lastmile_qr_scan", "ios": "https://dc.lft.to/lastmile_qr_scan"}, "bike_id": "8c98a7ff2e97001beb04efd6380d126c", "lon": -77.03108883333333}, {"is_reserved": 0, "fusion_lon": 0.0, "fusion_lat": 0.0, "name": "c74df3690164bd98b2fa0329c38ca151", "type": "electric_bike", "is_disabled": 0, "lat": 38.969121333333334, "rental_uris": {"android": "https://dc.lft.to/lastmile_qr_scan", "ios": "https://dc.lft.to/lastmile_qr_scan"}, "bike_id": "c74df3690164bd98b2fa0329c38ca151", "lon": -76.99493466666667}, {"is_reserved": 0, "fusion_lon": 0.0, "fusion_lat": 0.0, "name": "5b091db85324434292508da80a181e8f", "type": "electric_scooter", "is_disabled": 0, "lat": 38.92878433333333, "rental_uris": {"android": "https://dc.lft.to/lastmile_qr_scan", "ios": "https://dc.lft.to/lastmile_qr_scan"}, "bike_id": "5b091db85324434292508da80a181e8f", "lon": -77.03652483333333}, {"is_reserved": 0, "fusion_lon": 0.0, "fusion_lat": 0.0, "name": "27ad8ca75c04cf9d8a04b0cd6188ad1e", "type": "electric_scooter", "is_disabled": 0, "lat": 38.924878666666665, "rental_uris": {"android": "https://dc.lft.to/lastmile_qr_scan", "ios": "https://dc.lft.to/lastmile_qr_scan"}, "bike_id": "27ad8ca75c04cf9d8a04b0cd6188ad1e", "lon": -77.0269715}, {"is_reserved": 0, "fusion_lon": 0.0, "fusion_lat": 0.0, "name": "bf26816e076a64f7a4cf76ffebdd9de4", "type": "electric_scooter", "is_disabled": 0, "lat": 38.908621833333335, "rental_uris": {"android": "https://dc.lft.to/lastmile_qr_scan", "ios": "https://dc.lft.to/lastmile_qr_scan"}, "bike_id": "bf26816e076a64f7a4cf76ffebdd9de4", "lon": -77.08592666666667}, {"is_reserved": 0, "fusion_lon": 0.0, "fusion_lat": 0.0, "name": "36986fa79eaecdb5784515d4da6fa2e9", "type": "electric_bike", "is_disabled": 0, "lat": 38.86260716666666, "rental_uris": {"android": "https://dc.lft.to/lastmile_qr_scan", "ios": "https://dc.lft.to/lastmile_qr_scan"}, "bike_id": "36986fa79eaecdb5784515d4da6fa2e9", "lon": -76.98351766666667}, {"is_reserved": 0, "fusion_lon": 0.0, "fusion_lat": 0.0, "name": "41e4ccf196917f1c247dbb6346c677dc", "type": "electric_scooter", "is_disabled": 0, "lat": 38.91815183333333, "rental_uris": {"android": "https://dc.lft.to/lastmile_qr_scan", "ios": "https://dc.lft.to/lastmile_qr_scan"}, "bike_id": "41e4ccf196917f1c247dbb6346c677dc", "lon": -77.08945383333334}, {"is_reserved": 0, "fusion_lon": 0.0, "fusion_lat": 0.0, "name": "e662bfe0ceea8a727348452e63905c9b", "type": "electric_scooter", "is_disabled": 0, "lat": 38.91736066666667, "rental_uris": {"android": "https://dc.lft.to/lastmile_qr_scan", "ios": "https://dc.lft.to/lastmile_qr_scan"}, "bike_id": "e662bfe0ceea8a727348452e63905c9b", "lon": -77.02693633333334}, {"is_reserved": 0, "fusion_lon": 0.0, "fusion_lat": 0.0, "name": "b0254be8d597d546705c558d9756b0a4", "type": "electric_scooter", "is_disabled": 0, "lat": 38.93597, "rental_uris": {"android": "https://dc.lft.to/lastmile_qr_scan", "ios": "https://dc.lft.to/lastmile_qr_scan"}, "bike_id": "b0254be8d597d546705c558d9756b0a4", "lon": -77.03791516666666}, {"is_reserved": 0, "fusion_lon": 0.0, "fusion_lat": 0.0, "name": "8882bd19f4684931e2e4549b0696b906", "type": "electric_scooter", "is_disabled": 0, "lat": 38.930421833333334, "rental_uris": {"android": "https://dc.lft.to/lastmile_qr_scan", "ios": "https://dc.lft.to/lastmile_qr_scan"}, "bike_id": "8882bd19f4684931e2e4549b0696b906", "lon": -77.01217066666666}, {"is_reserved": 0, "fusion_lon": 0.0, "fusion_lat": 0.0, "name": "294ae266290b3878f4621f4a7b43d375", "type": "electric_bike", "is_disabled": 0, "lat": 38.963283, "rental_uris": {"android": "https://dc.lft.to/lastmile_qr_scan", "ios": "https://dc.lft.to/lastmile_qr_scan"}, "bike_id": "294ae266290b3878f4621f4a7b43d375", "lon": -76.97364016666667}, {"is_reserved": 0, "fusion_lon": 0.0, "fusion_lat": 0.0, "name": "e23c30fabe1bfaa8b884e4897ecdad9e", "type": "electric_scooter", "is_disabled": 0, "lat": 38.9233135, "rental_uris": {"android": "https://dc.lft.to/lastmile_qr_scan", "ios": "https://dc.lft.to/lastmile_qr_scan"}, "bike_id": "e23c30fabe1bfaa8b884e4897ecdad9e", "lon": -77.00045833333333}, {"is_reserved": 0, "fusion_lon": 0.0, "fusion_lat": 0.0, "name": "bd84376883b33504e19d1b888259ef89", "type": "electric_scooter", "is_disabled": 0, "lat": 38.85537683333333, "rental_uris": {"android": "https://dc.lft.to/lastmile_qr_scan", "ios": "https://dc.lft.to/lastmile_qr_scan"}, "bike_id": "bd84376883b33504e19d1b888259ef89", "lon": -76.98418166666667}, {"is_reserved": 0, "fusion_lon": 0.0, "fusion_lat": 0.0, "name": "bd30802946edad1dcd96f0812647cb95", "type": "electric_bike", "is_disabled": 0, "lat": 38.892920333333336, "rental_uris": {"android": "https://dc.lft.to/lastmile_qr_scan", "ios": "https://dc.lft.to/lastmile_qr_scan"}, "bike_id": "bd30802946edad1dcd96f0812647cb95", "lon": -76.9761645}, {"is_reserved": 0, "fusion_lon": 0.0, "fusion_lat": 0.0, "name": "f83ead4e0d037c2637427bc1ac41a80a", "type": "electric_scooter", "is_disabled": 0, "lat": 38.900848833333335, "rental_uris": {"android": "https://dc.lft.to/lastmile_qr_scan", "ios": "https://dc.lft.to/lastmile_qr_scan"}, "bike_id": "f83ead4e0d037c2637427bc1ac41a80a", "lon": -76.93014966666667}, {"is_reserved": 0, "fusion_lon": 0.0, "fusion_lat": 0.0, "name": "41cbe4a253c7c79334bccfdcf87324c6", "type": "electric_bike", "is_disabled": 0, "lat": 38.935636, "rental_uris": {"android": "https://dc.lft.to/lastmile_qr_scan", "ios": "https://dc.lft.to/lastmile_qr_scan"}, "bike_id": "41cbe4a253c7c79334bccfdcf87324c6", "lon": -77.108472}, {"is_reserved": 0, "fusion_lon": 0.0, "fusion_lat": 0.0, "name": "80cb4266a4c5e1db3bbff88502b5ef59", "type": "electric_scooter", "is_disabled": 0, "lat": 38.898702166666666, "rental_uris": {"android": "https://dc.lft.to/lastmile_qr_scan", "ios": "https://dc.lft.to/lastmile_qr_scan"}, "bike_id": "80cb4266a4c5e1db3bbff88502b5ef59", "lon": -76.92751766666666}, {"is_reserved": 0, "fusion_lon": 0.0, "fusion_lat": 0.0, "name": "c80c820875fd3553ae637ac4cc14575e", "type": "electric_bike", "is_disabled": 0, "lat": 38.9565275, "rental_uris": {"android": "https://dc.lft.to/lastmile_qr_scan", "ios": "https://dc.lft.to/lastmile_qr_scan"}, "bike_id": "c80c820875fd3553ae637ac4cc14575e", "lon": -77.01278716666667}, {"is_reserved": 0, "fusion_lon": 0.0, "fusion_lat": 0.0, "name": "c31fa16e50fdc295cd5404d22a64011b", "type": "electric_scooter", "is_disabled": 0, "lat": 38.91348966666666, "rental_uris": {"android": "https://dc.lft.to/lastmile_qr_scan", "ios": "https://dc.lft.to/lastmile_qr_scan"}, "bike_id": "c31fa16e50fdc295cd5404d22a64011b", "lon": -77.01546116666667}, {"is_reserved": 0, "fusion_lon": 0.0, "fusion_lat": 0.0, "name": "06b21ead7bdb352159ac482b3981cb0f", "type": "electric_scooter", "is_disabled": 0, "lat": 38.8899895, "rental_uris": {"android": "https://dc.lft.to/lastmile_qr_scan", "ios": "https://dc.lft.to/lastmile_qr_scan"}, "bike_id": "06b21ead7bdb352159ac482b3981cb0f", "lon": -77.04894133333333}, {"is_reserved": 0, "fusion_lon": 0.0, "fusion_lat": 0.0, "name": "81ab14e17c97774df530057d6648a166", "type": "electric_bike", "is_disabled": 0, "lat": 38.9650135, "rental_uris": {"android": "https://dc.lft.to/lastmile_qr_scan", "ios": "https://dc.lft.to/lastmile_qr_scan"}, "bike_id": "81ab14e17c97774df530057d6648a166", "lon": -77.02824266666667}, {"is_reserved": 0, "fusion_lon": 0.0, "fusion_lat": 0.0, "name": "4dfb6e0b4523569dd3216c08346daf9d", "type": "electric_scooter", "is_disabled": 0, "lat": 38.94122933333333, "rental_uris": {"android": "https://dc.lft.to/lastmile_qr_scan", "ios": "https://dc.lft.to/lastmile_qr_scan"}, "bike_id": "4dfb6e0b4523569dd3216c08346daf9d", "lon": -77.015387}, {"is_reserved": 0, "fusion_lon": 0.0, "fusion_lat": 0.0, "name": "82eaa5b8c39166e7195899367dfac58b", "type": "electric_scooter", "is_disabled": 0, "lat": 38.887170833333336, "rental_uris": {"android": "https://dc.lft.to/lastmile_qr_scan", "ios": "https://dc.lft.to/lastmile_qr_scan"}, "bike_id": "82eaa5b8c39166e7195899367dfac58b", "lon": -77.01776316666667}, {"is_reserved": 0, "fusion_lon": 0.0, "fusion_lat": 0.0, "name": "8e6f53afb0faab3ff0acf79a3076f734", "type": "electric_scooter", "is_disabled": 0, "lat": 38.884825166666666, "rental_uris": {"android": "https://dc.lft.to/lastmile_qr_scan", "ios": "https://dc.lft.to/lastmile_qr_scan"}, "bike_id": "8e6f53afb0faab3ff0acf79a3076f734", "lon": -76.926174}, {"is_reserved": 0, "fusion_lon": 0.0, "fusion_lat": 0.0, "name": "12ce2d74ba9da201409d539fd2979aca", "type": "electric_scooter", "is_disabled": 0, "lat": 38.91479616666667, "rental_uris": {"android": "https://dc.lft.to/lastmile_qr_scan", "ios": "https://dc.lft.to/lastmile_qr_scan"}, "bike_id": "12ce2d74ba9da201409d539fd2979aca", "lon": -76.98366016666667}, {"is_reserved": 0, "fusion_lon": 0.0, "fusion_lat": 0.0, "name": "d0c819e76b585e30a8ef845d3a6d625c", "type": "electric_scooter", "is_disabled": 0, "lat": 38.90065666666667, "rental_uris": {"android": "https://dc.lft.to/lastmile_qr_scan", "ios": "https://dc.lft.to/lastmile_qr_scan"}, "bike_id": "d0c819e76b585e30a8ef845d3a6d625c", "lon": -77.002023}, {"is_reserved": 0, "fusion_lon": 0.0, "fusion_lat": 0.0, "name": "8047abc5d07390b2e6867b94974913f7", "type": "electric_bike", "is_disabled": 0, "lat": 38.818349, "rental_uris": {"android": "https://dc.lft.to/lastmile_qr_scan", "ios": "https://dc.lft.to/lastmile_qr_scan"}, "bike_id": "8047abc5d07390b2e6867b94974913f7", "lon": -77.10571666666667}, {"is_reserved": 0, "fusion_lon": 0.0, "fusion_lat": 0.0, "name": "0af6cc9a5d037e21a6e87e6f17745b49", "type": "electric_scooter", "is_disabled": 0, "lat": 38.871827833333334, "rental_uris": {"android": "https://dc.lft.to/lastmile_qr_scan", "ios": "https://dc.lft.to/lastmile_qr_scan"}, "bike_id": "0af6cc9a5d037e21a6e87e6f17745b49", "lon": -77.00598233333334}, {"is_reserved": 0, "fusion_lon": 0.0, "fusion_lat": 0.0, "name": "252605f2223019a14637c2a1e684fcd7", "type": "electric_bike", "is_disabled": 0, "lat": 38.8662215, "rental_uris": {"android": "https://dc.lft.to/lastmile_qr_scan", "ios": "https://dc.lft.to/lastmile_qr_scan"}, "bike_id": "252605f2223019a14637c2a1e684fcd7", "lon": -76.94570883333333}, {"is_reserved": 0, "fusion_lon": 0.0, "fusion_lat": 0.0, "name": "f4b181c2395368b0afddbf346f58f809", "type": "electric_scooter", "is_disabled": 0, "lat": 38.898774, "rental_uris": {"android": "https://dc.lft.to/lastmile_qr_scan", "ios": "https://dc.lft.to/lastmile_qr_scan"}, "bike_id": "f4b181c2395368b0afddbf346f58f809", "lon": -76.9318695}, {"is_reserved": 0, "fusion_lon": 0.0, "fusion_lat": 0.0, "name": "7fd3822d117c558f4c40533b26521dd5", "type": "electric_scooter", "is_disabled": 0, "lat": 38.87472233333333, "rental_uris": {"android": "https://dc.lft.to/lastmile_qr_scan", "ios": "https://dc.lft.to/lastmile_qr_scan"}, "bike_id": "7fd3822d117c558f4c40533b26521dd5", "lon": -77.005588}, {"is_reserved": 0, "fusion_lon": 0.0, "fusion_lat": 0.0, "name": "745df23a393d45e06d0f87a4da64073f", "type": "electric_scooter", "is_disabled": 0, "lat": 38.904126833333336, "rental_uris": {"android": "https://dc.lft.to/lastmile_qr_scan", "ios": "https://dc.lft.to/lastmile_qr_scan"}, "bike_id": "745df23a393d45e06d0f87a4da64073f", "lon": -76.99834783333333}, {"is_reserved": 0, "fusion_lon": 0.0, "fusion_lat": 0.0, "name": "4f29698b4e67d38bf44bf7da2cc25f64", "type": "electric_scooter", "is_disabled": 0, "lat": 38.926134166666664, "rental_uris": {"android": "https://dc.lft.to/lastmile_qr_scan", "ios": "https://dc.lft.to/lastmile_qr_scan"}, "bike_id": "4f29698b4e67d38bf44bf7da2cc25f64", "lon": -77.0395645}, {"is_reserved": 0, "fusion_lon": 0.0, "fusion_lat": 0.0, "name": "dc9b5f1aca80317cb8b69303ad7bd660", "type": "electric_scooter", "is_disabled": 0, "lat": 38.8808635, "rental_uris": {"android": "https://dc.lft.to/lastmile_qr_scan", "ios": "https://dc.lft.to/lastmile_qr_scan"}, "bike_id": "dc9b5f1aca80317cb8b69303ad7bd660", "lon": -76.99836133333334}, {"is_reserved": 0, "fusion_lon": 0.0, "fusion_lat": 0.0, "name": "01746ff95e50525e127dd2b344c9dc20", "type": "electric_scooter", "is_disabled": 0, "lat": 38.91412066666667, "rental_uris": {"android": "https://dc.lft.to/lastmile_qr_scan", "ios": "https://dc.lft.to/lastmile_qr_scan"}, "bike_id": "01746ff95e50525e127dd2b344c9dc20", "lon": -77.049187}, {"is_reserved": 0, "fusion_lon": 0.0, "fusion_lat": 0.0, "name": "3096ab8f4640b50c1855b0ba7bd89461", "type": "electric_scooter", "is_disabled": 0, "lat": 38.9026965, "rental_uris": {"android": "https://dc.lft.to/lastmile_qr_scan", "ios": "https://dc.lft.to/lastmile_qr_scan"}, "bike_id": "3096ab8f4640b50c1855b0ba7bd89461", "lon": -77.0175855}, {"is_reserved": 0, "fusion_lon": 0.0, "fusion_lat": 0.0, "name": "299cea8666cb35e3885fb6a01bba0c2b", "type": "electric_scooter", "is_disabled": 0, "lat": 38.883835, "rental_uris": {"android": "https://dc.lft.to/lastmile_qr_scan", "ios": "https://dc.lft.to/lastmile_qr_scan"}, "bike_id": "299cea8666cb35e3885fb6a01bba0c2b", "lon": -77.03034966666667}, {"is_reserved": 0, "fusion_lon": 0.0, "fusion_lat": 0.0, "name": "b0a1981f5a2d418078f055c40d39ae63", "type": "electric_scooter", "is_disabled": 0, "lat": 38.92487, "rental_uris": {"android": "https://dc.lft.to/lastmile_qr_scan", "ios": "https://dc.lft.to/lastmile_qr_scan"}, "bike_id": "b0a1981f5a2d418078f055c40d39ae63", "lon": -77.03187966666667}, {"is_reserved": 0, "fusion_lon": 0.0, "fusion_lat": 0.0, "name": "d0ba517777115837775d2941ebcd1a74", "type": "electric_scooter", "is_disabled": 0, "lat": 38.87625, "rental_uris": {"android": "https://dc.lft.to/lastmile_qr_scan", "ios": "https://dc.lft.to/lastmile_qr_scan"}, "bike_id": "d0ba517777115837775d2941ebcd1a74", "lon": -77.012545}, {"is_reserved": 0, "fusion_lon": 0.0, "fusion_lat": 0.0, "name": "17d261386a29fed395cbc1034372d909", "type": "electric_scooter", "is_disabled": 0, "lat": 38.90613233333333, "rental_uris": {"android": "https://dc.lft.to/lastmile_qr_scan", "ios": "https://dc.lft.to/lastmile_qr_scan"}, "bike_id": "17d261386a29fed395cbc1034372d909", "lon": -76.98684833333333}, {"is_reserved": 0, "fusion_lon": 0.0, "fusion_lat": 0.0, "name": "3ef8e15d074d9a4e8c1253ea3a511266", "type": "electric_scooter", "is_disabled": 0, "lat": 38.917582833333334, "rental_uris": {"android": "https://dc.lft.to/lastmile_qr_scan", "ios": "https://dc.lft.to/lastmile_qr_scan"}, "bike_id": "3ef8e15d074d9a4e8c1253ea3a511266", "lon": -77.0122015}, {"is_reserved": 0, "fusion_lon": 0.0, "fusion_lat": 0.0, "name": "13f05f42cd0bdb23dbceda6a5119efbf", "type": "electric_scooter", "is_disabled": 0, "lat": 38.86007883333333, "rental_uris": {"android": "https://dc.lft.to/lastmile_qr_scan", "ios": "https://dc.lft.to/lastmile_qr_scan"}, "bike_id": "13f05f42cd0bdb23dbceda6a5119efbf", "lon": -76.98520933333333}, {"is_reserved": 0, "fusion_lon": 0.0, "fusion_lat": 0.0, "name": "ee489ecc6cd763af086a70bb2ad71aa3", "type": "electric_scooter", "is_disabled": 0, "lat": 38.89964616666666, "rental_uris": {"android": "https://dc.lft.to/lastmile_qr_scan", "ios": "https://dc.lft.to/lastmile_qr_scan"}, "bike_id": "ee489ecc6cd763af086a70bb2ad71aa3", "lon": -77.04525216666667}, {"is_reserved": 0, "fusion_lon": 0.0, "fusion_lat": 0.0, "name": "d26a0e58ec6acf74502c7e8337ebdf40", "type": "electric_scooter", "is_disabled": 0, "lat": 38.92099866666667, "rental_uris": {"android": "https://dc.lft.to/lastmile_qr_scan", "ios": "https://dc.lft.to/lastmile_qr_scan"}, "bike_id": "d26a0e58ec6acf74502c7e8337ebdf40", "lon": -76.993952}, {"is_reserved": 0, "fusion_lon": 0.0, "fusion_lat": 0.0, "name": "8c23dddde99d60a3c7e9439c2983b355", "type": "electric_scooter", "is_disabled": 0, "lat": 38.911777666666666, "rental_uris": {"android": "https://dc.lft.to/lastmile_qr_scan", "ios": "https://dc.lft.to/lastmile_qr_scan"}, "bike_id": "8c23dddde99d60a3c7e9439c2983b355", "lon": -77.003253}, {"is_reserved": 0, "fusion_lon": 0.0, "fusion_lat": 0.0, "name": "d56c062adc903471b29ba9f3e07726ff", "type": "electric_scooter", "is_disabled": 0, "lat": 38.9484315, "rental_uris": {"android": "https://dc.lft.to/lastmile_qr_scan", "ios": "https://dc.lft.to/lastmile_qr_scan"}, "bike_id": "d56c062adc903471b29ba9f3e07726ff", "lon": -77.02547833333334}, {"is_reserved": 0, "fusion_lon": 0.0, "fusion_lat": 0.0, "name": "0a8281304050ad907699839205a696ed", "type": "electric_scooter", "is_disabled": 0, "lat": 38.900401, "rental_uris": {"android": "https://dc.lft.to/lastmile_qr_scan", "ios": "https://dc.lft.to/lastmile_qr_scan"}, "bike_id": "0a8281304050ad907699839205a696ed", "lon": -77.04371566666667}, {"is_reserved": 0, "fusion_lon": 0.0, "fusion_lat": 0.0, "name": "15874d1ad90cb01d39f44b6f09b275d1", "type": "electric_scooter", "is_disabled": 0, "lat": 38.90397633333333, "rental_uris": {"android": "https://dc.lft.to/lastmile_qr_scan", "ios": "https://dc.lft.to/lastmile_qr_scan"}, "bike_id": "15874d1ad90cb01d39f44b6f09b275d1", "lon": -77.06780333333333}, {"is_reserved": 0, "fusion_lon": 0.0, "fusion_lat": 0.0, "name": "1a2a8e8893f22baeac78e988464e6af0", "type": "electric_bike", "is_disabled": 0, "lat": 38.911951, "rental_uris": {"android": "https://dc.lft.to/lastmile_qr_scan", "ios": "https://dc.lft.to/lastmile_qr_scan"}, "bike_id": "1a2a8e8893f22baeac78e988464e6af0", "lon": -77.01143616666667}, {"is_reserved": 0, "fusion_lon": 0.0, "fusion_lat": 0.0, "name": "e51cc6414fc1c9ba86a9336f00e097fc", "type": "electric_bike", "is_disabled": 0, "lat": 38.829128833333336, "rental_uris": {"android": "https://dc.lft.to/lastmile_qr_scan", "ios": "https://dc.lft.to/lastmile_qr_scan"}, "bike_id": "e51cc6414fc1c9ba86a9336f00e097fc", "lon": -76.99782116666667}, {"is_reserved": 0, "fusion_lon": 0.0, "fusion_lat": 0.0, "name": "fb44b71931fc6bfa54e45aafb8a46279", "type": "electric_scooter", "is_disabled": 0, "lat": 38.925235666666666, "rental_uris": {"android": "https://dc.lft.to/lastmile_qr_scan", "ios": "https://dc.lft.to/lastmile_qr_scan"}, "bike_id": "fb44b71931fc6bfa54e45aafb8a46279", "lon": -77.04424866666666}, {"is_reserved": 0, "fusion_lon": 0.0, "fusion_lat": 0.0, "name": "51c7bad6319835ee3bbefd2eeac8d0c6", "type": "electric_scooter", "is_disabled": 0, "lat": 38.906503666666666, "rental_uris": {"android": "https://dc.lft.to/lastmile_qr_scan", "ios": "https://dc.lft.to/lastmile_qr_scan"}, "bike_id": "51c7bad6319835ee3bbefd2eeac8d0c6", "lon": -77.00206966666667}, {"is_reserved": 0, "fusion_lon": 0.0, "fusion_lat": 0.0, "name": "cca4abb0fb6475c55c7f1d596b079c8c", "type": "electric_scooter", "is_disabled": 0, "lat": 38.9056145, "rental_uris": {"android": "https://dc.lft.to/lastmile_qr_scan", "ios": "https://dc.lft.to/lastmile_qr_scan"}, "bike_id": "cca4abb0fb6475c55c7f1d596b079c8c", "lon": -77.00577066666666}, {"is_reserved": 0, "fusion_lon": 0.0, "fusion_lat": 0.0, "name": "65c96230e04273f0185bf923e8783cb0", "type": "electric_scooter", "is_disabled": 0, "lat": 38.904359166666666, "rental_uris": {"android": "https://dc.lft.to/lastmile_qr_scan", "ios": "https://dc.lft.to/lastmile_qr_scan"}, "bike_id": "65c96230e04273f0185bf923e8783cb0", "lon": -77.02590816666667}, {"is_reserved": 0, "fusion_lon": 0.0, "fusion_lat": 0.0, "name": "3b3d7bb01d2a0eb4a678794bcfb72dc2", "type": "electric_scooter", "is_disabled": 0, "lat": 38.93033833333333, "rental_uris": {"android": "https://dc.lft.to/lastmile_qr_scan", "ios": "https://dc.lft.to/lastmile_qr_scan"}, "bike_id": "3b3d7bb01d2a0eb4a678794bcfb72dc2", "lon": -77.02780816666667}, {"is_reserved": 0, "fusion_lon": 0.0, "fusion_lat": 0.0, "name": "9908e3aee6cdec7a5cc45d6fe1d99b6c", "type": "electric_scooter", "is_disabled": 0, "lat": 38.90733566666667, "rental_uris": {"android": "https://dc.lft.to/lastmile_qr_scan", "ios": "https://dc.lft.to/lastmile_qr_scan"}, "bike_id": "9908e3aee6cdec7a5cc45d6fe1d99b6c", "lon": -77.02974883333333}, {"is_reserved": 0, "fusion_lon": 0.0, "fusion_lat": 0.0, "name": "3f93a3340bae4222c6ac919393952d70", "type": "electric_scooter", "is_disabled": 0, "lat": 38.93282883333333, "rental_uris": {"android": "https://dc.lft.to/lastmile_qr_scan", "ios": "https://dc.lft.to/lastmile_qr_scan"}, "bike_id": "3f93a3340bae4222c6ac919393952d70", "lon": -77.02545166666667}, {"is_reserved": 0, "fusion_lon": 0.0, "fusion_lat": 0.0, "name": "4d4b5bf9f1f596a3522f84e4312ede32", "type": "electric_scooter", "is_disabled": 0, "lat": 38.906078, "rental_uris": {"android": "https://dc.lft.to/lastmile_qr_scan", "ios": "https://dc.lft.to/lastmile_qr_scan"}, "bike_id": "4d4b5bf9f1f596a3522f84e4312ede32", "lon": -77.04045566666667}, {"is_reserved": 0, "fusion_lon": 0.0, "fusion_lat": 0.0, "name": "f7fe4bb24f69010cd7d0790b1b6c1086", "type": "electric_scooter", "is_disabled": 0, "lat": 38.89914866666667, "rental_uris": {"android": "https://dc.lft.to/lastmile_qr_scan", "ios": "https://dc.lft.to/lastmile_qr_scan"}, "bike_id": "f7fe4bb24f69010cd7d0790b1b6c1086", "lon": -77.03269766666666}, {"is_reserved": 0, "fusion_lon": 0.0, "fusion_lat": 0.0, "name": "3f5bd408b091fc44a5c7713b4e155318", "type": "electric_scooter", "is_disabled": 0, "lat": 38.91926866666667, "rental_uris": {"android": "https://dc.lft.to/lastmile_qr_scan", "ios": "https://dc.lft.to/lastmile_qr_scan"}, "bike_id": "3f5bd408b091fc44a5c7713b4e155318", "lon": -77.07895983333333}, {"is_reserved": 0, "fusion_lon": 0.0, "fusion_lat": 0.0, "name": "f0ce420bf997b082d3fa7857976b23cb", "type": "electric_bike", "is_disabled": 0, "lat": 38.87430066666667, "rental_uris": {"android": "https://dc.lft.to/lastmile_qr_scan", "ios": "https://dc.lft.to/lastmile_qr_scan"}, "bike_id": "f0ce420bf997b082d3fa7857976b23cb", "lon": -77.1083265}, {"is_reserved": 0, "fusion_lon": 0.0, "fusion_lat": 0.0, "name": "ccf2b002b2df53dd292df320c4da922c", "type": "electric_scooter", "is_disabled": 0, "lat": 38.922288333333334, "rental_uris": {"android": "https://dc.lft.to/lastmile_qr_scan", "ios": "https://dc.lft.to/lastmile_qr_scan"}, "bike_id": "ccf2b002b2df53dd292df320c4da922c", "lon": -77.04493383333333}, {"is_reserved": 0, "fusion_lon": 0.0, "fusion_lat": 0.0, "name": "197f77177498a9d65c504e1b7c654f22", "type": "electric_scooter", "is_disabled": 0, "lat": 38.91788316666667, "rental_uris": {"android": "https://dc.lft.to/lastmile_qr_scan", "ios": "https://dc.lft.to/lastmile_qr_scan"}, "bike_id": "197f77177498a9d65c504e1b7c654f22", "lon": -77.03459433333333}, {"is_reserved": 0, "fusion_lon": 0.0, "fusion_lat": 0.0, "name": "a933b6b345f617e81a9d0422e9c0083b", "type": "electric_scooter", "is_disabled": 0, "lat": 38.900424666666666, "rental_uris": {"android": "https://dc.lft.to/lastmile_qr_scan", "ios": "https://dc.lft.to/lastmile_qr_scan"}, "bike_id": "a933b6b345f617e81a9d0422e9c0083b", "lon": -77.03315116666667}, {"is_reserved": 0, "fusion_lon": 0.0, "fusion_lat": 0.0, "name": "03dc8d42d3f3a2489b0c567942e48805", "type": "electric_scooter", "is_disabled": 0, "lat": 38.8836425, "rental_uris": {"android": "https://dc.lft.to/lastmile_qr_scan", "ios": "https://dc.lft.to/lastmile_qr_scan"}, "bike_id": "03dc8d42d3f3a2489b0c567942e48805", "lon": -76.94156683333334}, {"is_reserved": 0, "fusion_lon": 0.0, "fusion_lat": 0.0, "name": "5fe6db89c0588afc74e41540900a7b42", "type": "electric_bike", "is_disabled": 0, "lat": 38.9113, "rental_uris": {"android": "https://dc.lft.to/lastmile_qr_scan", "ios": "https://dc.lft.to/lastmile_qr_scan"}, "bike_id": "5fe6db89c0588afc74e41540900a7b42", "lon": -77.0861495}, {"is_reserved": 0, "fusion_lon": 0.0, "fusion_lat": 0.0, "name": "fd6842b7c2f234daa37a942d2e990809", "type": "electric_scooter", "is_disabled": 0, "lat": 38.91265666666666, "rental_uris": {"android": "https://dc.lft.to/lastmile_qr_scan", "ios": "https://dc.lft.to/lastmile_qr_scan"}, "bike_id": "fd6842b7c2f234daa37a942d2e990809", "lon": -77.02256816666667}, {"is_reserved": 0, "fusion_lon": 0.0, "fusion_lat": 0.0, "name": "145ae7e4f597e0e566f2c347ba188ace", "type": "electric_scooter", "is_disabled": 0, "lat": 38.892185833333336, "rental_uris": {"android": "https://dc.lft.to/lastmile_qr_scan", "ios": "https://dc.lft.to/lastmile_qr_scan"}, "bike_id": "145ae7e4f597e0e566f2c347ba188ace", "lon": -76.99256283333334}, {"is_reserved": 0, "fusion_lon": 0.0, "fusion_lat": 0.0, "name": "6710339d0a316285a3041122840e6eb5", "type": "electric_scooter", "is_disabled": 0, "lat": 38.90488233333333, "rental_uris": {"android": "https://dc.lft.to/lastmile_qr_scan", "ios": "https://dc.lft.to/lastmile_qr_scan"}, "bike_id": "6710339d0a316285a3041122840e6eb5", "lon": -76.98227716666666}, {"is_reserved": 0, "fusion_lon": 0.0, "fusion_lat": 0.0, "name": "027e32fb0da3580d79206e26421af6dd", "type": "electric_scooter", "is_disabled": 0, "lat": 38.92881, "rental_uris": {"android": "https://dc.lft.to/lastmile_qr_scan", "ios": "https://dc.lft.to/lastmile_qr_scan"}, "bike_id": "027e32fb0da3580d79206e26421af6dd", "lon": -77.0332265}, {"is_reserved": 0, "fusion_lon": 0.0, "fusion_lat": 0.0, "name": "7c9f749814aeab197a9f41b0b2bfdc20", "type": "electric_scooter", "is_disabled": 0, "lat": 38.95069183333333, "rental_uris": {"android": "https://dc.lft.to/lastmile_qr_scan", "ios": "https://dc.lft.to/lastmile_qr_scan"}, "bike_id": "7c9f749814aeab197a9f41b0b2bfdc20", "lon": -77.06533316666666}, {"is_reserved": 0, "fusion_lon": 0.0, "fusion_lat": 0.0, "name": "32518e183cf703a580ba2a186b886b5f", "type": "electric_scooter", "is_disabled": 0, "lat": 38.907193666666664, "rental_uris": {"android": "https://dc.lft.to/lastmile_qr_scan", "ios": "https://dc.lft.to/lastmile_qr_scan"}, "bike_id": "32518e183cf703a580ba2a186b886b5f", "lon": -77.0298755}, {"is_reserved": 0, "fusion_lon": 0.0, "fusion_lat": 0.0, "name": "21c3b242e65d0d21d83b68c7a3782707", "type": "electric_scooter", "is_disabled": 0, "lat": 38.92208983333333, "rental_uris": {"android": "https://dc.lft.to/lastmile_qr_scan", "ios": "https://dc.lft.to/lastmile_qr_scan"}, "bike_id": "21c3b242e65d0d21d83b68c7a3782707", "lon": -77.0296455}, {"is_reserved": 0, "fusion_lon": 0.0, "fusion_lat": 0.0, "name": "65d1eafc7aaad86088817974f0bcbda1", "type": "electric_scooter", "is_disabled": 0, "lat": 38.92876233333333, "rental_uris": {"android": "https://dc.lft.to/lastmile_qr_scan", "ios": "https://dc.lft.to/lastmile_qr_scan"}, "bike_id": "65d1eafc7aaad86088817974f0bcbda1", "lon": -77.0333045}, {"is_reserved": 0, "fusion_lon": 0.0, "fusion_lat": 0.0, "name": "5991457d0d1df067c516523b053506bb", "type": "electric_scooter", "is_disabled": 0, "lat": 38.9026745, "rental_uris": {"android": "https://dc.lft.to/lastmile_qr_scan", "ios": "https://dc.lft.to/lastmile_qr_scan"}, "bike_id": "5991457d0d1df067c516523b053506bb", "lon": -77.0454135}, {"is_reserved": 0, "fusion_lon": 0.0, "fusion_lat": 0.0, "name": "0244db4c969ac7be7dc67987c3fbaafa", "type": "electric_scooter", "is_disabled": 0, "lat": 38.928541333333335, "rental_uris": {"android": "https://dc.lft.to/lastmile_qr_scan", "ios": "https://dc.lft.to/lastmile_qr_scan"}, "bike_id": "0244db4c969ac7be7dc67987c3fbaafa", "lon": -77.02730866666667}, {"is_reserved": 0, "fusion_lon": 0.0, "fusion_lat": 0.0, "name": "0fa57a12ecc3b13bd1a7cfb025bbcaa4", "type": "electric_scooter", "is_disabled": 0, "lat": 38.920078833333335, "rental_uris": {"android": "https://dc.lft.to/lastmile_qr_scan", "ios": "https://dc.lft.to/lastmile_qr_scan"}, "bike_id": "0fa57a12ecc3b13bd1a7cfb025bbcaa4", "lon": -77.02146366666666}, {"is_reserved": 0, "fusion_lon": 0.0, "fusion_lat": 0.0, "name": "edd2ab915ff2c88a4930c4d77ab5eded", "type": "electric_scooter", "is_disabled": 0, "lat": 38.909121, "rental_uris": {"android": "https://dc.lft.to/lastmile_qr_scan", "ios": "https://dc.lft.to/lastmile_qr_scan"}, "bike_id": "edd2ab915ff2c88a4930c4d77ab5eded", "lon": -77.07257883333334}, {"is_reserved": 0, "fusion_lon": 0.0, "fusion_lat": 0.0, "name": "74f25be8000d899f67f013614b4938c8", "type": "electric_scooter", "is_disabled": 0, "lat": 38.893177666666666, "rental_uris": {"android": "https://dc.lft.to/lastmile_qr_scan", "ios": "https://dc.lft.to/lastmile_qr_scan"}, "bike_id": "74f25be8000d899f67f013614b4938c8", "lon": -76.93976033333334}, {"is_reserved": 0, "fusion_lon": 0.0, "fusion_lat": 0.0, "name": "f007f1a4456f99173c7e46599c59d9e7", "type": "electric_scooter", "is_disabled": 0, "lat": 38.90434066666667, "rental_uris": {"android": "https://dc.lft.to/lastmile_qr_scan", "ios": "https://dc.lft.to/lastmile_qr_scan"}, "bike_id": "f007f1a4456f99173c7e46599c59d9e7", "lon": -77.05138966666667}, {"is_reserved": 0, "fusion_lon": 0.0, "fusion_lat": 0.0, "name": "57ddb390ff001df9bbc81c6bc3b6a34d", "type": "electric_bike", "is_disabled": 0, "lat": 38.901345, "rental_uris": {"android": "https://dc.lft.to/lastmile_qr_scan", "ios": "https://dc.lft.to/lastmile_qr_scan"}, "bike_id": "57ddb390ff001df9bbc81c6bc3b6a34d", "lon": -77.01775216666667}, {"is_reserved": 0, "fusion_lon": 0.0, "fusion_lat": 0.0, "name": "6334d5b97915cbf327ece10a579ed220", "type": "electric_scooter", "is_disabled": 0, "lat": 38.92724116666667, "rental_uris": {"android": "https://dc.lft.to/lastmile_qr_scan", "ios": "https://dc.lft.to/lastmile_qr_scan"}, "bike_id": "6334d5b97915cbf327ece10a579ed220", "lon": -77.03522066666666}, {"is_reserved": 0, "fusion_lon": 0.0, "fusion_lat": 0.0, "name": "7174ece72a58757e50d12fbd27460041", "type": "electric_scooter", "is_disabled": 0, "lat": 38.90140233333333, "rental_uris": {"android": "https://dc.lft.to/lastmile_qr_scan", "ios": "https://dc.lft.to/lastmile_qr_scan"}, "bike_id": "7174ece72a58757e50d12fbd27460041", "lon": -77.01307966666667}, {"is_reserved": 0, "fusion_lon": 0.0, "fusion_lat": 0.0, "name": "4ac86c093f55474da69d9baedeb2bbbe", "type": "electric_scooter", "is_disabled": 0, "lat": 38.92159083333333, "rental_uris": {"android": "https://dc.lft.to/lastmile_qr_scan", "ios": "https://dc.lft.to/lastmile_qr_scan"}, "bike_id": "4ac86c093f55474da69d9baedeb2bbbe", "lon": -77.021035}, {"is_reserved": 0, "fusion_lon": 0.0, "fusion_lat": 0.0, "name": "8d790b2b9d81aa85db1ebd7ed20c1e08", "type": "electric_bike", "is_disabled": 0, "lat": 38.83608616666667, "rental_uris": {"android": "https://dc.lft.to/lastmile_qr_scan", "ios": "https://dc.lft.to/lastmile_qr_scan"}, "bike_id": "8d790b2b9d81aa85db1ebd7ed20c1e08", "lon": -77.003811}, {"is_reserved": 0, "fusion_lon": 0.0, "fusion_lat": 0.0, "name": "5cce10f7ca3aaa0b24c8b317eb585434", "type": "electric_scooter", "is_disabled": 0, "lat": 38.92157433333333, "rental_uris": {"android": "https://dc.lft.to/lastmile_qr_scan", "ios": "https://dc.lft.to/lastmile_qr_scan"}, "bike_id": "5cce10f7ca3aaa0b24c8b317eb585434", "lon": -77.04221733333334}, {"is_reserved": 0, "fusion_lon": 0.0, "fusion_lat": 0.0, "name": "7d9ba0a5c34c1d6c8ded878a62156228", "type": "electric_scooter", "is_disabled": 0, "lat": 38.9025975, "rental_uris": {"android": "https://dc.lft.to/lastmile_qr_scan", "ios": "https://dc.lft.to/lastmile_qr_scan"}, "bike_id": "7d9ba0a5c34c1d6c8ded878a62156228", "lon": -77.03903466666667}, {"is_reserved": 0, "fusion_lon": 0.0, "fusion_lat": 0.0, "name": "a3e70c0db3555bb05dacf5de63c6995d", "type": "electric_scooter", "is_disabled": 0, "lat": 38.906000166666665, "rental_uris": {"android": "https://dc.lft.to/lastmile_qr_scan", "ios": "https://dc.lft.to/lastmile_qr_scan"}, "bike_id": "a3e70c0db3555bb05dacf5de63c6995d", "lon": -77.02227316666666}, {"is_reserved": 0, "fusion_lon": 0.0, "fusion_lat": 0.0, "name": "371e1b5d1a2b82ba15d605fb1b864c09", "type": "electric_scooter", "is_disabled": 0, "lat": 38.849913, "rental_uris": {"android": "https://dc.lft.to/lastmile_qr_scan", "ios": "https://dc.lft.to/lastmile_qr_scan"}, "bike_id": "371e1b5d1a2b82ba15d605fb1b864c09", "lon": -76.98345916666666}, {"is_reserved": 0, "fusion_lon": 0.0, "fusion_lat": 0.0, "name": "ad6f1e7a4a9c4c590cf2d71a69805a52", "type": "electric_scooter", "is_disabled": 0, "lat": 38.9018035, "rental_uris": {"android": "https://dc.lft.to/lastmile_qr_scan", "ios": "https://dc.lft.to/lastmile_qr_scan"}, "bike_id": "ad6f1e7a4a9c4c590cf2d71a69805a52", "lon": -76.92865083333334}, {"is_reserved": 0, "fusion_lon": 0.0, "fusion_lat": 0.0, "name": "7259bbb6183d968c501a047b171425ec", "type": "electric_scooter", "is_disabled": 0, "lat": 38.8585435, "rental_uris": {"android": "https://dc.lft.to/lastmile_qr_scan", "ios": "https://dc.lft.to/lastmile_qr_scan"}, "bike_id": "7259bbb6183d968c501a047b171425ec", "lon": -76.98564483333334}, {"is_reserved": 0, "fusion_lon": 0.0, "fusion_lat": 0.0, "name": "38007743d5609b8672a0e4132578538e", "type": "electric_bike", "is_disabled": 0, "lat": 38.81204283333334, "rental_uris": {"android": "https://dc.lft.to/lastmile_qr_scan", "ios": "https://dc.lft.to/lastmile_qr_scan"}, "bike_id": "38007743d5609b8672a0e4132578538e", "lon": -77.10837933333333}, {"is_reserved": 0, "fusion_lon": 0.0, "fusion_lat": 0.0, "name": "a747d04658ffd5c37873be470c5e96c0", "type": "electric_bike", "is_disabled": 0, "lat": 38.94893183333333, "rental_uris": {"android": "https://dc.lft.to/lastmile_qr_scan", "ios": "https://dc.lft.to/lastmile_qr_scan"}, "bike_id": "a747d04658ffd5c37873be470c5e96c0", "lon": -77.03444616666667}, {"is_reserved": 0, "fusion_lon": 0.0, "fusion_lat": 0.0, "name": "21ff635a4ec4efa463be06e3120601aa", "type": "electric_scooter", "is_disabled": 0, "lat": 38.901851666666666, "rental_uris": {"android": "https://dc.lft.to/lastmile_qr_scan", "ios": "https://dc.lft.to/lastmile_qr_scan"}, "bike_id": "21ff635a4ec4efa463be06e3120601aa", "lon": -77.013061}, {"is_reserved": 0, "fusion_lon": 0.0, "fusion_lat": 0.0, "name": "b690f53d3c9c1e8d44e43651e5f7ca3d", "type": "electric_scooter", "is_disabled": 0, "lat": 38.90139516666667, "rental_uris": {"android": "https://dc.lft.to/lastmile_qr_scan", "ios": "https://dc.lft.to/lastmile_qr_scan"}, "bike_id": "b690f53d3c9c1e8d44e43651e5f7ca3d", "lon": -77.04035783333333}, {"is_reserved": 0, "fusion_lon": 0.0, "fusion_lat": 0.0, "name": "02937d66e68bdd1cf9fa306824def692", "type": "electric_scooter", "is_disabled": 0, "lat": 38.926612, "rental_uris": {"android": "https://dc.lft.to/lastmile_qr_scan", "ios": "https://dc.lft.to/lastmile_qr_scan"}, "bike_id": "02937d66e68bdd1cf9fa306824def692", "lon": -77.02280983333333}, {"is_reserved": 0, "fusion_lon": 0.0, "fusion_lat": 0.0, "name": "44f3e2b184df14ccd97282030a9ad702", "type": "electric_bike", "is_disabled": 0, "lat": 38.964713, "rental_uris": {"android": "https://dc.lft.to/lastmile_qr_scan", "ios": "https://dc.lft.to/lastmile_qr_scan"}, "bike_id": "44f3e2b184df14ccd97282030a9ad702", "lon": -77.03559116666666}, {"is_reserved": 0, "fusion_lon": 0.0, "fusion_lat": 0.0, "name": "b2ae8c6a41f51f0136d1c4b3b6a9f7cb", "type": "electric_scooter", "is_disabled": 0, "lat": 38.91576083333333, "rental_uris": {"android": "https://dc.lft.to/lastmile_qr_scan", "ios": "https://dc.lft.to/lastmile_qr_scan"}, "bike_id": "b2ae8c6a41f51f0136d1c4b3b6a9f7cb", "lon": -77.0321025}, {"is_reserved": 0, "fusion_lon": 0.0, "fusion_lat": 0.0, "name": "e5f246123fe55cf618c279ea1112fce5", "type": "electric_scooter", "is_disabled": 0, "lat": 38.89628783333333, "rental_uris": {"android": "https://dc.lft.to/lastmile_qr_scan", "ios": "https://dc.lft.to/lastmile_qr_scan"}, "bike_id": "e5f246123fe55cf618c279ea1112fce5", "lon": -77.022081}, {"is_reserved": 0, "fusion_lon": 0.0, "fusion_lat": 0.0, "name": "fd543a9e7b3184ef2582d1f1f6a9f453", "type": "electric_scooter", "is_disabled": 0, "lat": 38.91664866666667, "rental_uris": {"android": "https://dc.lft.to/lastmile_qr_scan", "ios": "https://dc.lft.to/lastmile_qr_scan"}, "bike_id": "fd543a9e7b3184ef2582d1f1f6a9f453", "lon": -77.03841466666667}, {"is_reserved": 0, "fusion_lon": 0.0, "fusion_lat": 0.0, "name": "585a218291aa41b51f89506d17dd7934", "type": "electric_scooter", "is_disabled": 0, "lat": 38.9168595, "rental_uris": {"android": "https://dc.lft.to/lastmile_qr_scan", "ios": "https://dc.lft.to/lastmile_qr_scan"}, "bike_id": "585a218291aa41b51f89506d17dd7934", "lon": -77.02708866666667}, {"is_reserved": 0, "fusion_lon": 0.0, "fusion_lat": 0.0, "name": "d220d3130c236295f55e29cbcd3b43df", "type": "electric_scooter", "is_disabled": 0, "lat": 38.86414666666667, "rental_uris": {"android": "https://dc.lft.to/lastmile_qr_scan", "ios": "https://dc.lft.to/lastmile_qr_scan"}, "bike_id": "d220d3130c236295f55e29cbcd3b43df", "lon": -77.01227}, {"is_reserved": 0, "fusion_lon": 0.0, "fusion_lat": 0.0, "name": "86c57d628015536d6b81e3b1ab7039a3", "type": "electric_bike", "is_disabled": 0, "lat": 38.93059233333334, "rental_uris": {"android": "https://dc.lft.to/lastmile_qr_scan", "ios": "https://dc.lft.to/lastmile_qr_scan"}, "bike_id": "86c57d628015536d6b81e3b1ab7039a3", "lon": -77.03741533333333}, {"is_reserved": 0, "fusion_lon": 0.0, "fusion_lat": 0.0, "name": "a70b9d028bb86ce7e3a8d8ae7775794b", "type": "electric_scooter", "is_disabled": 0, "lat": 38.9155155, "rental_uris": {"android": "https://dc.lft.to/lastmile_qr_scan", "ios": "https://dc.lft.to/lastmile_qr_scan"}, "bike_id": "a70b9d028bb86ce7e3a8d8ae7775794b", "lon": -77.031605}, {"is_reserved": 0, "fusion_lon": 0.0, "fusion_lat": 0.0, "name": "b5047d7fa3b92b2a332b5484210e2371", "type": "electric_scooter", "is_disabled": 0, "lat": 38.8998835, "rental_uris": {"android": "https://dc.lft.to/lastmile_qr_scan", "ios": "https://dc.lft.to/lastmile_qr_scan"}, "bike_id": "b5047d7fa3b92b2a332b5484210e2371", "lon": -77.05549283333333}, {"is_reserved": 0, "fusion_lon": 0.0, "fusion_lat": 0.0, "name": "dfaa720c3a4d54f6c3348978d94c0b3c", "type": "electric_scooter", "is_disabled": 0, "lat": 38.90729533333333, "rental_uris": {"android": "https://dc.lft.to/lastmile_qr_scan", "ios": "https://dc.lft.to/lastmile_qr_scan"}, "bike_id": "dfaa720c3a4d54f6c3348978d94c0b3c", "lon": -77.02303266666667}, {"is_reserved": 0, "fusion_lon": 0.0, "fusion_lat": 0.0, "name": "6ca27ba44d4b9d4c989c73a2a1a3aacf", "type": "electric_scooter", "is_disabled": 0, "lat": 38.92082383333333, "rental_uris": {"android": "https://dc.lft.to/lastmile_qr_scan", "ios": "https://dc.lft.to/lastmile_qr_scan"}, "bike_id": "6ca27ba44d4b9d4c989c73a2a1a3aacf", "lon": -77.04686483333333}, {"is_reserved": 0, "fusion_lon": 0.0, "fusion_lat": 0.0, "name": "49bdeccc9dba7cf3bd06f03d5793dfb1", "type": "electric_scooter", "is_disabled": 0, "lat": 38.89979566666667, "rental_uris": {"android": "https://dc.lft.to/lastmile_qr_scan", "ios": "https://dc.lft.to/lastmile_qr_scan"}, "bike_id": "49bdeccc9dba7cf3bd06f03d5793dfb1", "lon": -77.00665266666667}, {"is_reserved": 0, "fusion_lon": 0.0, "fusion_lat": 0.0, "name": "0d65f9e3eb38776dda54470834548822", "type": "electric_scooter", "is_disabled": 0, "lat": 38.91813633333334, "rental_uris": {"android": "https://dc.lft.to/lastmile_qr_scan", "ios": "https://dc.lft.to/lastmile_qr_scan"}, "bike_id": "0d65f9e3eb38776dda54470834548822", "lon": -77.03573033333333}, {"is_reserved": 0, "fusion_lon": 0.0, "fusion_lat": 0.0, "name": "75128898e1b0d953ab5debfcd6e285ee", "type": "electric_scooter", "is_disabled": 0, "lat": 38.93711183333333, "rental_uris": {"android": "https://dc.lft.to/lastmile_qr_scan", "ios": "https://dc.lft.to/lastmile_qr_scan"}, "bike_id": "75128898e1b0d953ab5debfcd6e285ee", "lon": -77.02464866666666}, {"is_reserved": 0, "fusion_lon": 0.0, "fusion_lat": 0.0, "name": "94ac0374fb804c69e0dab8f2264d5c6e", "type": "electric_scooter", "is_disabled": 0, "lat": 38.867021666666666, "rental_uris": {"android": "https://dc.lft.to/lastmile_qr_scan", "ios": "https://dc.lft.to/lastmile_qr_scan"}, "bike_id": "94ac0374fb804c69e0dab8f2264d5c6e", "lon": -76.98711483333334}, {"is_reserved": 0, "fusion_lon": 0.0, "fusion_lat": 0.0, "name": "93e674d726a8d776fc988b8e55998bde", "type": "electric_scooter", "is_disabled": 0, "lat": 38.93142016666667, "rental_uris": {"android": "https://dc.lft.to/lastmile_qr_scan", "ios": "https://dc.lft.to/lastmile_qr_scan"}, "bike_id": "93e674d726a8d776fc988b8e55998bde", "lon": -77.04396666666666}, {"is_reserved": 0, "fusion_lon": 0.0, "fusion_lat": 0.0, "name": "c60af3aeaa6b53d4f8c6f42f96309e56", "type": "electric_scooter", "is_disabled": 0, "lat": 38.924355, "rental_uris": {"android": "https://dc.lft.to/lastmile_qr_scan", "ios": "https://dc.lft.to/lastmile_qr_scan"}, "bike_id": "c60af3aeaa6b53d4f8c6f42f96309e56", "lon": -77.00065916666667},