{"data": {"bikes": [{"is_disabled": 0, "is_reserved": 0, "fusion_lat": 0.0, "lat": 38.939914333333334, "fusion_lon": 0.0, "rental_uris": {"ios": "https://dc.lft.to/lastmile_qr_scan", "android": "https://dc.lft.to/lastmile_qr_scan"}, "lon": -77.02902016666667, "bike_id": "af88c5a97ee0dd01b1d36ca7cd22fd6a", "type": "electric_scooter", "name": "af88c5a97ee0dd01b1d36ca7cd22fd6a"}, {"is_disabled": 0, "is_reserved": 0, "fusion_lat": 0.0, "lat": 38.9045825, "fusion_lon": 0.0, "rental_uris": {"ios": "https://dc.lft.to/lastmile_qr_scan", "android": "https://dc.lft.to/lastmile_qr_scan"}, "lon": -76.932772, "bike_id": "e96b8972f1d85daa206127febed6a8b2", "type": "electric_scooter", "name": "e96b8972f1d85daa206127febed6a8b2"}, {"is_disabled": 0, "is_reserved": 0, "fusion_lat": 0.0, "lat": 38.92196666666667, "fusion_lon": 0.0, "rental_uris": {"ios": "https://dc.lft.to/lastmile_qr_scan", "android": "https://dc.lft.to/lastmile_qr_scan"}, "lon": -77.01838933333333, "bike_id": "59c534b8fe5d0c428bac2186b61d34c7", "type": "electric_scooter", "name": "59c534b8fe5d0c428bac2186b61d34c7"}, {"is_disabled": 0, "is_reserved": 0, "fusion_lat": 0.0, "lat": 38.9287575, "fusion_lon": 0.0, "rental_uris": {"ios": "https://dc.lft.to/lastmile_qr_scan", "android": "https://dc.lft.to/lastmile_qr_scan"}, "lon": -77.02964233333333, "bike_id": "5dbeecde409018fd5557993aae79b254", "type": "electric_scooter", "name": "5dbeecde409018fd5557993aae79b254"}, {"is_disabled": 0, "is_reserved": 0, "fusion_lat": 0.0, "lat": 38.90670016666667, "fusion_lon": 0.0, "rental_uris": {"ios": "https://dc.lft.to/lastmile_qr_scan", "android": "https://dc.lft.to/lastmile_qr_scan"}, "lon": -77.03441033333333, "bike_id": "41eeb9e54597ab0b7c16e6289a2e612c", "type": "electric_scooter", "name": "41eeb9e54597ab0b7c16e6289a2e612c"}, {"is_disabled": 0, "is_reserved": 0, "fusion_lat": 0.0, "lat": 38.90380783333333, "fusion_lon": 0.0, "rental_uris": {"ios": "https://dc.lft.to/lastmile_qr_scan", "android": "https://dc.lft.to/lastmile_qr_scan"}, "lon": -77.0162345, "bike_id": "2ce51a49c363ad4ba847b3636e1c0cbc", "type": "electric_scooter", "name": "2ce51a49c363ad4ba847b3636e1c0cbc"}, {"is_disabled": 0, "is_reserved": 0, "fusion_lat": 0.0, "lat": 38.822093, "fusion_lon": 0.0, "rental_uris": {"ios": "https://dc.lft.to/lastmile_qr_scan", "android": "https://dc.lft.to/lastmile_qr_scan"}, "lon": -76.977023, "bike_id": "a4cd284d81da92f3a1c48aa0451573dd", "type": "electric_bike", "name": "a4cd284d81da92f3a1c48aa0451573dd"}, {"is_disabled": 0, "is_reserved": 0, "fusion_lat": 0.0, "lat": 38.914762, "fusion_lon": 0.0, "rental_uris": {"ios": "https://dc.lft.to/lastmile_qr_scan", "android": "https://dc.lft.to/lastmile_qr_scan"}, "lon": -77.00197166666666, "bike_id": "09702b403321d260bb379e6b2f1eb738", "type": "electric_scooter", "name": "09702b403321d260bb379e6b2f1eb738"}, {"is_disabled": 0, "is_reserved": 0, "fusion_lat": 0.0, "lat": 38.9072065, "fusion_lon": 0.0, "rental_uris": {"ios": "https://dc.lft.to/lastmile_qr_scan", "android": "https://dc.lft.to/lastmile_qr_scan"}, "lon": -77.03501916666667, "bike_id": "4c45e562c3fa0546e16693fb8276661e", "type": "electric_scooter", "name": "4c45e562c3fa0546e16693fb8276661e"}, {"is_disabled": 0, "is_reserved": 0, "fusion_lat": 0.0, "lat": 38.928123166666666, "fusion_lon": 0.0, "rental_uris": {"ios": "https://dc.lft.to/lastmile_qr_scan", "android": "https://dc.lft.to/lastmile_qr_scan"}, "lon": -76.97604883333334, "bike_id": "f929be006b75953601ac3fc59a868588", "type": "electric_scooter", "name": "f929be006b75953601ac3fc59a868588"}, {"is_disabled": 0, "is_reserved": 0, "fusion_lat": 0.0, "lat": 38.892639833333334, "fusion_lon": 0.0, "rental_uris": {"ios": "https://dc.lft.to/lastmile_qr_scan", "android": "https://dc.lft.to/lastmile_qr_scan"}, "lon": -77.0467385, "bike_id": "20032ddc8df980585f134361923e2f2f", "type": "electric_scooter", "name": "20032ddc8df980585f134361923e2f2f"}, {"is_disabled": 0, "is_reserved": 0, "fusion_lat": 0.0, "lat": 38.9051515, "fusion_lon": 0.0, "rental_uris": {"ios": "https://dc.lft.to/lastmile_qr_scan", "android": "https://dc.lft.to/lastmile_qr_scan"}, "lon": -77.04848916666667, "bike_id": "7fb73a60cda5ad34934a3e7dd26b668e", "type": "electric_scooter", "name": "7fb73a60cda5ad34934a3e7dd26b668e"}, {"is_disabled": 0, "is_reserved": 0, "fusion_lat": 0.0, "lat": 38.9140385, "fusion_lon": 0.0, "rental_uris": {"ios": "https://dc.lft.to/lastmile_qr_scan", "android": "https://dc.lft.to/lastmile_qr_scan"}, "lon": -77.010718, "bike_id": "173dc318126a649edef587e4eca20430", "type": "electric_scooter", "name": "173dc318126a649edef587e4eca20430"}, {"is_disabled": 0, "is_reserved": 0, "fusion_lat": 0.0, "lat": 38.93363, "fusion_lon": 0.0, "rental_uris": {"ios": "https://dc.lft.to/lastmile_qr_scan", "android": "https://dc.lft.to/lastmile_qr_scan"}, "lon": -77.02841483333333, "bike_id": "12c015e175d4fcf98f4a8264027c322a", "type": "electric_scooter", "name": "12c015e175d4fcf98f4a8264027c322a"}, {"is_disabled": 0, "is_reserved": 0, "fusion_lat": 0.0, "lat": 38.90431233333334, "fusion_lon": 0.0, "rental_uris": {"ios": "https://dc.lft.to/lastmile_qr_scan", "android": "https://dc.lft.to/lastmile_qr_scan"}, "lon": -77.061163, "bike_id": "d43187a2d1604c5a6f083ddf2cc5d89f", "type": "electric_scooter", "name": "d43187a2d1604c5a6f083ddf2cc5d89f"}, {"is_disabled": 0, "is_reserved": 0, "fusion_lat": 0.0, "lat": 38.919554833333336, "fusion_lon": 0.0, "rental_uris": {"ios": "https://dc.lft.to/lastmile_qr_scan", "android": "https://dc.lft.to/lastmile_qr_scan"}, "lon": -77.02304766666667, "bike_id": "321cc5c27a44a4b045e70e9513f09ee3", "type": "electric_scooter", "name": "321cc5c27a44a4b045e70e9513f09ee3"}, {"is_disabled": 0, "is_reserved": 0, "fusion_lat": 0.0, "lat": 38.908131, "fusion_lon": 0.0, "rental_uris": {"ios": "https://dc.lft.to/lastmile_qr_scan", "android": "https://dc.lft.to/lastmile_qr_scan"}, "lon": -77.02532366666667, "bike_id": "12dbdc829db2133d61570e6e4bdd685e", "type": "electric_scooter", "name": "12dbdc829db2133d61570e6e4bdd685e"}, {"is_disabled": 0, "is_reserved": 0, "fusion_lat": 0.0, "lat": 38.944486833333336, "fusion_lon": 0.0, "rental_uris": {"ios": "https://dc.lft.to/lastmile_qr_scan", "android": "https://dc.lft.to/lastmile_qr_scan"}, "lon": -77.03285216666667, "bike_id": "af3fee8f4ad4e7492a61bec6a45f508b", "type": "electric_scooter", "name": "af3fee8f4ad4e7492a61bec6a45f508b"}, {"is_disabled": 0, "is_reserved": 0, "fusion_lat": 0.0, "lat": 38.906535833333336, "fusion_lon": 0.0, "rental_uris": {"ios": "https://dc.lft.to/lastmile_qr_scan", "android": "https://dc.lft.to/lastmile_qr_scan"}, "lon": -76.979441, "bike_id": "2f6564311baa8891d6d1d55a23721860", "type": "electric_scooter", "name": "2f6564311baa8891d6d1d55a23721860"}, {"is_disabled": 0, "is_reserved": 0, "fusion_lat": 0.0, "lat": 38.897166, "fusion_lon": 0.0, "rental_uris": {"ios": "https://dc.lft.to/lastmile_qr_scan", "android": "https://dc.lft.to/lastmile_qr_scan"}, "lon": -77.02412483333333, "bike_id": "73be5c5a7f13ceb2601f2e436eb75868", "type": "electric_scooter", "name": "73be5c5a7f13ceb2601f2e436eb75868"}, {"is_disabled": 0, "is_reserved": 0, "fusion_lat": 0.0, "lat": 38.9039475, "fusion_lon": 0.0, "rental_uris": {"ios": "https://dc.lft.to/lastmile_qr_scan", "android": "https://dc.lft.to/lastmile_qr_scan"}, "lon": -77.06297, "bike_id": "aa98bd3e7588aaa980a108d31fbf0c80", "type": "electric_scooter", "name": "aa98bd3e7588aaa980a108d31fbf0c80"}, {"is_disabled": 0, "is_reserved": 0, "fusion_lat": 0.0, "lat": 38.909574, "fusion_lon": 0.0, "rental_uris": {"ios": "https://dc.lft.to/lastmile_qr_scan", "android": "https://dc.lft.to/lastmile_qr_scan"}, "lon": -77.02282566666666, "bike_id": "52377f7c49fad8bd73d6549d2da44058", "type": "electric_bike", "name": "52377f7c49fad8bd73d6549d2da44058"}, {"is_disabled": 0, "is_reserved": 0, "fusion_lat": 0.0, "lat": 38.9161095, "fusion_lon": 0.0, "rental_uris": {"ios": "https://dc.lft.to/lastmile_qr_scan", "android": "https://dc.lft.to/lastmile_qr_scan"}, "lon": -77.02282316666667, "bike_id": "9b2a8d8b48f40e5c1db8ef1691589457", "type": "electric_scooter", "name": "9b2a8d8b48f40e5c1db8ef1691589457"}, {"is_disabled": 0, "is_reserved": 0, "fusion_lat": 0.0, "lat": 38.928735333333336, "fusion_lon": 0.0, "rental_uris": {"ios": "https://dc.lft.to/lastmile_qr_scan", "android": "https://dc.lft.to/lastmile_qr_scan"}, "lon": -77.03992916666667, "bike_id": "bcabba12fe0998e36cfd74b365a2acc3", "type": "electric_scooter", "name": "bcabba12fe0998e36cfd74b365a2acc3"}, {"is_disabled": 0, "is_reserved": 0, "fusion_lat": 0.0, "lat": 38.905083833333336, "fusion_lon": 0.0, "rental_uris": {"ios": "https://dc.lft.to/lastmile_qr_scan", "android": "https://dc.lft.to/lastmile_qr_scan"}, "lon": -77.00910033333334, "bike_id": "33f8f17d7785b740a178c050f418075b", "type": "electric_scooter", "name": "33f8f17d7785b740a178c050f418075b"}, {"is_disabled": 0, "is_reserved": 0, "fusion_lat": 0.0, "lat": 38.862616, "fusion_lon": 0.0, "rental_uris": {"ios": "https://dc.lft.to/lastmile_qr_scan", "android": "https://dc.lft.to/lastmile_qr_scan"}, "lon": -76.98354783333333, "bike_id": "159905288940967a12562378b35c590a", "type": "electric_bike", "name": "159905288940967a12562378b35c590a"}, {"is_disabled": 0, "is_reserved": 0, "fusion_lat": 0.0, "lat": 38.919101166666664, "fusion_lon": 0.0, "rental_uris": {"ios": "https://dc.lft.to/lastmile_qr_scan", "android": "https://dc.lft.to/lastmile_qr_scan"}, "lon": -77.06002083333334, "bike_id": "a26758d3d0bbc0d8fa1913a6daa051b7", "type": "electric_bike", "name": "a26758d3d0bbc0d8fa1913a6daa051b7"}, {"is_disabled": 0, "is_reserved": 0, "fusion_lat": 0.0, "lat": 38.855016666666664, "fusion_lon": 0.0, "rental_uris": {"ios": "https://dc.lft.to/lastmile_qr_scan", "android": "https://dc.lft.to/lastmile_qr_scan"}, "lon": -77.12051266666667, "bike_id": "0a11fcdab6405033a38fef7fdc18cb97", "type": "electric_bike", "name": "0a11fcdab6405033a38fef7fdc18cb97"}, {"is_disabled": 0, "is_reserved": 0, "fusion_lat": 0.0, "lat": 38.87464116666666, "fusion_lon": 0.0, "rental_uris": {"ios": "https://dc.lft.to/lastmile_qr_scan", "android": "https://dc.lft.to/lastmile_qr_scan"}, "lon": -77.0051195, "bike_id": "216251fb694f36cf414b06dfff7054f7", "type": "electric_scooter", "name": "216251fb694f36cf414b06dfff7054f7"}, {"is_disabled": 0, "is_reserved": 0, "fusion_lat": 0.0, "lat": 38.892342666666664, "fusion_lon": 0.0, "rental_uris": {"ios": "https://dc.lft.to/lastmile_qr_scan", "android": "https://dc.lft.to/lastmile_qr_scan"}, "lon": -77.0238515, "bike_id": "6129fbfa0890b5284cf05dec47b2d100", "type": "electric_scooter", "name": "6129fbfa0890b5284cf05dec47b2d100"}, {"is_disabled": 0, "is_reserved": 0, "fusion_lat": 0.0, "lat": 38.921705333333335, "fusion_lon": 0.0, "rental_uris": {"ios": "https://dc.lft.to/lastmile_qr_scan", "android": "https://dc.lft.to/lastmile_qr_scan"}, "lon": -77.01800616666667, "bike_id": "b5b465de339e19d4cc03474877f93382", "type": "electric_scooter", "name": "b5b465de339e19d4cc03474877f93382"}, {"is_disabled": 0, "is_reserved": 0, "fusion_lat": 0.0, "lat": 38.94177166666667, "fusion_lon": 0.0, "rental_uris": {"ios": "https://dc.lft.to/lastmile_qr_scan", "android": "https://dc.lft.to/lastmile_qr_scan"}, "lon": -77.03391266666667, "bike_id": "ad73958cdc4d18cbf9ddb0f2dcada8db", "type": "electric_scooter", "name": "ad73958cdc4d18cbf9ddb0f2dcada8db"}, {"is_disabled": 0, "is_reserved": 0, "fusion_lat": 0.0, "lat": 38.915126, "fusion_lon": 0.0, "rental_uris": {"ios": "https://dc.lft.to/lastmile_qr_scan", "android": "https://dc.lft.to/lastmile_qr_scan"}, "lon": -76.98371516666667, "bike_id": "601161ee74e610c4c3859ebf567988b4", "type": "electric_scooter", "name": "601161ee74e610c4c3859ebf567988b4"}, {"is_disabled": 0, "is_reserved": 0, "fusion_lat": 0.0, "lat": 38.92344083333333, "fusion_lon": 0.0, "rental_uris": {"ios": "https://dc.lft.to/lastmile_qr_scan", "android": "https://dc.lft.to/lastmile_qr_scan"}, "lon": -76.9986485, "bike_id": "9c451d9551183c504d0de308d558ee7d", "type": "electric_scooter", "name": "9c451d9551183c504d0de308d558ee7d"}, {"is_disabled": 0, "is_reserved": 0, "fusion_lat": 0.0, "lat": 38.90188916666666, "fusion_lon": 0.0, "rental_uris": {"ios": "https://dc.lft.to/lastmile_qr_scan", "android": "https://dc.lft.to/lastmile_qr_scan"}, "lon": -77.00213033333333, "bike_id": "560cf28189dd34af577ce70ccca0f7ad", "type": "electric_scooter", "name": "560cf28189dd34af577ce70ccca0f7ad"}, {"is_disabled": 0, "is_reserved": 0, "fusion_lat": 0.0, "lat": 38.88877566666667, "fusion_lon": 0.0, "rental_uris": {"ios": "https://dc.lft.to/lastmile_qr_scan", "android": "https://dc.lft.to/lastmile_qr_scan"}, "lon": -76.9570075, "bike_id": "b5f75896d45505ce91a4bb2f7ad83a59", "type": "electric_bike", "name": "b5f75896d45505ce91a4bb2f7ad83a59"}, {"is_disabled": 0, "is_reserved": 0, "fusion_lat": 0.0, "lat": 38.90327883333333, "fusion_lon": 0.0, "rental_uris": {"ios": "https://dc.lft.to/lastmile_qr_scan", "android": "https://dc.lft.to/lastmile_qr_scan"}, "lon": -77.039273, "bike_id": "3a3886cc0b2f7162a4b134eb6a5ddf1f", "type": "electric_scooter", "name": "3a3886cc0b2f7162a4b134eb6a5ddf1f"}, {"is_disabled": 0, "is_reserved": 0, "fusion_lat": 0.0, "lat": 38.873598666666666, "fusion_lon": 0.0, "rental_uris": {"ios": "https://dc.lft.to/lastmile_qr_scan", "android": "https://dc.lft.to/lastmile_qr_scan"}, "lon": -77.1187185, "bike_id": "fb30c9ea82b32792f8970ac7edfa54f2", "type": "electric_bike", "name": "fb30c9ea82b32792f8970ac7edfa54f2"}, {"is_disabled": 0, "is_reserved": 0, "fusion_lat": 0.0, "lat": 38.87964483333333, "fusion_lon": 0.0, "rental_uris": {"ios": "https://dc.lft.to/lastmile_qr_scan", "android": "https://dc.lft.to/lastmile_qr_scan"}, "lon": -76.931826, "bike_id": "7da2c9dc511ca2867d46cc7714d787c0", "type": "electric_bike", "name": "7da2c9dc511ca2867d46cc7714d787c0"}, {"is_disabled": 0, "is_reserved": 0, "fusion_lat": 0.0, "lat": 38.90267683333333, "fusion_lon": 0.0, "rental_uris": {"ios": "https://dc.lft.to/lastmile_qr_scan", "android": "https://dc.lft.to/lastmile_qr_scan"}, "lon": -77.00898233333334, "bike_id": "a2fbdceb34dee7b6da721cc65a8eca66", "type": "electric_scooter", "name": "a2fbdceb34dee7b6da721cc65a8eca66"}, {"is_disabled": 0, "is_reserved": 0, "fusion_lat": 0.0, "lat": 38.9080285, "fusion_lon": 0.0, "rental_uris": {"ios": "https://dc.lft.to/lastmile_qr_scan", "android": "https://dc.lft.to/lastmile_qr_scan"}, "lon": -77.00598616666667, "bike_id": "13430b58f38867afdb76e576916aba9d", "type": "electric_scooter", "name": "13430b58f38867afdb76e576916aba9d"}, {"is_disabled": 0, "is_reserved": 0, "fusion_lat": 0.0, "lat": 38.9235085, "fusion_lon": 0.0, "rental_uris": {"ios": "https://dc.lft.to/lastmile_qr_scan", "android": "https://dc.lft.to/lastmile_qr_scan"}, "lon": -77.03527783333334, "bike_id": "99602d405414299e67f4945aa7c3ad08", "type": "electric_scooter", "name": "99602d405414299e67f4945aa7c3ad08"}, {"is_disabled": 0, "is_reserved": 0, "fusion_lat": 0.0, "lat": 38.899645, "fusion_lon": 0.0, "rental_uris": {"ios": "https://dc.lft.to/lastmile_qr_scan", "android": "https://dc.lft.to/lastmile_qr_scan"}, "lon": -76.93766383333333, "bike_id": "cf8be74fea10013e9b875bd154e80bee", "type": "electric_scooter", "name": "cf8be74fea10013e9b875bd154e80bee"}, {"is_disabled": 0, "is_reserved": 0, "fusion_lat": 0.0, "lat": 38.92363116666667, "fusion_lon": 0.0, "rental_uris": {"ios": "https://dc.lft.to/lastmile_qr_scan", "android": "https://dc.lft.to/lastmile_qr_scan"}, "lon": -77.01915766666667, "bike_id": "8662f082a4c08a129558442c5444f834", "type": "electric_scooter", "name": "8662f082a4c08a129558442c5444f834"}, {"is_disabled": 0, "is_reserved": 0, "fusion_lat": 0.0, "lat": 38.908961166666664, "fusion_lon": 0.0, "rental_uris": {"ios": "https://dc.lft.to/lastmile_qr_scan", "android": "https://dc.lft.to/lastmile_qr_scan"}, "lon": -77.03395566666667, "bike_id": "8ac1b1eb22109fb0064a2601d59b26db", "type": "electric_scooter", "name": "8ac1b1eb22109fb0064a2601d59b26db"}, {"is_disabled": 0, "is_reserved": 0, "fusion_lat": 0.0, "lat": 38.907869833333336, "fusion_lon": 0.0, "rental_uris": {"ios": "https://dc.lft.to/lastmile_qr_scan", "android": "https://dc.lft.to/lastmile_qr_scan"}, "lon": -77.044758, "bike_id": "f1399c62c541fc6b2af9412feecf53cb", "type": "electric_scooter", "name": "f1399c62c541fc6b2af9412feecf53cb"}, {"is_disabled": 0, "is_reserved": 0, "fusion_lat": 0.0, "lat": 38.903431166666664, "fusion_lon": 0.0, "rental_uris": {"ios": "https://dc.lft.to/lastmile_qr_scan", "android": "https://dc.lft.to/lastmile_qr_scan"}, "lon": -76.9827995, "bike_id": "a88b423537526d2038dfc7924178be0e", "type": "electric_scooter", "name": "a88b423537526d2038dfc7924178be0e"}, {"is_disabled": 0, "is_reserved": 0, "fusion_lat": 0.0, "lat": 38.88442666666667, "fusion_lon": 0.0, "rental_uris": {"ios": "https://dc.lft.to/lastmile_qr_scan", "android": "https://dc.lft.to/lastmile_qr_scan"}, "lon": -76.935423, "bike_id": "b5da9ba9266f9ae9de9629d37014be5f", "type": "electric_scooter", "name": "b5da9ba9266f9ae9de9629d37014be5f"}, {"is_disabled": 0, "is_reserved": 0, "fusion_lat": 0.0, "lat": 38.923796, "fusion_lon": 0.0, "rental_uris": {"ios": "https://dc.lft.to/lastmile_qr_scan", "android": "https://dc.lft.to/lastmile_qr_scan"}, "lon": -77.03115766666667, "bike_id": "697004a29f422212f6cd340bbb258210", "type": "electric_scooter", "name": "697004a29f422212f6cd340bbb258210"}, {"is_disabled": 0, "is_reserved": 0, "fusion_lat": 0.0, "lat": 38.8829005, "fusion_lon": 0.0, "rental_uris": {"ios": "https://dc.lft.to/lastmile_qr_scan", "android": "https://dc.lft.to/lastmile_qr_scan"}, "lon": -76.93195516666667, "bike_id": "73203f190341787440a600370a560cf2", "type": "electric_scooter", "name": "73203f190341787440a600370a560cf2"}, {"is_disabled": 0, "is_reserved": 0, "fusion_lat": 0.0, "lat": 38.90014883333333, "fusion_lon": 0.0, "rental_uris": {"ios": "https://dc.lft.to/lastmile_qr_scan", "android": "https://dc.lft.to/lastmile_qr_scan"}, "lon": -77.00104, "bike_id": "c6e867d1be7f2c7a33d6c90bf0cae5c5", "type": "electric_scooter", "name": "c6e867d1be7f2c7a33d6c90bf0cae5c5"}, {"is_disabled": 0, "is_reserved": 0, "fusion_lat": 0.0, "lat": 38.830411166666664, "fusion_lon": 0.0, "rental_uris": {"ios": "https://dc.lft.to/lastmile_qr_scan", "android": "https://dc.lft.to/lastmile_qr_scan"}, "lon": -77.00832216666667, "bike_id": "6ec453552db63682990d83a929540073", "type": "electric_bike", "name": "6ec453552db63682990d83a929540073"}, {"is_disabled": 0, "is_reserved": 0, "fusion_lat": 0.0, "lat": 38.87680483333333, "fusion_lon": 0.0, "rental_uris": {"ios": "https://dc.lft.to/lastmile_qr_scan", "android": "https://dc.lft.to/lastmile_qr_scan"}, "lon": -77.00056633333334, "bike_id": "e14bc8557d0adfe3942993bc37c160e4", "type": "electric_scooter", "name": "e14bc8557d0adfe3942993bc37c160e4"}, {"is_disabled": 0, "is_reserved": 0, "fusion_lat": 0.0, "lat": 38.904822833333334, "fusion_lon": 0.0, "rental_uris": {"ios": "https://dc.lft.to/lastmile_qr_scan", "android": "https://dc.lft.to/lastmile_qr_scan"}, "lon": -77.0087775, "bike_id": "389b9507b11cf0e8af64bd2d30d37a37", "type": "electric_scooter", "name": "389b9507b11cf0e8af64bd2d30d37a37"}, {"is_disabled": 0, "is_reserved": 0, "fusion_lat": 0.0, "lat": 38.84570083333333, "fusion_lon": 0.0, "rental_uris": {"ios": "https://dc.lft.to/lastmile_qr_scan", "android": "https://dc.lft.to/lastmile_qr_scan"}, "lon": -77.07457766666667, "bike_id": "7978ef2d4aa6d02a3c3ebb40eba5e3c4", "type": "electric_bike", "name": "7978ef2d4aa6d02a3c3ebb40eba5e3c4"}, {"is_disabled": 0, "is_reserved": 0, "fusion_lat": 0.0, "lat": 38.92352483333333, "fusion_lon": 0.0, "rental_uris": {"ios": "https://dc.lft.to/lastmile_qr_scan", "android": "https://dc.lft.to/lastmile_qr_scan"}, "lon": -77.03376783333333, "bike_id": "f47a73d5b3cdac72b2fafa60ea5fb66f", "type": "electric_scooter", "name": "f47a73d5b3cdac72b2fafa60ea5fb66f"}, {"is_disabled": 0, "is_reserved": 0, "fusion_lat": 0.0, "lat": 38.8923195, "fusion_lon": 0.0, "rental_uris": {"ios": "https://dc.lft.to/lastmile_qr_scan", "android": "https://dc.lft.to/lastmile_qr_scan"}, "lon": -77.05006916666666, "bike_id": "4595320cf326576dac83d7d6ce2ecfb6", "type": "electric_scooter", "name": "4595320cf326576dac83d7d6ce2ecfb6"}, {"is_disabled": 0, "is_reserved": 0, "fusion_lat": 0.0, "lat": 38.916827166666664, "fusion_lon": 0.0, "rental_uris": {"ios": "https://dc.lft.to/lastmile_qr_scan", "android": "https://dc.lft.to/lastmile_qr_scan"}, "lon": -77.0956935, "bike_id": "1f9ec7e59111d746094f14cf201c3f76", "type": "electric_scooter", "name": "1f9ec7e59111d746094f14cf201c3f76"}, {"is_disabled": 0, "is_reserved": 0, "fusion_lat": 0.0, "lat": 38.92081666666667, "fusion_lon": 0.0, "rental_uris": {"ios": "https://dc.lft.to/lastmile_qr_scan", "android": "https://dc.lft.to/lastmile_qr_scan"}, "lon": -77.0235885, "bike_id": "0f8b78afb3e622fc45211be06df6134b", "type": "electric_scooter", "name": "0f8b78afb3e622fc45211be06df6134b"}, {"is_disabled": 0, "is_reserved": 0, "fusion_lat": 0.0, "lat": 38.939724, "fusion_lon": 0.0, "rental_uris": {"ios": "https://dc.lft.to/lastmile_qr_scan", "android": "https://dc.lft.to/lastmile_qr_scan"}, "lon": -77.034325, "bike_id": "1ea75319da4fcf5edc03de98814ec995", "type": "electric_scooter", "name": "1ea75319da4fcf5edc03de98814ec995"}, {"is_disabled": 0, "is_reserved": 0, "fusion_lat": 0.0, "lat": 38.920377333333334, "fusion_lon": 0.0, "rental_uris": {"ios": "https://dc.lft.to/lastmile_qr_scan", "android": "https://dc.lft.to/lastmile_qr_scan"}, "lon": -76.979576, "bike_id": "cb9f48d30f5be2c71846b145ae9dd930", "type": "electric_bike", "name": "cb9f48d30f5be2c71846b145ae9dd930"}, {"is_disabled": 0, "is_reserved": 0, "fusion_lat": 0.0, "lat": 38.913351666666664, "fusion_lon": 0.0, "rental_uris": {"ios": "https://dc.lft.to/lastmile_qr_scan", "android": "https://dc.lft.to/lastmile_qr_scan"}, "lon": -77.04329033333333, "bike_id": "b01cf59ef161426b705942724b4ee630", "type": "electric_scooter", "name": "b01cf59ef161426b705942724b4ee630"}, {"is_disabled": 0, "is_reserved": 0, "fusion_lat": 0.0, "lat": 39.003836666666665, "fusion_lon": 0.0, "rental_uris": {"ios": "https://dc.lft.to/lastmile_qr_scan", "android": "https://dc.lft.to/lastmile_qr_scan"}, "lon": -77.0128905, "bike_id": "a677e5002b6b4c92830f19cb944f10c3", "type": "electric_bike", "name": "a677e5002b6b4c92830f19cb944f10c3"}, {"is_disabled": 0, "is_reserved": 0, "fusion_lat": 0.0, "lat": 38.93080283333333, "fusion_lon": 0.0, "rental_uris": {"ios": "https://dc.lft.to/lastmile_qr_scan", "android": "https://dc.lft.to/lastmile_qr_scan"}, "lon": -77.07763816666667, "bike_id": "e3a15ffbfdc7f62a90afd168ad33c66e", "type": "electric_scooter", "name": "e3a15ffbfdc7f62a90afd168ad33c66e"}, {"is_disabled": 0, "is_reserved": 0, "fusion_lat": 0.0, "lat": 38.92572783333333, "fusion_lon": 0.0, "rental_uris": {"ios": "https://dc.lft.to/lastmile_qr_scan", "android": "https://dc.lft.to/lastmile_qr_scan"}, "lon": -76.99494083333333, "bike_id": "4a23e6f959197e4d578cdad0c4871e19", "type": "electric_scooter", "name": "4a23e6f959197e4d578cdad0c4871e19"}, {"is_disabled": 0, "is_reserved": 0, "fusion_lat": 0.0, "lat": 38.93122116666667, "fusion_lon": 0.0, "rental_uris": {"ios": "https://dc.lft.to/lastmile_qr_scan", "android": "https://dc.lft.to/lastmile_qr_scan"}, "lon": -77.03034166666667, "bike_id": "3d746906f9e8ba09fb702bd0171169f8", "type": "electric_scooter", "name": "3d746906f9e8ba09fb702bd0171169f8"}, {"is_disabled": 0, "is_reserved": 0, "fusion_lat": 0.0, "lat": 38.926823, "fusion_lon": 0.0, "rental_uris": {"ios": "https://dc.lft.to/lastmile_qr_scan", "android": "https://dc.lft.to/lastmile_qr_scan"}, "lon": -77.00859, "bike_id": "1e29aac56e009440bc00cd8a5b47770c", "type": "electric_scooter", "name": "1e29aac56e009440bc00cd8a5b47770c"}, {"is_disabled": 0, "is_reserved": 0, "fusion_lat": 0.0, "lat": 38.88507833333333, "fusion_lon": 0.0, "rental_uris": {"ios": "https://dc.lft.to/lastmile_qr_scan", "android": "https://dc.lft.to/lastmile_qr_scan"}, "lon": -76.99752816666667, "bike_id": "f58affb3a05106324333b2b309c6af79", "type": "electric_scooter", "name": "f58affb3a05106324333b2b309c6af79"}, {"is_disabled": 0, "is_reserved": 0, "fusion_lat": 0.0, "lat": 38.85793016666667, "fusion_lon": 0.0, "rental_uris": {"ios": "https://dc.lft.to/lastmile_qr_scan", "android": "https://dc.lft.to/lastmile_qr_scan"}, "lon": -76.98745, "bike_id": "93afc825826cd488e9ebfc20d8b2e7ce", "type": "electric_bike", "name": "93afc825826cd488e9ebfc20d8b2e7ce"}, {"is_disabled": 0, "is_reserved": 0, "fusion_lat": 0.0, "lat": 38.926193833333336, "fusion_lon": 0.0, "rental_uris": {"ios": "https://dc.lft.to/lastmile_qr_scan", "android": "https://dc.lft.to/lastmile_qr_scan"}, "lon": -76.99060983333334, "bike_id": "0ed1923b3d90061a6e8c12f236939bba", "type": "electric_scooter", "name": "0ed1923b3d90061a6e8c12f236939bba"}, {"is_disabled": 0, "is_reserved": 0, "fusion_lat": 0.0, "lat": 39.02621666666667, "fusion_lon": 0.0, "rental_uris": {"ios": "https://dc.lft.to/lastmile_qr_scan", "android": "https://dc.lft.to/lastmile_qr_scan"}, "lon": -77.03877533333333, "bike_id": "41f92046bdfcdbe064b3a4c19c31a25b", "type": "electric_bike", "name": "41f92046bdfcdbe064b3a4c19c31a25b"}, {"is_disabled": 0, "is_reserved": 0, "fusion_lat": 0.0, "lat": 38.91445233333334, "fusion_lon": 0.0, "rental_uris": {"ios": "https://dc.lft.to/lastmile_qr_scan", "android": "https://dc.lft.to/lastmile_qr_scan"}, "lon": -77.0228955, "bike_id": "37629f5fc195d3ad0ac2e20fa3c80eca", "type": "electric_scooter", "name": "37629f5fc195d3ad0ac2e20fa3c80eca"}, {"is_disabled": 0, "is_reserved": 0, "fusion_lat": 0.0, "lat": 38.875783166666665, "fusion_lon": 0.0, "rental_uris": {"ios": "https://dc.lft.to/lastmile_qr_scan", "android": "https://dc.lft.to/lastmile_qr_scan"}, "lon": -77.23410866666667, "bike_id": "a7fe3b39529bddb39ad8f812832547ee", "type": "electric_bike", "name": "a7fe3b39529bddb39ad8f812832547ee"}, {"is_disabled": 0, "is_reserved": 0, "fusion_lat": 0.0, "lat": 38.88045783333333, "fusion_lon": 0.0, "rental_uris": {"ios": "https://dc.lft.to/lastmile_qr_scan", "android": "https://dc.lft.to/lastmile_qr_scan"}, "lon": -76.92726083333334, "bike_id": "a961ed8d4e10e36ade03420b54b8f7ef", "type": "electric_scooter", "name": "a961ed8d4e10e36ade03420b54b8f7ef"}, {"is_disabled": 0, "is_reserved": 0, "fusion_lat": 0.0, "lat": 38.930341, "fusion_lon": 0.0, "rental_uris": {"ios": "https://dc.lft.to/lastmile_qr_scan", "android": "https://dc.lft.to/lastmile_qr_scan"}, "lon": -77.060762, "bike_id": "9c4db0e14bdc0313e66985b26e57c344", "type": "electric_scooter", "name": "9c4db0e14bdc0313e66985b26e57c344"}, {"is_disabled": 0, "is_reserved": 0, "fusion_lat": 0.0, "lat": 38.87634216666667, "fusion_lon": 0.0, "rental_uris": {"ios": "https://dc.lft.to/lastmile_qr_scan", "android": "https://dc.lft.to/lastmile_qr_scan"}, "lon": -77.00952666666667, "bike_id": "0bd5b9a2116260b4624ef0a9c9a3ad4b", "type": "electric_scooter", "name": "0bd5b9a2116260b4624ef0a9c9a3ad4b"}, {"is_disabled": 0, "is_reserved": 0, "fusion_lat": 0.0, "lat": 38.87072216666667, "fusion_lon": 0.0, "rental_uris": {"ios": "https://dc.lft.to/lastmile_qr_scan", "android": "https://dc.lft.to/lastmile_qr_scan"}, "lon": -76.9813075, "bike_id": "6f383a2c5a19a5d57ebf4757f9ffd69c", "type": "electric_scooter", "name": "6f383a2c5a19a5d57ebf4757f9ffd69c"}, {"is_disabled": 0, "is_reserved": 0, "fusion_lat": 0.0, "lat": 38.907297, "fusion_lon": 0.0, "rental_uris": {"ios": "https://dc.lft.to/lastmile_qr_scan", "android": "https://dc.lft.to/lastmile_qr_scan"}, "lon": -77.0232395, "bike_id": "573c59691ce83ce0ffe0cea812d5f2d4", "type": "electric_scooter", "name": "573c59691ce83ce0ffe0cea812d5f2d4"}, {"is_disabled": 0, "is_reserved": 0, "fusion_lat": 0.0, "lat": 38.885121166666664, "fusion_lon": 0.0, "rental_uris": {"ios": "https://dc.lft.to/lastmile_qr_scan", "android": "https://dc.lft.to/lastmile_qr_scan"}, "lon": -77.0281665, "bike_id": "ec9348d73da93f8a979220af8998728b", "type": "electric_scooter", "name": "ec9348d73da93f8a979220af8998728b"}, {"is_disabled": 0, "is_reserved": 0, "fusion_lat": 0.0, "lat": 38.91603683333334, "fusion_lon": 0.0, "rental_uris": {"ios": "https://dc.lft.to/lastmile_qr_scan", "android": "https://dc.lft.to/lastmile_qr_scan"}, "lon": -77.0386045, "bike_id": "2213703c96816981c1a13b9ee029cf9c", "type": "electric_scooter", "name": "2213703c96816981c1a13b9ee029cf9c"}, {"is_disabled": 0, "is_reserved": 0, "fusion_lat": 0.0, "lat": 38.920668166666665, "fusion_lon": 0.0, "rental_uris": {"ios": "https://dc.lft.to/lastmile_qr_scan", "android": "https://dc.lft.to/lastmile_qr_scan"}, "lon": -77.0454125, "bike_id": "1b15ac35c4b5777e9c858c234533e08b", "type": "electric_scooter", "name": "1b15ac35c4b5777e9c858c234533e08b"}, {"is_disabled": 0, "is_reserved": 0, "fusion_lat": 0.0, "lat": 38.846338333333335, "fusion_lon": 0.0, "rental_uris": {"ios": "https://dc.lft.to/lastmile_qr_scan", "android": "https://dc.lft.to/lastmile_qr_scan"}, "lon": -76.969083, "bike_id": "1e71839873dfbc7c706d99100f93f16c", "type": "electric_bike", "name": "1e71839873dfbc7c706d99100f93f16c"}, {"is_disabled": 0, "is_reserved": 0, "fusion_lat": 0.0, "lat": 38.834892833333335, "fusion_lon": 0.0, "rental_uris": {"ios": "https://dc.lft.to/lastmile_qr_scan", "android": "https://dc.lft.to/lastmile_qr_scan"}, "lon": -77.004347, "bike_id": "b2ce4fb36f4de3e4ff0f22bddc90b3a8", "type": "electric_bike", "name": "b2ce4fb36f4de3e4ff0f22bddc90b3a8"}, {"is_disabled": 0, "is_reserved": 0, "fusion_lat": 0.0, "lat": 38.974776166666665, "fusion_lon": 0.0, "rental_uris": {"ios": "https://dc.lft.to/lastmile_qr_scan", "android": "https://dc.lft.to/lastmile_qr_scan"}, "lon": -76.98670066666666, "bike_id": "18fc083a77291fb50270c7e827a803df", "type": "electric_bike", "name": "18fc083a77291fb50270c7e827a803df"}, {"is_disabled": 0, "is_reserved": 0, "fusion_lat": 0.0, "lat": 38.91043966666667, "fusion_lon": 0.0, "rental_uris": {"ios": "https://dc.lft.to/lastmile_qr_scan", "android": "https://dc.lft.to/lastmile_qr_scan"}, "lon": -77.00962883333334, "bike_id": "61ee4d09a92d1f38cd7092b95e8eafce", "type": "electric_scooter", "name": "61ee4d09a92d1f38cd7092b95e8eafce"}, {"is_disabled": 0, "is_reserved": 0, "fusion_lat": 0.0, "lat": 39.0229725, "fusion_lon": 0.0, "rental_uris": {"ios": "https://dc.lft.to/lastmile_qr_scan", "android": "https://dc.lft.to/lastmile_qr_scan"}, "lon": -77.02105233333333, "bike_id": "150b31c46e4fc842c6adf7523493df37", "type": "electric_bike", "name": "150b31c46e4fc842c6adf7523493df37"}, {"is_disabled": 0, "is_reserved": 0, "fusion_lat": 0.0, "lat": 38.90497466666667, "fusion_lon": 0.0, "rental_uris": {"ios": "https://dc.lft.to/lastmile_qr_scan", "android": "https://dc.lft.to/lastmile_qr_scan"}, "lon": -77.0259445, "bike_id": "ebf9507b091814149bd67ddb98742a25", "type": "electric_scooter", "name": "ebf9507b091814149bd67ddb98742a25"}, {"is_disabled": 0, "is_reserved": 0, "fusion_lat": 0.0, "lat": 38.92781133333333, "fusion_lon": 0.0, "rental_uris": {"ios": "https://dc.lft.to/lastmile_qr_scan", "android": "https://dc.lft.to/lastmile_qr_scan"}, "lon": -77.02965116666667, "bike_id": "d4181301ea0bef0ed9513b2a13e740c9", "type": "electric_bike", "name": "d4181301ea0bef0ed9513b2a13e740c9"}, {"is_disabled": 0, "is_reserved": 0, "fusion_lat": 0.0, "lat": 38.8985305, "fusion_lon": 0.0, "rental_uris": {"ios": "https://dc.lft.to/lastmile_qr_scan", "android": "https://dc.lft.to/lastmile_qr_scan"}, "lon": -77.00200683333334, "bike_id": "3884994e971d0c25c09a0b43b1448b20", "type": "electric_scooter", "name": "3884994e971d0c25c09a0b43b1448b20"}, {"is_disabled": 0, "is_reserved": 0, "fusion_lat": 0.0, "lat": 38.9057135, "fusion_lon": 0.0, "rental_uris": {"ios": "https://dc.lft.to/lastmile_qr_scan", "android": "https://dc.lft.to/lastmile_qr_scan"}, "lon": -76.98164416666667, "bike_id": "c750b07bdb79f012fd30696583d8cac2", "type": "electric_bike", "name": "c750b07bdb79f012fd30696583d8cac2"}, {"is_disabled": 0, "is_reserved": 0, "fusion_lat": 0.0, "lat": 38.91770966666667, "fusion_lon": 0.0, "rental_uris": {"ios": "https://dc.lft.to/lastmile_qr_scan", "android": "https://dc.lft.to/lastmile_qr_scan"}, "lon": -77.04057366666666, "bike_id": "354c2b34ef09c6df5a225f7113765139", "type": "electric_scooter", "name": "354c2b34ef09c6df5a225f7113765139"}, {"is_disabled": 0, "is_reserved": 0, "fusion_lat": 0.0, "lat": 38.899408666666666, "fusion_lon": 0.0, "rental_uris": {"ios": "https://dc.lft.to/lastmile_qr_scan", "android": "https://dc.lft.to/lastmile_qr_scan"}, "lon": -77.01491933333334, "bike_id": "1403c727046ea56ee342ac35d573d2e4", "type": "electric_scooter", "name": "1403c727046ea56ee342ac35d573d2e4"}, {"is_disabled": 0, "is_reserved": 0, "fusion_lat": 0.0, "lat": 38.9298325, "fusion_lon": 0.0, "rental_uris": {"ios": "https://dc.lft.to/lastmile_qr_scan", "android": "https://dc.lft.to/lastmile_qr_scan"}, "lon": -77.03888133333334, "bike_id": "34fcb58d5b0dcc2d82d14a0d3e60af70", "type": "electric_scooter", "name": "34fcb58d5b0dcc2d82d14a0d3e60af70"}, {"is_disabled": 0, "is_reserved": 0, "fusion_lat": 0.0, "lat": 38.910321833333334, "fusion_lon": 0.0, "rental_uris": {"ios": "https://dc.lft.to/lastmile_qr_scan", "android": "https://dc.lft.to/lastmile_qr_scan"}, "lon": -76.92334216666667, "bike_id": "f29acddc1dee7a20d821a512de43e511", "type": "electric_bike", "name": "f29acddc1dee7a20d821a512de43e511"}, {"is_disabled": 0, "is_reserved": 0, "fusion_lat": 0.0, "lat": 38.900272666666666, "fusion_lon": 0.0, "rental_uris": {"ios": "https://dc.lft.to/lastmile_qr_scan", "android": "https://dc.lft.to/lastmile_qr_scan"}, "lon": -77.00676116666666, "bike_id": "39a728d477631d5268a9ca70f90fe861", "type": "electric_scooter", "name": "39a728d477631d5268a9ca70f90fe861"}, {"is_disabled": 0, "is_reserved": 0, "fusion_lat": 0.0, "lat": 38.93247616666667, "fusion_lon": 0.0, "rental_uris": {"ios": "https://dc.lft.to/lastmile_qr_scan", "android": "https://dc.lft.to/lastmile_qr_scan"}, "lon": -77.0294165, "bike_id": "f293d63443794617c573d56f01b1dc35", "type": "electric_scooter", "name": "f293d63443794617c573d56f01b1dc35"}, {"is_disabled": 0, "is_reserved": 0, "fusion_lat": 0.0, "lat": 38.909155166666665, "fusion_lon": 0.0, "rental_uris": {"ios": "https://dc.lft.to/lastmile_qr_scan", "android": "https://dc.lft.to/lastmile_qr_scan"}, "lon": -77.04945833333333, "bike_id": "d2f976295c79b97731b9382f8142e628", "type": "electric_scooter", "name": "d2f976295c79b97731b9382f8142e628"}, {"is_disabled": 0, "is_reserved": 0, "fusion_lat": 0.0, "lat": 38.9135515, "fusion_lon": 0.0, "rental_uris": {"ios": "https://dc.lft.to/lastmile_qr_scan", "android": "https://dc.lft.to/lastmile_qr_scan"}, "lon": -76.97139783333333, "bike_id": "14909654ffd407e05029f3d766557cba", "type": "electric_scooter", "name": "14909654ffd407e05029f3d766557cba"}, {"is_disabled": 0, "is_reserved": 0, "fusion_lat": 0.0, "lat": 38.925014, "fusion_lon": 0.0, "rental_uris": {"ios": "https://dc.lft.to/lastmile_qr_scan", "android": "https://dc.lft.to/lastmile_qr_scan"}, "lon": -77.02356816666666, "bike_id": "5c8670fc251e93d1d3edf23e04537861", "type": "electric_scooter", "name": "5c8670fc251e93d1d3edf23e04537861"}, {"is_disabled": 0, "is_reserved": 0, "fusion_lat": 0.0, "lat": 38.92267183333333, "fusion_lon": 0.0, "rental_uris": {"ios": "https://dc.lft.to/lastmile_qr_scan", "android": "https://dc.lft.to/lastmile_qr_scan"}, "lon": -77.02970783333333, "bike_id": "61803b12d3bea8486691a5bdca4c6b8e", "type": "electric_scooter", "name": "61803b12d3bea8486691a5bdca4c6b8e"}, {"is_disabled": 0, "is_reserved": 0, "fusion_lat": 0.0, "lat": 38.94794433333333, "fusion_lon": 0.0, "rental_uris": {"ios": "https://dc.lft.to/lastmile_qr_scan", "android": "https://dc.lft.to/lastmile_qr_scan"}, "lon": -77.0789535, "bike_id": "7b5103472dffe4ecd1eddd65ac904bb3", "type": "electric_scooter", "name": "7b5103472dffe4ecd1eddd65ac904bb3"}, {"is_disabled": 0, "is_reserved": 0, "fusion_lat": 0.0, "lat": 38.884797666666664, "fusion_lon": 0.0, "rental_uris": {"ios": "https://dc.lft.to/lastmile_qr_scan", "android": "https://dc.lft.to/lastmile_qr_scan"}, "lon": -77.03174633333333, "bike_id": "496e8c7933fae6efd97ab25e5c8d050c", "type": "electric_bike", "name": "496e8c7933fae6efd97ab25e5c8d050c"}, {"is_disabled": 0, "is_reserved": 0, "fusion_lat": 0.0, "lat": 38.9638455, "fusion_lon": 0.0, "rental_uris": {"ios": "https://dc.lft.to/lastmile_qr_scan", "android": "https://dc.lft.to/lastmile_qr_scan"}, "lon": -77.01979983333334, "bike_id": "436af5e4b09dd194f912833001ac6300", "type": "electric_bike", "name": "436af5e4b09dd194f912833001ac6300"}, {"is_disabled": 0, "is_reserved": 0, "fusion_lat": 0.0, "lat": 38.8781845, "fusion_lon": 0.0, "rental_uris": {"ios": "https://dc.lft.to/lastmile_qr_scan", "android": "https://dc.lft.to/lastmile_qr_scan"}, "lon": -77.0044925, "bike_id": "86ca2655a376b65a669f7448c0efe1a0", "type": "electric_scooter", "name": "86ca2655a376b65a669f7448c0efe1a0"}, {"is_disabled": 0, "is_reserved": 0, "fusion_lat": 0.0, "lat": 38.95098383333333, "fusion_lon": 0.0, "rental_uris": {"ios": "https://dc.lft.to/lastmile_qr_scan", "android": "https://dc.lft.to/lastmile_qr_scan"}, "lon": -77.021981, "bike_id": "a84577dd988cf6bc7d62255b7f00bdd1", "type": "electric_scooter", "name": "a84577dd988cf6bc7d62255b7f00bdd1"}, {"is_disabled": 0, "is_reserved": 0, "fusion_lat": 0.0, "lat": 38.930646833333334, "fusion_lon": 0.0, "rental_uris": {"ios": "https://dc.lft.to/lastmile_qr_scan", "android": "https://dc.lft.to/lastmile_qr_scan"}, "lon": -77.03366766666667, "bike_id": "1ce97dbc164dfc9c07e1a696031f25f5", "type": "electric_scooter", "name": "1ce97dbc164dfc9c07e1a696031f25f5"}, {"is_disabled": 0, "is_reserved": 0, "fusion_lat": 0.0, "lat": 38.91806966666667, "fusion_lon": 0.0, "rental_uris": {"ios": "https://dc.lft.to/lastmile_qr_scan", "android": "https://dc.lft.to/lastmile_qr_scan"}, "lon": -77.0344245, "bike_id": "65148eb7c7d86e29e0a465ee99dcd68c", "type": "electric_scooter", "name": "65148eb7c7d86e29e0a465ee99dcd68c"}, {"is_disabled": 0, "is_reserved": 0, "fusion_lat": 0.0, "lat": 38.92077866666666, "fusion_lon": 0.0, "rental_uris": {"ios": "https://dc.lft.to/lastmile_qr_scan", "android": "https://dc.lft.to/lastmile_qr_scan"}, "lon": -77.024306, "bike_id": "b8d8f3ac451a0b90e6231ff8db8e708f", "type": "electric_scooter", "name": "b8d8f3ac451a0b90e6231ff8db8e708f"}, {"is_disabled": 0, "is_reserved": 0, "fusion_lat": 0.0, "lat": 38.9515095, "fusion_lon": 0.0, "rental_uris": {"ios": "https://dc.lft.to/lastmile_qr_scan", "android": "https://dc.lft.to/lastmile_qr_scan"}, "lon": -77.0186885, "bike_id": "8e67df053c6e777626f0d3db367c399e", "type": "electric_scooter", "name": "8e67df053c6e777626f0d3db367c399e"}, {"is_disabled": 0, "is_reserved": 0, "fusion_lat": 0.0, "lat": 38.898953, "fusion_lon": 0.0, "rental_uris": {"ios": "https://dc.lft.to/lastmile_qr_scan", "android": "https://dc.lft.to/lastmile_qr_scan"}, "lon": -77.050057, "bike_id": "7323c56bd936c7dcb2fdd8e1d759a6ea", "type": "electric_scooter", "name": "7323c56bd936c7dcb2fdd8e1d759a6ea"}, {"is_disabled": 0, "is_reserved": 0, "fusion_lat": 0.0, "lat": 38.923658833333334, "fusion_lon": 0.0, "rental_uris": {"ios": "https://dc.lft.to/lastmile_qr_scan", "android": "https://dc.lft.to/lastmile_qr_scan"}, "lon": -77.052425, "bike_id": "38e48640897d382a70ac69a03315b32f", "type": "electric_scooter", "name": "38e48640897d382a70ac69a03315b32f"}, {"is_disabled": 0, "is_reserved": 0, "fusion_lat": 0.0, "lat": 38.93083033333333, "fusion_lon": 0.0, "rental_uris": {"ios": "https://dc.lft.to/lastmile_qr_scan", "android": "https://dc.lft.to/lastmile_qr_scan"}, "lon": -77.02006, "bike_id": "de8046b69a06e10ffd7b586b40f209af", "type": "electric_scooter", "name": "de8046b69a06e10ffd7b586b40f209af"}, {"is_disabled": 0, "is_reserved": 0, "fusion_lat": 0.0, "lat": 38.82768683333333, "fusion_lon": 0.0, "rental_uris": {"ios": "https://dc.lft.to/lastmile_qr_scan", "android": "https://dc.lft.to/lastmile_qr_scan"}, "lon": -77.0601725, "bike_id": "65aa0696cd5e762952aa52712fad7204", "type": "electric_bike", "name": "65aa0696cd5e762952aa52712fad7204"}, {"is_disabled": 0, "is_reserved": 0, "fusion_lat": 0.0, "lat": 38.918237166666664, "fusion_lon": 0.0, "rental_uris": {"ios": "https://dc.lft.to/lastmile_qr_scan", "android": "https://dc.lft.to/lastmile_qr_scan"}, "lon": -77.01212083333333, "bike_id": "fee2eecb88a39f5ca62b093dc3bccf6d", "type": "electric_scooter", "name": "fee2eecb88a39f5ca62b093dc3bccf6d"}, {"is_disabled": 0, "is_reserved": 0, "fusion_lat": 0.0, "lat": 38.933478666666666, "fusion_lon": 0.0, "rental_uris": {"ios": "https://dc.lft.to/lastmile_qr_scan", "android": "https://dc.lft.to/lastmile_qr_scan"}, "lon": -77.060381, "bike_id": "4bba642445cf0282eb427dbf061a9a0c", "type": "electric_scooter", "name": "4bba642445cf0282eb427dbf061a9a0c"}, {"is_disabled": 0, "is_reserved": 0, "fusion_lat": 0.0, "lat": 38.956342, "fusion_lon": 0.0, "rental_uris": {"ios": "https://dc.lft.to/lastmile_qr_scan", "android": "https://dc.lft.to/lastmile_qr_scan"}, "lon": -77.02209933333333, "bike_id": "2558cb8c7ca246b3890f845682f9c36e", "type": "electric_scooter", "name": "2558cb8c7ca246b3890f845682f9c36e"}, {"is_disabled": 0, "is_reserved": 0, "fusion_lat": 0.0, "lat": 38.937551, "fusion_lon": 0.0, "rental_uris": {"ios": "https://dc.lft.to/lastmile_qr_scan", "android": "https://dc.lft.to/lastmile_qr_scan"}, "lon": -77.034351, "bike_id": "cbebe93b869e157b7d189ae759c75480", "type": "electric_scooter", "name": "cbebe93b869e157b7d189ae759c75480"}, {"is_disabled": 0, "is_reserved": 0, "fusion_lat": 0.0, "lat": 38.934548666666664, "fusion_lon": 0.0, "rental_uris": {"ios": "https://dc.lft.to/lastmile_qr_scan", "android": "https://dc.lft.to/lastmile_qr_scan"}, "lon": -77.02409116666666, "bike_id": "e89c036a18fa1039cf60bd71cd752c20", "type": "electric_scooter", "name": "e89c036a18fa1039cf60bd71cd752c20"}, {"is_disabled": 0, "is_reserved": 0, "fusion_lat": 0.0, "lat": 38.920588, "fusion_lon": 0.0, "rental_uris": {"ios": "https://dc.lft.to/lastmile_qr_scan", "android": "https://dc.lft.to/lastmile_qr_scan"}, "lon": -76.99887133333333, "bike_id": "b8758ee35c32d6efb1bef6a8e9c9c736", "type": "electric_scooter", "name": "b8758ee35c32d6efb1bef6a8e9c9c736"}, {"is_disabled": 0, "is_reserved": 0, "fusion_lat": 0.0, "lat": 38.848116, "fusion_lon": 0.0, "rental_uris": {"ios": "https://dc.lft.to/lastmile_qr_scan", "android": "https://dc.lft.to/lastmile_qr_scan"}, "lon": -77.08412516666667, "bike_id": "2879fa7c77a50bfe1df828d92fed10e1", "type": "electric_bike", "name": "2879fa7c77a50bfe1df828d92fed10e1"}, {"is_disabled": 0, "is_reserved": 0, "fusion_lat": 0.0, "lat": 38.910008166666664, "fusion_lon": 0.0, "rental_uris": {"ios": "https://dc.lft.to/lastmile_qr_scan", "android": "https://dc.lft.to/lastmile_qr_scan"}, "lon": -76.9861445, "bike_id": "a8f23e94c9485095143b84c0da6d09d3", "type": "electric_scooter", "name": "a8f23e94c9485095143b84c0da6d09d3"}, {"is_disabled": 0, "is_reserved": 0, "fusion_lat": 0.0, "lat": 38.91767433333333, "fusion_lon": 0.0, "rental_uris": {"ios": "https://dc.lft.to/lastmile_qr_scan", "android": "https://dc.lft.to/lastmile_qr_scan"}, "lon": -77.0234125, "bike_id": "cd0e0aefeafce081695ef83326567d22", "type": "electric_scooter", "name": "cd0e0aefeafce081695ef83326567d22"}, {"is_disabled": 0, "is_reserved": 0, "fusion_lat": 0.0, "lat": 38.9247925, "fusion_lon": 0.0, "rental_uris": {"ios": "https://dc.lft.to/lastmile_qr_scan", "android": "https://dc.lft.to/lastmile_qr_scan"}, "lon": -77.03750766666667, "bike_id": "311e790d72c7ebf7ee508ac67f02a8ca", "type": "electric_scooter", "name": "311e790d72c7ebf7ee508ac67f02a8ca"}, {"is_disabled": 0, "is_reserved": 0, "fusion_lat": 0.0, "lat": 38.90853716666667, "fusion_lon": 0.0, "rental_uris": {"ios": "https://dc.lft.to/lastmile_qr_scan", "android": "https://dc.lft.to/lastmile_qr_scan"}, "lon": -77.0009745, "bike_id": "679a52e5227df26a4439152e0fea4024", "type": "electric_scooter", "name": "679a52e5227df26a4439152e0fea4024"}, {"is_disabled": 0, "is_reserved": 0, "fusion_lat": 0.0, "lat": 38.917971666666666, "fusion_lon": 0.0, "rental_uris": {"ios": "https://dc.lft.to/lastmile_qr_scan", "android": "https://dc.lft.to/lastmile_qr_scan"}, "lon": -77.03205666666666, "bike_id": "b462bda056e6a26ba78f73f99d395a6e", "type": "electric_scooter", "name": "b462bda056e6a26ba78f73f99d395a6e"}, {"is_disabled": 0, "is_reserved": 0, "fusion_lat": 0.0, "lat": 38.8651305, "fusion_lon": 0.0, "rental_uris": {"ios": "https://dc.lft.to/lastmile_qr_scan", "android": "https://dc.lft.to/lastmile_qr_scan"}, "lon": -76.97317966666667, "bike_id": "dc9d93241b05b6864f2e7b78f66df0f3", "type": "electric_bike", "name": "dc9d93241b05b6864f2e7b78f66df0f3"}, {"is_disabled": 0, "is_reserved": 0, "fusion_lat": 0.0, "lat": 39.0053355, "fusion_lon": 0.0, "rental_uris": {"ios": "https://dc.lft.to/lastmile_qr_scan", "android": "https://dc.lft.to/lastmile_qr_scan"}, "lon": -77.104011, "bike_id": "47011781c91e1d0e364a225c4e792d07", "type": "electric_bike", "name": "47011781c91e1d0e364a225c4e792d07"}, {"is_disabled": 0, "is_reserved": 0, "fusion_lat": 0.0, "lat": 38.88522533333333, "fusion_lon": 0.0, "rental_uris": {"ios": "https://dc.lft.to/lastmile_qr_scan", "android": "https://dc.lft.to/lastmile_qr_scan"}, "lon": -76.99615233333333, "bike_id": "4c214344cf92913a2b9ec02b738a2558", "type": "electric_scooter", "name": "4c214344cf92913a2b9ec02b738a2558"}, {"is_disabled": 0, "is_reserved": 0, "fusion_lat": 0.0, "lat": 38.9078495, "fusion_lon": 0.0, "rental_uris": {"ios": "https://dc.lft.to/lastmile_qr_scan", "android": "https://dc.lft.to/lastmile_qr_scan"}, "lon": -77.04537083333334, "bike_id": "aaffa777f2400df0dff5167ea8686290", "type": "electric_scooter", "name": "aaffa777f2400df0dff5167ea8686290"}, {"is_disabled": 0, "is_reserved": 0, "fusion_lat": 0.0, "lat": 38.8810615, "fusion_lon": 0.0, "rental_uris": {"ios": "https://dc.lft.to/lastmile_qr_scan", "android": "https://dc.lft.to/lastmile_qr_scan"}, "lon": -77.0123365, "bike_id": "79bb5f473ebdb86c3428731d99e20e4d", "type": "electric_scooter", "name": "79bb5f473ebdb86c3428731d99e20e4d"}, {"is_disabled": 0, "is_reserved": 0, "fusion_lat": 0.0, "lat": 38.877395, "fusion_lon": 0.0, "rental_uris": {"ios": "https://dc.lft.to/lastmile_qr_scan", "android": "https://dc.lft.to/lastmile_qr_scan"}, "lon": -77.14872683333333, "bike_id": "584ce3e8121d9d5f3c25390393dc1e4d", "type": "electric_bike", "name": "584ce3e8121d9d5f3c25390393dc1e4d"}, {"is_disabled": 0, "is_reserved": 0, "fusion_lat": 0.0, "lat": 38.91205383333333, "fusion_lon": 0.0, "rental_uris": {"ios": "https://dc.lft.to/lastmile_qr_scan", "android": "https://dc.lft.to/lastmile_qr_scan"}, "lon": -77.0008545, "bike_id": "4b13b8ed4cd318c76e41e78673387f96", "type": "electric_scooter", "name": "4b13b8ed4cd318c76e41e78673387f96"}, {"is_disabled": 0, "is_reserved": 0, "fusion_lat": 0.0, "lat": 38.91333316666667, "fusion_lon": 0.0, "rental_uris": {"ios": "https://dc.lft.to/lastmile_qr_scan", "android": "https://dc.lft.to/lastmile_qr_scan"}, "lon": -77.0165785, "bike_id": "880770d1c9eda74614ea0964c20cf30f", "type": "electric_scooter", "name": "880770d1c9eda74614ea0964c20cf30f"}, {"is_disabled": 0, "is_reserved": 0, "fusion_lat": 0.0, "lat": 38.925503166666665, "fusion_lon": 0.0, "rental_uris": {"ios": "https://dc.lft.to/lastmile_qr_scan", "android": "https://dc.lft.to/lastmile_qr_scan"}, "lon": -77.00324616666667, "bike_id": "c8acf86d003b596ff9f731761f45a7fd", "type": "electric_scooter", "name": "c8acf86d003b596ff9f731761f45a7fd"}, {"is_disabled": 0, "is_reserved": 0, "fusion_lat": 0.0, "lat": 38.936630666666666, "fusion_lon": 0.0, "rental_uris": {"ios": "https://dc.lft.to/lastmile_qr_scan", "android": "https://dc.lft.to/lastmile_qr_scan"}, "lon": -77.0660965, "bike_id": "d66f65f54453ea70e4b98b2dd9539dac", "type": "electric_scooter", "name": "d66f65f54453ea70e4b98b2dd9539dac"}, {"is_disabled": 0, "is_reserved": 0, "fusion_lat": 0.0, "lat": 38.93062583333333, "fusion_lon": 0.0, "rental_uris": {"ios": "https://dc.lft.to/lastmile_qr_scan", "android": "https://dc.lft.to/lastmile_qr_scan"}, "lon": -77.04025916666667, "bike_id": "692ecc1c0ae0a38dadc9abf16653bc5d", "type": "electric_scooter", "name": "692ecc1c0ae0a38dadc9abf16653bc5d"}, {"is_disabled": 0, "is_reserved": 0, "fusion_lat": 0.0, "lat": 38.8976245, "fusion_lon": 0.0, "rental_uris": {"ios": "https://dc.lft.to/lastmile_qr_scan", "android": "https://dc.lft.to/lastmile_qr_scan"}, "lon": -77.02706833333333, "bike_id": "424fe2b5dad675c9f7d7eac1edf48b49", "type": "electric_scooter", "name": "424fe2b5dad675c9f7d7eac1edf48b49"}, {"is_disabled": 0, "is_reserved": 0, "fusion_lat": 0.0, "lat": 38.87782883333333, "fusion_lon": 0.0, "rental_uris": {"ios": "https://dc.lft.to/lastmile_qr_scan", "android": "https://dc.lft.to/lastmile_qr_scan"}, "lon": -77.00124866666667, "bike_id": "c30613fd3d960ed0729056adccc87889", "type": "electric_scooter", "name": "c30613fd3d960ed0729056adccc87889"}, {"is_disabled": 0, "is_reserved": 0, "fusion_lat": 0.0, "lat": 38.9311955, "fusion_lon": 0.0, "rental_uris": {"ios": "https://dc.lft.to/lastmile_qr_scan", "android": "https://dc.lft.to/lastmile_qr_scan"}, "lon": -77.02072266666667, "bike_id": "cdcc1712c4997531f9cc1d8b32987bec", "type": "electric_scooter", "name": "cdcc1712c4997531f9cc1d8b32987bec"}, {"is_disabled": 0, "is_reserved": 0, "fusion_lat": 0.0, "lat": 38.919334666666664, "fusion_lon": 0.0, "rental_uris": {"ios": "https://dc.lft.to/lastmile_qr_scan", "android": "https://dc.lft.to/lastmile_qr_scan"}, "lon": -77.04496333333333, "bike_id": "9f8b579ee7483bc806e119f103d52764", "type": "electric_scooter", "name": "9f8b579ee7483bc806e119f103d52764"}, {"is_disabled": 0, "is_reserved": 0, "fusion_lat": 0.0, "lat": 38.9162885, "fusion_lon": 0.0, "rental_uris": {"ios": "https://dc.lft.to/lastmile_qr_scan", "android": "https://dc.lft.to/lastmile_qr_scan"}, "lon": -77.0085605, "bike_id": "afa85d3f798bf6cff68e2a7f05aa505b", "type": "electric_scooter", "name": "afa85d3f798bf6cff68e2a7f05aa505b"}, {"is_disabled": 0, "is_reserved": 0, "fusion_lat": 0.0, "lat": 38.92211016666667, "fusion_lon": 0.0, "rental_uris": {"ios": "https://dc.lft.to/lastmile_qr_scan", "android": "https://dc.lft.to/lastmile_qr_scan"}, "lon": -77.03776, "bike_id": "221f244aab02b964e696d091cbed5744", "type": "electric_scooter", "name": "221f244aab02b964e696d091cbed5744"}, {"is_disabled": 0, "is_reserved": 0, "fusion_lat": 0.0, "lat": 38.924875666666665, "fusion_lon": 0.0, "rental_uris": {"ios": "https://dc.lft.to/lastmile_qr_scan", "android": "https://dc.lft.to/lastmile_qr_scan"}, "lon": -77.02660166666666, "bike_id": "d03d7f5e093dafeb2e7026156c763e43", "type": "electric_scooter", "name": "d03d7f5e093dafeb2e7026156c763e43"}, {"is_disabled": 0, "is_reserved": 0, "fusion_lat": 0.0, "lat": 38.935357333333336, "fusion_lon": 0.0, "rental_uris": {"ios": "https://dc.lft.to/lastmile_qr_scan", "android": "https://dc.lft.to/lastmile_qr_scan"}, "lon": -77.02350783333333, "bike_id": "8ce9b813242c32e78c8f08ddcadea789", "type": "electric_scooter", "name": "8ce9b813242c32e78c8f08ddcadea789"}, {"is_disabled": 0, "is_reserved": 0, "fusion_lat": 0.0, "lat": 38.928135166666664, "fusion_lon": 0.0, "rental_uris": {"ios": "https://dc.lft.to/lastmile_qr_scan", "android": "https://dc.lft.to/lastmile_qr_scan"}, "lon": -77.04352766666666, "bike_id": "6f1465870d40f05b00aac93c12a58a62", "type": "electric_scooter", "name": "6f1465870d40f05b00aac93c12a58a62"}, {"is_disabled": 0, "is_reserved": 0, "fusion_lat": 0.0, "lat": 38.90080916666667, "fusion_lon": 0.0, "rental_uris": {"ios": "https://dc.lft.to/lastmile_qr_scan", "android": "https://dc.lft.to/lastmile_qr_scan"}, "lon": -77.01874016666666, "bike_id": "1f9458c76c8af5d4b2083e75615bc973", "type": "electric_scooter", "name": "1f9458c76c8af5d4b2083e75615bc973"}, {"is_disabled": 0, "is_reserved": 0, "fusion_lat": 0.0, "lat": 38.92852116666667, "fusion_lon": 0.0, "rental_uris": {"ios": "https://dc.lft.to/lastmile_qr_scan", "android": "https://dc.lft.to/lastmile_qr_scan"}, "lon": -77.036015, "bike_id": "9ba534ded3f0c6a40352e4a1c012b7f9", "type": "electric_scooter", "name": "9ba534ded3f0c6a40352e4a1c012b7f9"}, {"is_disabled": 0, "is_reserved": 0, "fusion_lat": 0.0, "lat": 38.941429666666664, "fusion_lon": 0.0, "rental_uris": {"ios": "https://dc.lft.to/lastmile_qr_scan", "android": "https://dc.lft.to/lastmile_qr_scan"}, "lon": -77.02324966666667, "bike_id": "28795dd6826588512c975582ffc0fc75", "type": "electric_scooter", "name": "28795dd6826588512c975582ffc0fc75"}, {"is_disabled": 0, "is_reserved": 0, "fusion_lat": 0.0, "lat": 38.89611383333333, "fusion_lon": 0.0, "rental_uris": {"ios": "https://dc.lft.to/lastmile_qr_scan", "android": "https://dc.lft.to/lastmile_qr_scan"}, "lon": -77.02147566666666, "bike_id": "57ae170439fb9041383eb03b7d67444e", "type": "electric_scooter", "name": "57ae170439fb9041383eb03b7d67444e"}, {"is_disabled": 0, "is_reserved": 0, "fusion_lat": 0.0, "lat": 38.905031, "fusion_lon": 0.0, "rental_uris": {"ios": "https://dc.lft.to/lastmile_qr_scan", "android": "https://dc.lft.to/lastmile_qr_scan"}, "lon": -77.029423, "bike_id": "4b6be231f95ecde8e72067e82add2c2a", "type": "electric_scooter", "name": "4b6be231f95ecde8e72067e82add2c2a"}, {"is_disabled": 0, "is_reserved": 0, "fusion_lat": 0.0, "lat": 38.91553016666667, "fusion_lon": 0.0, "rental_uris": {"ios": "https://dc.lft.to/lastmile_qr_scan", "android": "https://dc.lft.to/lastmile_qr_scan"}, "lon": -77.05406833333333, "bike_id": "c24c9f18a7665e48c8e999a6a66bfdbb", "type": "electric_scooter", "name": "c24c9f18a7665e48c8e999a6a66bfdbb"}, {"is_disabled": 0, "is_reserved": 0, "fusion_lat": 0.0, "lat": 38.9120825, "fusion_lon": 0.0, "rental_uris": {"ios": "https://dc.lft.to/lastmile_qr_scan", "android": "https://dc.lft.to/lastmile_qr_scan"}, "lon": -77.02098383333333, "bike_id": "687e5639350f0a0bc670c03a24aa20ab", "type": "electric_scooter", "name": "687e5639350f0a0bc670c03a24aa20ab"}, {"is_disabled": 0, "is_reserved": 0, "fusion_lat": 0.0, "lat": 38.918252, "fusion_lon": 0.0, "rental_uris": {"ios": "https://dc.lft.to/lastmile_qr_scan", "android": "https://dc.lft.to/lastmile_qr_scan"}, "lon": -77.02529933333334, "bike_id": "e39cd701fd193f87a68c8fbacaf8c800", "type": "electric_scooter", "name": "e39cd701fd193f87a68c8fbacaf8c800"}, {"is_disabled": 0, "is_reserved": 0, "fusion_lat": 0.0, "lat": 38.930893166666664, "fusion_lon": 0.0, "rental_uris": {"ios": "https://dc.lft.to/lastmile_qr_scan", "android": "https://dc.lft.to/lastmile_qr_scan"}, "lon": -77.03168233333334, "bike_id": "a5e5f18bed27eb6cee51ee414a40dc2c", "type": "electric_scooter", "name": "a5e5f18bed27eb6cee51ee414a40dc2c"}, {"is_disabled": 0, "is_reserved": 0, "fusion_lat": 0.0, "lat": 38.91787333333333, "fusion_lon": 0.0, "rental_uris": {"ios": "https://dc.lft.to/lastmile_qr_scan", "android": "https://dc.lft.to/lastmile_qr_scan"}, "lon": -77.02300433333333, "bike_id": "ebf76dd539de4e630fb8b22ce3e5003d", "type": "electric_scooter", "name": "ebf76dd539de4e630fb8b22ce3e5003d"}, {"is_disabled": 0, "is_reserved": 0, "fusion_lat": 0.0, "lat": 38.921634, "fusion_lon": 0.0, "rental_uris": {"ios": "https://dc.lft.to/lastmile_qr_scan", "android": "https://dc.lft.to/lastmile_qr_scan"}, "lon": -77.03659216666667, "bike_id": "cc21d1dcc8fd55f19649cb968316042f", "type": "electric_scooter", "name": "cc21d1dcc8fd55f19649cb968316042f"}, {"is_disabled": 0, "is_reserved": 0, "fusion_lat": 0.0, "lat": 38.8689095, "fusion_lon": 0.0, "rental_uris": {"ios": "https://dc.lft.to/lastmile_qr_scan", "android": "https://dc.lft.to/lastmile_qr_scan"}, "lon": -76.99002916666667, "bike_id": "be8d652c5ed1b1d2bcd49df33f8f72ab", "type": "electric_scooter", "name": "be8d652c5ed1b1d2bcd49df33f8f72ab"}, {"is_disabled": 0, "is_reserved": 0, "fusion_lat": 0.0, "lat": 38.89608616666666, "fusion_lon": 0.0, "rental_uris": {"ios": "https://dc.lft.to/lastmile_qr_scan", "android": "https://dc.lft.to/lastmile_qr_scan"}, "lon": -76.98314633333334, "bike_id": "2ed6c73c7680b09ce14be631f785b3df", "type": "electric_scooter", "name": "2ed6c73c7680b09ce14be631f785b3df"}, {"is_disabled": 0, "is_reserved": 0, "fusion_lat": 0.0, "lat": 38.91735833333333, "fusion_lon": 0.0, "rental_uris": {"ios": "https://dc.lft.to/lastmile_qr_scan", "android": "https://dc.lft.to/lastmile_qr_scan"}, "lon": -77.02606666666667, "bike_id": "64d9d14afb2229d5fc3b4e64b2a59f9a", "type": "electric_scooter", "name": "64d9d14afb2229d5fc3b4e64b2a59f9a"}, {"is_disabled": 0, "is_reserved": 0, "fusion_lat": 0.0, "lat": 38.90084216666666, "fusion_lon": 0.0, "rental_uris": {"ios": "https://dc.lft.to/lastmile_qr_scan", "android": "https://dc.lft.to/lastmile_qr_scan"}, "lon": -77.05061966666666, "bike_id": "f34a48bd3c4f865892898e4cc41c3f7b", "type": "electric_scooter", "name": "f34a48bd3c4f865892898e4cc41c3f7b"}, {"is_disabled": 0, "is_reserved": 0, "fusion_lat": 0.0, "lat": 38.923156, "fusion_lon": 0.0, "rental_uris": {"ios": "https://dc.lft.to/lastmile_qr_scan", "android": "https://dc.lft.to/lastmile_qr_scan"}, "lon": -77.0380585, "bike_id": "bf242c84365401874b5962cd9b2b1f9e", "type": "electric_scooter", "name": "bf242c84365401874b5962cd9b2b1f9e"}, {"is_disabled": 0, "is_reserved": 0, "fusion_lat": 0.0, "lat": 38.876396166666666, "fusion_lon": 0.0, "rental_uris": {"ios": "https://dc.lft.to/lastmile_qr_scan", "android": "https://dc.lft.to/lastmile_qr_scan"}, "lon": -77.01599566666667, "bike_id": "b7678b438d85e05171ad048663cfafe1", "type": "electric_scooter", "name": "b7678b438d85e05171ad048663cfafe1"}, {"is_disabled": 0, "is_reserved": 0, "fusion_lat": 0.0, "lat": 38.91264983333333, "fusion_lon": 0.0, "rental_uris": {"ios": "https://dc.lft.to/lastmile_qr_scan", "android": "https://dc.lft.to/lastmile_qr_scan"}, "lon": -77.04715266666666, "bike_id": "5db4047d58f518801c98ba0290a59421", "type": "electric_scooter", "name": "5db4047d58f518801c98ba0290a59421"}, {"is_disabled": 0, "is_reserved": 0, "fusion_lat": 0.0, "lat": 38.945194, "fusion_lon": 0.0, "rental_uris": {"ios": "https://dc.lft.to/lastmile_qr_scan", "android": "https://dc.lft.to/lastmile_qr_scan"}, "lon": -77.0236835, "bike_id": "80dcec987a9d630bd2a309751d9aaee1", "type": "electric_bike", "name": "80dcec987a9d630bd2a309751d9aaee1"}, {"is_disabled": 0, "is_reserved": 0, "fusion_lat": 0.0, "lat": 38.928627666666664, "fusion_lon": 0.0, "rental_uris": {"ios": "https://dc.lft.to/lastmile_qr_scan", "android": "https://dc.lft.to/lastmile_qr_scan"}, "lon": -77.02989033333333, "bike_id": "58766f263c45bde393572ababd94883f", "type": "electric_scooter", "name": "58766f263c45bde393572ababd94883f"}, {"is_disabled": 0, "is_reserved": 0, "fusion_lat": 0.0, "lat": 38.92908333333333, "fusion_lon": 0.0, "rental_uris": {"ios": "https://dc.lft.to/lastmile_qr_scan", "android": "https://dc.lft.to/lastmile_qr_scan"}, "lon": -77.02617633333334, "bike_id": "73a3dc13705e97d4a02dd1eb94bbb8d6", "type": "electric_scooter", "name": "73a3dc13705e97d4a02dd1eb94bbb8d6"}, {"is_disabled": 0, "is_reserved": 0, "fusion_lat": 0.0, "lat": 38.876901833333335, "fusion_lon": 0.0, "rental_uris": {"ios": "https://dc.lft.to/lastmile_qr_scan", "android": "https://dc.lft.to/lastmile_qr_scan"}, "lon": -77.01765266666666, "bike_id": "e8213f39c3e89baec0908cfdd469a0d0", "type": "electric_scooter", "name": "e8213f39c3e89baec0908cfdd469a0d0"}, {"is_disabled": 0, "is_reserved": 0, "fusion_lat": 0.0, "lat": 38.94199116666667, "fusion_lon": 0.0, "rental_uris": {"ios": "https://dc.lft.to/lastmile_qr_scan", "android": "https://dc.lft.to/lastmile_qr_scan"}, "lon": -77.08826816666667, "bike_id": "8914c49ddd93c046fc381e478deb915c", "type": "electric_scooter", "name": "8914c49ddd93c046fc381e478deb915c"}, {"is_disabled": 0, "is_reserved": 0, "fusion_lat": 0.0, "lat": 38.90560983333334, "fusion_lon": 0.0, "rental_uris": {"ios": "https://dc.lft.to/lastmile_qr_scan", "android": "https://dc.lft.to/lastmile_qr_scan"}, "lon": -77.04851566666666, "bike_id": "3ce2958e30804219846d23c20f7aa89d", "type": "electric_scooter", "name": "3ce2958e30804219846d23c20f7aa89d"}, {"is_disabled": 0, "is_reserved": 0, "fusion_lat": 0.0, "lat": 38.906306666666666, "fusion_lon": 0.0, "rental_uris": {"ios": "https://dc.lft.to/lastmile_qr_scan", "android": "https://dc.lft.to/lastmile_qr_scan"}, "lon": -77.03363966666667, "bike_id": "f6a14c728edcc9880020b99334c628b8", "type": "electric_scooter", "name": "f6a14c728edcc9880020b99334c628b8"}, {"is_disabled": 0, "is_reserved": 0, "fusion_lat": 0.0, "lat": 38.895563833333334, "fusion_lon": 0.0, "rental_uris": {"ios": "https://dc.lft.to/lastmile_qr_scan", "android": "https://dc.lft.to/lastmile_qr_scan"}, "lon": -77.01671916666666, "bike_id": "539f419792059226882c319c643113bd", "type": "electric_scooter", "name": "539f419792059226882c319c643113bd"}, {"is_disabled": 0, "is_reserved": 0, "fusion_lat": 0.0, "lat": 38.923437666666665, "fusion_lon": 0.0, "rental_uris": {"ios": "https://dc.lft.to/lastmile_qr_scan", "android": "https://dc.lft.to/lastmile_qr_scan"}, "lon": -77.035272, "bike_id": "3af29b1293aaaed293470959ebdefb53", "type": "electric_scooter", "name": "3af29b1293aaaed293470959ebdefb53"}, {"is_disabled": 0, "is_reserved": 0, "fusion_lat": 0.0, "lat": 38.92565033333333, "fusion_lon": 0.0, "rental_uris": {"ios": "https://dc.lft.to/lastmile_qr_scan", "android": "https://dc.lft.to/lastmile_qr_scan"}, "lon": -77.02283283333334, "bike_id": "7b1676dd7d79b28bc44cd587613af314", "type": "electric_scooter", "name": "7b1676dd7d79b28bc44cd587613af314"}, {"is_disabled": 0, "is_reserved": 0, "fusion_lat": 0.0, "lat": 38.88547766666667, "fusion_lon": 0.0, "rental_uris": {"ios": "https://dc.lft.to/lastmile_qr_scan", "android": "https://dc.lft.to/lastmile_qr_scan"}, "lon": -76.92363466666667, "bike_id": "046dd9e42c1ed88ce2730cb3c74fcc13", "type": "electric_scooter", "name": "046dd9e42c1ed88ce2730cb3c74fcc13"}, {"is_disabled": 0, "is_reserved": 0, "fusion_lat": 0.0, "lat": 38.92208766666667, "fusion_lon": 0.0, "rental_uris": {"ios": "https://dc.lft.to/lastmile_qr_scan", "android": "https://dc.lft.to/lastmile_qr_scan"}, "lon": -77.08191766666667, "bike_id": "9f077d607117dff441ea64daecfcb401", "type": "electric_bike", "name": "9f077d607117dff441ea64daecfcb401"}, {"is_disabled": 0, "is_reserved": 0, "fusion_lat": 0.0, "lat": 38.913373166666666, "fusion_lon": 0.0, "rental_uris": {"ios": "https://dc.lft.to/lastmile_qr_scan", "android": "https://dc.lft.to/lastmile_qr_scan"}, "lon": -77.01625033333333, "bike_id": "0d183d7222e0b36a60478bad5a469dc4", "type": "electric_scooter", "name": "0d183d7222e0b36a60478bad5a469dc4"}, {"is_disabled": 0, "is_reserved": 0, "fusion_lat": 0.0, "lat": 38.89435116666667, "fusion_lon": 0.0, "rental_uris": {"ios": "https://dc.lft.to/lastmile_qr_scan", "android": "https://dc.lft.to/lastmile_qr_scan"}, "lon": -77.01081933333333, "bike_id": "2627538d82e72bab7f3029852bd070ee", "type": "electric_scooter", "name": "2627538d82e72bab7f3029852bd070ee"}, {"is_disabled": 0, "is_reserved": 0, "fusion_lat": 0.0, "lat": 38.885329666666664, "fusion_lon": 0.0, "rental_uris": {"ios": "https://dc.lft.to/lastmile_qr_scan", "android": "https://dc.lft.to/lastmile_qr_scan"}, "lon": -76.98055433333333, "bike_id": "209290310d2f007dc66d2151160b631a", "type": "electric_scooter", "name": "209290310d2f007dc66d2151160b631a"}, {"is_disabled": 0, "is_reserved": 0, "fusion_lat": 0.0, "lat": 38.956804, "fusion_lon": 0.0, "rental_uris": {"ios": "https://dc.lft.to/lastmile_qr_scan", "android": "https://dc.lft.to/lastmile_qr_scan"}, "lon": -77.02237133333334, "bike_id": "851996dccbb3b55d4f0a8fda33602248", "type": "electric_scooter", "name": "851996dccbb3b55d4f0a8fda33602248"}, {"is_disabled": 0, "is_reserved": 0, "fusion_lat": 0.0, "lat": 38.95750116666667, "fusion_lon": 0.0, "rental_uris": {"ios": "https://dc.lft.to/lastmile_qr_scan", "android": "https://dc.lft.to/lastmile_qr_scan"}, "lon": -77.02209916666666, "bike_id": "367bed749244bd6d26a2a7b261aa98ae", "type": "electric_scooter", "name": "367bed749244bd6d26a2a7b261aa98ae"}, {"is_disabled": 0, "is_reserved": 0, "fusion_lat": 0.0, "lat": 38.8962485, "fusion_lon": 0.0, "rental_uris": {"ios": "https://dc.lft.to/lastmile_qr_scan", "android": "https://dc.lft.to/lastmile_qr_scan"}, "lon": -76.90754183333334, "bike_id": "6de8ceb3445ae29b0f3a7d9ccd2d3f56", "type": "electric_bike", "name": "6de8ceb3445ae29b0f3a7d9ccd2d3f56"}, {"is_disabled": 0, "is_reserved": 0, "fusion_lat": 0.0, "lat": 38.874960333333334, "fusion_lon": 0.0, "rental_uris": {"ios": "https://dc.lft.to/lastmile_qr_scan", "android": "https://dc.lft.to/lastmile_qr_scan"}, "lon": -77.00078733333334, "bike_id": "0e90ad778d097180dd3d2431b12b386c", "type": "electric_scooter", "name": "0e90ad778d097180dd3d2431b12b386c"}, {"is_disabled": 0, "is_reserved": 0, "fusion_lat": 0.0, "lat": 38.92295166666667, "fusion_lon": 0.0, "rental_uris": {"ios": "https://dc.lft.to/lastmile_qr_scan", "android": "https://dc.lft.to/lastmile_qr_scan"}, "lon": -77.0297845, "bike_id": "b9e9fbd6442b80b96ac774c826917062", "type": "electric_scooter", "name": "b9e9fbd6442b80b96ac774c826917062"}, {"is_disabled": 0, "is_reserved": 0, "fusion_lat": 0.0, "lat": 38.900303, "fusion_lon": 0.0, "rental_uris": {"ios": "https://dc.lft.to/lastmile_qr_scan", "android": "https://dc.lft.to/lastmile_qr_scan"}, "lon": -77.00371416666667, "bike_id": "b8aad654ee4d20e2a3f657d8ee5fb2c7", "type": "electric_scooter", "name": "b8aad654ee4d20e2a3f657d8ee5fb2c7"}, {"is_disabled": 0, "is_reserved": 0, "fusion_lat": 0.0, "lat": 38.87294283333333, "fusion_lon": 0.0, "rental_uris": {"ios": "https://dc.lft.to/lastmile_qr_scan", "android": "https://dc.lft.to/lastmile_qr_scan"}, "lon": -77.00987416666666, "bike_id": "daf75b703cfb9aa964109c8082519517", "type": "electric_scooter", "name": "daf75b703cfb9aa964109c8082519517"}, {"is_disabled": 0, "is_reserved": 0, "fusion_lat": 0.0, "lat": 38.92666416666667, "fusion_lon": 0.0, "rental_uris": {"ios": "https://dc.lft.to/lastmile_qr_scan", "android": "https://dc.lft.to/lastmile_qr_scan"}, "lon": -77.0303095, "bike_id": "09cebda3a3a1561476699815b4b24045", "type": "electric_scooter", "name": "09cebda3a3a1561476699815b4b24045"}, {"is_disabled": 0, "is_reserved": 0, "fusion_lat": 0.0, "lat": 38.9352425, "fusion_lon": 0.0, "rental_uris": {"ios": "https://dc.lft.to/lastmile_qr_scan", "android": "https://dc.lft.to/lastmile_qr_scan"}, "lon": -77.02845933333333, "bike_id": "68c47e8e522c64f90f03e647a90af63f", "type": "electric_scooter", "name": "68c47e8e522c64f90f03e647a90af63f"}, {"is_disabled": 0, "is_reserved": 0, "fusion_lat": 0.0, "lat": 38.9191245, "fusion_lon": 0.0, "rental_uris": {"ios": "https://dc.lft.to/lastmile_qr_scan", "android": "https://dc.lft.to/lastmile_qr_scan"}, "lon": -77.02315433333334, "bike_id": "84f92a9297c19a4049b26a2299bb48b6", "type": "electric_scooter", "name": "84f92a9297c19a4049b26a2299bb48b6"}, {"is_disabled": 0, "is_reserved": 0, "fusion_lat": 0.0, "lat": 38.8946165, "fusion_lon": 0.0, "rental_uris": {"ios": "https://dc.lft.to/lastmile_qr_scan", "android": "https://dc.lft.to/lastmile_qr_scan"}, "lon": -76.93678766666666, "bike_id": "c700c47f2ffb9d08913f2975076d1899", "type": "electric_bike", "name": "c700c47f2ffb9d08913f2975076d1899"}, {"is_disabled": 0, "is_reserved": 0, "fusion_lat": 0.0, "lat": 38.918168, "fusion_lon": 0.0, "rental_uris": {"ios": "https://dc.lft.to/lastmile_qr_scan", "android": "https://dc.lft.to/lastmile_qr_scan"}, "lon": -77.02717933333334, "bike_id": "b32cf186f6e291cf124f8cfa28dcab69", "type": "electric_scooter", "name": "b32cf186f6e291cf124f8cfa28dcab69"}, {"is_disabled": 0, "is_reserved": 0, "fusion_lat": 0.0, "lat": 38.87659883333333, "fusion_lon": 0.0, "rental_uris": {"ios": "https://dc.lft.to/lastmile_qr_scan", "android": "https://dc.lft.to/lastmile_qr_scan"}, "lon": -77.00893616666667, "bike_id": "0446b679f7a7169901824cf283ef8f8e", "type": "electric_scooter", "name": "0446b679f7a7169901824cf283ef8f8e"}, {"is_disabled": 0, "is_reserved": 0, "fusion_lat": 0.0, "lat": 38.97440533333334, "fusion_lon": 0.0, "rental_uris": {"ios": "https://dc.lft.to/lastmile_qr_scan", "android": "https://dc.lft.to/lastmile_qr_scan"}, "lon": -77.09616716666666, "bike_id": "b9343f0a5a20666831530eae357b9ba1", "type": "electric_bike", "name": "b9343f0a5a20666831530eae357b9ba1"}, {"is_disabled": 0, "is_reserved": 0, "fusion_lat": 0.0, "lat": 38.923100166666664, "fusion_lon": 0.0, "rental_uris": {"ios": "https://dc.lft.to/lastmile_qr_scan", "android": "https://dc.lft.to/lastmile_qr_scan"}, "lon": -77.03399483333334, "bike_id": "6fb0919c73dfc4d5c4ee8d750dc57bab", "type": "electric_scooter", "name": "6fb0919c73dfc4d5c4ee8d750dc57bab"}, {"is_disabled": 0, "is_reserved": 0, "fusion_lat": 0.0, "lat": 38.898517, "fusion_lon": 0.0, "rental_uris": {"ios": "https://dc.lft.to/lastmile_qr_scan", "android": "https://dc.lft.to/lastmile_qr_scan"}, "lon": -77.00213233333334, "bike_id": "cf43a644dcab6b4ee3d1fe8e13b6a6c2", "type": "electric_scooter", "name": "cf43a644dcab6b4ee3d1fe8e13b6a6c2"}, {"is_disabled": 0, "is_reserved": 0, "fusion_lat": 0.0, "lat": 38.90655733333333, "fusion_lon": 0.0, "rental_uris": {"ios": "https://dc.lft.to/lastmile_qr_scan", "android": "https://dc.lft.to/lastmile_qr_scan"}, "lon": -77.048933, "bike_id": "184a8b42a910f6703186c4cca0da6057", "type": "electric_scooter", "name": "184a8b42a910f6703186c4cca0da6057"}, {"is_disabled": 0, "is_reserved": 0, "fusion_lat": 0.0, "lat": 38.895421666666664, "fusion_lon": 0.0, "rental_uris": {"ios": "https://dc.lft.to/lastmile_qr_scan", "android": "https://dc.lft.to/lastmile_qr_scan"}, "lon": -77.02172966666667, "bike_id": "f4d349b30b1fc7087e989d547b170476", "type": "electric_scooter", "name": "f4d349b30b1fc7087e989d547b170476"}, {"is_disabled": 0, "is_reserved": 0, "fusion_lat": 0.0, "lat": 38.87910016666667, "fusion_lon": 0.0, "rental_uris": {"ios": "https://dc.lft.to/lastmile_qr_scan", "android": "https://dc.lft.to/lastmile_qr_scan"}, "lon": -77.00765733333333, "bike_id": "260b62de537d4b84bf3e97015be399b4", "type": "electric_scooter", "name": "260b62de537d4b84bf3e97015be399b4"}, {"is_disabled": 0, "is_reserved": 0, "fusion_lat": 0.0, "lat": 38.92431783333333, "fusion_lon": 0.0, "rental_uris": {"ios": "https://dc.lft.to/lastmile_qr_scan", "android": "https://dc.lft.to/lastmile_qr_scan"}, "lon": -77.04244333333334, "bike_id": "a83b773c81bc3a6177b92b5a560a229e", "type": "electric_scooter", "name": "a83b773c81bc3a6177b92b5a560a229e"}, {"is_disabled": 0, "is_reserved": 0, "fusion_lat": 0.0, "lat": 38.91656166666667, "fusion_lon": 0.0, "rental_uris": {"ios": "https://dc.lft.to/lastmile_qr_scan", "android": "https://dc.lft.to/lastmile_qr_scan"}, "lon": -77.00950966666667, "bike_id": "4e08c2d655454352959719af0af060c6", "type": "electric_scooter", "name": "4e08c2d655454352959719af0af060c6"}, {"is_disabled": 0, "is_reserved": 0, "fusion_lat": 0.0, "lat": 38.915546166666665, "fusion_lon": 0.0, "rental_uris": {"ios": "https://dc.lft.to/lastmile_qr_scan", "android": "https://dc.lft.to/lastmile_qr_scan"}, "lon": -77.03182183333334, "bike_id": "6f0c6bc102bf9dae189c20d95aa917a1", "type": "electric_scooter", "name": "6f0c6bc102bf9dae189c20d95aa917a1"}, {"is_disabled": 0, "is_reserved": 0, "fusion_lat": 0.0, "lat": 38.8788555, "fusion_lon": 0.0, "rental_uris": {"ios": "https://dc.lft.to/lastmile_qr_scan", "android": "https://dc.lft.to/lastmile_qr_scan"}, "lon": -77.0074825, "bike_id": "8ef49745cfbfe9a6005987ea36a6c5f7", "type": "electric_scooter", "name": "8ef49745cfbfe9a6005987ea36a6c5f7"}, {"is_disabled": 0, "is_reserved": 0, "fusion_lat": 0.0, "lat": 38.86628566666667, "fusion_lon": 0.0, "rental_uris": {"ios": "https://dc.lft.to/lastmile_qr_scan", "android": "https://dc.lft.to/lastmile_qr_scan"}, "lon": -76.990014, "bike_id": "db2242e29d2b275bcfa95538446081dd", "type": "electric_bike", "name": "db2242e29d2b275bcfa95538446081dd"}, {"is_disabled": 0, "is_reserved": 0, "fusion_lat": 0.0, "lat": 38.897381833333334, "fusion_lon": 0.0, "rental_uris": {"ios": "https://dc.lft.to/lastmile_qr_scan", "android": "https://dc.lft.to/lastmile_qr_scan"}, "lon": -77.04633266666667, "bike_id": "7d93ee8c4e0ab1027dd22f35da61dcbf", "type": "electric_scooter", "name": "7d93ee8c4e0ab1027dd22f35da61dcbf"}, {"is_disabled": 0, "is_reserved": 0, "fusion_lat": 0.0, "lat": 38.878813, "fusion_lon": 0.0, "rental_uris": {"ios": "https://dc.lft.to/lastmile_qr_scan", "android": "https://dc.lft.to/lastmile_qr_scan"}, "lon": -77.02324316666666, "bike_id": "d17fece166e4d2487a71e5cfcc9829be", "type": "electric_scooter", "name": "d17fece166e4d2487a71e5cfcc9829be"}, {"is_disabled": 0, "is_reserved": 0, "fusion_lat": 0.0, "lat": 38.99095783333333, "fusion_lon": 0.0, "rental_uris": {"ios": "https://dc.lft.to/lastmile_qr_scan", "android": "https://dc.lft.to/lastmile_qr_scan"}, "lon": -76.99370933333333, "bike_id": "b9d926ad9cddeed7d8789e68bbe5b7ee", "type": "electric_bike", "name": "b9d926ad9cddeed7d8789e68bbe5b7ee"}, {"is_disabled": 0, "is_reserved": 0, "fusion_lat": 0.0, "lat": 38.9195665, "fusion_lon": 0.0, "rental_uris": {"ios": "https://dc.lft.to/lastmile_qr_scan", "android": "https://dc.lft.to/lastmile_qr_scan"}, "lon": -77.078754, "bike_id": "c9e2cc672e9fb5fa0dab7744c3c9bf20", "type": "electric_scooter", "name": "c9e2cc672e9fb5fa0dab7744c3c9bf20"}, {"is_disabled": 0, "is_reserved": 0, "fusion_lat": 0.0, "lat": 38.90842683333333, "fusion_lon": 0.0, "rental_uris": {"ios": "https://dc.lft.to/lastmile_qr_scan", "android": "https://dc.lft.to/lastmile_qr_scan"}, "lon": -77.05807416666667, "bike_id": "df5aaefd627a3424b70e25d704ad14ac", "type": "electric_scooter", "name": "df5aaefd627a3424b70e25d704ad14ac"}, {"is_disabled": 0, "is_reserved": 0, "fusion_lat": 0.0, "lat": 38.84859216666667, "fusion_lon": 0.0, "rental_uris": {"ios": "https://dc.lft.to/lastmile_qr_scan", "android": "https://dc.lft.to/lastmile_qr_scan"}, "lon": -77.0682605, "bike_id": "f292e3b33208a37e51a85e6dde8254d8", "type": "electric_bike", "name": "f292e3b33208a37e51a85e6dde8254d8"}, {"is_disabled": 0, "is_reserved": 0, "fusion_lat": 0.0, "lat": 38.93209383333333, "fusion_lon": 0.0, "rental_uris": {"ios": "https://dc.lft.to/lastmile_qr_scan", "android": "https://dc.lft.to/lastmile_qr_scan"}, "lon": -77.03653466666667, "bike_id": "1485446ffa0dc024e7353875a38dcd0d", "type": "electric_scooter", "name": "1485446ffa0dc024e7353875a38dcd0d"}, {"is_disabled": 0, "is_reserved": 0, "fusion_lat": 0.0, "lat": 38.92454216666667, "fusion_lon": 0.0, "rental_uris": {"ios": "https://dc.lft.to/lastmile_qr_scan", "android": "https://dc.lft.to/lastmile_qr_scan"}, "lon": -77.03302683333334, "bike_id": "5f6efab80d0306c9bc27e2b00ef01968", "type": "electric_scooter", "name": "5f6efab80d0306c9bc27e2b00ef01968"}, {"is_disabled": 0, "is_reserved": 0, "fusion_lat": 0.0, "lat": 38.8953175, "fusion_lon": 0.0, "rental_uris": {"ios": "https://dc.lft.to/lastmile_qr_scan", "android": "https://dc.lft.to/lastmile_qr_scan"}, "lon": -76.94889866666666, "bike_id": "686e13b48024fb64212f42fb8be4743f", "type": "electric_scooter", "name": "686e13b48024fb64212f42fb8be4743f"}, {"is_disabled": 0, "is_reserved": 0, "fusion_lat": 0.0, "lat": 38.894998666666666, "fusion_lon": 0.0, "rental_uris": {"ios": "https://dc.lft.to/lastmile_qr_scan", "android": "https://dc.lft.to/lastmile_qr_scan"}, "lon": -77.039556, "bike_id": "f09eef3f154a21a90b26a648720a99c6", "type": "electric_scooter", "name": "f09eef3f154a21a90b26a648720a99c6"}, {"is_disabled": 0, "is_reserved": 0, "fusion_lat": 0.0, "lat": 38.906526166666666, "fusion_lon": 0.0, "rental_uris": {"ios": "https://dc.lft.to/lastmile_qr_scan", "android": "https://dc.lft.to/lastmile_qr_scan"}, "lon": -77.01171966666666, "bike_id": "33562ae7d8619b4b704efab9c428fee1", "type": "electric_scooter", "name": "33562ae7d8619b4b704efab9c428fee1"}, {"is_disabled": 0, "is_reserved": 0, "fusion_lat": 0.0, "lat": 38.943609333333335, "fusion_lon": 0.0, "rental_uris": {"ios": "https://dc.lft.to/lastmile_qr_scan", "android": "https://dc.lft.to/lastmile_qr_scan"}, "lon": -77.06118783333334, "bike_id": "95a12aeecbf2f7d093cb0cd1796bbb52", "type": "electric_scooter", "name": "95a12aeecbf2f7d093cb0cd1796bbb52"}, {"is_disabled": 0, "is_reserved": 0, "fusion_lat": 0.0, "lat": 38.9352755, "fusion_lon": 0.0, "rental_uris": {"ios": "https://dc.lft.to/lastmile_qr_scan", "android": "https://dc.lft.to/lastmile_qr_scan"}, "lon": -77.0381495, "bike_id": "9093392e6f1224ec808db313d85bec8e", "type": "electric_scooter", "name": "9093392e6f1224ec808db313d85bec8e"}, {"is_disabled": 0, "is_reserved": 0, "fusion_lat": 0.0, "lat": 38.914869, "fusion_lon": 0.0, "rental_uris": {"ios": "https://dc.lft.to/lastmile_qr_scan", "android": "https://dc.lft.to/lastmile_qr_scan"}, "lon": -77.04944, "bike_id": "fc8eea688135715e9b44f7ec78fe695c", "type": "electric_scooter", "name": "fc8eea688135715e9b44f7ec78fe695c"}, {"is_disabled": 0, "is_reserved": 0, "fusion_lat": 0.0, "lat": 38.96176033333333, "fusion_lon": 0.0, "rental_uris": {"ios": "https://dc.lft.to/lastmile_qr_scan", "android": "https://dc.lft.to/lastmile_qr_scan"}, "lon": -77.03228516666667, "bike_id": "9768bdce26cea00e161401d595510180", "type": "electric_scooter", "name": "9768bdce26cea00e161401d595510180"}, {"is_disabled": 0, "is_reserved": 0, "fusion_lat": 0.0, "lat": 38.89422, "fusion_lon": 0.0, "rental_uris": {"ios": "https://dc.lft.to/lastmile_qr_scan", "android": "https://dc.lft.to/lastmile_qr_scan"}, "lon": -77.02137183333333, "bike_id": "26d0635821a2e09128a3d156c0a65d9d", "type": "electric_scooter", "name": "26d0635821a2e09128a3d156c0a65d9d"}, {"is_disabled": 0, "is_reserved": 0, "fusion_lat": 0.0, "lat": 38.936989, "fusion_lon": 0.0, "rental_uris": {"ios": "https://dc.lft.to/lastmile_qr_scan", "android": "https://dc.lft.to/lastmile_qr_scan"}, "lon": -77.05685283333334, "bike_id": "7f095b67de5510f7ea7e031b8242eeb5", "type": "electric_scooter", "name": "7f095b67de5510f7ea7e031b8242eeb5"}, {"is_disabled": 0, "is_reserved": 0, "fusion_lat": 0.0, "lat": 38.9497945, "fusion_lon": 0.0, "rental_uris": {"ios": "https://dc.lft.to/lastmile_qr_scan", "android": "https://dc.lft.to/lastmile_qr_scan"}, "lon": -77.02446233333333, "bike_id": "6bd84d51ce570d5356d8c411cf5be39a", "type": "electric_scooter", "name": "6bd84d51ce570d5356d8c411cf5be39a"}, {"is_disabled": 0, "is_reserved": 0, "fusion_lat": 0.0, "lat": 38.92454733333334, "fusion_lon": 0.0, "rental_uris": {"ios": "https://dc.lft.to/lastmile_qr_scan", "android": "https://dc.lft.to/lastmile_qr_scan"}, "lon": -77.03294983333333, "bike_id": "d7912fd83e4dae44616f84625d248b04", "type": "electric_scooter", "name": "d7912fd83e4dae44616f84625d248b04"}, {"is_disabled": 0, "is_reserved": 0, "fusion_lat": 0.0, "lat": 38.892198666666665, "fusion_lon": 0.0, "rental_uris": {"ios": "https://dc.lft.to/lastmile_qr_scan", "android": "https://dc.lft.to/lastmile_qr_scan"}, "lon": -77.03342566666667, "bike_id": "47b64d03897954fe698764ddae5761c5", "type": "electric_scooter", "name": "47b64d03897954fe698764ddae5761c5"}, {"is_disabled": 0, "is_reserved": 0, "fusion_lat": 0.0, "lat": 38.90250066666667, "fusion_lon": 0.0, "rental_uris": {"ios": "https://dc.lft.to/lastmile_qr_scan", "android": "https://dc.lft.to/lastmile_qr_scan"}, "lon": -77.01514483333334, "bike_id": "93afe4ec79a973e7248b8ff3e9cf2cd4", "type": "electric_scooter", "name": "93afe4ec79a973e7248b8ff3e9cf2cd4"}, {"is_disabled": 0, "is_reserved": 0, "fusion_lat": 0.0, "lat": 38.82758166666667, "fusion_lon": 0.0, "rental_uris": {"ios": "https://dc.lft.to/lastmile_qr_scan", "android": "https://dc.lft.to/lastmile_qr_scan"}, "lon": -77.05033816666666, "bike_id": "a35fad8e9e017e617f158345d4e2dbe0", "type": "electric_bike", "name": "a35fad8e9e017e617f158345d4e2dbe0"}, {"is_disabled": 0, "is_reserved": 0, "fusion_lat": 0.0, "lat": 38.91883933333333, "fusion_lon": 0.0, "rental_uris": {"ios": "https://dc.lft.to/lastmile_qr_scan", "android": "https://dc.lft.to/lastmile_qr_scan"}, "lon": -77.041808, "bike_id": "983cc5ff8609ffd637028c8fb1528056", "type": "electric_scooter", "name": "983cc5ff8609ffd637028c8fb1528056"}, {"is_disabled": 0, "is_reserved": 0, "fusion_lat": 0.0, "lat": 38.914746, "fusion_lon": 0.0, "rental_uris": {"ios": "https://dc.lft.to/lastmile_qr_scan", "android": "https://dc.lft.to/lastmile_qr_scan"}, "lon": -77.04282233333333, "bike_id": "d8d71853b88cd71f446f03e2e42c7e57", "type": "electric_scooter", "name": "d8d71853b88cd71f446f03e2e42c7e57"}, {"is_disabled": 0, "is_reserved": 0, "fusion_lat": 0.0, "lat": 38.919956166666665, "fusion_lon": 0.0, "rental_uris": {"ios": "https://dc.lft.to/lastmile_qr_scan", "android": "https://dc.lft.to/lastmile_qr_scan"}, "lon": -77.0321835, "bike_id": "cd7dafcb8002a6b931fe84db52e111d5", "type": "electric_scooter", "name": "cd7dafcb8002a6b931fe84db52e111d5"}, {"is_disabled": 0, "is_reserved": 0, "fusion_lat": 0.0, "lat": 38.942764333333336, "fusion_lon": 0.0, "rental_uris": {"ios": "https://dc.lft.to/lastmile_qr_scan", "android": "https://dc.lft.to/lastmile_qr_scan"}, "lon": -77.02930966666666, "bike_id": "1f7efc02b0f14dc6f64b9c561c0e3331", "type": "electric_scooter", "name": "1f7efc02b0f14dc6f64b9c561c0e3331"}, {"is_disabled": 0, "is_reserved": 0, "fusion_lat": 0.0, "lat": 38.92459, "fusion_lon": 0.0, "rental_uris": {"ios": "https://dc.lft.to/lastmile_qr_scan", "android": "https://dc.lft.to/lastmile_qr_scan"}, "lon": -77.05761633333333, "bike_id": "0d31bf2cc507678731ea0070e53256a3", "type": "electric_scooter", "name": "0d31bf2cc507678731ea0070e53256a3"}, {"is_disabled": 0, "is_reserved": 0, "fusion_lat": 0.0, "lat": 38.83865316666667, "fusion_lon": 0.0, "rental_uris": {"ios": "https://dc.lft.to/lastmile_qr_scan", "android": "https://dc.lft.to/lastmile_qr_scan"}, "lon": -76.99694733333334, "bike_id": "7f5997a0999c1ac06ba335e9cb2a957d", "type": "electric_bike", "name": "7f5997a0999c1ac06ba335e9cb2a957d"}, {"is_disabled": 0, "is_reserved": 0, "fusion_lat": 0.0, "lat": 38.887296666666664, "fusion_lon": 0.0, "rental_uris": {"ios": "https://dc.lft.to/lastmile_qr_scan", "android": "https://dc.lft.to/lastmile_qr_scan"}, "lon": -77.03162966666666, "bike_id": "89e71957f6068b81fdb27b8934a64960", "type": "electric_scooter", "name": "89e71957f6068b81fdb27b8934a64960"}, {"is_disabled": 0, "is_reserved": 0, "fusion_lat": 0.0, "lat": 38.911925333333336, "fusion_lon": 0.0, "rental_uris": {"ios": "https://dc.lft.to/lastmile_qr_scan", "android": "https://dc.lft.to/lastmile_qr_scan"}, "lon": -77.010808, "bike_id": "8c4021bbd36bf9af0b1a5b56a3253de2", "type": "electric_scooter", "name": "8c4021bbd36bf9af0b1a5b56a3253de2"}, {"is_disabled": 0, "is_reserved": 0, "fusion_lat": 0.0, "lat": 38.905420666666664, "fusion_lon": 0.0, "rental_uris": {"ios": "https://dc.lft.to/lastmile_qr_scan", "android": "https://dc.lft.to/lastmile_qr_scan"}, "lon": -77.0484925, "bike_id": "3e60397c5587a3e6b33d1eec922b90b8", "type": "electric_scooter", "name": "3e60397c5587a3e6b33d1eec922b90b8"}, {"is_disabled": 0, "is_reserved": 0, "fusion_lat": 0.0, "lat": 38.92859583333333, "fusion_lon": 0.0, "rental_uris": {"ios": "https://dc.lft.to/lastmile_qr_scan", "android": "https://dc.lft.to/lastmile_qr_scan"}, "lon": -77.03046466666666, "bike_id": "f2521a7177b0b168a374c6ce4ddddf0d", "type": "electric_scooter", "name": "f2521a7177b0b168a374c6ce4ddddf0d"}, {"is_disabled": 0, "is_reserved": 0, "fusion_lat": 0.0, "lat": 38.9207225, "fusion_lon": 0.0, "rental_uris": {"ios": "https://dc.lft.to/lastmile_qr_scan", "android": "https://dc.lft.to/lastmile_qr_scan"}, "lon": -77.0242465, "bike_id": "d3afaa99bd340ce3d2a03a090979c5f6", "type": "electric_scooter", "name": "d3afaa99bd340ce3d2a03a090979c5f6"}, {"is_disabled": 0, "is_reserved": 0, "fusion_lat": 0.0, "lat": 38.898011833333335, "fusion_lon": 0.0, "rental_uris": {"ios": "https://dc.lft.to/lastmile_qr_scan", "android": "https://dc.lft.to/lastmile_qr_scan"}, "lon": -76.971683, "bike_id": "02dc5f59093ee550f7bdd5f307d5e028", "type": "electric_scooter", "name": "02dc5f59093ee550f7bdd5f307d5e028"}, {"is_disabled": 0, "is_reserved": 0, "fusion_lat": 0.0, "lat": 38.90222283333333, "fusion_lon": 0.0, "rental_uris": {"ios": "https://dc.lft.to/lastmile_qr_scan", "android": "https://dc.lft.to/lastmile_qr_scan"}, "lon": -76.93171783333334, "bike_id": "23de0b9990b5ed7ac912f0cf61af88d6", "type": "electric_bike", "name": "23de0b9990b5ed7ac912f0cf61af88d6"}, {"is_disabled": 0, "is_reserved": 0, "fusion_lat": 0.0, "lat": 38.91521216666667, "fusion_lon": 0.0, "rental_uris": {"ios": "https://dc.lft.to/lastmile_qr_scan", "android": "https://dc.lft.to/lastmile_qr_scan"}, "lon": -76.98383083333333, "bike_id": "721f52318473ebf14c701d218b9281e9", "type": "electric_scooter", "name": "721f52318473ebf14c701d218b9281e9"}, {"is_disabled": 0, "is_reserved": 0, "fusion_lat": 0.0, "lat": 38.896671, "fusion_lon": 0.0, "rental_uris": {"ios": "https://dc.lft.to/lastmile_qr_scan", "android": "https://dc.lft.to/lastmile_qr_scan"}, "lon": -77.05127066666667, "bike_id": "74395b88c93a5420645d2507bd1f98db", "type": "electric_scooter", "name": "74395b88c93a5420645d2507bd1f98db"}, {"is_disabled": 0, "is_reserved": 0, "fusion_lat": 0.0, "lat": 38.898594, "fusion_lon": 0.0, "rental_uris": {"ios": "https://dc.lft.to/lastmile_qr_scan", "android": "https://dc.lft.to/lastmile_qr_scan"}, "lon": -76.94642983333334, "bike_id": "45b02ac13f3ea37ceff421c6c256e15f", "type": "electric_scooter", "name": "45b02ac13f3ea37ceff421c6c256e15f"}, {"is_disabled": 0, "is_reserved": 0, "fusion_lat": 0.0, "lat": 38.9248495, "fusion_lon": 0.0, "rental_uris": {"ios": "https://dc.lft.to/lastmile_qr_scan", "android": "https://dc.lft.to/lastmile_qr_scan"}, "lon": -77.05109233333333, "bike_id": "209d9be73642faafdc59474b98ccb716", "type": "electric_scooter", "name": "209d9be73642faafdc59474b98ccb716"}, {"is_disabled": 0, "is_reserved": 0, "fusion_lat": 0.0, "lat": 38.951871833333335, "fusion_lon": 0.0, "rental_uris": {"ios": "https://dc.lft.to/lastmile_qr_scan", "android": "https://dc.lft.to/lastmile_qr_scan"}, "lon": -77.026179, "bike_id": "1cdb75e1ad87aa27023e7831974c1143", "type": "electric_scooter", "name": "1cdb75e1ad87aa27023e7831974c1143"}, {"is_disabled": 0, "is_reserved": 0, "fusion_lat": 0.0, "lat": 38.8981675, "fusion_lon": 0.0, "rental_uris": {"ios": "https://dc.lft.to/lastmile_qr_scan", "android": "https://dc.lft.to/lastmile_qr_scan"}, "lon": -77.0020915, "bike_id": "e1feb17d5d6bd06704de494fb9c2ae15", "type": "electric_scooter", "name": "e1feb17d5d6bd06704de494fb9c2ae15"}, {"is_disabled": 0, "is_reserved": 0, "fusion_lat": 0.0, "lat": 38.91406466666667, "fusion_lon": 0.0, "rental_uris": {"ios": "https://dc.lft.to/lastmile_qr_scan", "android": "https://dc.lft.to/lastmile_qr_scan"}, "lon": -77.01229683333334, "bike_id": "95935617368d88829b44dbb0648c5152", "type": "electric_scooter", "name": "95935617368d88829b44dbb0648c5152"}, {"is_disabled": 0, "is_reserved": 0, "fusion_lat": 0.0, "lat": 38.89833466666666, "fusion_lon": 0.0, "rental_uris": {"ios": "https://dc.lft.to/lastmile_qr_scan", "android": "https://dc.lft.to/lastmile_qr_scan"}, "lon": -76.94631883333334, "bike_id": "c02f38ab09e76ba0892413d196c23197", "type": "electric_scooter", "name": "c02f38ab09e76ba0892413d196c23197"}, {"is_disabled": 0, "is_reserved": 0, "fusion_lat": 0.0, "lat": 38.870678166666664, "fusion_lon": 0.0, "rental_uris": {"ios": "https://dc.lft.to/lastmile_qr_scan", "android": "https://dc.lft.to/lastmile_qr_scan"}, "lon": -76.97939416666667, "bike_id": "035cd92c176890959d86492110d0f485", "type": "electric_scooter", "name": "035cd92c176890959d86492110d0f485"}, {"is_disabled": 0, "is_reserved": 0, "fusion_lat": 0.0, "lat": 38.93872616666667, "fusion_lon": 0.0, "rental_uris": {"ios": "https://dc.lft.to/lastmile_qr_scan", "android": "https://dc.lft.to/lastmile_qr_scan"}, "lon": -77.03041, "bike_id": "56ef7b7b792a0d3a9084fe59a4b4d476", "type": "electric_scooter", "name": "56ef7b7b792a0d3a9084fe59a4b4d476"}, {"is_disabled": 0, "is_reserved": 0, "fusion_lat": 0.0, "lat": 38.934712166666664, "fusion_lon": 0.0, "rental_uris": {"ios": "https://dc.lft.to/lastmile_qr_scan", "android": "https://dc.lft.to/lastmile_qr_scan"}, "lon": -77.02413933333334, "bike_id": "9e37019b942fe16d66d724c45078d63e", "type": "electric_scooter", "name": "9e37019b942fe16d66d724c45078d63e"}, {"is_disabled": 0, "is_reserved": 0, "fusion_lat": 0.0, "lat": 38.94165783333333, "fusion_lon": 0.0, "rental_uris": {"ios": "https://dc.lft.to/lastmile_qr_scan", "android": "https://dc.lft.to/lastmile_qr_scan"}, "lon": -76.99403283333334, "bike_id": "4857ae721e39e2aaee32808dd36ad450", "type": "electric_bike", "name": "4857ae721e39e2aaee32808dd36ad450"}, {"is_disabled": 0, "is_reserved": 0, "fusion_lat": 0.0, "lat": 38.926118833333334, "fusion_lon": 0.0, "rental_uris": {"ios": "https://dc.lft.to/lastmile_qr_scan", "android": "https://dc.lft.to/lastmile_qr_scan"}, "lon": -77.00648816666667, "bike_id": "9d5851da7ef7feefc2e5109d8203b4ca", "type": "electric_scooter", "name": "9d5851da7ef7feefc2e5109d8203b4ca"}, {"is_disabled": 0, "is_reserved": 0, "fusion_lat": 0.0, "lat": 38.939826, "fusion_lon": 0.0, "rental_uris": {"ios": "https://dc.lft.to/lastmile_qr_scan", "android": "https://dc.lft.to/lastmile_qr_scan"}, "lon": -77.0191285, "bike_id": "7272c6a1f5a9d8f1e36c0915e63dd2c4", "type": "electric_scooter", "name": "7272c6a1f5a9d8f1e36c0915e63dd2c4"}, {"is_disabled": 0, "is_reserved": 0, "fusion_lat": 0.0, "lat": 38.951127166666666, "fusion_lon": 0.0, "rental_uris": {"ios": "https://dc.lft.to/lastmile_qr_scan", "android": "https://dc.lft.to/lastmile_qr_scan"}, "lon": -77.01888633333333, "bike_id": "db7428d403a60cbd007cf8d5499ad820", "type": "electric_scooter", "name": "db7428d403a60cbd007cf8d5499ad820"}, {"is_disabled": 0, "is_reserved": 0, "fusion_lat": 0.0, "lat": 38.9821095, "fusion_lon": 0.0, "rental_uris": {"ios": "https://dc.lft.to/lastmile_qr_scan", "android": "https://dc.lft.to/lastmile_qr_scan"}, "lon": -76.97814983333333, "bike_id": "dcee94e096fa11d6a277b1653ed1bc02", "type": "electric_bike", "name": "dcee94e096fa11d6a277b1653ed1bc02"}, {"is_disabled": 0, "is_reserved": 0, "fusion_lat": 0.0, "lat": 38.92152033333333, "fusion_lon": 0.0, "rental_uris": {"ios": "https://dc.lft.to/lastmile_qr_scan", "android": "https://dc.lft.to/lastmile_qr_scan"}, "lon": -77.03641816666666, "bike_id": "69bc528cf5fcce88c58e3680364523b4", "type": "electric_scooter", "name": "69bc528cf5fcce88c58e3680364523b4"}, {"is_disabled": 0, "is_reserved": 0, "fusion_lat": 0.0, "lat": 38.893627, "fusion_lon": 0.0, "rental_uris": {"ios": "https://dc.lft.to/lastmile_qr_scan", "android": "https://dc.lft.to/lastmile_qr_scan"}, "lon": -77.04476333333334, "bike_id": "9eb4f8df305e6db944a3f9a7d572242e", "type": "electric_scooter", "name": "9eb4f8df305e6db944a3f9a7d572242e"}, {"is_disabled": 0, "is_reserved": 0, "fusion_lat": 0.0, "lat": 38.936095, "fusion_lon": 0.0, "rental_uris": {"ios": "https://dc.lft.to/lastmile_qr_scan", "android": "https://dc.lft.to/lastmile_qr_scan"}, "lon": -77.05587333333334, "bike_id": "4ca5cd49b5cf5916706a6dfb42649f76", "type": "electric_scooter", "name": "4ca5cd49b5cf5916706a6dfb42649f76"}, {"is_disabled": 0, "is_reserved": 0, "fusion_lat": 0.0, "lat": 38.878318, "fusion_lon": 0.0, "rental_uris": {"ios": "https://dc.lft.to/lastmile_qr_scan", "android": "https://dc.lft.to/lastmile_qr_scan"}, "lon": -76.9860625, "bike_id": "beac4243ea1a7a4359e9ab7c74374ca0", "type": "electric_scooter", "name": "beac4243ea1a7a4359e9ab7c74374ca0"}, {"is_disabled": 0, "is_reserved": 0, "fusion_lat": 0.0, "lat": 38.927716, "fusion_lon": 0.0, "rental_uris": {"ios": "https://dc.lft.to/lastmile_qr_scan", "android": "https://dc.lft.to/lastmile_qr_scan"}, "lon": -77.052573, "bike_id": "203fd3b15ea6b3a739bd3e084b3d2cac", "type": "electric_scooter", "name": "203fd3b15ea6b3a739bd3e084b3d2cac"}, {"is_disabled": 0, "is_reserved": 0, "fusion_lat": 0.0, "lat": 38.914069166666664, "fusion_lon": 0.0, "rental_uris": {"ios": "https://dc.lft.to/lastmile_qr_scan", "android": "https://dc.lft.to/lastmile_qr_scan"}, "lon": -77.04393483333334, "bike_id": "3e9f52186cd066fbe7cb4dc083def452", "type": "electric_scooter", "name": "3e9f52186cd066fbe7cb4dc083def452"}, {"is_disabled": 0, "is_reserved": 0, "fusion_lat": 0.0, "lat": 38.926567166666665, "fusion_lon": 0.0, "rental_uris": {"ios": "https://dc.lft.to/lastmile_qr_scan", "android": "https://dc.lft.to/lastmile_qr_scan"}, "lon": -77.02445466666667, "bike_id": "97167c58071bcc3a9896ffb2bda67aa8", "type": "electric_scooter", "name": "97167c58071bcc3a9896ffb2bda67aa8"}, {"is_disabled": 0, "is_reserved": 0, "fusion_lat": 0.0, "lat": 38.9312135, "fusion_lon": 0.0, "rental_uris": {"ios": "https://dc.lft.to/lastmile_qr_scan", "android": "https://dc.lft.to/lastmile_qr_scan"}, "lon": -77.0207195, "bike_id": "d6e00811a5d4b8ee45b12dd82515ba30", "type": "electric_scooter", "name": "d6e00811a5d4b8ee45b12dd82515ba30"}, {"is_disabled": 0, "is_reserved": 0, "fusion_lat": 0.0, "lat": 38.926568, "fusion_lon": 0.0, "rental_uris": {"ios": "https://dc.lft.to/lastmile_qr_scan", "android": "https://dc.lft.to/lastmile_qr_scan"}, "lon": -77.02424583333334, "bike_id": "9da217cdedf1ec118827c55be0d30dde", "type": "electric_scooter", "name": "9da217cdedf1ec118827c55be0d30dde"}, {"is_disabled": 0, "is_reserved": 0, "fusion_lat": 0.0, "lat": 38.923565333333336, "fusion_lon": 0.0, "rental_uris": {"ios": "https://dc.lft.to/lastmile_qr_scan", "android": "https://dc.lft.to/lastmile_qr_scan"}, "lon": -77.04387466666667, "bike_id": "b441abf86f1c5f77c2400255d3173780", "type": "electric_scooter", "name": "b441abf86f1c5f77c2400255d3173780"}, {"is_disabled": 0, "is_reserved": 0, "fusion_lat": 0.0, "lat": 38.911070333333335, "fusion_lon": 0.0, "rental_uris": {"ios": "https://dc.lft.to/lastmile_qr_scan", "android": "https://dc.lft.to/lastmile_qr_scan"}, "lon": -77.003798, "bike_id": "51fdef4879a49446616b39d7ba84d730", "type": "electric_scooter", "name": "51fdef4879a49446616b39d7ba84d730"}, {"is_disabled": 0, "is_reserved": 0, "fusion_lat": 0.0, "lat": 38.9206845, "fusion_lon": 0.0, "rental_uris": {"ios": "https://dc.lft.to/lastmile_qr_scan", "android": "https://dc.lft.to/lastmile_qr_scan"}, "lon": -77.02355183333333, "bike_id": "a71db2fbb7fa64aa9feae81447d9354d", "type": "electric_scooter", "name": "a71db2fbb7fa64aa9feae81447d9354d"}, {"is_disabled": 0, "is_reserved": 0, "fusion_lat": 0.0, "lat": 38.92356016666667, "fusion_lon": 0.0, "rental_uris": {"ios": "https://dc.lft.to/lastmile_qr_scan", "android": "https://dc.lft.to/lastmile_qr_scan"}, "lon": -77.07306583333333, "bike_id": "f7de54783edfafaba681d39ab11ba0d6", "type": "electric_scooter", "name": "f7de54783edfafaba681d39ab11ba0d6"}, {"is_disabled": 0, "is_reserved": 0, "fusion_lat": 0.0, "lat": 38.93612783333333, "fusion_lon": 0.0, "rental_uris": {"ios": "https://dc.lft.to/lastmile_qr_scan", "android": "https://dc.lft.to/lastmile_qr_scan"}, "lon": -77.05577183333334, "bike_id": "76a7195df79d5b1fe83e2c09e461890c", "type": "electric_scooter", "name": "76a7195df79d5b1fe83e2c09e461890c"}, {"is_disabled": 0, "is_reserved": 0, "fusion_lat": 0.0, "lat": 38.936989, "fusion_lon": 0.0, "rental_uris": {"ios": "https://dc.lft.to/lastmile_qr_scan", "android": "https://dc.lft.to/lastmile_qr_scan"}, "lon": -77.05601183333333, "bike_id": "912214b52bad6341786e879d3d36ef32", "type": "electric_scooter", "name": "912214b52bad6341786e879d3d36ef32"}, {"is_disabled": 0, "is_reserved": 0, "fusion_lat": 0.0, "lat": 38.908558166666666, "fusion_lon": 0.0, "rental_uris": {"ios": "https://dc.lft.to/lastmile_qr_scan", "android": "https://dc.lft.to/lastmile_qr_scan"}, "lon": -77.03531716666667, "bike_id": "2110fd3c85cd5cda736889e7ad440674", "type": "electric_scooter", "name": "2110fd3c85cd5cda736889e7ad440674"}, {"is_disabled": 0, "is_reserved": 0, "fusion_lat": 0.0, "lat": 38.908099166666666, "fusion_lon": 0.0, "rental_uris": {"ios": "https://dc.lft.to/lastmile_qr_scan", "android": "https://dc.lft.to/lastmile_qr_scan"}, "lon": -77.03842316666666, "bike_id": "ea32c20ce3f99a3183aff80dd7b34b16", "type": "electric_scooter", "name": "ea32c20ce3f99a3183aff80dd7b34b16"}, {"is_disabled": 0, "is_reserved": 0, "fusion_lat": 0.0, "lat": 38.9215445, "fusion_lon": 0.0, "rental_uris": {"ios": "https://dc.lft.to/lastmile_qr_scan", "android": "https://dc.lft.to/lastmile_qr_scan"}, "lon": -77.03657233333334, "bike_id": "e9bed0509accd4e5801332550c3c0be0", "type": "electric_scooter", "name": "e9bed0509accd4e5801332550c3c0be0"}, {"is_disabled": 0, "is_reserved": 0, "fusion_lat": 0.0, "lat": 38.906610666666666, "fusion_lon": 0.0, "rental_uris": {"ios": "https://dc.lft.to/lastmile_qr_scan", "android": "https://dc.lft.to/lastmile_qr_scan"}, "lon": -77.02949933333333, "bike_id": "2967cb6a576e4acbc996dad715b23c2c", "type": "electric_scooter", "name": "2967cb6a576e4acbc996dad715b23c2c"}, {"is_disabled": 0, "is_reserved": 0, "fusion_lat": 0.0, "lat": 38.923658833333334, "fusion_lon": 0.0, "rental_uris": {"ios": "https://dc.lft.to/lastmile_qr_scan", "android": "https://dc.lft.to/lastmile_qr_scan"}, "lon": -77.05284466666667, "bike_id": "a01f2e5f2e42393c5a46bed57ce2531d", "type": "electric_scooter", "name": "a01f2e5f2e42393c5a46bed57ce2531d"}, {"is_disabled": 0, "is_reserved": 0, "fusion_lat": 0.0, "lat": 38.89340983333334, "fusion_lon": 0.0, "rental_uris": {"ios": "https://dc.lft.to/lastmile_qr_scan", "android": "https://dc.lft.to/lastmile_qr_scan"}, "lon": -76.9938775, "bike_id": "775f166ec432bc96044ca923268135a0", "type": "electric_scooter", "name": "775f166ec432bc96044ca923268135a0"}, {"is_disabled": 0, "is_reserved": 0, "fusion_lat": 0.0, "lat": 38.841015666666664, "fusion_lon": 0.0, "rental_uris": {"ios": "https://dc.lft.to/lastmile_qr_scan", "android": "https://dc.lft.to/lastmile_qr_scan"}, "lon": -76.98704683333334, "bike_id": "a457253dc4b22cd1b9b705ac202fe7b4", "type": "electric_bike", "name": "a457253dc4b22cd1b9b705ac202fe7b4"}, {"is_disabled": 0, "is_reserved": 0, "fusion_lat": 0.0, "lat": 38.8927965, "fusion_lon": 0.0, "rental_uris": {"ios": "https://dc.lft.to/lastmile_qr_scan", "android": "https://dc.lft.to/lastmile_qr_scan"}, "lon": -77.04502716666667, "bike_id": "3ae3a48ae2d3e52c8b8017f9e26eca67", "type": "electric_scooter", "name": "3ae3a48ae2d3e52c8b8017f9e26eca67"}, {"is_disabled": 0, "is_reserved": 0, "fusion_lat": 0.0, "lat": 38.91044083333333, "fusion_lon": 0.0, "rental_uris": {"ios": "https://dc.lft.to/lastmile_qr_scan", "android": "https://dc.lft.to/lastmile_qr_scan"}, "lon": -76.99798483333333, "bike_id": "14ae817186402150112690f2bfc80ae2", "type": "electric_scooter", "name": "14ae817186402150112690f2bfc80ae2"}, {"is_disabled": 0, "is_reserved": 0, "fusion_lat": 0.0, "lat": 38.9183735, "fusion_lon": 0.0, "rental_uris": {"ios": "https://dc.lft.to/lastmile_qr_scan", "android": "https://dc.lft.to/lastmile_qr_scan"}, "lon": -77.0531315, "bike_id": "43a4692eb34a5eee89d6bc421ed04b52", "type": "electric_scooter", "name": "43a4692eb34a5eee89d6bc421ed04b52"}, {"is_disabled": 0, "is_reserved": 0, "fusion_lat": 0.0, "lat": 38.9242665, "fusion_lon": 0.0, "rental_uris": {"ios": "https://dc.lft.to/lastmile_qr_scan", "android": "https://dc.lft.to/lastmile_qr_scan"}, "lon": -77.05757083333333, "bike_id": "723f61fc3cc897eb7ea2972d1b209e33", "type": "electric_scooter", "name": "723f61fc3cc897eb7ea2972d1b209e33"}, {"is_disabled": 0, "is_reserved": 0, "fusion_lat": 0.0, "lat": 38.93466033333333, "fusion_lon": 0.0, "rental_uris": {"ios": "https://dc.lft.to/lastmile_qr_scan", "android": "https://dc.lft.to/lastmile_qr_scan"}, "lon": -77.02386666666666, "bike_id": "16dc3d9f42d0ead562f276d8f67aa6f7", "type": "electric_scooter", "name": "16dc3d9f42d0ead562f276d8f67aa6f7"}, {"is_disabled": 0, "is_reserved": 0, "fusion_lat": 0.0, "lat": 38.905588333333334, "fusion_lon": 0.0, "rental_uris": {"ios": "https://dc.lft.to/lastmile_qr_scan", "android": "https://dc.lft.to/lastmile_qr_scan"}, "lon": -77.004275, "bike_id": "ec12c8d202fc2b93cb73121bff80df71", "type": "electric_scooter", "name": "ec12c8d202fc2b93cb73121bff80df71"}, {"is_disabled": 0, "is_reserved": 0, "fusion_lat": 0.0, "lat": 38.923817, "fusion_lon": 0.0, "rental_uris": {"ios": "https://dc.lft.to/lastmile_qr_scan", "android": "https://dc.lft.to/lastmile_qr_scan"}, "lon": -77.0402105, "bike_id": "e1762a446de8246dbd8090f2b434ca4f", "type": "electric_scooter", "name": "e1762a446de8246dbd8090f2b434ca4f"},