{"data": {"bikes": [{"lat": 38.9351775, "is_disabled": 0, "type": "electric_scooter", "lon": -77.07308566666667, "bike_id": "a5b5131b38392a74a8ac2b796c8a0dc1", "fusion_lat": 0.0, "name": "a5b5131b38392a74a8ac2b796c8a0dc1", "is_reserved": 0, "rental_uris": {"android": "https://dc.lft.to/lastmile_qr_scan", "ios": "https://dc.lft.to/lastmile_qr_scan"}, "fusion_lon": 0.0}, {"lat": 38.8954885, "is_disabled": 0, "type": "electric_scooter", "lon": -77.00917083333333, "bike_id": "44cfaed2a8714f0fbb3250daa1bfdde9", "fusion_lat": 0.0, "name": "44cfaed2a8714f0fbb3250daa1bfdde9", "is_reserved": 0, "rental_uris": {"android": "https://dc.lft.to/lastmile_qr_scan", "ios": "https://dc.lft.to/lastmile_qr_scan"}, "fusion_lon": 0.0}, {"lat": 38.9037625, "is_disabled": 0, "type": "electric_scooter", "lon": -76.99229266666667, "bike_id": "1c0853a8018ac9883688a9da40d3bba7", "fusion_lat": 0.0, "name": "1c0853a8018ac9883688a9da40d3bba7", "is_reserved": 0, "rental_uris": {"android": "https://dc.lft.to/lastmile_qr_scan", "ios": "https://dc.lft.to/lastmile_qr_scan"}, "fusion_lon": 0.0}, {"lat": 38.90856683333333, "is_disabled": 0, "type": "electric_scooter", "lon": -77.01967966666666, "bike_id": "664194bfc15a601137d0d38ebcc5eecd", "fusion_lat": 0.0, "name": "664194bfc15a601137d0d38ebcc5eecd", "is_reserved": 0, "rental_uris": {"android": "https://dc.lft.to/lastmile_qr_scan", "ios": "https://dc.lft.to/lastmile_qr_scan"}, "fusion_lon": 0.0}, {"lat": 38.89726016666667, "is_disabled": 0, "type": "electric_scooter", "lon": -77.02389333333333, "bike_id": "61cfeaffec3ab11e070283939723c914", "fusion_lat": 0.0, "name": "61cfeaffec3ab11e070283939723c914", "is_reserved": 0, "rental_uris": {"android": "https://dc.lft.to/lastmile_qr_scan", "ios": "https://dc.lft.to/lastmile_qr_scan"}, "fusion_lon": 0.0}, {"lat": 38.93476366666667, "is_disabled": 0, "type": "electric_scooter", "lon": -77.04117866666667, "bike_id": "57cd60064d95b6999d01e1cbb382c14a", "fusion_lat": 0.0, "name": "57cd60064d95b6999d01e1cbb382c14a", "is_reserved": 0, "rental_uris": {"android": "https://dc.lft.to/lastmile_qr_scan", "ios": "https://dc.lft.to/lastmile_qr_scan"}, "fusion_lon": 0.0}, {"lat": 38.924191, "is_disabled": 0, "type": "electric_scooter", "lon": -77.044569, "bike_id": "939bd5d87047a177441778fb74897339", "fusion_lat": 0.0, "name": "939bd5d87047a177441778fb74897339", "is_reserved": 0, "rental_uris": {"android": "https://dc.lft.to/lastmile_qr_scan", "ios": "https://dc.lft.to/lastmile_qr_scan"}, "fusion_lon": 0.0}, {"lat": 38.91596, "is_disabled": 0, "type": "electric_scooter", "lon": -77.03189716666667, "bike_id": "018d63b7598d45fbd171d8de501b2109", "fusion_lat": 0.0, "name": "018d63b7598d45fbd171d8de501b2109", "is_reserved": 0, "rental_uris": {"android": "https://dc.lft.to/lastmile_qr_scan", "ios": "https://dc.lft.to/lastmile_qr_scan"}, "fusion_lon": 0.0}, {"lat": 38.904948833333336, "is_disabled": 0, "type": "electric_scooter", "lon": -77.048882, "bike_id": "1933d04d78ceb6a4c4050056c7b8b0f8", "fusion_lat": 0.0, "name": "1933d04d78ceb6a4c4050056c7b8b0f8", "is_reserved": 0, "rental_uris": {"android": "https://dc.lft.to/lastmile_qr_scan", "ios": "https://dc.lft.to/lastmile_qr_scan"}, "fusion_lon": 0.0}, {"lat": 38.902182333333336, "is_disabled": 0, "type": "electric_scooter", "lon": -77.05907433333333, "bike_id": "cd9ce03f515b09376623aecb87b04f13", "fusion_lat": 0.0, "name": "cd9ce03f515b09376623aecb87b04f13", "is_reserved": 0, "rental_uris": {"android": "https://dc.lft.to/lastmile_qr_scan", "ios": "https://dc.lft.to/lastmile_qr_scan"}, "fusion_lon": 0.0}, {"lat": 38.927887166666665, "is_disabled": 0, "type": "electric_bike", "lon": -77.03334616666666, "bike_id": "e93f027e5a7d416415a3cddb2dbebe60", "fusion_lat": 0.0, "name": "e93f027e5a7d416415a3cddb2dbebe60", "is_reserved": 0, "rental_uris": {"android": "https://dc.lft.to/lastmile_qr_scan", "ios": "https://dc.lft.to/lastmile_qr_scan"}, "fusion_lon": 0.0}, {"lat": 38.94175083333333, "is_disabled": 0, "type": "electric_scooter", "lon": -77.02499766666666, "bike_id": "6c334b07347c728a615cb1aa1615113d", "fusion_lat": 0.0, "name": "6c334b07347c728a615cb1aa1615113d", "is_reserved": 0, "rental_uris": {"android": "https://dc.lft.to/lastmile_qr_scan", "ios": "https://dc.lft.to/lastmile_qr_scan"}, "fusion_lon": 0.0}, {"lat": 38.8650795, "is_disabled": 0, "type": "electric_scooter", "lon": -76.99004316666667, "bike_id": "8ede0409ac114e04919c24ecd81ca055", "fusion_lat": 0.0, "name": "8ede0409ac114e04919c24ecd81ca055", "is_reserved": 0, "rental_uris": {"android": "https://dc.lft.to/lastmile_qr_scan", "ios": "https://dc.lft.to/lastmile_qr_scan"}, "fusion_lon": 0.0}, {"lat": 38.89986, "is_disabled": 0, "type": "electric_scooter", "lon": -77.00588933333333, "bike_id": "543439d8d452f68e3f75c3a35cf55752", "fusion_lat": 0.0, "name": "543439d8d452f68e3f75c3a35cf55752", "is_reserved": 0, "rental_uris": {"android": "https://dc.lft.to/lastmile_qr_scan", "ios": "https://dc.lft.to/lastmile_qr_scan"}, "fusion_lon": 0.0}, {"lat": 38.90033483333333, "is_disabled": 0, "type": "electric_scooter", "lon": -77.03327966666667, "bike_id": "ff9cfbf2f75782bc991e7efbffdf6425", "fusion_lat": 0.0, "name": "ff9cfbf2f75782bc991e7efbffdf6425", "is_reserved": 0, "rental_uris": {"android": "https://dc.lft.to/lastmile_qr_scan", "ios": "https://dc.lft.to/lastmile_qr_scan"}, "fusion_lon": 0.0}, {"lat": 38.89222766666666, "is_disabled": 0, "type": "electric_scooter", "lon": -76.93301416666667, "bike_id": "fc30ba450c0fca51718238b591cbcd48", "fusion_lat": 0.0, "name": "fc30ba450c0fca51718238b591cbcd48", "is_reserved": 0, "rental_uris": {"android": "https://dc.lft.to/lastmile_qr_scan", "ios": "https://dc.lft.to/lastmile_qr_scan"}, "fusion_lon": 0.0}, {"lat": 38.92750983333333, "is_disabled": 0, "type": "electric_bike", "lon": -77.06880633333333, "bike_id": "042d2ad7484bb1a3e956591ab4aa3bcf", "fusion_lat": 0.0, "name": "042d2ad7484bb1a3e956591ab4aa3bcf", "is_reserved": 0, "rental_uris": {"android": "https://dc.lft.to/lastmile_qr_scan", "ios": "https://dc.lft.to/lastmile_qr_scan"}, "fusion_lon": 0.0}, {"lat": 38.900968666666664, "is_disabled": 0, "type": "electric_scooter", "lon": -77.055959, "bike_id": "485f3346c15e872f315aa55fce74efbb", "fusion_lat": 0.0, "name": "485f3346c15e872f315aa55fce74efbb", "is_reserved": 0, "rental_uris": {"android": "https://dc.lft.to/lastmile_qr_scan", "ios": "https://dc.lft.to/lastmile_qr_scan"}, "fusion_lon": 0.0}, {"lat": 38.91355766666667, "is_disabled": 0, "type": "electric_scooter", "lon": -77.0336375, "bike_id": "d5aded6dccc98fea9dd9b59f6a023f64", "fusion_lat": 0.0, "name": "d5aded6dccc98fea9dd9b59f6a023f64", "is_reserved": 0, "rental_uris": {"android": "https://dc.lft.to/lastmile_qr_scan", "ios": "https://dc.lft.to/lastmile_qr_scan"}, "fusion_lon": 0.0}, {"lat": 38.89221366666666, "is_disabled": 0, "type": "electric_scooter", "lon": -77.02212333333334, "bike_id": "2aaca544269aa4d3cb46735e84b50fcb", "fusion_lat": 0.0, "name": "2aaca544269aa4d3cb46735e84b50fcb", "is_reserved": 0, "rental_uris": {"android": "https://dc.lft.to/lastmile_qr_scan", "ios": "https://dc.lft.to/lastmile_qr_scan"}, "fusion_lon": 0.0}, {"lat": 38.91748616666667, "is_disabled": 0, "type": "electric_scooter", "lon": -77.03599183333333, "bike_id": "823d3d811157266c09c31dce6056a2c3", "fusion_lat": 0.0, "name": "823d3d811157266c09c31dce6056a2c3", "is_reserved": 0, "rental_uris": {"android": "https://dc.lft.to/lastmile_qr_scan", "ios": "https://dc.lft.to/lastmile_qr_scan"}, "fusion_lon": 0.0}, {"lat": 38.915728, "is_disabled": 0, "type": "electric_scooter", "lon": -77.02288816666666, "bike_id": "07d7a3419e80d293c3c617478d6c55c2", "fusion_lat": 0.0, "name": "07d7a3419e80d293c3c617478d6c55c2", "is_reserved": 0, "rental_uris": {"android": "https://dc.lft.to/lastmile_qr_scan", "ios": "https://dc.lft.to/lastmile_qr_scan"}, "fusion_lon": 0.0}, {"lat": 38.89607866666667, "is_disabled": 0, "type": "electric_scooter", "lon": -77.0546705, "bike_id": "542193b00a0d48fed2e5f21df2dd58d5", "fusion_lat": 0.0, "name": "542193b00a0d48fed2e5f21df2dd58d5", "is_reserved": 0, "rental_uris": {"android": "https://dc.lft.to/lastmile_qr_scan", "ios": "https://dc.lft.to/lastmile_qr_scan"}, "fusion_lon": 0.0}, {"lat": 38.917997666666665, "is_disabled": 0, "type": "electric_scooter", "lon": -77.03444116666667, "bike_id": "342661023b662a5874735002a8fb5e24", "fusion_lat": 0.0, "name": "342661023b662a5874735002a8fb5e24", "is_reserved": 0, "rental_uris": {"android": "https://dc.lft.to/lastmile_qr_scan", "ios": "https://dc.lft.to/lastmile_qr_scan"}, "fusion_lon": 0.0}, {"lat": 38.899482666666664, "is_disabled": 0, "type": "electric_scooter", "lon": -77.0258595, "bike_id": "8c97a65fb1754274b39f7cd5052c25fa", "fusion_lat": 0.0, "name": "8c97a65fb1754274b39f7cd5052c25fa", "is_reserved": 0, "rental_uris": {"android": "https://dc.lft.to/lastmile_qr_scan", "ios": "https://dc.lft.to/lastmile_qr_scan"}, "fusion_lon": 0.0}, {"lat": 38.902396333333336, "is_disabled": 0, "type": "electric_scooter", "lon": -77.062469, "bike_id": "dfc7c510e554940f28a3b7b3c5d73184", "fusion_lat": 0.0, "name": "dfc7c510e554940f28a3b7b3c5d73184", "is_reserved": 0, "rental_uris": {"android": "https://dc.lft.to/lastmile_qr_scan", "ios": "https://dc.lft.to/lastmile_qr_scan"}, "fusion_lon": 0.0}, {"lat": 38.914319, "is_disabled": 0, "type": "electric_scooter", "lon": -77.02352566666667, "bike_id": "650b34a31d5690dc84c961c0470ed981", "fusion_lat": 0.0, "name": "650b34a31d5690dc84c961c0470ed981", "is_reserved": 0, "rental_uris": {"android": "https://dc.lft.to/lastmile_qr_scan", "ios": "https://dc.lft.to/lastmile_qr_scan"}, "fusion_lon": 0.0}, {"lat": 38.917084833333334, "is_disabled": 0, "type": "electric_scooter", "lon": -77.0403945, "bike_id": "2123e8c66f0a336cfa2827680c80c0ae", "fusion_lat": 0.0, "name": "2123e8c66f0a336cfa2827680c80c0ae", "is_reserved": 0, "rental_uris": {"android": "https://dc.lft.to/lastmile_qr_scan", "ios": "https://dc.lft.to/lastmile_qr_scan"}, "fusion_lon": 0.0}, {"lat": 38.905708833333335, "is_disabled": 0, "type": "electric_scooter", "lon": -77.02178833333333, "bike_id": "42a744636c2abe7a09edc8c932d7abd7", "fusion_lat": 0.0, "name": "42a744636c2abe7a09edc8c932d7abd7", "is_reserved": 0, "rental_uris": {"android": "https://dc.lft.to/lastmile_qr_scan", "ios": "https://dc.lft.to/lastmile_qr_scan"}, "fusion_lon": 0.0}, {"lat": 38.911021833333336, "is_disabled": 0, "type": "electric_scooter", "lon": -77.04836466666667, "bike_id": "1565aba0c62da6a383bce0e047e9f2e6", "fusion_lat": 0.0, "name": "1565aba0c62da6a383bce0e047e9f2e6", "is_reserved": 0, "rental_uris": {"android": "https://dc.lft.to/lastmile_qr_scan", "ios": "https://dc.lft.to/lastmile_qr_scan"}, "fusion_lon": 0.0}, {"lat": 38.90738416666667, "is_disabled": 0, "type": "electric_scooter", "lon": -77.034643, "bike_id": "b7abca4cbecb4522096c3b338064f961", "fusion_lat": 0.0, "name": "b7abca4cbecb4522096c3b338064f961", "is_reserved": 0, "rental_uris": {"android": "https://dc.lft.to/lastmile_qr_scan", "ios": "https://dc.lft.to/lastmile_qr_scan"}, "fusion_lon": 0.0}, {"lat": 38.910335333333336, "is_disabled": 0, "type": "electric_scooter", "lon": -77.038728, "bike_id": "10391774566776f285e554898def9a2a", "fusion_lat": 0.0, "name": "10391774566776f285e554898def9a2a", "is_reserved": 0, "rental_uris": {"android": "https://dc.lft.to/lastmile_qr_scan", "ios": "https://dc.lft.to/lastmile_qr_scan"}, "fusion_lon": 0.0}, {"lat": 38.887442, "is_disabled": 0, "type": "electric_scooter", "lon": -77.0220735, "bike_id": "183a084e9312610edf3c14d0202f2acf", "fusion_lat": 0.0, "name": "183a084e9312610edf3c14d0202f2acf", "is_reserved": 0, "rental_uris": {"android": "https://dc.lft.to/lastmile_qr_scan", "ios": "https://dc.lft.to/lastmile_qr_scan"}, "fusion_lon": 0.0}, {"lat": 38.902469833333335, "is_disabled": 0, "type": "electric_scooter", "lon": -77.00199166666667, "bike_id": "9f9e8b38f96bea210a53ffbe1f0c7a68", "fusion_lat": 0.0, "name": "9f9e8b38f96bea210a53ffbe1f0c7a68", "is_reserved": 0, "rental_uris": {"android": "https://dc.lft.to/lastmile_qr_scan", "ios": "https://dc.lft.to/lastmile_qr_scan"}, "fusion_lon": 0.0}, {"lat": 38.92237866666667, "is_disabled": 0, "type": "electric_scooter", "lon": -77.04247733333334, "bike_id": "17d2ec98201a6150993a42da54197aca", "fusion_lat": 0.0, "name": "17d2ec98201a6150993a42da54197aca", "is_reserved": 0, "rental_uris": {"android": "https://dc.lft.to/lastmile_qr_scan", "ios": "https://dc.lft.to/lastmile_qr_scan"}, "fusion_lon": 0.0}, {"lat": 38.93201466666667, "is_disabled": 0, "type": "electric_scooter", "lon": -77.04425366666666, "bike_id": "f7611d76545e91bb4f7ecd13bef45466", "fusion_lat": 0.0, "name": "f7611d76545e91bb4f7ecd13bef45466", "is_reserved": 0, "rental_uris": {"android": "https://dc.lft.to/lastmile_qr_scan", "ios": "https://dc.lft.to/lastmile_qr_scan"}, "fusion_lon": 0.0}, {"lat": 38.9171225, "is_disabled": 0, "type": "electric_scooter", "lon": -77.02946816666666, "bike_id": "d4139f96787d3d3c08aadf30b0ff6625", "fusion_lat": 0.0, "name": "d4139f96787d3d3c08aadf30b0ff6625", "is_reserved": 0, "rental_uris": {"android": "https://dc.lft.to/lastmile_qr_scan", "ios": "https://dc.lft.to/lastmile_qr_scan"}, "fusion_lon": 0.0}, {"lat": 38.92210033333333, "is_disabled": 0, "type": "electric_bike", "lon": -76.98798966666666, "bike_id": "db26afc7f117131a9e0e5789bbd9cfaa", "fusion_lat": 0.0, "name": "db26afc7f117131a9e0e5789bbd9cfaa", "is_reserved": 0, "rental_uris": {"android": "https://dc.lft.to/lastmile_qr_scan", "ios": "https://dc.lft.to/lastmile_qr_scan"}, "fusion_lon": 0.0}, {"lat": 38.93304283333333, "is_disabled": 0, "type": "electric_scooter", "lon": -77.035913, "bike_id": "ba6986b26d85a6723183180090323ab4", "fusion_lat": 0.0, "name": "ba6986b26d85a6723183180090323ab4", "is_reserved": 0, "rental_uris": {"android": "https://dc.lft.to/lastmile_qr_scan", "ios": "https://dc.lft.to/lastmile_qr_scan"}, "fusion_lon": 0.0}, {"lat": 38.89762066666667, "is_disabled": 0, "type": "electric_scooter", "lon": -77.05500666666667, "bike_id": "4af3754fdd754ca2a5a41934473e29bb", "fusion_lat": 0.0, "name": "4af3754fdd754ca2a5a41934473e29bb", "is_reserved": 0, "rental_uris": {"android": "https://dc.lft.to/lastmile_qr_scan", "ios": "https://dc.lft.to/lastmile_qr_scan"}, "fusion_lon": 0.0}, {"lat": 38.8762845, "is_disabled": 0, "type": "electric_scooter", "lon": -76.9652525, "bike_id": "92f314bb6c1daa9de82e4214f4abdbd3", "fusion_lat": 0.0, "name": "92f314bb6c1daa9de82e4214f4abdbd3", "is_reserved": 0, "rental_uris": {"android": "https://dc.lft.to/lastmile_qr_scan", "ios": "https://dc.lft.to/lastmile_qr_scan"}, "fusion_lon": 0.0}, {"lat": 38.92246633333333, "is_disabled": 0, "type": "electric_scooter", "lon": -77.02192166666667, "bike_id": "a7666147fac6bd77ad750706351f718d", "fusion_lat": 0.0, "name": "a7666147fac6bd77ad750706351f718d", "is_reserved": 0, "rental_uris": {"android": "https://dc.lft.to/lastmile_qr_scan", "ios": "https://dc.lft.to/lastmile_qr_scan"}, "fusion_lon": 0.0}, {"lat": 39.03419733333333, "is_disabled": 0, "type": "electric_bike", "lon": -77.04251183333334, "bike_id": "1ecf156da6b0c59f4c1d7f4b80193751", "fusion_lat": 0.0, "name": "1ecf156da6b0c59f4c1d7f4b80193751", "is_reserved": 0, "rental_uris": {"android": "https://dc.lft.to/lastmile_qr_scan", "ios": "https://dc.lft.to/lastmile_qr_scan"}, "fusion_lon": 0.0}, {"lat": 38.9060115, "is_disabled": 0, "type": "electric_scooter", "lon": -77.01614233333333, "bike_id": "26b72b73299f17a933cca426f8a6e4f4", "fusion_lat": 0.0, "name": "26b72b73299f17a933cca426f8a6e4f4", "is_reserved": 0, "rental_uris": {"android": "https://dc.lft.to/lastmile_qr_scan", "ios": "https://dc.lft.to/lastmile_qr_scan"}, "fusion_lon": 0.0}, {"lat": 38.92290933333334, "is_disabled": 0, "type": "electric_scooter", "lon": -77.02969483333334, "bike_id": "70da63926ce0ae6dbfcb3941577918c8", "fusion_lat": 0.0, "name": "70da63926ce0ae6dbfcb3941577918c8", "is_reserved": 0, "rental_uris": {"android": "https://dc.lft.to/lastmile_qr_scan", "ios": "https://dc.lft.to/lastmile_qr_scan"}, "fusion_lon": 0.0}, {"lat": 38.918066333333336, "is_disabled": 0, "type": "electric_scooter", "lon": -77.03204366666667, "bike_id": "13d67efa6bda4cadf5032dfc510281b6", "fusion_lat": 0.0, "name": "13d67efa6bda4cadf5032dfc510281b6", "is_reserved": 0, "rental_uris": {"android": "https://dc.lft.to/lastmile_qr_scan", "ios": "https://dc.lft.to/lastmile_qr_scan"}, "fusion_lon": 0.0}, {"lat": 38.893413833333334, "is_disabled": 0, "type": "electric_scooter", "lon": -76.99161716666667, "bike_id": "7d79c0c3da0854d53b7939ecf276c580", "fusion_lat": 0.0, "name": "7d79c0c3da0854d53b7939ecf276c580", "is_reserved": 0, "rental_uris": {"android": "https://dc.lft.to/lastmile_qr_scan", "ios": "https://dc.lft.to/lastmile_qr_scan"}, "fusion_lon": 0.0}, {"lat": 38.902009166666666, "is_disabled": 0, "type": "electric_scooter", "lon": -76.98203266666667, "bike_id": "29b5630a8d672cf99ba808482b4eaf49", "fusion_lat": 0.0, "name": "29b5630a8d672cf99ba808482b4eaf49", "is_reserved": 0, "rental_uris": {"android": "https://dc.lft.to/lastmile_qr_scan", "ios": "https://dc.lft.to/lastmile_qr_scan"}, "fusion_lon": 0.0}, {"lat": 38.935302, "is_disabled": 0, "type": "electric_scooter", "lon": -77.07296716666667, "bike_id": "7b4c6d9ba222f318217c17ddccca7145", "fusion_lat": 0.0, "name": "7b4c6d9ba222f318217c17ddccca7145", "is_reserved": 0, "rental_uris": {"android": "https://dc.lft.to/lastmile_qr_scan", "ios": "https://dc.lft.to/lastmile_qr_scan"}, "fusion_lon": 0.0}, {"lat": 38.93320766666667, "is_disabled": 0, "type": "electric_scooter", "lon": -77.04525733333334, "bike_id": "03bcfbed53e76a2e584074337da10e53", "fusion_lat": 0.0, "name": "03bcfbed53e76a2e584074337da10e53", "is_reserved": 0, "rental_uris": {"android": "https://dc.lft.to/lastmile_qr_scan", "ios": "https://dc.lft.to/lastmile_qr_scan"}, "fusion_lon": 0.0}, {"lat": 38.92341016666666, "is_disabled": 0, "type": "electric_scooter", "lon": -77.05032283333334, "bike_id": "72e41130acd74246c03188c28bd834b8", "fusion_lat": 0.0, "name": "72e41130acd74246c03188c28bd834b8", "is_reserved": 0, "rental_uris": {"android": "https://dc.lft.to/lastmile_qr_scan", "ios": "https://dc.lft.to/lastmile_qr_scan"}, "fusion_lon": 0.0}, {"lat": 38.928479, "is_disabled": 0, "type": "electric_scooter", "lon": -77.03326333333334, "bike_id": "90486058ffd156acd5a945b9199f68e9", "fusion_lat": 0.0, "name": "90486058ffd156acd5a945b9199f68e9", "is_reserved": 0, "rental_uris": {"android": "https://dc.lft.to/lastmile_qr_scan", "ios": "https://dc.lft.to/lastmile_qr_scan"}, "fusion_lon": 0.0}, {"lat": 38.908392666666664, "is_disabled": 0, "type": "electric_scooter", "lon": -76.99696633333333, "bike_id": "2e5b1d64899604dc6c5e02ad28f24ca5", "fusion_lat": 0.0, "name": "2e5b1d64899604dc6c5e02ad28f24ca5", "is_reserved": 0, "rental_uris": {"android": "https://dc.lft.to/lastmile_qr_scan", "ios": "https://dc.lft.to/lastmile_qr_scan"}, "fusion_lon": 0.0}, {"lat": 38.9223625, "is_disabled": 0, "type": "electric_scooter", "lon": -77.04575133333333, "bike_id": "df574f38614f67ca88c8395c4f3f9485", "fusion_lat": 0.0, "name": "df574f38614f67ca88c8395c4f3f9485", "is_reserved": 0, "rental_uris": {"android": "https://dc.lft.to/lastmile_qr_scan", "ios": "https://dc.lft.to/lastmile_qr_scan"}, "fusion_lon": 0.0}, {"lat": 38.932884, "is_disabled": 0, "type": "electric_scooter", "lon": -77.02833216666667, "bike_id": "7f02dcf01b9a73d2db9ed0f9785b6310", "fusion_lat": 0.0, "name": "7f02dcf01b9a73d2db9ed0f9785b6310", "is_reserved": 0, "rental_uris": {"android": "https://dc.lft.to/lastmile_qr_scan", "ios": "https://dc.lft.to/lastmile_qr_scan"}, "fusion_lon": 0.0}, {"lat": 38.97223966666667, "is_disabled": 0, "type": "electric_bike", "lon": -76.99355116666666, "bike_id": "0989717a49d5ff0ab73144b96cb70aef", "fusion_lat": 0.0, "name": "0989717a49d5ff0ab73144b96cb70aef", "is_reserved": 0, "rental_uris": {"android": "https://dc.lft.to/lastmile_qr_scan", "ios": "https://dc.lft.to/lastmile_qr_scan"}, "fusion_lon": 0.0}, {"lat": 38.907327333333335, "is_disabled": 0, "type": "electric_scooter", "lon": -77.0295655, "bike_id": "647099aa27e5de3a9a35c39241018a6a", "fusion_lat": 0.0, "name": "647099aa27e5de3a9a35c39241018a6a", "is_reserved": 0, "rental_uris": {"android": "https://dc.lft.to/lastmile_qr_scan", "ios": "https://dc.lft.to/lastmile_qr_scan"}, "fusion_lon": 0.0}, {"lat": 38.932085666666666, "is_disabled": 0, "type": "electric_scooter", "lon": -77.02247233333334, "bike_id": "87cd87102ebcd9fbe3c3803424048d21", "fusion_lat": 0.0, "name": "87cd87102ebcd9fbe3c3803424048d21", "is_reserved": 0, "rental_uris": {"android": "https://dc.lft.to/lastmile_qr_scan", "ios": "https://dc.lft.to/lastmile_qr_scan"}, "fusion_lon": 0.0}, {"lat": 38.911152666666666, "is_disabled": 0, "type": "electric_scooter", "lon": -77.03794283333333, "bike_id": "06a9d8218a1b7296c2c917faee3c4dcd", "fusion_lat": 0.0, "name": "06a9d8218a1b7296c2c917faee3c4dcd", "is_reserved": 0, "rental_uris": {"android": "https://dc.lft.to/lastmile_qr_scan", "ios": "https://dc.lft.to/lastmile_qr_scan"}, "fusion_lon": 0.0}, {"lat": 38.911932666666665, "is_disabled": 0, "type": "electric_scooter", "lon": -77.04290216666666, "bike_id": "87901d2f8c5af81ec5aea5a08bcf1751", "fusion_lat": 0.0, "name": "87901d2f8c5af81ec5aea5a08bcf1751", "is_reserved": 0, "rental_uris": {"android": "https://dc.lft.to/lastmile_qr_scan", "ios": "https://dc.lft.to/lastmile_qr_scan"}, "fusion_lon": 0.0}, {"lat": 38.8873835, "is_disabled": 0, "type": "electric_scooter", "lon": -77.01537333333333, "bike_id": "378cd7742b860787a19557a0ae1ddb6b", "fusion_lat": 0.0, "name": "378cd7742b860787a19557a0ae1ddb6b", "is_reserved": 0, "rental_uris": {"android": "https://dc.lft.to/lastmile_qr_scan", "ios": "https://dc.lft.to/lastmile_qr_scan"}, "fusion_lon": 0.0}, {"lat": 38.89820666666667, "is_disabled": 0, "type": "electric_scooter", "lon": -77.03116083333333, "bike_id": "ef0ba7d9bfe3bd166a779fa81da7c3ba", "fusion_lat": 0.0, "name": "ef0ba7d9bfe3bd166a779fa81da7c3ba", "is_reserved": 0, "rental_uris": {"android": "https://dc.lft.to/lastmile_qr_scan", "ios": "https://dc.lft.to/lastmile_qr_scan"}, "fusion_lon": 0.0}, {"lat": 38.8904225, "is_disabled": 0, "type": "electric_scooter", "lon": -76.952476, "bike_id": "21683a2f5e00bf5cb352e990edcdae1f", "fusion_lat": 0.0, "name": "21683a2f5e00bf5cb352e990edcdae1f", "is_reserved": 0, "rental_uris": {"android": "https://dc.lft.to/lastmile_qr_scan", "ios": "https://dc.lft.to/lastmile_qr_scan"}, "fusion_lon": 0.0}, {"lat": 38.88415716666667, "is_disabled": 0, "type": "electric_bike", "lon": -76.954248, "bike_id": "7dd511f2a1bba4150f0f237ef71820f2", "fusion_lat": 0.0, "name": "7dd511f2a1bba4150f0f237ef71820f2", "is_reserved": 0, "rental_uris": {"android": "https://dc.lft.to/lastmile_qr_scan", "ios": "https://dc.lft.to/lastmile_qr_scan"}, "fusion_lon": 0.0}, {"lat": 38.902756833333335, "is_disabled": 0, "type": "electric_scooter", "lon": -77.04403166666667, "bike_id": "e72705bffb120799ca981af8434c4746", "fusion_lat": 0.0, "name": "e72705bffb120799ca981af8434c4746", "is_reserved": 0, "rental_uris": {"android": "https://dc.lft.to/lastmile_qr_scan", "ios": "https://dc.lft.to/lastmile_qr_scan"}, "fusion_lon": 0.0}, {"lat": 38.91969616666667, "is_disabled": 0, "type": "electric_scooter", "lon": -77.012051, "bike_id": "6d27a8aa8d3798c14432f8293a0681ff", "fusion_lat": 0.0, "name": "6d27a8aa8d3798c14432f8293a0681ff", "is_reserved": 0, "rental_uris": {"android": "https://dc.lft.to/lastmile_qr_scan", "ios": "https://dc.lft.to/lastmile_qr_scan"}, "fusion_lon": 0.0}, {"lat": 39.0563305, "is_disabled": 0, "type": "electric_bike", "lon": -77.12529783333333, "bike_id": "07486526e82d66bd924c2c3c149d548d", "fusion_lat": 0.0, "name": "07486526e82d66bd924c2c3c149d548d", "is_reserved": 0, "rental_uris": {"android": "https://dc.lft.to/lastmile_qr_scan", "ios": "https://dc.lft.to/lastmile_qr_scan"}, "fusion_lon": 0.0}, {"lat": 38.91732566666667, "is_disabled": 0, "type": "electric_scooter", "lon": -77.03642983333333, "bike_id": "d3f11981c3145f138827fdefbbcd0acf", "fusion_lat": 0.0, "name": "d3f11981c3145f138827fdefbbcd0acf", "is_reserved": 0, "rental_uris": {"android": "https://dc.lft.to/lastmile_qr_scan", "ios": "https://dc.lft.to/lastmile_qr_scan"}, "fusion_lon": 0.0}, {"lat": 38.91871616666667, "is_disabled": 0, "type": "electric_scooter", "lon": -77.0317105, "bike_id": "99a465993b56c012eaa486a5fbc7bb2b", "fusion_lat": 0.0, "name": "99a465993b56c012eaa486a5fbc7bb2b", "is_reserved": 0, "rental_uris": {"android": "https://dc.lft.to/lastmile_qr_scan", "ios": "https://dc.lft.to/lastmile_qr_scan"}, "fusion_lon": 0.0}, {"lat": 38.89220366666667, "is_disabled": 0, "type": "electric_scooter", "lon": -77.04361666666667, "bike_id": "df650ef9df9a337339211cd2d42c08bd", "fusion_lat": 0.0, "name": "df650ef9df9a337339211cd2d42c08bd", "is_reserved": 0, "rental_uris": {"android": "https://dc.lft.to/lastmile_qr_scan", "ios": "https://dc.lft.to/lastmile_qr_scan"}, "fusion_lon": 0.0}, {"lat": 38.88525466666667, "is_disabled": 0, "type": "electric_scooter", "lon": -77.01134366666666, "bike_id": "56643ef0f9563211286e9cc613cde5ef", "fusion_lat": 0.0, "name": "56643ef0f9563211286e9cc613cde5ef", "is_reserved": 0, "rental_uris": {"android": "https://dc.lft.to/lastmile_qr_scan", "ios": "https://dc.lft.to/lastmile_qr_scan"}, "fusion_lon": 0.0}, {"lat": 38.936096666666664, "is_disabled": 0, "type": "electric_scooter", "lon": -77.05858633333334, "bike_id": "47c3ee942ee2409c3e64167cc5e6b620", "fusion_lat": 0.0, "name": "47c3ee942ee2409c3e64167cc5e6b620", "is_reserved": 0, "rental_uris": {"android": "https://dc.lft.to/lastmile_qr_scan", "ios": "https://dc.lft.to/lastmile_qr_scan"}, "fusion_lon": 0.0}, {"lat": 38.933237166666665, "is_disabled": 0, "type": "electric_scooter", "lon": -77.043697, "bike_id": "f2039427b2e22d269fb1625fd43639ba", "fusion_lat": 0.0, "name": "f2039427b2e22d269fb1625fd43639ba", "is_reserved": 0, "rental_uris": {"android": "https://dc.lft.to/lastmile_qr_scan", "ios": "https://dc.lft.to/lastmile_qr_scan"}, "fusion_lon": 0.0}, {"lat": 38.90233666666666, "is_disabled": 0, "type": "electric_scooter", "lon": -77.060519, "bike_id": "6ac77c928acaf3dd0daffa2ec5b57611", "fusion_lat": 0.0, "name": "6ac77c928acaf3dd0daffa2ec5b57611", "is_reserved": 0, "rental_uris": {"android": "https://dc.lft.to/lastmile_qr_scan", "ios": "https://dc.lft.to/lastmile_qr_scan"}, "fusion_lon": 0.0}, {"lat": 38.9249165, "is_disabled": 0, "type": "electric_scooter", "lon": -77.057596, "bike_id": "4c45f4e5772b6a6f7622aac7092612aa", "fusion_lat": 0.0, "name": "4c45f4e5772b6a6f7622aac7092612aa", "is_reserved": 0, "rental_uris": {"android": "https://dc.lft.to/lastmile_qr_scan", "ios": "https://dc.lft.to/lastmile_qr_scan"}, "fusion_lon": 0.0}, {"lat": 38.9195115, "is_disabled": 0, "type": "electric_scooter", "lon": -76.98086083333334, "bike_id": "9a03ad957f62c5172687cb941e5fb636", "fusion_lat": 0.0, "name": "9a03ad957f62c5172687cb941e5fb636", "is_reserved": 0, "rental_uris": {"android": "https://dc.lft.to/lastmile_qr_scan", "ios": "https://dc.lft.to/lastmile_qr_scan"}, "fusion_lon": 0.0}, {"lat": 38.82782816666667, "is_disabled": 0, "type": "electric_bike", "lon": -77.009159, "bike_id": "042367fadc201469a7473be7355cb163", "fusion_lat": 0.0, "name": "042367fadc201469a7473be7355cb163", "is_reserved": 0, "rental_uris": {"android": "https://dc.lft.to/lastmile_qr_scan", "ios": "https://dc.lft.to/lastmile_qr_scan"}, "fusion_lon": 0.0}, {"lat": 38.914748333333335, "is_disabled": 0, "type": "electric_scooter", "lon": -77.00347816666667, "bike_id": "1526d00af731331b2e79faf807f6ec0b", "fusion_lat": 0.0, "name": "1526d00af731331b2e79faf807f6ec0b", "is_reserved": 0, "rental_uris": {"android": "https://dc.lft.to/lastmile_qr_scan", "ios": "https://dc.lft.to/lastmile_qr_scan"}, "fusion_lon": 0.0}, {"lat": 38.924840333333336, "is_disabled": 0, "type": "electric_scooter", "lon": -77.02830616666667, "bike_id": "3f06dc846df86897fcafe9cea428eee5", "fusion_lat": 0.0, "name": "3f06dc846df86897fcafe9cea428eee5", "is_reserved": 0, "rental_uris": {"android": "https://dc.lft.to/lastmile_qr_scan", "ios": "https://dc.lft.to/lastmile_qr_scan"}, "fusion_lon": 0.0}, {"lat": 38.90772916666667, "is_disabled": 0, "type": "electric_scooter", "lon": -77.03860716666667, "bike_id": "08b7dd7205b99718652d0d5af5795284", "fusion_lat": 0.0, "name": "08b7dd7205b99718652d0d5af5795284", "is_reserved": 0, "rental_uris": {"android": "https://dc.lft.to/lastmile_qr_scan", "ios": "https://dc.lft.to/lastmile_qr_scan"}, "fusion_lon": 0.0}, {"lat": 38.90774916666667, "is_disabled": 0, "type": "electric_scooter", "lon": -77.03850566666667, "bike_id": "89c7ee3bf3324f3d3b8b2a2b06bd4900", "fusion_lat": 0.0, "name": "89c7ee3bf3324f3d3b8b2a2b06bd4900", "is_reserved": 0, "rental_uris": {"android": "https://dc.lft.to/lastmile_qr_scan", "ios": "https://dc.lft.to/lastmile_qr_scan"}, "fusion_lon": 0.0}, {"lat": 38.91918483333333, "is_disabled": 0, "type": "electric_scooter", "lon": -77.033956, "bike_id": "8d19931dcabd6972bd1cb45368416ecc", "fusion_lat": 0.0, "name": "8d19931dcabd6972bd1cb45368416ecc", "is_reserved": 0, "rental_uris": {"android": "https://dc.lft.to/lastmile_qr_scan", "ios": "https://dc.lft.to/lastmile_qr_scan"}, "fusion_lon": 0.0}, {"lat": 38.986539, "is_disabled": 0, "type": "electric_bike", "lon": -77.05635483333333, "bike_id": "0582e3709ad1d7c4a17040934763c2a5", "fusion_lat": 0.0, "name": "0582e3709ad1d7c4a17040934763c2a5", "is_reserved": 0, "rental_uris": {"android": "https://dc.lft.to/lastmile_qr_scan", "ios": "https://dc.lft.to/lastmile_qr_scan"}, "fusion_lon": 0.0}, {"lat": 38.92187666666667, "is_disabled": 0, "type": "electric_scooter", "lon": -77.03979483333333, "bike_id": "69fa81015164e88c76fba7e21358f74a", "fusion_lat": 0.0, "name": "69fa81015164e88c76fba7e21358f74a", "is_reserved": 0, "rental_uris": {"android": "https://dc.lft.to/lastmile_qr_scan", "ios": "https://dc.lft.to/lastmile_qr_scan"}, "fusion_lon": 0.0}, {"lat": 38.913542, "is_disabled": 0, "type": "electric_scooter", "lon": -77.0456855, "bike_id": "458712cdbdb3fbdd6a4d7c84d1ff639a", "fusion_lat": 0.0, "name": "458712cdbdb3fbdd6a4d7c84d1ff639a", "is_reserved": 0, "rental_uris": {"android": "https://dc.lft.to/lastmile_qr_scan", "ios": "https://dc.lft.to/lastmile_qr_scan"}, "fusion_lon": 0.0}, {"lat": 38.9057205, "is_disabled": 0, "type": "electric_scooter", "lon": -77.0433645, "bike_id": "a1432530c9f029eaaac5404edcad8be5", "fusion_lat": 0.0, "name": "a1432530c9f029eaaac5404edcad8be5", "is_reserved": 0, "rental_uris": {"android": "https://dc.lft.to/lastmile_qr_scan", "ios": "https://dc.lft.to/lastmile_qr_scan"}, "fusion_lon": 0.0}, {"lat": 38.8442845, "is_disabled": 0, "type": "electric_scooter", "lon": -76.99777933333333, "bike_id": "1c1af908c425919347e28b84d7e71f67", "fusion_lat": 0.0, "name": "1c1af908c425919347e28b84d7e71f67", "is_reserved": 0, "rental_uris": {"android": "https://dc.lft.to/lastmile_qr_scan", "ios": "https://dc.lft.to/lastmile_qr_scan"}, "fusion_lon": 0.0}, {"lat": 38.842569833333336, "is_disabled": 0, "type": "electric_bike", "lon": -77.05835633333334, "bike_id": "8e3b1073b9e1f9fc3d4e2258519ca08c", "fusion_lat": 0.0, "name": "8e3b1073b9e1f9fc3d4e2258519ca08c", "is_reserved": 0, "rental_uris": {"android": "https://dc.lft.to/lastmile_qr_scan", "ios": "https://dc.lft.to/lastmile_qr_scan"}, "fusion_lon": 0.0}, {"lat": 38.91113166666667, "is_disabled": 0, "type": "electric_scooter", "lon": -77.003289, "bike_id": "60228788e2a65faeb8524fbf7afe8e0c", "fusion_lat": 0.0, "name": "60228788e2a65faeb8524fbf7afe8e0c", "is_reserved": 0, "rental_uris": {"android": "https://dc.lft.to/lastmile_qr_scan", "ios": "https://dc.lft.to/lastmile_qr_scan"}, "fusion_lon": 0.0}, {"lat": 38.917033833333335, "is_disabled": 0, "type": "electric_scooter", "lon": -77.0428015, "bike_id": "1d2dd37e8fd91b07f8a1ffd2f84bd604", "fusion_lat": 0.0, "name": "1d2dd37e8fd91b07f8a1ffd2f84bd604", "is_reserved": 0, "rental_uris": {"android": "https://dc.lft.to/lastmile_qr_scan", "ios": "https://dc.lft.to/lastmile_qr_scan"}, "fusion_lon": 0.0}, {"lat": 38.91199433333333, "is_disabled": 0, "type": "electric_scooter", "lon": -77.059718, "bike_id": "d8f2f7712f19555fc14e1d657d1ad973", "fusion_lat": 0.0, "name": "d8f2f7712f19555fc14e1d657d1ad973", "is_reserved": 0, "rental_uris": {"android": "https://dc.lft.to/lastmile_qr_scan", "ios": "https://dc.lft.to/lastmile_qr_scan"}, "fusion_lon": 0.0}, {"lat": 38.906854, "is_disabled": 0, "type": "electric_scooter", "lon": -77.01014033333334, "bike_id": "5164f3aa94b15d8658a5c120b2eb0d0b", "fusion_lat": 0.0, "name": "5164f3aa94b15d8658a5c120b2eb0d0b", "is_reserved": 0, "rental_uris": {"android": "https://dc.lft.to/lastmile_qr_scan", "ios": "https://dc.lft.to/lastmile_qr_scan"}, "fusion_lon": 0.0}, {"lat": 38.910034833333334, "is_disabled": 0, "type": "electric_scooter", "lon": -77.015079, "bike_id": "ab1fcdaa6f980104f2d50072ca041c24", "fusion_lat": 0.0, "name": "ab1fcdaa6f980104f2d50072ca041c24", "is_reserved": 0, "rental_uris": {"android": "https://dc.lft.to/lastmile_qr_scan", "ios": "https://dc.lft.to/lastmile_qr_scan"}, "fusion_lon": 0.0}, {"lat": 38.936028, "is_disabled": 0, "type": "electric_scooter", "lon": -77.03665133333334, "bike_id": "6ea5b3aca5a141009f16b8204f5e7764", "fusion_lat": 0.0, "name": "6ea5b3aca5a141009f16b8204f5e7764", "is_reserved": 0, "rental_uris": {"android": "https://dc.lft.to/lastmile_qr_scan", "ios": "https://dc.lft.to/lastmile_qr_scan"}, "fusion_lon": 0.0}, {"lat": 38.911016833333335, "is_disabled": 0, "type": "electric_scooter", "lon": -77.042063, "bike_id": "091513952d06e171f16a8e566070916e", "fusion_lat": 0.0, "name": "091513952d06e171f16a8e566070916e", "is_reserved": 0, "rental_uris": {"android": "https://dc.lft.to/lastmile_qr_scan", "ios": "https://dc.lft.to/lastmile_qr_scan"}, "fusion_lon": 0.0}, {"lat": 38.89224, "is_disabled": 0, "type": "electric_scooter", "lon": -77.02315566666667, "bike_id": "3aac63a43918bc2ecc1fbae30854c173", "fusion_lat": 0.0, "name": "3aac63a43918bc2ecc1fbae30854c173", "is_reserved": 0, "rental_uris": {"android": "https://dc.lft.to/lastmile_qr_scan", "ios": "https://dc.lft.to/lastmile_qr_scan"}, "fusion_lon": 0.0}, {"lat": 38.908296166666666, "is_disabled": 0, "type": "electric_scooter", "lon": -76.99703, "bike_id": "cca19ebce79e3f74e46359c82466309b", "fusion_lat": 0.0, "name": "cca19ebce79e3f74e46359c82466309b", "is_reserved": 0, "rental_uris": {"android": "https://dc.lft.to/lastmile_qr_scan", "ios": "https://dc.lft.to/lastmile_qr_scan"}, "fusion_lon": 0.0}, {"lat": 38.92467533333333, "is_disabled": 0, "type": "electric_bike", "lon": -77.20848366666667, "bike_id": "8048e36ebe2fe64b138bb0decf454444", "fusion_lat": 0.0, "name": "8048e36ebe2fe64b138bb0decf454444", "is_reserved": 0, "rental_uris": {"android": "https://dc.lft.to/lastmile_qr_scan", "ios": "https://dc.lft.to/lastmile_qr_scan"}, "fusion_lon": 0.0}, {"lat": 38.917128166666664, "is_disabled": 0, "type": "electric_scooter", "lon": -77.03221916666666, "bike_id": "735ad5fb21aa6b8246da296f51c38b6f", "fusion_lat": 0.0, "name": "735ad5fb21aa6b8246da296f51c38b6f", "is_reserved": 0, "rental_uris": {"android": "https://dc.lft.to/lastmile_qr_scan", "ios": "https://dc.lft.to/lastmile_qr_scan"}, "fusion_lon": 0.0}, {"lat": 38.90540033333333, "is_disabled": 0, "type": "electric_scooter", "lon": -77.04167833333334, "bike_id": "d9ed1f798eb1dfecee87b31aa9c17872", "fusion_lat": 0.0, "name": "d9ed1f798eb1dfecee87b31aa9c17872", "is_reserved": 0, "rental_uris": {"android": "https://dc.lft.to/lastmile_qr_scan", "ios": "https://dc.lft.to/lastmile_qr_scan"}, "fusion_lon": 0.0}, {"lat": 38.9006105, "is_disabled": 0, "type": "electric_scooter", "lon": -77.02626, "bike_id": "b1fd656774c7ec455d3bfe145b353675", "fusion_lat": 0.0, "name": "b1fd656774c7ec455d3bfe145b353675", "is_reserved": 0, "rental_uris": {"android": "https://dc.lft.to/lastmile_qr_scan", "ios": "https://dc.lft.to/lastmile_qr_scan"}, "fusion_lon": 0.0}, {"lat": 38.915532166666665, "is_disabled": 0, "type": "electric_scooter", "lon": -77.03854016666666, "bike_id": "348e443a540b16baadb23cf454447203", "fusion_lat": 0.0, "name": "348e443a540b16baadb23cf454447203", "is_reserved": 0, "rental_uris": {"android": "https://dc.lft.to/lastmile_qr_scan", "ios": "https://dc.lft.to/lastmile_qr_scan"}, "fusion_lon": 0.0}, {"lat": 38.93310916666667, "is_disabled": 0, "type": "electric_scooter", "lon": -77.02796316666667, "bike_id": "3b2c2f0f53180cbc9dd9edce1f460fa8", "fusion_lat": 0.0, "name": "3b2c2f0f53180cbc9dd9edce1f460fa8", "is_reserved": 0, "rental_uris": {"android": "https://dc.lft.to/lastmile_qr_scan", "ios": "https://dc.lft.to/lastmile_qr_scan"}, "fusion_lon": 0.0}, {"lat": 38.896125166666664, "is_disabled": 0, "type": "electric_bike", "lon": -77.12652016666667, "bike_id": "b6c83f0a2e378ae4e940d91a54a8170f", "fusion_lat": 0.0, "name": "b6c83f0a2e378ae4e940d91a54a8170f", "is_reserved": 0, "rental_uris": {"android": "https://dc.lft.to/lastmile_qr_scan", "ios": "https://dc.lft.to/lastmile_qr_scan"}, "fusion_lon": 0.0}, {"lat": 38.921191, "is_disabled": 0, "type": "electric_scooter", "lon": -77.03658066666667, "bike_id": "fa2916a6bde5cffb4af5dbbb51d53b23", "fusion_lat": 0.0, "name": "fa2916a6bde5cffb4af5dbbb51d53b23", "is_reserved": 0, "rental_uris": {"android": "https://dc.lft.to/lastmile_qr_scan", "ios": "https://dc.lft.to/lastmile_qr_scan"}, "fusion_lon": 0.0}, {"lat": 38.9014325, "is_disabled": 0, "type": "electric_scooter", "lon": -77.03867416666667, "bike_id": "78ac71305defabd363f3ef4f1bdf449f", "fusion_lat": 0.0, "name": "78ac71305defabd363f3ef4f1bdf449f", "is_reserved": 0, "rental_uris": {"android": "https://dc.lft.to/lastmile_qr_scan", "ios": "https://dc.lft.to/lastmile_qr_scan"}, "fusion_lon": 0.0}, {"lat": 38.92859933333333, "is_disabled": 0, "type": "electric_scooter", "lon": -77.03321916666667, "bike_id": "a9f3ed38c155ba601e7c9317991c6ed1", "fusion_lat": 0.0, "name": "a9f3ed38c155ba601e7c9317991c6ed1", "is_reserved": 0, "rental_uris": {"android": "https://dc.lft.to/lastmile_qr_scan", "ios": "https://dc.lft.to/lastmile_qr_scan"}, "fusion_lon": 0.0}, {"lat": 38.933566166666665, "is_disabled": 0, "type": "electric_bike", "lon": -77.09963916666666, "bike_id": "650d1bdbe0716f4de196b2b0e2b51977", "fusion_lat": 0.0, "name": "650d1bdbe0716f4de196b2b0e2b51977", "is_reserved": 0, "rental_uris": {"android": "https://dc.lft.to/lastmile_qr_scan", "ios": "https://dc.lft.to/lastmile_qr_scan"}, "fusion_lon": 0.0}, {"lat": 38.90280116666667, "is_disabled": 0, "type": "electric_scooter", "lon": -77.0363735, "bike_id": "825c301a67a91a2f8eaa3837a32059ca", "fusion_lat": 0.0, "name": "825c301a67a91a2f8eaa3837a32059ca", "is_reserved": 0, "rental_uris": {"android": "https://dc.lft.to/lastmile_qr_scan", "ios": "https://dc.lft.to/lastmile_qr_scan"}, "fusion_lon": 0.0}, {"lat": 38.91417716666667, "is_disabled": 0, "type": "electric_scooter", "lon": -77.03186816666667, "bike_id": "e0f5ee9b562badd310b8574a268acfc8", "fusion_lat": 0.0, "name": "e0f5ee9b562badd310b8574a268acfc8", "is_reserved": 0, "rental_uris": {"android": "https://dc.lft.to/lastmile_qr_scan", "ios": "https://dc.lft.to/lastmile_qr_scan"}, "fusion_lon": 0.0}, {"lat": 38.92325733333333, "is_disabled": 0, "type": "electric_scooter", "lon": -77.03548116666667, "bike_id": "40afe7a6885e911087e58c52d0685fc0", "fusion_lat": 0.0, "name": "40afe7a6885e911087e58c52d0685fc0", "is_reserved": 0, "rental_uris": {"android": "https://dc.lft.to/lastmile_qr_scan", "ios": "https://dc.lft.to/lastmile_qr_scan"}, "fusion_lon": 0.0}, {"lat": 38.916925166666665, "is_disabled": 0, "type": "electric_scooter", "lon": -77.041953, "bike_id": "1a882b279ce000d806389b8d611ffd20", "fusion_lat": 0.0, "name": "1a882b279ce000d806389b8d611ffd20", "is_reserved": 0, "rental_uris": {"android": "https://dc.lft.to/lastmile_qr_scan", "ios": "https://dc.lft.to/lastmile_qr_scan"}, "fusion_lon": 0.0}, {"lat": 38.90972683333333, "is_disabled": 0, "type": "electric_scooter", "lon": -77.038745, "bike_id": "f3c3c80f3da8bddd555a31be993f8850", "fusion_lat": 0.0, "name": "f3c3c80f3da8bddd555a31be993f8850", "is_reserved": 0, "rental_uris": {"android": "https://dc.lft.to/lastmile_qr_scan", "ios": "https://dc.lft.to/lastmile_qr_scan"}, "fusion_lon": 0.0}, {"lat": 38.90810533333333, "is_disabled": 0, "type": "electric_scooter", "lon": -77.0432485, "bike_id": "c4eb166ea6ef83a9cb9602fb3711dab5", "fusion_lat": 0.0, "name": "c4eb166ea6ef83a9cb9602fb3711dab5", "is_reserved": 0, "rental_uris": {"android": "https://dc.lft.to/lastmile_qr_scan", "ios": "https://dc.lft.to/lastmile_qr_scan"}, "fusion_lon": 0.0}, {"lat": 38.86524416666666, "is_disabled": 0, "type": "electric_scooter", "lon": -76.99029033333333, "bike_id": "ecca4695480979301b6775fab8128644", "fusion_lat": 0.0, "name": "ecca4695480979301b6775fab8128644", "is_reserved": 0, "rental_uris": {"android": "https://dc.lft.to/lastmile_qr_scan", "ios": "https://dc.lft.to/lastmile_qr_scan"}, "fusion_lon": 0.0}, {"lat": 38.9095945, "is_disabled": 0, "type": "electric_scooter", "lon": -77.02289616666667, "bike_id": "5f57c67169caa64fecb97c1aa1a96fff", "fusion_lat": 0.0, "name": "5f57c67169caa64fecb97c1aa1a96fff", "is_reserved": 0, "rental_uris": {"android": "https://dc.lft.to/lastmile_qr_scan", "ios": "https://dc.lft.to/lastmile_qr_scan"}, "fusion_lon": 0.0}, {"lat": 38.85906116666666, "is_disabled": 0, "type": "electric_scooter", "lon": -76.99153916666667, "bike_id": "c4cc821d5c1287c4481e0300d5fda57f", "fusion_lat": 0.0, "name": "c4cc821d5c1287c4481e0300d5fda57f", "is_reserved": 0, "rental_uris": {"android": "https://dc.lft.to/lastmile_qr_scan", "ios": "https://dc.lft.to/lastmile_qr_scan"}, "fusion_lon": 0.0}, {"lat": 38.90044916666667, "is_disabled": 0, "type": "electric_scooter", "lon": -77.0021075, "bike_id": "28d3be8ec2077f515f3089bcfe2a210d", "fusion_lat": 0.0, "name": "28d3be8ec2077f515f3089bcfe2a210d", "is_reserved": 0, "rental_uris": {"android": "https://dc.lft.to/lastmile_qr_scan", "ios": "https://dc.lft.to/lastmile_qr_scan"}, "fusion_lon": 0.0}, {"lat": 38.915443, "is_disabled": 0, "type": "electric_scooter", "lon": -77.05319966666667, "bike_id": "90e763e26183ce2afeaa4df78e65185b", "fusion_lat": 0.0, "name": "90e763e26183ce2afeaa4df78e65185b", "is_reserved": 0, "rental_uris": {"android": "https://dc.lft.to/lastmile_qr_scan", "ios": "https://dc.lft.to/lastmile_qr_scan"}, "fusion_lon": 0.0}, {"lat": 38.866518166666665, "is_disabled": 0, "type": "electric_scooter", "lon": -76.98886216666666, "bike_id": "02fe6977691d3e5e2a52577126337c33", "fusion_lat": 0.0, "name": "02fe6977691d3e5e2a52577126337c33", "is_reserved": 0, "rental_uris": {"android": "https://dc.lft.to/lastmile_qr_scan", "ios": "https://dc.lft.to/lastmile_qr_scan"}, "fusion_lon": 0.0}, {"lat": 38.9527475, "is_disabled": 0, "type": "electric_scooter", "lon": -77.06885633333333, "bike_id": "a0ceec461279c4fa8dc500436cb1755c", "fusion_lat": 0.0, "name": "a0ceec461279c4fa8dc500436cb1755c", "is_reserved": 0, "rental_uris": {"android": "https://dc.lft.to/lastmile_qr_scan", "ios": "https://dc.lft.to/lastmile_qr_scan"}, "fusion_lon": 0.0}, {"lat": 38.9086175, "is_disabled": 0, "type": "electric_scooter", "lon": -76.99166683333334, "bike_id": "135187d6c199174c0196517563e49c9e", "fusion_lat": 0.0, "name": "135187d6c199174c0196517563e49c9e", "is_reserved": 0, "rental_uris": {"android": "https://dc.lft.to/lastmile_qr_scan", "ios": "https://dc.lft.to/lastmile_qr_scan"}, "fusion_lon": 0.0}, {"lat": 38.89911566666667, "is_disabled": 0, "type": "electric_scooter", "lon": -76.933501, "bike_id": "ee699ec3c89f89c0355afd788c8da942", "fusion_lat": 0.0, "name": "ee699ec3c89f89c0355afd788c8da942", "is_reserved": 0, "rental_uris": {"android": "https://dc.lft.to/lastmile_qr_scan", "ios": "https://dc.lft.to/lastmile_qr_scan"}, "fusion_lon": 0.0}, {"lat": 38.90554766666666, "is_disabled": 0, "type": "electric_scooter", "lon": -77.03402983333334, "bike_id": "84162ad5be8974093ee60f5f890040fe", "fusion_lat": 0.0, "name": "84162ad5be8974093ee60f5f890040fe", "is_reserved": 0, "rental_uris": {"android": "https://dc.lft.to/lastmile_qr_scan", "ios": "https://dc.lft.to/lastmile_qr_scan"}, "fusion_lon": 0.0}, {"lat": 38.9172965, "is_disabled": 0, "type": "electric_scooter", "lon": -77.03643033333333, "bike_id": "e732017986e8728932073c011f6518c9", "fusion_lat": 0.0, "name": "e732017986e8728932073c011f6518c9", "is_reserved": 0, "rental_uris": {"android": "https://dc.lft.to/lastmile_qr_scan", "ios": "https://dc.lft.to/lastmile_qr_scan"}, "fusion_lon": 0.0}, {"lat": 39.05193833333333, "is_disabled": 0, "type": "electric_bike", "lon": -77.109228, "bike_id": "0949c337d94f0b94a63cf11df8f6de5f", "fusion_lat": 0.0, "name": "0949c337d94f0b94a63cf11df8f6de5f", "is_reserved": 0, "rental_uris": {"android": "https://dc.lft.to/lastmile_qr_scan", "ios": "https://dc.lft.to/lastmile_qr_scan"}, "fusion_lon": 0.0}, {"lat": 38.906157, "is_disabled": 0, "type": "electric_scooter", "lon": -77.018859, "bike_id": "58cdfdfd885dda5c2e2e99e708dd9b26", "fusion_lat": 0.0, "name": "58cdfdfd885dda5c2e2e99e708dd9b26", "is_reserved": 0, "rental_uris": {"android": "https://dc.lft.to/lastmile_qr_scan", "ios": "https://dc.lft.to/lastmile_qr_scan"}, "fusion_lon": 0.0}, {"lat": 38.938865666666665, "is_disabled": 0, "type": "electric_bike", "lon": -76.99507783333334, "bike_id": "4f1897068b03e8411062e2c9ea807a5e", "fusion_lat": 0.0, "name": "4f1897068b03e8411062e2c9ea807a5e", "is_reserved": 0, "rental_uris": {"android": "https://dc.lft.to/lastmile_qr_scan", "ios": "https://dc.lft.to/lastmile_qr_scan"}, "fusion_lon": 0.0}, {"lat": 38.91938833333333, "is_disabled": 0, "type": "electric_scooter", "lon": -77.02423516666667, "bike_id": "64838eb3287ad57acee8084ba93cda7f", "fusion_lat": 0.0, "name": "64838eb3287ad57acee8084ba93cda7f", "is_reserved": 0, "rental_uris": {"android": "https://dc.lft.to/lastmile_qr_scan", "ios": "https://dc.lft.to/lastmile_qr_scan"}, "fusion_lon": 0.0}, {"lat": 38.89750816666667, "is_disabled": 0, "type": "electric_scooter", "lon": -77.026948, "bike_id": "23fba9130a74fab246d57aea76813932", "fusion_lat": 0.0, "name": "23fba9130a74fab246d57aea76813932", "is_reserved": 0, "rental_uris": {"android": "https://dc.lft.to/lastmile_qr_scan", "ios": "https://dc.lft.to/lastmile_qr_scan"}, "fusion_lon": 0.0}, {"lat": 38.920616, "is_disabled": 0, "type": "electric_scooter", "lon": -77.03190916666667, "bike_id": "ce25581d4256e6ea10f7a8fe79fa514d", "fusion_lat": 0.0, "name": "ce25581d4256e6ea10f7a8fe79fa514d", "is_reserved": 0, "rental_uris": {"android": "https://dc.lft.to/lastmile_qr_scan", "ios": "https://dc.lft.to/lastmile_qr_scan"}, "fusion_lon": 0.0}, {"lat": 38.930565666666666, "is_disabled": 0, "type": "electric_scooter", "lon": -77.04028733333334, "bike_id": "f5d9b3d343468b084313b38aa9886a58", "fusion_lat": 0.0, "name": "f5d9b3d343468b084313b38aa9886a58", "is_reserved": 0, "rental_uris": {"android": "https://dc.lft.to/lastmile_qr_scan", "ios": "https://dc.lft.to/lastmile_qr_scan"}, "fusion_lon": 0.0}, {"lat": 38.9276905, "is_disabled": 0, "type": "electric_scooter", "lon": -77.02776233333333, "bike_id": "85495910bf46f8f3d8388591408160a0", "fusion_lat": 0.0, "name": "85495910bf46f8f3d8388591408160a0", "is_reserved": 0, "rental_uris": {"android": "https://dc.lft.to/lastmile_qr_scan", "ios": "https://dc.lft.to/lastmile_qr_scan"}, "fusion_lon": 0.0}, {"lat": 38.918436166666666, "is_disabled": 0, "type": "electric_scooter", "lon": -76.965482, "bike_id": "0cc9a7170379fb55a3e5471c4ebc6e2c", "fusion_lat": 0.0, "name": "0cc9a7170379fb55a3e5471c4ebc6e2c", "is_reserved": 0, "rental_uris": {"android": "https://dc.lft.to/lastmile_qr_scan", "ios": "https://dc.lft.to/lastmile_qr_scan"}, "fusion_lon": 0.0}, {"lat": 38.92860783333333, "is_disabled": 0, "type": "electric_scooter", "lon": -77.03658016666667, "bike_id": "f8b3fb248c7dc72367962bcd93465b38", "fusion_lat": 0.0, "name": "f8b3fb248c7dc72367962bcd93465b38", "is_reserved": 0, "rental_uris": {"android": "https://dc.lft.to/lastmile_qr_scan", "ios": "https://dc.lft.to/lastmile_qr_scan"}, "fusion_lon": 0.0}, {"lat": 38.8592465, "is_disabled": 0, "type": "electric_scooter", "lon": -76.9898335, "bike_id": "b1d2a639fd8ea0e495a924232fb7b467", "fusion_lat": 0.0, "name": "b1d2a639fd8ea0e495a924232fb7b467", "is_reserved": 0, "rental_uris": {"android": "https://dc.lft.to/lastmile_qr_scan", "ios": "https://dc.lft.to/lastmile_qr_scan"}, "fusion_lon": 0.0}, {"lat": 38.90134333333334, "is_disabled": 0, "type": "electric_scooter", "lon": -77.041892, "bike_id": "3ceea5922885236002da37c886f2aa66", "fusion_lat": 0.0, "name": "3ceea5922885236002da37c886f2aa66", "is_reserved": 0, "rental_uris": {"android": "https://dc.lft.to/lastmile_qr_scan", "ios": "https://dc.lft.to/lastmile_qr_scan"}, "fusion_lon": 0.0}, {"lat": 38.91760716666667, "is_disabled": 0, "type": "electric_scooter", "lon": -77.02295283333333, "bike_id": "29c0b478d2275cbd8194b7884faf1eed", "fusion_lat": 0.0, "name": "29c0b478d2275cbd8194b7884faf1eed", "is_reserved": 0, "rental_uris": {"android": "https://dc.lft.to/lastmile_qr_scan", "ios": "https://dc.lft.to/lastmile_qr_scan"}, "fusion_lon": 0.0}, {"lat": 38.9181555, "is_disabled": 0, "type": "electric_scooter", "lon": -77.02490183333333, "bike_id": "55c7b801172608adcf9ecb8a422de567", "fusion_lat": 0.0, "name": "55c7b801172608adcf9ecb8a422de567", "is_reserved": 0, "rental_uris": {"android": "https://dc.lft.to/lastmile_qr_scan", "ios": "https://dc.lft.to/lastmile_qr_scan"}, "fusion_lon": 0.0}, {"lat": 38.9199195, "is_disabled": 0, "type": "electric_scooter", "lon": -77.02523433333333, "bike_id": "19059e2d741e8a4235fdbb204fd8a14f", "fusion_lat": 0.0, "name": "19059e2d741e8a4235fdbb204fd8a14f", "is_reserved": 0, "rental_uris": {"android": "https://dc.lft.to/lastmile_qr_scan", "ios": "https://dc.lft.to/lastmile_qr_scan"}, "fusion_lon": 0.0}, {"lat": 38.89221233333333, "is_disabled": 0, "type": "electric_scooter", "lon": -77.02209466666666, "bike_id": "77200ba9e722fccd2496c94b0626d6ce", "fusion_lat": 0.0, "name": "77200ba9e722fccd2496c94b0626d6ce", "is_reserved": 0, "rental_uris": {"android": "https://dc.lft.to/lastmile_qr_scan", "ios": "https://dc.lft.to/lastmile_qr_scan"}, "fusion_lon": 0.0}, {"lat": 38.91657, "is_disabled": 0, "type": "electric_scooter", "lon": -77.02292566666667, "bike_id": "c8b123f24f417f2ae2b4e4a09aa0a329", "fusion_lat": 0.0, "name": "c8b123f24f417f2ae2b4e4a09aa0a329", "is_reserved": 0, "rental_uris": {"android": "https://dc.lft.to/lastmile_qr_scan", "ios": "https://dc.lft.to/lastmile_qr_scan"}, "fusion_lon": 0.0}, {"lat": 38.9099155, "is_disabled": 0, "type": "electric_scooter", "lon": -77.04157233333333, "bike_id": "3535aaa07f0d6ccc09de73c1a11df069", "fusion_lat": 0.0, "name": "3535aaa07f0d6ccc09de73c1a11df069", "is_reserved": 0, "rental_uris": {"android": "https://dc.lft.to/lastmile_qr_scan", "ios": "https://dc.lft.to/lastmile_qr_scan"}, "fusion_lon": 0.0}, {"lat": 38.80574133333333, "is_disabled": 0, "type": "electric_bike", "lon": -77.0686165, "bike_id": "123cd766c439fc5a4d73ca1938c51b29", "fusion_lat": 0.0, "name": "123cd766c439fc5a4d73ca1938c51b29", "is_reserved": 0, "rental_uris": {"android": "https://dc.lft.to/lastmile_qr_scan", "ios": "https://dc.lft.to/lastmile_qr_scan"}, "fusion_lon": 0.0}, {"lat": 38.902492, "is_disabled": 0, "type": "electric_scooter", "lon": -77.02654833333334, "bike_id": "ee18e8557127fa156dd2f1bf560ae8a5", "fusion_lat": 0.0, "name": "ee18e8557127fa156dd2f1bf560ae8a5", "is_reserved": 0, "rental_uris": {"android": "https://dc.lft.to/lastmile_qr_scan", "ios": "https://dc.lft.to/lastmile_qr_scan"}, "fusion_lon": 0.0}, {"lat": 38.8883205, "is_disabled": 0, "type": "electric_scooter", "lon": -76.99410566666667, "bike_id": "43f5bcd5dd70831bbb2a958ae902c408", "fusion_lat": 0.0, "name": "43f5bcd5dd70831bbb2a958ae902c408", "is_reserved": 0, "rental_uris": {"android": "https://dc.lft.to/lastmile_qr_scan", "ios": "https://dc.lft.to/lastmile_qr_scan"}, "fusion_lon": 0.0}, {"lat": 38.90106566666667, "is_disabled": 0, "type": "electric_bike", "lon": -77.04875833333334, "bike_id": "ee07aa4fb785f552d272b728fd386356", "fusion_lat": 0.0, "name": "ee07aa4fb785f552d272b728fd386356", "is_reserved": 0, "rental_uris": {"android": "https://dc.lft.to/lastmile_qr_scan", "ios": "https://dc.lft.to/lastmile_qr_scan"}, "fusion_lon": 0.0}, {"lat": 38.982706666666665, "is_disabled": 0, "type": "electric_bike", "lon": -77.01775033333334, "bike_id": "2f255fe1a9d2512f0de48e0966a6b8f5", "fusion_lat": 0.0, "name": "2f255fe1a9d2512f0de48e0966a6b8f5", "is_reserved": 0, "rental_uris": {"android": "https://dc.lft.to/lastmile_qr_scan", "ios": "https://dc.lft.to/lastmile_qr_scan"}, "fusion_lon": 0.0}, {"lat": 38.90977916666667, "is_disabled": 0, "type": "electric_scooter", "lon": -77.0384705, "bike_id": "d995ad1fd470ceb8f85075d98bbd3e22", "fusion_lat": 0.0, "name": "d995ad1fd470ceb8f85075d98bbd3e22", "is_reserved": 0, "rental_uris": {"android": "https://dc.lft.to/lastmile_qr_scan", "ios": "https://dc.lft.to/lastmile_qr_scan"}, "fusion_lon": 0.0}, {"lat": 38.917421833333336, "is_disabled": 0, "type": "electric_scooter", "lon": -77.03209733333334, "bike_id": "bc04c456094b5f7df0dfda6cf927bc03", "fusion_lat": 0.0, "name": "bc04c456094b5f7df0dfda6cf927bc03", "is_reserved": 0, "rental_uris": {"android": "https://dc.lft.to/lastmile_qr_scan", "ios": "https://dc.lft.to/lastmile_qr_scan"}, "fusion_lon": 0.0}, {"lat": 38.9212695, "is_disabled": 0, "type": "electric_scooter", "lon": -77.0116925, "bike_id": "726a48d77ecfd84f3cc80afa1d722950", "fusion_lat": 0.0, "name": "726a48d77ecfd84f3cc80afa1d722950", "is_reserved": 0, "rental_uris": {"android": "https://dc.lft.to/lastmile_qr_scan", "ios": "https://dc.lft.to/lastmile_qr_scan"}, "fusion_lon": 0.0}, {"lat": 38.98505766666667, "is_disabled": 0, "type": "electric_bike", "lon": -76.98213766666667, "bike_id": "19cddb85d378ad65fd37a0d1c03aa87c", "fusion_lat": 0.0, "name": "19cddb85d378ad65fd37a0d1c03aa87c", "is_reserved": 0, "rental_uris": {"android": "https://dc.lft.to/lastmile_qr_scan", "ios": "https://dc.lft.to/lastmile_qr_scan"}, "fusion_lon": 0.0}, {"lat": 38.90618333333333, "is_disabled": 0, "type": "electric_bike", "lon": -76.98608816666666, "bike_id": "466c333e2494ba6992d73dc2b98e979f", "fusion_lat": 0.0, "name": "466c333e2494ba6992d73dc2b98e979f", "is_reserved": 0, "rental_uris": {"android": "https://dc.lft.to/lastmile_qr_scan", "ios": "https://dc.lft.to/lastmile_qr_scan"}, "fusion_lon": 0.0}, {"lat": 38.908289333333336, "is_disabled": 0, "type": "electric_scooter", "lon": -77.02009766666667, "bike_id": "40e20a3bfb8d2e088448048efd8ac12d", "fusion_lat": 0.0, "name": "40e20a3bfb8d2e088448048efd8ac12d", "is_reserved": 0, "rental_uris": {"android": "https://dc.lft.to/lastmile_qr_scan", "ios": "https://dc.lft.to/lastmile_qr_scan"}, "fusion_lon": 0.0}, {"lat": 38.919711166666666, "is_disabled": 0, "type": "electric_scooter", "lon": -77.01439516666667, "bike_id": "abf0f03f48ecbde244aed33846f068ff", "fusion_lat": 0.0, "name": "abf0f03f48ecbde244aed33846f068ff", "is_reserved": 0, "rental_uris": {"android": "https://dc.lft.to/lastmile_qr_scan", "ios": "https://dc.lft.to/lastmile_qr_scan"}, "fusion_lon": 0.0}, {"lat": 38.886854, "is_disabled": 0, "type": "electric_bike", "lon": -77.16237283333334, "bike_id": "2a38e892f93d292b1ae94f9ec14774c0", "fusion_lat": 0.0, "name": "2a38e892f93d292b1ae94f9ec14774c0", "is_reserved": 0, "rental_uris": {"android": "https://dc.lft.to/lastmile_qr_scan", "ios": "https://dc.lft.to/lastmile_qr_scan"}, "fusion_lon": 0.0}, {"lat": 38.90414916666667, "is_disabled": 0, "type": "electric_scooter", "lon": -77.05102983333333, "bike_id": "089309cc17baf35ed864f6aeea830921", "fusion_lat": 0.0, "name": "089309cc17baf35ed864f6aeea830921", "is_reserved": 0, "rental_uris": {"android": "https://dc.lft.to/lastmile_qr_scan", "ios": "https://dc.lft.to/lastmile_qr_scan"}, "fusion_lon": 0.0}, {"lat": 38.88550216666667, "is_disabled": 0, "type": "electric_bike", "lon": -77.117897, "bike_id": "814c2d20b0f1d17a0355e393a0f22b5d", "fusion_lat": 0.0, "name": "814c2d20b0f1d17a0355e393a0f22b5d", "is_reserved": 0, "rental_uris": {"android": "https://dc.lft.to/lastmile_qr_scan", "ios": "https://dc.lft.to/lastmile_qr_scan"}, "fusion_lon": 0.0}, {"lat": 38.87712916666667, "is_disabled": 0, "type": "electric_scooter", "lon": -77.01766883333333, "bike_id": "d005ca337d77b5767f8bee1eec8451ff", "fusion_lat": 0.0, "name": "d005ca337d77b5767f8bee1eec8451ff", "is_reserved": 0, "rental_uris": {"android": "https://dc.lft.to/lastmile_qr_scan", "ios": "https://dc.lft.to/lastmile_qr_scan"}, "fusion_lon": 0.0}, {"lat": 38.903941833333334, "is_disabled": 0, "type": "electric_scooter", "lon": -76.99001466666667, "bike_id": "43f80acffbe738b90d70eed584591e7c", "fusion_lat": 0.0, "name": "43f80acffbe738b90d70eed584591e7c", "is_reserved": 0, "rental_uris": {"android": "https://dc.lft.to/lastmile_qr_scan", "ios": "https://dc.lft.to/lastmile_qr_scan"}, "fusion_lon": 0.0}, {"lat": 38.88612216666667, "is_disabled": 0, "type": "electric_scooter", "lon": -77.01899283333333, "bike_id": "ca5417d8b750e8e3cbe5a8c21122c069", "fusion_lat": 0.0, "name": "ca5417d8b750e8e3cbe5a8c21122c069", "is_reserved": 0, "rental_uris": {"android": "https://dc.lft.to/lastmile_qr_scan", "ios": "https://dc.lft.to/lastmile_qr_scan"}, "fusion_lon": 0.0}, {"lat": 38.94824833333333, "is_disabled": 0, "type": "electric_scooter", "lon": -76.99905683333333, "bike_id": "80cd2632e50f4c09de97468630a1a6fd", "fusion_lat": 0.0, "name": "80cd2632e50f4c09de97468630a1a6fd", "is_reserved": 0, "rental_uris": {"android": "https://dc.lft.to/lastmile_qr_scan", "ios": "https://dc.lft.to/lastmile_qr_scan"}, "fusion_lon": 0.0}, {"lat": 38.917022333333335, "is_disabled": 0, "type": "electric_scooter", "lon": -76.97927866666667, "bike_id": "9b0f8e3ecbdd1b7fe52954cd82dc8f58", "fusion_lat": 0.0, "name": "9b0f8e3ecbdd1b7fe52954cd82dc8f58", "is_reserved": 0, "rental_uris": {"android": "https://dc.lft.to/lastmile_qr_scan", "ios": "https://dc.lft.to/lastmile_qr_scan"}, "fusion_lon": 0.0}, {"lat": 38.895124, "is_disabled": 0, "type": "electric_scooter", "lon": -77.02207466666667, "bike_id": "32b8c05da70ff9e928fbf66e9581e272", "fusion_lat": 0.0, "name": "32b8c05da70ff9e928fbf66e9581e272", "is_reserved": 0, "rental_uris": {"android": "https://dc.lft.to/lastmile_qr_scan", "ios": "https://dc.lft.to/lastmile_qr_scan"}, "fusion_lon": 0.0}, {"lat": 38.92213016666667, "is_disabled": 0, "type": "electric_bike", "lon": -77.08194083333333, "bike_id": "d6fdab874ba6173334c30c4402386b80", "fusion_lat": 0.0, "name": "d6fdab874ba6173334c30c4402386b80", "is_reserved": 0, "rental_uris": {"android": "https://dc.lft.to/lastmile_qr_scan", "ios": "https://dc.lft.to/lastmile_qr_scan"}, "fusion_lon": 0.0}, {"lat": 38.949004333333335, "is_disabled": 0, "type": "electric_bike", "lon": -76.9723965, "bike_id": "9db241d1328e1339e04c58851caab3c1", "fusion_lat": 0.0, "name": "9db241d1328e1339e04c58851caab3c1", "is_reserved": 0, "rental_uris": {"android": "https://dc.lft.to/lastmile_qr_scan", "ios": "https://dc.lft.to/lastmile_qr_scan"}, "fusion_lon": 0.0}, {"lat": 38.873738333333336, "is_disabled": 0, "type": "electric_bike", "lon": -77.11806066666666, "bike_id": "f1beac12dd6ac6d41dd12a5194baee1a", "fusion_lat": 0.0, "name": "f1beac12dd6ac6d41dd12a5194baee1a", "is_reserved": 0, "rental_uris": {"android": "https://dc.lft.to/lastmile_qr_scan", "ios": "https://dc.lft.to/lastmile_qr_scan"}, "fusion_lon": 0.0}, {"lat": 38.89214316666666, "is_disabled": 0, "type": "electric_scooter", "lon": -77.02628883333334, "bike_id": "893a78cd7fa1a82aece62af9f7ad4428", "fusion_lat": 0.0, "name": "893a78cd7fa1a82aece62af9f7ad4428", "is_reserved": 0, "rental_uris": {"android": "https://dc.lft.to/lastmile_qr_scan", "ios": "https://dc.lft.to/lastmile_qr_scan"}, "fusion_lon": 0.0}, {"lat": 38.92683133333333, "is_disabled": 0, "type": "electric_scooter", "lon": -77.01574866666667, "bike_id": "5ef67f2056bebcf113208b7ad2683d32", "fusion_lat": 0.0, "name": "5ef67f2056bebcf113208b7ad2683d32", "is_reserved": 0, "rental_uris": {"android": "https://dc.lft.to/lastmile_qr_scan", "ios": "https://dc.lft.to/lastmile_qr_scan"}, "fusion_lon": 0.0}, {"lat": 38.9015475, "is_disabled": 0, "type": "electric_scooter", "lon": -77.01501633333334, "bike_id": "33d8376ac313ec0594e0d5f873d2bfe9", "fusion_lat": 0.0, "name": "33d8376ac313ec0594e0d5f873d2bfe9", "is_reserved": 0, "rental_uris": {"android": "https://dc.lft.to/lastmile_qr_scan", "ios": "https://dc.lft.to/lastmile_qr_scan"}, "fusion_lon": 0.0}, {"lat": 38.88751766666667, "is_disabled": 0, "type": "electric_scooter", "lon": -77.03220983333334, "bike_id": "fa0d823fb27ae96b757d367187773d71", "fusion_lat": 0.0, "name": "fa0d823fb27ae96b757d367187773d71", "is_reserved": 0, "rental_uris": {"android": "https://dc.lft.to/lastmile_qr_scan", "ios": "https://dc.lft.to/lastmile_qr_scan"}, "fusion_lon": 0.0}, {"lat": 38.898967166666665, "is_disabled": 0, "type": "electric_scooter", "lon": -77.03254316666667, "bike_id": "34671eebd8f6a3166c15b509a7805e33", "fusion_lat": 0.0, "name": "34671eebd8f6a3166c15b509a7805e33", "is_reserved": 0, "rental_uris": {"android": "https://dc.lft.to/lastmile_qr_scan", "ios": "https://dc.lft.to/lastmile_qr_scan"}, "fusion_lon": 0.0}, {"lat": 38.79327, "is_disabled": 0, "type": "electric_bike", "lon": -77.04019883333333, "bike_id": "8e904dcfd1d8407b720b5625fddc0930", "fusion_lat": 0.0, "name": "8e904dcfd1d8407b720b5625fddc0930", "is_reserved": 0, "rental_uris": {"android": "https://dc.lft.to/lastmile_qr_scan", "ios": "https://dc.lft.to/lastmile_qr_scan"}, "fusion_lon": 0.0}, {"lat": 38.915478666666665, "is_disabled": 0, "type": "electric_scooter", "lon": -77.03854833333334, "bike_id": "17647670ec86ce9d38657e70d13654ba", "fusion_lat": 0.0, "name": "17647670ec86ce9d38657e70d13654ba", "is_reserved": 0, "rental_uris": {"android": "https://dc.lft.to/lastmile_qr_scan", "ios": "https://dc.lft.to/lastmile_qr_scan"}, "fusion_lon": 0.0}, {"lat": 38.8833665, "is_disabled": 0, "type": "electric_scooter", "lon": -77.009329, "bike_id": "776dc063a23210e88dfae35a193cee57", "fusion_lat": 0.0, "name": "776dc063a23210e88dfae35a193cee57", "is_reserved": 0, "rental_uris": {"android": "https://dc.lft.to/lastmile_qr_scan", "ios": "https://dc.lft.to/lastmile_qr_scan"}, "fusion_lon": 0.0}, {"lat": 38.938638, "is_disabled": 0, "type": "electric_scooter", "lon": -77.02651283333333, "bike_id": "0badc1a4f55e80e21d03798b2c6657f2", "fusion_lat": 0.0, "name": "0badc1a4f55e80e21d03798b2c6657f2", "is_reserved": 0, "rental_uris": {"android": "https://dc.lft.to/lastmile_qr_scan", "ios": "https://dc.lft.to/lastmile_qr_scan"}, "fusion_lon": 0.0}, {"lat": 38.908514, "is_disabled": 0, "type": "electric_scooter", "lon": -77.00623983333334, "bike_id": "d548a52f9cf87d2ef6e9eeb612659e66", "fusion_lat": 0.0, "name": "d548a52f9cf87d2ef6e9eeb612659e66", "is_reserved": 0, "rental_uris": {"android": "https://dc.lft.to/lastmile_qr_scan", "ios": "https://dc.lft.to/lastmile_qr_scan"}, "fusion_lon": 0.0}, {"lat": 38.920323333333336, "is_disabled": 0, "type": "electric_scooter", "lon": -77.01431583333333, "bike_id": "d81b0cd6e1ba7f3e0eeaa89e5e57ad38", "fusion_lat": 0.0, "name": "d81b0cd6e1ba7f3e0eeaa89e5e57ad38", "is_reserved": 0, "rental_uris": {"android": "https://dc.lft.to/lastmile_qr_scan", "ios": "https://dc.lft.to/lastmile_qr_scan"}, "fusion_lon": 0.0}, {"lat": 38.9126385, "is_disabled": 0, "type": "electric_scooter", "lon": -77.022561, "bike_id": "afbee50f9631570f2841a19e7a542687", "fusion_lat": 0.0, "name": "afbee50f9631570f2841a19e7a542687", "is_reserved": 0, "rental_uris": {"android": "https://dc.lft.to/lastmile_qr_scan", "ios": "https://dc.lft.to/lastmile_qr_scan"}, "fusion_lon": 0.0}, {"lat": 38.958766833333335, "is_disabled": 0, "type": "electric_bike", "lon": -77.0103355, "bike_id": "70774244d60df0ebbae850bec05548b0", "fusion_lat": 0.0, "name": "70774244d60df0ebbae850bec05548b0", "is_reserved": 0, "rental_uris": {"android": "https://dc.lft.to/lastmile_qr_scan", "ios": "https://dc.lft.to/lastmile_qr_scan"}, "fusion_lon": 0.0}, {"lat": 38.91804533333333, "is_disabled": 0, "type": "electric_bike", "lon": -77.2233255, "bike_id": "30abf86103228b133f9e69ea044d1198", "fusion_lat": 0.0, "name": "30abf86103228b133f9e69ea044d1198", "is_reserved": 0, "rental_uris": {"android": "https://dc.lft.to/lastmile_qr_scan", "ios": "https://dc.lft.to/lastmile_qr_scan"}, "fusion_lon": 0.0}, {"lat": 38.917932, "is_disabled": 0, "type": "electric_scooter", "lon": -77.04040933333333, "bike_id": "cdce92aa5cc206b5472c81100c9a3f43", "fusion_lat": 0.0, "name": "cdce92aa5cc206b5472c81100c9a3f43", "is_reserved": 0, "rental_uris": {"android": "https://dc.lft.to/lastmile_qr_scan", "ios": "https://dc.lft.to/lastmile_qr_scan"}, "fusion_lon": 0.0}, {"lat": 38.937635, "is_disabled": 0, "type": "electric_scooter", "lon": -77.02136033333333, "bike_id": "9c2bfe35e17bad531cb24f0c7e5ef4d6", "fusion_lat": 0.0, "name": "9c2bfe35e17bad531cb24f0c7e5ef4d6", "is_reserved": 0, "rental_uris": {"android": "https://dc.lft.to/lastmile_qr_scan", "ios": "https://dc.lft.to/lastmile_qr_scan"}, "fusion_lon": 0.0}, {"lat": 38.89679666666667, "is_disabled": 0, "type": "electric_scooter", "lon": -77.051256, "bike_id": "608901475c9901eef148d253379ed3ae", "fusion_lat": 0.0, "name": "608901475c9901eef148d253379ed3ae", "is_reserved": 0, "rental_uris": {"android": "https://dc.lft.to/lastmile_qr_scan", "ios": "https://dc.lft.to/lastmile_qr_scan"}, "fusion_lon": 0.0}, {"lat": 38.876473, "is_disabled": 0, "type": "electric_scooter", "lon": -77.00422783333333, "bike_id": "fd7162d9c441541a49e7ebe6f8f0b1e2", "fusion_lat": 0.0, "name": "fd7162d9c441541a49e7ebe6f8f0b1e2", "is_reserved": 0, "rental_uris": {"android": "https://dc.lft.to/lastmile_qr_scan", "ios": "https://dc.lft.to/lastmile_qr_scan"}, "fusion_lon": 0.0}, {"lat": 38.90255833333333, "is_disabled": 0, "type": "electric_scooter", "lon": -77.039673, "bike_id": "6f1245b8ed34ce9fa6350d2786d629ec", "fusion_lat": 0.0, "name": "6f1245b8ed34ce9fa6350d2786d629ec", "is_reserved": 0, "rental_uris": {"android": "https://dc.lft.to/lastmile_qr_scan", "ios": "https://dc.lft.to/lastmile_qr_scan"}, "fusion_lon": 0.0}, {"lat": 38.902047333333336, "is_disabled": 0, "type": "electric_scooter", "lon": -77.02698033333333, "bike_id": "9de55a8499bfaea6b905ee5698c050d4", "fusion_lat": 0.0, "name": "9de55a8499bfaea6b905ee5698c050d4", "is_reserved": 0, "rental_uris": {"android": "https://dc.lft.to/lastmile_qr_scan", "ios": "https://dc.lft.to/lastmile_qr_scan"}, "fusion_lon": 0.0}, {"lat": 38.85187033333333, "is_disabled": 0, "type": "electric_bike", "lon": -76.9611445, "bike_id": "a771e474f0a61538b72b14d709bdaf13", "fusion_lat": 0.0, "name": "a771e474f0a61538b72b14d709bdaf13", "is_reserved": 0, "rental_uris": {"android": "https://dc.lft.to/lastmile_qr_scan", "ios": "https://dc.lft.to/lastmile_qr_scan"}, "fusion_lon": 0.0}, {"lat": 38.9223335, "is_disabled": 0, "type": "electric_scooter", "lon": -77.033474, "bike_id": "97dafea0960a7bedbce079cb6ac2a5bb", "fusion_lat": 0.0, "name": "97dafea0960a7bedbce079cb6ac2a5bb", "is_reserved": 0, "rental_uris": {"android": "https://dc.lft.to/lastmile_qr_scan", "ios": "https://dc.lft.to/lastmile_qr_scan"}, "fusion_lon": 0.0}, {"lat": 38.900696333333336, "is_disabled": 0, "type": "electric_scooter", "lon": -77.00207733333333, "bike_id": "7693008033d9ccff942a91ca5a3f49a1", "fusion_lat": 0.0, "name": "7693008033d9ccff942a91ca5a3f49a1", "is_reserved": 0, "rental_uris": {"android": "https://dc.lft.to/lastmile_qr_scan", "ios": "https://dc.lft.to/lastmile_qr_scan"}, "fusion_lon": 0.0}, {"lat": 38.94097433333334, "is_disabled": 0, "type": "electric_scooter", "lon": -77.0211015, "bike_id": "87276b5fe06bb3f25f9b4a50e4fb694b", "fusion_lat": 0.0, "name": "87276b5fe06bb3f25f9b4a50e4fb694b", "is_reserved": 0, "rental_uris": {"android": "https://dc.lft.to/lastmile_qr_scan", "ios": "https://dc.lft.to/lastmile_qr_scan"}, "fusion_lon": 0.0}, {"lat": 38.944328166666665, "is_disabled": 0, "type": "electric_scooter", "lon": -77.015111, "bike_id": "c638b13b84d08642486cca780a8e5297", "fusion_lat": 0.0, "name": "c638b13b84d08642486cca780a8e5297", "is_reserved": 0, "rental_uris": {"android": "https://dc.lft.to/lastmile_qr_scan", "ios": "https://dc.lft.to/lastmile_qr_scan"}, "fusion_lon": 0.0}, {"lat": 38.917079333333334, "is_disabled": 0, "type": "electric_scooter", "lon": -77.0295575, "bike_id": "e4828f320f993b0e7a6aaf60ffec0eab", "fusion_lat": 0.0, "name": "e4828f320f993b0e7a6aaf60ffec0eab", "is_reserved": 0, "rental_uris": {"android": "https://dc.lft.to/lastmile_qr_scan", "ios": "https://dc.lft.to/lastmile_qr_scan"}, "fusion_lon": 0.0}, {"lat": 38.908281, "is_disabled": 0, "type": "electric_scooter", "lon": -77.03835966666666, "bike_id": "c438807d4bda8a8d942e30473d2fe97c", "fusion_lat": 0.0, "name": "c438807d4bda8a8d942e30473d2fe97c", "is_reserved": 0, "rental_uris": {"android": "https://dc.lft.to/lastmile_qr_scan", "ios": "https://dc.lft.to/lastmile_qr_scan"}, "fusion_lon": 0.0}, {"lat": 38.909578833333335, "is_disabled": 0, "type": "electric_scooter", "lon": -77.02382683333333, "bike_id": "502e6076323286d9fe36ba19fa213316", "fusion_lat": 0.0, "name": "502e6076323286d9fe36ba19fa213316", "is_reserved": 0, "rental_uris": {"android": "https://dc.lft.to/lastmile_qr_scan", "ios": "https://dc.lft.to/lastmile_qr_scan"}, "fusion_lon": 0.0}, {"lat": 38.85510716666667, "is_disabled": 0, "type": "electric_bike", "lon": -77.12020833333334, "bike_id": "8783336cbe76ddb62790343e8c773745", "fusion_lat": 0.0, "name": "8783336cbe76ddb62790343e8c773745", "is_reserved": 0, "rental_uris": {"android": "https://dc.lft.to/lastmile_qr_scan", "ios": "https://dc.lft.to/lastmile_qr_scan"}, "fusion_lon": 0.0}, {"lat": 38.905596, "is_disabled": 0, "type": "electric_scooter", "lon": -77.00719633333334, "bike_id": "5aa0c587f41bb64b478bdfc201a087e3", "fusion_lat": 0.0, "name": "5aa0c587f41bb64b478bdfc201a087e3", "is_reserved": 0, "rental_uris": {"android": "https://dc.lft.to/lastmile_qr_scan", "ios": "https://dc.lft.to/lastmile_qr_scan"}, "fusion_lon": 0.0}, {"lat": 38.89177733333333, "is_disabled": 0, "type": "electric_scooter", "lon": -77.032054, "bike_id": "f6db043fa3b74c8384f343623bae6880", "fusion_lat": 0.0, "name": "f6db043fa3b74c8384f343623bae6880", "is_reserved": 0, "rental_uris": {"android": "https://dc.lft.to/lastmile_qr_scan", "ios": "https://dc.lft.to/lastmile_qr_scan"}, "fusion_lon": 0.0}, {"lat": 38.91685566666666, "is_disabled": 0, "type": "electric_scooter", "lon": -77.029781, "bike_id": "3876a7f8685f1d25d7c983a944701e89", "fusion_lat": 0.0, "name": "3876a7f8685f1d25d7c983a944701e89", "is_reserved": 0, "rental_uris": {"android": "https://dc.lft.to/lastmile_qr_scan", "ios": "https://dc.lft.to/lastmile_qr_scan"}, "fusion_lon": 0.0}, {"lat": 38.8621305, "is_disabled": 0, "type": "electric_bike", "lon": -76.99777766666666, "bike_id": "8dbed4abffdc2ee0558a68330a6114da", "fusion_lat": 0.0, "name": "8dbed4abffdc2ee0558a68330a6114da", "is_reserved": 0, "rental_uris": {"android": "https://dc.lft.to/lastmile_qr_scan", "ios": "https://dc.lft.to/lastmile_qr_scan"}, "fusion_lon": 0.0}, {"lat": 38.87064933333333, "is_disabled": 0, "type": "electric_scooter", "lon": -77.008392, "bike_id": "fa45b957a5d28719ff464215edaeeb4f", "fusion_lat": 0.0, "name": "fa45b957a5d28719ff464215edaeeb4f", "is_reserved": 0, "rental_uris": {"android": "https://dc.lft.to/lastmile_qr_scan", "ios": "https://dc.lft.to/lastmile_qr_scan"}, "fusion_lon": 0.0}, {"lat": 38.92821133333333, "is_disabled": 0, "type": "electric_scooter", "lon": -77.0287675, "bike_id": "b3e9fbe66cb92fa0aacf4cf984094c9e", "fusion_lat": 0.0, "name": "b3e9fbe66cb92fa0aacf4cf984094c9e", "is_reserved": 0, "rental_uris": {"android": "https://dc.lft.to/lastmile_qr_scan", "ios": "https://dc.lft.to/lastmile_qr_scan"}, "fusion_lon": 0.0}, {"lat": 38.9192475, "is_disabled": 0, "type": "electric_scooter", "lon": -77.0342435, "bike_id": "cda496f3b0b79bd1cba75408d5eb305f", "fusion_lat": 0.0, "name": "cda496f3b0b79bd1cba75408d5eb305f", "is_reserved": 0, "rental_uris": {"android": "https://dc.lft.to/lastmile_qr_scan", "ios": "https://dc.lft.to/lastmile_qr_scan"}, "fusion_lon": 0.0}, {"lat": 38.86677366666667, "is_disabled": 0, "type": "electric_scooter", "lon": -76.98539416666667, "bike_id": "b3ec05f8200d03e80a02a032b4ad2b66", "fusion_lat": 0.0, "name": "b3ec05f8200d03e80a02a032b4ad2b66", "is_reserved": 0, "rental_uris": {"android": "https://dc.lft.to/lastmile_qr_scan", "ios": "https://dc.lft.to/lastmile_qr_scan"}, "fusion_lon": 0.0}, {"lat": 38.89222516666667, "is_disabled": 0, "type": "electric_scooter", "lon": -77.02314166666666, "bike_id": "bcf82993ef2b730a748ea7cb74596b22", "fusion_lat": 0.0, "name": "bcf82993ef2b730a748ea7cb74596b22", "is_reserved": 0, "rental_uris": {"android": "https://dc.lft.to/lastmile_qr_scan", "ios": "https://dc.lft.to/lastmile_qr_scan"}, "fusion_lon": 0.0}, {"lat": 38.944627, "is_disabled": 0, "type": "electric_scooter", "lon": -77.006601, "bike_id": "462c0d6e6f814c5570c972cfc5dfed40", "fusion_lat": 0.0, "name": "462c0d6e6f814c5570c972cfc5dfed40", "is_reserved": 0, "rental_uris": {"android": "https://dc.lft.to/lastmile_qr_scan", "ios": "https://dc.lft.to/lastmile_qr_scan"}, "fusion_lon": 0.0}, {"lat": 38.90241833333333, "is_disabled": 0, "type": "electric_scooter", "lon": -77.002035, "bike_id": "4f1433f98bd2e8b2051f1170313fb3f9", "fusion_lat": 0.0, "name": "4f1433f98bd2e8b2051f1170313fb3f9", "is_reserved": 0, "rental_uris": {"android": "https://dc.lft.to/lastmile_qr_scan", "ios": "https://dc.lft.to/lastmile_qr_scan"}, "fusion_lon": 0.0}, {"lat": 38.910131, "is_disabled": 0, "type": "electric_scooter", "lon": -77.0220575, "bike_id": "9e7cec000f46e9b17dd55e49dfc0f60a", "fusion_lat": 0.0, "name": "9e7cec000f46e9b17dd55e49dfc0f60a", "is_reserved": 0, "rental_uris": {"android": "https://dc.lft.to/lastmile_qr_scan", "ios": "https://dc.lft.to/lastmile_qr_scan"}, "fusion_lon": 0.0}, {"lat": 38.91300716666667, "is_disabled": 0, "type": "electric_scooter", "lon": -77.02381183333334, "bike_id": "12ded9d64ab71a5a11590981beb3e66d", "fusion_lat": 0.0, "name": "12ded9d64ab71a5a11590981beb3e66d", "is_reserved": 0, "rental_uris": {"android": "https://dc.lft.to/lastmile_qr_scan", "ios": "https://dc.lft.to/lastmile_qr_scan"}, "fusion_lon": 0.0}, {"lat": 38.90353916666667, "is_disabled": 0, "type": "electric_scooter", "lon": -77.04478216666666, "bike_id": "1af8c33342e887a15c98b2fa40e4f667", "fusion_lat": 0.0, "name": "1af8c33342e887a15c98b2fa40e4f667", "is_reserved": 0, "rental_uris": {"android": "https://dc.lft.to/lastmile_qr_scan", "ios": "https://dc.lft.to/lastmile_qr_scan"}, "fusion_lon": 0.0}, {"lat": 38.93360033333333, "is_disabled": 0, "type": "electric_bike", "lon": -77.09964016666666, "bike_id": "4e96656bb9b64892f172141e63f0fdd3", "fusion_lat": 0.0, "name": "4e96656bb9b64892f172141e63f0fdd3", "is_reserved": 0, "rental_uris": {"android": "https://dc.lft.to/lastmile_qr_scan", "ios": "https://dc.lft.to/lastmile_qr_scan"}, "fusion_lon": 0.0}, {"lat": 38.919319333333334, "is_disabled": 0, "type": "electric_scooter", "lon": -77.03179633333333, "bike_id": "374dac1cd283417a4236a49535865856", "fusion_lat": 0.0, "name": "374dac1cd283417a4236a49535865856", "is_reserved": 0, "rental_uris": {"android": "https://dc.lft.to/lastmile_qr_scan", "ios": "https://dc.lft.to/lastmile_qr_scan"}, "fusion_lon": 0.0}, {"lat": 38.902552166666666, "is_disabled": 0, "type": "electric_scooter", "lon": -77.039454, "bike_id": "6ab1fba2679eaba253c1abd617300647", "fusion_lat": 0.0, "name": "6ab1fba2679eaba253c1abd617300647", "is_reserved": 0, "rental_uris": {"android": "https://dc.lft.to/lastmile_qr_scan", "ios": "https://dc.lft.to/lastmile_qr_scan"}, "fusion_lon": 0.0}, {"lat": 38.91688033333333, "is_disabled": 0, "type": "electric_scooter", "lon": -77.01216783333334, "bike_id": "2073b4126e0818d07ac65c2e5db977ab", "fusion_lat": 0.0, "name": "2073b4126e0818d07ac65c2e5db977ab", "is_reserved": 0, "rental_uris": {"android": "https://dc.lft.to/lastmile_qr_scan", "ios": "https://dc.lft.to/lastmile_qr_scan"}, "fusion_lon": 0.0}, {"lat": 38.90068566666667, "is_disabled": 0, "type": "electric_scooter", "lon": -77.00203333333333, "bike_id": "32234d42f7f1c00bc5a745425b844a04", "fusion_lat": 0.0, "name": "32234d42f7f1c00bc5a745425b844a04", "is_reserved": 0, "rental_uris": {"android": "https://dc.lft.to/lastmile_qr_scan", "ios": "https://dc.lft.to/lastmile_qr_scan"}, "fusion_lon": 0.0}, {"lat": 38.907364666666666, "is_disabled": 0, "type": "electric_scooter", "lon": -77.034477, "bike_id": "6a8e0733da8d287c8c393ae3dcf5e67e", "fusion_lat": 0.0, "name": "6a8e0733da8d287c8c393ae3dcf5e67e", "is_reserved": 0, "rental_uris": {"android": "https://dc.lft.to/lastmile_qr_scan", "ios": "https://dc.lft.to/lastmile_qr_scan"}, "fusion_lon": 0.0}, {"lat": 38.9215735, "is_disabled": 0, "type": "electric_scooter", "lon": -77.02098216666667, "bike_id": "cc65bac8ea9fb878068a6ed244b05cff", "fusion_lat": 0.0, "name": "cc65bac8ea9fb878068a6ed244b05cff", "is_reserved": 0, "rental_uris": {"android": "https://dc.lft.to/lastmile_qr_scan", "ios": "https://dc.lft.to/lastmile_qr_scan"}, "fusion_lon": 0.0}, {"lat": 38.924652, "is_disabled": 0, "type": "electric_scooter", "lon": -77.05238133333333, "bike_id": "fe56389501d8bbdfcc2c804560ec109e", "fusion_lat": 0.0, "name": "fe56389501d8bbdfcc2c804560ec109e", "is_reserved": 0, "rental_uris": {"android": "https://dc.lft.to/lastmile_qr_scan", "ios": "https://dc.lft.to/lastmile_qr_scan"}, "fusion_lon": 0.0}, {"lat": 38.9236365, "is_disabled": 0, "type": "electric_scooter", "lon": -77.05129966666667, "bike_id": "b809215a7144438f24330df2540d4d4e", "fusion_lat": 0.0, "name": "b809215a7144438f24330df2540d4d4e", "is_reserved": 0, "rental_uris": {"android": "https://dc.lft.to/lastmile_qr_scan", "ios": "https://dc.lft.to/lastmile_qr_scan"}, "fusion_lon": 0.0}, {"lat": 38.87673316666667, "is_disabled": 0, "type": "electric_bike", "lon": -77.014421, "bike_id": "b22ae031c80c2cb6230ea72d1d89d574", "fusion_lat": 0.0, "name": "b22ae031c80c2cb6230ea72d1d89d574", "is_reserved": 0, "rental_uris": {"android": "https://dc.lft.to/lastmile_qr_scan", "ios": "https://dc.lft.to/lastmile_qr_scan"}, "fusion_lon": 0.0}, {"lat": 38.957812, "is_disabled": 0, "type": "electric_scooter", "lon": -77.02754433333334, "bike_id": "107acbeb7849bad9b34a719426914ca1", "fusion_lat": 0.0, "name": "107acbeb7849bad9b34a719426914ca1", "is_reserved": 0, "rental_uris": {"android": "https://dc.lft.to/lastmile_qr_scan", "ios": "https://dc.lft.to/lastmile_qr_scan"}, "fusion_lon": 0.0}, {"lat": 38.919746333333336, "is_disabled": 0, "type": "electric_scooter", "lon": -77.023962, "bike_id": "189c4a16504166374c233a66752cbeb8", "fusion_lat": 0.0, "name": "189c4a16504166374c233a66752cbeb8", "is_reserved": 0, "rental_uris": {"android": "https://dc.lft.to/lastmile_qr_scan", "ios": "https://dc.lft.to/lastmile_qr_scan"}, "fusion_lon": 0.0}, {"lat": 38.907299, "is_disabled": 0, "type": "electric_scooter", "lon": -77.03457516666667, "bike_id": "942653cfbce5024620d24b5cdaa11b6d", "fusion_lat": 0.0, "name": "942653cfbce5024620d24b5cdaa11b6d", "is_reserved": 0, "rental_uris": {"android": "https://dc.lft.to/lastmile_qr_scan", "ios": "https://dc.lft.to/lastmile_qr_scan"}, "fusion_lon": 0.0}, {"lat": 38.9007585, "is_disabled": 0, "type": "electric_scooter", "lon": -77.0494245, "bike_id": "48e95635bb72af583faadb115db0748c", "fusion_lat": 0.0, "name": "48e95635bb72af583faadb115db0748c", "is_reserved": 0, "rental_uris": {"android": "https://dc.lft.to/lastmile_qr_scan", "ios": "https://dc.lft.to/lastmile_qr_scan"}, "fusion_lon": 0.0}, {"lat": 38.917812166666664, "is_disabled": 0, "type": "electric_scooter", "lon": -77.04339883333333, "bike_id": "ecf800e105949a9c6e33f16b95430de4", "fusion_lat": 0.0, "name": "ecf800e105949a9c6e33f16b95430de4", "is_reserved": 0, "rental_uris": {"android": "https://dc.lft.to/lastmile_qr_scan", "ios": "https://dc.lft.to/lastmile_qr_scan"}, "fusion_lon": 0.0}, {"lat": 38.9978655, "is_disabled": 0, "type": "electric_bike", "lon": -77.00760483333333, "bike_id": "b6a36d91b73be313c6647a39a6610d84", "fusion_lat": 0.0, "name": "b6a36d91b73be313c6647a39a6610d84", "is_reserved": 0, "rental_uris": {"android": "https://dc.lft.to/lastmile_qr_scan", "ios": "https://dc.lft.to/lastmile_qr_scan"}, "fusion_lon": 0.0}, {"lat": 38.892178333333334, "is_disabled": 0, "type": "electric_scooter", "lon": -77.03215516666667, "bike_id": "6b6daea1fc84f774ac2bc65b484d79bb", "fusion_lat": 0.0, "name": "6b6daea1fc84f774ac2bc65b484d79bb", "is_reserved": 0, "rental_uris": {"android": "https://dc.lft.to/lastmile_qr_scan", "ios": "https://dc.lft.to/lastmile_qr_scan"}, "fusion_lon": 0.0}, {"lat": 38.956484833333334, "is_disabled": 0, "type": "electric_scooter", "lon": -77.02399683333333, "bike_id": "decb5c2d5e805ada6e47853548e982b1", "fusion_lat": 0.0, "name": "decb5c2d5e805ada6e47853548e982b1", "is_reserved": 0, "rental_uris": {"android": "https://dc.lft.to/lastmile_qr_scan", "ios": "https://dc.lft.to/lastmile_qr_scan"}, "fusion_lon": 0.0}, {"lat": 38.9029335, "is_disabled": 0, "type": "electric_scooter", "lon": -77.00210583333333, "bike_id": "3813fb0fb08acf63d5afebc581d8c980", "fusion_lat": 0.0, "name": "3813fb0fb08acf63d5afebc581d8c980", "is_reserved": 0, "rental_uris": {"android": "https://dc.lft.to/lastmile_qr_scan", "ios": "https://dc.lft.to/lastmile_qr_scan"}, "fusion_lon": 0.0}, {"lat": 38.919837666666666, "is_disabled": 0, "type": "electric_scooter", "lon": -77.03267416666667, "bike_id": "afd2d3e3399cbbb31a90a15a32b68c7f", "fusion_lat": 0.0, "name": "afd2d3e3399cbbb31a90a15a32b68c7f", "is_reserved": 0, "rental_uris": {"android": "https://dc.lft.to/lastmile_qr_scan", "ios": "https://dc.lft.to/lastmile_qr_scan"}, "fusion_lon": 0.0}, {"lat": 38.881369, "is_disabled": 0, "type": "electric_scooter", "lon": -76.99502933333333, "bike_id": "f5d0a37cbe25a4a3b6c88be2897666cc", "fusion_lat": 0.0, "name": "f5d0a37cbe25a4a3b6c88be2897666cc", "is_reserved": 0, "rental_uris": {"android": "https://dc.lft.to/lastmile_qr_scan", "ios": "https://dc.lft.to/lastmile_qr_scan"}, "fusion_lon": 0.0}, {"lat": 38.902314, "is_disabled": 0, "type": "electric_scooter", "lon": -77.00063183333333, "bike_id": "133c7104238b070291f23676c771fe28", "fusion_lat": 0.0, "name": "133c7104238b070291f23676c771fe28", "is_reserved": 0, "rental_uris": {"android": "https://dc.lft.to/lastmile_qr_scan", "ios": "https://dc.lft.to/lastmile_qr_scan"}, "fusion_lon": 0.0}, {"lat": 38.89900866666667, "is_disabled": 0, "type": "electric_scooter", "lon": -76.9973175, "bike_id": "3526eabf5ae06e425cec22ca3cc92e9c", "fusion_lat": 0.0, "name": "3526eabf5ae06e425cec22ca3cc92e9c", "is_reserved": 0, "rental_uris": {"android": "https://dc.lft.to/lastmile_qr_scan", "ios": "https://dc.lft.to/lastmile_qr_scan"}, "fusion_lon": 0.0}, {"lat": 38.90568716666667, "is_disabled": 0, "type": "electric_scooter", "lon": -77.00582233333333, "bike_id": "2917961e58c08d912ae5df348f09ed4a", "fusion_lat": 0.0, "name": "2917961e58c08d912ae5df348f09ed4a", "is_reserved": 0, "rental_uris": {"android": "https://dc.lft.to/lastmile_qr_scan", "ios": "https://dc.lft.to/lastmile_qr_scan"}, "fusion_lon": 0.0}, {"lat": 38.86892916666667, "is_disabled": 0, "type": "electric_scooter", "lon": -76.98311683333333, "bike_id": "2257e239e4a723494ba30ff78d9ff061", "fusion_lat": 0.0, "name": "2257e239e4a723494ba30ff78d9ff061", "is_reserved": 0, "rental_uris": {"android": "https://dc.lft.to/lastmile_qr_scan", "ios": "https://dc.lft.to/lastmile_qr_scan"}, "fusion_lon": 0.0}, {"lat": 38.906527, "is_disabled": 0, "type": "electric_scooter", "lon": -77.05326783333334, "bike_id": "b60d28ad9ecfe8f52cf0339cd7990471", "fusion_lat": 0.0, "name": "b60d28ad9ecfe8f52cf0339cd7990471", "is_reserved": 0, "rental_uris": {"android": "https://dc.lft.to/lastmile_qr_scan", "ios": "https://dc.lft.to/lastmile_qr_scan"}, "fusion_lon": 0.0}, {"lat": 38.91908083333333, "is_disabled": 0, "type": "electric_scooter", "lon": -77.024073, "bike_id": "468393c0a53bf7805e6bea73c38d6222", "fusion_lat": 0.0, "name": "468393c0a53bf7805e6bea73c38d6222", "is_reserved": 0, "rental_uris": {"android": "https://dc.lft.to/lastmile_qr_scan", "ios": "https://dc.lft.to/lastmile_qr_scan"}, "fusion_lon": 0.0}, {"lat": 38.90570116666667, "is_disabled": 0, "type": "electric_scooter", "lon": -77.0089405, "bike_id": "f16400eeae74585ecbfc39e40350d30c", "fusion_lat": 0.0, "name": "f16400eeae74585ecbfc39e40350d30c", "is_reserved": 0, "rental_uris": {"android": "https://dc.lft.to/lastmile_qr_scan", "ios": "https://dc.lft.to/lastmile_qr_scan"}, "fusion_lon": 0.0}, {"lat": 38.902275, "is_disabled": 0, "type": "electric_scooter", "lon": -77.01749866666667, "bike_id": "ac76109b8b5036c8f81268f5756e3ec4", "fusion_lat": 0.0, "name": "ac76109b8b5036c8f81268f5756e3ec4", "is_reserved": 0, "rental_uris": {"android": "https://dc.lft.to/lastmile_qr_scan", "ios": "https://dc.lft.to/lastmile_qr_scan"}, "fusion_lon": 0.0}, {"lat": 38.9155485, "is_disabled": 0, "type": "electric_scooter", "lon": -77.03863483333333, "bike_id": "79a2e8e99b645f21207996fd15636411", "fusion_lat": 0.0, "name": "79a2e8e99b645f21207996fd15636411", "is_reserved": 0, "rental_uris": {"android": "https://dc.lft.to/lastmile_qr_scan", "ios": "https://dc.lft.to/lastmile_qr_scan"}, "fusion_lon": 0.0}, {"lat": 38.926134833333336, "is_disabled": 0, "type": "electric_scooter", "lon": -76.99601866666667, "bike_id": "6d5c65a8a227494fc333b5bf9e5ad2b9", "fusion_lat": 0.0, "name": "6d5c65a8a227494fc333b5bf9e5ad2b9", "is_reserved": 0, "rental_uris": {"android": "https://dc.lft.to/lastmile_qr_scan", "ios": "https://dc.lft.to/lastmile_qr_scan"}, "fusion_lon": 0.0}, {"lat": 38.89219766666667, "is_disabled": 0, "type": "electric_scooter", "lon": -77.027806, "bike_id": "1ca7343942926905874474b4b0f378dd", "fusion_lat": 0.0, "name": "1ca7343942926905874474b4b0f378dd", "is_reserved": 0, "rental_uris": {"android": "https://dc.lft.to/lastmile_qr_scan", "ios": "https://dc.lft.to/lastmile_qr_scan"}, "fusion_lon": 0.0}, {"lat": 38.88994616666667, "is_disabled": 0, "type": "electric_scooter", "lon": -76.95415516666667, "bike_id": "a719b92f8532104eaacacd50f804a0a5", "fusion_lat": 0.0, "name": "a719b92f8532104eaacacd50f804a0a5", "is_reserved": 0, "rental_uris": {"android": "https://dc.lft.to/lastmile_qr_scan", "ios": "https://dc.lft.to/lastmile_qr_scan"}, "fusion_lon": 0.0}, {"lat": 38.91261683333333, "is_disabled": 0, "type": "electric_scooter", "lon": -77.022548, "bike_id": "964eb8585b6b391585b179e7c45c8369", "fusion_lat": 0.0, "name": "964eb8585b6b391585b179e7c45c8369", "is_reserved": 0, "rental_uris": {"android": "https://dc.lft.to/lastmile_qr_scan", "ios": "https://dc.lft.to/lastmile_qr_scan"}, "fusion_lon": 0.0}, {"lat": 38.875742, "is_disabled": 0, "type": "electric_bike", "lon": -77.10566283333333, "bike_id": "e080396b21bf73472136aa812e6d2b6b", "fusion_lat": 0.0, "name": "e080396b21bf73472136aa812e6d2b6b", "is_reserved": 0, "rental_uris": {"android": "https://dc.lft.to/lastmile_qr_scan", "ios": "https://dc.lft.to/lastmile_qr_scan"}, "fusion_lon": 0.0}, {"lat": 38.895237333333334, "is_disabled": 0, "type": "electric_scooter", "lon": -77.00214133333333, "bike_id": "521df36eb1696390e969dac16fcfa71f", "fusion_lat": 0.0, "name": "521df36eb1696390e969dac16fcfa71f", "is_reserved": 0, "rental_uris": {"android": "https://dc.lft.to/lastmile_qr_scan", "ios": "https://dc.lft.to/lastmile_qr_scan"}, "fusion_lon": 0.0}, {"lat": 38.842735, "is_disabled": 0, "type": "electric_bike", "lon": -76.98847283333333, "bike_id": "74db92bbbf067911ce412d22bc77d0e9", "fusion_lat": 0.0, "name": "74db92bbbf067911ce412d22bc77d0e9", "is_reserved": 0, "rental_uris": {"android": "https://dc.lft.to/lastmile_qr_scan", "ios": "https://dc.lft.to/lastmile_qr_scan"}, "fusion_lon": 0.0}, {"lat": 38.913561666666666, "is_disabled": 0, "type": "electric_scooter", "lon": -77.03952233333334, "bike_id": "12976a0aea2a3f6be8a0d1cfc45bf343", "fusion_lat": 0.0, "name": "12976a0aea2a3f6be8a0d1cfc45bf343", "is_reserved": 0, "rental_uris": {"android": "https://dc.lft.to/lastmile_qr_scan", "ios": "https://dc.lft.to/lastmile_qr_scan"}, "fusion_lon": 0.0}, {"lat": 38.866251, "is_disabled": 0, "type": "electric_scooter", "lon": -76.98701216666667, "bike_id": "1180074e705ba481dc6bdc9aae583fe7", "fusion_lat": 0.0, "name": "1180074e705ba481dc6bdc9aae583fe7", "is_reserved": 0, "rental_uris": {"android": "https://dc.lft.to/lastmile_qr_scan", "ios": "https://dc.lft.to/lastmile_qr_scan"}, "fusion_lon": 0.0}, {"lat": 38.884894, "is_disabled": 0, "type": "electric_scooter", "lon": -77.00705883333333, "bike_id": "6d50e27ca8bce2e618c0d6c326d37156", "fusion_lat": 0.0, "name": "6d50e27ca8bce2e618c0d6c326d37156", "is_reserved": 0, "rental_uris": {"android": "https://dc.lft.to/lastmile_qr_scan", "ios": "https://dc.lft.to/lastmile_qr_scan"}, "fusion_lon": 0.0}, {"lat": 38.90532833333333, "is_disabled": 0, "type": "electric_scooter", "lon": -77.04344683333333, "bike_id": "426730de3cd1b3fa6d8ef1f4d98f6684", "fusion_lat": 0.0, "name": "426730de3cd1b3fa6d8ef1f4d98f6684", "is_reserved": 0, "rental_uris": {"android": "https://dc.lft.to/lastmile_qr_scan", "ios": "https://dc.lft.to/lastmile_qr_scan"}, "fusion_lon": 0.0}, {"lat": 38.91194, "is_disabled": 0, "type": "electric_scooter", "lon": -77.0044745, "bike_id": "1fecc893fb2e4dd2164d2b65805fdd2a", "fusion_lat": 0.0, "name": "1fecc893fb2e4dd2164d2b65805fdd2a", "is_reserved": 0, "rental_uris": {"android": "https://dc.lft.to/lastmile_qr_scan", "ios": "https://dc.lft.to/lastmile_qr_scan"}, "fusion_lon": 0.0}, {"lat": 38.9052705, "is_disabled": 0, "type": "electric_scooter", "lon": -77.04191583333333, "bike_id": "095bd556785c5493653ed2df0a37eb4f", "fusion_lat": 0.0, "name": "095bd556785c5493653ed2df0a37eb4f", "is_reserved": 0, "rental_uris": {"android": "https://dc.lft.to/lastmile_qr_scan", "ios": "https://dc.lft.to/lastmile_qr_scan"}, "fusion_lon": 0.0}, {"lat": 38.9492915, "is_disabled": 0, "type": "electric_scooter", "lon": -77.0193715, "bike_id": "70ccb5ac04048fbcc24deeaa12f705e3", "fusion_lat": 0.0, "name": "70ccb5ac04048fbcc24deeaa12f705e3", "is_reserved": 0, "rental_uris": {"android": "https://dc.lft.to/lastmile_qr_scan", "ios": "https://dc.lft.to/lastmile_qr_scan"}, "fusion_lon": 0.0}, {"lat": 38.905291166666665, "is_disabled": 0, "type": "electric_scooter", "lon": -77.04178016666667, "bike_id": "5a4b7f98b4e525ec93da4de4cfd1ac9a", "fusion_lat": 0.0, "name": "5a4b7f98b4e525ec93da4de4cfd1ac9a", "is_reserved": 0, "rental_uris": {"android": "https://dc.lft.to/lastmile_qr_scan", "ios": "https://dc.lft.to/lastmile_qr_scan"}, "fusion_lon": 0.0}, {"lat": 38.90536983333333, "is_disabled": 0, "type": "electric_scooter", "lon": -77.02943933333333, "bike_id": "99bdfa9b69ffff7454b20a086e6446f0", "fusion_lat": 0.0, "name": "99bdfa9b69ffff7454b20a086e6446f0", "is_reserved": 0, "rental_uris": {"android": "https://dc.lft.to/lastmile_qr_scan", "ios": "https://dc.lft.to/lastmile_qr_scan"}, "fusion_lon": 0.0}, {"lat": 38.931488, "is_disabled": 0, "type": "electric_scooter", "lon": -77.02145883333333, "bike_id": "98f4f51c3ab915cdc5f0be2ce3da76fd", "fusion_lat": 0.0, "name": "98f4f51c3ab915cdc5f0be2ce3da76fd", "is_reserved": 0, "rental_uris": {"android": "https://dc.lft.to/lastmile_qr_scan", "ios": "https://dc.lft.to/lastmile_qr_scan"}, "fusion_lon": 0.0}, {"lat": 38.90361433333333, "is_disabled": 0, "type": "electric_bike", "lon": -77.01625, "bike_id": "f6b7e485735b4e0305dcea2fb390c866", "fusion_lat": 0.0, "name": "f6b7e485735b4e0305dcea2fb390c866", "is_reserved": 0, "rental_uris": {"android": "https://dc.lft.to/lastmile_qr_scan", "ios": "https://dc.lft.to/lastmile_qr_scan"}, "fusion_lon": 0.0}, {"lat": 38.905628166666666, "is_disabled": 0, "type": "electric_scooter", "lon": -77.01317216666666, "bike_id": "cebbb01eb060ad7f19812b28835d2de1", "fusion_lat": 0.0, "name": "cebbb01eb060ad7f19812b28835d2de1", "is_reserved": 0, "rental_uris": {"android": "https://dc.lft.to/lastmile_qr_scan", "ios": "https://dc.lft.to/lastmile_qr_scan"}, "fusion_lon": 0.0}, {"lat": 38.90821783333333, "is_disabled": 0, "type": "electric_scooter", "lon": -77.04352683333333, "bike_id": "e05db03a9db5f560a973d05299363695", "fusion_lat": 0.0, "name": "e05db03a9db5f560a973d05299363695", "is_reserved": 0, "rental_uris": {"android": "https://dc.lft.to/lastmile_qr_scan", "ios": "https://dc.lft.to/lastmile_qr_scan"}, "fusion_lon": 0.0}, {"lat": 38.945277833333336, "is_disabled": 0, "type": "electric_scooter", "lon": -76.97950966666667, "bike_id": "2457114dd63e92963536ad46cd44eeed", "fusion_lat": 0.0, "name": "2457114dd63e92963536ad46cd44eeed", "is_reserved": 0, "rental_uris": {"android": "https://dc.lft.to/lastmile_qr_scan", "ios": "https://dc.lft.to/lastmile_qr_scan"}, "fusion_lon": 0.0}, {"lat": 38.892241166666665, "is_disabled": 0, "type": "electric_scooter", "lon": -77.0486005, "bike_id": "be44552c17ffeace1cada2675b3e2191", "fusion_lat": 0.0, "name": "be44552c17ffeace1cada2675b3e2191", "is_reserved": 0, "rental_uris": {"android": "https://dc.lft.to/lastmile_qr_scan", "ios": "https://dc.lft.to/lastmile_qr_scan"}, "fusion_lon": 0.0}, {"lat": 38.88487516666667, "is_disabled": 0, "type": "electric_scooter", "lon": -76.945199, "bike_id": "3ca9c875fef376a42ee67fdbadb4c80c", "fusion_lat": 0.0, "name": "3ca9c875fef376a42ee67fdbadb4c80c", "is_reserved": 0, "rental_uris": {"android": "https://dc.lft.to/lastmile_qr_scan", "ios": "https://dc.lft.to/lastmile_qr_scan"}, "fusion_lon": 0.0}, {"lat": 38.905562833333335, "is_disabled": 0, "type": "electric_scooter", "lon": -77.026986, "bike_id": "d00318592c1db1b52bf0340321bd3313", "fusion_lat": 0.0, "name": "d00318592c1db1b52bf0340321bd3313", "is_reserved": 0, "rental_uris": {"android": "https://dc.lft.to/lastmile_qr_scan", "ios": "https://dc.lft.to/lastmile_qr_scan"}, "fusion_lon": 0.0}, {"lat": 38.922272, "is_disabled": 0, "type": "electric_scooter", "lon": -77.037515, "bike_id": "2def0397ea4d97888c8ab63ef8616c0d", "fusion_lat": 0.0, "name": "2def0397ea4d97888c8ab63ef8616c0d", "is_reserved": 0, "rental_uris": {"android": "https://dc.lft.to/lastmile_qr_scan", "ios": "https://dc.lft.to/lastmile_qr_scan"}, "fusion_lon": 0.0}, {"lat": 38.90246333333333, "is_disabled": 0, "type": "electric_scooter", "lon": -77.05258216666667, "bike_id": "bfe64299a9b651901f8e6788ecb50159", "fusion_lat": 0.0, "name": "bfe64299a9b651901f8e6788ecb50159", "is_reserved": 0, "rental_uris": {"android": "https://dc.lft.to/lastmile_qr_scan", "ios": "https://dc.lft.to/lastmile_qr_scan"}, "fusion_lon": 0.0}, {"lat": 38.90720483333333, "is_disabled": 0, "type": "electric_scooter", "lon": -77.04761383333333, "bike_id": "e1d05c5beff847c250f512064d4ec609", "fusion_lat": 0.0, "name": "e1d05c5beff847c250f512064d4ec609", "is_reserved": 0, "rental_uris": {"android": "https://dc.lft.to/lastmile_qr_scan", "ios": "https://dc.lft.to/lastmile_qr_scan"}, "fusion_lon": 0.0}, {"lat": 38.850243666666664, "is_disabled": 0, "type": "electric_bike", "lon": -77.09798233333333, "bike_id": "1e2df72c3c0f04dd5aff995cfd56ff8f", "fusion_lat": 0.0, "name": "1e2df72c3c0f04dd5aff995cfd56ff8f", "is_reserved": 0, "rental_uris": {"android": "https://dc.lft.to/lastmile_qr_scan", "ios": "https://dc.lft.to/lastmile_qr_scan"}, "fusion_lon": 0.0}, {"lat": 38.917441, "is_disabled": 0, "type": "electric_scooter", "lon": -77.03213883333333, "bike_id": "64489c5344d8b0e5cbaaa92d6c81d7f3", "fusion_lat": 0.0, "name": "64489c5344d8b0e5cbaaa92d6c81d7f3", "is_reserved": 0, "rental_uris": {"android": "https://dc.lft.to/lastmile_qr_scan", "ios": "https://dc.lft.to/lastmile_qr_scan"}, "fusion_lon": 0.0}, {"lat": 38.90176616666667, "is_disabled": 0, "type": "electric_scooter", "lon": -76.98083166666666, "bike_id": "03c4566ce8450d7f12dcb16af7352940", "fusion_lat": 0.0, "name": "03c4566ce8450d7f12dcb16af7352940", "is_reserved": 0, "rental_uris": {"android": "https://dc.lft.to/lastmile_qr_scan", "ios": "https://dc.lft.to/lastmile_qr_scan"}, "fusion_lon": 0.0}, {"lat": 38.917342, "is_disabled": 0, "type": "electric_scooter", "lon": -77.03211966666667, "bike_id": "c58db4994d581857fdd7b79d734b1ccf", "fusion_lat": 0.0, "name": "c58db4994d581857fdd7b79d734b1ccf", "is_reserved": 0, "rental_uris": {"android": "https://dc.lft.to/lastmile_qr_scan", "ios": "https://dc.lft.to/lastmile_qr_scan"}, "fusion_lon": 0.0}, {"lat": 38.93075783333333, "is_disabled": 0, "type": "electric_scooter", "lon": -77.077625, "bike_id": "cd91608da61b2b66a3647f168d41a2c1", "fusion_lat": 0.0, "name": "cd91608da61b2b66a3647f168d41a2c1", "is_reserved": 0, "rental_uris": {"android": "https://dc.lft.to/lastmile_qr_scan", "ios": "https://dc.lft.to/lastmile_qr_scan"}, "fusion_lon": 0.0}, {"lat": 38.85787, "is_disabled": 0, "type": "electric_bike", "lon": -77.09959666666667, "bike_id": "1b78adff865a97a0d2d7cf824e6c24bd", "fusion_lat": 0.0, "name": "1b78adff865a97a0d2d7cf824e6c24bd", "is_reserved": 0, "rental_uris": {"android": "https://dc.lft.to/lastmile_qr_scan", "ios": "https://dc.lft.to/lastmile_qr_scan"}, "fusion_lon": 0.0}, {"lat": 39.07503333333333, "is_disabled": 0, "type": "electric_bike", "lon": -77.11901166666667, "bike_id": "07ef9edf120211b71409c2307db88375", "fusion_lat": 0.0, "name": "07ef9edf120211b71409c2307db88375", "is_reserved": 0, "rental_uris": {"android": "https://dc.lft.to/lastmile_qr_scan", "ios": "https://dc.lft.to/lastmile_qr_scan"}, "fusion_lon": 0.0}, {"lat": 38.9211225, "is_disabled": 0, "type": "electric_scooter", "lon": -77.04577633333334, "bike_id": "f1f4c2f8f8c736978a309220c9946303", "fusion_lat": 0.0, "name": "f1f4c2f8f8c736978a309220c9946303", "is_reserved": 0, "rental_uris": {"android": "https://dc.lft.to/lastmile_qr_scan", "ios": "https://dc.lft.to/lastmile_qr_scan"}, "fusion_lon": 0.0}, {"lat": 38.91262183333333, "is_disabled": 0, "type": "electric_scooter", "lon": -77.0225375, "bike_id": "269633fdbd3b94e9cbb1df2e988f1056", "fusion_lat": 0.0, "name": "269633fdbd3b94e9cbb1df2e988f1056", "is_reserved": 0, "rental_uris": {"android": "https://dc.lft.to/lastmile_qr_scan", "ios": "https://dc.lft.to/lastmile_qr_scan"}, "fusion_lon": 0.0}, {"lat": 38.88672116666667, "is_disabled": 0, "type": "electric_scooter", "lon": -76.99034583333334, "bike_id": "af8dd479f7f7efb2a3ee5519a44ffd89", "fusion_lat": 0.0, "name": "af8dd479f7f7efb2a3ee5519a44ffd89", "is_reserved": 0, "rental_uris": {"android": "https://dc.lft.to/lastmile_qr_scan", "ios": "https://dc.lft.to/lastmile_qr_scan"}, "fusion_lon": 0.0}, {"lat": 38.92336016666667, "is_disabled": 0, "type": "electric_scooter", "lon": -77.035339, "bike_id": "f0848f9fd9c4cb724ebb10a9efc33f5f", "fusion_lat": 0.0, "name": "f0848f9fd9c4cb724ebb10a9efc33f5f", "is_reserved": 0, "rental_uris": {"android": "https://dc.lft.to/lastmile_qr_scan", "ios": "https://dc.lft.to/lastmile_qr_scan"}, "fusion_lon": 0.0}, {"lat": 38.90399166666667, "is_disabled": 0, "type": "electric_scooter", "lon": -77.04329266666667, "bike_id": "7291a4d841f63acd9c055cdfa9237848", "fusion_lat": 0.0, "name": "7291a4d841f63acd9c055cdfa9237848", "is_reserved": 0, "rental_uris": {"android": "https://dc.lft.to/lastmile_qr_scan", "ios": "https://dc.lft.to/lastmile_qr_scan"}, "fusion_lon": 0.0}, {"lat": 38.955664666666664, "is_disabled": 0, "type": "electric_scooter", "lon": -77.02241166666667, "bike_id": "14acfc258e884bfa989e0f0c3aa714e9", "fusion_lat": 0.0, "name": "14acfc258e884bfa989e0f0c3aa714e9", "is_reserved": 0, "rental_uris": {"android": "https://dc.lft.to/lastmile_qr_scan", "ios": "https://dc.lft.to/lastmile_qr_scan"}, "fusion_lon": 0.0}, {"lat": 38.92153233333333, "is_disabled": 0, "type": "electric_scooter", "lon": -77.03515333333333, "bike_id": "58cafcc2a7190673e53c5298041833da", "fusion_lat": 0.0, "name": "58cafcc2a7190673e53c5298041833da", "is_reserved": 0, "rental_uris": {"android": "https://dc.lft.to/lastmile_qr_scan", "ios": "https://dc.lft.to/lastmile_qr_scan"}, "fusion_lon": 0.0}, {"lat": 38.90723166666667, "is_disabled": 0, "type": "electric_scooter", "lon": -77.03444116666667, "bike_id": "0b81909156a0f2499c01de334d3a3b30", "fusion_lat": 0.0, "name": "0b81909156a0f2499c01de334d3a3b30", "is_reserved": 0, "rental_uris": {"android": "https://dc.lft.to/lastmile_qr_scan", "ios": "https://dc.lft.to/lastmile_qr_scan"}, "fusion_lon": 0.0},