{"data": {"bikes": [{"rental_uris": {"ios": "https://dc.lft.to/lastmile_qr_scan", "android": "https://dc.lft.to/lastmile_qr_scan"}, "lon": -77.02873916666667, "type": "electric_scooter", "fusion_lat": 0.0, "lat": 38.8975375, "name": "eaf648536da4c56162aa84aa2b0f5d39", "fusion_lon": 0.0, "bike_id": "eaf648536da4c56162aa84aa2b0f5d39", "is_disabled": 0, "is_reserved": 0}, {"rental_uris": {"ios": "https://dc.lft.to/lastmile_qr_scan", "android": "https://dc.lft.to/lastmile_qr_scan"}, "lon": -77.0320945, "type": "electric_scooter", "fusion_lat": 0.0, "lat": 38.90030216666667, "name": "64ac2c4f4bce87e70ce93712ad22a940", "fusion_lon": 0.0, "bike_id": "64ac2c4f4bce87e70ce93712ad22a940", "is_disabled": 0, "is_reserved": 0}, {"rental_uris": {"ios": "https://dc.lft.to/lastmile_qr_scan", "android": "https://dc.lft.to/lastmile_qr_scan"}, "lon": -77.02437, "type": "electric_scooter", "fusion_lat": 0.0, "lat": 38.922550333333334, "name": "51b456e6c93393a8a4ff4600a7dc755f", "fusion_lon": 0.0, "bike_id": "51b456e6c93393a8a4ff4600a7dc755f", "is_disabled": 0, "is_reserved": 0}, {"rental_uris": {"ios": "https://dc.lft.to/lastmile_qr_scan", "android": "https://dc.lft.to/lastmile_qr_scan"}, "lon": -77.0094075, "type": "electric_scooter", "fusion_lat": 0.0, "lat": 38.871975666666664, "name": "4561887ccb3a07c247dc601a0e11aa08", "fusion_lon": 0.0, "bike_id": "4561887ccb3a07c247dc601a0e11aa08", "is_disabled": 0, "is_reserved": 0}, {"rental_uris": {"ios": "https://dc.lft.to/lastmile_qr_scan", "android": "https://dc.lft.to/lastmile_qr_scan"}, "lon": -77.03199516666666, "type": "electric_scooter", "fusion_lat": 0.0, "lat": 38.8983015, "name": "89d6865968c9e06c11a523a1ee7af227", "fusion_lon": 0.0, "bike_id": "89d6865968c9e06c11a523a1ee7af227", "is_disabled": 0, "is_reserved": 0}, {"rental_uris": {"ios": "https://dc.lft.to/lastmile_qr_scan", "android": "https://dc.lft.to/lastmile_qr_scan"}, "lon": -76.98345716666667, "type": "electric_scooter", "fusion_lat": 0.0, "lat": 38.9153295, "name": "2e68710005c846beb15b6dd6afaaaa00", "fusion_lon": 0.0, "bike_id": "2e68710005c846beb15b6dd6afaaaa00", "is_disabled": 0, "is_reserved": 0}, {"rental_uris": {"ios": "https://dc.lft.to/lastmile_qr_scan", "android": "https://dc.lft.to/lastmile_qr_scan"}, "lon": -76.9906725, "type": "electric_scooter", "fusion_lat": 0.0, "lat": 38.86355833333333, "name": "65aff16e6058e7db22dae0a8fca05d87", "fusion_lon": 0.0, "bike_id": "65aff16e6058e7db22dae0a8fca05d87", "is_disabled": 0, "is_reserved": 0}, {"rental_uris": {"ios": "https://dc.lft.to/lastmile_qr_scan", "android": "https://dc.lft.to/lastmile_qr_scan"}, "lon": -77.02768183333333, "type": "electric_scooter", "fusion_lat": 0.0, "lat": 38.895085, "name": "5a8427c09dcada8acd7491917d9a8daa", "fusion_lon": 0.0, "bike_id": "5a8427c09dcada8acd7491917d9a8daa", "is_disabled": 0, "is_reserved": 0}, {"rental_uris": {"ios": "https://dc.lft.to/lastmile_qr_scan", "android": "https://dc.lft.to/lastmile_qr_scan"}, "lon": -77.02190666666667, "type": "electric_scooter", "fusion_lat": 0.0, "lat": 38.894724833333335, "name": "02d9a191c54c1568a054b909fbaeaf13", "fusion_lon": 0.0, "bike_id": "02d9a191c54c1568a054b909fbaeaf13", "is_disabled": 0, "is_reserved": 0}, {"rental_uris": {"ios": "https://dc.lft.to/lastmile_qr_scan", "android": "https://dc.lft.to/lastmile_qr_scan"}, "lon": -77.05523933333333, "type": "electric_scooter", "fusion_lat": 0.0, "lat": 38.89731, "name": "617544c8fb28f78348d97e25f91165e3", "fusion_lon": 0.0, "bike_id": "617544c8fb28f78348d97e25f91165e3", "is_disabled": 0, "is_reserved": 0}, {"rental_uris": {"ios": "https://dc.lft.to/lastmile_qr_scan", "android": "https://dc.lft.to/lastmile_qr_scan"}, "lon": -77.05977383333334, "type": "electric_scooter", "fusion_lat": 0.0, "lat": 38.935460666666664, "name": "d9c96b80cb23df661caf2186977e0eb3", "fusion_lon": 0.0, "bike_id": "d9c96b80cb23df661caf2186977e0eb3", "is_disabled": 0, "is_reserved": 0}, {"rental_uris": {"ios": "https://dc.lft.to/lastmile_qr_scan", "android": "https://dc.lft.to/lastmile_qr_scan"}, "lon": -76.95474516666667, "type": "electric_bike", "fusion_lat": 0.0, "lat": 38.886358, "name": "511b49b36930d3c05347161bc9757fed", "fusion_lon": 0.0, "bike_id": "511b49b36930d3c05347161bc9757fed", "is_disabled": 0, "is_reserved": 0}, {"rental_uris": {"ios": "https://dc.lft.to/lastmile_qr_scan", "android": "https://dc.lft.to/lastmile_qr_scan"}, "lon": -77.04725516666667, "type": "electric_scooter", "fusion_lat": 0.0, "lat": 38.897180666666664, "name": "19f723e608227c4b71ffb2826802d65b", "fusion_lon": 0.0, "bike_id": "19f723e608227c4b71ffb2826802d65b", "is_disabled": 0, "is_reserved": 0}, {"rental_uris": {"ios": "https://dc.lft.to/lastmile_qr_scan", "android": "https://dc.lft.to/lastmile_qr_scan"}, "lon": -77.00666966666667, "type": "electric_scooter", "fusion_lat": 0.0, "lat": 38.87637433333333, "name": "9c21c4b043ceeed6449295bc5496b0e0", "fusion_lon": 0.0, "bike_id": "9c21c4b043ceeed6449295bc5496b0e0", "is_disabled": 0, "is_reserved": 0}, {"rental_uris": {"ios": "https://dc.lft.to/lastmile_qr_scan", "android": "https://dc.lft.to/lastmile_qr_scan"}, "lon": -77.03855183333333, "type": "electric_scooter", "fusion_lat": 0.0, "lat": 38.9264745, "name": "c9939da0fa78be7df3891905e97b781d", "fusion_lon": 0.0, "bike_id": "c9939da0fa78be7df3891905e97b781d", "is_disabled": 0, "is_reserved": 0}, {"rental_uris": {"ios": "https://dc.lft.to/lastmile_qr_scan", "android": "https://dc.lft.to/lastmile_qr_scan"}, "lon": -77.0428725, "type": "electric_scooter", "fusion_lat": 0.0, "lat": 38.909390333333334, "name": "c4783a889a903ca9bdacb8c1343af95c", "fusion_lon": 0.0, "bike_id": "c4783a889a903ca9bdacb8c1343af95c", "is_disabled": 0, "is_reserved": 0}, {"rental_uris": {"ios": "https://dc.lft.to/lastmile_qr_scan", "android": "https://dc.lft.to/lastmile_qr_scan"}, "lon": -77.02598366666666, "type": "electric_scooter", "fusion_lat": 0.0, "lat": 38.9169285, "name": "b2026a9adc47759ca75501cfd3f602a3", "fusion_lon": 0.0, "bike_id": "b2026a9adc47759ca75501cfd3f602a3", "is_disabled": 0, "is_reserved": 0}, {"rental_uris": {"ios": "https://dc.lft.to/lastmile_qr_scan", "android": "https://dc.lft.to/lastmile_qr_scan"}, "lon": -76.99617666666667, "type": "electric_scooter", "fusion_lat": 0.0, "lat": 38.88552033333333, "name": "a70f8fa968a20ff1babb98ff65c6ea47", "fusion_lon": 0.0, "bike_id": "a70f8fa968a20ff1babb98ff65c6ea47", "is_disabled": 0, "is_reserved": 0}, {"rental_uris": {"ios": "https://dc.lft.to/lastmile_qr_scan", "android": "https://dc.lft.to/lastmile_qr_scan"}, "lon": -77.04468066666666, "type": "electric_scooter", "fusion_lat": 0.0, "lat": 38.909386, "name": "a25f13498b307d8a538b288c2e969caf", "fusion_lon": 0.0, "bike_id": "a25f13498b307d8a538b288c2e969caf", "is_disabled": 0, "is_reserved": 0}, {"rental_uris": {"ios": "https://dc.lft.to/lastmile_qr_scan", "android": "https://dc.lft.to/lastmile_qr_scan"}, "lon": -77.02175316666667, "type": "electric_scooter", "fusion_lat": 0.0, "lat": 38.89745883333333, "name": "1ee708de8822ecf34220955edd3d4faa", "fusion_lon": 0.0, "bike_id": "1ee708de8822ecf34220955edd3d4faa", "is_disabled": 0, "is_reserved": 0}, {"rental_uris": {"ios": "https://dc.lft.to/lastmile_qr_scan", "android": "https://dc.lft.to/lastmile_qr_scan"}, "lon": -77.0551395, "type": "electric_scooter", "fusion_lat": 0.0, "lat": 38.9299875, "name": "e6e3f346e7457f66d3b0a29d34f3389b", "fusion_lon": 0.0, "bike_id": "e6e3f346e7457f66d3b0a29d34f3389b", "is_disabled": 0, "is_reserved": 0}, {"rental_uris": {"ios": "https://dc.lft.to/lastmile_qr_scan", "android": "https://dc.lft.to/lastmile_qr_scan"}, "lon": -77.03352466666666, "type": "electric_scooter", "fusion_lat": 0.0, "lat": 38.895311, "name": "7c50637e3d0484ecc44d30efcf6e179c", "fusion_lon": 0.0, "bike_id": "7c50637e3d0484ecc44d30efcf6e179c", "is_disabled": 0, "is_reserved": 0}, {"rental_uris": {"ios": "https://dc.lft.to/lastmile_qr_scan", "android": "https://dc.lft.to/lastmile_qr_scan"}, "lon": -77.00580316666667, "type": "electric_scooter", "fusion_lat": 0.0, "lat": 38.844949666666665, "name": "eeeb813f7cb5c3e62bdf9fb20322ec78", "fusion_lon": 0.0, "bike_id": "eeeb813f7cb5c3e62bdf9fb20322ec78", "is_disabled": 0, "is_reserved": 0}, {"rental_uris": {"ios": "https://dc.lft.to/lastmile_qr_scan", "android": "https://dc.lft.to/lastmile_qr_scan"}, "lon": -77.0227835, "type": "electric_scooter", "fusion_lat": 0.0, "lat": 38.87835166666667, "name": "60d7c6e1cd06f1bd2abe9a336d06ac69", "fusion_lon": 0.0, "bike_id": "60d7c6e1cd06f1bd2abe9a336d06ac69", "is_disabled": 0, "is_reserved": 0}, {"rental_uris": {"ios": "https://dc.lft.to/lastmile_qr_scan", "android": "https://dc.lft.to/lastmile_qr_scan"}, "lon": -77.02225316666667, "type": "electric_scooter", "fusion_lat": 0.0, "lat": 38.92100666666666, "name": "56336bc57c2abed6b646562d45ac10c8", "fusion_lon": 0.0, "bike_id": "56336bc57c2abed6b646562d45ac10c8", "is_disabled": 0, "is_reserved": 0}, {"rental_uris": {"ios": "https://dc.lft.to/lastmile_qr_scan", "android": "https://dc.lft.to/lastmile_qr_scan"}, "lon": -76.97321283333333, "type": "electric_scooter", "fusion_lat": 0.0, "lat": 38.91770566666667, "name": "da3129d1e2d9c83a7e29483a9250cbb9", "fusion_lon": 0.0, "bike_id": "da3129d1e2d9c83a7e29483a9250cbb9", "is_disabled": 0, "is_reserved": 0}, {"rental_uris": {"ios": "https://dc.lft.to/lastmile_qr_scan", "android": "https://dc.lft.to/lastmile_qr_scan"}, "lon": -77.0296525, "type": "electric_scooter", "fusion_lat": 0.0, "lat": 38.922656, "name": "f1c9d61eb3afb47ac17fe08f816994d5", "fusion_lon": 0.0, "bike_id": "f1c9d61eb3afb47ac17fe08f816994d5", "is_disabled": 0, "is_reserved": 0}, {"rental_uris": {"ios": "https://dc.lft.to/lastmile_qr_scan", "android": "https://dc.lft.to/lastmile_qr_scan"}, "lon": -77.03155583333333, "type": "electric_scooter", "fusion_lat": 0.0, "lat": 38.94529566666667, "name": "c08a9645ccf507c25c1d66612ecebdd0", "fusion_lon": 0.0, "bike_id": "c08a9645ccf507c25c1d66612ecebdd0", "is_disabled": 0, "is_reserved": 0}, {"rental_uris": {"ios": "https://dc.lft.to/lastmile_qr_scan", "android": "https://dc.lft.to/lastmile_qr_scan"}, "lon": -77.003567, "type": "electric_scooter", "fusion_lat": 0.0, "lat": 38.89751583333333, "name": "15583d0a98784a9099025a3740867a9f", "fusion_lon": 0.0, "bike_id": "15583d0a98784a9099025a3740867a9f", "is_disabled": 0, "is_reserved": 0}, {"rental_uris": {"ios": "https://dc.lft.to/lastmile_qr_scan", "android": "https://dc.lft.to/lastmile_qr_scan"}, "lon": -76.986569, "type": "electric_scooter", "fusion_lat": 0.0, "lat": 38.85802416666667, "name": "43fa080363abc660beafeb76f8d16b98", "fusion_lon": 0.0, "bike_id": "43fa080363abc660beafeb76f8d16b98", "is_disabled": 0, "is_reserved": 0}, {"rental_uris": {"ios": "https://dc.lft.to/lastmile_qr_scan", "android": "https://dc.lft.to/lastmile_qr_scan"}, "lon": -77.06327533333334, "type": "electric_scooter", "fusion_lat": 0.0, "lat": 38.90402916666667, "name": "5f6f8d3f65721fe9c8a634eb81c3f21f", "fusion_lon": 0.0, "bike_id": "5f6f8d3f65721fe9c8a634eb81c3f21f", "is_disabled": 0, "is_reserved": 0}, {"rental_uris": {"ios": "https://dc.lft.to/lastmile_qr_scan", "android": "https://dc.lft.to/lastmile_qr_scan"}, "lon": -76.9865795, "type": "electric_scooter", "fusion_lat": 0.0, "lat": 38.8580255, "name": "6f3c86f169b4056879938954a15229b6", "fusion_lon": 0.0, "bike_id": "6f3c86f169b4056879938954a15229b6", "is_disabled": 0, "is_reserved": 0}, {"rental_uris": {"ios": "https://dc.lft.to/lastmile_qr_scan", "android": "https://dc.lft.to/lastmile_qr_scan"}, "lon": -76.985728, "type": "electric_scooter", "fusion_lat": 0.0, "lat": 38.89888633333333, "name": "de27f895a42e174030981e57d70258ed", "fusion_lon": 0.0, "bike_id": "de27f895a42e174030981e57d70258ed", "is_disabled": 0, "is_reserved": 0}, {"rental_uris": {"ios": "https://dc.lft.to/lastmile_qr_scan", "android": "https://dc.lft.to/lastmile_qr_scan"}, "lon": -77.1003075, "type": "electric_bike", "fusion_lat": 0.0, "lat": 38.990605333333335, "name": "c38bac3a3977fae7ae3bb499f5798e8e", "fusion_lon": 0.0, "bike_id": "c38bac3a3977fae7ae3bb499f5798e8e", "is_disabled": 0, "is_reserved": 0}, {"rental_uris": {"ios": "https://dc.lft.to/lastmile_qr_scan", "android": "https://dc.lft.to/lastmile_qr_scan"}, "lon": -76.99951816666666, "type": "electric_scooter", "fusion_lat": 0.0, "lat": 38.84287233333333, "name": "1d141348c809c05fdaca422d5325c199", "fusion_lon": 0.0, "bike_id": "1d141348c809c05fdaca422d5325c199", "is_disabled": 0, "is_reserved": 0}, {"rental_uris": {"ios": "https://dc.lft.to/lastmile_qr_scan", "android": "https://dc.lft.to/lastmile_qr_scan"}, "lon": -77.03209366666667, "type": "electric_scooter", "fusion_lat": 0.0, "lat": 38.962359666666664, "name": "c108297fe9fa71fad2f58330e214c4da", "fusion_lon": 0.0, "bike_id": "c108297fe9fa71fad2f58330e214c4da", "is_disabled": 0, "is_reserved": 0}, {"rental_uris": {"ios": "https://dc.lft.to/lastmile_qr_scan", "android": "https://dc.lft.to/lastmile_qr_scan"}, "lon": -77.02319616666666, "type": "electric_scooter", "fusion_lat": 0.0, "lat": 38.91679533333333, "name": "40eb90813996b52a16d37e7526e89f18", "fusion_lon": 0.0, "bike_id": "40eb90813996b52a16d37e7526e89f18", "is_disabled": 0, "is_reserved": 0}, {"rental_uris": {"ios": "https://dc.lft.to/lastmile_qr_scan", "android": "https://dc.lft.to/lastmile_qr_scan"}, "lon": -77.03471866666666, "type": "electric_scooter", "fusion_lat": 0.0, "lat": 38.929895, "name": "e5cfdd0d16fb91e8c7c05a67ea1701a0", "fusion_lon": 0.0, "bike_id": "e5cfdd0d16fb91e8c7c05a67ea1701a0", "is_disabled": 0, "is_reserved": 0}, {"rental_uris": {"ios": "https://dc.lft.to/lastmile_qr_scan", "android": "https://dc.lft.to/lastmile_qr_scan"}, "lon": -77.049012, "type": "electric_bike", "fusion_lat": 0.0, "lat": 38.874906, "name": "6fdfdd86947e90a139f947bf8c551ac5", "fusion_lon": 0.0, "bike_id": "6fdfdd86947e90a139f947bf8c551ac5", "is_disabled": 0, "is_reserved": 0}, {"rental_uris": {"ios": "https://dc.lft.to/lastmile_qr_scan", "android": "https://dc.lft.to/lastmile_qr_scan"}, "lon": -77.02006616666667, "type": "electric_scooter", "fusion_lat": 0.0, "lat": 38.892455166666664, "name": "57ce1a9e285407a3893e88c00723b8d3", "fusion_lon": 0.0, "bike_id": "57ce1a9e285407a3893e88c00723b8d3", "is_disabled": 0, "is_reserved": 0}, {"rental_uris": {"ios": "https://dc.lft.to/lastmile_qr_scan", "android": "https://dc.lft.to/lastmile_qr_scan"}, "lon": -76.99044483333333, "type": "electric_scooter", "fusion_lat": 0.0, "lat": 38.9013635, "name": "51040a852509c920d99a1bb28e91fa6d", "fusion_lon": 0.0, "bike_id": "51040a852509c920d99a1bb28e91fa6d", "is_disabled": 0, "is_reserved": 0}, {"rental_uris": {"ios": "https://dc.lft.to/lastmile_qr_scan", "android": "https://dc.lft.to/lastmile_qr_scan"}, "lon": -77.02200116666667, "type": "electric_scooter", "fusion_lat": 0.0, "lat": 38.910336, "name": "dfb7a0f65cacfd8ad27c47e9f08870b9", "fusion_lon": 0.0, "bike_id": "dfb7a0f65cacfd8ad27c47e9f08870b9", "is_disabled": 0, "is_reserved": 0}, {"rental_uris": {"ios": "https://dc.lft.to/lastmile_qr_scan", "android": "https://dc.lft.to/lastmile_qr_scan"}, "lon": -76.946521, "type": "electric_scooter", "fusion_lat": 0.0, "lat": 38.898230166666664, "name": "9780eea958cee1bc05e3483a9476435f", "fusion_lon": 0.0, "bike_id": "9780eea958cee1bc05e3483a9476435f", "is_disabled": 0, "is_reserved": 0}, {"rental_uris": {"ios": "https://dc.lft.to/lastmile_qr_scan", "android": "https://dc.lft.to/lastmile_qr_scan"}, "lon": -77.02886533333333, "type": "electric_scooter", "fusion_lat": 0.0, "lat": 38.92377483333333, "name": "8ab5dcba2dac93620d6f03d2950d69c5", "fusion_lon": 0.0, "bike_id": "8ab5dcba2dac93620d6f03d2950d69c5", "is_disabled": 0, "is_reserved": 0}, {"rental_uris": {"ios": "https://dc.lft.to/lastmile_qr_scan", "android": "https://dc.lft.to/lastmile_qr_scan"}, "lon": -76.9954725, "type": "electric_scooter", "fusion_lat": 0.0, "lat": 38.90029033333333, "name": "2af8dfc4b9282a97080d311573874778", "fusion_lon": 0.0, "bike_id": "2af8dfc4b9282a97080d311573874778", "is_disabled": 0, "is_reserved": 0}, {"rental_uris": {"ios": "https://dc.lft.to/lastmile_qr_scan", "android": "https://dc.lft.to/lastmile_qr_scan"}, "lon": -77.17846816666666, "type": "electric_bike", "fusion_lat": 0.0, "lat": 39.0889895, "name": "69a7f35543c4d09ef7a60fb3db2911ae", "fusion_lon": 0.0, "bike_id": "69a7f35543c4d09ef7a60fb3db2911ae", "is_disabled": 0, "is_reserved": 0}, {"rental_uris": {"ios": "https://dc.lft.to/lastmile_qr_scan", "android": "https://dc.lft.to/lastmile_qr_scan"}, "lon": -77.03465616666666, "type": "electric_scooter", "fusion_lat": 0.0, "lat": 38.93437316666667, "name": "017d383327f5909eb5eae5a18ee5e22f", "fusion_lon": 0.0, "bike_id": "017d383327f5909eb5eae5a18ee5e22f", "is_disabled": 0, "is_reserved": 0}, {"rental_uris": {"ios": "https://dc.lft.to/lastmile_qr_scan", "android": "https://dc.lft.to/lastmile_qr_scan"}, "lon": -77.02643833333333, "type": "electric_scooter", "fusion_lat": 0.0, "lat": 38.892230166666664, "name": "c19991783fff35f741f7bc0e1e2af9fc", "fusion_lon": 0.0, "bike_id": "c19991783fff35f741f7bc0e1e2af9fc", "is_disabled": 0, "is_reserved": 0}, {"rental_uris": {"ios": "https://dc.lft.to/lastmile_qr_scan", "android": "https://dc.lft.to/lastmile_qr_scan"}, "lon": -77.03179233333333, "type": "electric_scooter", "fusion_lat": 0.0, "lat": 38.91827716666667, "name": "7b23f7d2233bb84ed900689a32e6ad6e", "fusion_lon": 0.0, "bike_id": "7b23f7d2233bb84ed900689a32e6ad6e", "is_disabled": 0, "is_reserved": 0}, {"rental_uris": {"ios": "https://dc.lft.to/lastmile_qr_scan", "android": "https://dc.lft.to/lastmile_qr_scan"}, "lon": -77.00671833333334, "type": "electric_scooter", "fusion_lat": 0.0, "lat": 38.874779333333336, "name": "fc6f67a4568c0dbfac7703b48a026a26", "fusion_lon": 0.0, "bike_id": "fc6f67a4568c0dbfac7703b48a026a26", "is_disabled": 0, "is_reserved": 0}, {"rental_uris": {"ios": "https://dc.lft.to/lastmile_qr_scan", "android": "https://dc.lft.to/lastmile_qr_scan"}, "lon": -77.02980916666667, "type": "electric_scooter", "fusion_lat": 0.0, "lat": 38.96227566666666, "name": "31567debb38bd746157944627d4ee689", "fusion_lon": 0.0, "bike_id": "31567debb38bd746157944627d4ee689", "is_disabled": 0, "is_reserved": 0}, {"rental_uris": {"ios": "https://dc.lft.to/lastmile_qr_scan", "android": "https://dc.lft.to/lastmile_qr_scan"}, "lon": -77.0072995, "type": "electric_scooter", "fusion_lat": 0.0, "lat": 38.8849075, "name": "d7fbda9fe3ed37e492d97f428a2c8edd", "fusion_lon": 0.0, "bike_id": "d7fbda9fe3ed37e492d97f428a2c8edd", "is_disabled": 0, "is_reserved": 0}, {"rental_uris": {"ios": "https://dc.lft.to/lastmile_qr_scan", "android": "https://dc.lft.to/lastmile_qr_scan"}, "lon": -77.08545616666666, "type": "electric_bike", "fusion_lat": 0.0, "lat": 38.8562205, "name": "0c7285888dd06550f88ae646de854411", "fusion_lon": 0.0, "bike_id": "0c7285888dd06550f88ae646de854411", "is_disabled": 0, "is_reserved": 0}, {"rental_uris": {"ios": "https://dc.lft.to/lastmile_qr_scan", "android": "https://dc.lft.to/lastmile_qr_scan"}, "lon": -77.04105233333334, "type": "electric_scooter", "fusion_lat": 0.0, "lat": 38.918490166666665, "name": "10891f0bb5f98602cd1a000229d9f1c7", "fusion_lon": 0.0, "bike_id": "10891f0bb5f98602cd1a000229d9f1c7", "is_disabled": 0, "is_reserved": 0}, {"rental_uris": {"ios": "https://dc.lft.to/lastmile_qr_scan", "android": "https://dc.lft.to/lastmile_qr_scan"}, "lon": -77.02342216666666, "type": "electric_scooter", "fusion_lat": 0.0, "lat": 38.962042, "name": "08f031fb9d0668db10c4c4ab70876461", "fusion_lon": 0.0, "bike_id": "08f031fb9d0668db10c4c4ab70876461", "is_disabled": 0, "is_reserved": 0}, {"rental_uris": {"ios": "https://dc.lft.to/lastmile_qr_scan", "android": "https://dc.lft.to/lastmile_qr_scan"}, "lon": -77.01408, "type": "electric_scooter", "fusion_lat": 0.0, "lat": 38.919443333333334, "name": "c45ff99d552bede41a0466ac31833d88", "fusion_lon": 0.0, "bike_id": "c45ff99d552bede41a0466ac31833d88", "is_disabled": 0, "is_reserved": 0}, {"rental_uris": {"ios": "https://dc.lft.to/lastmile_qr_scan", "android": "https://dc.lft.to/lastmile_qr_scan"}, "lon": -77.01195333333334, "type": "electric_scooter", "fusion_lat": 0.0, "lat": 38.90024866666667, "name": "58be80c28b70c57e04ab163c8ac8449a", "fusion_lon": 0.0, "bike_id": "58be80c28b70c57e04ab163c8ac8449a", "is_disabled": 0, "is_reserved": 0}, {"rental_uris": {"ios": "https://dc.lft.to/lastmile_qr_scan", "android": "https://dc.lft.to/lastmile_qr_scan"}, "lon": -77.04654716666667, "type": "electric_scooter", "fusion_lat": 0.0, "lat": 38.91270866666667, "name": "cf874b2136db73f1e796ec2271744fe6", "fusion_lon": 0.0, "bike_id": "cf874b2136db73f1e796ec2271744fe6", "is_disabled": 0, "is_reserved": 0}, {"rental_uris": {"ios": "https://dc.lft.to/lastmile_qr_scan", "android": "https://dc.lft.to/lastmile_qr_scan"}, "lon": -77.041611, "type": "electric_scooter", "fusion_lat": 0.0, "lat": 38.919782833333336, "name": "3de8ce6cc58c43fa9850ba08fc949325", "fusion_lon": 0.0, "bike_id": "3de8ce6cc58c43fa9850ba08fc949325", "is_disabled": 0, "is_reserved": 0}, {"rental_uris": {"ios": "https://dc.lft.to/lastmile_qr_scan", "android": "https://dc.lft.to/lastmile_qr_scan"}, "lon": -77.0052695, "type": "electric_scooter", "fusion_lat": 0.0, "lat": 38.9290075, "name": "996b6d3562d1f2cde4eced57a41f3dcb", "fusion_lon": 0.0, "bike_id": "996b6d3562d1f2cde4eced57a41f3dcb", "is_disabled": 0, "is_reserved": 0}, {"rental_uris": {"ios": "https://dc.lft.to/lastmile_qr_scan", "android": "https://dc.lft.to/lastmile_qr_scan"}, "lon": -77.06417533333334, "type": "electric_scooter", "fusion_lat": 0.0, "lat": 38.90908566666667, "name": "473801ea893e5baeffcb87b35f352fad", "fusion_lon": 0.0, "bike_id": "473801ea893e5baeffcb87b35f352fad", "is_disabled": 0, "is_reserved": 0}, {"rental_uris": {"ios": "https://dc.lft.to/lastmile_qr_scan", "android": "https://dc.lft.to/lastmile_qr_scan"}, "lon": -77.05638383333333, "type": "electric_scooter", "fusion_lat": 0.0, "lat": 38.92753733333333, "name": "6a505963e217378dd1334c69a29c29ef", "fusion_lon": 0.0, "bike_id": "6a505963e217378dd1334c69a29c29ef", "is_disabled": 0, "is_reserved": 0}, {"rental_uris": {"ios": "https://dc.lft.to/lastmile_qr_scan", "android": "https://dc.lft.to/lastmile_qr_scan"}, "lon": -77.07256716666667, "type": "electric_scooter", "fusion_lat": 0.0, "lat": 38.933925333333335, "name": "0e2c9cfbce309c31c13251d453040161", "fusion_lon": 0.0, "bike_id": "0e2c9cfbce309c31c13251d453040161", "is_disabled": 0, "is_reserved": 0}, {"rental_uris": {"ios": "https://dc.lft.to/lastmile_qr_scan", "android": "https://dc.lft.to/lastmile_qr_scan"}, "lon": -77.040291, "type": "electric_scooter", "fusion_lat": 0.0, "lat": 38.92443133333333, "name": "b1a6b3042621a0a68351d34c9a0ba946", "fusion_lon": 0.0, "bike_id": "b1a6b3042621a0a68351d34c9a0ba946", "is_disabled": 0, "is_reserved": 0}, {"rental_uris": {"ios": "https://dc.lft.to/lastmile_qr_scan", "android": "https://dc.lft.to/lastmile_qr_scan"}, "lon": -77.04686233333334, "type": "electric_scooter", "fusion_lat": 0.0, "lat": 38.90530483333333, "name": "52ee9b9b22654baacf9af5deedd87989", "fusion_lon": 0.0, "bike_id": "52ee9b9b22654baacf9af5deedd87989", "is_disabled": 0, "is_reserved": 0}, {"rental_uris": {"ios": "https://dc.lft.to/lastmile_qr_scan", "android": "https://dc.lft.to/lastmile_qr_scan"}, "lon": -77.00506316666667, "type": "electric_scooter", "fusion_lat": 0.0, "lat": 38.895907333333334, "name": "f61cc1125f4fa45ab6e95c5ad5a25ac1", "fusion_lon": 0.0, "bike_id": "f61cc1125f4fa45ab6e95c5ad5a25ac1", "is_disabled": 0, "is_reserved": 0}, {"rental_uris": {"ios": "https://dc.lft.to/lastmile_qr_scan", "android": "https://dc.lft.to/lastmile_qr_scan"}, "lon": -77.03193633333333, "type": "electric_scooter", "fusion_lat": 0.0, "lat": 38.9179095, "name": "c1b49f3aeb95c40492811945c3592cdf", "fusion_lon": 0.0, "bike_id": "c1b49f3aeb95c40492811945c3592cdf", "is_disabled": 0, "is_reserved": 0}, {"rental_uris": {"ios": "https://dc.lft.to/lastmile_qr_scan", "android": "https://dc.lft.to/lastmile_qr_scan"}, "lon": -77.07478283333333, "type": "electric_scooter", "fusion_lat": 0.0, "lat": 38.960384, "name": "a7cd0ec8c237b702ffdd08f42c722909", "fusion_lon": 0.0, "bike_id": "a7cd0ec8c237b702ffdd08f42c722909", "is_disabled": 0, "is_reserved": 0}, {"rental_uris": {"ios": "https://dc.lft.to/lastmile_qr_scan", "android": "https://dc.lft.to/lastmile_qr_scan"}, "lon": -77.07273816666667, "type": "electric_scooter", "fusion_lat": 0.0, "lat": 38.93480666666667, "name": "12237890c6e6c4149b6b6b0fe15bca24", "fusion_lon": 0.0, "bike_id": "12237890c6e6c4149b6b6b0fe15bca24", "is_disabled": 0, "is_reserved": 0}, {"rental_uris": {"ios": "https://dc.lft.to/lastmile_qr_scan", "android": "https://dc.lft.to/lastmile_qr_scan"}, "lon": -76.99519333333333, "type": "electric_scooter", "fusion_lat": 0.0, "lat": 38.86257716666667, "name": "75cec00768a2e369797bef6548fe1e4d", "fusion_lon": 0.0, "bike_id": "75cec00768a2e369797bef6548fe1e4d", "is_disabled": 0, "is_reserved": 0}, {"rental_uris": {"ios": "https://dc.lft.to/lastmile_qr_scan", "android": "https://dc.lft.to/lastmile_qr_scan"}, "lon": -77.0027125, "type": "electric_bike", "fusion_lat": 0.0, "lat": 38.952098, "name": "3de724e7e414518ede7e89322db77bf1", "fusion_lon": 0.0, "bike_id": "3de724e7e414518ede7e89322db77bf1", "is_disabled": 0, "is_reserved": 0}, {"rental_uris": {"ios": "https://dc.lft.to/lastmile_qr_scan", "android": "https://dc.lft.to/lastmile_qr_scan"}, "lon": -77.01363133333334, "type": "electric_scooter", "fusion_lat": 0.0, "lat": 38.86368066666667, "name": "8e961c37af2214c199c2489745954200", "fusion_lon": 0.0, "bike_id": "8e961c37af2214c199c2489745954200", "is_disabled": 0, "is_reserved": 0}, {"rental_uris": {"ios": "https://dc.lft.to/lastmile_qr_scan", "android": "https://dc.lft.to/lastmile_qr_scan"}, "lon": -77.04541933333333, "type": "electric_scooter", "fusion_lat": 0.0, "lat": 38.911075833333335, "name": "52f8942ed323a761810d0071c0b60a2b", "fusion_lon": 0.0, "bike_id": "52f8942ed323a761810d0071c0b60a2b", "is_disabled": 0, "is_reserved": 0}, {"rental_uris": {"ios": "https://dc.lft.to/lastmile_qr_scan", "android": "https://dc.lft.to/lastmile_qr_scan"}, "lon": -77.03393733333333, "type": "electric_scooter", "fusion_lat": 0.0, "lat": 38.91912833333333, "name": "d32414578f8a4bd907e27e41eaf9b95e", "fusion_lon": 0.0, "bike_id": "d32414578f8a4bd907e27e41eaf9b95e", "is_disabled": 0, "is_reserved": 0}, {"rental_uris": {"ios": "https://dc.lft.to/lastmile_qr_scan", "android": "https://dc.lft.to/lastmile_qr_scan"}, "lon": -77.05343116666667, "type": "electric_scooter", "fusion_lat": 0.0, "lat": 38.9023395, "name": "b94ef2da05e420b26ff7fbee05033e25", "fusion_lon": 0.0, "bike_id": "b94ef2da05e420b26ff7fbee05033e25", "is_disabled": 0, "is_reserved": 0}, {"rental_uris": {"ios": "https://dc.lft.to/lastmile_qr_scan", "android": "https://dc.lft.to/lastmile_qr_scan"}, "lon": -77.0237005, "type": "electric_scooter", "fusion_lat": 0.0, "lat": 38.89853383333333, "name": "e23b1429e18be4b6e214d75e74a15bbf", "fusion_lon": 0.0, "bike_id": "e23b1429e18be4b6e214d75e74a15bbf", "is_disabled": 0, "is_reserved": 0}, {"rental_uris": {"ios": "https://dc.lft.to/lastmile_qr_scan", "android": "https://dc.lft.to/lastmile_qr_scan"}, "lon": -77.02765133333334, "type": "electric_scooter", "fusion_lat": 0.0, "lat": 38.891952333333336, "name": "979462eed8cf1185fd259ee898cde41c", "fusion_lon": 0.0, "bike_id": "979462eed8cf1185fd259ee898cde41c", "is_disabled": 0, "is_reserved": 0}, {"rental_uris": {"ios": "https://dc.lft.to/lastmile_qr_scan", "android": "https://dc.lft.to/lastmile_qr_scan"}, "lon": -77.03934916666667, "type": "electric_scooter", "fusion_lat": 0.0, "lat": 38.91749566666667, "name": "ed7d2f659c2097708df45056b6d54802", "fusion_lon": 0.0, "bike_id": "ed7d2f659c2097708df45056b6d54802", "is_disabled": 0, "is_reserved": 0}, {"rental_uris": {"ios": "https://dc.lft.to/lastmile_qr_scan", "android": "https://dc.lft.to/lastmile_qr_scan"}, "lon": -76.99576066666667, "type": "electric_scooter", "fusion_lat": 0.0, "lat": 38.9201235, "name": "789b1dfc1ca151ec42a304fbc4869c9e", "fusion_lon": 0.0, "bike_id": "789b1dfc1ca151ec42a304fbc4869c9e", "is_disabled": 0, "is_reserved": 0}, {"rental_uris": {"ios": "https://dc.lft.to/lastmile_qr_scan", "android": "https://dc.lft.to/lastmile_qr_scan"}, "lon": -77.1412155, "type": "electric_bike", "fusion_lat": 0.0, "lat": 38.816053833333335, "name": "0916f7a1dde88341b99eb267c986b39c", "fusion_lon": 0.0, "bike_id": "0916f7a1dde88341b99eb267c986b39c", "is_disabled": 0, "is_reserved": 0}, {"rental_uris": {"ios": "https://dc.lft.to/lastmile_qr_scan", "android": "https://dc.lft.to/lastmile_qr_scan"}, "lon": -77.0365735, "type": "electric_scooter", "fusion_lat": 0.0, "lat": 38.954959333333335, "name": "ec3c30f080e4a4aeaada356de58dce20", "fusion_lon": 0.0, "bike_id": "ec3c30f080e4a4aeaada356de58dce20", "is_disabled": 0, "is_reserved": 0}, {"rental_uris": {"ios": "https://dc.lft.to/lastmile_qr_scan", "android": "https://dc.lft.to/lastmile_qr_scan"}, "lon": -77.03277783333333, "type": "electric_scooter", "fusion_lat": 0.0, "lat": 38.91916883333333, "name": "4cc885665b3ca0c0d5d4b2931f8f72a7", "fusion_lon": 0.0, "bike_id": "4cc885665b3ca0c0d5d4b2931f8f72a7", "is_disabled": 0, "is_reserved": 0}, {"rental_uris": {"ios": "https://dc.lft.to/lastmile_qr_scan", "android": "https://dc.lft.to/lastmile_qr_scan"}, "lon": -77.07360766666666, "type": "electric_scooter", "fusion_lat": 0.0, "lat": 38.937396166666666, "name": "07dea0c3a993e22bac0dce204e94720e", "fusion_lon": 0.0, "bike_id": "07dea0c3a993e22bac0dce204e94720e", "is_disabled": 0, "is_reserved": 0}, {"rental_uris": {"ios": "https://dc.lft.to/lastmile_qr_scan", "android": "https://dc.lft.to/lastmile_qr_scan"}, "lon": -77.06614216666667, "type": "electric_scooter", "fusion_lat": 0.0, "lat": 38.90540566666667, "name": "008fc3d8e9923984d92ff15fd5b67ff5", "fusion_lon": 0.0, "bike_id": "008fc3d8e9923984d92ff15fd5b67ff5", "is_disabled": 0, "is_reserved": 0}, {"rental_uris": {"ios": "https://dc.lft.to/lastmile_qr_scan", "android": "https://dc.lft.to/lastmile_qr_scan"}, "lon": -76.965265, "type": "electric_scooter", "fusion_lat": 0.0, "lat": 38.876245833333336, "name": "ce41a964f3353bb30d231528003517a5", "fusion_lon": 0.0, "bike_id": "ce41a964f3353bb30d231528003517a5", "is_disabled": 0, "is_reserved": 0}, {"rental_uris": {"ios": "https://dc.lft.to/lastmile_qr_scan", "android": "https://dc.lft.to/lastmile_qr_scan"}, "lon": -77.05552466666667, "type": "electric_scooter", "fusion_lat": 0.0, "lat": 38.899769666666664, "name": "b8fb681fd763c68f4564bd18c9d70ccc", "fusion_lon": 0.0, "bike_id": "b8fb681fd763c68f4564bd18c9d70ccc", "is_disabled": 0, "is_reserved": 0}, {"rental_uris": {"ios": "https://dc.lft.to/lastmile_qr_scan", "android": "https://dc.lft.to/lastmile_qr_scan"}, "lon": -77.029282, "type": "electric_scooter", "fusion_lat": 0.0, "lat": 38.8821705, "name": "5014a2c4e95c4fded15e291cedd37523", "fusion_lon": 0.0, "bike_id": "5014a2c4e95c4fded15e291cedd37523", "is_disabled": 0, "is_reserved": 0}, {"rental_uris": {"ios": "https://dc.lft.to/lastmile_qr_scan", "android": "https://dc.lft.to/lastmile_qr_scan"}, "lon": -76.997438, "type": "electric_scooter", "fusion_lat": 0.0, "lat": 38.909421333333334, "name": "d6f82c8716ae928b1b3cc83fc1da0620", "fusion_lon": 0.0, "bike_id": "d6f82c8716ae928b1b3cc83fc1da0620", "is_disabled": 0, "is_reserved": 0}, {"rental_uris": {"ios": "https://dc.lft.to/lastmile_qr_scan", "android": "https://dc.lft.to/lastmile_qr_scan"}, "lon": -77.02193783333334, "type": "electric_scooter", "fusion_lat": 0.0, "lat": 38.91484633333334, "name": "8eb719d31a35cec18a157e2e167eb2d0", "fusion_lon": 0.0, "bike_id": "8eb719d31a35cec18a157e2e167eb2d0", "is_disabled": 0, "is_reserved": 0}, {"rental_uris": {"ios": "https://dc.lft.to/lastmile_qr_scan", "android": "https://dc.lft.to/lastmile_qr_scan"}, "lon": -77.01872366666667, "type": "electric_scooter", "fusion_lat": 0.0, "lat": 38.948959333333335, "name": "168a3b46ea52b5a462cec37d630d315c", "fusion_lon": 0.0, "bike_id": "168a3b46ea52b5a462cec37d630d315c", "is_disabled": 0, "is_reserved": 0}, {"rental_uris": {"ios": "https://dc.lft.to/lastmile_qr_scan", "android": "https://dc.lft.to/lastmile_qr_scan"}, "lon": -77.0461075, "type": "electric_scooter", "fusion_lat": 0.0, "lat": 38.9025555, "name": "38c289402703c6262e62805b06dcd7ec", "fusion_lon": 0.0, "bike_id": "38c289402703c6262e62805b06dcd7ec", "is_disabled": 0, "is_reserved": 0}, {"rental_uris": {"ios": "https://dc.lft.to/lastmile_qr_scan", "android": "https://dc.lft.to/lastmile_qr_scan"}, "lon": -77.01590683333333, "type": "electric_bike", "fusion_lat": 0.0, "lat": 38.90148716666667, "name": "4d0d10c8af84a1ac11a6db428aab6f8e", "fusion_lon": 0.0, "bike_id": "4d0d10c8af84a1ac11a6db428aab6f8e", "is_disabled": 0, "is_reserved": 0}, {"rental_uris": {"ios": "https://dc.lft.to/lastmile_qr_scan", "android": "https://dc.lft.to/lastmile_qr_scan"}, "lon": -77.0010245, "type": "electric_scooter", "fusion_lat": 0.0, "lat": 38.894286, "name": "3d2ddc813e3836b0d191df4a19953480", "fusion_lon": 0.0, "bike_id": "3d2ddc813e3836b0d191df4a19953480", "is_disabled": 0, "is_reserved": 0}, {"rental_uris": {"ios": "https://dc.lft.to/lastmile_qr_scan", "android": "https://dc.lft.to/lastmile_qr_scan"}, "lon": -77.02720383333333, "type": "electric_scooter", "fusion_lat": 0.0, "lat": 38.918172166666665, "name": "552d72432e3b8ec96a4afe7ee5f80e9d", "fusion_lon": 0.0, "bike_id": "552d72432e3b8ec96a4afe7ee5f80e9d", "is_disabled": 0, "is_reserved": 0}, {"rental_uris": {"ios": "https://dc.lft.to/lastmile_qr_scan", "android": "https://dc.lft.to/lastmile_qr_scan"}, "lon": -77.03350816666666, "type": "electric_scooter", "fusion_lat": 0.0, "lat": 38.892404166666665, "name": "483966d39ed8031e3bb8c157478057cf", "fusion_lon": 0.0, "bike_id": "483966d39ed8031e3bb8c157478057cf", "is_disabled": 0, "is_reserved": 0}, {"rental_uris": {"ios": "https://dc.lft.to/lastmile_qr_scan", "android": "https://dc.lft.to/lastmile_qr_scan"}, "lon": -77.0368345, "type": "electric_scooter", "fusion_lat": 0.0, "lat": 38.936519, "name": "3ac46f33094c27d92b855185f2d9e5c6", "fusion_lon": 0.0, "bike_id": "3ac46f33094c27d92b855185f2d9e5c6", "is_disabled": 0, "is_reserved": 0}, {"rental_uris": {"ios": "https://dc.lft.to/lastmile_qr_scan", "android": "https://dc.lft.to/lastmile_qr_scan"}, "lon": -77.04740966666667, "type": "electric_scooter", "fusion_lat": 0.0, "lat": 38.90225916666667, "name": "26c160ea0025ba963ab6563d51500523", "fusion_lon": 0.0, "bike_id": "26c160ea0025ba963ab6563d51500523", "is_disabled": 0, "is_reserved": 0}, {"rental_uris": {"ios": "https://dc.lft.to/lastmile_qr_scan", "android": "https://dc.lft.to/lastmile_qr_scan"}, "lon": -77.11210066666666, "type": "electric_bike", "fusion_lat": 0.0, "lat": 38.81304166666666, "name": "f04bcd19f2ae0730947f0711f60cfbd3", "fusion_lon": 0.0, "bike_id": "f04bcd19f2ae0730947f0711f60cfbd3", "is_disabled": 0, "is_reserved": 0}, {"rental_uris": {"ios": "https://dc.lft.to/lastmile_qr_scan", "android": "https://dc.lft.to/lastmile_qr_scan"}, "lon": -77.03252516666667, "type": "electric_scooter", "fusion_lat": 0.0, "lat": 38.929286166666664, "name": "1b5aa28db2c7a945bda1877b57fa1bba", "fusion_lon": 0.0, "bike_id": "1b5aa28db2c7a945bda1877b57fa1bba", "is_disabled": 0, "is_reserved": 0}, {"rental_uris": {"ios": "https://dc.lft.to/lastmile_qr_scan", "android": "https://dc.lft.to/lastmile_qr_scan"}, "lon": -76.93544833333333, "type": "electric_bike", "fusion_lat": 0.0, "lat": 38.9555085, "name": "02e1865672e8798cfeffc8384586cb76", "fusion_lon": 0.0, "bike_id": "02e1865672e8798cfeffc8384586cb76", "is_disabled": 0, "is_reserved": 0}, {"rental_uris": {"ios": "https://dc.lft.to/lastmile_qr_scan", "android": "https://dc.lft.to/lastmile_qr_scan"}, "lon": -77.1226265, "type": "electric_bike", "fusion_lat": 0.0, "lat": 38.89187883333334, "name": "c9095d2e69da0dfcdbf2107b28197309", "fusion_lon": 0.0, "bike_id": "c9095d2e69da0dfcdbf2107b28197309", "is_disabled": 0, "is_reserved": 0}, {"rental_uris": {"ios": "https://dc.lft.to/lastmile_qr_scan", "android": "https://dc.lft.to/lastmile_qr_scan"}, "lon": -76.9576425, "type": "electric_scooter", "fusion_lat": 0.0, "lat": 38.8842835, "name": "afd59a3e0bcfa3c188f603a9f7a16f11", "fusion_lon": 0.0, "bike_id": "afd59a3e0bcfa3c188f603a9f7a16f11", "is_disabled": 0, "is_reserved": 0}, {"rental_uris": {"ios": "https://dc.lft.to/lastmile_qr_scan", "android": "https://dc.lft.to/lastmile_qr_scan"}, "lon": -77.02397333333333, "type": "electric_scooter", "fusion_lat": 0.0, "lat": 38.915949, "name": "6533b6073632143ba7e3919eee3e4f39", "fusion_lon": 0.0, "bike_id": "6533b6073632143ba7e3919eee3e4f39", "is_disabled": 0, "is_reserved": 0}, {"rental_uris": {"ios": "https://dc.lft.to/lastmile_qr_scan", "android": "https://dc.lft.to/lastmile_qr_scan"}, "lon": -76.99505183333333, "type": "electric_scooter", "fusion_lat": 0.0, "lat": 38.88496266666667, "name": "7b8bd0356a45ed7b83bb02446c2b533e", "fusion_lon": 0.0, "bike_id": "7b8bd0356a45ed7b83bb02446c2b533e", "is_disabled": 0, "is_reserved": 0}, {"rental_uris": {"ios": "https://dc.lft.to/lastmile_qr_scan", "android": "https://dc.lft.to/lastmile_qr_scan"}, "lon": -77.04997083333333, "type": "electric_scooter", "fusion_lat": 0.0, "lat": 38.89893883333333, "name": "44de9530005cbfa3cc2ab58a607a8f9c", "fusion_lon": 0.0, "bike_id": "44de9530005cbfa3cc2ab58a607a8f9c", "is_disabled": 0, "is_reserved": 0}, {"rental_uris": {"ios": "https://dc.lft.to/lastmile_qr_scan", "android": "https://dc.lft.to/lastmile_qr_scan"}, "lon": -77.076868, "type": "electric_bike", "fusion_lat": 0.0, "lat": 38.831934833333335, "name": "b3352691e7bc86e489ac2b0405a4274e", "fusion_lon": 0.0, "bike_id": "b3352691e7bc86e489ac2b0405a4274e", "is_disabled": 0, "is_reserved": 0}, {"rental_uris": {"ios": "https://dc.lft.to/lastmile_qr_scan", "android": "https://dc.lft.to/lastmile_qr_scan"}, "lon": -77.02908916666667, "type": "electric_scooter", "fusion_lat": 0.0, "lat": 38.89849566666667, "name": "666e37ad54f82c869c17eef8fe01415f", "fusion_lon": 0.0, "bike_id": "666e37ad54f82c869c17eef8fe01415f", "is_disabled": 0, "is_reserved": 0}, {"rental_uris": {"ios": "https://dc.lft.to/lastmile_qr_scan", "android": "https://dc.lft.to/lastmile_qr_scan"}, "lon": -77.048044, "type": "electric_scooter", "fusion_lat": 0.0, "lat": 38.892207, "name": "2118097aacc5f08fc70441b2af65415e", "fusion_lon": 0.0, "bike_id": "2118097aacc5f08fc70441b2af65415e", "is_disabled": 0, "is_reserved": 0}, {"rental_uris": {"ios": "https://dc.lft.to/lastmile_qr_scan", "android": "https://dc.lft.to/lastmile_qr_scan"}, "lon": -77.1122355, "type": "electric_bike", "fusion_lat": 0.0, "lat": 38.82871266666667, "name": "0d8a335cd0427226497407fe91071a47", "fusion_lon": 0.0, "bike_id": "0d8a335cd0427226497407fe91071a47", "is_disabled": 0, "is_reserved": 0}, {"rental_uris": {"ios": "https://dc.lft.to/lastmile_qr_scan", "android": "https://dc.lft.to/lastmile_qr_scan"}, "lon": -77.12049283333333, "type": "electric_bike", "fusion_lat": 0.0, "lat": 38.85511733333333, "name": "ff9fe2864743f7d40f1c98f14ba574f1", "fusion_lon": 0.0, "bike_id": "ff9fe2864743f7d40f1c98f14ba574f1", "is_disabled": 0, "is_reserved": 0}, {"rental_uris": {"ios": "https://dc.lft.to/lastmile_qr_scan", "android": "https://dc.lft.to/lastmile_qr_scan"}, "lon": -76.93178116666667, "type": "electric_scooter", "fusion_lat": 0.0, "lat": 38.89882566666667, "name": "a4637aa35a95f4537379cb6af16eb560", "fusion_lon": 0.0, "bike_id": "a4637aa35a95f4537379cb6af16eb560", "is_disabled": 0, "is_reserved": 0}, {"rental_uris": {"ios": "https://dc.lft.to/lastmile_qr_scan", "android": "https://dc.lft.to/lastmile_qr_scan"}, "lon": -77.0466375, "type": "electric_scooter", "fusion_lat": 0.0, "lat": 38.8932935, "name": "72fbeadf6ab8d2ef2d6cff974bf766dd", "fusion_lon": 0.0, "bike_id": "72fbeadf6ab8d2ef2d6cff974bf766dd", "is_disabled": 0, "is_reserved": 0}, {"rental_uris": {"ios": "https://dc.lft.to/lastmile_qr_scan", "android": "https://dc.lft.to/lastmile_qr_scan"}, "lon": -77.05158933333334, "type": "electric_scooter", "fusion_lat": 0.0, "lat": 38.89767883333333, "name": "2987f64895eb90aefc3f4cc5e1e8fb10", "fusion_lon": 0.0, "bike_id": "2987f64895eb90aefc3f4cc5e1e8fb10", "is_disabled": 0, "is_reserved": 0}, {"rental_uris": {"ios": "https://dc.lft.to/lastmile_qr_scan", "android": "https://dc.lft.to/lastmile_qr_scan"}, "lon": -76.94974183333333, "type": "electric_scooter", "fusion_lat": 0.0, "lat": 38.893670166666666, "name": "2cb1b4dd47478aed92d852b83b32c89b", "fusion_lon": 0.0, "bike_id": "2cb1b4dd47478aed92d852b83b32c89b", "is_disabled": 0, "is_reserved": 0}, {"rental_uris": {"ios": "https://dc.lft.to/lastmile_qr_scan", "android": "https://dc.lft.to/lastmile_qr_scan"}, "lon": -77.00207133333333, "type": "electric_scooter", "fusion_lat": 0.0, "lat": 38.902206, "name": "f408fd5ea7aaaedacff4d10a56954e84", "fusion_lon": 0.0, "bike_id": "f408fd5ea7aaaedacff4d10a56954e84", "is_disabled": 0, "is_reserved": 0}, {"rental_uris": {"ios": "https://dc.lft.to/lastmile_qr_scan", "android": "https://dc.lft.to/lastmile_qr_scan"}, "lon": -77.05503766666666, "type": "electric_scooter", "fusion_lat": 0.0, "lat": 38.92977483333333, "name": "0f6136299c24b6956525f926e84dfc0f", "fusion_lon": 0.0, "bike_id": "0f6136299c24b6956525f926e84dfc0f", "is_disabled": 0, "is_reserved": 0}, {"rental_uris": {"ios": "https://dc.lft.to/lastmile_qr_scan", "android": "https://dc.lft.to/lastmile_qr_scan"}, "lon": -77.0481345, "type": "electric_scooter", "fusion_lat": 0.0, "lat": 38.913243333333334, "name": "c6a76ccba308753aca0ed901781bcaf8", "fusion_lon": 0.0, "bike_id": "c6a76ccba308753aca0ed901781bcaf8", "is_disabled": 0, "is_reserved": 0}, {"rental_uris": {"ios": "https://dc.lft.to/lastmile_qr_scan", "android": "https://dc.lft.to/lastmile_qr_scan"}, "lon": -76.90814966666667, "type": "electric_bike", "fusion_lat": 0.0, "lat": 38.994538, "name": "f08d9ecc85960c17710852e2ed21f679", "fusion_lon": 0.0, "bike_id": "f08d9ecc85960c17710852e2ed21f679", "is_disabled": 0, "is_reserved": 0}, {"rental_uris": {"ios": "https://dc.lft.to/lastmile_qr_scan", "android": "https://dc.lft.to/lastmile_qr_scan"}, "lon": -77.02722216666666, "type": "electric_scooter", "fusion_lat": 0.0, "lat": 38.918146, "name": "c4efe55b7088b175fa4676f5659f48a4", "fusion_lon": 0.0, "bike_id": "c4efe55b7088b175fa4676f5659f48a4", "is_disabled": 0, "is_reserved": 0}, {"rental_uris": {"ios": "https://dc.lft.to/lastmile_qr_scan", "android": "https://dc.lft.to/lastmile_qr_scan"}, "lon": -77.09559816666666, "type": "electric_bike", "fusion_lat": 0.0, "lat": 38.917078, "name": "4ef9d2639145c8d1370fba10d09d1afc", "fusion_lon": 0.0, "bike_id": "4ef9d2639145c8d1370fba10d09d1afc", "is_disabled": 0, "is_reserved": 0}, {"rental_uris": {"ios": "https://dc.lft.to/lastmile_qr_scan", "android": "https://dc.lft.to/lastmile_qr_scan"}, "lon": -77.02989716666667, "type": "electric_scooter", "fusion_lat": 0.0, "lat": 38.915532, "name": "1d5763fe7a9a655dc5059f3ab16fbcaa", "fusion_lon": 0.0, "bike_id": "1d5763fe7a9a655dc5059f3ab16fbcaa", "is_disabled": 0, "is_reserved": 0}, {"rental_uris": {"ios": "https://dc.lft.to/lastmile_qr_scan", "android": "https://dc.lft.to/lastmile_qr_scan"}, "lon": -77.0723735, "type": "electric_scooter", "fusion_lat": 0.0, "lat": 38.93453016666667, "name": "8179575af09e44552a32bc8e8331f3a4", "fusion_lon": 0.0, "bike_id": "8179575af09e44552a32bc8e8331f3a4", "is_disabled": 0, "is_reserved": 0}, {"rental_uris": {"ios": "https://dc.lft.to/lastmile_qr_scan", "android": "https://dc.lft.to/lastmile_qr_scan"}, "lon": -77.0629895, "type": "electric_scooter", "fusion_lat": 0.0, "lat": 38.903921833333335, "name": "467b955d0f3b55bd8566f0dfcb964ef7", "fusion_lon": 0.0, "bike_id": "467b955d0f3b55bd8566f0dfcb964ef7", "is_disabled": 0, "is_reserved": 0}, {"rental_uris": {"ios": "https://dc.lft.to/lastmile_qr_scan", "android": "https://dc.lft.to/lastmile_qr_scan"}, "lon": -77.03208366666667, "type": "electric_scooter", "fusion_lat": 0.0, "lat": 38.91474016666667, "name": "fd579f1bea3f1d2b2cdaa440dd0ca871", "fusion_lon": 0.0, "bike_id": "fd579f1bea3f1d2b2cdaa440dd0ca871", "is_disabled": 0, "is_reserved": 0}, {"rental_uris": {"ios": "https://dc.lft.to/lastmile_qr_scan", "android": "https://dc.lft.to/lastmile_qr_scan"}, "lon": -77.02664983333334, "type": "electric_scooter", "fusion_lat": 0.0, "lat": 38.892204666666665, "name": "4ae0b503e355b78a8ee90f3f697631cc", "fusion_lon": 0.0, "bike_id": "4ae0b503e355b78a8ee90f3f697631cc", "is_disabled": 0, "is_reserved": 0}, {"rental_uris": {"ios": "https://dc.lft.to/lastmile_qr_scan", "android": "https://dc.lft.to/lastmile_qr_scan"}, "lon": -76.95413166666667, "type": "electric_bike", "fusion_lat": 0.0, "lat": 38.8646915, "name": "35991c8e90aff3883ca943acd34c1dc8", "fusion_lon": 0.0, "bike_id": "35991c8e90aff3883ca943acd34c1dc8", "is_disabled": 0, "is_reserved": 0}, {"rental_uris": {"ios": "https://dc.lft.to/lastmile_qr_scan", "android": "https://dc.lft.to/lastmile_qr_scan"}, "lon": -77.01656183333333, "type": "electric_scooter", "fusion_lat": 0.0, "lat": 38.913962, "name": "c4031c00aed5a6cf09ab64c99ae1efe4", "fusion_lon": 0.0, "bike_id": "c4031c00aed5a6cf09ab64c99ae1efe4", "is_disabled": 0, "is_reserved": 0}, {"rental_uris": {"ios": "https://dc.lft.to/lastmile_qr_scan", "android": "https://dc.lft.to/lastmile_qr_scan"}, "lon": -77.04172366666667, "type": "electric_scooter", "fusion_lat": 0.0, "lat": 38.919359, "name": "1ebd9baf390715c36fda8e0ea894048d", "fusion_lon": 0.0, "bike_id": "1ebd9baf390715c36fda8e0ea894048d", "is_disabled": 0, "is_reserved": 0}, {"rental_uris": {"ios": "https://dc.lft.to/lastmile_qr_scan", "android": "https://dc.lft.to/lastmile_qr_scan"}, "lon": -77.1829625, "type": "electric_bike", "fusion_lat": 0.0, "lat": 38.883411333333335, "name": "79bba6581d20df7058afef347f118914", "fusion_lon": 0.0, "bike_id": "79bba6581d20df7058afef347f118914", "is_disabled": 0, "is_reserved": 0}, {"rental_uris": {"ios": "https://dc.lft.to/lastmile_qr_scan", "android": "https://dc.lft.to/lastmile_qr_scan"}, "lon": -77.01749516666666, "type": "electric_scooter", "fusion_lat": 0.0, "lat": 38.905587833333335, "name": "3c4a8d28658a7aff725e58e623f4db5d", "fusion_lon": 0.0, "bike_id": "3c4a8d28658a7aff725e58e623f4db5d", "is_disabled": 0, "is_reserved": 0}, {"rental_uris": {"ios": "https://dc.lft.to/lastmile_qr_scan", "android": "https://dc.lft.to/lastmile_qr_scan"}, "lon": -76.99021183333333, "type": "electric_scooter", "fusion_lat": 0.0, "lat": 38.858663, "name": "7b047f7bd4f4d54f5d8fd82198d24371", "fusion_lon": 0.0, "bike_id": "7b047f7bd4f4d54f5d8fd82198d24371", "is_disabled": 0, "is_reserved": 0}, {"rental_uris": {"ios": "https://dc.lft.to/lastmile_qr_scan", "android": "https://dc.lft.to/lastmile_qr_scan"}, "lon": -76.95000833333333, "type": "electric_scooter", "fusion_lat": 0.0, "lat": 38.893699166666664, "name": "53efdc0e9b0a3cf04fb961154478b01e", "fusion_lon": 0.0, "bike_id": "53efdc0e9b0a3cf04fb961154478b01e", "is_disabled": 0, "is_reserved": 0}, {"rental_uris": {"ios": "https://dc.lft.to/lastmile_qr_scan", "android": "https://dc.lft.to/lastmile_qr_scan"}, "lon": -77.018576, "type": "electric_scooter", "fusion_lat": 0.0, "lat": 38.892619, "name": "119ef2ebd55fdfd52bdd71a69108d764", "fusion_lon": 0.0, "bike_id": "119ef2ebd55fdfd52bdd71a69108d764", "is_disabled": 0, "is_reserved": 0}, {"rental_uris": {"ios": "https://dc.lft.to/lastmile_qr_scan", "android": "https://dc.lft.to/lastmile_qr_scan"}, "lon": -77.03200566666666, "type": "electric_scooter", "fusion_lat": 0.0, "lat": 38.917146, "name": "0a40233e975f53fffa0ef5f7d3e756d3", "fusion_lon": 0.0, "bike_id": "0a40233e975f53fffa0ef5f7d3e756d3", "is_disabled": 0, "is_reserved": 0}, {"rental_uris": {"ios": "https://dc.lft.to/lastmile_qr_scan", "android": "https://dc.lft.to/lastmile_qr_scan"}, "lon": -77.06171516666667, "type": "electric_scooter", "fusion_lat": 0.0, "lat": 38.902635833333335, "name": "93fafb96fc192228f3cba90f3125a007", "fusion_lon": 0.0, "bike_id": "93fafb96fc192228f3cba90f3125a007", "is_disabled": 0, "is_reserved": 0}, {"rental_uris": {"ios": "https://dc.lft.to/lastmile_qr_scan", "android": "https://dc.lft.to/lastmile_qr_scan"}, "lon": -77.02544016666667, "type": "electric_scooter", "fusion_lat": 0.0, "lat": 38.8922415, "name": "ab7c4d093e2c154a0a63cd7e147f99eb", "fusion_lon": 0.0, "bike_id": "ab7c4d093e2c154a0a63cd7e147f99eb", "is_disabled": 0, "is_reserved": 0}, {"rental_uris": {"ios": "https://dc.lft.to/lastmile_qr_scan", "android": "https://dc.lft.to/lastmile_qr_scan"}, "lon": -77.05905583333333, "type": "electric_scooter", "fusion_lat": 0.0, "lat": 38.9360685, "name": "91a234193393764f3fb1de327d0f2f23", "fusion_lon": 0.0, "bike_id": "91a234193393764f3fb1de327d0f2f23", "is_disabled": 0, "is_reserved": 0}, {"rental_uris": {"ios": "https://dc.lft.to/lastmile_qr_scan", "android": "https://dc.lft.to/lastmile_qr_scan"}, "lon": -77.03300933333334, "type": "electric_scooter", "fusion_lat": 0.0, "lat": 38.901364666666666, "name": "7c642d4bb297265408511640a415c125", "fusion_lon": 0.0, "bike_id": "7c642d4bb297265408511640a415c125", "is_disabled": 0, "is_reserved": 0}, {"rental_uris": {"ios": "https://dc.lft.to/lastmile_qr_scan", "android": "https://dc.lft.to/lastmile_qr_scan"}, "lon": -77.06459783333334, "type": "electric_scooter", "fusion_lat": 0.0, "lat": 38.91043366666667, "name": "65f2a690369094dc563b77a3ada38bf9", "fusion_lon": 0.0, "bike_id": "65f2a690369094dc563b77a3ada38bf9", "is_disabled": 0, "is_reserved": 0}, {"rental_uris": {"ios": "https://dc.lft.to/lastmile_qr_scan", "android": "https://dc.lft.to/lastmile_qr_scan"}, "lon": -76.97825133333333, "type": "electric_scooter", "fusion_lat": 0.0, "lat": 38.89518, "name": "d6940ced0c0ae5923c3afe284d496269", "fusion_lon": 0.0, "bike_id": "d6940ced0c0ae5923c3afe284d496269", "is_disabled": 0, "is_reserved": 0}, {"rental_uris": {"ios": "https://dc.lft.to/lastmile_qr_scan", "android": "https://dc.lft.to/lastmile_qr_scan"}, "lon": -77.01210616666667, "type": "electric_scooter", "fusion_lat": 0.0, "lat": 38.92119566666667, "name": "3c415fa46e997abd6be8ca83893d3249", "fusion_lon": 0.0, "bike_id": "3c415fa46e997abd6be8ca83893d3249", "is_disabled": 0, "is_reserved": 0}, {"rental_uris": {"ios": "https://dc.lft.to/lastmile_qr_scan", "android": "https://dc.lft.to/lastmile_qr_scan"}, "lon": -77.02808916666666, "type": "electric_scooter", "fusion_lat": 0.0, "lat": 38.8935905, "name": "9132493ff9b658425f14aa5c89416c43", "fusion_lon": 0.0, "bike_id": "9132493ff9b658425f14aa5c89416c43", "is_disabled": 0, "is_reserved": 0}, {"rental_uris": {"ios": "https://dc.lft.to/lastmile_qr_scan", "android": "https://dc.lft.to/lastmile_qr_scan"}, "lon": -77.04160433333334, "type": "electric_scooter", "fusion_lat": 0.0, "lat": 38.901532333333336, "name": "4b2fa918e9fad1cb2a03e9d69293612f", "fusion_lon": 0.0, "bike_id": "4b2fa918e9fad1cb2a03e9d69293612f", "is_disabled": 0, "is_reserved": 0}, {"rental_uris": {"ios": "https://dc.lft.to/lastmile_qr_scan", "android": "https://dc.lft.to/lastmile_qr_scan"}, "lon": -77.03836, "type": "electric_scooter", "fusion_lat": 0.0, "lat": 38.912530833333335, "name": "836147ad3a49681593fff034e98f5df3", "fusion_lon": 0.0, "bike_id": "836147ad3a49681593fff034e98f5df3", "is_disabled": 0, "is_reserved": 0}, {"rental_uris": {"ios": "https://dc.lft.to/lastmile_qr_scan", "android": "https://dc.lft.to/lastmile_qr_scan"}, "lon": -77.01935833333333, "type": "electric_scooter", "fusion_lat": 0.0, "lat": 38.94926683333333, "name": "62326ca7ad9929c6739686ab450d188b", "fusion_lon": 0.0, "bike_id": "62326ca7ad9929c6739686ab450d188b", "is_disabled": 0, "is_reserved": 0}, {"rental_uris": {"ios": "https://dc.lft.to/lastmile_qr_scan", "android": "https://dc.lft.to/lastmile_qr_scan"}, "lon": -77.04337166666667, "type": "electric_scooter", "fusion_lat": 0.0, "lat": 38.89657116666667, "name": "f6d35d898f9e7e5a7474421456396922", "fusion_lon": 0.0, "bike_id": "f6d35d898f9e7e5a7474421456396922", "is_disabled": 0, "is_reserved": 0}, {"rental_uris": {"ios": "https://dc.lft.to/lastmile_qr_scan", "android": "https://dc.lft.to/lastmile_qr_scan"}, "lon": -77.028001, "type": "electric_scooter", "fusion_lat": 0.0, "lat": 38.895357, "name": "6930bf5953df95057fac796b071ca7cb", "fusion_lon": 0.0, "bike_id": "6930bf5953df95057fac796b071ca7cb", "is_disabled": 0, "is_reserved": 0}, {"rental_uris": {"ios": "https://dc.lft.to/lastmile_qr_scan", "android": "https://dc.lft.to/lastmile_qr_scan"}, "lon": -77.054745, "type": "electric_scooter", "fusion_lat": 0.0, "lat": 38.905011, "name": "6eee1c52c8bd32ff47a2177d02bf3e72", "fusion_lon": 0.0, "bike_id": "6eee1c52c8bd32ff47a2177d02bf3e72", "is_disabled": 0, "is_reserved": 0}, {"rental_uris": {"ios": "https://dc.lft.to/lastmile_qr_scan", "android": "https://dc.lft.to/lastmile_qr_scan"}, "lon": -77.04307533333333, "type": "electric_bike", "fusion_lat": 0.0, "lat": 39.054483166666664, "name": "31654c558da96fecef246cbbd6f44f1a", "fusion_lon": 0.0, "bike_id": "31654c558da96fecef246cbbd6f44f1a", "is_disabled": 0, "is_reserved": 0}, {"rental_uris": {"ios": "https://dc.lft.to/lastmile_qr_scan", "android": "https://dc.lft.to/lastmile_qr_scan"}, "lon": -76.95359766666667, "type": "electric_bike", "fusion_lat": 0.0, "lat": 38.93952516666667, "name": "232cf31a1e22c713b93d51c92903f885", "fusion_lon": 0.0, "bike_id": "232cf31a1e22c713b93d51c92903f885", "is_disabled": 0, "is_reserved": 0}, {"rental_uris": {"ios": "https://dc.lft.to/lastmile_qr_scan", "android": "https://dc.lft.to/lastmile_qr_scan"}, "lon": -76.98903916666667, "type": "electric_scooter", "fusion_lat": 0.0, "lat": 38.86690983333333, "name": "18d87b517bfca71877a4608800b82926", "fusion_lon": 0.0, "bike_id": "18d87b517bfca71877a4608800b82926", "is_disabled": 0, "is_reserved": 0}, {"rental_uris": {"ios": "https://dc.lft.to/lastmile_qr_scan", "android": "https://dc.lft.to/lastmile_qr_scan"}, "lon": -77.17843516666667, "type": "electric_bike", "fusion_lat": 0.0, "lat": 39.0886035, "name": "62668ddaff221a5ee1b572d3ac9f33f5", "fusion_lon": 0.0, "bike_id": "62668ddaff221a5ee1b572d3ac9f33f5", "is_disabled": 0, "is_reserved": 0}, {"rental_uris": {"ios": "https://dc.lft.to/lastmile_qr_scan", "android": "https://dc.lft.to/lastmile_qr_scan"}, "lon": -77.02701616666667, "type": "electric_scooter", "fusion_lat": 0.0, "lat": 38.9500005, "name": "a2781dd69ac86d777f1b77ad73c64e39", "fusion_lon": 0.0, "bike_id": "a2781dd69ac86d777f1b77ad73c64e39", "is_disabled": 0, "is_reserved": 0}, {"rental_uris": {"ios": "https://dc.lft.to/lastmile_qr_scan", "android": "https://dc.lft.to/lastmile_qr_scan"}, "lon": -77.05147566666666, "type": "electric_scooter", "fusion_lat": 0.0, "lat": 38.92368366666667, "name": "f5d993ce8f61e8c86a40bebaab7b37dc", "fusion_lon": 0.0, "bike_id": "f5d993ce8f61e8c86a40bebaab7b37dc", "is_disabled": 0, "is_reserved": 0}, {"rental_uris": {"ios": "https://dc.lft.to/lastmile_qr_scan", "android": "https://dc.lft.to/lastmile_qr_scan"}, "lon": -77.04277483333334, "type": "electric_scooter", "fusion_lat": 0.0, "lat": 38.917944, "name": "3662eba288aced14a09dd01d8d31a179", "fusion_lon": 0.0, "bike_id": "3662eba288aced14a09dd01d8d31a179", "is_disabled": 0, "is_reserved": 0}, {"rental_uris": {"ios": "https://dc.lft.to/lastmile_qr_scan", "android": "https://dc.lft.to/lastmile_qr_scan"}, "lon": -77.01988166666666, "type": "electric_scooter", "fusion_lat": 0.0, "lat": 38.877479666666666, "name": "579572e47c6e75155ec23e4472fb6611", "fusion_lon": 0.0, "bike_id": "579572e47c6e75155ec23e4472fb6611", "is_disabled": 0, "is_reserved": 0}, {"rental_uris": {"ios": "https://dc.lft.to/lastmile_qr_scan", "android": "https://dc.lft.to/lastmile_qr_scan"}, "lon": -77.02599433333333, "type": "electric_scooter", "fusion_lat": 0.0, "lat": 38.89742416666667, "name": "3bc46d5497174da1851bbd21fe72e432", "fusion_lon": 0.0, "bike_id": "3bc46d5497174da1851bbd21fe72e432", "is_disabled": 0, "is_reserved": 0}, {"rental_uris": {"ios": "https://dc.lft.to/lastmile_qr_scan", "android": "https://dc.lft.to/lastmile_qr_scan"}, "lon": -77.0358375, "type": "electric_scooter", "fusion_lat": 0.0, "lat": 38.90770966666667, "name": "e5deec39f66fd7d52d960af3c16c3274", "fusion_lon": 0.0, "bike_id": "e5deec39f66fd7d52d960af3c16c3274", "is_disabled": 0, "is_reserved": 0}, {"rental_uris": {"ios": "https://dc.lft.to/lastmile_qr_scan", "android": "https://dc.lft.to/lastmile_qr_scan"}, "lon": -77.05679966666666, "type": "electric_scooter", "fusion_lat": 0.0, "lat": 38.923333666666664, "name": "66f0abcb9ff20418363d7757919fb1b8", "fusion_lon": 0.0, "bike_id": "66f0abcb9ff20418363d7757919fb1b8", "is_disabled": 0, "is_reserved": 0}, {"rental_uris": {"ios": "https://dc.lft.to/lastmile_qr_scan", "android": "https://dc.lft.to/lastmile_qr_scan"}, "lon": -77.0020585, "type": "electric_scooter", "fusion_lat": 0.0, "lat": 38.822522, "name": "e16da1f214cb2b3c9be838edcb0f33ae", "fusion_lon": 0.0, "bike_id": "e16da1f214cb2b3c9be838edcb0f33ae", "is_disabled": 0, "is_reserved": 0}, {"rental_uris": {"ios": "https://dc.lft.to/lastmile_qr_scan", "android": "https://dc.lft.to/lastmile_qr_scan"}, "lon": -77.02368583333333, "type": "electric_scooter", "fusion_lat": 0.0, "lat": 38.903066333333335, "name": "756c76d2cab4941bf83487051efdebc8", "fusion_lon": 0.0, "bike_id": "756c76d2cab4941bf83487051efdebc8", "is_disabled": 0, "is_reserved": 0}, {"rental_uris": {"ios": "https://dc.lft.to/lastmile_qr_scan", "android": "https://dc.lft.to/lastmile_qr_scan"}, "lon": -77.03316733333334, "type": "electric_scooter", "fusion_lat": 0.0, "lat": 38.909633666666664, "name": "b0f8d6f0065e999666f49f4d88af72cb", "fusion_lon": 0.0, "bike_id": "b0f8d6f0065e999666f49f4d88af72cb", "is_disabled": 0, "is_reserved": 0}, {"rental_uris": {"ios": "https://dc.lft.to/lastmile_qr_scan", "android": "https://dc.lft.to/lastmile_qr_scan"}, "lon": -77.01927566666667, "type": "electric_scooter", "fusion_lat": 0.0, "lat": 38.95685833333334, "name": "d42a5c061e5b228231959470ecc4f43e", "fusion_lon": 0.0, "bike_id": "d42a5c061e5b228231959470ecc4f43e", "is_disabled": 0, "is_reserved": 0}, {"rental_uris": {"ios": "https://dc.lft.to/lastmile_qr_scan", "android": "https://dc.lft.to/lastmile_qr_scan"}, "lon": -77.0614855, "type": "electric_scooter", "fusion_lat": 0.0, "lat": 38.90522766666667, "name": "d6ba08e72182ca17ef545b525344d57c", "fusion_lon": 0.0, "bike_id": "d6ba08e72182ca17ef545b525344d57c", "is_disabled": 0, "is_reserved": 0}, {"rental_uris": {"ios": "https://dc.lft.to/lastmile_qr_scan", "android": "https://dc.lft.to/lastmile_qr_scan"}, "lon": -77.0374635, "type": "electric_scooter", "fusion_lat": 0.0, "lat": 38.9259585, "name": "40f965867b0a681bc8b02a634e52ec0b", "fusion_lon": 0.0, "bike_id": "40f965867b0a681bc8b02a634e52ec0b", "is_disabled": 0, "is_reserved": 0}, {"rental_uris": {"ios": "https://dc.lft.to/lastmile_qr_scan", "android": "https://dc.lft.to/lastmile_qr_scan"}, "lon": -77.00211733333333, "type": "electric_scooter", "fusion_lat": 0.0, "lat": 38.902146, "name": "f6d94d1a864affe76fb54454053213f8", "fusion_lon": 0.0, "bike_id": "f6d94d1a864affe76fb54454053213f8", "is_disabled": 0, "is_reserved": 0}, {"rental_uris": {"ios": "https://dc.lft.to/lastmile_qr_scan", "android": "https://dc.lft.to/lastmile_qr_scan"}, "lon": -77.0321905, "type": "electric_scooter", "fusion_lat": 0.0, "lat": 38.91264, "name": "864b3fb7c54b240fe0b51682382efeca", "fusion_lon": 0.0, "bike_id": "864b3fb7c54b240fe0b51682382efeca", "is_disabled": 0, "is_reserved": 0}, {"rental_uris": {"ios": "https://dc.lft.to/lastmile_qr_scan", "android": "https://dc.lft.to/lastmile_qr_scan"}, "lon": -77.03992666666667, "type": "electric_scooter", "fusion_lat": 0.0, "lat": 38.90031316666666, "name": "75eaaced042dc52bdafc6164d83c47fe", "fusion_lon": 0.0, "bike_id": "75eaaced042dc52bdafc6164d83c47fe", "is_disabled": 0, "is_reserved": 0}, {"rental_uris": {"ios": "https://dc.lft.to/lastmile_qr_scan", "android": "https://dc.lft.to/lastmile_qr_scan"}, "lon": -77.00741533333333, "type": "electric_scooter", "fusion_lat": 0.0, "lat": 38.95517433333333, "name": "175e580425c38f93390825a278b9b5f6", "fusion_lon": 0.0, "bike_id": "175e580425c38f93390825a278b9b5f6", "is_disabled": 0, "is_reserved": 0}, {"rental_uris": {"ios": "https://dc.lft.to/lastmile_qr_scan", "android": "https://dc.lft.to/lastmile_qr_scan"}, "lon": -77.03703283333333, "type": "electric_scooter", "fusion_lat": 0.0, "lat": 38.9280965, "name": "4e45a7625e5faf79295a35a397b20871", "fusion_lon": 0.0, "bike_id": "4e45a7625e5faf79295a35a397b20871", "is_disabled": 0, "is_reserved": 0}, {"rental_uris": {"ios": "https://dc.lft.to/lastmile_qr_scan", "android": "https://dc.lft.to/lastmile_qr_scan"}, "lon": -76.99004416666666, "type": "electric_scooter", "fusion_lat": 0.0, "lat": 38.86503166666667, "name": "47fdf59034f8ebbb224e2de6cfd24d72", "fusion_lon": 0.0, "bike_id": "47fdf59034f8ebbb224e2de6cfd24d72", "is_disabled": 0, "is_reserved": 0}, {"rental_uris": {"ios": "https://dc.lft.to/lastmile_qr_scan", "android": "https://dc.lft.to/lastmile_qr_scan"}, "lon": -77.02837583333333, "type": "electric_scooter", "fusion_lat": 0.0, "lat": 38.887668, "name": "d266d1af6a9f45d9d1829c2c836c8fe0", "fusion_lon": 0.0, "bike_id": "d266d1af6a9f45d9d1829c2c836c8fe0", "is_disabled": 0, "is_reserved": 0}, {"rental_uris": {"ios": "https://dc.lft.to/lastmile_qr_scan", "android": "https://dc.lft.to/lastmile_qr_scan"}, "lon": -77.056928, "type": "electric_scooter", "fusion_lat": 0.0, "lat": 38.90531516666667, "name": "8438a564ec5db4dc2a1e1221d4117871", "fusion_lon": 0.0, "bike_id": "8438a564ec5db4dc2a1e1221d4117871", "is_disabled": 0, "is_reserved": 0}, {"rental_uris": {"ios": "https://dc.lft.to/lastmile_qr_scan", "android": "https://dc.lft.to/lastmile_qr_scan"}, "lon": -77.03445, "type": "electric_scooter", "fusion_lat": 0.0, "lat": 38.9184025, "name": "6a9f5490322ee5a2493953cdbdb97055", "fusion_lon": 0.0, "bike_id": "6a9f5490322ee5a2493953cdbdb97055", "is_disabled": 0, "is_reserved": 0}, {"rental_uris": {"ios": "https://dc.lft.to/lastmile_qr_scan", "android": "https://dc.lft.to/lastmile_qr_scan"}, "lon": -77.0920215, "type": "electric_scooter", "fusion_lat": 0.0, "lat": 38.91710283333333, "name": "cf97f82660ddb5593248bb4a85816357", "fusion_lon": 0.0, "bike_id": "cf97f82660ddb5593248bb4a85816357", "is_disabled": 0, "is_reserved": 0}, {"rental_uris": {"ios": "https://dc.lft.to/lastmile_qr_scan", "android": "https://dc.lft.to/lastmile_qr_scan"}, "lon": -77.04290583333334, "type": "electric_scooter", "fusion_lat": 0.0, "lat": 38.909375833333335, "name": "f0a6861d74d85b276fb5ccd0c6319de9", "fusion_lon": 0.0, "bike_id": "f0a6861d74d85b276fb5ccd0c6319de9", "is_disabled": 0, "is_reserved": 0}, {"rental_uris": {"ios": "https://dc.lft.to/lastmile_qr_scan", "android": "https://dc.lft.to/lastmile_qr_scan"}, "lon": -77.03662116666666, "type": "electric_scooter", "fusion_lat": 0.0, "lat": 38.917230833333335, "name": "30345db9a67be8ab0a00a540fc5e30c7", "fusion_lon": 0.0, "bike_id": "30345db9a67be8ab0a00a540fc5e30c7", "is_disabled": 0, "is_reserved": 0}, {"rental_uris": {"ios": "https://dc.lft.to/lastmile_qr_scan", "android": "https://dc.lft.to/lastmile_qr_scan"}, "lon": -77.01439033333334, "type": "electric_scooter", "fusion_lat": 0.0, "lat": 38.929895333333334, "name": "4c59c9cba4011eafbd0109eef07db631", "fusion_lon": 0.0, "bike_id": "4c59c9cba4011eafbd0109eef07db631", "is_disabled": 0, "is_reserved": 0}, {"rental_uris": {"ios": "https://dc.lft.to/lastmile_qr_scan", "android": "https://dc.lft.to/lastmile_qr_scan"}, "lon": -76.99520033333333, "type": "electric_scooter", "fusion_lat": 0.0, "lat": 38.8625555, "name": "092811fa69b3f0da8645f84f3f49cfbe", "fusion_lon": 0.0, "bike_id": "092811fa69b3f0da8645f84f3f49cfbe", "is_disabled": 0, "is_reserved": 0}, {"rental_uris": {"ios": "https://dc.lft.to/lastmile_qr_scan", "android": "https://dc.lft.to/lastmile_qr_scan"}, "lon": -77.01295316666666, "type": "electric_scooter", "fusion_lat": 0.0, "lat": 38.95648216666667, "name": "15f0db77abaa7a13dab9bed0243f8785", "fusion_lon": 0.0, "bike_id": "15f0db77abaa7a13dab9bed0243f8785", "is_disabled": 0, "is_reserved": 0}, {"rental_uris": {"ios": "https://dc.lft.to/lastmile_qr_scan", "android": "https://dc.lft.to/lastmile_qr_scan"}, "lon": -77.02745716666666, "type": "electric_scooter", "fusion_lat": 0.0, "lat": 38.89469033333334, "name": "8a909ca16707d727e14c9295bcc4c35e", "fusion_lon": 0.0, "bike_id": "8a909ca16707d727e14c9295bcc4c35e", "is_disabled": 0, "is_reserved": 0}, {"rental_uris": {"ios": "https://dc.lft.to/lastmile_qr_scan", "android": "https://dc.lft.to/lastmile_qr_scan"}, "lon": -77.113147, "type": "electric_bike", "fusion_lat": 0.0, "lat": 38.85562766666666, "name": "547370f6236ff67ad0b720de96e575a1", "fusion_lon": 0.0, "bike_id": "547370f6236ff67ad0b720de96e575a1", "is_disabled": 0, "is_reserved": 0}, {"rental_uris": {"ios": "https://dc.lft.to/lastmile_qr_scan", "android": "https://dc.lft.to/lastmile_qr_scan"}, "lon": -77.02500933333333, "type": "electric_scooter", "fusion_lat": 0.0, "lat": 38.89737366666667, "name": "800abad42e07da36604de96b9a2aa299", "fusion_lon": 0.0, "bike_id": "800abad42e07da36604de96b9a2aa299", "is_disabled": 0, "is_reserved": 0}, {"rental_uris": {"ios": "https://dc.lft.to/lastmile_qr_scan", "android": "https://dc.lft.to/lastmile_qr_scan"}, "lon": -77.02419233333333, "type": "electric_scooter", "fusion_lat": 0.0, "lat": 38.88464416666667, "name": "42f3d3badd041bef83edaa12be84580a", "fusion_lon": 0.0, "bike_id": "42f3d3badd041bef83edaa12be84580a", "is_disabled": 0, "is_reserved": 0}, {"rental_uris": {"ios": "https://dc.lft.to/lastmile_qr_scan", "android": "https://dc.lft.to/lastmile_qr_scan"}, "lon": -76.9882535, "type": "electric_scooter", "fusion_lat": 0.0, "lat": 38.880254, "name": "98f80104f7233a15658e7a210f41a689", "fusion_lon": 0.0, "bike_id": "98f80104f7233a15658e7a210f41a689", "is_disabled": 0, "is_reserved": 0}, {"rental_uris": {"ios": "https://dc.lft.to/lastmile_qr_scan", "android": "https://dc.lft.to/lastmile_qr_scan"}, "lon": -77.03348733333333, "type": "electric_scooter", "fusion_lat": 0.0, "lat": 38.89953783333333, "name": "7e39195ea76ad7d90543f602fa87913a", "fusion_lon": 0.0, "bike_id": "7e39195ea76ad7d90543f602fa87913a", "is_disabled": 0, "is_reserved": 0}, {"rental_uris": {"ios": "https://dc.lft.to/lastmile_qr_scan", "android": "https://dc.lft.to/lastmile_qr_scan"}, "lon": -77.0367, "type": "electric_scooter", "fusion_lat": 0.0, "lat": 38.918186166666665, "name": "9ff3fd3f0acbc347241bf65792f4402b", "fusion_lon": 0.0, "bike_id": "9ff3fd3f0acbc347241bf65792f4402b", "is_disabled": 0, "is_reserved": 0}, {"rental_uris": {"ios": "https://dc.lft.to/lastmile_qr_scan", "android": "https://dc.lft.to/lastmile_qr_scan"}, "lon": -77.055281, "type": "electric_scooter", "fusion_lat": 0.0, "lat": 38.89935916666667, "name": "058bfab85fba39a0715fdb0a8ecc125c", "fusion_lon": 0.0, "bike_id": "058bfab85fba39a0715fdb0a8ecc125c", "is_disabled": 0, "is_reserved": 0}, {"rental_uris": {"ios": "https://dc.lft.to/lastmile_qr_scan", "android": "https://dc.lft.to/lastmile_qr_scan"}, "lon": -77.07064183333334, "type": "electric_scooter", "fusion_lat": 0.0, "lat": 38.901102, "name": "5f8f0d6b610eef7a296a1f7f27640d41", "fusion_lon": 0.0, "bike_id": "5f8f0d6b610eef7a296a1f7f27640d41", "is_disabled": 0, "is_reserved": 0}, {"rental_uris": {"ios": "https://dc.lft.to/lastmile_qr_scan", "android": "https://dc.lft.to/lastmile_qr_scan"}, "lon": -77.03208516666666, "type": "electric_scooter", "fusion_lat": 0.0, "lat": 38.92579816666667, "name": "cdc98b2c384594ac17552638c775b2d5", "fusion_lon": 0.0, "bike_id": "cdc98b2c384594ac17552638c775b2d5", "is_disabled": 0, "is_reserved": 0}, {"rental_uris": {"ios": "https://dc.lft.to/lastmile_qr_scan", "android": "https://dc.lft.to/lastmile_qr_scan"}, "lon": -77.03261, "type": "electric_scooter", "fusion_lat": 0.0, "lat": 38.92917583333333, "name": "651cd08f9394f2fb608e287ddbc436ff", "fusion_lon": 0.0, "bike_id": "651cd08f9394f2fb608e287ddbc436ff", "is_disabled": 0, "is_reserved": 0}, {"rental_uris": {"ios": "https://dc.lft.to/lastmile_qr_scan", "android": "https://dc.lft.to/lastmile_qr_scan"}, "lon": -77.0447215, "type": "electric_scooter", "fusion_lat": 0.0, "lat": 38.900775333333335, "name": "49b115aaf7a933f4b148e77145db2edc", "fusion_lon": 0.0, "bike_id": "49b115aaf7a933f4b148e77145db2edc", "is_disabled": 0, "is_reserved": 0}, {"rental_uris": {"ios": "https://dc.lft.to/lastmile_qr_scan", "android": "https://dc.lft.to/lastmile_qr_scan"}, "lon": -77.003362, "type": "electric_scooter", "fusion_lat": 0.0, "lat": 38.874956166666664, "name": "abf087d217261a9c6e2ca307ad3b0144", "fusion_lon": 0.0, "bike_id": "abf087d217261a9c6e2ca307ad3b0144", "is_disabled": 0, "is_reserved": 0}, {"rental_uris": {"ios": "https://dc.lft.to/lastmile_qr_scan", "android": "https://dc.lft.to/lastmile_qr_scan"}, "lon": -77.095197, "type": "electric_bike", "fusion_lat": 0.0, "lat": 38.83811683333333, "name": "68cde54091f0c425d3f12ab3aa5be769", "fusion_lon": 0.0, "bike_id": "68cde54091f0c425d3f12ab3aa5be769", "is_disabled": 0, "is_reserved": 0}, {"rental_uris": {"ios": "https://dc.lft.to/lastmile_qr_scan", "android": "https://dc.lft.to/lastmile_qr_scan"}, "lon": -76.9862075, "type": "electric_scooter", "fusion_lat": 0.0, "lat": 38.86815083333333, "name": "8376105ff2a81c7d28f1f8265258725f", "fusion_lon": 0.0, "bike_id": "8376105ff2a81c7d28f1f8265258725f", "is_disabled": 0, "is_reserved": 0}, {"rental_uris": {"ios": "https://dc.lft.to/lastmile_qr_scan", "android": "https://dc.lft.to/lastmile_qr_scan"}, "lon": -77.032556, "type": "electric_scooter", "fusion_lat": 0.0, "lat": 38.91818516666667, "name": "d0244f900818a68baea828c10c9ae3da", "fusion_lon": 0.0, "bike_id": "d0244f900818a68baea828c10c9ae3da", "is_disabled": 0, "is_reserved": 0}, {"rental_uris": {"ios": "https://dc.lft.to/lastmile_qr_scan", "android": "https://dc.lft.to/lastmile_qr_scan"}, "lon": -77.0559045, "type": "electric_scooter", "fusion_lat": 0.0, "lat": 38.927774, "name": "bdcb10456308802d69eeadea82955fb1", "fusion_lon": 0.0, "bike_id": "bdcb10456308802d69eeadea82955fb1", "is_disabled": 0, "is_reserved": 0}, {"rental_uris": {"ios": "https://dc.lft.to/lastmile_qr_scan", "android": "https://dc.lft.to/lastmile_qr_scan"}, "lon": -77.03197133333333, "type": "electric_scooter", "fusion_lat": 0.0, "lat": 38.9174105, "name": "ecafaa81795e06a7b03b5f17875aaba9", "fusion_lon": 0.0, "bike_id": "ecafaa81795e06a7b03b5f17875aaba9", "is_disabled": 0, "is_reserved": 0}, {"rental_uris": {"ios": "https://dc.lft.to/lastmile_qr_scan", "android": "https://dc.lft.to/lastmile_qr_scan"}, "lon": -77.012123, "type": "electric_scooter", "fusion_lat": 0.0, "lat": 38.91274333333333, "name": "6f94e8825f5c2c7b49c8c7161eceecf4", "fusion_lon": 0.0, "bike_id": "6f94e8825f5c2c7b49c8c7161eceecf4", "is_disabled": 0, "is_reserved": 0}, {"rental_uris": {"ios": "https://dc.lft.to/lastmile_qr_scan", "android": "https://dc.lft.to/lastmile_qr_scan"}, "lon": -77.02161716666667, "type": "electric_scooter", "fusion_lat": 0.0, "lat": 38.89605566666667, "name": "147466a0764b481117460658e9c6bc9b", "fusion_lon": 0.0, "bike_id": "147466a0764b481117460658e9c6bc9b", "is_disabled": 0, "is_reserved": 0}, {"rental_uris": {"ios": "https://dc.lft.to/lastmile_qr_scan", "android": "https://dc.lft.to/lastmile_qr_scan"}, "lon": -77.043674, "type": "electric_scooter", "fusion_lat": 0.0, "lat": 38.920871166666664, "name": "31cf444b24fc62357aa1e25721860b2b", "fusion_lon": 0.0, "bike_id": "31cf444b24fc62357aa1e25721860b2b", "is_disabled": 0, "is_reserved": 0}, {"rental_uris": {"ios": "https://dc.lft.to/lastmile_qr_scan", "android": "https://dc.lft.to/lastmile_qr_scan"}, "lon": -77.04493766666667, "type": "electric_scooter", "fusion_lat": 0.0, "lat": 38.91581633333333, "name": "495a6e0ab7d042905810817771795865", "fusion_lon": 0.0, "bike_id": "495a6e0ab7d042905810817771795865", "is_disabled": 0, "is_reserved": 0}, {"rental_uris": {"ios": "https://dc.lft.to/lastmile_qr_scan", "android": "https://dc.lft.to/lastmile_qr_scan"}, "lon": -77.04173066666667, "type": "electric_scooter", "fusion_lat": 0.0, "lat": 38.914745833333335, "name": "c2a6cccd152bc7e8188c41c996cc5a8f", "fusion_lon": 0.0, "bike_id": "c2a6cccd152bc7e8188c41c996cc5a8f", "is_disabled": 0, "is_reserved": 0}, {"rental_uris": {"ios": "https://dc.lft.to/lastmile_qr_scan", "android": "https://dc.lft.to/lastmile_qr_scan"}, "lon": -77.02848333333333, "type": "electric_scooter", "fusion_lat": 0.0, "lat": 38.893883833333334, "name": "674653189a3f2ee4cbb6fa379d81fe64", "fusion_lon": 0.0, "bike_id": "674653189a3f2ee4cbb6fa379d81fe64", "is_disabled": 0, "is_reserved": 0}, {"rental_uris": {"ios": "https://dc.lft.to/lastmile_qr_scan", "android": "https://dc.lft.to/lastmile_qr_scan"}, "lon": -77.033649, "type": "electric_scooter", "fusion_lat": 0.0, "lat": 38.90144083333333, "name": "c9109af42fbb428e974278f14d04227e", "fusion_lon": 0.0, "bike_id": "c9109af42fbb428e974278f14d04227e", "is_disabled": 0, "is_reserved": 0}, {"rental_uris": {"ios": "https://dc.lft.to/lastmile_qr_scan", "android": "https://dc.lft.to/lastmile_qr_scan"}, "lon": -77.02637533333333, "type": "electric_scooter", "fusion_lat": 0.0, "lat": 38.896241833333335, "name": "cfb55be9e541c12dfaeba5db2888012f", "fusion_lon": 0.0, "bike_id": "cfb55be9e541c12dfaeba5db2888012f", "is_disabled": 0, "is_reserved": 0}, {"rental_uris": {"ios": "https://dc.lft.to/lastmile_qr_scan", "android": "https://dc.lft.to/lastmile_qr_scan"}, "lon": -76.9581685, "type": "electric_scooter", "fusion_lat": 0.0, "lat": 38.89056133333333, "name": "0f2b1c70b85f5a3920ac5ff650087376", "fusion_lon": 0.0, "bike_id": "0f2b1c70b85f5a3920ac5ff650087376", "is_disabled": 0, "is_reserved": 0}, {"rental_uris": {"ios": "https://dc.lft.to/lastmile_qr_scan", "android": "https://dc.lft.to/lastmile_qr_scan"}, "lon": -77.044739, "type": "electric_scooter", "fusion_lat": 0.0, "lat": 38.904058166666665, "name": "5755c547a3321bd7080e116ef2cadbc0", "fusion_lon": 0.0, "bike_id": "5755c547a3321bd7080e116ef2cadbc0", "is_disabled": 0, "is_reserved": 0}, {"rental_uris": {"ios": "https://dc.lft.to/lastmile_qr_scan", "android": "https://dc.lft.to/lastmile_qr_scan"}, "lon": -77.03768216666667, "type": "electric_bike", "fusion_lat": 0.0, "lat": 38.916935, "name": "f205ccc712341b9ccf35e19a51f46bc8", "fusion_lon": 0.0, "bike_id": "f205ccc712341b9ccf35e19a51f46bc8", "is_disabled": 0, "is_reserved": 0}, {"rental_uris": {"ios": "https://dc.lft.to/lastmile_qr_scan", "android": "https://dc.lft.to/lastmile_qr_scan"}, "lon": -77.00645616666667, "type": "electric_scooter", "fusion_lat": 0.0, "lat": 38.917025, "name": "b52d22970e3a27b8e83838130f5519b8", "fusion_lon": 0.0, "bike_id": "b52d22970e3a27b8e83838130f5519b8", "is_disabled": 0, "is_reserved": 0}, {"rental_uris": {"ios": "https://dc.lft.to/lastmile_qr_scan", "android": "https://dc.lft.to/lastmile_qr_scan"}, "lon": -77.03949833333333, "type": "electric_scooter", "fusion_lat": 0.0, "lat": 38.90459966666667, "name": "c7f959e0712392048d22e2e703952c03", "fusion_lon": 0.0, "bike_id": "c7f959e0712392048d22e2e703952c03", "is_disabled": 0, "is_reserved": 0}, {"rental_uris": {"ios": "https://dc.lft.to/lastmile_qr_scan", "android": "https://dc.lft.to/lastmile_qr_scan"}, "lon": -77.02710466666667, "type": "electric_scooter", "fusion_lat": 0.0, "lat": 38.917205, "name": "265b8820b7259929b539c687970449e6", "fusion_lon": 0.0, "bike_id": "265b8820b7259929b539c687970449e6", "is_disabled": 0, "is_reserved": 0}, {"rental_uris": {"ios": "https://dc.lft.to/lastmile_qr_scan", "android": "https://dc.lft.to/lastmile_qr_scan"}, "lon": -77.06400516666666, "type": "electric_bike", "fusion_lat": 0.0, "lat": 38.8434345, "name": "c470fbfbeb08771f776655d31d752bd4", "fusion_lon": 0.0, "bike_id": "c470fbfbeb08771f776655d31d752bd4", "is_disabled": 0, "is_reserved": 0}, {"rental_uris": {"ios": "https://dc.lft.to/lastmile_qr_scan", "android": "https://dc.lft.to/lastmile_qr_scan"}, "lon": -77.03096416666666, "type": "electric_scooter", "fusion_lat": 0.0, "lat": 38.9170615, "name": "b55fafd88415ab87d0e20f9e129c6fb3", "fusion_lon": 0.0, "bike_id": "b55fafd88415ab87d0e20f9e129c6fb3", "is_disabled": 0, "is_reserved": 0}, {"rental_uris": {"ios": "https://dc.lft.to/lastmile_qr_scan", "android": "https://dc.lft.to/lastmile_qr_scan"}, "lon": -76.997779, "type": "electric_scooter", "fusion_lat": 0.0, "lat": 38.844248, "name": "93c8a95a6b85d646891648ca60f39752", "fusion_lon": 0.0, "bike_id": "93c8a95a6b85d646891648ca60f39752", "is_disabled": 0, "is_reserved": 0}, {"rental_uris": {"ios": "https://dc.lft.to/lastmile_qr_scan", "android": "https://dc.lft.to/lastmile_qr_scan"}, "lon": -77.03301833333333, "type": "electric_scooter", "fusion_lat": 0.0, "lat": 38.9010725, "name": "f1b55f580438ec4909053bab2111d2f1", "fusion_lon": 0.0, "bike_id": "f1b55f580438ec4909053bab2111d2f1", "is_disabled": 0, "is_reserved": 0}, {"rental_uris": {"ios": "https://dc.lft.to/lastmile_qr_scan", "android": "https://dc.lft.to/lastmile_qr_scan"}, "lon": -76.99510066666667, "type": "electric_scooter", "fusion_lat": 0.0, "lat": 38.885969, "name": "666781e1bdf1bb847322b182aa5bda02", "fusion_lon": 0.0, "bike_id": "666781e1bdf1bb847322b182aa5bda02", "is_disabled": 0, "is_reserved": 0}, {"rental_uris": {"ios": "https://dc.lft.to/lastmile_qr_scan", "android": "https://dc.lft.to/lastmile_qr_scan"}, "lon": -77.0073775, "type": "electric_scooter", "fusion_lat": 0.0, "lat": 38.87929183333333, "name": "b6783b0f3662dd721ea0cbeedaf5b7c4", "fusion_lon": 0.0, "bike_id": "b6783b0f3662dd721ea0cbeedaf5b7c4", "is_disabled": 0, "is_reserved": 0}, {"rental_uris": {"ios": "https://dc.lft.to/lastmile_qr_scan", "android": "https://dc.lft.to/lastmile_qr_scan"}, "lon": -76.968485, "type": "electric_scooter", "fusion_lat": 0.0, "lat": 38.874657666666664, "name": "19de6ed4e3e2bd5311787af21a512a99", "fusion_lon": 0.0, "bike_id": "19de6ed4e3e2bd5311787af21a512a99", "is_disabled": 0, "is_reserved": 0}, {"rental_uris": {"ios": "https://dc.lft.to/lastmile_qr_scan", "android": "https://dc.lft.to/lastmile_qr_scan"}, "lon": -76.99693883333333, "type": "electric_scooter", "fusion_lat": 0.0, "lat": 38.900687833333336, "name": "fd533fb9afac3c70a0d12671ab107129", "fusion_lon": 0.0, "bike_id": "fd533fb9afac3c70a0d12671ab107129", "is_disabled": 0, "is_reserved": 0}, {"rental_uris": {"ios": "https://dc.lft.to/lastmile_qr_scan", "android": "https://dc.lft.to/lastmile_qr_scan"}, "lon": -77.02959616666666, "type": "electric_scooter", "fusion_lat": 0.0, "lat": 38.922713, "name": "7f919f504239f3139e3769e287591ca7", "fusion_lon": 0.0, "bike_id": "7f919f504239f3139e3769e287591ca7", "is_disabled": 0, "is_reserved": 0}, {"rental_uris": {"ios": "https://dc.lft.to/lastmile_qr_scan", "android": "https://dc.lft.to/lastmile_qr_scan"}, "lon": -77.026032, "type": "electric_bike", "fusion_lat": 0.0, "lat": 38.962588, "name": "98a7838b9c1ca944f028be3988167905", "fusion_lon": 0.0, "bike_id": "98a7838b9c1ca944f028be3988167905", "is_disabled": 0, "is_reserved": 0}, {"rental_uris": {"ios": "https://dc.lft.to/lastmile_qr_scan", "android": "https://dc.lft.to/lastmile_qr_scan"}, "lon": -77.03416616666667, "type": "electric_scooter", "fusion_lat": 0.0, "lat": 38.91923083333333, "name": "20c57e95b7df4b57e6d038b501509902", "fusion_lon": 0.0, "bike_id": "20c57e95b7df4b57e6d038b501509902", "is_disabled": 0, "is_reserved": 0}, {"rental_uris": {"ios": "https://dc.lft.to/lastmile_qr_scan", "android": "https://dc.lft.to/lastmile_qr_scan"}, "lon": -76.99548083333333, "type": "electric_scooter", "fusion_lat": 0.0, "lat": 38.901269, "name": "ddaf3a3ba422d8c4d7c0ed1d71a69a93", "fusion_lon": 0.0, "bike_id": "ddaf3a3ba422d8c4d7c0ed1d71a69a93", "is_disabled": 0, "is_reserved": 0}, {"rental_uris": {"ios": "https://dc.lft.to/lastmile_qr_scan", "android": "https://dc.lft.to/lastmile_qr_scan"}, "lon": -76.94213366666666, "type": "electric_scooter", "fusion_lat": 0.0, "lat": 38.8967575, "name": "a6e8410e222fcbe1f75e26b0f0e4f8d2", "fusion_lon": 0.0, "bike_id": "a6e8410e222fcbe1f75e26b0f0e4f8d2", "is_disabled": 0, "is_reserved": 0}, {"rental_uris": {"ios": "https://dc.lft.to/lastmile_qr_scan", "android": "https://dc.lft.to/lastmile_qr_scan"}, "lon": -77.033024, "type": "electric_scooter", "fusion_lat": 0.0, "lat": 38.9288545, "name": "8ef55a33d3f6a99790f868dc94b98d16", "fusion_lon": 0.0, "bike_id": "8ef55a33d3f6a99790f868dc94b98d16", "is_disabled": 0, "is_reserved": 0}, {"rental_uris": {"ios": "https://dc.lft.to/lastmile_qr_scan", "android": "https://dc.lft.to/lastmile_qr_scan"}, "lon": -76.94996566666667, "type": "electric_scooter", "fusion_lat": 0.0, "lat": 38.893707, "name": "67055646b96a8de4893aaa5efe4c8dac", "fusion_lon": 0.0, "bike_id": "67055646b96a8de4893aaa5efe4c8dac", "is_disabled": 0, "is_reserved": 0}, {"rental_uris": {"ios": "https://dc.lft.to/lastmile_qr_scan", "android": "https://dc.lft.to/lastmile_qr_scan"}, "lon": -76.93226633333333, "type": "electric_bike", "fusion_lat": 0.0, "lat": 38.865934, "name": "5108570f31a0e2fed9121ebf36013601", "fusion_lon": 0.0, "bike_id": "5108570f31a0e2fed9121ebf36013601", "is_disabled": 0, "is_reserved": 0}, {"rental_uris": {"ios": "https://dc.lft.to/lastmile_qr_scan", "android": "https://dc.lft.to/lastmile_qr_scan"}, "lon": -76.97294433333333, "type": "electric_scooter", "fusion_lat": 0.0, "lat": 38.903335, "name": "84f9d0512c015efdc1ce62a7a3c1f3c6", "fusion_lon": 0.0, "bike_id": "84f9d0512c015efdc1ce62a7a3c1f3c6", "is_disabled": 0, "is_reserved": 0}, {"rental_uris": {"ios": "https://dc.lft.to/lastmile_qr_scan", "android": "https://dc.lft.to/lastmile_qr_scan"}, "lon": -77.05001316666667, "type": "electric_scooter", "fusion_lat": 0.0, "lat": 38.89228266666667, "name": "fd4e861f147036ef26fbe141752a58c6", "fusion_lon": 0.0, "bike_id": "fd4e861f147036ef26fbe141752a58c6", "is_disabled": 0, "is_reserved": 0}, {"rental_uris": {"ios": "https://dc.lft.to/lastmile_qr_scan", "android": "https://dc.lft.to/lastmile_qr_scan"}, "lon": -77.05475866666667, "type": "electric_scooter", "fusion_lat": 0.0, "lat": 38.893885166666664, "name": "1b1dd9f64bce1defb09ec12ef19c4928", "fusion_lon": 0.0, "bike_id": "1b1dd9f64bce1defb09ec12ef19c4928", "is_disabled": 0, "is_reserved": 0}, {"rental_uris": {"ios": "https://dc.lft.to/lastmile_qr_scan", "android": "https://dc.lft.to/lastmile_qr_scan"}, "lon": -77.12961666666666, "type": "electric_bike", "fusion_lat": 0.0, "lat": 38.8521745, "name": "04fd872999c2d182afcb2ddbc17cf9f3", "fusion_lon": 0.0, "bike_id": "04fd872999c2d182afcb2ddbc17cf9f3", "is_disabled": 0, "is_reserved": 0}, {"rental_uris": {"ios": "https://dc.lft.to/lastmile_qr_scan", "android": "https://dc.lft.to/lastmile_qr_scan"}, "lon": -77.09202533333334, "type": "electric_scooter", "fusion_lat": 0.0, "lat": 38.941326, "name": "255872c123f8244bcc2d595cc53448ac", "fusion_lon": 0.0, "bike_id": "255872c123f8244bcc2d595cc53448ac", "is_disabled": 0, "is_reserved": 0}, {"rental_uris": {"ios": "https://dc.lft.to/lastmile_qr_scan", "android": "https://dc.lft.to/lastmile_qr_scan"}, "lon": -77.00754016666667, "type": "electric_scooter", "fusion_lat": 0.0, "lat": 38.8765795, "name": "64e78f7c02b86235335628b5d50ff740", "fusion_lon": 0.0, "bike_id": "64e78f7c02b86235335628b5d50ff740", "is_disabled": 0, "is_reserved": 0}, {"rental_uris": {"ios": "https://dc.lft.to/lastmile_qr_scan", "android": "https://dc.lft.to/lastmile_qr_scan"}, "lon": -77.04174733333333, "type": "electric_scooter", "fusion_lat": 0.0, "lat": 38.91932833333333, "name": "1c546d8b0a1eaff5161fd3b7f90fbf8a", "fusion_lon": 0.0, "bike_id": "1c546d8b0a1eaff5161fd3b7f90fbf8a", "is_disabled": 0, "is_reserved": 0}, {"rental_uris": {"ios": "https://dc.lft.to/lastmile_qr_scan", "android": "https://dc.lft.to/lastmile_qr_scan"}, "lon": -77.03570566666667, "type": "electric_scooter", "fusion_lat": 0.0, "lat": 38.9181505, "name": "ada2c1b753c3ab078f53eb5532cf64e9", "fusion_lon": 0.0, "bike_id": "ada2c1b753c3ab078f53eb5532cf64e9", "is_disabled": 0, "is_reserved": 0}, {"rental_uris": {"ios": "https://dc.lft.to/lastmile_qr_scan", "android": "https://dc.lft.to/lastmile_qr_scan"}, "lon": -77.0424055, "type": "electric_scooter", "fusion_lat": 0.0, "lat": 38.922182, "name": "5869ab04dc1ba53501b3985d3c6b6974", "fusion_lon": 0.0, "bike_id": "5869ab04dc1ba53501b3985d3c6b6974", "is_disabled": 0, "is_reserved": 0}, {"rental_uris": {"ios": "https://dc.lft.to/lastmile_qr_scan", "android": "https://dc.lft.to/lastmile_qr_scan"}, "lon": -77.03336066666667, "type": "electric_scooter", "fusion_lat": 0.0, "lat": 38.892295, "name": "e53bd2660e3844c4d7eb1cd78834113a", "fusion_lon": 0.0, "bike_id": "e53bd2660e3844c4d7eb1cd78834113a", "is_disabled": 0, "is_reserved": 0}, {"rental_uris": {"ios": "https://dc.lft.to/lastmile_qr_scan", "android": "https://dc.lft.to/lastmile_qr_scan"}, "lon": -77.05884583333334, "type": "electric_scooter", "fusion_lat": 0.0, "lat": 38.936335666666665, "name": "f3c7a9ebcb48acb5cb09a64567e91b77", "fusion_lon": 0.0, "bike_id": "f3c7a9ebcb48acb5cb09a64567e91b77", "is_disabled": 0, "is_reserved": 0}, {"rental_uris": {"ios": "https://dc.lft.to/lastmile_qr_scan", "android": "https://dc.lft.to/lastmile_qr_scan"}, "lon": -77.06950483333334, "type": "electric_bike", "fusion_lat": 0.0, "lat": 38.99040683333333, "name": "2c107688c70e6094fc59017f0d6413ea", "fusion_lon": 0.0, "bike_id": "2c107688c70e6094fc59017f0d6413ea", "is_disabled": 0, "is_reserved": 0}, {"rental_uris": {"ios": "https://dc.lft.to/lastmile_qr_scan", "android": "https://dc.lft.to/lastmile_qr_scan"}, "lon": -77.02700683333333, "type": "electric_scooter", "fusion_lat": 0.0, "lat": 38.9066645, "name": "2b3bb68471af0fdf5b75b633c04c86be", "fusion_lon": 0.0, "bike_id": "2b3bb68471af0fdf5b75b633c04c86be", "is_disabled": 0, "is_reserved": 0}, {"rental_uris": {"ios": "https://dc.lft.to/lastmile_qr_scan", "android": "https://dc.lft.to/lastmile_qr_scan"}, "lon": -77.02156266666667, "type": "electric_scooter", "fusion_lat": 0.0, "lat": 38.92600816666667, "name": "d4cb0e81f647848a2a6d64bc98b79062", "fusion_lon": 0.0, "bike_id": "d4cb0e81f647848a2a6d64bc98b79062", "is_disabled": 0, "is_reserved": 0}, {"rental_uris": {"ios": "https://dc.lft.to/lastmile_qr_scan", "android": "https://dc.lft.to/lastmile_qr_scan"}, "lon": -77.00199116666667, "type": "electric_scooter", "fusion_lat": 0.0, "lat": 38.900708333333334, "name": "84d80faf6d6e384718b536c97b70db79", "fusion_lon": 0.0, "bike_id": "84d80faf6d6e384718b536c97b70db79", "is_disabled": 0, "is_reserved": 0}, {"rental_uris": {"ios": "https://dc.lft.to/lastmile_qr_scan", "android": "https://dc.lft.to/lastmile_qr_scan"}, "lon": -77.36102083333333, "type": "electric_bike", "fusion_lat": 0.0, "lat": 38.939503333333334, "name": "cfc7bd88feaadaf7e89ae8caadc7d3ae", "fusion_lon": 0.0, "bike_id": "cfc7bd88feaadaf7e89ae8caadc7d3ae", "is_disabled": 0, "is_reserved": 0}, {"rental_uris": {"ios": "https://dc.lft.to/lastmile_qr_scan", "android": "https://dc.lft.to/lastmile_qr_scan"}, "lon": -77.03296483333334, "type": "electric_scooter", "fusion_lat": 0.0, "lat": 38.922156333333334, "name": "6ed04933d1a8ff913d50c0a90f731c40", "fusion_lon": 0.0, "bike_id": "6ed04933d1a8ff913d50c0a90f731c40", "is_disabled": 0, "is_reserved": 0}, {"rental_uris": {"ios": "https://dc.lft.to/lastmile_qr_scan", "android": "https://dc.lft.to/lastmile_qr_scan"}, "lon": -77.02098116666667, "type": "electric_scooter", "fusion_lat": 0.0, "lat": 38.91002116666667, "name": "410aa28bfa510faa346e62d686c70f12", "fusion_lon": 0.0, "bike_id": "410aa28bfa510faa346e62d686c70f12", "is_disabled": 0, "is_reserved": 0}, {"rental_uris": {"ios": "https://dc.lft.to/lastmile_qr_scan", "android": "https://dc.lft.to/lastmile_qr_scan"}, "lon": -77.05000383333334, "type": "electric_scooter", "fusion_lat": 0.0, "lat": 38.89227866666667, "name": "796b254a6e14906f5be1bf60f7655e65", "fusion_lon": 0.0, "bike_id": "796b254a6e14906f5be1bf60f7655e65", "is_disabled": 0, "is_reserved": 0}, {"rental_uris": {"ios": "https://dc.lft.to/lastmile_qr_scan", "android": "https://dc.lft.to/lastmile_qr_scan"}, "lon": -77.02798766666666, "type": "electric_scooter", "fusion_lat": 0.0, "lat": 38.89357866666667, "name": "399d965659a29ce3685eb3833ab87c0d", "fusion_lon": 0.0, "bike_id": "399d965659a29ce3685eb3833ab87c0d", "is_disabled": 0, "is_reserved": 0}, {"rental_uris": {"ios": "https://dc.lft.to/lastmile_qr_scan", "android": "https://dc.lft.to/lastmile_qr_scan"}, "lon": -77.0318365, "type": "electric_scooter", "fusion_lat": 0.0, "lat": 38.88703616666667, "name": "d06309b5309b0b94b7b5ff03537a6293", "fusion_lon": 0.0, "bike_id": "d06309b5309b0b94b7b5ff03537a6293", "is_disabled": 0, "is_reserved": 0}, {"rental_uris": {"ios": "https://dc.lft.to/lastmile_qr_scan", "android": "https://dc.lft.to/lastmile_qr_scan"}, "lon": -77.04082733333334, "type": "electric_scooter", "fusion_lat": 0.0, "lat": 38.9072375, "name": "fceb618c22089db994db76dde1f472e6", "fusion_lon": 0.0, "bike_id": "fceb618c22089db994db76dde1f472e6", "is_disabled": 0, "is_reserved": 0}, {"rental_uris": {"ios": "https://dc.lft.to/lastmile_qr_scan", "android": "https://dc.lft.to/lastmile_qr_scan"}, "lon": -77.01089416666667, "type": "electric_scooter", "fusion_lat": 0.0, "lat": 38.91817916666667, "name": "1317ab8dc4bb89889e7711d101ea366c", "fusion_lon": 0.0, "bike_id": "1317ab8dc4bb89889e7711d101ea366c", "is_disabled": 0, "is_reserved": 0}, {"rental_uris": {"ios": "https://dc.lft.to/lastmile_qr_scan", "android": "https://dc.lft.to/lastmile_qr_scan"}, "lon": -76.9798345, "type": "electric_bike", "fusion_lat": 0.0, "lat": 38.8775045, "name": "156d77e2610c593887a8d8067f928aa2", "fusion_lon": 0.0, "bike_id": "156d77e2610c593887a8d8067f928aa2", "is_disabled": 0, "is_reserved": 0}, {"rental_uris": {"ios": "https://dc.lft.to/lastmile_qr_scan", "android": "https://dc.lft.to/lastmile_qr_scan"}, "lon": -76.93574933333333, "type": "electric_bike", "fusion_lat": 0.0, "lat": 38.88531116666667, "name": "2c4465dbc6c1cb261c7d5a43cb938816", "fusion_lon": 0.0, "bike_id": "2c4465dbc6c1cb261c7d5a43cb938816", "is_disabled": 0, "is_reserved": 0}, {"rental_uris": {"ios": "https://dc.lft.to/lastmile_qr_scan", "android": "https://dc.lft.to/lastmile_qr_scan"}, "lon": -77.00496166666667, "type": "electric_scooter", "fusion_lat": 0.0, "lat": 38.878875666666666, "name": "5c2eb194d9e1ba1990d8449de0f44cd1", "fusion_lon": 0.0, "bike_id": "5c2eb194d9e1ba1990d8449de0f44cd1", "is_disabled": 0, "is_reserved": 0}, {"rental_uris": {"ios": "https://dc.lft.to/lastmile_qr_scan", "android": "https://dc.lft.to/lastmile_qr_scan"}, "lon": -76.99503483333334, "type": "electric_scooter", "fusion_lat": 0.0, "lat": 38.886273, "name": "60a89c25ba6e1931a5d5598c881027d1", "fusion_lon": 0.0, "bike_id": "60a89c25ba6e1931a5d5598c881027d1", "is_disabled": 0, "is_reserved": 0}, {"rental_uris": {"ios": "https://dc.lft.to/lastmile_qr_scan", "android": "https://dc.lft.to/lastmile_qr_scan"}, "lon": -76.95886833333333, "type": "electric_scooter", "fusion_lat": 0.0, "lat": 38.85845316666666, "name": "91d5d4891efba0dc8e06d1105cc19258", "fusion_lon": 0.0, "bike_id": "91d5d4891efba0dc8e06d1105cc19258", "is_disabled": 0, "is_reserved": 0}, {"rental_uris": {"ios": "https://dc.lft.to/lastmile_qr_scan", "android": "https://dc.lft.to/lastmile_qr_scan"}, "lon": -77.04179216666667, "type": "electric_scooter", "fusion_lat": 0.0, "lat": 38.91899866666667, "name": "6cb09bc1db68e88e0152cbeceb44417a", "fusion_lon": 0.0, "bike_id": "6cb09bc1db68e88e0152cbeceb44417a", "is_disabled": 0, "is_reserved": 0}, {"rental_uris": {"ios": "https://dc.lft.to/lastmile_qr_scan", "android": "https://dc.lft.to/lastmile_qr_scan"}, "lon": -76.998388, "type": "electric_bike", "fusion_lat": 0.0, "lat": 38.83912, "name": "caa2ee7d9560ab8c47eedd90fa8ee419", "fusion_lon": 0.0, "bike_id": "caa2ee7d9560ab8c47eedd90fa8ee419", "is_disabled": 0, "is_reserved": 0}, {"rental_uris": {"ios": "https://dc.lft.to/lastmile_qr_scan", "android": "https://dc.lft.to/lastmile_qr_scan"}, "lon": -76.95755666666666, "type": "electric_scooter", "fusion_lat": 0.0, "lat": 38.886893666666666, "name": "1b90e53d96d80a60c9c862d05754b2af", "fusion_lon": 0.0, "bike_id": "1b90e53d96d80a60c9c862d05754b2af", "is_disabled": 0, "is_reserved": 0}, {"rental_uris": {"ios": "https://dc.lft.to/lastmile_qr_scan", "android": "https://dc.lft.to/lastmile_qr_scan"}, "lon": -76.98019983333333, "type": "electric_scooter", "fusion_lat": 0.0, "lat": 38.903799166666666, "name": "0666f672c0155c36fc25a94237470a84", "fusion_lon": 0.0, "bike_id": "0666f672c0155c36fc25a94237470a84", "is_disabled": 0, "is_reserved": 0}, {"rental_uris": {"ios": "https://dc.lft.to/lastmile_qr_scan", "android": "https://dc.lft.to/lastmile_qr_scan"}, "lon": -77.04333716666666, "type": "electric_scooter", "fusion_lat": 0.0, "lat": 38.927881666666664, "name": "3825b7c6a5508251289f82a172752ba2", "fusion_lon": 0.0, "bike_id": "3825b7c6a5508251289f82a172752ba2", "is_disabled": 0, "is_reserved": 0}, {"rental_uris": {"ios": "https://dc.lft.to/lastmile_qr_scan", "android": "https://dc.lft.to/lastmile_qr_scan"}, "lon": -77.02497766666667, "type": "electric_scooter", "fusion_lat": 0.0, "lat": 38.89726066666667, "name": "8edb81d08349eb7b0b21d93378e15853", "fusion_lon": 0.0, "bike_id": "8edb81d08349eb7b0b21d93378e15853", "is_disabled": 0, "is_reserved": 0}, {"rental_uris": {"ios": "https://dc.lft.to/lastmile_qr_scan", "android": "https://dc.lft.to/lastmile_qr_scan"}, "lon": -77.06536166666666, "type": "electric_scooter", "fusion_lat": 0.0, "lat": 38.90475033333333, "name": "9ff7fa1471c930f9db3f4ae28ce74162", "fusion_lon": 0.0, "bike_id": "9ff7fa1471c930f9db3f4ae28ce74162", "is_disabled": 0, "is_reserved": 0}, {"rental_uris": {"ios": "https://dc.lft.to/lastmile_qr_scan", "android": "https://dc.lft.to/lastmile_qr_scan"}, "lon": -77.01373016666666, "type": "electric_scooter", "fusion_lat": 0.0, "lat": 38.892221166666666, "name": "716e0477c6a974efff811ef143fd87c6", "fusion_lon": 0.0, "bike_id": "716e0477c6a974efff811ef143fd87c6", "is_disabled": 0, "is_reserved": 0}, {"rental_uris": {"ios": "https://dc.lft.to/lastmile_qr_scan", "android": "https://dc.lft.to/lastmile_qr_scan"}, "lon": -77.032037, "type": "electric_scooter", "fusion_lat": 0.0, "lat": 38.909497, "name": "a6710365d66b9c44eee010509f5866de", "fusion_lon": 0.0, "bike_id": "a6710365d66b9c44eee010509f5866de", "is_disabled": 0, "is_reserved": 0}, {"rental_uris": {"ios": "https://dc.lft.to/lastmile_qr_scan", "android": "https://dc.lft.to/lastmile_qr_scan"}, "lon": -77.035566, "type": "electric_bike", "fusion_lat": 0.0, "lat": 38.96473816666666, "name": "3b41c6b31e469e746c653955f4fc78d3", "fusion_lon": 0.0, "bike_id": "3b41c6b31e469e746c653955f4fc78d3", "is_disabled": 0, "is_reserved": 0}, {"rental_uris": {"ios": "https://dc.lft.to/lastmile_qr_scan", "android": "https://dc.lft.to/lastmile_qr_scan"}, "lon": -76.99971066666667, "type": "electric_scooter", "fusion_lat": 0.0, "lat": 38.90925433333334, "name": "78fb1d911a4d5beb8c3c83a7431dceb4", "fusion_lon": 0.0, "bike_id": "78fb1d911a4d5beb8c3c83a7431dceb4", "is_disabled": 0, "is_reserved": 0}, {"rental_uris": {"ios": "https://dc.lft.to/lastmile_qr_scan", "android": "https://dc.lft.to/lastmile_qr_scan"}, "lon": -77.00603133333334, "type": "electric_scooter", "fusion_lat": 0.0, "lat": 38.87709183333333, "name": "612527558b39d7268b2e2d7822d6c1de", "fusion_lon": 0.0, "bike_id": "612527558b39d7268b2e2d7822d6c1de", "is_disabled": 0, "is_reserved": 0}, {"rental_uris": {"ios": "https://dc.lft.to/lastmile_qr_scan", "android": "https://dc.lft.to/lastmile_qr_scan"}, "lon": -76.98510883333333, "type": "electric_scooter", "fusion_lat": 0.0, "lat": 38.90606783333333, "name": "307f683258a60bffda872acaa78c681f", "fusion_lon": 0.0, "bike_id": "307f683258a60bffda872acaa78c681f", "is_disabled": 0, "is_reserved": 0}, {"rental_uris": {"ios": "https://dc.lft.to/lastmile_qr_scan", "android": "https://dc.lft.to/lastmile_qr_scan"}, "lon": -77.0417215, "type": "electric_scooter", "fusion_lat": 0.0, "lat": 38.91936, "name": "24eda522dc4bd54bdbf5b3e7a6776827", "fusion_lon": 0.0, "bike_id": "24eda522dc4bd54bdbf5b3e7a6776827", "is_disabled": 0, "is_reserved": 0}, {"rental_uris": {"ios": "https://dc.lft.to/lastmile_qr_scan", "android": "https://dc.lft.to/lastmile_qr_scan"}, "lon": -77.02605933333334, "type": "electric_scooter", "fusion_lat": 0.0, "lat": 38.9003555, "name": "316db17535da1ec0494eaa87c3971612", "fusion_lon": 0.0, "bike_id": "316db17535da1ec0494eaa87c3971612", "is_disabled": 0, "is_reserved": 0}, {"rental_uris": {"ios": "https://dc.lft.to/lastmile_qr_scan", "android": "https://dc.lft.to/lastmile_qr_scan"}, "lon": -76.9981765, "type": "electric_scooter", "fusion_lat": 0.0, "lat": 38.88873533333334, "name": "dadcde3a59f80e40e7cee9d13905b852", "fusion_lon": 0.0, "bike_id": "dadcde3a59f80e40e7cee9d13905b852", "is_disabled": 0, "is_reserved": 0}, {"rental_uris": {"ios": "https://dc.lft.to/lastmile_qr_scan", "android": "https://dc.lft.to/lastmile_qr_scan"}, "lon": -77.03922133333333, "type": "electric_scooter", "fusion_lat": 0.0, "lat": 38.923115833333334, "name": "7ac4f2e08e58862bff6303ca00da9c85", "fusion_lon": 0.0, "bike_id": "7ac4f2e08e58862bff6303ca00da9c85", "is_disabled": 0, "is_reserved": 0}, {"rental_uris": {"ios": "https://dc.lft.to/lastmile_qr_scan", "android": "https://dc.lft.to/lastmile_qr_scan"}, "lon": -77.024042, "type": "electric_scooter", "fusion_lat": 0.0, "lat": 38.899225, "name": "918911addea432579ad026d78084fb02", "fusion_lon": 0.0, "bike_id": "918911addea432579ad026d78084fb02", "is_disabled": 0, "is_reserved": 0}, {"rental_uris": {"ios": "https://dc.lft.to/lastmile_qr_scan", "android": "https://dc.lft.to/lastmile_qr_scan"}, "lon": -77.0661375, "type": "electric_scooter", "fusion_lat": 0.0, "lat": 38.9118275, "name": "058e134ac48dfa2a3e88e8f177c030d2", "fusion_lon": 0.0, "bike_id": "058e134ac48dfa2a3e88e8f177c030d2", "is_disabled": 0, "is_reserved": 0}, {"rental_uris": {"ios": "https://dc.lft.to/lastmile_qr_scan", "android": "https://dc.lft.to/lastmile_qr_scan"}, "lon": -77.0437435, "type": "electric_scooter", "fusion_lat": 0.0, "lat": 38.91788733333333, "name": "422b01de5bb797b140e3929e4839504c", "fusion_lon": 0.0, "bike_id": "422b01de5bb797b140e3929e4839504c", "is_disabled": 0, "is_reserved": 0}, {"rental_uris": {"ios": "https://dc.lft.to/lastmile_qr_scan", "android": "https://dc.lft.to/lastmile_qr_scan"}, "lon": -77.06270016666667, "type": "electric_scooter", "fusion_lat": 0.0, "lat": 38.90354083333333, "name": "e766bb7e1938d1607fbd2879614bf00b", "fusion_lon": 0.0, "bike_id": "e766bb7e1938d1607fbd2879614bf00b", "is_disabled": 0, "is_reserved": 0}, {"rental_uris": {"ios": "https://dc.lft.to/lastmile_qr_scan", "android": "https://dc.lft.to/lastmile_qr_scan"}, "lon": -77.01626433333334, "type": "electric_bike", "fusion_lat": 0.0, "lat": 38.903369166666664, "name": "e6675b34183619c386cb38978266d0a6", "fusion_lon": 0.0, "bike_id": "e6675b34183619c386cb38978266d0a6", "is_disabled": 0, "is_reserved": 0}, {"rental_uris": {"ios": "https://dc.lft.to/lastmile_qr_scan", "android": "https://dc.lft.to/lastmile_qr_scan"}, "lon": -77.0179055, "type": "electric_scooter", "fusion_lat": 0.0, "lat": 38.89235166666667, "name": "d9db3a79dc6ed8335ed9c367f98ee310", "fusion_lon": 0.0, "bike_id": "d9db3a79dc6ed8335ed9c367f98ee310", "is_disabled": 0, "is_reserved": 0}, {"rental_uris": {"ios": "https://dc.lft.to/lastmile_qr_scan", "android": "https://dc.lft.to/lastmile_qr_scan"}, "lon": -77.002501, "type": "electric_scooter", "fusion_lat": 0.0, "lat": 38.9118815, "name": "29369b4fbe202cfece20c3938de64047", "fusion_lon": 0.0, "bike_id": "29369b4fbe202cfece20c3938de64047", "is_disabled": 0, "is_reserved": 0}, {"rental_uris": {"ios": "https://dc.lft.to/lastmile_qr_scan", "android": "https://dc.lft.to/lastmile_qr_scan"}, "lon": -76.937171, "type": "electric_scooter", "fusion_lat": 0.0, "lat": 38.89586283333333, "name": "c6841eedc81f0bd18dff3bed11880012", "fusion_lon": 0.0, "bike_id": "c6841eedc81f0bd18dff3bed11880012", "is_disabled": 0, "is_reserved": 0}, {"rental_uris": {"ios": "https://dc.lft.to/lastmile_qr_scan", "android": "https://dc.lft.to/lastmile_qr_scan"}, "lon": -76.974953, "type": "electric_bike", "fusion_lat": 0.0, "lat": 38.920039, "name": "03dd3d99636506238b705920083525ba", "fusion_lon": 0.0, "bike_id": "03dd3d99636506238b705920083525ba", "is_disabled": 0, "is_reserved": 0}, {"rental_uris": {"ios": "https://dc.lft.to/lastmile_qr_scan", "android": "https://dc.lft.to/lastmile_qr_scan"},