{"data": {"bikes": [{"lat": 38.896116, "fusion_lat": 0.0, "type": "electric_bike", "name": "0965fc2fda33b555116bcfd694c4cf06", "is_disabled": 0, "bike_id": "0965fc2fda33b555116bcfd694c4cf06", "lon": -76.9073715, "rental_uris": {"android": "https://dc.lft.to/lastmile_qr_scan", "ios": "https://dc.lft.to/lastmile_qr_scan"}, "fusion_lon": 0.0, "is_reserved": 0}, {"lat": 38.892238166666665, "fusion_lat": 0.0, "type": "electric_scooter", "name": "4e078f9f5c87ef619897b70fbb9d85e3", "is_disabled": 0, "bike_id": "4e078f9f5c87ef619897b70fbb9d85e3", "lon": -77.04641666666667, "rental_uris": {"android": "https://dc.lft.to/lastmile_qr_scan", "ios": "https://dc.lft.to/lastmile_qr_scan"}, "fusion_lon": 0.0, "is_reserved": 0}, {"lat": 38.900301666666664, "fusion_lat": 0.0, "type": "electric_scooter", "name": "d0742df94f33ab46f9d634d8df3e7377", "is_disabled": 0, "bike_id": "d0742df94f33ab46f9d634d8df3e7377", "lon": -77.03174433333334, "rental_uris": {"android": "https://dc.lft.to/lastmile_qr_scan", "ios": "https://dc.lft.to/lastmile_qr_scan"}, "fusion_lon": 0.0, "is_reserved": 0}, {"lat": 38.950526333333336, "fusion_lat": 0.0, "type": "electric_bike", "name": "d980ffcf7567edc2068af2b02509aae1", "is_disabled": 0, "bike_id": "d980ffcf7567edc2068af2b02509aae1", "lon": -77.01387616666666, "rental_uris": {"android": "https://dc.lft.to/lastmile_qr_scan", "ios": "https://dc.lft.to/lastmile_qr_scan"}, "fusion_lon": 0.0, "is_reserved": 0}, {"lat": 38.874911166666664, "fusion_lat": 0.0, "type": "electric_bike", "name": "9316adfcc7dfcbed5e68a2e6419aed56", "is_disabled": 0, "bike_id": "9316adfcc7dfcbed5e68a2e6419aed56", "lon": -77.2112745, "rental_uris": {"android": "https://dc.lft.to/lastmile_qr_scan", "ios": "https://dc.lft.to/lastmile_qr_scan"}, "fusion_lon": 0.0, "is_reserved": 0}, {"lat": 38.91410116666667, "fusion_lat": 0.0, "type": "electric_scooter", "name": "fc183c86a132b65f9732e475082f2066", "is_disabled": 0, "bike_id": "fc183c86a132b65f9732e475082f2066", "lon": -77.025866, "rental_uris": {"android": "https://dc.lft.to/lastmile_qr_scan", "ios": "https://dc.lft.to/lastmile_qr_scan"}, "fusion_lon": 0.0, "is_reserved": 0}, {"lat": 38.90378883333333, "fusion_lat": 0.0, "type": "electric_scooter", "name": "acc898ad45441f19e474e7368901c893", "is_disabled": 0, "bike_id": "acc898ad45441f19e474e7368901c893", "lon": -77.042158, "rental_uris": {"android": "https://dc.lft.to/lastmile_qr_scan", "ios": "https://dc.lft.to/lastmile_qr_scan"}, "fusion_lon": 0.0, "is_reserved": 0}, {"lat": 38.93823283333333, "fusion_lat": 0.0, "type": "electric_scooter", "name": "b2f4fb77bbf1f3b74d5ea12dd4d5497c", "is_disabled": 0, "bike_id": "b2f4fb77bbf1f3b74d5ea12dd4d5497c", "lon": -77.05988616666667, "rental_uris": {"android": "https://dc.lft.to/lastmile_qr_scan", "ios": "https://dc.lft.to/lastmile_qr_scan"}, "fusion_lon": 0.0, "is_reserved": 0}, {"lat": 38.9054805, "fusion_lat": 0.0, "type": "electric_scooter", "name": "a821aa20c1472fd27ed0b18e77d94440", "is_disabled": 0, "bike_id": "a821aa20c1472fd27ed0b18e77d94440", "lon": -77.03460083333333, "rental_uris": {"android": "https://dc.lft.to/lastmile_qr_scan", "ios": "https://dc.lft.to/lastmile_qr_scan"}, "fusion_lon": 0.0, "is_reserved": 0}, {"lat": 38.913780333333335, "fusion_lat": 0.0, "type": "electric_scooter", "name": "0c503defd777c92f88772489a3a7be19", "is_disabled": 0, "bike_id": "0c503defd777c92f88772489a3a7be19", "lon": -77.04140933333333, "rental_uris": {"android": "https://dc.lft.to/lastmile_qr_scan", "ios": "https://dc.lft.to/lastmile_qr_scan"}, "fusion_lon": 0.0, "is_reserved": 0}, {"lat": 38.901982, "fusion_lat": 0.0, "type": "electric_scooter", "name": "cc594f83905353b9d640a2cfe95d2c74", "is_disabled": 0, "bike_id": "cc594f83905353b9d640a2cfe95d2c74", "lon": -77.0612335, "rental_uris": {"android": "https://dc.lft.to/lastmile_qr_scan", "ios": "https://dc.lft.to/lastmile_qr_scan"}, "fusion_lon": 0.0, "is_reserved": 0}, {"lat": 38.89227616666667, "fusion_lat": 0.0, "type": "electric_scooter", "name": "ed77a551f7369a437bd22e6f772f4b29", "is_disabled": 0, "bike_id": "ed77a551f7369a437bd22e6f772f4b29", "lon": -77.02384416666666, "rental_uris": {"android": "https://dc.lft.to/lastmile_qr_scan", "ios": "https://dc.lft.to/lastmile_qr_scan"}, "fusion_lon": 0.0, "is_reserved": 0}, {"lat": 38.89746933333333, "fusion_lat": 0.0, "type": "electric_scooter", "name": "2f11ffda8641a09877a3cd028f36e18d", "is_disabled": 0, "bike_id": "2f11ffda8641a09877a3cd028f36e18d", "lon": -77.02982033333333, "rental_uris": {"android": "https://dc.lft.to/lastmile_qr_scan", "ios": "https://dc.lft.to/lastmile_qr_scan"}, "fusion_lon": 0.0, "is_reserved": 0}, {"lat": 38.88693283333333, "fusion_lat": 0.0, "type": "electric_scooter", "name": "fdcca79c1d2ed1934f338fc4cbc43144", "is_disabled": 0, "bike_id": "fdcca79c1d2ed1934f338fc4cbc43144", "lon": -77.00351416666666, "rental_uris": {"android": "https://dc.lft.to/lastmile_qr_scan", "ios": "https://dc.lft.to/lastmile_qr_scan"}, "fusion_lon": 0.0, "is_reserved": 0}, {"lat": 38.927540666666665, "fusion_lat": 0.0, "type": "electric_scooter", "name": "7a4c32fb86a4722441103081bc373d56", "is_disabled": 0, "bike_id": "7a4c32fb86a4722441103081bc373d56", "lon": -77.02114516666667, "rental_uris": {"android": "https://dc.lft.to/lastmile_qr_scan", "ios": "https://dc.lft.to/lastmile_qr_scan"}, "fusion_lon": 0.0, "is_reserved": 0}, {"lat": 38.89859383333334, "fusion_lat": 0.0, "type": "electric_scooter", "name": "a37509484bfcef6e706db3e3f1078ca8", "is_disabled": 0, "bike_id": "a37509484bfcef6e706db3e3f1078ca8", "lon": -77.011458, "rental_uris": {"android": "https://dc.lft.to/lastmile_qr_scan", "ios": "https://dc.lft.to/lastmile_qr_scan"}, "fusion_lon": 0.0, "is_reserved": 0}, {"lat": 38.901732333333335, "fusion_lat": 0.0, "type": "electric_scooter", "name": "a0913e81233246041c6ea751e5a8bba4", "is_disabled": 0, "bike_id": "a0913e81233246041c6ea751e5a8bba4", "lon": -76.929059, "rental_uris": {"android": "https://dc.lft.to/lastmile_qr_scan", "ios": "https://dc.lft.to/lastmile_qr_scan"}, "fusion_lon": 0.0, "is_reserved": 0}, {"lat": 38.90679016666667, "fusion_lat": 0.0, "type": "electric_scooter", "name": "abc8a4628e66fda51507f71c6b355871", "is_disabled": 0, "bike_id": "abc8a4628e66fda51507f71c6b355871", "lon": -77.023978, "rental_uris": {"android": "https://dc.lft.to/lastmile_qr_scan", "ios": "https://dc.lft.to/lastmile_qr_scan"}, "fusion_lon": 0.0, "is_reserved": 0}, {"lat": 38.83097733333334, "fusion_lat": 0.0, "type": "electric_bike", "name": "9e956926fee80e544b1d482e307b3310", "is_disabled": 0, "bike_id": "9e956926fee80e544b1d482e307b3310", "lon": -77.04264966666666, "rental_uris": {"android": "https://dc.lft.to/lastmile_qr_scan", "ios": "https://dc.lft.to/lastmile_qr_scan"}, "fusion_lon": 0.0, "is_reserved": 0}, {"lat": 38.921752, "fusion_lat": 0.0, "type": "electric_scooter", "name": "8df27f6cea9f57cfc5d3fbeada639318", "is_disabled": 0, "bike_id": "8df27f6cea9f57cfc5d3fbeada639318", "lon": -77.041323, "rental_uris": {"android": "https://dc.lft.to/lastmile_qr_scan", "ios": "https://dc.lft.to/lastmile_qr_scan"}, "fusion_lon": 0.0, "is_reserved": 0}, {"lat": 38.883981, "fusion_lat": 0.0, "type": "electric_scooter", "name": "ce687e4d20d5aac8ed8e51c5389054a1", "is_disabled": 0, "bike_id": "ce687e4d20d5aac8ed8e51c5389054a1", "lon": -76.94828866666667, "rental_uris": {"android": "https://dc.lft.to/lastmile_qr_scan", "ios": "https://dc.lft.to/lastmile_qr_scan"}, "fusion_lon": 0.0, "is_reserved": 0}, {"lat": 38.891972833333334, "fusion_lat": 0.0, "type": "electric_scooter", "name": "786dcf2f7c505849d7b99e1b4b54140d", "is_disabled": 0, "bike_id": "786dcf2f7c505849d7b99e1b4b54140d", "lon": -77.023823, "rental_uris": {"android": "https://dc.lft.to/lastmile_qr_scan", "ios": "https://dc.lft.to/lastmile_qr_scan"}, "fusion_lon": 0.0, "is_reserved": 0}, {"lat": 38.93489, "fusion_lat": 0.0, "type": "electric_scooter", "name": "6eb48be0e2107fc526bf23a9638e4846", "is_disabled": 0, "bike_id": "6eb48be0e2107fc526bf23a9638e4846", "lon": -77.027226, "rental_uris": {"android": "https://dc.lft.to/lastmile_qr_scan", "ios": "https://dc.lft.to/lastmile_qr_scan"}, "fusion_lon": 0.0, "is_reserved": 0}, {"lat": 38.90718366666667, "fusion_lat": 0.0, "type": "electric_scooter", "name": "d4439916ce9838cd39457bf1541523fa", "is_disabled": 0, "bike_id": "d4439916ce9838cd39457bf1541523fa", "lon": -77.02372583333333, "rental_uris": {"android": "https://dc.lft.to/lastmile_qr_scan", "ios": "https://dc.lft.to/lastmile_qr_scan"}, "fusion_lon": 0.0, "is_reserved": 0}, {"lat": 38.907199, "fusion_lat": 0.0, "type": "electric_scooter", "name": "19042696d347e42c1b2d3eb7264ca730", "is_disabled": 0, "bike_id": "19042696d347e42c1b2d3eb7264ca730", "lon": -77.033553, "rental_uris": {"android": "https://dc.lft.to/lastmile_qr_scan", "ios": "https://dc.lft.to/lastmile_qr_scan"}, "fusion_lon": 0.0, "is_reserved": 0}, {"lat": 38.91683716666667, "fusion_lat": 0.0, "type": "electric_scooter", "name": "75f382a53e99dd0966fa1ac119868ec0", "is_disabled": 0, "bike_id": "75f382a53e99dd0966fa1ac119868ec0", "lon": -77.02462783333333, "rental_uris": {"android": "https://dc.lft.to/lastmile_qr_scan", "ios": "https://dc.lft.to/lastmile_qr_scan"}, "fusion_lon": 0.0, "is_reserved": 0}, {"lat": 38.92784266666666, "fusion_lat": 0.0, "type": "electric_scooter", "name": "c49c7292213e8fd177da1f6d492f9e80", "is_disabled": 0, "bike_id": "c49c7292213e8fd177da1f6d492f9e80", "lon": -77.03212033333334, "rental_uris": {"android": "https://dc.lft.to/lastmile_qr_scan", "ios": "https://dc.lft.to/lastmile_qr_scan"}, "fusion_lon": 0.0, "is_reserved": 0}, {"lat": 38.89636566666667, "fusion_lat": 0.0, "type": "electric_scooter", "name": "407190b86e48103c02f988a4c8e18bac", "is_disabled": 0, "bike_id": "407190b86e48103c02f988a4c8e18bac", "lon": -77.04000883333333, "rental_uris": {"android": "https://dc.lft.to/lastmile_qr_scan", "ios": "https://dc.lft.to/lastmile_qr_scan"}, "fusion_lon": 0.0, "is_reserved": 0}, {"lat": 38.921170833333335, "fusion_lat": 0.0, "type": "electric_scooter", "name": "74ad9611737e168c274b01296b747cb8", "is_disabled": 0, "bike_id": "74ad9611737e168c274b01296b747cb8", "lon": -77.04577983333333, "rental_uris": {"android": "https://dc.lft.to/lastmile_qr_scan", "ios": "https://dc.lft.to/lastmile_qr_scan"}, "fusion_lon": 0.0, "is_reserved": 0}, {"lat": 38.91911066666667, "fusion_lat": 0.0, "type": "electric_scooter", "name": "d21a2ae0f4af6adbdb0181d33d08f3c6", "is_disabled": 0, "bike_id": "d21a2ae0f4af6adbdb0181d33d08f3c6", "lon": -77.0342915, "rental_uris": {"android": "https://dc.lft.to/lastmile_qr_scan", "ios": "https://dc.lft.to/lastmile_qr_scan"}, "fusion_lon": 0.0, "is_reserved": 0}, {"lat": 38.93078666666667, "fusion_lat": 0.0, "type": "electric_scooter", "name": "f0b7c4b8d2664beb07f4a9b8d575856e", "is_disabled": 0, "bike_id": "f0b7c4b8d2664beb07f4a9b8d575856e", "lon": -77.0273885, "rental_uris": {"android": "https://dc.lft.to/lastmile_qr_scan", "ios": "https://dc.lft.to/lastmile_qr_scan"}, "fusion_lon": 0.0, "is_reserved": 0}, {"lat": 38.9082825, "fusion_lat": 0.0, "type": "electric_scooter", "name": "de9ab8600e372f13380efe4b9cf5ccff", "is_disabled": 0, "bike_id": "de9ab8600e372f13380efe4b9cf5ccff", "lon": -77.04352183333333, "rental_uris": {"android": "https://dc.lft.to/lastmile_qr_scan", "ios": "https://dc.lft.to/lastmile_qr_scan"}, "fusion_lon": 0.0, "is_reserved": 0}, {"lat": 38.92331566666667, "fusion_lat": 0.0, "type": "electric_scooter", "name": "25173859374e3ec9d3cc4bdf59b35db4", "is_disabled": 0, "bike_id": "25173859374e3ec9d3cc4bdf59b35db4", "lon": -77.03612816666667, "rental_uris": {"android": "https://dc.lft.to/lastmile_qr_scan", "ios": "https://dc.lft.to/lastmile_qr_scan"}, "fusion_lon": 0.0, "is_reserved": 0}, {"lat": 38.924678, "fusion_lat": 0.0, "type": "electric_scooter", "name": "0f1174c821cc4942c88d048b0f55a245", "is_disabled": 0, "bike_id": "0f1174c821cc4942c88d048b0f55a245", "lon": -77.03948716666666, "rental_uris": {"android": "https://dc.lft.to/lastmile_qr_scan", "ios": "https://dc.lft.to/lastmile_qr_scan"}, "fusion_lon": 0.0, "is_reserved": 0}, {"lat": 38.91699916666666, "fusion_lat": 0.0, "type": "electric_scooter", "name": "26f16ef4030602e194d5c4eb03847105", "is_disabled": 0, "bike_id": "26f16ef4030602e194d5c4eb03847105", "lon": -77.02909166666667, "rental_uris": {"android": "https://dc.lft.to/lastmile_qr_scan", "ios": "https://dc.lft.to/lastmile_qr_scan"}, "fusion_lon": 0.0, "is_reserved": 0}, {"lat": 38.8984345, "fusion_lat": 0.0, "type": "electric_scooter", "name": "502f0d3a5446cf4c8eb1365244e7fc60", "is_disabled": 0, "bike_id": "502f0d3a5446cf4c8eb1365244e7fc60", "lon": -76.94259383333333, "rental_uris": {"android": "https://dc.lft.to/lastmile_qr_scan", "ios": "https://dc.lft.to/lastmile_qr_scan"}, "fusion_lon": 0.0, "is_reserved": 0}, {"lat": 38.919433, "fusion_lat": 0.0, "type": "electric_scooter", "name": "501827a880ecd834f6522378a55adfe0", "is_disabled": 0, "bike_id": "501827a880ecd834f6522378a55adfe0", "lon": -77.00324133333334, "rental_uris": {"android": "https://dc.lft.to/lastmile_qr_scan", "ios": "https://dc.lft.to/lastmile_qr_scan"}, "fusion_lon": 0.0, "is_reserved": 0}, {"lat": 38.9286275, "fusion_lat": 0.0, "type": "electric_scooter", "name": "886f747dc5f6761f30770106c5bb08d0", "is_disabled": 0, "bike_id": "886f747dc5f6761f30770106c5bb08d0", "lon": -77.03416083333333, "rental_uris": {"android": "https://dc.lft.to/lastmile_qr_scan", "ios": "https://dc.lft.to/lastmile_qr_scan"}, "fusion_lon": 0.0, "is_reserved": 0}, {"lat": 38.95525283333333, "fusion_lat": 0.0, "type": "electric_bike", "name": "af6c2b66afea82bf55881d26280f29af", "is_disabled": 0, "bike_id": "af6c2b66afea82bf55881d26280f29af", "lon": -77.0698295, "rental_uris": {"android": "https://dc.lft.to/lastmile_qr_scan", "ios": "https://dc.lft.to/lastmile_qr_scan"}, "fusion_lon": 0.0, "is_reserved": 0}, {"lat": 38.928410166666666, "fusion_lat": 0.0, "type": "electric_scooter", "name": "c52396cd62a195d2f828905f5e9c1141", "is_disabled": 0, "bike_id": "c52396cd62a195d2f828905f5e9c1141", "lon": -77.0328695, "rental_uris": {"android": "https://dc.lft.to/lastmile_qr_scan", "ios": "https://dc.lft.to/lastmile_qr_scan"}, "fusion_lon": 0.0, "is_reserved": 0}, {"lat": 38.8852895, "fusion_lat": 0.0, "type": "electric_scooter", "name": "3b80045da18af2dbbccb9a5c09fafd02", "is_disabled": 0, "bike_id": "3b80045da18af2dbbccb9a5c09fafd02", "lon": -76.991471, "rental_uris": {"android": "https://dc.lft.to/lastmile_qr_scan", "ios": "https://dc.lft.to/lastmile_qr_scan"}, "fusion_lon": 0.0, "is_reserved": 0}, {"lat": 38.8867605, "fusion_lat": 0.0, "type": "electric_scooter", "name": "ab53c7be43cf34ed2559e3f550cd88c4", "is_disabled": 0, "bike_id": "ab53c7be43cf34ed2559e3f550cd88c4", "lon": -77.00064716666667, "rental_uris": {"android": "https://dc.lft.to/lastmile_qr_scan", "ios": "https://dc.lft.to/lastmile_qr_scan"}, "fusion_lon": 0.0, "is_reserved": 0}, {"lat": 38.87672116666667, "fusion_lat": 0.0, "type": "electric_scooter", "name": "4e50f5aa69e9afc9b68be77a5cab38b0", "is_disabled": 0, "bike_id": "4e50f5aa69e9afc9b68be77a5cab38b0", "lon": -77.00889533333333, "rental_uris": {"android": "https://dc.lft.to/lastmile_qr_scan", "ios": "https://dc.lft.to/lastmile_qr_scan"}, "fusion_lon": 0.0, "is_reserved": 0}, {"lat": 38.88846, "fusion_lat": 0.0, "type": "electric_scooter", "name": "92265dc073ce8a5adb8424e2c47f4302", "is_disabled": 0, "bike_id": "92265dc073ce8a5adb8424e2c47f4302", "lon": -76.92679166666667, "rental_uris": {"android": "https://dc.lft.to/lastmile_qr_scan", "ios": "https://dc.lft.to/lastmile_qr_scan"}, "fusion_lon": 0.0, "is_reserved": 0}, {"lat": 38.87865516666667, "fusion_lat": 0.0, "type": "electric_scooter", "name": "216f696e11d7b583d18ed10003f4c796", "is_disabled": 0, "bike_id": "216f696e11d7b583d18ed10003f4c796", "lon": -76.9698235, "rental_uris": {"android": "https://dc.lft.to/lastmile_qr_scan", "ios": "https://dc.lft.to/lastmile_qr_scan"}, "fusion_lon": 0.0, "is_reserved": 0}, {"lat": 38.919155, "fusion_lat": 0.0, "type": "electric_scooter", "name": "3d2537ab84efb7a5b3bd8e686d4765e3", "is_disabled": 0, "bike_id": "3d2537ab84efb7a5b3bd8e686d4765e3", "lon": -77.03427833333333, "rental_uris": {"android": "https://dc.lft.to/lastmile_qr_scan", "ios": "https://dc.lft.to/lastmile_qr_scan"}, "fusion_lon": 0.0, "is_reserved": 0}, {"lat": 38.900277, "fusion_lat": 0.0, "type": "electric_scooter", "name": "437796c1421389d48d8d39c26a824458", "is_disabled": 0, "bike_id": "437796c1421389d48d8d39c26a824458", "lon": -77.03175033333333, "rental_uris": {"android": "https://dc.lft.to/lastmile_qr_scan", "ios": "https://dc.lft.to/lastmile_qr_scan"}, "fusion_lon": 0.0, "is_reserved": 0}, {"lat": 38.89219033333333, "fusion_lat": 0.0, "type": "electric_scooter", "name": "4b3b9f122024a17f89271f7fbe663114", "is_disabled": 0, "bike_id": "4b3b9f122024a17f89271f7fbe663114", "lon": -77.04693266666666, "rental_uris": {"android": "https://dc.lft.to/lastmile_qr_scan", "ios": "https://dc.lft.to/lastmile_qr_scan"}, "fusion_lon": 0.0, "is_reserved": 0}, {"lat": 38.917974, "fusion_lat": 0.0, "type": "electric_scooter", "name": "9304e4e9db40db8b35f18e806d1d8dd9", "is_disabled": 0, "bike_id": "9304e4e9db40db8b35f18e806d1d8dd9", "lon": -77.04637483333333, "rental_uris": {"android": "https://dc.lft.to/lastmile_qr_scan", "ios": "https://dc.lft.to/lastmile_qr_scan"}, "fusion_lon": 0.0, "is_reserved": 0}, {"lat": 38.920567166666665, "fusion_lat": 0.0, "type": "electric_scooter", "name": "4dd7fbbbd69274538813b8b4fe3b6473", "is_disabled": 0, "bike_id": "4dd7fbbbd69274538813b8b4fe3b6473", "lon": -77.04192166666667, "rental_uris": {"android": "https://dc.lft.to/lastmile_qr_scan", "ios": "https://dc.lft.to/lastmile_qr_scan"}, "fusion_lon": 0.0, "is_reserved": 0}, {"lat": 38.92134883333333, "fusion_lat": 0.0, "type": "electric_scooter", "name": "eff52645edb673a52a72b494b21c4ca7", "is_disabled": 0, "bike_id": "eff52645edb673a52a72b494b21c4ca7", "lon": -77.02089266666667, "rental_uris": {"android": "https://dc.lft.to/lastmile_qr_scan", "ios": "https://dc.lft.to/lastmile_qr_scan"}, "fusion_lon": 0.0, "is_reserved": 0}, {"lat": 38.97369233333333, "fusion_lat": 0.0, "type": "electric_scooter", "name": "37f1cb98233ea85eed5f98f2221f058d", "is_disabled": 0, "bike_id": "37f1cb98233ea85eed5f98f2221f058d", "lon": -77.018631, "rental_uris": {"android": "https://dc.lft.to/lastmile_qr_scan", "ios": "https://dc.lft.to/lastmile_qr_scan"}, "fusion_lon": 0.0, "is_reserved": 0}, {"lat": 38.9011935, "fusion_lat": 0.0, "type": "electric_scooter", "name": "fccc8765eeb587a25f52f7444e4db8e8", "is_disabled": 0, "bike_id": "fccc8765eeb587a25f52f7444e4db8e8", "lon": -77.0345525, "rental_uris": {"android": "https://dc.lft.to/lastmile_qr_scan", "ios": "https://dc.lft.to/lastmile_qr_scan"}, "fusion_lon": 0.0, "is_reserved": 0}, {"lat": 38.90665283333333, "fusion_lat": 0.0, "type": "electric_scooter", "name": "77d17aaa1c8edb4b9ee5ca85e9e21752", "is_disabled": 0, "bike_id": "77d17aaa1c8edb4b9ee5ca85e9e21752", "lon": -77.0269515, "rental_uris": {"android": "https://dc.lft.to/lastmile_qr_scan", "ios": "https://dc.lft.to/lastmile_qr_scan"}, "fusion_lon": 0.0, "is_reserved": 0}, {"lat": 38.8974015, "fusion_lat": 0.0, "type": "electric_scooter", "name": "c04bca3ab254c37a1754920e58ad85c9", "is_disabled": 0, "bike_id": "c04bca3ab254c37a1754920e58ad85c9", "lon": -77.00343416666666, "rental_uris": {"android": "https://dc.lft.to/lastmile_qr_scan", "ios": "https://dc.lft.to/lastmile_qr_scan"}, "fusion_lon": 0.0, "is_reserved": 0}, {"lat": 38.89884216666667, "fusion_lat": 0.0, "type": "electric_scooter", "name": "ea7974ef770444f2a3e4888e008d2ff9", "is_disabled": 0, "bike_id": "ea7974ef770444f2a3e4888e008d2ff9", "lon": -77.012084, "rental_uris": {"android": "https://dc.lft.to/lastmile_qr_scan", "ios": "https://dc.lft.to/lastmile_qr_scan"}, "fusion_lon": 0.0, "is_reserved": 0}, {"lat": 38.94394533333333, "fusion_lat": 0.0, "type": "electric_scooter", "name": "c3d71821b033983fa1d75b9354b46942", "is_disabled": 0, "bike_id": "c3d71821b033983fa1d75b9354b46942", "lon": -77.063886, "rental_uris": {"android": "https://dc.lft.to/lastmile_qr_scan", "ios": "https://dc.lft.to/lastmile_qr_scan"}, "fusion_lon": 0.0, "is_reserved": 0}, {"lat": 38.92052283333334, "fusion_lat": 0.0, "type": "electric_scooter", "name": "df2d788014764a0c6a71014f45418177", "is_disabled": 0, "bike_id": "df2d788014764a0c6a71014f45418177", "lon": -77.04232733333333, "rental_uris": {"android": "https://dc.lft.to/lastmile_qr_scan", "ios": "https://dc.lft.to/lastmile_qr_scan"}, "fusion_lon": 0.0, "is_reserved": 0}, {"lat": 38.93187133333333, "fusion_lat": 0.0, "type": "electric_scooter", "name": "2f72d7cf56bfc2cba3c4871921c2c2f0", "is_disabled": 0, "bike_id": "2f72d7cf56bfc2cba3c4871921c2c2f0", "lon": -77.07226633333333, "rental_uris": {"android": "https://dc.lft.to/lastmile_qr_scan", "ios": "https://dc.lft.to/lastmile_qr_scan"}, "fusion_lon": 0.0, "is_reserved": 0}, {"lat": 38.892192333333334, "fusion_lat": 0.0, "type": "electric_scooter", "name": "76342832ae56f388ac3b62c2e5d2c516", "is_disabled": 0, "bike_id": "76342832ae56f388ac3b62c2e5d2c516", "lon": -77.014161, "rental_uris": {"android": "https://dc.lft.to/lastmile_qr_scan", "ios": "https://dc.lft.to/lastmile_qr_scan"}, "fusion_lon": 0.0, "is_reserved": 0}, {"lat": 38.8995925, "fusion_lat": 0.0, "type": "electric_bike", "name": "08cfa133e33e7cef0cf25a7cc1f7a8ec", "is_disabled": 0, "bike_id": "08cfa133e33e7cef0cf25a7cc1f7a8ec", "lon": -76.9867545, "rental_uris": {"android": "https://dc.lft.to/lastmile_qr_scan", "ios": "https://dc.lft.to/lastmile_qr_scan"}, "fusion_lon": 0.0, "is_reserved": 0}, {"lat": 38.901332833333335, "fusion_lat": 0.0, "type": "electric_scooter", "name": "dd364aa3f8cf789c4287301f9bb18fe1", "is_disabled": 0, "bike_id": "dd364aa3f8cf789c4287301f9bb18fe1", "lon": -77.02897533333334, "rental_uris": {"android": "https://dc.lft.to/lastmile_qr_scan", "ios": "https://dc.lft.to/lastmile_qr_scan"}, "fusion_lon": 0.0, "is_reserved": 0}, {"lat": 38.91337033333333, "fusion_lat": 0.0, "type": "electric_scooter", "name": "cdce94a72892a5e7dc050a5dedf0502e", "is_disabled": 0, "bike_id": "cdce94a72892a5e7dc050a5dedf0502e", "lon": -77.04866183333333, "rental_uris": {"android": "https://dc.lft.to/lastmile_qr_scan", "ios": "https://dc.lft.to/lastmile_qr_scan"}, "fusion_lon": 0.0, "is_reserved": 0}, {"lat": 38.894642833333336, "fusion_lat": 0.0, "type": "electric_scooter", "name": "75d82322b7c504870a63d968bbf6ac47", "is_disabled": 0, "bike_id": "75d82322b7c504870a63d968bbf6ac47", "lon": -77.02688283333333, "rental_uris": {"android": "https://dc.lft.to/lastmile_qr_scan", "ios": "https://dc.lft.to/lastmile_qr_scan"}, "fusion_lon": 0.0, "is_reserved": 0}, {"lat": 38.919483166666666, "fusion_lat": 0.0, "type": "electric_scooter", "name": "956823c4e9aa06d61164c4da5a815c93", "is_disabled": 0, "bike_id": "956823c4e9aa06d61164c4da5a815c93", "lon": -77.023759, "rental_uris": {"android": "https://dc.lft.to/lastmile_qr_scan", "ios": "https://dc.lft.to/lastmile_qr_scan"}, "fusion_lon": 0.0, "is_reserved": 0}, {"lat": 38.89857, "fusion_lat": 0.0, "type": "electric_scooter", "name": "78c5589bac22fa30af99227fe485223a", "is_disabled": 0, "bike_id": "78c5589bac22fa30af99227fe485223a", "lon": -77.02777783333333, "rental_uris": {"android": "https://dc.lft.to/lastmile_qr_scan", "ios": "https://dc.lft.to/lastmile_qr_scan"}, "fusion_lon": 0.0, "is_reserved": 0}, {"lat": 38.935165833333336, "fusion_lat": 0.0, "type": "electric_bike", "name": "147ff58e5843486179da51ec16466dbb", "is_disabled": 0, "bike_id": "147ff58e5843486179da51ec16466dbb", "lon": -77.05420566666666, "rental_uris": {"android": "https://dc.lft.to/lastmile_qr_scan", "ios": "https://dc.lft.to/lastmile_qr_scan"}, "fusion_lon": 0.0, "is_reserved": 0}, {"lat": 38.89432866666667, "fusion_lat": 0.0, "type": "electric_scooter", "name": "81e66afd56e96412346320f5d01f426e", "is_disabled": 0, "bike_id": "81e66afd56e96412346320f5d01f426e", "lon": -76.983545, "rental_uris": {"android": "https://dc.lft.to/lastmile_qr_scan", "ios": "https://dc.lft.to/lastmile_qr_scan"}, "fusion_lon": 0.0, "is_reserved": 0}, {"lat": 38.908592, "fusion_lat": 0.0, "type": "electric_scooter", "name": "ecd21f724aa99864ae58cfbe4c508076", "is_disabled": 0, "bike_id": "ecd21f724aa99864ae58cfbe4c508076", "lon": -77.02236216666667, "rental_uris": {"android": "https://dc.lft.to/lastmile_qr_scan", "ios": "https://dc.lft.to/lastmile_qr_scan"}, "fusion_lon": 0.0, "is_reserved": 0}, {"lat": 38.920273, "fusion_lat": 0.0, "type": "electric_scooter", "name": "2609b760d382385894f54ec4e134bbde", "is_disabled": 0, "bike_id": "2609b760d382385894f54ec4e134bbde", "lon": -77.02959316666667, "rental_uris": {"android": "https://dc.lft.to/lastmile_qr_scan", "ios": "https://dc.lft.to/lastmile_qr_scan"}, "fusion_lon": 0.0, "is_reserved": 0}, {"lat": 38.96557966666667, "fusion_lat": 0.0, "type": "electric_scooter", "name": "99e13a18e82e25d01dc441cfe1ceb1ee", "is_disabled": 0, "bike_id": "99e13a18e82e25d01dc441cfe1ceb1ee", "lon": -77.00204716666667, "rental_uris": {"android": "https://dc.lft.to/lastmile_qr_scan", "ios": "https://dc.lft.to/lastmile_qr_scan"}, "fusion_lon": 0.0, "is_reserved": 0}, {"lat": 38.896342833333335, "fusion_lat": 0.0, "type": "electric_scooter", "name": "6acfef7641121c16c5c5474c78bfe480", "is_disabled": 0, "bike_id": "6acfef7641121c16c5c5474c78bfe480", "lon": -77.04020416666667, "rental_uris": {"android": "https://dc.lft.to/lastmile_qr_scan", "ios": "https://dc.lft.to/lastmile_qr_scan"}, "fusion_lon": 0.0, "is_reserved": 0}, {"lat": 38.900271833333335, "fusion_lat": 0.0, "type": "electric_scooter", "name": "62fb1d8b8e94d1e93a23e5f67f7978f3", "is_disabled": 0, "bike_id": "62fb1d8b8e94d1e93a23e5f67f7978f3", "lon": -77.006944, "rental_uris": {"android": "https://dc.lft.to/lastmile_qr_scan", "ios": "https://dc.lft.to/lastmile_qr_scan"}, "fusion_lon": 0.0, "is_reserved": 0}, {"lat": 38.900075666666666, "fusion_lat": 0.0, "type": "electric_scooter", "name": "e29a658bd096d18dfda96b7ed5b812f5", "is_disabled": 0, "bike_id": "e29a658bd096d18dfda96b7ed5b812f5", "lon": -76.9955695, "rental_uris": {"android": "https://dc.lft.to/lastmile_qr_scan", "ios": "https://dc.lft.to/lastmile_qr_scan"}, "fusion_lon": 0.0, "is_reserved": 0}, {"lat": 38.92391216666667, "fusion_lat": 0.0, "type": "electric_scooter", "name": "12ff0807abaabdcbdd667d047cb0282c", "is_disabled": 0, "bike_id": "12ff0807abaabdcbdd667d047cb0282c", "lon": -77.02055016666667, "rental_uris": {"android": "https://dc.lft.to/lastmile_qr_scan", "ios": "https://dc.lft.to/lastmile_qr_scan"}, "fusion_lon": 0.0, "is_reserved": 0}, {"lat": 38.8873105, "fusion_lat": 0.0, "type": "electric_scooter", "name": "64c18f45c7f7c326cee8db4083d52994", "is_disabled": 0, "bike_id": "64c18f45c7f7c326cee8db4083d52994", "lon": -77.0035125, "rental_uris": {"android": "https://dc.lft.to/lastmile_qr_scan", "ios": "https://dc.lft.to/lastmile_qr_scan"}, "fusion_lon": 0.0, "is_reserved": 0}, {"lat": 38.92632033333334, "fusion_lat": 0.0, "type": "electric_scooter", "name": "7a4df82841aa91ce38d67a5392580b93", "is_disabled": 0, "bike_id": "7a4df82841aa91ce38d67a5392580b93", "lon": -77.03705316666667, "rental_uris": {"android": "https://dc.lft.to/lastmile_qr_scan", "ios": "https://dc.lft.to/lastmile_qr_scan"}, "fusion_lon": 0.0, "is_reserved": 0}, {"lat": 38.929955166666666, "fusion_lat": 0.0, "type": "electric_bike", "name": "414683c4723163ae3080249f0dc5062b", "is_disabled": 0, "bike_id": "414683c4723163ae3080249f0dc5062b", "lon": -77.071293, "rental_uris": {"android": "https://dc.lft.to/lastmile_qr_scan", "ios": "https://dc.lft.to/lastmile_qr_scan"}, "fusion_lon": 0.0, "is_reserved": 0}, {"lat": 38.89223583333333, "fusion_lat": 0.0, "type": "electric_scooter", "name": "914d0722eb459acd8c09d64c8b3586a8", "is_disabled": 0, "bike_id": "914d0722eb459acd8c09d64c8b3586a8", "lon": -77.0220765, "rental_uris": {"android": "https://dc.lft.to/lastmile_qr_scan", "ios": "https://dc.lft.to/lastmile_qr_scan"}, "fusion_lon": 0.0, "is_reserved": 0}, {"lat": 38.89920983333333, "fusion_lat": 0.0, "type": "electric_scooter", "name": "a211131682ed4480cdf4b5ef1ebb5a8c", "is_disabled": 0, "bike_id": "a211131682ed4480cdf4b5ef1ebb5a8c", "lon": -77.03182733333334, "rental_uris": {"android": "https://dc.lft.to/lastmile_qr_scan", "ios": "https://dc.lft.to/lastmile_qr_scan"}, "fusion_lon": 0.0, "is_reserved": 0}, {"lat": 38.94183183333333, "fusion_lat": 0.0, "type": "electric_scooter", "name": "c469cef0267839c23f16b74ed0a1659e", "is_disabled": 0, "bike_id": "c469cef0267839c23f16b74ed0a1659e", "lon": -77.0240745, "rental_uris": {"android": "https://dc.lft.to/lastmile_qr_scan", "ios": "https://dc.lft.to/lastmile_qr_scan"}, "fusion_lon": 0.0, "is_reserved": 0}, {"lat": 38.900718833333336, "fusion_lat": 0.0, "type": "electric_scooter", "name": "2bb29150f45ac46395eeb00c0a9d9714", "is_disabled": 0, "bike_id": "2bb29150f45ac46395eeb00c0a9d9714", "lon": -77.02543316666667, "rental_uris": {"android": "https://dc.lft.to/lastmile_qr_scan", "ios": "https://dc.lft.to/lastmile_qr_scan"}, "fusion_lon": 0.0, "is_reserved": 0}, {"lat": 38.897201333333335, "fusion_lat": 0.0, "type": "electric_scooter", "name": "1bb180c31257105bccc58f39510b84b1", "is_disabled": 0, "bike_id": "1bb180c31257105bccc58f39510b84b1", "lon": -77.0216305, "rental_uris": {"android": "https://dc.lft.to/lastmile_qr_scan", "ios": "https://dc.lft.to/lastmile_qr_scan"}, "fusion_lon": 0.0, "is_reserved": 0}, {"lat": 38.93157883333333, "fusion_lat": 0.0, "type": "electric_scooter", "name": "901b708c0cb528921390dc2a73132288", "is_disabled": 0, "bike_id": "901b708c0cb528921390dc2a73132288", "lon": -77.07854683333333, "rental_uris": {"android": "https://dc.lft.to/lastmile_qr_scan", "ios": "https://dc.lft.to/lastmile_qr_scan"}, "fusion_lon": 0.0, "is_reserved": 0}, {"lat": 38.89553933333333, "fusion_lat": 0.0, "type": "electric_scooter", "name": "272b789bf6e7aa28452bb670571a9772", "is_disabled": 0, "bike_id": "272b789bf6e7aa28452bb670571a9772", "lon": -77.04157716666667, "rental_uris": {"android": "https://dc.lft.to/lastmile_qr_scan", "ios": "https://dc.lft.to/lastmile_qr_scan"}, "fusion_lon": 0.0, "is_reserved": 0}, {"lat": 38.90903333333333, "fusion_lat": 0.0, "type": "electric_scooter", "name": "f874defe29fbfa9d5b9dd08864ec30e3", "is_disabled": 0, "bike_id": "f874defe29fbfa9d5b9dd08864ec30e3", "lon": -77.07269633333334, "rental_uris": {"android": "https://dc.lft.to/lastmile_qr_scan", "ios": "https://dc.lft.to/lastmile_qr_scan"}, "fusion_lon": 0.0, "is_reserved": 0}, {"lat": 38.913226, "fusion_lat": 0.0, "type": "electric_scooter", "name": "8070e67c2d20ffcbf534f0c6651e8ea4", "is_disabled": 0, "bike_id": "8070e67c2d20ffcbf534f0c6651e8ea4", "lon": -77.03194233333333, "rental_uris": {"android": "https://dc.lft.to/lastmile_qr_scan", "ios": "https://dc.lft.to/lastmile_qr_scan"}, "fusion_lon": 0.0, "is_reserved": 0}, {"lat": 38.90852016666667, "fusion_lat": 0.0, "type": "electric_scooter", "name": "fd436b99a06a6e5723d3a7a7957d18ff", "is_disabled": 0, "bike_id": "fd436b99a06a6e5723d3a7a7957d18ff", "lon": -77.044967, "rental_uris": {"android": "https://dc.lft.to/lastmile_qr_scan", "ios": "https://dc.lft.to/lastmile_qr_scan"}, "fusion_lon": 0.0, "is_reserved": 0}, {"lat": 38.857675, "fusion_lat": 0.0, "type": "electric_bike", "name": "86a6fb57825d486b47bd086b2bad6e16", "is_disabled": 0, "bike_id": "86a6fb57825d486b47bd086b2bad6e16", "lon": -76.98758483333333, "rental_uris": {"android": "https://dc.lft.to/lastmile_qr_scan", "ios": "https://dc.lft.to/lastmile_qr_scan"}, "fusion_lon": 0.0, "is_reserved": 0}, {"lat": 38.889907666666666, "fusion_lat": 0.0, "type": "electric_scooter", "name": "164dd4fde6a294f2d745d9ff4e928ac0", "is_disabled": 0, "bike_id": "164dd4fde6a294f2d745d9ff4e928ac0", "lon": -76.95425266666666, "rental_uris": {"android": "https://dc.lft.to/lastmile_qr_scan", "ios": "https://dc.lft.to/lastmile_qr_scan"}, "fusion_lon": 0.0, "is_reserved": 0}, {"lat": 38.89220866666667, "fusion_lat": 0.0, "type": "electric_scooter", "name": "d8af0b0814adc8c5160c378a9ba2d44c", "is_disabled": 0, "bike_id": "d8af0b0814adc8c5160c378a9ba2d44c", "lon": -77.0419675, "rental_uris": {"android": "https://dc.lft.to/lastmile_qr_scan", "ios": "https://dc.lft.to/lastmile_qr_scan"}, "fusion_lon": 0.0, "is_reserved": 0}, {"lat": 38.92321033333333, "fusion_lat": 0.0, "type": "electric_scooter", "name": "993f7ed16be4f3a3308a034ac7349ab1", "is_disabled": 0, "bike_id": "993f7ed16be4f3a3308a034ac7349ab1", "lon": -77.03899233333334, "rental_uris": {"android": "https://dc.lft.to/lastmile_qr_scan", "ios": "https://dc.lft.to/lastmile_qr_scan"}, "fusion_lon": 0.0, "is_reserved": 0}, {"lat": 38.92043266666667, "fusion_lat": 0.0, "type": "electric_scooter", "name": "ace02cf7c940211f94b7b1007aad959a", "is_disabled": 0, "bike_id": "ace02cf7c940211f94b7b1007aad959a", "lon": -77.02440716666666, "rental_uris": {"android": "https://dc.lft.to/lastmile_qr_scan", "ios": "https://dc.lft.to/lastmile_qr_scan"}, "fusion_lon": 0.0, "is_reserved": 0}, {"lat": 38.948984833333334, "fusion_lat": 0.0, "type": "electric_bike", "name": "6e35c58f05148b148684ad8b3819cc82", "is_disabled": 0, "bike_id": "6e35c58f05148b148684ad8b3819cc82", "lon": -76.9637275, "rental_uris": {"android": "https://dc.lft.to/lastmile_qr_scan", "ios": "https://dc.lft.to/lastmile_qr_scan"}, "fusion_lon": 0.0, "is_reserved": 0}, {"lat": 38.919963333333335, "fusion_lat": 0.0, "type": "electric_scooter", "name": "732bc7b7d791a30aa354293fb864a558", "is_disabled": 0, "bike_id": "732bc7b7d791a30aa354293fb864a558", "lon": -77.024028, "rental_uris": {"android": "https://dc.lft.to/lastmile_qr_scan", "ios": "https://dc.lft.to/lastmile_qr_scan"}, "fusion_lon": 0.0, "is_reserved": 0}, {"lat": 38.90471566666667, "fusion_lat": 0.0, "type": "electric_scooter", "name": "3a21c34509d28b0967bbcba051b4f821", "is_disabled": 0, "bike_id": "3a21c34509d28b0967bbcba051b4f821", "lon": -77.04353633333334, "rental_uris": {"android": "https://dc.lft.to/lastmile_qr_scan", "ios": "https://dc.lft.to/lastmile_qr_scan"}, "fusion_lon": 0.0, "is_reserved": 0}, {"lat": 38.90122683333333, "fusion_lat": 0.0, "type": "electric_scooter", "name": "92a7010e4e579acfc266c98d9c38e4f8", "is_disabled": 0, "bike_id": "92a7010e4e579acfc266c98d9c38e4f8", "lon": -77.0414485, "rental_uris": {"android": "https://dc.lft.to/lastmile_qr_scan", "ios": "https://dc.lft.to/lastmile_qr_scan"}, "fusion_lon": 0.0, "is_reserved": 0}, {"lat": 38.92466016666667, "fusion_lat": 0.0, "type": "electric_scooter", "name": "771dccddc0669c4e071d0eab0304ab49", "is_disabled": 0, "bike_id": "771dccddc0669c4e071d0eab0304ab49", "lon": -77.02892233333333, "rental_uris": {"android": "https://dc.lft.to/lastmile_qr_scan", "ios": "https://dc.lft.to/lastmile_qr_scan"}, "fusion_lon": 0.0, "is_reserved": 0}, {"lat": 38.926754833333334, "fusion_lat": 0.0, "type": "electric_scooter", "name": "1fb434ec8ca9cd7a8c58674831facdaf", "is_disabled": 0, "bike_id": "1fb434ec8ca9cd7a8c58674831facdaf", "lon": -77.00702883333334, "rental_uris": {"android": "https://dc.lft.to/lastmile_qr_scan", "ios": "https://dc.lft.to/lastmile_qr_scan"}, "fusion_lon": 0.0, "is_reserved": 0}, {"lat": 38.89659133333333, "fusion_lat": 0.0, "type": "electric_scooter", "name": "387450be0ef8f17da60b15f59fb84d8d", "is_disabled": 0, "bike_id": "387450be0ef8f17da60b15f59fb84d8d", "lon": -77.05024683333333, "rental_uris": {"android": "https://dc.lft.to/lastmile_qr_scan", "ios": "https://dc.lft.to/lastmile_qr_scan"}, "fusion_lon": 0.0, "is_reserved": 0}, {"lat": 38.93045683333333, "fusion_lat": 0.0, "type": "electric_scooter", "name": "626e600110277b9dde6e2cb40d10300f", "is_disabled": 0, "bike_id": "626e600110277b9dde6e2cb40d10300f", "lon": -77.0235235, "rental_uris": {"android": "https://dc.lft.to/lastmile_qr_scan", "ios": "https://dc.lft.to/lastmile_qr_scan"}, "fusion_lon": 0.0, "is_reserved": 0}, {"lat": 38.924489666666666, "fusion_lat": 0.0, "type": "electric_scooter", "name": "1ad8352000f0331a38709bf55b5151a0", "is_disabled": 0, "bike_id": "1ad8352000f0331a38709bf55b5151a0", "lon": -77.03301933333333, "rental_uris": {"android": "https://dc.lft.to/lastmile_qr_scan", "ios": "https://dc.lft.to/lastmile_qr_scan"}, "fusion_lon": 0.0, "is_reserved": 0}, {"lat": 38.91844916666667, "fusion_lat": 0.0, "type": "electric_scooter", "name": "7518e8c1a292ee33955b4e394f5d5b29", "is_disabled": 0, "bike_id": "7518e8c1a292ee33955b4e394f5d5b29", "lon": -77.04834316666667, "rental_uris": {"android": "https://dc.lft.to/lastmile_qr_scan", "ios": "https://dc.lft.to/lastmile_qr_scan"}, "fusion_lon": 0.0, "is_reserved": 0}, {"lat": 38.99670066666667, "fusion_lat": 0.0, "type": "electric_bike", "name": "6ea00738775f6bb93e0fc9f7606a8984", "is_disabled": 0, "bike_id": "6ea00738775f6bb93e0fc9f7606a8984", "lon": -77.03769916666667, "rental_uris": {"android": "https://dc.lft.to/lastmile_qr_scan", "ios": "https://dc.lft.to/lastmile_qr_scan"}, "fusion_lon": 0.0, "is_reserved": 0}, {"lat": 38.89559533333333, "fusion_lat": 0.0, "type": "electric_scooter", "name": "feaa59e45deb9e6e71da46ed9602e475", "is_disabled": 0, "bike_id": "feaa59e45deb9e6e71da46ed9602e475", "lon": -77.04673366666667, "rental_uris": {"android": "https://dc.lft.to/lastmile_qr_scan", "ios": "https://dc.lft.to/lastmile_qr_scan"}, "fusion_lon": 0.0, "is_reserved": 0}, {"lat": 38.906342333333335, "fusion_lat": 0.0, "type": "electric_scooter", "name": "9e590d5c945c7835acac0e18b6a55b1a", "is_disabled": 0, "bike_id": "9e590d5c945c7835acac0e18b6a55b1a", "lon": -77.00598533333333, "rental_uris": {"android": "https://dc.lft.to/lastmile_qr_scan", "ios": "https://dc.lft.to/lastmile_qr_scan"}, "fusion_lon": 0.0, "is_reserved": 0}, {"lat": 38.919959166666665, "fusion_lat": 0.0, "type": "electric_scooter", "name": "c2963ede59dea5eb62fac5ddb9d19827", "is_disabled": 0, "bike_id": "c2963ede59dea5eb62fac5ddb9d19827", "lon": -77.02395466666667, "rental_uris": {"android": "https://dc.lft.to/lastmile_qr_scan", "ios": "https://dc.lft.to/lastmile_qr_scan"}, "fusion_lon": 0.0, "is_reserved": 0}, {"lat": 38.92873083333333, "fusion_lat": 0.0, "type": "electric_scooter", "name": "0804d225857656c18c692f776cd0b73d", "is_disabled": 0, "bike_id": "0804d225857656c18c692f776cd0b73d", "lon": -77.0233195, "rental_uris": {"android": "https://dc.lft.to/lastmile_qr_scan", "ios": "https://dc.lft.to/lastmile_qr_scan"}, "fusion_lon": 0.0, "is_reserved": 0}, {"lat": 38.947135, "fusion_lat": 0.0, "type": "electric_scooter", "name": "c35160897b19f20f1cac9fcef3b91251", "is_disabled": 0, "bike_id": "c35160897b19f20f1cac9fcef3b91251", "lon": -77.06547866666666, "rental_uris": {"android": "https://dc.lft.to/lastmile_qr_scan", "ios": "https://dc.lft.to/lastmile_qr_scan"}, "fusion_lon": 0.0, "is_reserved": 0}, {"lat": 38.932299, "fusion_lat": 0.0, "type": "electric_scooter", "name": "4214e6b50d3971e6c074649ffc7a9c9e", "is_disabled": 0, "bike_id": "4214e6b50d3971e6c074649ffc7a9c9e", "lon": -76.99810366666667, "rental_uris": {"android": "https://dc.lft.to/lastmile_qr_scan", "ios": "https://dc.lft.to/lastmile_qr_scan"}, "fusion_lon": 0.0, "is_reserved": 0}, {"lat": 38.884703333333334, "fusion_lat": 0.0, "type": "electric_scooter", "name": "9b703b7a3d5fbd68cb273035a3647473", "is_disabled": 0, "bike_id": "9b703b7a3d5fbd68cb273035a3647473", "lon": -76.94979283333333, "rental_uris": {"android": "https://dc.lft.to/lastmile_qr_scan", "ios": "https://dc.lft.to/lastmile_qr_scan"}, "fusion_lon": 0.0, "is_reserved": 0}, {"lat": 38.917352666666666, "fusion_lat": 0.0, "type": "electric_scooter", "name": "f1c3bfce96fa3af20ebf4c651f6c4440", "is_disabled": 0, "bike_id": "f1c3bfce96fa3af20ebf4c651f6c4440", "lon": -77.0281755, "rental_uris": {"android": "https://dc.lft.to/lastmile_qr_scan", "ios": "https://dc.lft.to/lastmile_qr_scan"}, "fusion_lon": 0.0, "is_reserved": 0}, {"lat": 38.93012816666667, "fusion_lat": 0.0, "type": "electric_scooter", "name": "d2cd4708a8bb02225149f01eb3ef52a1", "is_disabled": 0, "bike_id": "d2cd4708a8bb02225149f01eb3ef52a1", "lon": -77.02332733333333, "rental_uris": {"android": "https://dc.lft.to/lastmile_qr_scan", "ios": "https://dc.lft.to/lastmile_qr_scan"}, "fusion_lon": 0.0, "is_reserved": 0}, {"lat": 38.899048, "fusion_lat": 0.0, "type": "electric_scooter", "name": "bbae6e29b67fea628cba17d95e98055a", "is_disabled": 0, "bike_id": "bbae6e29b67fea628cba17d95e98055a", "lon": -77.02825766666666, "rental_uris": {"android": "https://dc.lft.to/lastmile_qr_scan", "ios": "https://dc.lft.to/lastmile_qr_scan"}, "fusion_lon": 0.0, "is_reserved": 0}, {"lat": 38.91116183333333, "fusion_lat": 0.0, "type": "electric_scooter", "name": "b654606bebadd18027a174a92ca56b35", "is_disabled": 0, "bike_id": "b654606bebadd18027a174a92ca56b35", "lon": -77.01368366666667, "rental_uris": {"android": "https://dc.lft.to/lastmile_qr_scan", "ios": "https://dc.lft.to/lastmile_qr_scan"}, "fusion_lon": 0.0, "is_reserved": 0}, {"lat": 38.89865433333333, "fusion_lat": 0.0, "type": "electric_scooter", "name": "9147a1b75178b1cc9713df31e8ba899d", "is_disabled": 0, "bike_id": "9147a1b75178b1cc9713df31e8ba899d", "lon": -76.946418, "rental_uris": {"android": "https://dc.lft.to/lastmile_qr_scan", "ios": "https://dc.lft.to/lastmile_qr_scan"}, "fusion_lon": 0.0, "is_reserved": 0}, {"lat": 38.92520916666667, "fusion_lat": 0.0, "type": "electric_scooter", "name": "daed29cac378a752691265e8f8ad42bd", "is_disabled": 0, "bike_id": "daed29cac378a752691265e8f8ad42bd", "lon": -77.05123, "rental_uris": {"android": "https://dc.lft.to/lastmile_qr_scan", "ios": "https://dc.lft.to/lastmile_qr_scan"}, "fusion_lon": 0.0, "is_reserved": 0}, {"lat": 38.89222733333333, "fusion_lat": 0.0, "type": "electric_scooter", "name": "b62484717de64e87f4720f93c9e9b2e4", "is_disabled": 0, "bike_id": "b62484717de64e87f4720f93c9e9b2e4", "lon": -77.0437365, "rental_uris": {"android": "https://dc.lft.to/lastmile_qr_scan", "ios": "https://dc.lft.to/lastmile_qr_scan"}, "fusion_lon": 0.0, "is_reserved": 0}, {"lat": 38.906126, "fusion_lat": 0.0, "type": "electric_scooter", "name": "9dfedb64e4db5ca1b39dde659996409b", "is_disabled": 0, "bike_id": "9dfedb64e4db5ca1b39dde659996409b", "lon": -77.041762, "rental_uris": {"android": "https://dc.lft.to/lastmile_qr_scan", "ios": "https://dc.lft.to/lastmile_qr_scan"}, "fusion_lon": 0.0, "is_reserved": 0}, {"lat": 38.97854316666667, "fusion_lat": 0.0, "type": "electric_bike", "name": "99658dce5518a6dc6b2eaee6b79bc952", "is_disabled": 0, "bike_id": "99658dce5518a6dc6b2eaee6b79bc952", "lon": -76.94048466666666, "rental_uris": {"android": "https://dc.lft.to/lastmile_qr_scan", "ios": "https://dc.lft.to/lastmile_qr_scan"}, "fusion_lon": 0.0, "is_reserved": 0}, {"lat": 38.915485833333335, "fusion_lat": 0.0, "type": "electric_scooter", "name": "c97062c9702067a962265a60711896a7", "is_disabled": 0, "bike_id": "c97062c9702067a962265a60711896a7", "lon": -77.027132, "rental_uris": {"android": "https://dc.lft.to/lastmile_qr_scan", "ios": "https://dc.lft.to/lastmile_qr_scan"}, "fusion_lon": 0.0, "is_reserved": 0}, {"lat": 38.9208365, "fusion_lat": 0.0, "type": "electric_scooter", "name": "2c7942cfbffd90ad161c24dee6648d47", "is_disabled": 0, "bike_id": "2c7942cfbffd90ad161c24dee6648d47", "lon": -77.02531633333334, "rental_uris": {"android": "https://dc.lft.to/lastmile_qr_scan", "ios": "https://dc.lft.to/lastmile_qr_scan"}, "fusion_lon": 0.0, "is_reserved": 0}, {"lat": 38.923093333333334, "fusion_lat": 0.0, "type": "electric_scooter", "name": "ee569e60afb197b26a7e304c5aa8fb73", "is_disabled": 0, "bike_id": "ee569e60afb197b26a7e304c5aa8fb73", "lon": -77.021304, "rental_uris": {"android": "https://dc.lft.to/lastmile_qr_scan", "ios": "https://dc.lft.to/lastmile_qr_scan"}, "fusion_lon": 0.0, "is_reserved": 0}, {"lat": 38.865191833333334, "fusion_lat": 0.0, "type": "electric_scooter", "name": "953c40afb7fd625a8efd9fcbb8bb423f", "is_disabled": 0, "bike_id": "953c40afb7fd625a8efd9fcbb8bb423f", "lon": -76.9732855, "rental_uris": {"android": "https://dc.lft.to/lastmile_qr_scan", "ios": "https://dc.lft.to/lastmile_qr_scan"}, "fusion_lon": 0.0, "is_reserved": 0}, {"lat": 38.90714416666667, "fusion_lat": 0.0, "type": "electric_scooter", "name": "ae259d6f0aa9e73c0a96b307190157eb", "is_disabled": 0, "bike_id": "ae259d6f0aa9e73c0a96b307190157eb", "lon": -77.00321183333334, "rental_uris": {"android": "https://dc.lft.to/lastmile_qr_scan", "ios": "https://dc.lft.to/lastmile_qr_scan"}, "fusion_lon": 0.0, "is_reserved": 0}, {"lat": 38.9224515, "fusion_lat": 0.0, "type": "electric_scooter", "name": "ae71accb73a212398597b224ce271ddb", "is_disabled": 0, "bike_id": "ae71accb73a212398597b224ce271ddb", "lon": -77.04253533333333, "rental_uris": {"android": "https://dc.lft.to/lastmile_qr_scan", "ios": "https://dc.lft.to/lastmile_qr_scan"}, "fusion_lon": 0.0, "is_reserved": 0}, {"lat": 38.90381566666667, "fusion_lat": 0.0, "type": "electric_scooter", "name": "644a667364b63f8a84e85a2a53fe7cbc", "is_disabled": 0, "bike_id": "644a667364b63f8a84e85a2a53fe7cbc", "lon": -77.03444916666666, "rental_uris": {"android": "https://dc.lft.to/lastmile_qr_scan", "ios": "https://dc.lft.to/lastmile_qr_scan"}, "fusion_lon": 0.0, "is_reserved": 0}, {"lat": 38.89863883333334, "fusion_lat": 0.0, "type": "electric_scooter", "name": "87280151b5a19ac850093631ea6fea01", "is_disabled": 0, "bike_id": "87280151b5a19ac850093631ea6fea01", "lon": -77.046695, "rental_uris": {"android": "https://dc.lft.to/lastmile_qr_scan", "ios": "https://dc.lft.to/lastmile_qr_scan"}, "fusion_lon": 0.0, "is_reserved": 0}, {"lat": 38.93648483333333, "fusion_lat": 0.0, "type": "electric_scooter", "name": "9ce1f0bf0023de1ec7d4c08944a1bbfe", "is_disabled": 0, "bike_id": "9ce1f0bf0023de1ec7d4c08944a1bbfe", "lon": -77.02044183333334, "rental_uris": {"android": "https://dc.lft.to/lastmile_qr_scan", "ios": "https://dc.lft.to/lastmile_qr_scan"}, "fusion_lon": 0.0, "is_reserved": 0}, {"lat": 38.89900383333333, "fusion_lat": 0.0, "type": "electric_scooter", "name": "0960ffdfa1360ddb4f2b93d9aac435b9", "is_disabled": 0, "bike_id": "0960ffdfa1360ddb4f2b93d9aac435b9", "lon": -76.933959, "rental_uris": {"android": "https://dc.lft.to/lastmile_qr_scan", "ios": "https://dc.lft.to/lastmile_qr_scan"}, "fusion_lon": 0.0, "is_reserved": 0}, {"lat": 38.93101716666666, "fusion_lat": 0.0, "type": "electric_scooter", "name": "295ff06db8d37dc1187fb84050c6b672", "is_disabled": 0, "bike_id": "295ff06db8d37dc1187fb84050c6b672", "lon": -77.0241505, "rental_uris": {"android": "https://dc.lft.to/lastmile_qr_scan", "ios": "https://dc.lft.to/lastmile_qr_scan"}, "fusion_lon": 0.0, "is_reserved": 0}, {"lat": 38.900109, "fusion_lat": 0.0, "type": "electric_scooter", "name": "6014036bbc03a54bb0e566e636522940", "is_disabled": 0, "bike_id": "6014036bbc03a54bb0e566e636522940", "lon": -76.98697966666667, "rental_uris": {"android": "https://dc.lft.to/lastmile_qr_scan", "ios": "https://dc.lft.to/lastmile_qr_scan"}, "fusion_lon": 0.0, "is_reserved": 0}, {"lat": 38.921719, "fusion_lat": 0.0, "type": "electric_scooter", "name": "1bbceeee5755dfadf2e90ba74aded824", "is_disabled": 0, "bike_id": "1bbceeee5755dfadf2e90ba74aded824", "lon": -77.03834516666667, "rental_uris": {"android": "https://dc.lft.to/lastmile_qr_scan", "ios": "https://dc.lft.to/lastmile_qr_scan"}, "fusion_lon": 0.0, "is_reserved": 0}, {"lat": 38.844378666666664, "fusion_lat": 0.0, "type": "electric_scooter", "name": "a634fcd89e5aba21159a7436af6654ab", "is_disabled": 0, "bike_id": "a634fcd89e5aba21159a7436af6654ab", "lon": -76.997788, "rental_uris": {"android": "https://dc.lft.to/lastmile_qr_scan", "ios": "https://dc.lft.to/lastmile_qr_scan"}, "fusion_lon": 0.0, "is_reserved": 0}, {"lat": 38.91715583333333, "fusion_lat": 0.0, "type": "electric_scooter", "name": "79f5dc46d3a0d92ef8b0c121b9f3f174", "is_disabled": 0, "bike_id": "79f5dc46d3a0d92ef8b0c121b9f3f174", "lon": -77.0271345, "rental_uris": {"android": "https://dc.lft.to/lastmile_qr_scan", "ios": "https://dc.lft.to/lastmile_qr_scan"}, "fusion_lon": 0.0, "is_reserved": 0}, {"lat": 38.9240725, "fusion_lat": 0.0, "type": "electric_scooter", "name": "fcb5ef2ed09f3ec9d1bef864895bc248", "is_disabled": 0, "bike_id": "fcb5ef2ed09f3ec9d1bef864895bc248", "lon": -77.0517, "rental_uris": {"android": "https://dc.lft.to/lastmile_qr_scan", "ios": "https://dc.lft.to/lastmile_qr_scan"}, "fusion_lon": 0.0, "is_reserved": 0}, {"lat": 38.911728, "fusion_lat": 0.0, "type": "electric_scooter", "name": "ef129d0eb905f2c84ea0a6b87227b2b1", "is_disabled": 0, "bike_id": "ef129d0eb905f2c84ea0a6b87227b2b1", "lon": -77.03180783333333, "rental_uris": {"android": "https://dc.lft.to/lastmile_qr_scan", "ios": "https://dc.lft.to/lastmile_qr_scan"}, "fusion_lon": 0.0, "is_reserved": 0}, {"lat": 38.994132, "fusion_lat": 0.0, "type": "electric_bike", "name": "9b82add59613e1628ad7a48b2b5005e3", "is_disabled": 0, "bike_id": "9b82add59613e1628ad7a48b2b5005e3", "lon": -77.07697666666667, "rental_uris": {"android": "https://dc.lft.to/lastmile_qr_scan", "ios": "https://dc.lft.to/lastmile_qr_scan"}, "fusion_lon": 0.0, "is_reserved": 0}, {"lat": 38.91721066666667, "fusion_lat": 0.0, "type": "electric_scooter", "name": "cb9bac7a2108a56bf44e7309514b1036", "is_disabled": 0, "bike_id": "cb9bac7a2108a56bf44e7309514b1036", "lon": -77.02969016666667, "rental_uris": {"android": "https://dc.lft.to/lastmile_qr_scan", "ios": "https://dc.lft.to/lastmile_qr_scan"}, "fusion_lon": 0.0, "is_reserved": 0}, {"lat": 38.90029916666667, "fusion_lat": 0.0, "type": "electric_bike", "name": "33ffc2f43f08d9cec3e5d581715a0bbc", "is_disabled": 0, "bike_id": "33ffc2f43f08d9cec3e5d581715a0bbc", "lon": -76.97227333333333, "rental_uris": {"android": "https://dc.lft.to/lastmile_qr_scan", "ios": "https://dc.lft.to/lastmile_qr_scan"}, "fusion_lon": 0.0, "is_reserved": 0}, {"lat": 38.89828883333333, "fusion_lat": 0.0, "type": "electric_scooter", "name": "abf6a2d89f1e499848ec5b5ddb746098", "is_disabled": 0, "bike_id": "abf6a2d89f1e499848ec5b5ddb746098", "lon": -76.94652266666667, "rental_uris": {"android": "https://dc.lft.to/lastmile_qr_scan", "ios": "https://dc.lft.to/lastmile_qr_scan"}, "fusion_lon": 0.0, "is_reserved": 0}, {"lat": 38.922474666666666, "fusion_lat": 0.0, "type": "electric_scooter", "name": "d2d7f375580162e2bb87fbefb833b5ee", "is_disabled": 0, "bike_id": "d2d7f375580162e2bb87fbefb833b5ee", "lon": -77.04254366666666, "rental_uris": {"android": "https://dc.lft.to/lastmile_qr_scan", "ios": "https://dc.lft.to/lastmile_qr_scan"}, "fusion_lon": 0.0, "is_reserved": 0}, {"lat": 38.90517416666667, "fusion_lat": 0.0, "type": "electric_scooter", "name": "5ea576034a65eafc0edd63a3b33a2c76", "is_disabled": 0, "bike_id": "5ea576034a65eafc0edd63a3b33a2c76", "lon": -77.0489805, "rental_uris": {"android": "https://dc.lft.to/lastmile_qr_scan", "ios": "https://dc.lft.to/lastmile_qr_scan"}, "fusion_lon": 0.0, "is_reserved": 0}, {"lat": 38.90248733333333, "fusion_lat": 0.0, "type": "electric_scooter", "name": "043a99b4718f5c71bffacce71d91140c", "is_disabled": 0, "bike_id": "043a99b4718f5c71bffacce71d91140c", "lon": -77.03954083333333, "rental_uris": {"android": "https://dc.lft.to/lastmile_qr_scan", "ios": "https://dc.lft.to/lastmile_qr_scan"}, "fusion_lon": 0.0, "is_reserved": 0}, {"lat": 38.910570666666665, "fusion_lat": 0.0, "type": "electric_scooter", "name": "45879a2a0a3415ee854c0efbcc1eb120", "is_disabled": 0, "bike_id": "45879a2a0a3415ee854c0efbcc1eb120", "lon": -77.0528905, "rental_uris": {"android": "https://dc.lft.to/lastmile_qr_scan", "ios": "https://dc.lft.to/lastmile_qr_scan"}, "fusion_lon": 0.0, "is_reserved": 0}, {"lat": 38.91817116666667, "fusion_lat": 0.0, "type": "electric_scooter", "name": "82b1a5ea782b949fcc5ca22810d541ca", "is_disabled": 0, "bike_id": "82b1a5ea782b949fcc5ca22810d541ca", "lon": -77.03451833333334, "rental_uris": {"android": "https://dc.lft.to/lastmile_qr_scan", "ios": "https://dc.lft.to/lastmile_qr_scan"}, "fusion_lon": 0.0, "is_reserved": 0}, {"lat": 38.91944816666667, "fusion_lat": 0.0, "type": "electric_scooter", "name": "e1324e97cc0762a1da4de7d1327191e9", "is_disabled": 0, "bike_id": "e1324e97cc0762a1da4de7d1327191e9", "lon": -77.04798633333333, "rental_uris": {"android": "https://dc.lft.to/lastmile_qr_scan", "ios": "https://dc.lft.to/lastmile_qr_scan"}, "fusion_lon": 0.0, "is_reserved": 0}, {"lat": 38.90140533333334, "fusion_lat": 0.0, "type": "electric_scooter", "name": "509a17ace5ee47f4db33b342795dc6ad", "is_disabled": 0, "bike_id": "509a17ace5ee47f4db33b342795dc6ad", "lon": -77.04046733333334, "rental_uris": {"android": "https://dc.lft.to/lastmile_qr_scan", "ios": "https://dc.lft.to/lastmile_qr_scan"}, "fusion_lon": 0.0, "is_reserved": 0}, {"lat": 38.902599333333335, "fusion_lat": 0.0, "type": "electric_scooter", "name": "33279a70259d5234ff090f370e8b40a8", "is_disabled": 0, "bike_id": "33279a70259d5234ff090f370e8b40a8", "lon": -77.01230133333334, "rental_uris": {"android": "https://dc.lft.to/lastmile_qr_scan", "ios": "https://dc.lft.to/lastmile_qr_scan"}, "fusion_lon": 0.0, "is_reserved": 0}, {"lat": 38.9023415, "fusion_lat": 0.0, "type": "electric_scooter", "name": "d0e024854f832a5b92ac18a2d074d1af", "is_disabled": 0, "bike_id": "d0e024854f832a5b92ac18a2d074d1af", "lon": -77.04709333333334, "rental_uris": {"android": "https://dc.lft.to/lastmile_qr_scan", "ios": "https://dc.lft.to/lastmile_qr_scan"}, "fusion_lon": 0.0, "is_reserved": 0}, {"lat": 38.876978333333334, "fusion_lat": 0.0, "type": "electric_scooter", "name": "bdcf155238cae49211bb1df0352e4e33", "is_disabled": 0, "bike_id": "bdcf155238cae49211bb1df0352e4e33", "lon": -77.0042025, "rental_uris": {"android": "https://dc.lft.to/lastmile_qr_scan", "ios": "https://dc.lft.to/lastmile_qr_scan"}, "fusion_lon": 0.0, "is_reserved": 0}, {"lat": 38.9086905, "fusion_lat": 0.0, "type": "electric_scooter", "name": "ecdf2ecf463311f0040e377afefaa2fe", "is_disabled": 0, "bike_id": "ecdf2ecf463311f0040e377afefaa2fe", "lon": -77.0715295, "rental_uris": {"android": "https://dc.lft.to/lastmile_qr_scan", "ios": "https://dc.lft.to/lastmile_qr_scan"}, "fusion_lon": 0.0, "is_reserved": 0}, {"lat": 38.845229833333335, "fusion_lat": 0.0, "type": "electric_bike", "name": "ab94e8e3c73e69732f01345adaaeff7d", "is_disabled": 0, "bike_id": "ab94e8e3c73e69732f01345adaaeff7d", "lon": -76.97396816666667, "rental_uris": {"android": "https://dc.lft.to/lastmile_qr_scan", "ios": "https://dc.lft.to/lastmile_qr_scan"}, "fusion_lon": 0.0, "is_reserved": 0}, {"lat": 38.92662716666667, "fusion_lat": 0.0, "type": "electric_scooter", "name": "4178d9b58a55058fe65c367b8a7003e1", "is_disabled": 0, "bike_id": "4178d9b58a55058fe65c367b8a7003e1", "lon": -77.01462383333333, "rental_uris": {"android": "https://dc.lft.to/lastmile_qr_scan", "ios": "https://dc.lft.to/lastmile_qr_scan"}, "fusion_lon": 0.0, "is_reserved": 0}, {"lat": 38.9111595, "fusion_lat": 0.0, "type": "electric_scooter", "name": "6d227ff760063fac40fb7e2be9eb60fb", "is_disabled": 0, "bike_id": "6d227ff760063fac40fb7e2be9eb60fb", "lon": -77.04350966666667, "rental_uris": {"android": "https://dc.lft.to/lastmile_qr_scan", "ios": "https://dc.lft.to/lastmile_qr_scan"}, "fusion_lon": 0.0, "is_reserved": 0}, {"lat": 38.900170833333334, "fusion_lat": 0.0, "type": "electric_scooter", "name": "893e1dc02c5a83d5e063df1e5eb31331", "is_disabled": 0, "bike_id": "893e1dc02c5a83d5e063df1e5eb31331", "lon": -77.02593133333333, "rental_uris": {"android": "https://dc.lft.to/lastmile_qr_scan", "ios": "https://dc.lft.to/lastmile_qr_scan"}, "fusion_lon": 0.0, "is_reserved": 0}, {"lat": 38.89749333333334, "fusion_lat": 0.0, "type": "electric_scooter", "name": "149e022c8efb18c3002c1252afdf26dc", "is_disabled": 0, "bike_id": "149e022c8efb18c3002c1252afdf26dc", "lon": -77.04887533333333, "rental_uris": {"android": "https://dc.lft.to/lastmile_qr_scan", "ios": "https://dc.lft.to/lastmile_qr_scan"}, "fusion_lon": 0.0, "is_reserved": 0}, {"lat": 38.90727666666667, "fusion_lat": 0.0, "type": "electric_scooter", "name": "672a6406cea7fbe4e166d3c2c531d714", "is_disabled": 0, "bike_id": "672a6406cea7fbe4e166d3c2c531d714", "lon": -77.02320466666667, "rental_uris": {"android": "https://dc.lft.to/lastmile_qr_scan", "ios": "https://dc.lft.to/lastmile_qr_scan"}, "fusion_lon": 0.0, "is_reserved": 0}, {"lat": 38.900568166666666, "fusion_lat": 0.0, "type": "electric_scooter", "name": "81fcb5f148c4651058b461572068ef82", "is_disabled": 0, "bike_id": "81fcb5f148c4651058b461572068ef82", "lon": -76.99618816666667, "rental_uris": {"android": "https://dc.lft.to/lastmile_qr_scan", "ios": "https://dc.lft.to/lastmile_qr_scan"}, "fusion_lon": 0.0, "is_reserved": 0}, {"lat": 38.90717016666667, "fusion_lat": 0.0, "type": "electric_scooter", "name": "fa696c4d4c4665792344474fd348d7d5", "is_disabled": 0, "bike_id": "fa696c4d4c4665792344474fd348d7d5", "lon": -77.04258666666666, "rental_uris": {"android": "https://dc.lft.to/lastmile_qr_scan", "ios": "https://dc.lft.to/lastmile_qr_scan"}, "fusion_lon": 0.0, "is_reserved": 0}, {"lat": 38.938615, "fusion_lat": 0.0, "type": "electric_scooter", "name": "ad3e5855cbb6edfbf693cb273d84b81c", "is_disabled": 0, "bike_id": "ad3e5855cbb6edfbf693cb273d84b81c", "lon": -77.02457283333334, "rental_uris": {"android": "https://dc.lft.to/lastmile_qr_scan", "ios": "https://dc.lft.to/lastmile_qr_scan"}, "fusion_lon": 0.0, "is_reserved": 0}, {"lat": 38.9077915, "fusion_lat": 0.0, "type": "electric_scooter", "name": "8cbc173ef6fe81902b8bab70fbc780c9", "is_disabled": 0, "bike_id": "8cbc173ef6fe81902b8bab70fbc780c9", "lon": -77.02975383333333, "rental_uris": {"android": "https://dc.lft.to/lastmile_qr_scan", "ios": "https://dc.lft.to/lastmile_qr_scan"}, "fusion_lon": 0.0, "is_reserved": 0}, {"lat": 38.927344833333336, "fusion_lat": 0.0, "type": "electric_scooter", "name": "554d174a8abb9ddc4f3f4a2c8b64e9e7", "is_disabled": 0, "bike_id": "554d174a8abb9ddc4f3f4a2c8b64e9e7", "lon": -77.03427933333333, "rental_uris": {"android": "https://dc.lft.to/lastmile_qr_scan", "ios": "https://dc.lft.to/lastmile_qr_scan"}, "fusion_lon": 0.0, "is_reserved": 0}, {"lat": 38.9356185, "fusion_lat": 0.0, "type": "electric_bike", "name": "2b37322b21b4972f3c68699fdb164323", "is_disabled": 0, "bike_id": "2b37322b21b4972f3c68699fdb164323", "lon": -77.03697716666667, "rental_uris": {"android": "https://dc.lft.to/lastmile_qr_scan", "ios": "https://dc.lft.to/lastmile_qr_scan"}, "fusion_lon": 0.0, "is_reserved": 0}, {"lat": 38.921821666666666, "fusion_lat": 0.0, "type": "electric_scooter", "name": "00d510040c60bee3e613e952b7a084f2", "is_disabled": 0, "bike_id": "00d510040c60bee3e613e952b7a084f2", "lon": -77.04018716666667, "rental_uris": {"android": "https://dc.lft.to/lastmile_qr_scan", "ios": "https://dc.lft.to/lastmile_qr_scan"}, "fusion_lon": 0.0, "is_reserved": 0}, {"lat": 38.8922255, "fusion_lat": 0.0, "type": "electric_scooter", "name": "4fc9ad139f5e83757ec22ea68de6a90f", "is_disabled": 0, "bike_id": "4fc9ad139f5e83757ec22ea68de6a90f", "lon": -77.02206366666667, "rental_uris": {"android": "https://dc.lft.to/lastmile_qr_scan", "ios": "https://dc.lft.to/lastmile_qr_scan"}, "fusion_lon": 0.0, "is_reserved": 0}, {"lat": 38.901713, "fusion_lat": 0.0, "type": "electric_scooter", "name": "7eb671dad227d9fd8cf6c399fefbb0a8", "is_disabled": 0, "bike_id": "7eb671dad227d9fd8cf6c399fefbb0a8", "lon": -77.047101, "rental_uris": {"android": "https://dc.lft.to/lastmile_qr_scan", "ios": "https://dc.lft.to/lastmile_qr_scan"}, "fusion_lon": 0.0, "is_reserved": 0}, {"lat": 38.91707983333333, "fusion_lat": 0.0, "type": "electric_scooter", "name": "42b82864bf3f23bc2e6dff2116b7c531", "is_disabled": 0, "bike_id": "42b82864bf3f23bc2e6dff2116b7c531", "lon": -77.03475283333333, "rental_uris": {"android": "https://dc.lft.to/lastmile_qr_scan", "ios": "https://dc.lft.to/lastmile_qr_scan"}, "fusion_lon": 0.0, "is_reserved": 0}, {"lat": 38.89667, "fusion_lat": 0.0, "type": "electric_scooter", "name": "f6bf0c0cc282b1ebbc862db0f3b83421", "is_disabled": 0, "bike_id": "f6bf0c0cc282b1ebbc862db0f3b83421", "lon": -76.93209916666666, "rental_uris": {"android": "https://dc.lft.to/lastmile_qr_scan", "ios": "https://dc.lft.to/lastmile_qr_scan"}, "fusion_lon": 0.0, "is_reserved": 0}, {"lat": 38.8997615, "fusion_lat": 0.0, "type": "electric_scooter", "name": "6334be8e63d4c6b06a9e166208903f92", "is_disabled": 0, "bike_id": "6334be8e63d4c6b06a9e166208903f92", "lon": -76.98540616666666, "rental_uris": {"android": "https://dc.lft.to/lastmile_qr_scan", "ios": "https://dc.lft.to/lastmile_qr_scan"}, "fusion_lon": 0.0, "is_reserved": 0}, {"lat": 38.9180765, "fusion_lat": 0.0, "type": "electric_scooter", "name": "cd4c208b6870b4c0e49707d99f2d5244", "is_disabled": 0, "bike_id": "cd4c208b6870b4c0e49707d99f2d5244", "lon": -77.02510266666667, "rental_uris": {"android": "https://dc.lft.to/lastmile_qr_scan", "ios": "https://dc.lft.to/lastmile_qr_scan"}, "fusion_lon": 0.0, "is_reserved": 0}, {"lat": 38.89892183333333, "fusion_lat": 0.0, "type": "electric_scooter", "name": "b1b28fb3b8e79411a83010ab680e5a8b", "is_disabled": 0, "bike_id": "b1b28fb3b8e79411a83010ab680e5a8b", "lon": -77.032753, "rental_uris": {"android": "https://dc.lft.to/lastmile_qr_scan", "ios": "https://dc.lft.to/lastmile_qr_scan"}, "fusion_lon": 0.0, "is_reserved": 0}, {"lat": 38.89729033333333, "fusion_lat": 0.0, "type": "electric_scooter", "name": "2809fdaf493eb9f47fc4175a1379bbeb", "is_disabled": 0, "bike_id": "2809fdaf493eb9f47fc4175a1379bbeb", "lon": -76.947035, "rental_uris": {"android": "https://dc.lft.to/lastmile_qr_scan", "ios": "https://dc.lft.to/lastmile_qr_scan"}, "fusion_lon": 0.0, "is_reserved": 0}, {"lat": 38.93601566666667, "fusion_lat": 0.0, "type": "electric_scooter", "name": "c50de99520195024c116e29a889caa13", "is_disabled": 0, "bike_id": "c50de99520195024c116e29a889caa13", "lon": -77.058572, "rental_uris": {"android": "https://dc.lft.to/lastmile_qr_scan", "ios": "https://dc.lft.to/lastmile_qr_scan"}, "fusion_lon": 0.0, "is_reserved": 0}, {"lat": 38.9012095, "fusion_lat": 0.0, "type": "electric_scooter", "name": "9aa0a6f8280276f6639b42a800c3d37d", "is_disabled": 0, "bike_id": "9aa0a6f8280276f6639b42a800c3d37d", "lon": -77.0499855, "rental_uris": {"android": "https://dc.lft.to/lastmile_qr_scan", "ios": "https://dc.lft.to/lastmile_qr_scan"}, "fusion_lon": 0.0, "is_reserved": 0}, {"lat": 38.90279966666667, "fusion_lat": 0.0, "type": "electric_scooter", "name": "70032d263404761e4124f81ceeacaa42", "is_disabled": 0, "bike_id": "70032d263404761e4124f81ceeacaa42", "lon": -77.03885166666667, "rental_uris": {"android": "https://dc.lft.to/lastmile_qr_scan", "ios": "https://dc.lft.to/lastmile_qr_scan"}, "fusion_lon": 0.0, "is_reserved": 0}, {"lat": 38.86390733333333, "fusion_lat": 0.0, "type": "electric_scooter", "name": "a124683b080a5afb1c7f9cfc9b0adcd7", "is_disabled": 0, "bike_id": "a124683b080a5afb1c7f9cfc9b0adcd7", "lon": -76.99037233333334, "rental_uris": {"android": "https://dc.lft.to/lastmile_qr_scan", "ios": "https://dc.lft.to/lastmile_qr_scan"}, "fusion_lon": 0.0, "is_reserved": 0}, {"lat": 38.98533033333333, "fusion_lat": 0.0, "type": "electric_scooter", "name": "fb3a74baefb807f8560991bd6f6a936e", "is_disabled": 0, "bike_id": "fb3a74baefb807f8560991bd6f6a936e", "lon": -77.0365395, "rental_uris": {"android": "https://dc.lft.to/lastmile_qr_scan", "ios": "https://dc.lft.to/lastmile_qr_scan"}, "fusion_lon": 0.0, "is_reserved": 0}, {"lat": 38.907951833333335, "fusion_lat": 0.0, "type": "electric_scooter", "name": "bd6090eed88bf1ee5da78335cd2db4b2", "is_disabled": 0, "bike_id": "bd6090eed88bf1ee5da78335cd2db4b2", "lon": -76.99233666666666, "rental_uris": {"android": "https://dc.lft.to/lastmile_qr_scan", "ios": "https://dc.lft.to/lastmile_qr_scan"}, "fusion_lon": 0.0, "is_reserved": 0}, {"lat": 39.05111766666667, "fusion_lat": 0.0, "type": "electric_bike", "name": "c54b1bcdd29d4c64d18860fe68ea2f28", "is_disabled": 0, "bike_id": "c54b1bcdd29d4c64d18860fe68ea2f28", "lon": -77.11745883333333, "rental_uris": {"android": "https://dc.lft.to/lastmile_qr_scan", "ios": "https://dc.lft.to/lastmile_qr_scan"}, "fusion_lon": 0.0, "is_reserved": 0}, {"lat": 38.863869333333334, "fusion_lat": 0.0, "type": "electric_scooter", "name": "f76a734d05f4e860c9f6213fce7bb7b0", "is_disabled": 0, "bike_id": "f76a734d05f4e860c9f6213fce7bb7b0", "lon": -76.99040883333333, "rental_uris": {"android": "https://dc.lft.to/lastmile_qr_scan", "ios": "https://dc.lft.to/lastmile_qr_scan"}, "fusion_lon": 0.0, "is_reserved": 0}, {"lat": 38.88397483333333, "fusion_lat": 0.0, "type": "electric_bike", "name": "a8aa3e5a19ae21bf3ace1dc93ba709e8", "is_disabled": 0, "bike_id": "a8aa3e5a19ae21bf3ace1dc93ba709e8", "lon": -76.9605455, "rental_uris": {"android": "https://dc.lft.to/lastmile_qr_scan", "ios": "https://dc.lft.to/lastmile_qr_scan"}, "fusion_lon": 0.0, "is_reserved": 0}, {"lat": 38.922365, "fusion_lat": 0.0, "type": "electric_scooter", "name": "9c74aa30f1979151a2f93a42963c9b0c", "is_disabled": 0, "bike_id": "9c74aa30f1979151a2f93a42963c9b0c", "lon": -77.03659616666667, "rental_uris": {"android": "https://dc.lft.to/lastmile_qr_scan", "ios": "https://dc.lft.to/lastmile_qr_scan"}, "fusion_lon": 0.0, "is_reserved": 0}, {"lat": 38.91564, "fusion_lat": 0.0, "type": "electric_scooter", "name": "691497a1ea833f3bf5a74683d8713453", "is_disabled": 0, "bike_id": "691497a1ea833f3bf5a74683d8713453", "lon": -77.01193066666667, "rental_uris": {"android": "https://dc.lft.to/lastmile_qr_scan", "ios": "https://dc.lft.to/lastmile_qr_scan"}, "fusion_lon": 0.0, "is_reserved": 0}, {"lat": 38.93418583333333, "fusion_lat": 0.0, "type": "electric_scooter", "name": "9d9696a18f5aa88eb037b8619ce4e3fb", "is_disabled": 0, "bike_id": "9d9696a18f5aa88eb037b8619ce4e3fb", "lon": -77.04406066666667, "rental_uris": {"android": "https://dc.lft.to/lastmile_qr_scan", "ios": "https://dc.lft.to/lastmile_qr_scan"}, "fusion_lon": 0.0, "is_reserved": 0}, {"lat": 38.88488666666667, "fusion_lat": 0.0, "type": "electric_scooter", "name": "8825c0b7e914bc61fb743d93336238fc", "is_disabled": 0, "bike_id": "8825c0b7e914bc61fb743d93336238fc", "lon": -77.00718083333334, "rental_uris": {"android": "https://dc.lft.to/lastmile_qr_scan", "ios": "https://dc.lft.to/lastmile_qr_scan"}, "fusion_lon": 0.0, "is_reserved": 0}, {"lat": 38.909606833333335, "fusion_lat": 0.0, "type": "electric_bike", "name": "051437504046b54d7b866837a2975327", "is_disabled": 0, "bike_id": "051437504046b54d7b866837a2975327", "lon": -77.2289125, "rental_uris": {"android": "https://dc.lft.to/lastmile_qr_scan", "ios": "https://dc.lft.to/lastmile_qr_scan"}, "fusion_lon": 0.0, "is_reserved": 0}, {"lat": 38.86650216666666, "fusion_lat": 0.0, "type": "electric_scooter", "name": "1fabe0548a7d8904498e24559d97c86a", "is_disabled": 0, "bike_id": "1fabe0548a7d8904498e24559d97c86a", "lon": -76.98880383333334, "rental_uris": {"android": "https://dc.lft.to/lastmile_qr_scan", "ios": "https://dc.lft.to/lastmile_qr_scan"}, "fusion_lon": 0.0, "is_reserved": 0}, {"lat": 38.923810833333334, "fusion_lat": 0.0, "type": "electric_scooter", "name": "43976e81df4af686bbb07441eb1d6f47", "is_disabled": 0, "bike_id": "43976e81df4af686bbb07441eb1d6f47", "lon": -77.03096516666666, "rental_uris": {"android": "https://dc.lft.to/lastmile_qr_scan", "ios": "https://dc.lft.to/lastmile_qr_scan"}, "fusion_lon": 0.0, "is_reserved": 0}, {"lat": 38.8938345, "fusion_lat": 0.0, "type": "electric_scooter", "name": "02eb20495f87a656ac66d292d5043d36", "is_disabled": 0, "bike_id": "02eb20495f87a656ac66d292d5043d36", "lon": -77.0225105, "rental_uris": {"android": "https://dc.lft.to/lastmile_qr_scan", "ios": "https://dc.lft.to/lastmile_qr_scan"}, "fusion_lon": 0.0, "is_reserved": 0}, {"lat": 38.963911, "fusion_lat": 0.0, "type": "electric_scooter", "name": "049ec4dfea187c5c412e13112f715631", "is_disabled": 0, "bike_id": "049ec4dfea187c5c412e13112f715631", "lon": -77.02590833333333, "rental_uris": {"android": "https://dc.lft.to/lastmile_qr_scan", "ios": "https://dc.lft.to/lastmile_qr_scan"}, "fusion_lon": 0.0, "is_reserved": 0}, {"lat": 38.916976166666664, "fusion_lat": 0.0, "type": "electric_scooter", "name": "c2ecc60b728cb3921331f882b0ca3020", "is_disabled": 0, "bike_id": "c2ecc60b728cb3921331f882b0ca3020", "lon": -77.03492783333333, "rental_uris": {"android": "https://dc.lft.to/lastmile_qr_scan", "ios": "https://dc.lft.to/lastmile_qr_scan"}, "fusion_lon": 0.0, "is_reserved": 0}, {"lat": 38.921671, "fusion_lat": 0.0, "type": "electric_scooter", "name": "f83d17c8d3229d2fa6951f587cf665bc", "is_disabled": 0, "bike_id": "f83d17c8d3229d2fa6951f587cf665bc", "lon": -77.03837533333333, "rental_uris": {"android": "https://dc.lft.to/lastmile_qr_scan", "ios": "https://dc.lft.to/lastmile_qr_scan"}, "fusion_lon": 0.0, "is_reserved": 0}, {"lat": 38.936032166666664, "fusion_lat": 0.0, "type": "electric_scooter", "name": "ceea5db12f435b0af5413e96eca4a224", "is_disabled": 0, "bike_id": "ceea5db12f435b0af5413e96eca4a224", "lon": -77.05860266666667, "rental_uris": {"android": "https://dc.lft.to/lastmile_qr_scan", "ios": "https://dc.lft.to/lastmile_qr_scan"}, "fusion_lon": 0.0, "is_reserved": 0}, {"lat": 38.92359233333333, "fusion_lat": 0.0, "type": "electric_scooter", "name": "1b5f685eb05f1e17323f4dc92e3f4b95", "is_disabled": 0, "bike_id": "1b5f685eb05f1e17323f4dc92e3f4b95", "lon": -77.05128966666666, "rental_uris": {"android": "https://dc.lft.to/lastmile_qr_scan", "ios": "https://dc.lft.to/lastmile_qr_scan"}, "fusion_lon": 0.0, "is_reserved": 0}, {"lat": 38.90637783333333, "fusion_lat": 0.0, "type": "electric_scooter", "name": "4995b9c0e96525db8a01622b3fa89976", "is_disabled": 0, "bike_id": "4995b9c0e96525db8a01622b3fa89976", "lon": -77.02965983333333, "rental_uris": {"android": "https://dc.lft.to/lastmile_qr_scan", "ios": "https://dc.lft.to/lastmile_qr_scan"}, "fusion_lon": 0.0, "is_reserved": 0}, {"lat": 38.91996866666667, "fusion_lat": 0.0, "type": "electric_scooter", "name": "f7313899483b5782888a55a470c9e826", "is_disabled": 0, "bike_id": "f7313899483b5782888a55a470c9e826", "lon": -77.02206383333333, "rental_uris": {"android": "https://dc.lft.to/lastmile_qr_scan", "ios": "https://dc.lft.to/lastmile_qr_scan"}, "fusion_lon": 0.0, "is_reserved": 0}, {"lat": 38.898435, "fusion_lat": 0.0, "type": "electric_scooter", "name": "87f84737ba9ae61964341681d3a2d4dd", "is_disabled": 0, "bike_id": "87f84737ba9ae61964341681d3a2d4dd", "lon": -76.97826333333333, "rental_uris": {"android": "https://dc.lft.to/lastmile_qr_scan", "ios": "https://dc.lft.to/lastmile_qr_scan"}, "fusion_lon": 0.0, "is_reserved": 0}, {"lat": 38.89750983333333, "fusion_lat": 0.0, "type": "electric_scooter", "name": "04cdfe88b5ee17bac738d6808ce8ec47", "is_disabled": 0, "bike_id": "04cdfe88b5ee17bac738d6808ce8ec47", "lon": -77.04889483333334, "rental_uris": {"android": "https://dc.lft.to/lastmile_qr_scan", "ios": "https://dc.lft.to/lastmile_qr_scan"}, "fusion_lon": 0.0, "is_reserved": 0}, {"lat": 38.923561, "fusion_lat": 0.0, "type": "electric_scooter", "name": "e7fbc96d733759618fe344c99645de93", "is_disabled": 0, "bike_id": "e7fbc96d733759618fe344c99645de93", "lon": -77.03383966666667, "rental_uris": {"android": "https://dc.lft.to/lastmile_qr_scan", "ios": "https://dc.lft.to/lastmile_qr_scan"}, "fusion_lon": 0.0, "is_reserved": 0}, {"lat": 38.8982965, "fusion_lat": 0.0, "type": "electric_scooter", "name": "00e327d2bcaaa92c4acb953788e67382", "is_disabled": 0, "bike_id": "00e327d2bcaaa92c4acb953788e67382", "lon": -77.03330766666667, "rental_uris": {"android": "https://dc.lft.to/lastmile_qr_scan", "ios": "https://dc.lft.to/lastmile_qr_scan"}, "fusion_lon": 0.0, "is_reserved": 0}, {"lat": 38.82172666666666, "fusion_lat": 0.0, "type": "electric_bike", "name": "8c1ae05e5784df28c525eef6a007a125", "is_disabled": 0, "bike_id": "8c1ae05e5784df28c525eef6a007a125", "lon": -76.995156, "rental_uris": {"android": "https://dc.lft.to/lastmile_qr_scan", "ios": "https://dc.lft.to/lastmile_qr_scan"}, "fusion_lon": 0.0, "is_reserved": 0}, {"lat": 38.942886333333334, "fusion_lat": 0.0, "type": "electric_scooter", "name": "a643fb9dd67929e6c0440c0f71b2f211", "is_disabled": 0, "bike_id": "a643fb9dd67929e6c0440c0f71b2f211", "lon": -77.02171016666667, "rental_uris": {"android": "https://dc.lft.to/lastmile_qr_scan", "ios": "https://dc.lft.to/lastmile_qr_scan"}, "fusion_lon": 0.0, "is_reserved": 0}, {"lat": 38.920457, "fusion_lat": 0.0, "type": "electric_scooter", "name": "d9649c35f4694ba9ca664587a29a06bd", "is_disabled": 0, "bike_id": "d9649c35f4694ba9ca664587a29a06bd", "lon": -77.016707, "rental_uris": {"android": "https://dc.lft.to/lastmile_qr_scan", "ios": "https://dc.lft.to/lastmile_qr_scan"}, "fusion_lon": 0.0, "is_reserved": 0}, {"lat": 38.899591, "fusion_lat": 0.0, "type": "electric_scooter", "name": "554e71e5d82ebcac1db8eb68243f4428", "is_disabled": 0, "bike_id": "554e71e5d82ebcac1db8eb68243f4428", "lon": -77.04477166666666, "rental_uris": {"android": "https://dc.lft.to/lastmile_qr_scan", "ios": "https://dc.lft.to/lastmile_qr_scan"}, "fusion_lon": 0.0, "is_reserved": 0}, {"lat": 38.91947616666667, "fusion_lat": 0.0, "type": "electric_scooter", "name": "2456f1e3ef371fa35f66f3413182fda5", "is_disabled": 0, "bike_id": "2456f1e3ef371fa35f66f3413182fda5", "lon": -77.02376966666667, "rental_uris": {"android": "https://dc.lft.to/lastmile_qr_scan", "ios": "https://dc.lft.to/lastmile_qr_scan"}, "fusion_lon": 0.0, "is_reserved": 0}, {"lat": 38.9002015, "fusion_lat": 0.0, "type": "electric_scooter", "name": "0f1e18ed6e49b3b274c846374ab07d46", "is_disabled": 0, "bike_id": "0f1e18ed6e49b3b274c846374ab07d46", "lon": -77.0328965, "rental_uris": {"android": "https://dc.lft.to/lastmile_qr_scan", "ios": "https://dc.lft.to/lastmile_qr_scan"}, "fusion_lon": 0.0, "is_reserved": 0}, {"lat": 38.917765833333334, "fusion_lat": 0.0, "type": "electric_scooter", "name": "679f9e60dfc541d6ad268727b0153395", "is_disabled": 0, "bike_id": "679f9e60dfc541d6ad268727b0153395", "lon": -77.0321655, "rental_uris": {"android": "https://dc.lft.to/lastmile_qr_scan", "ios": "https://dc.lft.to/lastmile_qr_scan"}, "fusion_lon": 0.0, "is_reserved": 0}, {"lat": 38.94895266666666, "fusion_lat": 0.0, "type": "electric_bike", "name": "e33775ffeef6faac3920495eb8ead2a0", "is_disabled": 0, "bike_id": "e33775ffeef6faac3920495eb8ead2a0", "lon": -76.96375316666666, "rental_uris": {"android": "https://dc.lft.to/lastmile_qr_scan", "ios": "https://dc.lft.to/lastmile_qr_scan"}, "fusion_lon": 0.0, "is_reserved": 0}, {"lat": 38.884155666666665, "fusion_lat": 0.0, "type": "electric_scooter", "name": "faacfc1e77e4847f997fa9e243c7a7d4", "is_disabled": 0, "bike_id": "faacfc1e77e4847f997fa9e243c7a7d4", "lon": -76.99694583333333, "rental_uris": {"android": "https://dc.lft.to/lastmile_qr_scan", "ios": "https://dc.lft.to/lastmile_qr_scan"}, "fusion_lon": 0.0, "is_reserved": 0}, {"lat": 38.921476, "fusion_lat": 0.0, "type": "electric_scooter", "name": "4213604f9859df3bb9fbb2336a39b901", "is_disabled": 0, "bike_id": "4213604f9859df3bb9fbb2336a39b901", "lon": -77.02079266666667, "rental_uris": {"android": "https://dc.lft.to/lastmile_qr_scan", "ios": "https://dc.lft.to/lastmile_qr_scan"}, "fusion_lon": 0.0, "is_reserved": 0}, {"lat": 38.921221, "fusion_lat": 0.0, "type": "electric_scooter", "name": "e5360a4f58b035ada175b1acf431e023", "is_disabled": 0, "bike_id": "e5360a4f58b035ada175b1acf431e023", "lon": -77.0434865, "rental_uris": {"android": "https://dc.lft.to/lastmile_qr_scan", "ios": "https://dc.lft.to/lastmile_qr_scan"}, "fusion_lon": 0.0, "is_reserved": 0}, {"lat": 38.918039666666665, "fusion_lat": 0.0, "type": "electric_scooter", "name": "2c4650766d031487c4e06decebcca262", "is_disabled": 0, "bike_id": "2c4650766d031487c4e06decebcca262", "lon": -77.03698266666666, "rental_uris": {"android": "https://dc.lft.to/lastmile_qr_scan", "ios": "https://dc.lft.to/lastmile_qr_scan"}, "fusion_lon": 0.0, "is_reserved": 0}, {"lat": 38.846413, "fusion_lat": 0.0, "type": "electric_scooter", "name": "0c18ef5b2f50b9d041313e4049d8a98a", "is_disabled": 0, "bike_id": "0c18ef5b2f50b9d041313e4049d8a98a", "lon": -76.991322, "rental_uris": {"android": "https://dc.lft.to/lastmile_qr_scan", "ios": "https://dc.lft.to/lastmile_qr_scan"}, "fusion_lon": 0.0, "is_reserved": 0}, {"lat": 38.86688766666666, "fusion_lat": 0.0, "type": "electric_scooter", "name": "8fc483a5d916c2dde3f14d6ca78000ba", "is_disabled": 0, "bike_id": "8fc483a5d916c2dde3f14d6ca78000ba", "lon": -76.98542816666667, "rental_uris": {"android": "https://dc.lft.to/lastmile_qr_scan", "ios": "https://dc.lft.to/lastmile_qr_scan"}, "fusion_lon": 0.0, "is_reserved": 0}, {"lat": 38.89941733333333, "fusion_lat": 0.0, "type": "electric_scooter", "name": "c70caa3c00932b8618ae779c9c469aab", "is_disabled": 0, "bike_id": "c70caa3c00932b8618ae779c9c469aab", "lon": -76.9972835, "rental_uris": {"android": "https://dc.lft.to/lastmile_qr_scan", "ios": "https://dc.lft.to/lastmile_qr_scan"}, "fusion_lon": 0.0, "is_reserved": 0}, {"lat": 38.909503, "fusion_lat": 0.0, "type": "electric_scooter", "name": "f19bcda637a2e4cd427a925f67da5431", "is_disabled": 0, "bike_id": "f19bcda637a2e4cd427a925f67da5431", "lon": -77.04760666666667, "rental_uris": {"android": "https://dc.lft.to/lastmile_qr_scan", "ios": "https://dc.lft.to/lastmile_qr_scan"}, "fusion_lon": 0.0, "is_reserved": 0}, {"lat": 38.898261, "fusion_lat": 0.0, "type": "electric_scooter", "name": "511254837ff005f302aa502952360afb", "is_disabled": 0, "bike_id": "511254837ff005f302aa502952360afb", "lon": -76.94633866666666, "rental_uris": {"android": "https://dc.lft.to/lastmile_qr_scan", "ios": "https://dc.lft.to/lastmile_qr_scan"}, "fusion_lon": 0.0, "is_reserved": 0}, {"lat": 38.877172333333334, "fusion_lat": 0.0, "type": "electric_scooter", "name": "fc4ab2cb543db2ffc606fb6d5f0f4625", "is_disabled": 0, "bike_id": "fc4ab2cb543db2ffc606fb6d5f0f4625", "lon": -77.01766466666666, "rental_uris": {"android": "https://dc.lft.to/lastmile_qr_scan", "ios": "https://dc.lft.to/lastmile_qr_scan"}, "fusion_lon": 0.0, "is_reserved": 0}, {"lat": 38.881204333333336, "fusion_lat": 0.0, "type": "electric_scooter", "name": "0b999aa3516841264e73b7b42b12f93e", "is_disabled": 0, "bike_id": "0b999aa3516841264e73b7b42b12f93e", "lon": -77.0164045, "rental_uris": {"android": "https://dc.lft.to/lastmile_qr_scan", "ios": "https://dc.lft.to/lastmile_qr_scan"}, "fusion_lon": 0.0, "is_reserved": 0}, {"lat": 38.91960866666667, "fusion_lat": 0.0, "type": "electric_scooter", "name": "8e440af8ba32ed146c2bdcfe218d9d51", "is_disabled": 0, "bike_id": "8e440af8ba32ed146c2bdcfe218d9d51", "lon": -77.023843, "rental_uris": {"android": "https://dc.lft.to/lastmile_qr_scan", "ios": "https://dc.lft.to/lastmile_qr_scan"}, "fusion_lon": 0.0, "is_reserved": 0}, {"lat": 38.9039525, "fusion_lat": 0.0, "type": "electric_scooter", "name": "4995bd225832c8f6718ea50e74dbc521", "is_disabled": 0, "bike_id": "4995bd225832c8f6718ea50e74dbc521", "lon": -77.02667116666667, "rental_uris": {"android": "https://dc.lft.to/lastmile_qr_scan", "ios": "https://dc.lft.to/lastmile_qr_scan"}, "fusion_lon": 0.0, "is_reserved": 0}, {"lat": 38.9416155, "fusion_lat": 0.0, "type": "electric_scooter", "name": "15487e51809c0be71cfbc218802fe5bc", "is_disabled": 0, "bike_id": "15487e51809c0be71cfbc218802fe5bc", "lon": -77.02556983333334, "rental_uris": {"android": "https://dc.lft.to/lastmile_qr_scan", "ios": "https://dc.lft.to/lastmile_qr_scan"}, "fusion_lon": 0.0, "is_reserved": 0}, {"lat": 38.85245366666667, "fusion_lat": 0.0, "type": "electric_bike", "name": "e36d9b8da4c55f34aca94b5c8b6efcd1", "is_disabled": 0, "bike_id": "e36d9b8da4c55f34aca94b5c8b6efcd1", "lon": -77.107862, "rental_uris": {"android": "https://dc.lft.to/lastmile_qr_scan", "ios": "https://dc.lft.to/lastmile_qr_scan"}, "fusion_lon": 0.0, "is_reserved": 0}, {"lat": 38.91571233333333, "fusion_lat": 0.0, "type": "electric_scooter", "name": "b1fbdeabdcb96c5e5ee3ce5782bbfebe", "is_disabled": 0, "bike_id": "b1fbdeabdcb96c5e5ee3ce5782bbfebe", "lon": -77.01999416666666, "rental_uris": {"android": "https://dc.lft.to/lastmile_qr_scan", "ios": "https://dc.lft.to/lastmile_qr_scan"}, "fusion_lon": 0.0, "is_reserved": 0}, {"lat": 38.90884116666667, "fusion_lat": 0.0, "type": "electric_scooter", "name": "91077f95575a1fcdc2dae668dcfa3669", "is_disabled": 0, "bike_id": "91077f95575a1fcdc2dae668dcfa3669", "lon": -76.99776083333333, "rental_uris": {"android": "https://dc.lft.to/lastmile_qr_scan", "ios": "https://dc.lft.to/lastmile_qr_scan"}, "fusion_lon": 0.0, "is_reserved": 0}, {"lat": 38.903307833333336, "fusion_lat": 0.0, "type": "electric_scooter", "name": "50a7958c0049f63e8bd0ee060e4f2502", "is_disabled": 0, "bike_id": "50a7958c0049f63e8bd0ee060e4f2502", "lon": -77.03838566666667, "rental_uris": {"android": "https://dc.lft.to/lastmile_qr_scan", "ios": "https://dc.lft.to/lastmile_qr_scan"}, "fusion_lon": 0.0, "is_reserved": 0}, {"lat": 38.896113166666666, "fusion_lat": 0.0, "type": "electric_scooter", "name": "5c9694b76246f5df2552dfdf80e92334", "is_disabled": 0, "bike_id": "5c9694b76246f5df2552dfdf80e92334", "lon": -76.9477675, "rental_uris": {"android": "https://dc.lft.to/lastmile_qr_scan", "ios": "https://dc.lft.to/lastmile_qr_scan"}, "fusion_lon": 0.0, "is_reserved": 0}, {"lat": 38.906866, "fusion_lat": 0.0, "type": "electric_scooter", "name": "41d1a5bea6b414b3344b2b8a6aa59701", "is_disabled": 0, "bike_id": "41d1a5bea6b414b3344b2b8a6aa59701", "lon": -77.03809616666666, "rental_uris": {"android": "https://dc.lft.to/lastmile_qr_scan", "ios": "https://dc.lft.to/lastmile_qr_scan"}, "fusion_lon": 0.0, "is_reserved": 0}, {"lat": 38.88314666666667, "fusion_lat": 0.0, "type": "electric_bike", "name": "97b0a0645819d2acbc30c09ce312ce97", "is_disabled": 0, "bike_id": "97b0a0645819d2acbc30c09ce312ce97", "lon": -76.91094483333333, "rental_uris": {"android": "https://dc.lft.to/lastmile_qr_scan", "ios": "https://dc.lft.to/lastmile_qr_scan"}, "fusion_lon": 0.0, "is_reserved": 0}, {"lat": 38.892378, "fusion_lat": 0.0, "type": "electric_scooter", "name": "dc5b998a9770b7ba4121d8f60a07f548", "is_disabled": 0, "bike_id": "dc5b998a9770b7ba4121d8f60a07f548", "lon": -77.03189733333333, "rental_uris": {"android": "https://dc.lft.to/lastmile_qr_scan", "ios": "https://dc.lft.to/lastmile_qr_scan"}, "fusion_lon": 0.0, "is_reserved": 0}, {"lat": 38.91709066666667, "fusion_lat": 0.0, "type": "electric_scooter", "name": "770397cd5f55350f651cdcf6dc2a00d6", "is_disabled": 0, "bike_id": "770397cd5f55350f651cdcf6dc2a00d6", "lon": -77.02792733333334, "rental_uris": {"android": "https://dc.lft.to/lastmile_qr_scan", "ios": "https://dc.lft.to/lastmile_qr_scan"}, "fusion_lon": 0.0, "is_reserved": 0}, {"lat": 38.883005833333335, "fusion_lat": 0.0, "type": "electric_scooter", "name": "cd67f2d85dcc5e857102f2f706973d40", "is_disabled": 0, "bike_id": "cd67f2d85dcc5e857102f2f706973d40", "lon": -76.94855533333333, "rental_uris": {"android": "https://dc.lft.to/lastmile_qr_scan", "ios": "https://dc.lft.to/lastmile_qr_scan"}, "fusion_lon": 0.0, "is_reserved": 0}, {"lat": 38.892342166666666, "fusion_lat": 0.0, "type": "electric_scooter", "name": "a5409e40a2f6cbc0f8d61a0dae207a11", "is_disabled": 0, "bike_id": "a5409e40a2f6cbc0f8d61a0dae207a11", "lon": -77.041613, "rental_uris": {"android": "https://dc.lft.to/lastmile_qr_scan", "ios": "https://dc.lft.to/lastmile_qr_scan"}, "fusion_lon": 0.0, "is_reserved": 0}, {"lat": 38.920939833333335, "fusion_lat": 0.0, "type": "electric_scooter", "name": "33345d5a841e0d6998a9b5cfc26e48f4", "is_disabled": 0, "bike_id": "33345d5a841e0d6998a9b5cfc26e48f4", "lon": -77.04702716666667, "rental_uris": {"android": "https://dc.lft.to/lastmile_qr_scan", "ios": "https://dc.lft.to/lastmile_qr_scan"}, "fusion_lon": 0.0, "is_reserved": 0}, {"lat": 38.9141475, "fusion_lat": 0.0, "type": "electric_scooter", "name": "214a8f224998d8777cbd6083b77b6304", "is_disabled": 0, "bike_id": "214a8f224998d8777cbd6083b77b6304", "lon": -77.03175816666666, "rental_uris": {"android": "https://dc.lft.to/lastmile_qr_scan", "ios": "https://dc.lft.to/lastmile_qr_scan"}, "fusion_lon": 0.0, "is_reserved": 0}, {"lat": 38.885103, "fusion_lat": 0.0, "type": "electric_bike", "name": "fe0e2ad83516a23911402da6dcba9210", "is_disabled": 0, "bike_id": "fe0e2ad83516a23911402da6dcba9210", "lon": -76.95173466666667, "rental_uris": {"android": "https://dc.lft.to/lastmile_qr_scan", "ios": "https://dc.lft.to/lastmile_qr_scan"}, "fusion_lon": 0.0, "is_reserved": 0}, {"lat": 38.8650035, "fusion_lat": 0.0, "type": "electric_scooter", "name": "d15506cdfc6e3a2c7d39fcf46ed05b30", "is_disabled": 0, "bike_id": "d15506cdfc6e3a2c7d39fcf46ed05b30", "lon": -76.99003016666667, "rental_uris": {"android": "https://dc.lft.to/lastmile_qr_scan", "ios": "https://dc.lft.to/lastmile_qr_scan"}, "fusion_lon": 0.0, "is_reserved": 0}, {"lat": 38.900569, "fusion_lat": 0.0, "type": "electric_scooter", "name": "66c3d64261e9596680cfe1ff82eb9cfa", "is_disabled": 0, "bike_id": "66c3d64261e9596680cfe1ff82eb9cfa", "lon": -77.05328566666667, "rental_uris": {"android": "https://dc.lft.to/lastmile_qr_scan", "ios": "https://dc.lft.to/lastmile_qr_scan"}, "fusion_lon": 0.0, "is_reserved": 0}, {"lat": 38.920556833333336, "fusion_lat": 0.0, "type": "electric_bike", "name": "5d685242c9e4e9d413578348180cfdf7", "is_disabled": 0, "bike_id": "5d685242c9e4e9d413578348180cfdf7", "lon": -77.03314, "rental_uris": {"android": "https://dc.lft.to/lastmile_qr_scan", "ios": "https://dc.lft.to/lastmile_qr_scan"}, "fusion_lon": 0.0, "is_reserved": 0}, {"lat": 38.911108666666664, "fusion_lat": 0.0, "type": "electric_scooter", "name": "b378b694b1663ce7b4aad50fffb5c921", "is_disabled": 0, "bike_id": "b378b694b1663ce7b4aad50fffb5c921", "lon": -77.0189555, "rental_uris": {"android": "https://dc.lft.to/lastmile_qr_scan", "ios": "https://dc.lft.to/lastmile_qr_scan"}, "fusion_lon": 0.0, "is_reserved": 0}, {"lat": 38.91515183333333, "fusion_lat": 0.0, "type": "electric_scooter", "name": "c56594140b38dbee49a8b9a247c0a09b", "is_disabled": 0, "bike_id": "c56594140b38dbee49a8b9a247c0a09b", "lon": -77.04596416666666, "rental_uris": {"android": "https://dc.lft.to/lastmile_qr_scan", "ios": "https://dc.lft.to/lastmile_qr_scan"}, "fusion_lon": 0.0, "is_reserved": 0}, {"lat": 38.89611816666667, "fusion_lat": 0.0, "type": "electric_scooter", "name": "af1abe2012729bc99162eb4ed186443b", "is_disabled": 0, "bike_id": "af1abe2012729bc99162eb4ed186443b", "lon": -77.021922, "rental_uris": {"android": "https://dc.lft.to/lastmile_qr_scan", "ios": "https://dc.lft.to/lastmile_qr_scan"}, "fusion_lon": 0.0, "is_reserved": 0}, {"lat": 38.913639, "fusion_lat": 0.0, "type": "electric_scooter", "name": "041103fa7b8e9481abef96a2647a1103", "is_disabled": 0, "bike_id": "041103fa7b8e9481abef96a2647a1103", "lon": -77.0320935, "rental_uris": {"android": "https://dc.lft.to/lastmile_qr_scan", "ios": "https://dc.lft.to/lastmile_qr_scan"}, "fusion_lon": 0.0, "is_reserved": 0}, {"lat": 38.9156945, "fusion_lat": 0.0, "type": "electric_scooter", "name": "2dc698c57e7281223684c46b51bbd42a", "is_disabled": 0, "bike_id": "2dc698c57e7281223684c46b51bbd42a", "lon": -77.02001033333333, "rental_uris": {"android": "https://dc.lft.to/lastmile_qr_scan", "ios": "https://dc.lft.to/lastmile_qr_scan"}, "fusion_lon": 0.0, "is_reserved": 0}, {"lat": 38.89826383333333, "fusion_lat": 0.0, "type": "electric_scooter", "name": "d17705bb79c785e81129216329a81178", "is_disabled": 0, "bike_id": "d17705bb79c785e81129216329a81178", "lon": -77.04684083333333, "rental_uris": {"android": "https://dc.lft.to/lastmile_qr_scan", "ios": "https://dc.lft.to/lastmile_qr_scan"}, "fusion_lon": 0.0, "is_reserved": 0}, {"lat": 38.923049666666664, "fusion_lat": 0.0, "type": "electric_scooter", "name": "7564114b30404e82aa1b348a9920a918", "is_disabled": 0, "bike_id": "7564114b30404e82aa1b348a9920a918", "lon": -77.042265, "rental_uris": {"android": "https://dc.lft.to/lastmile_qr_scan", "ios": "https://dc.lft.to/lastmile_qr_scan"}, "fusion_lon": 0.0, "is_reserved": 0}, {"lat": 38.914146333333335, "fusion_lat": 0.0, "type": "electric_scooter", "name": "5ac4fc1b4f7d1f0b50c13945dff7718e", "is_disabled": 0, "bike_id": "5ac4fc1b4f7d1f0b50c13945dff7718e", "lon": -77.02219116666667, "rental_uris": {"android": "https://dc.lft.to/lastmile_qr_scan", "ios": "https://dc.lft.to/lastmile_qr_scan"}, "fusion_lon": 0.0, "is_reserved": 0}, {"lat": 38.89962833333333, "fusion_lat": 0.0, "type": "electric_scooter", "name": "b1d6f6af8d915e34cd7e908884a81733", "is_disabled": 0, "bike_id": "b1d6f6af8d915e34cd7e908884a81733", "lon": -77.0466135, "rental_uris": {"android": "https://dc.lft.to/lastmile_qr_scan", "ios": "https://dc.lft.to/lastmile_qr_scan"}, "fusion_lon": 0.0, "is_reserved": 0}, {"lat": 38.912413, "fusion_lat": 0.0, "type": "electric_scooter", "name": "6f654c88492ce7c322e6fbfdfcdafa29", "is_disabled": 0, "bike_id": "6f654c88492ce7c322e6fbfdfcdafa29", "lon": -77.036017, "rental_uris": {"android": "https://dc.lft.to/lastmile_qr_scan", "ios": "https://dc.lft.to/lastmile_qr_scan"}, "fusion_lon": 0.0, "is_reserved": 0}, {"lat": 38.873766, "fusion_lat": 0.0, "type": "electric_scooter", "name": "4c30e3005d605d4d969a915cadc62f56", "is_disabled": 0, "bike_id": "4c30e3005d605d4d969a915cadc62f56", "lon": -77.001067, "rental_uris": {"android": "https://dc.lft.to/lastmile_qr_scan", "ios": "https://dc.lft.to/lastmile_qr_scan"}, "fusion_lon": 0.0, "is_reserved": 0}, {"lat": 38.92416583333333, "fusion_lat": 0.0, "type": "electric_scooter", "name": "e09c4711626f625d022c05fd68ce5b9c", "is_disabled": 0, "bike_id": "e09c4711626f625d022c05fd68ce5b9c", "lon": -77.01941766666667, "rental_uris": {"android": "https://dc.lft.to/lastmile_qr_scan", "ios": "https://dc.lft.to/lastmile_qr_scan"}, "fusion_lon": 0.0, "is_reserved": 0}, {"lat": 38.911940333333334, "fusion_lat": 0.0, "type": "electric_scooter", "name": "3d960187f0cdab9e2eac5a8e2282a5b5", "is_disabled": 0, "bike_id": "3d960187f0cdab9e2eac5a8e2282a5b5", "lon": -77.04543016666666, "rental_uris": {"android": "https://dc.lft.to/lastmile_qr_scan", "ios": "https://dc.lft.to/lastmile_qr_scan"}, "fusion_lon": 0.0, "is_reserved": 0}, {"lat": 38.9252885, "fusion_lat": 0.0, "type": "electric_scooter", "name": "d156ae5081c5aa311f6d8877024d80f1", "is_disabled": 0, "bike_id": "d156ae5081c5aa311f6d8877024d80f1", "lon": -77.035257, "rental_uris": {"android": "https://dc.lft.to/lastmile_qr_scan", "ios": "https://dc.lft.to/lastmile_qr_scan"}, "fusion_lon": 0.0, "is_reserved": 0}, {"lat": 38.943228166666664, "fusion_lat": 0.0, "type": "electric_scooter", "name": "78b9d6e7650a9e7d978d63efd6d2cb0d", "is_disabled": 0, "bike_id": "78b9d6e7650a9e7d978d63efd6d2cb0d", "lon": -77.0765395, "rental_uris": {"android": "https://dc.lft.to/lastmile_qr_scan", "ios": "https://dc.lft.to/lastmile_qr_scan"}, "fusion_lon": 0.0, "is_reserved": 0}, {"lat": 38.90118183333333, "fusion_lat": 0.0, "type": "electric_scooter", "name": "2ac0a12f67af6aff202dabcf49293f22", "is_disabled": 0, "bike_id": "2ac0a12f67af6aff202dabcf49293f22", "lon": -77.0281075, "rental_uris": {"android": "https://dc.lft.to/lastmile_qr_scan", "ios": "https://dc.lft.to/lastmile_qr_scan"}, "fusion_lon": 0.0, "is_reserved": 0}, {"lat": 38.863362333333335, "fusion_lat": 0.0, "type": "electric_bike", "name": "88c9ba2a6cf50beaeac067a8fb00b602", "is_disabled": 0, "bike_id": "88c9ba2a6cf50beaeac067a8fb00b602", "lon": -77.08921816666667, "rental_uris": {"android": "https://dc.lft.to/lastmile_qr_scan", "ios": "https://dc.lft.to/lastmile_qr_scan"}, "fusion_lon": 0.0, "is_reserved": 0}, {"lat": 38.9196875, "fusion_lat": 0.0, "type": "electric_scooter", "name": "828f5dab0ab89d619052b36aa6c91b25", "is_disabled": 0, "bike_id": "828f5dab0ab89d619052b36aa6c91b25", "lon": -77.04145233333334, "rental_uris": {"android": "https://dc.lft.to/lastmile_qr_scan", "ios": "https://dc.lft.to/lastmile_qr_scan"}, "fusion_lon": 0.0, "is_reserved": 0}, {"lat": 38.89827416666667, "fusion_lat": 0.0, "type": "electric_scooter", "name": "a29fdf467a38cec39c0cff9cb1582216", "is_disabled": 0, "bike_id": "a29fdf467a38cec39c0cff9cb1582216", "lon": -76.9465275, "rental_uris": {"android": "https://dc.lft.to/lastmile_qr_scan", "ios": "https://dc.lft.to/lastmile_qr_scan"}, "fusion_lon": 0.0, "is_reserved": 0}, {"lat": 38.8842375, "fusion_lat": 0.0, "type": "electric_scooter", "name": "9d6edb4b51e8c685623e7494e0d324b4", "is_disabled": 0, "bike_id": "9d6edb4b51e8c685623e7494e0d324b4", "lon": -76.95757083333334, "rental_uris": {"android": "https://dc.lft.to/lastmile_qr_scan", "ios": "https://dc.lft.to/lastmile_qr_scan"}, "fusion_lon": 0.0, "is_reserved": 0}, {"lat": 38.9096615, "fusion_lat": 0.0, "type": "electric_scooter", "name": "55c7cbbfd6129c2af28d3be870536438", "is_disabled": 0, "bike_id": "55c7cbbfd6129c2af28d3be870536438", "lon": -77.0216045, "rental_uris": {"android": "https://dc.lft.to/lastmile_qr_scan", "ios": "https://dc.lft.to/lastmile_qr_scan"}, "fusion_lon": 0.0, "is_reserved": 0}, {"lat": 38.87938833333333, "fusion_lat": 0.0, "type": "electric_scooter", "name": "e5783b1fc67e53d4350b2c1d6ad0ee1c", "is_disabled": 0, "bike_id": "e5783b1fc67e53d4350b2c1d6ad0ee1c", "lon": -77.00417416666667, "rental_uris": {"android": "https://dc.lft.to/lastmile_qr_scan", "ios": "https://dc.lft.to/lastmile_qr_scan"}, "fusion_lon": 0.0, "is_reserved": 0}, {"lat": 38.9645625, "fusion_lat": 0.0, "type": "electric_bike", "name": "fa548fe250ef60c059a86beaa5de06f0", "is_disabled": 0, "bike_id": "fa548fe250ef60c059a86beaa5de06f0", "lon": -77.0086865, "rental_uris": {"android": "https://dc.lft.to/lastmile_qr_scan", "ios": "https://dc.lft.to/lastmile_qr_scan"}, "fusion_lon": 0.0, "is_reserved": 0}, {"lat": 38.91362083333333, "fusion_lat": 0.0, "type": "electric_scooter", "name": "c4196e3c1f29724b8662f4fd41669e56", "is_disabled": 0, "bike_id": "c4196e3c1f29724b8662f4fd41669e56", "lon": -77.0200085, "rental_uris": {"android": "https://dc.lft.to/lastmile_qr_scan", "ios": "https://dc.lft.to/lastmile_qr_scan"}, "fusion_lon": 0.0, "is_reserved": 0}, {"lat": 38.92937533333333, "fusion_lat": 0.0, "type": "electric_scooter", "name": "ad5b71a44881b345c0d5f4f31417d2a9", "is_disabled": 0, "bike_id": "ad5b71a44881b345c0d5f4f31417d2a9", "lon": -77.00578583333333, "rental_uris": {"android": "https://dc.lft.to/lastmile_qr_scan", "ios": "https://dc.lft.to/lastmile_qr_scan"}, "fusion_lon": 0.0, "is_reserved": 0}, {"lat": 38.92832933333333, "fusion_lat": 0.0, "type": "electric_scooter", "name": "d8b137d3aee50126e0ae4a279f1c39c3", "is_disabled": 0, "bike_id": "d8b137d3aee50126e0ae4a279f1c39c3", "lon": -77.03286133333333, "rental_uris": {"android": "https://dc.lft.to/lastmile_qr_scan", "ios": "https://dc.lft.to/lastmile_qr_scan"}, "fusion_lon": 0.0, "is_reserved": 0}, {"lat": 38.92446433333333, "fusion_lat": 0.0, "type": "electric_scooter", "name": "bfd0c2d0566afca5d1c0070ab3639c38", "is_disabled": 0, "bike_id": "bfd0c2d0566afca5d1c0070ab3639c38", "lon": -77.02244483333334, "rental_uris": {"android": "https://dc.lft.to/lastmile_qr_scan", "ios": "https://dc.lft.to/lastmile_qr_scan"}, "fusion_lon": 0.0, "is_reserved": 0}, {"lat": 38.93186816666667, "fusion_lat": 0.0, "type": "electric_scooter", "name": "09b7d4fb10881db0bc05f29249e4bbe5", "is_disabled": 0, "bike_id": "09b7d4fb10881db0bc05f29249e4bbe5", "lon": -77.02830016666667, "rental_uris": {"android": "https://dc.lft.to/lastmile_qr_scan", "ios": "https://dc.lft.to/lastmile_qr_scan"}, "fusion_lon": 0.0, "is_reserved": 0}, {"lat": 38.93910833333333, "fusion_lat": 0.0, "type": "electric_scooter", "name": "44ba9d3333a22bdccc4f5d71d8dbd4d8", "is_disabled": 0, "bike_id": "44ba9d3333a22bdccc4f5d71d8dbd4d8", "lon": -77.06042333333333, "rental_uris": {"android": "https://dc.lft.to/lastmile_qr_scan", "ios": "https://dc.lft.to/lastmile_qr_scan"}, "fusion_lon": 0.0, "is_reserved": 0}, {"lat": 38.90369166666667, "fusion_lat": 0.0, "type": "electric_scooter", "name": "d098390a75b8f09afd5e5833992a77c5", "is_disabled": 0, "bike_id": "d098390a75b8f09afd5e5833992a77c5", "lon": -77.04528183333333, "rental_uris": {"android": "https://dc.lft.to/lastmile_qr_scan", "ios": "https://dc.lft.to/lastmile_qr_scan"}, "fusion_lon": 0.0, "is_reserved": 0}, {"lat": 38.9013605, "fusion_lat": 0.0, "type": "electric_scooter", "name": "c824604a73a6967924beaef4373a592d", "is_disabled": 0, "bike_id": "c824604a73a6967924beaef4373a592d", "lon": -77.01907933333334, "rental_uris": {"android": "https://dc.lft.to/lastmile_qr_scan", "ios": "https://dc.lft.to/lastmile_qr_scan"}, "fusion_lon": 0.0, "is_reserved": 0}, {"lat": 38.906321, "fusion_lat": 0.0, "type": "electric_scooter", "name": "26fca69e1a572c8402fbf19c4265af15", "is_disabled": 0, "bike_id": "26fca69e1a572c8402fbf19c4265af15", "lon": -77.0363775, "rental_uris": {"android": "https://dc.lft.to/lastmile_qr_scan", "ios": "https://dc.lft.to/lastmile_qr_scan"}, "fusion_lon": 0.0, "is_reserved": 0}, {"lat": 38.913165, "fusion_lat": 0.0, "type": "electric_scooter", "name": "ba2434d34ada21c35a85248df60ef094", "is_disabled": 0, "bike_id": "ba2434d34ada21c35a85248df60ef094", "lon": -77.033255, "rental_uris": {"android": "https://dc.lft.to/lastmile_qr_scan", "ios": "https://dc.lft.to/lastmile_qr_scan"}, "fusion_lon": 0.0, "is_reserved": 0}, {"lat": 38.86237666666667, "fusion_lat": 0.0, "type": "electric_bike", "name": "22c3715dc6c7f04447dbd324f2705ae4", "is_disabled": 0, "bike_id": "22c3715dc6c7f04447dbd324f2705ae4", "lon": -76.952808, "rental_uris": {"android": "https://dc.lft.to/lastmile_qr_scan", "ios": "https://dc.lft.to/lastmile_qr_scan"}, "fusion_lon": 0.0, "is_reserved": 0}, {"lat": 38.874272, "fusion_lat": 0.0, "type": "electric_scooter", "name": "fc1df7e5d718b2553f8b313b61bca02e", "is_disabled": 0, "bike_id": "fc1df7e5d718b2553f8b313b61bca02e", "lon": -77.000381, "rental_uris": {"android": "https://dc.lft.to/lastmile_qr_scan", "ios": "https://dc.lft.to/lastmile_qr_scan"}, "fusion_lon": 0.0, "is_reserved": 0}, {"lat": 38.90667583333333, "fusion_lat": 0.0, "type": "electric_scooter", "name": "cd3513e8ded0cf0ecc911607d4320bda", "is_disabled": 0, "bike_id": "cd3513e8ded0cf0ecc911607d4320bda", "lon": -77.02712466666667, "rental_uris": {"android": "https://dc.lft.to/lastmile_qr_scan", "ios": "https://dc.lft.to/lastmile_qr_scan"}, "fusion_lon": 0.0, "is_reserved": 0}, {"lat": 38.92315966666666, "fusion_lat": 0.0, "type": "electric_scooter", "name": "b8a250560879839ba4fe411867576472", "is_disabled": 0, "bike_id": "b8a250560879839ba4fe411867576472", "lon": -77.01915516666666, "rental_uris": {"android": "https://dc.lft.to/lastmile_qr_scan", "ios": "https://dc.lft.to/lastmile_qr_scan"}, "fusion_lon": 0.0, "is_reserved": 0}, {"lat": 38.925857666666666, "fusion_lat": 0.0, "type": "electric_scooter", "name": "6a257defe4bcfe8d1037483e9af5f22f", "is_disabled": 0, "bike_id": "6a257defe4bcfe8d1037483e9af5f22f", "lon": -77.0322585, "rental_uris": {"android": "https://dc.lft.to/lastmile_qr_scan", "ios": "https://dc.lft.to/lastmile_qr_scan"}, "fusion_lon": 0.0, "is_reserved": 0}, {"lat": 38.916724333333335, "fusion_lat": 0.0, "type": "electric_scooter", "name": "7d25fd233d13c72e9c819b7f6cc696c4", "is_disabled": 0, "bike_id": "7d25fd233d13c72e9c819b7f6cc696c4", "lon": -77.02969866666666, "rental_uris": {"android": "https://dc.lft.to/lastmile_qr_scan", "ios": "https://dc.lft.to/lastmile_qr_scan"}, "fusion_lon": 0.0, "is_reserved": 0}, {"lat": 38.910439333333336, "fusion_lat": 0.0, "type": "electric_scooter", "name": "4d9d683ec279fab3dd699e7660c0595a", "is_disabled": 0, "bike_id": "4d9d683ec279fab3dd699e7660c0595a", "lon": -77.02206666666666, "rental_uris": {"android": "https://dc.lft.to/lastmile_qr_scan", "ios": "https://dc.lft.to/lastmile_qr_scan"}, "fusion_lon": 0.0, "is_reserved": 0}, {"lat": 38.893488166666664, "fusion_lat": 0.0, "type": "electric_bike", "name": "0b2c13d3107d0c262d75c814828b48c4", "is_disabled": 0, "bike_id": "0b2c13d3107d0c262d75c814828b48c4", "lon": -77.187461, "rental_uris": {"android": "https://dc.lft.to/lastmile_qr_scan", "ios": "https://dc.lft.to/lastmile_qr_scan"}, "fusion_lon": 0.0, "is_reserved": 0}, {"lat": 38.918980833333336, "fusion_lat": 0.0, "type": "electric_scooter", "name": "77a4f51bb60e147a153dbf57912ef181", "is_disabled": 0, "bike_id": "77a4f51bb60e147a153dbf57912ef181", "lon": -77.0207495, "rental_uris": {"android": "https://dc.lft.to/lastmile_qr_scan", "ios": "https://dc.lft.to/lastmile_qr_scan"}, "fusion_lon": 0.0, "is_reserved": 0},