{"data": {"bikes": [{"bike_id": "0e63eb9f8697e710b11f0bf01154a5bf", "type": "electric_scooter", "is_disabled": 0, "lat": 38.964104666666664, "rental_uris": {"ios": "https://dc.lft.to/lastmile_qr_scan", "android": "https://dc.lft.to/lastmile_qr_scan"}, "is_reserved": 0, "fusion_lon": 0.0, "fusion_lat": 0.0, "lon": -77.027664, "name": "0e63eb9f8697e710b11f0bf01154a5bf"}, {"bike_id": "f7ed874eba8fe562dc7842ed9521ae00", "type": "electric_scooter", "is_disabled": 0, "lat": 38.9006465, "rental_uris": {"ios": "https://dc.lft.to/lastmile_qr_scan", "android": "https://dc.lft.to/lastmile_qr_scan"}, "is_reserved": 0, "fusion_lon": 0.0, "fusion_lat": 0.0, "lon": -76.92740083333334, "name": "f7ed874eba8fe562dc7842ed9521ae00"}, {"bike_id": "161f7e5b2c75a46d300575c25a34a748", "type": "electric_scooter", "is_disabled": 0, "lat": 38.902853666666665, "rental_uris": {"ios": "https://dc.lft.to/lastmile_qr_scan", "android": "https://dc.lft.to/lastmile_qr_scan"}, "is_reserved": 0, "fusion_lon": 0.0, "fusion_lat": 0.0, "lon": -77.04451766666666, "name": "161f7e5b2c75a46d300575c25a34a748"}, {"bike_id": "0b594e24ef1b0d02091fc8d34d479076", "type": "electric_scooter", "is_disabled": 0, "lat": 38.8763095, "rental_uris": {"ios": "https://dc.lft.to/lastmile_qr_scan", "android": "https://dc.lft.to/lastmile_qr_scan"}, "is_reserved": 0, "fusion_lon": 0.0, "fusion_lat": 0.0, "lon": -76.9652755, "name": "0b594e24ef1b0d02091fc8d34d479076"}, {"bike_id": "4f390e61fc44bc1f696a7ab7dc1aecec", "type": "electric_scooter", "is_disabled": 0, "lat": 38.90501883333334, "rental_uris": {"ios": "https://dc.lft.to/lastmile_qr_scan", "android": "https://dc.lft.to/lastmile_qr_scan"}, "is_reserved": 0, "fusion_lon": 0.0, "fusion_lat": 0.0, "lon": -77.0688555, "name": "4f390e61fc44bc1f696a7ab7dc1aecec"}, {"bike_id": "9b700f8c64441220c6039fab52294d40", "type": "electric_scooter", "is_disabled": 0, "lat": 38.91156183333333, "rental_uris": {"ios": "https://dc.lft.to/lastmile_qr_scan", "android": "https://dc.lft.to/lastmile_qr_scan"}, "is_reserved": 0, "fusion_lon": 0.0, "fusion_lat": 0.0, "lon": -77.02287916666667, "name": "9b700f8c64441220c6039fab52294d40"}, {"bike_id": "9ffdc7789f18cddabfe219df2521ad15", "type": "electric_scooter", "is_disabled": 0, "lat": 38.90037566666667, "rental_uris": {"ios": "https://dc.lft.to/lastmile_qr_scan", "android": "https://dc.lft.to/lastmile_qr_scan"}, "is_reserved": 0, "fusion_lon": 0.0, "fusion_lat": 0.0, "lon": -77.01295633333334, "name": "9ffdc7789f18cddabfe219df2521ad15"}, {"bike_id": "cfd13652dba35cd9f30aeb6ebe8446ae", "type": "electric_scooter", "is_disabled": 0, "lat": 38.9148465, "rental_uris": {"ios": "https://dc.lft.to/lastmile_qr_scan", "android": "https://dc.lft.to/lastmile_qr_scan"}, "is_reserved": 0, "fusion_lon": 0.0, "fusion_lat": 0.0, "lon": -77.02578866666667, "name": "cfd13652dba35cd9f30aeb6ebe8446ae"}, {"bike_id": "3803ad62164c90cd038f8bd63230f856", "type": "electric_scooter", "is_disabled": 0, "lat": 38.9062535, "rental_uris": {"ios": "https://dc.lft.to/lastmile_qr_scan", "android": "https://dc.lft.to/lastmile_qr_scan"}, "is_reserved": 0, "fusion_lon": 0.0, "fusion_lat": 0.0, "lon": -77.0556015, "name": "3803ad62164c90cd038f8bd63230f856"}, {"bike_id": "264248b3ce2a0d88a7bf2cf1fa677944", "type": "electric_scooter", "is_disabled": 0, "lat": 38.9086065, "rental_uris": {"ios": "https://dc.lft.to/lastmile_qr_scan", "android": "https://dc.lft.to/lastmile_qr_scan"}, "is_reserved": 0, "fusion_lon": 0.0, "fusion_lat": 0.0, "lon": -77.04535083333333, "name": "264248b3ce2a0d88a7bf2cf1fa677944"}, {"bike_id": "ab923f55aaead0e176b07f3eeadae674", "type": "electric_scooter", "is_disabled": 0, "lat": 38.908132, "rental_uris": {"ios": "https://dc.lft.to/lastmile_qr_scan", "android": "https://dc.lft.to/lastmile_qr_scan"}, "is_reserved": 0, "fusion_lon": 0.0, "fusion_lat": 0.0, "lon": -77.06367083333333, "name": "ab923f55aaead0e176b07f3eeadae674"}, {"bike_id": "082fea132069dfa04faa6396ba5ad6d4", "type": "electric_scooter", "is_disabled": 0, "lat": 38.92377716666667, "rental_uris": {"ios": "https://dc.lft.to/lastmile_qr_scan", "android": "https://dc.lft.to/lastmile_qr_scan"}, "is_reserved": 0, "fusion_lon": 0.0, "fusion_lat": 0.0, "lon": -77.04127216666667, "name": "082fea132069dfa04faa6396ba5ad6d4"}, {"bike_id": "3b450f47e20f3458b0585f51c686fc01", "type": "electric_scooter", "is_disabled": 0, "lat": 38.91705683333333, "rental_uris": {"ios": "https://dc.lft.to/lastmile_qr_scan", "android": "https://dc.lft.to/lastmile_qr_scan"}, "is_reserved": 0, "fusion_lon": 0.0, "fusion_lat": 0.0, "lon": -77.0101615, "name": "3b450f47e20f3458b0585f51c686fc01"}, {"bike_id": "be7711f6b4106cf7585355b8a138e432", "type": "electric_scooter", "is_disabled": 0, "lat": 38.91332216666667, "rental_uris": {"ios": "https://dc.lft.to/lastmile_qr_scan", "android": "https://dc.lft.to/lastmile_qr_scan"}, "is_reserved": 0, "fusion_lon": 0.0, "fusion_lat": 0.0, "lon": -77.045666, "name": "be7711f6b4106cf7585355b8a138e432"}, {"bike_id": "ae3d433108ec2280f9bc43f28fcef696", "type": "electric_scooter", "is_disabled": 0, "lat": 38.90848733333333, "rental_uris": {"ios": "https://dc.lft.to/lastmile_qr_scan", "android": "https://dc.lft.to/lastmile_qr_scan"}, "is_reserved": 0, "fusion_lon": 0.0, "fusion_lat": 0.0, "lon": -76.9979635, "name": "ae3d433108ec2280f9bc43f28fcef696"}, {"bike_id": "1847a39ed4638bfc3701f1a176b68489", "type": "electric_scooter", "is_disabled": 0, "lat": 38.91696116666667, "rental_uris": {"ios": "https://dc.lft.to/lastmile_qr_scan", "android": "https://dc.lft.to/lastmile_qr_scan"}, "is_reserved": 0, "fusion_lon": 0.0, "fusion_lat": 0.0, "lon": -77.0289935, "name": "1847a39ed4638bfc3701f1a176b68489"}, {"bike_id": "8aa91ecef2bcd2288bd3350f732131a1", "type": "electric_scooter", "is_disabled": 0, "lat": 38.92903616666667, "rental_uris": {"ios": "https://dc.lft.to/lastmile_qr_scan", "android": "https://dc.lft.to/lastmile_qr_scan"}, "is_reserved": 0, "fusion_lon": 0.0, "fusion_lat": 0.0, "lon": -77.03632433333334, "name": "8aa91ecef2bcd2288bd3350f732131a1"}, {"bike_id": "b17cdbe483ebbd98f9503d3c72297600", "type": "electric_scooter", "is_disabled": 0, "lat": 38.903188666666665, "rental_uris": {"ios": "https://dc.lft.to/lastmile_qr_scan", "android": "https://dc.lft.to/lastmile_qr_scan"}, "is_reserved": 0, "fusion_lon": 0.0, "fusion_lat": 0.0, "lon": -77.0245685, "name": "b17cdbe483ebbd98f9503d3c72297600"}, {"bike_id": "ca12d4dac294369e23cafa75a848760c", "type": "electric_scooter", "is_disabled": 0, "lat": 38.905035166666664, "rental_uris": {"ios": "https://dc.lft.to/lastmile_qr_scan", "android": "https://dc.lft.to/lastmile_qr_scan"}, "is_reserved": 0, "fusion_lon": 0.0, "fusion_lat": 0.0, "lon": -77.0672985, "name": "ca12d4dac294369e23cafa75a848760c"}, {"bike_id": "2fd200932487ec4d4caf18e4fe0423f0", "type": "electric_bike", "is_disabled": 0, "lat": 39.02434733333333, "rental_uris": {"ios": "https://dc.lft.to/lastmile_qr_scan", "android": "https://dc.lft.to/lastmile_qr_scan"}, "is_reserved": 0, "fusion_lon": 0.0, "fusion_lat": 0.0, "lon": -77.13099733333334, "name": "2fd200932487ec4d4caf18e4fe0423f0"}, {"bike_id": "7796e98a6cbcc18e18ed267a4a75daa6", "type": "electric_scooter", "is_disabled": 0, "lat": 38.93462016666667, "rental_uris": {"ios": "https://dc.lft.to/lastmile_qr_scan", "android": "https://dc.lft.to/lastmile_qr_scan"}, "is_reserved": 0, "fusion_lon": 0.0, "fusion_lat": 0.0, "lon": -76.96438866666666, "name": "7796e98a6cbcc18e18ed267a4a75daa6"}, {"bike_id": "f6bd2d4d1f84acdb1b2549f6461b8916", "type": "electric_scooter", "is_disabled": 0, "lat": 38.90195, "rental_uris": {"ios": "https://dc.lft.to/lastmile_qr_scan", "android": "https://dc.lft.to/lastmile_qr_scan"}, "is_reserved": 0, "fusion_lon": 0.0, "fusion_lat": 0.0, "lon": -77.05077916666667, "name": "f6bd2d4d1f84acdb1b2549f6461b8916"}, {"bike_id": "b47d37df6343c55478b00e61767d68ef", "type": "electric_bike", "is_disabled": 0, "lat": 38.957063166666664, "rental_uris": {"ios": "https://dc.lft.to/lastmile_qr_scan", "android": "https://dc.lft.to/lastmile_qr_scan"}, "is_reserved": 0, "fusion_lon": 0.0, "fusion_lat": 0.0, "lon": -77.02406433333333, "name": "b47d37df6343c55478b00e61767d68ef"}, {"bike_id": "8952e7ef9d3a63d4ef352d54d1c1481c", "type": "electric_scooter", "is_disabled": 0, "lat": 38.91420466666667, "rental_uris": {"ios": "https://dc.lft.to/lastmile_qr_scan", "android": "https://dc.lft.to/lastmile_qr_scan"}, "is_reserved": 0, "fusion_lon": 0.0, "fusion_lat": 0.0, "lon": -77.02717316666667, "name": "8952e7ef9d3a63d4ef352d54d1c1481c"}, {"bike_id": "a9292eae00254713b54906ac800a0d9f", "type": "electric_scooter", "is_disabled": 0, "lat": 38.866953333333335, "rental_uris": {"ios": "https://dc.lft.to/lastmile_qr_scan", "android": "https://dc.lft.to/lastmile_qr_scan"}, "is_reserved": 0, "fusion_lon": 0.0, "fusion_lat": 0.0, "lon": -76.98710383333334, "name": "a9292eae00254713b54906ac800a0d9f"}, {"bike_id": "a2c1316970a3a33d7bbf86fb4a2c6fca", "type": "electric_scooter", "is_disabled": 0, "lat": 38.92603, "rental_uris": {"ios": "https://dc.lft.to/lastmile_qr_scan", "android": "https://dc.lft.to/lastmile_qr_scan"}, "is_reserved": 0, "fusion_lon": 0.0, "fusion_lat": 0.0, "lon": -77.022846, "name": "a2c1316970a3a33d7bbf86fb4a2c6fca"}, {"bike_id": "72808411e78be6978eb0fe972b09152e", "type": "electric_scooter", "is_disabled": 0, "lat": 38.939839, "rental_uris": {"ios": "https://dc.lft.to/lastmile_qr_scan", "android": "https://dc.lft.to/lastmile_qr_scan"}, "is_reserved": 0, "fusion_lon": 0.0, "fusion_lat": 0.0, "lon": -77.03142966666667, "name": "72808411e78be6978eb0fe972b09152e"}, {"bike_id": "d30fa68a9d7a55801e4d278205d7b762", "type": "electric_scooter", "is_disabled": 0, "lat": 38.923674, "rental_uris": {"ios": "https://dc.lft.to/lastmile_qr_scan", "android": "https://dc.lft.to/lastmile_qr_scan"}, "is_reserved": 0, "fusion_lon": 0.0, "fusion_lat": 0.0, "lon": -77.05126416666667, "name": "d30fa68a9d7a55801e4d278205d7b762"}, {"bike_id": "49c8ff95850d81f10cffe4469541eae5", "type": "electric_scooter", "is_disabled": 0, "lat": 38.887647666666666, "rental_uris": {"ios": "https://dc.lft.to/lastmile_qr_scan", "android": "https://dc.lft.to/lastmile_qr_scan"}, "is_reserved": 0, "fusion_lon": 0.0, "fusion_lat": 0.0, "lon": -76.956024, "name": "49c8ff95850d81f10cffe4469541eae5"}, {"bike_id": "9e1b639588f062ffe47c404c539c7d75", "type": "electric_scooter", "is_disabled": 0, "lat": 38.90539616666667, "rental_uris": {"ios": "https://dc.lft.to/lastmile_qr_scan", "android": "https://dc.lft.to/lastmile_qr_scan"}, "is_reserved": 0, "fusion_lon": 0.0, "fusion_lat": 0.0, "lon": -77.0569475, "name": "9e1b639588f062ffe47c404c539c7d75"}, {"bike_id": "8485e8fad18f4e5c3afdcc0a2c9b57ec", "type": "electric_scooter", "is_disabled": 0, "lat": 38.92389133333333, "rental_uris": {"ios": "https://dc.lft.to/lastmile_qr_scan", "android": "https://dc.lft.to/lastmile_qr_scan"}, "is_reserved": 0, "fusion_lon": 0.0, "fusion_lat": 0.0, "lon": -77.0408065, "name": "8485e8fad18f4e5c3afdcc0a2c9b57ec"}, {"bike_id": "f3349c7e5b8de450d991283c10424918", "type": "electric_scooter", "is_disabled": 0, "lat": 38.923204, "rental_uris": {"ios": "https://dc.lft.to/lastmile_qr_scan", "android": "https://dc.lft.to/lastmile_qr_scan"}, "is_reserved": 0, "fusion_lon": 0.0, "fusion_lat": 0.0, "lon": -77.02137566666667, "name": "f3349c7e5b8de450d991283c10424918"}, {"bike_id": "f872942cb78c8e1e7c2551be8cf8e2a4", "type": "electric_scooter", "is_disabled": 0, "lat": 38.95020816666667, "rental_uris": {"ios": "https://dc.lft.to/lastmile_qr_scan", "android": "https://dc.lft.to/lastmile_qr_scan"}, "is_reserved": 0, "fusion_lon": 0.0, "fusion_lat": 0.0, "lon": -77.008735, "name": "f872942cb78c8e1e7c2551be8cf8e2a4"}, {"bike_id": "992843cf077181389a52c969564053d4", "type": "electric_bike", "is_disabled": 0, "lat": 38.845297, "rental_uris": {"ios": "https://dc.lft.to/lastmile_qr_scan", "android": "https://dc.lft.to/lastmile_qr_scan"}, "is_reserved": 0, "fusion_lon": 0.0, "fusion_lat": 0.0, "lon": -76.97400216666666, "name": "992843cf077181389a52c969564053d4"}, {"bike_id": "9949f59320e42a162866627e36d9b824", "type": "electric_scooter", "is_disabled": 0, "lat": 38.932107333333335, "rental_uris": {"ios": "https://dc.lft.to/lastmile_qr_scan", "android": "https://dc.lft.to/lastmile_qr_scan"}, "is_reserved": 0, "fusion_lon": 0.0, "fusion_lat": 0.0, "lon": -77.0351315, "name": "9949f59320e42a162866627e36d9b824"}, {"bike_id": "5a9c3436346a96186f11735243cc88a8", "type": "electric_scooter", "is_disabled": 0, "lat": 38.928830166666664, "rental_uris": {"ios": "https://dc.lft.to/lastmile_qr_scan", "android": "https://dc.lft.to/lastmile_qr_scan"}, "is_reserved": 0, "fusion_lon": 0.0, "fusion_lat": 0.0, "lon": -77.0327085, "name": "5a9c3436346a96186f11735243cc88a8"}, {"bike_id": "91e1938d45fe550d656587fa9d95bf66", "type": "electric_scooter", "is_disabled": 0, "lat": 38.898551499999996, "rental_uris": {"ios": "https://dc.lft.to/lastmile_qr_scan", "android": "https://dc.lft.to/lastmile_qr_scan"}, "is_reserved": 0, "fusion_lon": 0.0, "fusion_lat": 0.0, "lon": -77.040644, "name": "91e1938d45fe550d656587fa9d95bf66"}, {"bike_id": "975a8e98b327db2f4a3a2adc852139b7", "type": "electric_scooter", "is_disabled": 0, "lat": 38.935976, "rental_uris": {"ios": "https://dc.lft.to/lastmile_qr_scan", "android": "https://dc.lft.to/lastmile_qr_scan"}, "is_reserved": 0, "fusion_lon": 0.0, "fusion_lat": 0.0, "lon": -77.03651683333334, "name": "975a8e98b327db2f4a3a2adc852139b7"}, {"bike_id": "0a9b9bf7300af896744b9716cbcb2f79", "type": "electric_scooter", "is_disabled": 0, "lat": 38.938484, "rental_uris": {"ios": "https://dc.lft.to/lastmile_qr_scan", "android": "https://dc.lft.to/lastmile_qr_scan"}, "is_reserved": 0, "fusion_lon": 0.0, "fusion_lat": 0.0, "lon": -77.03265633333334, "name": "0a9b9bf7300af896744b9716cbcb2f79"}, {"bike_id": "8ad9f8fca74105a2e642d4712a32d4de", "type": "electric_bike", "is_disabled": 0, "lat": 38.90270183333333, "rental_uris": {"ios": "https://dc.lft.to/lastmile_qr_scan", "android": "https://dc.lft.to/lastmile_qr_scan"}, "is_reserved": 0, "fusion_lon": 0.0, "fusion_lat": 0.0, "lon": -77.01756316666666, "name": "8ad9f8fca74105a2e642d4712a32d4de"}, {"bike_id": "8a12dead01ab4f61c9ec953fff7c44a1", "type": "electric_scooter", "is_disabled": 0, "lat": 38.90683, "rental_uris": {"ios": "https://dc.lft.to/lastmile_qr_scan", "android": "https://dc.lft.to/lastmile_qr_scan"}, "is_reserved": 0, "fusion_lon": 0.0, "fusion_lat": 0.0, "lon": -77.02695066666666, "name": "8a12dead01ab4f61c9ec953fff7c44a1"}, {"bike_id": "8db9ba39ec2d3b29ee6b6667381f3232", "type": "electric_scooter", "is_disabled": 0, "lat": 38.903934, "rental_uris": {"ios": "https://dc.lft.to/lastmile_qr_scan", "android": "https://dc.lft.to/lastmile_qr_scan"}, "is_reserved": 0, "fusion_lon": 0.0, "fusion_lat": 0.0, "lon": -77.0186545, "name": "8db9ba39ec2d3b29ee6b6667381f3232"}, {"bike_id": "3ea75e92d7449105598f64a5eb144717", "type": "electric_scooter", "is_disabled": 0, "lat": 38.92261883333333, "rental_uris": {"ios": "https://dc.lft.to/lastmile_qr_scan", "android": "https://dc.lft.to/lastmile_qr_scan"}, "is_reserved": 0, "fusion_lon": 0.0, "fusion_lat": 0.0, "lon": -77.00051033333334, "name": "3ea75e92d7449105598f64a5eb144717"}, {"bike_id": "2e37796bf6d4106796322a4667be549b", "type": "electric_scooter", "is_disabled": 0, "lat": 38.91154016666667, "rental_uris": {"ios": "https://dc.lft.to/lastmile_qr_scan", "android": "https://dc.lft.to/lastmile_qr_scan"}, "is_reserved": 0, "fusion_lon": 0.0, "fusion_lat": 0.0, "lon": -77.03842566666667, "name": "2e37796bf6d4106796322a4667be549b"}, {"bike_id": "41c4964955d76e04b125c8e89595109e", "type": "electric_bike", "is_disabled": 0, "lat": 38.86195583333333, "rental_uris": {"ios": "https://dc.lft.to/lastmile_qr_scan", "android": "https://dc.lft.to/lastmile_qr_scan"}, "is_reserved": 0, "fusion_lon": 0.0, "fusion_lat": 0.0, "lon": -76.9480565, "name": "41c4964955d76e04b125c8e89595109e"}, {"bike_id": "5ca8e8b8116ee3b703b8451f0bd03a7f", "type": "electric_scooter", "is_disabled": 0, "lat": 38.878409166666664, "rental_uris": {"ios": "https://dc.lft.to/lastmile_qr_scan", "android": "https://dc.lft.to/lastmile_qr_scan"}, "is_reserved": 0, "fusion_lon": 0.0, "fusion_lat": 0.0, "lon": -77.022803, "name": "5ca8e8b8116ee3b703b8451f0bd03a7f"}, {"bike_id": "5a42b1f35f45d5e81b8e94fc86d1c1e2", "type": "electric_scooter", "is_disabled": 0, "lat": 38.895928, "rental_uris": {"ios": "https://dc.lft.to/lastmile_qr_scan", "android": "https://dc.lft.to/lastmile_qr_scan"}, "is_reserved": 0, "fusion_lon": 0.0, "fusion_lat": 0.0, "lon": -77.00502966666667, "name": "5a42b1f35f45d5e81b8e94fc86d1c1e2"}, {"bike_id": "32d0f396234b0c0c7b385da8683cea7e", "type": "electric_scooter", "is_disabled": 0, "lat": 38.900032833333334, "rental_uris": {"ios": "https://dc.lft.to/lastmile_qr_scan", "android": "https://dc.lft.to/lastmile_qr_scan"}, "is_reserved": 0, "fusion_lon": 0.0, "fusion_lat": 0.0, "lon": -77.0449275, "name": "32d0f396234b0c0c7b385da8683cea7e"}, {"bike_id": "72b20cf5031fba4097c9fee0f66052fb", "type": "electric_scooter", "is_disabled": 0, "lat": 38.937838666666664, "rental_uris": {"ios": "https://dc.lft.to/lastmile_qr_scan", "android": "https://dc.lft.to/lastmile_qr_scan"}, "is_reserved": 0, "fusion_lon": 0.0, "fusion_lat": 0.0, "lon": -77.03296283333333, "name": "72b20cf5031fba4097c9fee0f66052fb"}, {"bike_id": "11501b807125bf721b474a91dd87be39", "type": "electric_scooter", "is_disabled": 0, "lat": 38.905140833333334, "rental_uris": {"ios": "https://dc.lft.to/lastmile_qr_scan", "android": "https://dc.lft.to/lastmile_qr_scan"}, "is_reserved": 0, "fusion_lon": 0.0, "fusion_lat": 0.0, "lon": -77.06201433333334, "name": "11501b807125bf721b474a91dd87be39"}, {"bike_id": "4f67dc76cddd1b08c5622bcbd6df5b28", "type": "electric_scooter", "is_disabled": 0, "lat": 38.8987665, "rental_uris": {"ios": "https://dc.lft.to/lastmile_qr_scan", "android": "https://dc.lft.to/lastmile_qr_scan"}, "is_reserved": 0, "fusion_lon": 0.0, "fusion_lat": 0.0, "lon": -76.9318575, "name": "4f67dc76cddd1b08c5622bcbd6df5b28"}, {"bike_id": "08bf43bde93624f66b425bb68b4fb5e7", "type": "electric_scooter", "is_disabled": 0, "lat": 38.937274333333335, "rental_uris": {"ios": "https://dc.lft.to/lastmile_qr_scan", "android": "https://dc.lft.to/lastmile_qr_scan"}, "is_reserved": 0, "fusion_lon": 0.0, "fusion_lat": 0.0, "lon": -77.03292083333334, "name": "08bf43bde93624f66b425bb68b4fb5e7"}, {"bike_id": "7f2289014d72efa8ec7d39f8bbda5aaa", "type": "electric_scooter", "is_disabled": 0, "lat": 38.89007483333334, "rental_uris": {"ios": "https://dc.lft.to/lastmile_qr_scan", "android": "https://dc.lft.to/lastmile_qr_scan"}, "is_reserved": 0, "fusion_lon": 0.0, "fusion_lat": 0.0, "lon": -76.93749733333334, "name": "7f2289014d72efa8ec7d39f8bbda5aaa"}, {"bike_id": "bdea50883d96a8bc70391c2d38755141", "type": "electric_scooter", "is_disabled": 0, "lat": 38.89891316666667, "rental_uris": {"ios": "https://dc.lft.to/lastmile_qr_scan", "android": "https://dc.lft.to/lastmile_qr_scan"}, "is_reserved": 0, "fusion_lon": 0.0, "fusion_lat": 0.0, "lon": -77.01514033333333, "name": "bdea50883d96a8bc70391c2d38755141"}, {"bike_id": "8f87f24567c4c3beb822b47aab436e47", "type": "electric_scooter", "is_disabled": 0, "lat": 38.87705183333333, "rental_uris": {"ios": "https://dc.lft.to/lastmile_qr_scan", "android": "https://dc.lft.to/lastmile_qr_scan"}, "is_reserved": 0, "fusion_lon": 0.0, "fusion_lat": 0.0, "lon": -77.01767066666666, "name": "8f87f24567c4c3beb822b47aab436e47"}, {"bike_id": "ab92e492e14324deae79fb28396638e6", "type": "electric_scooter", "is_disabled": 0, "lat": 38.893238833333335, "rental_uris": {"ios": "https://dc.lft.to/lastmile_qr_scan", "android": "https://dc.lft.to/lastmile_qr_scan"}, "is_reserved": 0, "fusion_lon": 0.0, "fusion_lat": 0.0, "lon": -77.04877766666667, "name": "ab92e492e14324deae79fb28396638e6"}, {"bike_id": "1292db85764900d4a3873f72c6382a8d", "type": "electric_scooter", "is_disabled": 0, "lat": 38.95151283333333, "rental_uris": {"ios": "https://dc.lft.to/lastmile_qr_scan", "android": "https://dc.lft.to/lastmile_qr_scan"}, "is_reserved": 0, "fusion_lon": 0.0, "fusion_lat": 0.0, "lon": -77.018694, "name": "1292db85764900d4a3873f72c6382a8d"}, {"bike_id": "b84869e6f7db2db8475951f89980abc2", "type": "electric_scooter", "is_disabled": 0, "lat": 38.89533016666667, "rental_uris": {"ios": "https://dc.lft.to/lastmile_qr_scan", "android": "https://dc.lft.to/lastmile_qr_scan"}, "is_reserved": 0, "fusion_lon": 0.0, "fusion_lat": 0.0, "lon": -76.94893016666667, "name": "b84869e6f7db2db8475951f89980abc2"}, {"bike_id": "6d2f44b1e062f83e0717a5994f00c6b9", "type": "electric_scooter", "is_disabled": 0, "lat": 38.876817333333335, "rental_uris": {"ios": "https://dc.lft.to/lastmile_qr_scan", "android": "https://dc.lft.to/lastmile_qr_scan"}, "is_reserved": 0, "fusion_lon": 0.0, "fusion_lat": 0.0, "lon": -77.01793783333333, "name": "6d2f44b1e062f83e0717a5994f00c6b9"}, {"bike_id": "eeb0b3b9ecbe73e2c76197818b277bf5", "type": "electric_scooter", "is_disabled": 0, "lat": 38.92280933333333, "rental_uris": {"ios": "https://dc.lft.to/lastmile_qr_scan", "android": "https://dc.lft.to/lastmile_qr_scan"}, "is_reserved": 0, "fusion_lon": 0.0, "fusion_lat": 0.0, "lon": -77.0428555, "name": "eeb0b3b9ecbe73e2c76197818b277bf5"}, {"bike_id": "4e41f285d80408baa2fd1d4ff8bf96ca", "type": "electric_scooter", "is_disabled": 0, "lat": 38.9066385, "rental_uris": {"ios": "https://dc.lft.to/lastmile_qr_scan", "android": "https://dc.lft.to/lastmile_qr_scan"}, "is_reserved": 0, "fusion_lon": 0.0, "fusion_lat": 0.0, "lon": -77.02694666666666, "name": "4e41f285d80408baa2fd1d4ff8bf96ca"}, {"bike_id": "291ca5a16cd9782046b9375e806f8c0a", "type": "electric_scooter", "is_disabled": 0, "lat": 38.91489883333333, "rental_uris": {"ios": "https://dc.lft.to/lastmile_qr_scan", "android": "https://dc.lft.to/lastmile_qr_scan"}, "is_reserved": 0, "fusion_lon": 0.0, "fusion_lat": 0.0, "lon": -77.034599, "name": "291ca5a16cd9782046b9375e806f8c0a"}, {"bike_id": "e5375046dce6eb47762570167624cb77", "type": "electric_scooter", "is_disabled": 0, "lat": 38.89323233333333, "rental_uris": {"ios": "https://dc.lft.to/lastmile_qr_scan", "android": "https://dc.lft.to/lastmile_qr_scan"}, "is_reserved": 0, "fusion_lon": 0.0, "fusion_lat": 0.0, "lon": -77.04876566666667, "name": "e5375046dce6eb47762570167624cb77"}, {"bike_id": "c9465ee231935d3319d622bf9c152124", "type": "electric_scooter", "is_disabled": 0, "lat": 38.926607, "rental_uris": {"ios": "https://dc.lft.to/lastmile_qr_scan", "android": "https://dc.lft.to/lastmile_qr_scan"}, "is_reserved": 0, "fusion_lon": 0.0, "fusion_lat": 0.0, "lon": -77.037251, "name": "c9465ee231935d3319d622bf9c152124"}, {"bike_id": "1b0e4d0e289f59c858a36aab778725a7", "type": "electric_scooter", "is_disabled": 0, "lat": 38.901083166666666, "rental_uris": {"ios": "https://dc.lft.to/lastmile_qr_scan", "android": "https://dc.lft.to/lastmile_qr_scan"}, "is_reserved": 0, "fusion_lon": 0.0, "fusion_lat": 0.0, "lon": -77.05163766666666, "name": "1b0e4d0e289f59c858a36aab778725a7"}, {"bike_id": "44883fd6c798244848b923da5a5ec1ec", "type": "electric_scooter", "is_disabled": 0, "lat": 38.9271205, "rental_uris": {"ios": "https://dc.lft.to/lastmile_qr_scan", "android": "https://dc.lft.to/lastmile_qr_scan"}, "is_reserved": 0, "fusion_lon": 0.0, "fusion_lat": 0.0, "lon": -77.03722616666667, "name": "44883fd6c798244848b923da5a5ec1ec"}, {"bike_id": "c7592ab2521f2a42988699d9e0afc0e6", "type": "electric_scooter", "is_disabled": 0, "lat": 38.86238483333333, "rental_uris": {"ios": "https://dc.lft.to/lastmile_qr_scan", "android": "https://dc.lft.to/lastmile_qr_scan"}, "is_reserved": 0, "fusion_lon": 0.0, "fusion_lat": 0.0, "lon": -76.99519016666666, "name": "c7592ab2521f2a42988699d9e0afc0e6"}, {"bike_id": "50c6fcd54477a0e0a12ebbcc70d28d9f", "type": "electric_scooter", "is_disabled": 0, "lat": 38.914376, "rental_uris": {"ios": "https://dc.lft.to/lastmile_qr_scan", "android": "https://dc.lft.to/lastmile_qr_scan"}, "is_reserved": 0, "fusion_lon": 0.0, "fusion_lat": 0.0, "lon": -77.01220333333333, "name": "50c6fcd54477a0e0a12ebbcc70d28d9f"}, {"bike_id": "a09f26143eb42dfbba687b614284c36f", "type": "electric_scooter", "is_disabled": 0, "lat": 38.91701533333333, "rental_uris": {"ios": "https://dc.lft.to/lastmile_qr_scan", "android": "https://dc.lft.to/lastmile_qr_scan"}, "is_reserved": 0, "fusion_lon": 0.0, "fusion_lat": 0.0, "lon": -77.0232855, "name": "a09f26143eb42dfbba687b614284c36f"}, {"bike_id": "d7031bf206ebdd8147933d4e69281cdd", "type": "electric_scooter", "is_disabled": 0, "lat": 38.927081666666666, "rental_uris": {"ios": "https://dc.lft.to/lastmile_qr_scan", "android": "https://dc.lft.to/lastmile_qr_scan"}, "is_reserved": 0, "fusion_lon": 0.0, "fusion_lat": 0.0, "lon": -77.02333933333334, "name": "d7031bf206ebdd8147933d4e69281cdd"}, {"bike_id": "d8821cc08ddf5cda99b2e1a6c98176e4", "type": "electric_scooter", "is_disabled": 0, "lat": 38.9067245, "rental_uris": {"ios": "https://dc.lft.to/lastmile_qr_scan", "android": "https://dc.lft.to/lastmile_qr_scan"}, "is_reserved": 0, "fusion_lon": 0.0, "fusion_lat": 0.0, "lon": -77.0716215, "name": "d8821cc08ddf5cda99b2e1a6c98176e4"}, {"bike_id": "620a91036567ab9fea77db438e6bac93", "type": "electric_scooter", "is_disabled": 0, "lat": 38.907408333333336, "rental_uris": {"ios": "https://dc.lft.to/lastmile_qr_scan", "android": "https://dc.lft.to/lastmile_qr_scan"}, "is_reserved": 0, "fusion_lon": 0.0, "fusion_lat": 0.0, "lon": -77.02959383333334, "name": "620a91036567ab9fea77db438e6bac93"}, {"bike_id": "d2ea6f9e0809fe06ecd063642923600f", "type": "electric_scooter", "is_disabled": 0, "lat": 38.96566633333333, "rental_uris": {"ios": "https://dc.lft.to/lastmile_qr_scan", "android": "https://dc.lft.to/lastmile_qr_scan"}, "is_reserved": 0, "fusion_lon": 0.0, "fusion_lat": 0.0, "lon": -77.02779616666666, "name": "d2ea6f9e0809fe06ecd063642923600f"}, {"bike_id": "e049881b03d925893b7f74f6b186480e", "type": "electric_scooter", "is_disabled": 0, "lat": 38.903332666666664, "rental_uris": {"ios": "https://dc.lft.to/lastmile_qr_scan", "android": "https://dc.lft.to/lastmile_qr_scan"}, "is_reserved": 0, "fusion_lon": 0.0, "fusion_lat": 0.0, "lon": -77.0692665, "name": "e049881b03d925893b7f74f6b186480e"}, {"bike_id": "5b0917a4a68a8b0e38de231deadd6784", "type": "electric_scooter", "is_disabled": 0, "lat": 38.862479, "rental_uris": {"ios": "https://dc.lft.to/lastmile_qr_scan", "android": "https://dc.lft.to/lastmile_qr_scan"}, "is_reserved": 0, "fusion_lon": 0.0, "fusion_lat": 0.0, "lon": -76.99499066666667, "name": "5b0917a4a68a8b0e38de231deadd6784"}, {"bike_id": "8d44175a705a630438c2b1819e915f7d", "type": "electric_scooter", "is_disabled": 0, "lat": 38.984323833333335, "rental_uris": {"ios": "https://dc.lft.to/lastmile_qr_scan", "android": "https://dc.lft.to/lastmile_qr_scan"}, "is_reserved": 0, "fusion_lon": 0.0, "fusion_lat": 0.0, "lon": -77.0267305, "name": "8d44175a705a630438c2b1819e915f7d"}, {"bike_id": "7e133a79e96118b3bab4e1af7bd86930", "type": "electric_scooter", "is_disabled": 0, "lat": 38.866574166666666, "rental_uris": {"ios": "https://dc.lft.to/lastmile_qr_scan", "android": "https://dc.lft.to/lastmile_qr_scan"}, "is_reserved": 0, "fusion_lon": 0.0, "fusion_lat": 0.0, "lon": -76.9888345, "name": "7e133a79e96118b3bab4e1af7bd86930"}, {"bike_id": "71804302600f0943eea4965a591c1130", "type": "electric_scooter", "is_disabled": 0, "lat": 38.882634, "rental_uris": {"ios": "https://dc.lft.to/lastmile_qr_scan", "android": "https://dc.lft.to/lastmile_qr_scan"}, "is_reserved": 0, "fusion_lon": 0.0, "fusion_lat": 0.0, "lon": -76.99511633333333, "name": "71804302600f0943eea4965a591c1130"}, {"bike_id": "a842460d4edf8f5d2cfb6766e9cd139f", "type": "electric_scooter", "is_disabled": 0, "lat": 38.87647716666667, "rental_uris": {"ios": "https://dc.lft.to/lastmile_qr_scan", "android": "https://dc.lft.to/lastmile_qr_scan"}, "is_reserved": 0, "fusion_lon": 0.0, "fusion_lat": 0.0, "lon": -76.9650485, "name": "a842460d4edf8f5d2cfb6766e9cd139f"}, {"bike_id": "c50b96036ec4e795b645323fa14a8462", "type": "electric_scooter", "is_disabled": 0, "lat": 38.900559666666666, "rental_uris": {"ios": "https://dc.lft.to/lastmile_qr_scan", "android": "https://dc.lft.to/lastmile_qr_scan"}, "is_reserved": 0, "fusion_lon": 0.0, "fusion_lat": 0.0, "lon": -77.03500266666667, "name": "c50b96036ec4e795b645323fa14a8462"}, {"bike_id": "c2aed0f0ce87010bede86675d8c550f8", "type": "electric_scooter", "is_disabled": 0, "lat": 38.906522833333334, "rental_uris": {"ios": "https://dc.lft.to/lastmile_qr_scan", "android": "https://dc.lft.to/lastmile_qr_scan"}, "is_reserved": 0, "fusion_lon": 0.0, "fusion_lat": 0.0, "lon": -77.01458333333333, "name": "c2aed0f0ce87010bede86675d8c550f8"}, {"bike_id": "a63afe76cf378cd879c2d818be447aaf", "type": "electric_scooter", "is_disabled": 0, "lat": 38.90352466666667, "rental_uris": {"ios": "https://dc.lft.to/lastmile_qr_scan", "android": "https://dc.lft.to/lastmile_qr_scan"}, "is_reserved": 0, "fusion_lon": 0.0, "fusion_lat": 0.0, "lon": -77.02661933333333, "name": "a63afe76cf378cd879c2d818be447aaf"}, {"bike_id": "6f5a2cb1ab2ebf4c7f6a6633d7440823", "type": "electric_scooter", "is_disabled": 0, "lat": 38.91741016666667, "rental_uris": {"ios": "https://dc.lft.to/lastmile_qr_scan", "android": "https://dc.lft.to/lastmile_qr_scan"}, "is_reserved": 0, "fusion_lon": 0.0, "fusion_lat": 0.0, "lon": -77.03136316666667, "name": "6f5a2cb1ab2ebf4c7f6a6633d7440823"}, {"bike_id": "d5bb780c34afabd47e06f20d57c1dd09", "type": "electric_scooter", "is_disabled": 0, "lat": 38.92453883333334, "rental_uris": {"ios": "https://dc.lft.to/lastmile_qr_scan", "android": "https://dc.lft.to/lastmile_qr_scan"}, "is_reserved": 0, "fusion_lon": 0.0, "fusion_lat": 0.0, "lon": -77.03341166666667, "name": "d5bb780c34afabd47e06f20d57c1dd09"}, {"bike_id": "5fe6a95e4d135e3d0f3f970dddad9a17", "type": "electric_bike", "is_disabled": 0, "lat": 38.796073666666665, "rental_uris": {"ios": "https://dc.lft.to/lastmile_qr_scan", "android": "https://dc.lft.to/lastmile_qr_scan"}, "is_reserved": 0, "fusion_lon": 0.0, "fusion_lat": 0.0, "lon": -76.99740716666666, "name": "5fe6a95e4d135e3d0f3f970dddad9a17"}, {"bike_id": "035661b0daa7df7a173da6f928232ec6", "type": "electric_scooter", "is_disabled": 0, "lat": 38.88679533333333, "rental_uris": {"ios": "https://dc.lft.to/lastmile_qr_scan", "android": "https://dc.lft.to/lastmile_qr_scan"}, "is_reserved": 0, "fusion_lon": 0.0, "fusion_lat": 0.0, "lon": -76.9914275, "name": "035661b0daa7df7a173da6f928232ec6"}, {"bike_id": "dc6de54f0c50a1608a41445012ca489c", "type": "electric_scooter", "is_disabled": 0, "lat": 38.86547083333333, "rental_uris": {"ios": "https://dc.lft.to/lastmile_qr_scan", "android": "https://dc.lft.to/lastmile_qr_scan"}, "is_reserved": 0, "fusion_lon": 0.0, "fusion_lat": 0.0, "lon": -76.97031533333333, "name": "dc6de54f0c50a1608a41445012ca489c"}, {"bike_id": "c15ecab1f6f87774285936964ba5f012", "type": "electric_scooter", "is_disabled": 0, "lat": 38.892216166666664, "rental_uris": {"ios": "https://dc.lft.to/lastmile_qr_scan", "android": "https://dc.lft.to/lastmile_qr_scan"}, "is_reserved": 0, "fusion_lon": 0.0, "fusion_lat": 0.0, "lon": -77.04867466666667, "name": "c15ecab1f6f87774285936964ba5f012"}, {"bike_id": "77dd71ccf638f8d758a515b28c920738", "type": "electric_scooter", "is_disabled": 0, "lat": 38.90039483333334, "rental_uris": {"ios": "https://dc.lft.to/lastmile_qr_scan", "android": "https://dc.lft.to/lastmile_qr_scan"}, "is_reserved": 0, "fusion_lon": 0.0, "fusion_lat": 0.0, "lon": -77.00195016666666, "name": "77dd71ccf638f8d758a515b28c920738"}, {"bike_id": "a99a4f9dfde5fbf156e5be262890b453", "type": "electric_scooter", "is_disabled": 0, "lat": 38.90527083333333, "rental_uris": {"ios": "https://dc.lft.to/lastmile_qr_scan", "android": "https://dc.lft.to/lastmile_qr_scan"}, "is_reserved": 0, "fusion_lon": 0.0, "fusion_lat": 0.0, "lon": -77.0567675, "name": "a99a4f9dfde5fbf156e5be262890b453"}, {"bike_id": "12204141dd88fd4cf8b0271a55136c18", "type": "electric_scooter", "is_disabled": 0, "lat": 38.892225, "rental_uris": {"ios": "https://dc.lft.to/lastmile_qr_scan", "android": "https://dc.lft.to/lastmile_qr_scan"}, "is_reserved": 0, "fusion_lon": 0.0, "fusion_lat": 0.0, "lon": -77.02631133333334, "name": "12204141dd88fd4cf8b0271a55136c18"}, {"bike_id": "e5c7b7bf447a9bf3c2092bfda4704754", "type": "electric_scooter", "is_disabled": 0, "lat": 38.8779585, "rental_uris": {"ios": "https://dc.lft.to/lastmile_qr_scan", "android": "https://dc.lft.to/lastmile_qr_scan"}, "is_reserved": 0, "fusion_lon": 0.0, "fusion_lat": 0.0, "lon": -76.93082816666667, "name": "e5c7b7bf447a9bf3c2092bfda4704754"}, {"bike_id": "cf0a70a41d7be7f9cfb4360a4be09442", "type": "electric_scooter", "is_disabled": 0, "lat": 38.901377833333335, "rental_uris": {"ios": "https://dc.lft.to/lastmile_qr_scan", "android": "https://dc.lft.to/lastmile_qr_scan"}, "is_reserved": 0, "fusion_lon": 0.0, "fusion_lat": 0.0, "lon": -77.0347525, "name": "cf0a70a41d7be7f9cfb4360a4be09442"}, {"bike_id": "cf79a7336064d4a30a06aaacd3709154", "type": "electric_scooter", "is_disabled": 0, "lat": 38.9302695, "rental_uris": {"ios": "https://dc.lft.to/lastmile_qr_scan", "android": "https://dc.lft.to/lastmile_qr_scan"}, "is_reserved": 0, "fusion_lon": 0.0, "fusion_lat": 0.0, "lon": -77.03264933333334, "name": "cf79a7336064d4a30a06aaacd3709154"}, {"bike_id": "4b4cf7873c6e4e153921e308622fa9b1", "type": "electric_scooter", "is_disabled": 0, "lat": 38.956854, "rental_uris": {"ios": "https://dc.lft.to/lastmile_qr_scan", "android": "https://dc.lft.to/lastmile_qr_scan"}, "is_reserved": 0, "fusion_lon": 0.0, "fusion_lat": 0.0, "lon": -77.0115535, "name": "4b4cf7873c6e4e153921e308622fa9b1"}, {"bike_id": "7eeb2c672bfe6865f7726dc69ad58765", "type": "electric_bike", "is_disabled": 0, "lat": 38.87562916666667, "rental_uris": {"ios": "https://dc.lft.to/lastmile_qr_scan", "android": "https://dc.lft.to/lastmile_qr_scan"}, "is_reserved": 0, "fusion_lon": 0.0, "fusion_lat": 0.0, "lon": -76.96502883333334, "name": "7eeb2c672bfe6865f7726dc69ad58765"}, {"bike_id": "188370ef7dad7aa43ac5af206c5bd0ac", "type": "electric_scooter", "is_disabled": 0, "lat": 38.92350783333333, "rental_uris": {"ios": "https://dc.lft.to/lastmile_qr_scan", "android": "https://dc.lft.to/lastmile_qr_scan"}, "is_reserved": 0, "fusion_lon": 0.0, "fusion_lat": 0.0, "lon": -77.03352383333333, "name": "188370ef7dad7aa43ac5af206c5bd0ac"}, {"bike_id": "b8672adc25e518123a0b3c0c4b4e0206", "type": "electric_scooter", "is_disabled": 0, "lat": 38.913306, "rental_uris": {"ios": "https://dc.lft.to/lastmile_qr_scan", "android": "https://dc.lft.to/lastmile_qr_scan"}, "is_reserved": 0, "fusion_lon": 0.0, "fusion_lat": 0.0, "lon": -77.03166816666666, "name": "b8672adc25e518123a0b3c0c4b4e0206"}, {"bike_id": "35ad157792564ad9cc334cfd9c73bb5d", "type": "electric_scooter", "is_disabled": 0, "lat": 38.917654166666665, "rental_uris": {"ios": "https://dc.lft.to/lastmile_qr_scan", "android": "https://dc.lft.to/lastmile_qr_scan"}, "is_reserved": 0, "fusion_lon": 0.0, "fusion_lat": 0.0, "lon": -77.03448716666666, "name": "35ad157792564ad9cc334cfd9c73bb5d"}, {"bike_id": "5f587e4fefa9740930fc913f13784027", "type": "electric_scooter", "is_disabled": 0, "lat": 38.90518816666667, "rental_uris": {"ios": "https://dc.lft.to/lastmile_qr_scan", "android": "https://dc.lft.to/lastmile_qr_scan"}, "is_reserved": 0, "fusion_lon": 0.0, "fusion_lat": 0.0, "lon": -77.06377216666667, "name": "5f587e4fefa9740930fc913f13784027"}, {"bike_id": "9137638620defd0a38212b4456cce2f7", "type": "electric_scooter", "is_disabled": 0, "lat": 38.919424666666664, "rental_uris": {"ios": "https://dc.lft.to/lastmile_qr_scan", "android": "https://dc.lft.to/lastmile_qr_scan"}, "is_reserved": 0, "fusion_lon": 0.0, "fusion_lat": 0.0, "lon": -77.04561083333333, "name": "9137638620defd0a38212b4456cce2f7"}, {"bike_id": "a401c586c4e5d752e903d20ce043b94d", "type": "electric_scooter", "is_disabled": 0, "lat": 38.9089655, "rental_uris": {"ios": "https://dc.lft.to/lastmile_qr_scan", "android": "https://dc.lft.to/lastmile_qr_scan"}, "is_reserved": 0, "fusion_lon": 0.0, "fusion_lat": 0.0, "lon": -77.02318516666666, "name": "a401c586c4e5d752e903d20ce043b94d"}, {"bike_id": "a9bd49083580578f985ac49551db05a7", "type": "electric_scooter", "is_disabled": 0, "lat": 38.9170075, "rental_uris": {"ios": "https://dc.lft.to/lastmile_qr_scan", "android": "https://dc.lft.to/lastmile_qr_scan"}, "is_reserved": 0, "fusion_lon": 0.0, "fusion_lat": 0.0, "lon": -77.04215616666667, "name": "a9bd49083580578f985ac49551db05a7"}, {"bike_id": "195355fdb1af3f9d28c5677c79c02a0e", "type": "electric_scooter", "is_disabled": 0, "lat": 38.921541166666664, "rental_uris": {"ios": "https://dc.lft.to/lastmile_qr_scan", "android": "https://dc.lft.to/lastmile_qr_scan"}, "is_reserved": 0, "fusion_lon": 0.0, "fusion_lat": 0.0, "lon": -77.03536066666666, "name": "195355fdb1af3f9d28c5677c79c02a0e"}, {"bike_id": "08279a514c1082cf263052dfffb044c0", "type": "electric_bike", "is_disabled": 0, "lat": 38.809036166666665, "rental_uris": {"ios": "https://dc.lft.to/lastmile_qr_scan", "android": "https://dc.lft.to/lastmile_qr_scan"}, "is_reserved": 0, "fusion_lon": 0.0, "fusion_lat": 0.0, "lon": -77.08657133333334, "name": "08279a514c1082cf263052dfffb044c0"}, {"bike_id": "707ca199b779909b92ebd78fd6a40e69", "type": "electric_scooter", "is_disabled": 0, "lat": 38.9028055, "rental_uris": {"ios": "https://dc.lft.to/lastmile_qr_scan", "android": "https://dc.lft.to/lastmile_qr_scan"}, "is_reserved": 0, "fusion_lon": 0.0, "fusion_lat": 0.0, "lon": -77.00321016666666, "name": "707ca199b779909b92ebd78fd6a40e69"}, {"bike_id": "33dc436a67c919f5337d7feffd2eede1", "type": "electric_scooter", "is_disabled": 0, "lat": 38.91419066666667, "rental_uris": {"ios": "https://dc.lft.to/lastmile_qr_scan", "android": "https://dc.lft.to/lastmile_qr_scan"}, "is_reserved": 0, "fusion_lon": 0.0, "fusion_lat": 0.0, "lon": -77.039087, "name": "33dc436a67c919f5337d7feffd2eede1"}, {"bike_id": "5253f4669dd30649e1ec8ac3d5863615", "type": "electric_scooter", "is_disabled": 0, "lat": 38.9566465, "rental_uris": {"ios": "https://dc.lft.to/lastmile_qr_scan", "android": "https://dc.lft.to/lastmile_qr_scan"}, "is_reserved": 0, "fusion_lon": 0.0, "fusion_lat": 0.0, "lon": -77.0103565, "name": "5253f4669dd30649e1ec8ac3d5863615"}, {"bike_id": "86d558006955bf7eb658a4bea0352722", "type": "electric_scooter", "is_disabled": 0, "lat": 38.92853566666667, "rental_uris": {"ios": "https://dc.lft.to/lastmile_qr_scan", "android": "https://dc.lft.to/lastmile_qr_scan"}, "is_reserved": 0, "fusion_lon": 0.0, "fusion_lat": 0.0, "lon": -77.01950883333333, "name": "86d558006955bf7eb658a4bea0352722"}, {"bike_id": "9c68e7fab96088a8bb35e1da1316e73e", "type": "electric_scooter", "is_disabled": 0, "lat": 38.90150116666667, "rental_uris": {"ios": "https://dc.lft.to/lastmile_qr_scan", "android": "https://dc.lft.to/lastmile_qr_scan"}, "is_reserved": 0, "fusion_lon": 0.0, "fusion_lat": 0.0, "lon": -77.01507483333333, "name": "9c68e7fab96088a8bb35e1da1316e73e"}, {"bike_id": "a0d368f0070c15c835a56cf37c50f573", "type": "electric_scooter", "is_disabled": 0, "lat": 38.906785166666666, "rental_uris": {"ios": "https://dc.lft.to/lastmile_qr_scan", "android": "https://dc.lft.to/lastmile_qr_scan"}, "is_reserved": 0, "fusion_lon": 0.0, "fusion_lat": 0.0, "lon": -77.05330633333334, "name": "a0d368f0070c15c835a56cf37c50f573"}, {"bike_id": "baf70bdf6a24c014ce32193170c652dd", "type": "electric_scooter", "is_disabled": 0, "lat": 38.92090983333333, "rental_uris": {"ios": "https://dc.lft.to/lastmile_qr_scan", "android": "https://dc.lft.to/lastmile_qr_scan"}, "is_reserved": 0, "fusion_lon": 0.0, "fusion_lat": 0.0, "lon": -77.025386, "name": "baf70bdf6a24c014ce32193170c652dd"}, {"bike_id": "166d2b44bd1b532fa99bb823cc542d24", "type": "electric_scooter", "is_disabled": 0, "lat": 38.911212166666665, "rental_uris": {"ios": "https://dc.lft.to/lastmile_qr_scan", "android": "https://dc.lft.to/lastmile_qr_scan"}, "is_reserved": 0, "fusion_lon": 0.0, "fusion_lat": 0.0, "lon": -77.02239916666667, "name": "166d2b44bd1b532fa99bb823cc542d24"}, {"bike_id": "d2e985a5b50a3788029d2cea6563e2fb", "type": "electric_scooter", "is_disabled": 0, "lat": 38.908112333333335, "rental_uris": {"ios": "https://dc.lft.to/lastmile_qr_scan", "android": "https://dc.lft.to/lastmile_qr_scan"}, "is_reserved": 0, "fusion_lon": 0.0, "fusion_lat": 0.0, "lon": -77.06369883333333, "name": "d2e985a5b50a3788029d2cea6563e2fb"}, {"bike_id": "351cd8a68f53b8a686a7c13fae603e67", "type": "electric_scooter", "is_disabled": 0, "lat": 38.92280733333333, "rental_uris": {"ios": "https://dc.lft.to/lastmile_qr_scan", "android": "https://dc.lft.to/lastmile_qr_scan"}, "is_reserved": 0, "fusion_lon": 0.0, "fusion_lat": 0.0, "lon": -77.03280916666667, "name": "351cd8a68f53b8a686a7c13fae603e67"}, {"bike_id": "8def231a283825ab2dfd87817b282939", "type": "electric_bike", "is_disabled": 0, "lat": 38.908348333333336, "rental_uris": {"ios": "https://dc.lft.to/lastmile_qr_scan", "android": "https://dc.lft.to/lastmile_qr_scan"}, "is_reserved": 0, "fusion_lon": 0.0, "fusion_lat": 0.0, "lon": -76.933044, "name": "8def231a283825ab2dfd87817b282939"}, {"bike_id": "bbc31a1b715af4c1dff31de13b670917", "type": "electric_scooter", "is_disabled": 0, "lat": 38.90531566666667, "rental_uris": {"ios": "https://dc.lft.to/lastmile_qr_scan", "android": "https://dc.lft.to/lastmile_qr_scan"}, "is_reserved": 0, "fusion_lon": 0.0, "fusion_lat": 0.0, "lon": -77.05, "name": "bbc31a1b715af4c1dff31de13b670917"}, {"bike_id": "b302a2adbefe3c43041f4735067a43bf", "type": "electric_scooter", "is_disabled": 0, "lat": 38.8709425, "rental_uris": {"ios": "https://dc.lft.to/lastmile_qr_scan", "android": "https://dc.lft.to/lastmile_qr_scan"}, "is_reserved": 0, "fusion_lon": 0.0, "fusion_lat": 0.0, "lon": -77.01210816666666, "name": "b302a2adbefe3c43041f4735067a43bf"}, {"bike_id": "9ba7f6dbed6d0e814e58303967fd0c6b", "type": "electric_scooter", "is_disabled": 0, "lat": 38.91070233333333, "rental_uris": {"ios": "https://dc.lft.to/lastmile_qr_scan", "android": "https://dc.lft.to/lastmile_qr_scan"}, "is_reserved": 0, "fusion_lon": 0.0, "fusion_lat": 0.0, "lon": -77.03731216666667, "name": "9ba7f6dbed6d0e814e58303967fd0c6b"}, {"bike_id": "996d7897ec15816217bef74477f6db36", "type": "electric_scooter", "is_disabled": 0, "lat": 38.88403916666667, "rental_uris": {"ios": "https://dc.lft.to/lastmile_qr_scan", "android": "https://dc.lft.to/lastmile_qr_scan"}, "is_reserved": 0, "fusion_lon": 0.0, "fusion_lat": 0.0, "lon": -76.953956, "name": "996d7897ec15816217bef74477f6db36"}, {"bike_id": "44956dc925f0119554f6809518b86919", "type": "electric_scooter", "is_disabled": 0, "lat": 38.9057135, "rental_uris": {"ios": "https://dc.lft.to/lastmile_qr_scan", "android": "https://dc.lft.to/lastmile_qr_scan"}, "is_reserved": 0, "fusion_lon": 0.0, "fusion_lat": 0.0, "lon": -76.97632, "name": "44956dc925f0119554f6809518b86919"}, {"bike_id": "6c394963de96a8c4539a1fd091c470d6", "type": "electric_scooter", "is_disabled": 0, "lat": 38.928614, "rental_uris": {"ios": "https://dc.lft.to/lastmile_qr_scan", "android": "https://dc.lft.to/lastmile_qr_scan"}, "is_reserved": 0, "fusion_lon": 0.0, "fusion_lat": 0.0, "lon": -77.0542875, "name": "6c394963de96a8c4539a1fd091c470d6"}, {"bike_id": "568bed3eba9f5486e245c1865a30a642", "type": "electric_scooter", "is_disabled": 0, "lat": 38.90881433333333, "rental_uris": {"ios": "https://dc.lft.to/lastmile_qr_scan", "android": "https://dc.lft.to/lastmile_qr_scan"}, "is_reserved": 0, "fusion_lon": 0.0, "fusion_lat": 0.0, "lon": -77.0432815, "name": "568bed3eba9f5486e245c1865a30a642"}, {"bike_id": "48935ed6bc30380cfda0a51b0099f377", "type": "electric_scooter", "is_disabled": 0, "lat": 38.9090445, "rental_uris": {"ios": "https://dc.lft.to/lastmile_qr_scan", "android": "https://dc.lft.to/lastmile_qr_scan"}, "is_reserved": 0, "fusion_lon": 0.0, "fusion_lat": 0.0, "lon": -77.044805, "name": "48935ed6bc30380cfda0a51b0099f377"}, {"bike_id": "fdd77c962036db8881068439c0aa96ce", "type": "electric_scooter", "is_disabled": 0, "lat": 38.915091333333336, "rental_uris": {"ios": "https://dc.lft.to/lastmile_qr_scan", "android": "https://dc.lft.to/lastmile_qr_scan"}, "is_reserved": 0, "fusion_lon": 0.0, "fusion_lat": 0.0, "lon": -77.0229045, "name": "fdd77c962036db8881068439c0aa96ce"}, {"bike_id": "aada3d3625b471935b1069376eaded92", "type": "electric_scooter", "is_disabled": 0, "lat": 38.900670166666664, "rental_uris": {"ios": "https://dc.lft.to/lastmile_qr_scan", "android": "https://dc.lft.to/lastmile_qr_scan"}, "is_reserved": 0, "fusion_lon": 0.0, "fusion_lat": 0.0, "lon": -77.01896616666667, "name": "aada3d3625b471935b1069376eaded92"}, {"bike_id": "4d8d3ade80f992d138add39eca1e69d6", "type": "electric_scooter", "is_disabled": 0, "lat": 38.8949885, "rental_uris": {"ios": "https://dc.lft.to/lastmile_qr_scan", "android": "https://dc.lft.to/lastmile_qr_scan"}, "is_reserved": 0, "fusion_lon": 0.0, "fusion_lat": 0.0, "lon": -76.93482383333334, "name": "4d8d3ade80f992d138add39eca1e69d6"}, {"bike_id": "7ada4d4e8d246ee55b0b8d303e8eeee1", "type": "electric_scooter", "is_disabled": 0, "lat": 38.89748383333333, "rental_uris": {"ios": "https://dc.lft.to/lastmile_qr_scan", "android": "https://dc.lft.to/lastmile_qr_scan"}, "is_reserved": 0, "fusion_lon": 0.0, "fusion_lat": 0.0, "lon": -77.04659, "name": "7ada4d4e8d246ee55b0b8d303e8eeee1"}, {"bike_id": "ae5ca2e4e32d888f9d0c743d99a793b9", "type": "electric_scooter", "is_disabled": 0, "lat": 38.8668885, "rental_uris": {"ios": "https://dc.lft.to/lastmile_qr_scan", "android": "https://dc.lft.to/lastmile_qr_scan"}, "is_reserved": 0, "fusion_lon": 0.0, "fusion_lat": 0.0, "lon": -76.985691, "name": "ae5ca2e4e32d888f9d0c743d99a793b9"}, {"bike_id": "9f75a02edd348ec7f5186f663c6f0159", "type": "electric_scooter", "is_disabled": 0, "lat": 38.9261375, "rental_uris": {"ios": "https://dc.lft.to/lastmile_qr_scan", "android": "https://dc.lft.to/lastmile_qr_scan"}, "is_reserved": 0, "fusion_lon": 0.0, "fusion_lat": 0.0, "lon": -77.04328616666666, "name": "9f75a02edd348ec7f5186f663c6f0159"}, {"bike_id": "107b87031067b7f9f9a5b3d5decf8d79", "type": "electric_bike", "is_disabled": 0, "lat": 38.848336, "rental_uris": {"ios": "https://dc.lft.to/lastmile_qr_scan", "android": "https://dc.lft.to/lastmile_qr_scan"}, "is_reserved": 0, "fusion_lon": 0.0, "fusion_lat": 0.0, "lon": -77.07910816666667, "name": "107b87031067b7f9f9a5b3d5decf8d79"}, {"bike_id": "66385cb5dd027b2621139515381287dc", "type": "electric_scooter", "is_disabled": 0, "lat": 38.94328983333333, "rental_uris": {"ios": "https://dc.lft.to/lastmile_qr_scan", "android": "https://dc.lft.to/lastmile_qr_scan"}, "is_reserved": 0, "fusion_lon": 0.0, "fusion_lat": 0.0, "lon": -77.06135466666667, "name": "66385cb5dd027b2621139515381287dc"}, {"bike_id": "82755083c1d33ab4e0b22d3cfb8582ce", "type": "electric_scooter", "is_disabled": 0, "lat": 38.9254865, "rental_uris": {"ios": "https://dc.lft.to/lastmile_qr_scan", "android": "https://dc.lft.to/lastmile_qr_scan"}, "is_reserved": 0, "fusion_lon": 0.0, "fusion_lat": 0.0, "lon": -77.03358483333334, "name": "82755083c1d33ab4e0b22d3cfb8582ce"}, {"bike_id": "5fe8269270c23d393a4999815de27a4e", "type": "electric_bike", "is_disabled": 0, "lat": 38.942623166666664, "rental_uris": {"ios": "https://dc.lft.to/lastmile_qr_scan", "android": "https://dc.lft.to/lastmile_qr_scan"}, "is_reserved": 0, "fusion_lon": 0.0, "fusion_lat": 0.0, "lon": -76.99072116666666, "name": "5fe8269270c23d393a4999815de27a4e"}, {"bike_id": "1b69d163f9377431c3399ec0d057e7df", "type": "electric_scooter", "is_disabled": 0, "lat": 38.95112433333333, "rental_uris": {"ios": "https://dc.lft.to/lastmile_qr_scan", "android": "https://dc.lft.to/lastmile_qr_scan"}, "is_reserved": 0, "fusion_lon": 0.0, "fusion_lat": 0.0, "lon": -77.01430933333333, "name": "1b69d163f9377431c3399ec0d057e7df"}, {"bike_id": "7982faa7acfb8368029c85ddf430cf59", "type": "electric_scooter", "is_disabled": 0, "lat": 38.900712, "rental_uris": {"ios": "https://dc.lft.to/lastmile_qr_scan", "android": "https://dc.lft.to/lastmile_qr_scan"}, "is_reserved": 0, "fusion_lon": 0.0, "fusion_lat": 0.0, "lon": -77.05128133333334, "name": "7982faa7acfb8368029c85ddf430cf59"}, {"bike_id": "eea4aa8216a435b3532b24d15d325a0f", "type": "electric_scooter", "is_disabled": 0, "lat": 38.91754, "rental_uris": {"ios": "https://dc.lft.to/lastmile_qr_scan", "android": "https://dc.lft.to/lastmile_qr_scan"}, "is_reserved": 0, "fusion_lon": 0.0, "fusion_lat": 0.0, "lon": -77.03857283333333, "name": "eea4aa8216a435b3532b24d15d325a0f"}, {"bike_id": "fea5ac0ab0d9baaa5b348d70f6f8dc3b", "type": "electric_scooter", "is_disabled": 0, "lat": 38.94841683333333, "rental_uris": {"ios": "https://dc.lft.to/lastmile_qr_scan", "android": "https://dc.lft.to/lastmile_qr_scan"}, "is_reserved": 0, "fusion_lon": 0.0, "fusion_lat": 0.0, "lon": -77.02541433333333, "name": "fea5ac0ab0d9baaa5b348d70f6f8dc3b"}, {"bike_id": "3d2bc63b0380768b0c35c2d55d004442", "type": "electric_scooter", "is_disabled": 0, "lat": 38.904219166666664, "rental_uris": {"ios": "https://dc.lft.to/lastmile_qr_scan", "android": "https://dc.lft.to/lastmile_qr_scan"}, "is_reserved": 0, "fusion_lon": 0.0, "fusion_lat": 0.0, "lon": -76.97374183333334, "name": "3d2bc63b0380768b0c35c2d55d004442"}, {"bike_id": "4c599c4ba42c649c2f43af33448617e1", "type": "electric_scooter", "is_disabled": 0, "lat": 38.92068966666667, "rental_uris": {"ios": "https://dc.lft.to/lastmile_qr_scan", "android": "https://dc.lft.to/lastmile_qr_scan"}, "is_reserved": 0, "fusion_lon": 0.0, "fusion_lat": 0.0, "lon": -77.04380533333334, "name": "4c599c4ba42c649c2f43af33448617e1"}, {"bike_id": "3b56c7c2839cf377125af76f6b1a507d", "type": "electric_scooter", "is_disabled": 0, "lat": 38.90538216666667, "rental_uris": {"ios": "https://dc.lft.to/lastmile_qr_scan", "android": "https://dc.lft.to/lastmile_qr_scan"}, "is_reserved": 0, "fusion_lon": 0.0, "fusion_lat": 0.0, "lon": -77.050098, "name": "3b56c7c2839cf377125af76f6b1a507d"}, {"bike_id": "16c99c4771fc3abec49e8844fb6d7459", "type": "electric_scooter", "is_disabled": 0, "lat": 38.934673333333336, "rental_uris": {"ios": "https://dc.lft.to/lastmile_qr_scan", "android": "https://dc.lft.to/lastmile_qr_scan"}, "is_reserved": 0, "fusion_lon": 0.0, "fusion_lat": 0.0, "lon": -77.02801283333334, "name": "16c99c4771fc3abec49e8844fb6d7459"}, {"bike_id": "94fa88a844817d204ccb6952d9e8e985", "type": "electric_scooter", "is_disabled": 0, "lat": 38.934235, "rental_uris": {"ios": "https://dc.lft.to/lastmile_qr_scan", "android": "https://dc.lft.to/lastmile_qr_scan"}, "is_reserved": 0, "fusion_lon": 0.0, "fusion_lat": 0.0, "lon": -77.039144, "name": "94fa88a844817d204ccb6952d9e8e985"}, {"bike_id": "27f8654a1e36b4897f3072fdc5d09ff2", "type": "electric_scooter", "is_disabled": 0, "lat": 38.854472333333334, "rental_uris": {"ios": "https://dc.lft.to/lastmile_qr_scan", "android": "https://dc.lft.to/lastmile_qr_scan"}, "is_reserved": 0, "fusion_lon": 0.0, "fusion_lat": 0.0, "lon": -76.98610816666667, "name": "27f8654a1e36b4897f3072fdc5d09ff2"}, {"bike_id": "2e23008991b789cac4a63f2f9f15a1cf", "type": "electric_scooter", "is_disabled": 0, "lat": 38.911938166666665, "rental_uris": {"ios": "https://dc.lft.to/lastmile_qr_scan", "android": "https://dc.lft.to/lastmile_qr_scan"}, "is_reserved": 0, "fusion_lon": 0.0, "fusion_lat": 0.0, "lon": -77.03832666666666, "name": "2e23008991b789cac4a63f2f9f15a1cf"}, {"bike_id": "172fc6369838803f449d21a51bd0c1ac", "type": "electric_scooter", "is_disabled": 0, "lat": 38.887562833333334, "rental_uris": {"ios": "https://dc.lft.to/lastmile_qr_scan", "android": "https://dc.lft.to/lastmile_qr_scan"}, "is_reserved": 0, "fusion_lon": 0.0, "fusion_lat": 0.0, "lon": -77.0026835, "name": "172fc6369838803f449d21a51bd0c1ac"}, {"bike_id": "147c94f7996e27674598341007a6cf66", "type": "electric_scooter", "is_disabled": 0, "lat": 38.935352, "rental_uris": {"ios": "https://dc.lft.to/lastmile_qr_scan", "android": "https://dc.lft.to/lastmile_qr_scan"}, "is_reserved": 0, "fusion_lon": 0.0, "fusion_lat": 0.0, "lon": -77.02355666666666, "name": "147c94f7996e27674598341007a6cf66"}, {"bike_id": "9fc366a5531d2096568648611ebb31be", "type": "electric_scooter", "is_disabled": 0, "lat": 38.9333065, "rental_uris": {"ios": "https://dc.lft.to/lastmile_qr_scan", "android": "https://dc.lft.to/lastmile_qr_scan"}, "is_reserved": 0, "fusion_lon": 0.0, "fusion_lat": 0.0, "lon": -77.02925583333334, "name": "9fc366a5531d2096568648611ebb31be"}, {"bike_id": "e639bbd473579cd493661e6b1257c90d", "type": "electric_scooter", "is_disabled": 0, "lat": 38.88493783333333, "rental_uris": {"ios": "https://dc.lft.to/lastmile_qr_scan", "android": "https://dc.lft.to/lastmile_qr_scan"}, "is_reserved": 0, "fusion_lon": 0.0, "fusion_lat": 0.0, "lon": -77.00711683333333, "name": "e639bbd473579cd493661e6b1257c90d"}, {"bike_id": "fdfd904e977c05b66dd7e32fc66f3d7f", "type": "electric_bike", "is_disabled": 0, "lat": 38.85417616666667, "rental_uris": {"ios": "https://dc.lft.to/lastmile_qr_scan", "android": "https://dc.lft.to/lastmile_qr_scan"}, "is_reserved": 0, "fusion_lon": 0.0, "fusion_lat": 0.0, "lon": -77.1207635, "name": "fdfd904e977c05b66dd7e32fc66f3d7f"}, {"bike_id": "80ac0746eb5deb1205a3af76ace4a6ff", "type": "electric_scooter", "is_disabled": 0, "lat": 38.924519, "rental_uris": {"ios": "https://dc.lft.to/lastmile_qr_scan", "android": "https://dc.lft.to/lastmile_qr_scan"}, "is_reserved": 0, "fusion_lon": 0.0, "fusion_lat": 0.0, "lon": -77.02416683333334, "name": "80ac0746eb5deb1205a3af76ace4a6ff"}, {"bike_id": "8f60f70821ad4d3b76abcd1a1c26cb63", "type": "electric_scooter", "is_disabled": 0, "lat": 38.86247, "rental_uris": {"ios": "https://dc.lft.to/lastmile_qr_scan", "android": "https://dc.lft.to/lastmile_qr_scan"}, "is_reserved": 0, "fusion_lon": 0.0, "fusion_lat": 0.0, "lon": -76.99501516666666, "name": "8f60f70821ad4d3b76abcd1a1c26cb63"}, {"bike_id": "f26a74ca7935845297c626f9978e169a", "type": "electric_scooter", "is_disabled": 0, "lat": 38.901737, "rental_uris": {"ios": "https://dc.lft.to/lastmile_qr_scan", "android": "https://dc.lft.to/lastmile_qr_scan"}, "is_reserved": 0, "fusion_lon": 0.0, "fusion_lat": 0.0, "lon": -76.98443283333333, "name": "f26a74ca7935845297c626f9978e169a"}, {"bike_id": "0b70dc41976335c130f29f2742b119ef", "type": "electric_scooter", "is_disabled": 0, "lat": 38.94293583333334, "rental_uris": {"ios": "https://dc.lft.to/lastmile_qr_scan", "android": "https://dc.lft.to/lastmile_qr_scan"}, "is_reserved": 0, "fusion_lon": 0.0, "fusion_lat": 0.0, "lon": -77.0217515, "name": "0b70dc41976335c130f29f2742b119ef"}, {"bike_id": "2f1b50753f54ad3e17b835276e15e8c1", "type": "electric_scooter", "is_disabled": 0, "lat": 38.90258883333333, "rental_uris": {"ios": "https://dc.lft.to/lastmile_qr_scan", "android": "https://dc.lft.to/lastmile_qr_scan"}, "is_reserved": 0, "fusion_lon": 0.0, "fusion_lat": 0.0, "lon": -76.97549883333333, "name": "2f1b50753f54ad3e17b835276e15e8c1"}, {"bike_id": "ad859b522eb8502bd00b19ef14e8e2af", "type": "electric_scooter", "is_disabled": 0, "lat": 38.90064383333333, "rental_uris": {"ios": "https://dc.lft.to/lastmile_qr_scan", "android": "https://dc.lft.to/lastmile_qr_scan"}, "is_reserved": 0, "fusion_lon": 0.0, "fusion_lat": 0.0, "lon": -77.03652566666666, "name": "ad859b522eb8502bd00b19ef14e8e2af"}, {"bike_id": "d9a0ffc7faefbbaed7a3cc8c4de7151a", "type": "electric_bike", "is_disabled": 0, "lat": 38.9290815, "rental_uris": {"ios": "https://dc.lft.to/lastmile_qr_scan", "android": "https://dc.lft.to/lastmile_qr_scan"}, "is_reserved": 0, "fusion_lon": 0.0, "fusion_lat": 0.0, "lon": -77.03245566666666, "name": "d9a0ffc7faefbbaed7a3cc8c4de7151a"}, {"bike_id": "066e369ee2c3fa3bf9e165be8326e181", "type": "electric_scooter", "is_disabled": 0, "lat": 38.92217733333333, "rental_uris": {"ios": "https://dc.lft.to/lastmile_qr_scan", "android": "https://dc.lft.to/lastmile_qr_scan"}, "is_reserved": 0, "fusion_lon": 0.0, "fusion_lat": 0.0, "lon": -77.0346195, "name": "066e369ee2c3fa3bf9e165be8326e181"}, {"bike_id": "4a454ce6e1136029fce17ed721f8ca6e", "type": "electric_scooter", "is_disabled": 0, "lat": 38.90835533333333, "rental_uris": {"ios": "https://dc.lft.to/lastmile_qr_scan", "android": "https://dc.lft.to/lastmile_qr_scan"}, "is_reserved": 0, "fusion_lon": 0.0, "fusion_lat": 0.0, "lon": -77.0434125, "name": "4a454ce6e1136029fce17ed721f8ca6e"}, {"bike_id": "6275717a53beb33980bbfb755ee33493", "type": "electric_scooter", "is_disabled": 0, "lat": 38.9049145, "rental_uris": {"ios": "https://dc.lft.to/lastmile_qr_scan", "android": "https://dc.lft.to/lastmile_qr_scan"}, "is_reserved": 0, "fusion_lon": 0.0, "fusion_lat": 0.0, "lon": -76.9868785, "name": "6275717a53beb33980bbfb755ee33493"}, {"bike_id": "381c9c4fe15c7a49a6d3253c64551ada", "type": "electric_scooter", "is_disabled": 0, "lat": 38.91579183333333, "rental_uris": {"ios": "https://dc.lft.to/lastmile_qr_scan", "android": "https://dc.lft.to/lastmile_qr_scan"}, "is_reserved": 0, "fusion_lon": 0.0, "fusion_lat": 0.0, "lon": -77.03173066666666, "name": "381c9c4fe15c7a49a6d3253c64551ada"}, {"bike_id": "a31c281d5a3266230d13848f9c069ac2", "type": "electric_scooter", "is_disabled": 0, "lat": 38.8973315, "rental_uris": {"ios": "https://dc.lft.to/lastmile_qr_scan", "android": "https://dc.lft.to/lastmile_qr_scan"}, "is_reserved": 0, "fusion_lon": 0.0, "fusion_lat": 0.0, "lon": -77.05475516666667, "name": "a31c281d5a3266230d13848f9c069ac2"}, {"bike_id": "29273acca4798f3d6d60a0eaa4013545", "type": "electric_scooter", "is_disabled": 0, "lat": 38.899783166666666, "rental_uris": {"ios": "https://dc.lft.to/lastmile_qr_scan", "android": "https://dc.lft.to/lastmile_qr_scan"}, "is_reserved": 0, "fusion_lon": 0.0, "fusion_lat": 0.0, "lon": -76.98837716666667, "name": "29273acca4798f3d6d60a0eaa4013545"}, {"bike_id": "e62fe169098b208c8bf4ce993c10ba80", "type": "electric_scooter", "is_disabled": 0, "lat": 38.961408, "rental_uris": {"ios": "https://dc.lft.to/lastmile_qr_scan", "android": "https://dc.lft.to/lastmile_qr_scan"}, "is_reserved": 0, "fusion_lon": 0.0, "fusion_lat": 0.0, "lon": -77.02987633333333, "name": "e62fe169098b208c8bf4ce993c10ba80"}, {"bike_id": "2142638eece11ca391a30597477a5f84", "type": "electric_scooter", "is_disabled": 0, "lat": 38.90959933333333, "rental_uris": {"ios": "https://dc.lft.to/lastmile_qr_scan", "android": "https://dc.lft.to/lastmile_qr_scan"}, "is_reserved": 0, "fusion_lon": 0.0, "fusion_lat": 0.0, "lon": -77.02683583333334, "name": "2142638eece11ca391a30597477a5f84"}, {"bike_id": "4c70e98ede37fe7216dc93f60df75e2e", "type": "electric_bike", "is_disabled": 0, "lat": 39.03991516666667, "rental_uris": {"ios": "https://dc.lft.to/lastmile_qr_scan", "android": "https://dc.lft.to/lastmile_qr_scan"}, "is_reserved": 0, "fusion_lon": 0.0, "fusion_lat": 0.0, "lon": -76.99923266666667, "name": "4c70e98ede37fe7216dc93f60df75e2e"}, {"bike_id": "858db6c49487bf9575846f50e5e18701", "type": "electric_scooter", "is_disabled": 0, "lat": 38.90418316666667, "rental_uris": {"ios": "https://dc.lft.to/lastmile_qr_scan", "android": "https://dc.lft.to/lastmile_qr_scan"}, "is_reserved": 0, "fusion_lon": 0.0, "fusion_lat": 0.0, "lon": -77.06887966666666, "name": "858db6c49487bf9575846f50e5e18701"}, {"bike_id": "5a85b9e55c278df76a7c0c76c12f4ec3", "type": "electric_scooter", "is_disabled": 0, "lat": 38.910308666666666, "rental_uris": {"ios": "https://dc.lft.to/lastmile_qr_scan", "android": "https://dc.lft.to/lastmile_qr_scan"}, "is_reserved": 0, "fusion_lon": 0.0, "fusion_lat": 0.0, "lon": -76.98662366666667, "name": "5a85b9e55c278df76a7c0c76c12f4ec3"}, {"bike_id": "cdd2b69d0fd479cd9270d0defe1b099d", "type": "electric_scooter", "is_disabled": 0, "lat": 38.909590333333334, "rental_uris": {"ios": "https://dc.lft.to/lastmile_qr_scan", "android": "https://dc.lft.to/lastmile_qr_scan"}, "is_reserved": 0, "fusion_lon": 0.0, "fusion_lat": 0.0, "lon": -77.04484233333334, "name": "cdd2b69d0fd479cd9270d0defe1b099d"}, {"bike_id": "fc6a861d6e5bf77b424e4e4c93316fd5", "type": "electric_scooter", "is_disabled": 0, "lat": 38.92333383333333, "rental_uris": {"ios": "https://dc.lft.to/lastmile_qr_scan", "android": "https://dc.lft.to/lastmile_qr_scan"}, "is_reserved": 0, "fusion_lon": 0.0, "fusion_lat": 0.0, "lon": -77.03615516666666, "name": "fc6a861d6e5bf77b424e4e4c93316fd5"}, {"bike_id": "b3e7507807c4fc2266c42f16dbd65a86", "type": "electric_scooter", "is_disabled": 0, "lat": 38.91363183333333, "rental_uris": {"ios": "https://dc.lft.to/lastmile_qr_scan", "android": "https://dc.lft.to/lastmile_qr_scan"}, "is_reserved": 0, "fusion_lon": 0.0, "fusion_lat": 0.0, "lon": -77.04553783333333, "name": "b3e7507807c4fc2266c42f16dbd65a86"}, {"bike_id": "a2bae8c4fa15eb186e2676a73815244a", "type": "electric_scooter", "is_disabled": 0, "lat": 38.86656966666666, "rental_uris": {"ios": "https://dc.lft.to/lastmile_qr_scan", "android": "https://dc.lft.to/lastmile_qr_scan"}, "is_reserved": 0, "fusion_lon": 0.0, "fusion_lat": 0.0, "lon": -76.988843, "name": "a2bae8c4fa15eb186e2676a73815244a"}, {"bike_id": "ac453b2746818e14bb6f6bd95ca852ba", "type": "electric_scooter", "is_disabled": 0, "lat": 38.92905716666667, "rental_uris": {"ios": "https://dc.lft.to/lastmile_qr_scan", "android": "https://dc.lft.to/lastmile_qr_scan"}, "is_reserved": 0, "fusion_lon": 0.0, "fusion_lat": 0.0, "lon": -77.02266016666667, "name": "ac453b2746818e14bb6f6bd95ca852ba"}, {"bike_id": "58427ca852b3fc6451fdb1dd32cf5e26", "type": "electric_bike", "is_disabled": 0, "lat": 38.944744666666665, "rental_uris": {"ios": "https://dc.lft.to/lastmile_qr_scan", "android": "https://dc.lft.to/lastmile_qr_scan"}, "is_reserved": 0, "fusion_lon": 0.0, "fusion_lat": 0.0, "lon": -76.98688683333333, "name": "58427ca852b3fc6451fdb1dd32cf5e26"}, {"bike_id": "abcd0b974e21cf062f8e88113a316fe0", "type": "electric_scooter", "is_disabled": 0, "lat": 38.876348666666665, "rental_uris": {"ios": "https://dc.lft.to/lastmile_qr_scan", "android": "https://dc.lft.to/lastmile_qr_scan"}, "is_reserved": 0, "fusion_lon": 0.0, "fusion_lat": 0.0, "lon": -77.00064416666666, "name": "abcd0b974e21cf062f8e88113a316fe0"}, {"bike_id": "664ee5f51e6cf308d6a601b60deda052", "type": "electric_scooter", "is_disabled": 0, "lat": 38.92669583333333, "rental_uris": {"ios": "https://dc.lft.to/lastmile_qr_scan", "android": "https://dc.lft.to/lastmile_qr_scan"}, "is_reserved": 0, "fusion_lon": 0.0, "fusion_lat": 0.0, "lon": -77.01516616666666, "name": "664ee5f51e6cf308d6a601b60deda052"}, {"bike_id": "af69369789ef51ab329c09a34f4c5658", "type": "electric_scooter", "is_disabled": 0, "lat": 38.901826, "rental_uris": {"ios": "https://dc.lft.to/lastmile_qr_scan", "android": "https://dc.lft.to/lastmile_qr_scan"}, "is_reserved": 0, "fusion_lon": 0.0, "fusion_lat": 0.0, "lon": -77.0394205, "name": "af69369789ef51ab329c09a34f4c5658"}, {"bike_id": "f69c27cf746bd7d277da0254fac4911f", "type": "electric_scooter", "is_disabled": 0, "lat": 38.90849766666667, "rental_uris": {"ios": "https://dc.lft.to/lastmile_qr_scan", "android": "https://dc.lft.to/lastmile_qr_scan"}, "is_reserved": 0, "fusion_lon": 0.0, "fusion_lat": 0.0, "lon": -77.02068383333334, "name": "f69c27cf746bd7d277da0254fac4911f"}, {"bike_id": "4efa2b41f58ba2b29099f69a61e0a67e", "type": "electric_scooter", "is_disabled": 0, "lat": 38.91957433333334, "rental_uris": {"ios": "https://dc.lft.to/lastmile_qr_scan", "android": "https://dc.lft.to/lastmile_qr_scan"}, "is_reserved": 0, "fusion_lon": 0.0, "fusion_lat": 0.0, "lon": -77.04878333333333, "name": "4efa2b41f58ba2b29099f69a61e0a67e"}, {"bike_id": "3ea8f38c2d8e6083bdec1553cf1bb1e6", "type": "electric_scooter", "is_disabled": 0, "lat": 38.92862733333333, "rental_uris": {"ios": "https://dc.lft.to/lastmile_qr_scan", "android": "https://dc.lft.to/lastmile_qr_scan"}, "is_reserved": 0, "fusion_lon": 0.0, "fusion_lat": 0.0, "lon": -77.02170716666667, "name": "3ea8f38c2d8e6083bdec1553cf1bb1e6"}, {"bike_id": "4e695e528fd12c8a5344aa033fd055b4", "type": "electric_bike", "is_disabled": 0, "lat": 38.854395833333335, "rental_uris": {"ios": "https://dc.lft.to/lastmile_qr_scan", "android": "https://dc.lft.to/lastmile_qr_scan"}, "is_reserved": 0, "fusion_lon": 0.0, "fusion_lat": 0.0, "lon": -77.08307233333333, "name": "4e695e528fd12c8a5344aa033fd055b4"}, {"bike_id": "d864f2d94e57cc727886c6f62e400041", "type": "electric_scooter", "is_disabled": 0, "lat": 38.936350833333336, "rental_uris": {"ios": "https://dc.lft.to/lastmile_qr_scan", "android": "https://dc.lft.to/lastmile_qr_scan"}, "is_reserved": 0, "fusion_lon": 0.0, "fusion_lat": 0.0, "lon": -77.03661116666666, "name": "d864f2d94e57cc727886c6f62e400041"}, {"bike_id": "24ee9e26d618f3b9b8075cd2d982c411", "type": "electric_scooter", "is_disabled": 0, "lat": 38.952209833333335, "rental_uris": {"ios": "https://dc.lft.to/lastmile_qr_scan", "android": "https://dc.lft.to/lastmile_qr_scan"}, "is_reserved": 0, "fusion_lon": 0.0, "fusion_lat": 0.0, "lon": -77.07069166666666, "name": "24ee9e26d618f3b9b8075cd2d982c411"}, {"bike_id": "bd79e3be163effde397dcb497fc7c771", "type": "electric_scooter", "is_disabled": 0, "lat": 38.91705533333333, "rental_uris": {"ios": "https://dc.lft.to/lastmile_qr_scan", "android": "https://dc.lft.to/lastmile_qr_scan"}, "is_reserved": 0, "fusion_lon": 0.0, "fusion_lat": 0.0, "lon": -77.02408583333333, "name": "bd79e3be163effde397dcb497fc7c771"}, {"bike_id": "8e38a1d887f0a3bfdd00ddcfd7f4ae49", "type": "electric_scooter", "is_disabled": 0, "lat": 38.90409616666667, "rental_uris": {"ios": "https://dc.lft.to/lastmile_qr_scan", "android": "https://dc.lft.to/lastmile_qr_scan"}, "is_reserved": 0, "fusion_lon": 0.0, "fusion_lat": 0.0, "lon": -76.9733335, "name": "8e38a1d887f0a3bfdd00ddcfd7f4ae49"}, {"bike_id": "805edf57012be455acfef0db65c518fc", "type": "electric_scooter", "is_disabled": 0, "lat": 38.91752433333333, "rental_uris": {"ios": "https://dc.lft.to/lastmile_qr_scan", "android": "https://dc.lft.to/lastmile_qr_scan"}, "is_reserved": 0, "fusion_lon": 0.0, "fusion_lat": 0.0, "lon": -77.03664916666666, "name": "805edf57012be455acfef0db65c518fc"}, {"bike_id": "cba2fe44156ac44e5ce745125502f3ce", "type": "electric_scooter", "is_disabled": 0, "lat": 38.890374333333334, "rental_uris": {"ios": "https://dc.lft.to/lastmile_qr_scan", "android": "https://dc.lft.to/lastmile_qr_scan"}, "is_reserved": 0, "fusion_lon": 0.0, "fusion_lat": 0.0, "lon": -77.0297605, "name": "cba2fe44156ac44e5ce745125502f3ce"}, {"bike_id": "c5395a327557fbbe65f97145e4b57901", "type": "electric_scooter", "is_disabled": 0, "lat": 38.9260575, "rental_uris": {"ios": "https://dc.lft.to/lastmile_qr_scan", "android": "https://dc.lft.to/lastmile_qr_scan"}, "is_reserved": 0, "fusion_lon": 0.0, "fusion_lat": 0.0, "lon": -77.10248216666666, "name": "c5395a327557fbbe65f97145e4b57901"}, {"bike_id": "f8982a15088efe6e5542281fc48cf629", "type": "electric_scooter", "is_disabled": 0, "lat": 38.9093285, "rental_uris": {"ios": "https://dc.lft.to/lastmile_qr_scan", "android": "https://dc.lft.to/lastmile_qr_scan"}, "is_reserved": 0, "fusion_lon": 0.0, "fusion_lat": 0.0, "lon": -77.02300283333334, "name": "f8982a15088efe6e5542281fc48cf629"}, {"bike_id": "349200fce9185083fdc154b91cb66a9c", "type": "electric_scooter", "is_disabled": 0, "lat": 38.8922265, "rental_uris": {"ios": "https://dc.lft.to/lastmile_qr_scan", "android": "https://dc.lft.to/lastmile_qr_scan"}, "is_reserved": 0, "fusion_lon": 0.0, "fusion_lat": 0.0, "lon": -77.02627116666666, "name": "349200fce9185083fdc154b91cb66a9c"}, {"bike_id": "933fee06f58a9c1484b09d809099fe11", "type": "electric_scooter", "is_disabled": 0, "lat": 38.897197166666665, "rental_uris": {"ios": "https://dc.lft.to/lastmile_qr_scan", "android": "https://dc.lft.to/lastmile_qr_scan"}, "is_reserved": 0, "fusion_lon": 0.0, "fusion_lat": 0.0, "lon": -77.04887133333334, "name": "933fee06f58a9c1484b09d809099fe11"}, {"bike_id": "e5fe6fda823ce89dd03104bfd130c724", "type": "electric_scooter", "is_disabled": 0, "lat": 38.8984365, "rental_uris": {"ios": "https://dc.lft.to/lastmile_qr_scan", "android": "https://dc.lft.to/lastmile_qr_scan"}, "is_reserved": 0, "fusion_lon": 0.0, "fusion_lat": 0.0, "lon": -76.94637516666667, "name": "e5fe6fda823ce89dd03104bfd130c724"}, {"bike_id": "c18cc744f7edb9628b80b848416ed99d", "type": "electric_bike", "is_disabled": 0, "lat": 39.050606, "rental_uris": {"ios": "https://dc.lft.to/lastmile_qr_scan", "android": "https://dc.lft.to/lastmile_qr_scan"}, "is_reserved": 0, "fusion_lon": 0.0, "fusion_lat": 0.0, "lon": -77.051473, "name": "c18cc744f7edb9628b80b848416ed99d"}, {"bike_id": "485da3b377233337a7e4ff227a5da256", "type": "electric_scooter", "is_disabled": 0, "lat": 38.936806833333335, "rental_uris": {"ios": "https://dc.lft.to/lastmile_qr_scan", "android": "https://dc.lft.to/lastmile_qr_scan"}, "is_reserved": 0, "fusion_lon": 0.0, "fusion_lat": 0.0, "lon": -77.03573316666666, "name": "485da3b377233337a7e4ff227a5da256"}, {"bike_id": "75f3f62934422d10fb53c9a3b632b752", "type": "electric_scooter", "is_disabled": 0, "lat": 38.8938745, "rental_uris": {"ios": "https://dc.lft.to/lastmile_qr_scan", "android": "https://dc.lft.to/lastmile_qr_scan"}, "is_reserved": 0, "fusion_lon": 0.0, "fusion_lat": 0.0, "lon": -77.02856733333333, "name": "75f3f62934422d10fb53c9a3b632b752"}, {"bike_id": "d4fb1ef211789e489af67c33f2bcea55", "type": "electric_scooter", "is_disabled": 0, "lat": 38.91105066666667, "rental_uris": {"ios": "https://dc.lft.to/lastmile_qr_scan", "android": "https://dc.lft.to/lastmile_qr_scan"}, "is_reserved": 0, "fusion_lon": 0.0, "fusion_lat": 0.0, "lon": -77.034443, "name": "d4fb1ef211789e489af67c33f2bcea55"}, {"bike_id": "59b1890749de74b7f996c768524ea634", "type": "electric_scooter", "is_disabled": 0, "lat": 38.876343, "rental_uris": {"ios": "https://dc.lft.to/lastmile_qr_scan", "android": "https://dc.lft.to/lastmile_qr_scan"}, "is_reserved": 0, "fusion_lon": 0.0, "fusion_lat": 0.0, "lon": -77.0095295, "name": "59b1890749de74b7f996c768524ea634"}, {"bike_id": "143783c1a67c9e53ae8646c32c5c1919", "type": "electric_scooter", "is_disabled": 0, "lat": 38.9103605, "rental_uris": {"ios": "https://dc.lft.to/lastmile_qr_scan", "android": "https://dc.lft.to/lastmile_qr_scan"}, "is_reserved": 0, "fusion_lon": 0.0, "fusion_lat": 0.0, "lon": -77.0426155, "name": "143783c1a67c9e53ae8646c32c5c1919"}, {"bike_id": "b9c7206830901aa09647fc963425efe2", "type": "electric_scooter", "is_disabled": 0, "lat": 38.8977185, "rental_uris": {"ios": "https://dc.lft.to/lastmile_qr_scan", "android": "https://dc.lft.to/lastmile_qr_scan"}, "is_reserved": 0, "fusion_lon": 0.0, "fusion_lat": 0.0, "lon": -77.02231116666667, "name": "b9c7206830901aa09647fc963425efe2"}, {"bike_id": "8d458d15708a2f3e8541265b627b5c00", "type": "electric_scooter", "is_disabled": 0, "lat": 38.8900535, "rental_uris": {"ios": "https://dc.lft.to/lastmile_qr_scan", "android": "https://dc.lft.to/lastmile_qr_scan"}, "is_reserved": 0, "fusion_lon": 0.0, "fusion_lat": 0.0, "lon": -76.93747133333333, "name": "8d458d15708a2f3e8541265b627b5c00"}, {"bike_id": "285b526231fb580f83b3b0e11dd83363", "type": "electric_bike", "is_disabled": 0, "lat": 38.8324245, "rental_uris": {"ios": "https://dc.lft.to/lastmile_qr_scan", "android": "https://dc.lft.to/lastmile_qr_scan"}, "is_reserved": 0, "fusion_lon": 0.0, "fusion_lat": 0.0, "lon": -76.946207, "name": "285b526231fb580f83b3b0e11dd83363"}, {"bike_id": "887b1c383b56b90f64461015fd420928", "type": "electric_scooter", "is_disabled": 0, "lat": 38.906650166666665, "rental_uris": {"ios": "https://dc.lft.to/lastmile_qr_scan", "android": "https://dc.lft.to/lastmile_qr_scan"}, "is_reserved": 0, "fusion_lon": 0.0, "fusion_lat": 0.0, "lon": -77.02703083333333, "name": "887b1c383b56b90f64461015fd420928"}, {"bike_id": "d3d496d7a79c3ca79be7c357fbd83b8e", "type": "electric_scooter", "is_disabled": 0, "lat": 38.923398666666664, "rental_uris": {"ios": "https://dc.lft.to/lastmile_qr_scan", "android": "https://dc.lft.to/lastmile_qr_scan"}, "is_reserved": 0, "fusion_lon": 0.0, "fusion_lat": 0.0, "lon": -77.03529933333333, "name": "d3d496d7a79c3ca79be7c357fbd83b8e"}, {"bike_id": "9cd02496bd9e7160d5b65393958d45c1", "type": "electric_scooter", "is_disabled": 0, "lat": 38.904097666666665, "rental_uris": {"ios": "https://dc.lft.to/lastmile_qr_scan", "android": "https://dc.lft.to/lastmile_qr_scan"}, "is_reserved": 0, "fusion_lon": 0.0, "fusion_lat": 0.0, "lon": -76.9733235, "name": "9cd02496bd9e7160d5b65393958d45c1"}, {"bike_id": "5c76a222389a66dbdc253ae88b30f18d", "type": "electric_scooter", "is_disabled": 0, "lat": 38.900136, "rental_uris": {"ios": "https://dc.lft.to/lastmile_qr_scan", "android": "https://dc.lft.to/lastmile_qr_scan"}, "is_reserved": 0, "fusion_lon": 0.0, "fusion_lat": 0.0, "lon": -77.04480766666667, "name": "5c76a222389a66dbdc253ae88b30f18d"}, {"bike_id": "670982f2d37ed12cd1a7d945eada378b", "type": "electric_scooter", "is_disabled": 0, "lat": 38.924633666666665, "rental_uris": {"ios": "https://dc.lft.to/lastmile_qr_scan", "android": "https://dc.lft.to/lastmile_qr_scan"}, "is_reserved": 0, "fusion_lon": 0.0, "fusion_lat": 0.0, "lon": -77.03981766666666, "name": "670982f2d37ed12cd1a7d945eada378b"}, {"bike_id": "9740c537592fce68e4c432a549e3966c", "type": "electric_scooter", "is_disabled": 0, "lat": 38.909726666666664, "rental_uris": {"ios": "https://dc.lft.to/lastmile_qr_scan", "android": "https://dc.lft.to/lastmile_qr_scan"}, "is_reserved": 0, "fusion_lon": 0.0, "fusion_lat": 0.0, "lon": -77.03259283333334, "name": "9740c537592fce68e4c432a549e3966c"}, {"bike_id": "d6a3083b2a8dfe875d8c509adb9cf6fe", "type": "electric_scooter", "is_disabled": 0, "lat": 38.89760066666667, "rental_uris": {"ios": "https://dc.lft.to/lastmile_qr_scan", "android": "https://dc.lft.to/lastmile_qr_scan"}, "is_reserved": 0, "fusion_lon": 0.0, "fusion_lat": 0.0, "lon": -77.0259635, "name": "d6a3083b2a8dfe875d8c509adb9cf6fe"}, {"bike_id": "356aba11568c2c37240507a8376ca22b", "type": "electric_scooter", "is_disabled": 0, "lat": 38.93255516666667, "rental_uris": {"ios": "https://dc.lft.to/lastmile_qr_scan", "android": "https://dc.lft.to/lastmile_qr_scan"}, "is_reserved": 0, "fusion_lon": 0.0, "fusion_lat": 0.0, "lon": -77.03855983333334, "name": "356aba11568c2c37240507a8376ca22b"}, {"bike_id": "39255b9e3eccfbd9a7665e20942281c2", "type": "electric_scooter", "is_disabled": 0, "lat": 38.92406, "rental_uris": {"ios": "https://dc.lft.to/lastmile_qr_scan", "android": "https://dc.lft.to/lastmile_qr_scan"}, "is_reserved": 0, "fusion_lon": 0.0, "fusion_lat": 0.0, "lon": -77.05065666666667, "name": "39255b9e3eccfbd9a7665e20942281c2"}, {"bike_id": "89f73701e86927b20785bc3aab7f82ab", "type": "electric_scooter", "is_disabled": 0, "lat": 38.88262483333333, "rental_uris": {"ios": "https://dc.lft.to/lastmile_qr_scan", "android": "https://dc.lft.to/lastmile_qr_scan"}, "is_reserved": 0, "fusion_lon": 0.0, "fusion_lat": 0.0, "lon": -76.99507816666667, "name": "89f73701e86927b20785bc3aab7f82ab"}, {"bike_id": "154f8e52634c701a24bd0775ceca53eb", "type": "electric_scooter", "is_disabled": 0, "lat": 38.862055, "rental_uris": {"ios": "https://dc.lft.to/lastmile_qr_scan", "android": "https://dc.lft.to/lastmile_qr_scan"}, "is_reserved": 0, "fusion_lon": 0.0, "fusion_lat": 0.0, "lon": -76.9946645, "name": "154f8e52634c701a24bd0775ceca53eb"}, {"bike_id": "6594b912d92fcda9855945b63bb46f4c", "type": "electric_scooter", "is_disabled": 0, "lat": 38.915712, "rental_uris": {"ios": "https://dc.lft.to/lastmile_qr_scan", "android": "https://dc.lft.to/lastmile_qr_scan"}, "is_reserved": 0, "fusion_lon": 0.0, "fusion_lat": 0.0, "lon": -77.03186416666667, "name": "6594b912d92fcda9855945b63bb46f4c"}, {"bike_id": "d43618871005489294a6a796019545d8", "type": "electric_scooter", "is_disabled": 0, "lat": 38.92529283333333, "rental_uris": {"ios": "https://dc.lft.to/lastmile_qr_scan", "android": "https://dc.lft.to/lastmile_qr_scan"}, "is_reserved": 0, "fusion_lon": 0.0, "fusion_lat": 0.0, "lon": -77.04119933333334, "name": "d43618871005489294a6a796019545d8"}, {"bike_id": "4bfb18d0a9381d2faa5a1ea0666f8676", "type": "electric_scooter", "is_disabled": 0, "lat": 38.94714866666666, "rental_uris": {"ios": "https://dc.lft.to/lastmile_qr_scan", "android": "https://dc.lft.to/lastmile_qr_scan"}, "is_reserved": 0, "fusion_lon": 0.0, "fusion_lat": 0.0, "lon": -77.02777683333333, "name": "4bfb18d0a9381d2faa5a1ea0666f8676"}, {"bike_id": "0acde9d7318d0f8be6fa44933faeed00", "type": "electric_scooter", "is_disabled": 0, "lat": 38.91107783333333, "rental_uris": {"ios": "https://dc.lft.to/lastmile_qr_scan", "android": "https://dc.lft.to/lastmile_qr_scan"}, "is_reserved": 0, "fusion_lon": 0.0, "fusion_lat": 0.0, "lon": -77.02445766666666, "name": "0acde9d7318d0f8be6fa44933faeed00"}, {"bike_id": "6ed659757e86b27c9cd78331657e4c14", "type": "electric_scooter", "is_disabled": 0, "lat": 38.927860833333334, "rental_uris": {"ios": "https://dc.lft.to/lastmile_qr_scan", "android": "https://dc.lft.to/lastmile_qr_scan"}, "is_reserved": 0, "fusion_lon": 0.0, "fusion_lat": 0.0, "lon": -77.05259716666667, "name": "6ed659757e86b27c9cd78331657e4c14"}, {"bike_id": "33c1dd8bd5dd2124f06ae191a574b125", "type": "electric_scooter", "is_disabled": 0, "lat": 38.9037555, "rental_uris": {"ios": "https://dc.lft.to/lastmile_qr_scan", "android": "https://dc.lft.to/lastmile_qr_scan"}, "is_reserved": 0, "fusion_lon": 0.0, "fusion_lat": 0.0, "lon": -77.00888633333334, "name": "33c1dd8bd5dd2124f06ae191a574b125"}, {"bike_id": "6714bec62b8607d85cc54a1ee5c6d63d", "type": "electric_scooter", "is_disabled": 0, "lat": 38.918330833333336, "rental_uris": {"ios": "https://dc.lft.to/lastmile_qr_scan", "android": "https://dc.lft.to/lastmile_qr_scan"}, "is_reserved": 0, "fusion_lon": 0.0, "fusion_lat": 0.0, "lon": -77.045623, "name": "6714bec62b8607d85cc54a1ee5c6d63d"}, {"bike_id": "e0562d9941c241f14380fec772f062d1", "type": "electric_scooter", "is_disabled": 0, "lat": 38.8669635, "rental_uris": {"ios": "https://dc.lft.to/lastmile_qr_scan", "android": "https://dc.lft.to/lastmile_qr_scan"}, "is_reserved": 0, "fusion_lon": 0.0, "fusion_lat": 0.0, "lon": -76.987098, "name": "e0562d9941c241f14380fec772f062d1"}, {"bike_id": "6dd5d32d51506f76da2ac6894711ab0f", "type": "electric_scooter", "is_disabled": 0, "lat": 38.91338233333333, "rental_uris": {"ios": "https://dc.lft.to/lastmile_qr_scan", "android": "https://dc.lft.to/lastmile_qr_scan"}, "is_reserved": 0, "fusion_lon": 0.0, "fusion_lat": 0.0, "lon": -77.03180016666667, "name": "6dd5d32d51506f76da2ac6894711ab0f"}, {"bike_id": "3f58406c95f68afee39ececa2bdcf027", "type": "electric_scooter", "is_disabled": 0, "lat": 38.9245705, "rental_uris": {"ios": "https://dc.lft.to/lastmile_qr_scan", "android": "https://dc.lft.to/lastmile_qr_scan"}, "is_reserved": 0, "fusion_lon": 0.0, "fusion_lat": 0.0, "lon": -77.0397665, "name": "3f58406c95f68afee39ececa2bdcf027"}, {"bike_id": "0d17d4cbd38dd12a9d1f7d32545a3299", "type": "electric_scooter", "is_disabled": 0, "lat": 38.906435333333334, "rental_uris": {"ios": "https://dc.lft.to/lastmile_qr_scan", "android": "https://dc.lft.to/lastmile_qr_scan"}, "is_reserved": 0, "fusion_lon": 0.0, "fusion_lat": 0.0, "lon": -77.00588883333333, "name": "0d17d4cbd38dd12a9d1f7d32545a3299"}, {"bike_id": "b7590e884a2c021310ddf238b9ad2466", "type": "electric_scooter", "is_disabled": 0, "lat": 38.866754, "rental_uris": {"ios": "https://dc.lft.to/lastmile_qr_scan", "android": "https://dc.lft.to/lastmile_qr_scan"}, "is_reserved": 0, "fusion_lon": 0.0, "fusion_lat": 0.0, "lon": -76.985266, "name": "b7590e884a2c021310ddf238b9ad2466"}, {"bike_id": "8ba273d576fe384704d00a2bff4a36d2", "type": "electric_scooter", "is_disabled": 0, "lat": 38.896179000000004, "rental_uris": {"ios": "https://dc.lft.to/lastmile_qr_scan", "android": "https://dc.lft.to/lastmile_qr_scan"}, "is_reserved": 0, "fusion_lon": 0.0, "fusion_lat": 0.0, "lon": -76.98166216666667, "name": "8ba273d576fe384704d00a2bff4a36d2"}, {"bike_id": "339c96d5e7a4fcf397b76e38bb565ce1", "type": "electric_scooter", "is_disabled": 0, "lat": 38.9135025, "rental_uris": {"ios": "https://dc.lft.to/lastmile_qr_scan", "android": "https://dc.lft.to/lastmile_qr_scan"}, "is_reserved": 0, "fusion_lon": 0.0, "fusion_lat": 0.0, "lon": -77.02568533333333, "name": "339c96d5e7a4fcf397b76e38bb565ce1"}, {"bike_id": "679210071d5dc96b40b85d2c58cfc4ce", "type": "electric_scooter", "is_disabled": 0, "lat": 38.91573116666667, "rental_uris": {"ios": "https://dc.lft.to/lastmile_qr_scan", "android": "https://dc.lft.to/lastmile_qr_scan"}, "is_reserved": 0, "fusion_lon": 0.0, "fusion_lat": 0.0, "lon": -77.0199695, "name": "679210071d5dc96b40b85d2c58cfc4ce"}, {"bike_id": "3098e36c2a00a3ab61aa2daaa99e8853", "type": "electric_scooter", "is_disabled": 0, "lat": 38.91580616666667, "rental_uris": {"ios": "https://dc.lft.to/lastmile_qr_scan", "android": "https://dc.lft.to/lastmile_qr_scan"}, "is_reserved": 0, "fusion_lon": 0.0, "fusion_lat": 0.0, "lon": -77.02057366666666, "name": "3098e36c2a00a3ab61aa2daaa99e8853"}, {"bike_id": "3d30f9f5c0346b6af4754ccd2ab4ff33", "type": "electric_scooter", "is_disabled": 0, "lat": 38.89508933333333, "rental_uris": {"ios": "https://dc.lft.to/lastmile_qr_scan", "android": "https://dc.lft.to/lastmile_qr_scan"}, "is_reserved": 0, "fusion_lon": 0.0, "fusion_lat": 0.0, "lon": -77.01085583333334, "name": "3d30f9f5c0346b6af4754ccd2ab4ff33"}, {"bike_id": "f87c9efb64c7a250712551b8644d225d", "type": "electric_scooter", "is_disabled": 0, "lat": 38.902724, "rental_uris": {"ios": "https://dc.lft.to/lastmile_qr_scan", "android": "https://dc.lft.to/lastmile_qr_scan"}, "is_reserved": 0, "fusion_lon": 0.0, "fusion_lat": 0.0, "lon": -77.01899566666667, "name": "f87c9efb64c7a250712551b8644d225d"}, {"bike_id": "d70a5ec9bd6658dff5b8c10ed4637948", "type": "electric_scooter", "is_disabled": 0, "lat": 38.898110333333335, "rental_uris": {"ios": "https://dc.lft.to/lastmile_qr_scan", "android": "https://dc.lft.to/lastmile_qr_scan"}, "is_reserved": 0, "fusion_lon": 0.0, "fusion_lat": 0.0, "lon": -77.04892066666666, "name": "d70a5ec9bd6658dff5b8c10ed4637948"}, {"bike_id": "7113cc8ec9b60cf692dcd4e4eb5987ba", "type": "electric_scooter", "is_disabled": 0, "lat": 38.902538166666666, "rental_uris": {"ios": "https://dc.lft.to/lastmile_qr_scan", "android": "https://dc.lft.to/lastmile_qr_scan"}, "is_reserved": 0, "fusion_lon": 0.0, "fusion_lat": 0.0, "lon": -77.04611033333333, "name": "7113cc8ec9b60cf692dcd4e4eb5987ba"}, {"bike_id": "879bb1bc4a7d405df06fcf564f917f35", "type": "electric_scooter", "is_disabled": 0, "lat": 38.92336316666667, "rental_uris": {"ios": "https://dc.lft.to/lastmile_qr_scan", "android": "https://dc.lft.to/lastmile_qr_scan"}, "is_reserved": 0, "fusion_lon": 0.0, "fusion_lat": 0.0, "lon": -77.03532816666667, "name": "879bb1bc4a7d405df06fcf564f917f35"}, {"bike_id": "30773050d63121d2a7e163ad4efd788d", "type": "electric_scooter", "is_disabled": 0, "lat": 38.90211566666667, "rental_uris": {"ios": "https://dc.lft.to/lastmile_qr_scan", "android": "https://dc.lft.to/lastmile_qr_scan"}, "is_reserved": 0, "fusion_lon": 0.0, "fusion_lat": 0.0, "lon": -77.0511485, "name": "30773050d63121d2a7e163ad4efd788d"}, {"bike_id": "443d294d26255abdd4eddaec83f05ead", "type": "electric_scooter", "is_disabled": 0, "lat": 38.91764516666667, "rental_uris": {"ios": "https://dc.lft.to/lastmile_qr_scan", "android": "https://dc.lft.to/lastmile_qr_scan"}, "is_reserved": 0, "fusion_lon": 0.0, "fusion_lat": 0.0, "lon": -77.04764566666667, "name": "443d294d26255abdd4eddaec83f05ead"}, {"bike_id": "6076f04c3fa5c4954ec0a60a1f2e1fc3", "type": "electric_scooter", "is_disabled": 0, "lat": 38.90305033333333, "rental_uris": {"ios": "https://dc.lft.to/lastmile_qr_scan", "android": "https://dc.lft.to/lastmile_qr_scan"}, "is_reserved": 0, "fusion_lon": 0.0, "fusion_lat": 0.0, "lon": -77.0236675, "name": "6076f04c3fa5c4954ec0a60a1f2e1fc3"}, {"bike_id": "91d026a5725f3d7b44cd009c1052a505", "type": "electric_scooter", "is_disabled": 0, "lat": 38.91919983333333, "rental_uris": {"ios": "https://dc.lft.to/lastmile_qr_scan", "android": "https://dc.lft.to/lastmile_qr_scan"}, "is_reserved": 0, "fusion_lon": 0.0, "fusion_lat": 0.0, "lon": -77.04630316666666, "name": "91d026a5725f3d7b44cd009c1052a505"}, {"bike_id": "29253e73cef9686d535ba68fb0325aa7", "type": "electric_scooter", "is_disabled": 0, "lat": 38.905963666666665, "rental_uris": {"ios": "https://dc.lft.to/lastmile_qr_scan", "android": "https://dc.lft.to/lastmile_qr_scan"}, "is_reserved": 0, "fusion_lon": 0.0, "fusion_lat": 0.0, "lon": -77.07015933333334, "name": "29253e73cef9686d535ba68fb0325aa7"}, {"bike_id": "ded39ff18ea794a1622454ef6e7fffe2", "type": "electric_scooter", "is_disabled": 0, "lat": 38.9642055, "rental_uris": {"ios": "https://dc.lft.to/lastmile_qr_scan", "android": "https://dc.lft.to/lastmile_qr_scan"}, "is_reserved": 0, "fusion_lon": 0.0, "fusion_lat": 0.0, "lon": -77.024282, "name": "ded39ff18ea794a1622454ef6e7fffe2"}, {"bike_id": "f7344a6c0b99bae8ee5f83ca3b617bcb", "type": "electric_scooter", "is_disabled": 0, "lat": 38.91822766666667, "rental_uris": {"ios": "https://dc.lft.to/lastmile_qr_scan", "android": "https://dc.lft.to/lastmile_qr_scan"}, "is_reserved": 0, "fusion_lon": 0.0, "fusion_lat": 0.0, "lon": -77.04946666666666, "name": "f7344a6c0b99bae8ee5f83ca3b617bcb"}, {"bike_id": "a78cdfa8ab4c2a89599c03b8bf0b9da4", "type": "electric_scooter", "is_disabled": 0, "lat": 38.922194, "rental_uris": {"ios": "https://dc.lft.to/lastmile_qr_scan", "android": "https://dc.lft.to/lastmile_qr_scan"}, "is_reserved": 0, "fusion_lon": 0.0, "fusion_lat": 0.0, "lon": -77.0329185, "name": "a78cdfa8ab4c2a89599c03b8bf0b9da4"}, {"bike_id": "cb41b3b972dd05555ee8d2084afca041", "type": "electric_scooter", "is_disabled": 0, "lat": 38.9057845, "rental_uris": {"ios": "https://dc.lft.to/lastmile_qr_scan", "android": "https://dc.lft.to/lastmile_qr_scan"}, "is_reserved": 0, "fusion_lon": 0.0, "fusion_lat": 0.0, "lon": -77.03830583333334, "name": "cb41b3b972dd05555ee8d2084afca041"}, {"bike_id": "577c662068784c6aec71b37021765742", "type": "electric_scooter", "is_disabled": 0, "lat": 38.9191415, "rental_uris": {"ios": "https://dc.lft.to/lastmile_qr_scan", "android": "https://dc.lft.to/lastmile_qr_scan"}, "is_reserved": 0, "fusion_lon": 0.0, "fusion_lat": 0.0, "lon": -77.0336745, "name": "577c662068784c6aec71b37021765742"}, {"bike_id": "56ac82a81625bb6379697506a80fd136", "type": "electric_scooter", "is_disabled": 0, "lat": 38.91405616666667, "rental_uris": {"ios": "https://dc.lft.to/lastmile_qr_scan", "android": "https://dc.lft.to/lastmile_qr_scan"}, "is_reserved": 0, "fusion_lon": 0.0, "fusion_lat": 0.0, "lon": -77.03175433333334, "name": "56ac82a81625bb6379697506a80fd136"}, {"bike_id": "436875cd1a3c36859cb3fcb4b90cd9a6", "type": "electric_scooter", "is_disabled": 0, "lat": 38.910534, "rental_uris": {"ios": "https://dc.lft.to/lastmile_qr_scan", "android": "https://dc.lft.to/lastmile_qr_scan"}, "is_reserved": 0, "fusion_lon": 0.0, "fusion_lat": 0.0, "lon": -77.04335566666667, "name": "436875cd1a3c36859cb3fcb4b90cd9a6"}, {"bike_id": "60cd9ba476775643cae639b845ffb74f", "type": "electric_scooter", "is_disabled": 0, "lat": 38.902088666666664, "rental_uris": {"ios": "https://dc.lft.to/lastmile_qr_scan", "android": "https://dc.lft.to/lastmile_qr_scan"}, "is_reserved": 0, "fusion_lon": 0.0, "fusion_lat": 0.0, "lon": -76.99270283333334, "name": "60cd9ba476775643cae639b845ffb74f"}, {"bike_id": "f7f51c4461a67d81a3a066d5a006f127", "type": "electric_scooter", "is_disabled": 0, "lat": 38.92272366666667, "rental_uris": {"ios": "https://dc.lft.to/lastmile_qr_scan", "android": "https://dc.lft.to/lastmile_qr_scan"}, "is_reserved": 0, "fusion_lon": 0.0, "fusion_lat": 0.0, "lon": -77.0427945, "name": "f7f51c4461a67d81a3a066d5a006f127"}, {"bike_id": "9e89f22a5467583802c711992d7b5aa5", "type": "electric_scooter", "is_disabled": 0, "lat": 38.915185, "rental_uris": {"ios": "https://dc.lft.to/lastmile_qr_scan", "android": "https://dc.lft.to/lastmile_qr_scan"}, "is_reserved": 0, "fusion_lon": 0.0, "fusion_lat": 0.0, "lon": -77.0122405, "name": "9e89f22a5467583802c711992d7b5aa5"}, {"bike_id": "222bc5ec438140d4b4f0ceb7a20f7d66", "type": "electric_scooter", "is_disabled": 0, "lat": 38.91698, "rental_uris": {"ios": "https://dc.lft.to/lastmile_qr_scan", "android": "https://dc.lft.to/lastmile_qr_scan"}, "is_reserved": 0, "fusion_lon": 0.0, "fusion_lat": 0.0, "lon": -77.02936866666667, "name": "222bc5ec438140d4b4f0ceb7a20f7d66"}, {"bike_id": "2d24d9a2f9910ce57f85f4e2f9913100", "type": "electric_bike", "is_disabled": 0, "lat": 38.89741333333333, "rental_uris": {"ios": "https://dc.lft.to/lastmile_qr_scan", "android": "https://dc.lft.to/lastmile_qr_scan"}, "is_reserved": 0, "fusion_lon": 0.0, "fusion_lat": 0.0, "lon": -76.92043816666667, "name": "2d24d9a2f9910ce57f85f4e2f9913100"}, {"bike_id": "981f74915152709d8a63b11b98f1d21b", "type": "electric_scooter", "is_disabled": 0, "lat": 38.90818066666667, "rental_uris": {"ios": "https://dc.lft.to/lastmile_qr_scan", "android": "https://dc.lft.to/lastmile_qr_scan"}, "is_reserved": 0, "fusion_lon": 0.0, "fusion_lat": 0.0, "lon": -77.02382483333334, "name": "981f74915152709d8a63b11b98f1d21b"}, {"bike_id": "66efbcc6c401c77eb404ac686ceea354", "type": "electric_scooter", "is_disabled": 0, "lat": 38.943342333333334, "rental_uris": {"ios": "https://dc.lft.to/lastmile_qr_scan", "android": "https://dc.lft.to/lastmile_qr_scan"}, "is_reserved": 0, "fusion_lon": 0.0, "fusion_lat": 0.0, "lon": -77.01476566666666, "name": "66efbcc6c401c77eb404ac686ceea354"}, {"bike_id": "082cde7bd45468e8ad5d90858e67b8a7", "type": "electric_scooter", "is_disabled": 0, "lat": 38.92392433333333, "rental_uris": {"ios": "https://dc.lft.to/lastmile_qr_scan", "android": "https://dc.lft.to/lastmile_qr_scan"}, "is_reserved": 0, "fusion_lon": 0.0, "fusion_lat": 0.0, "lon": -77.040833, "name": "082cde7bd45468e8ad5d90858e67b8a7"}, {"bike_id": "ed6c71a14000897d9bfea7f2a991cbfc", "type": "electric_scooter", "is_disabled": 0, "lat": 38.92149533333333, "rental_uris": {"ios": "https://dc.lft.to/lastmile_qr_scan", "android": "https://dc.lft.to/lastmile_qr_scan"}, "is_reserved": 0, "fusion_lon": 0.0, "fusion_lat": 0.0, "lon": -77.043565, "name": "ed6c71a14000897d9bfea7f2a991cbfc"}, {"bike_id": "cd117f0c12b73df180566f5739789831", "type": "electric_scooter", "is_disabled": 0, "lat": 38.91919466666667, "rental_uris": {"ios": "https://dc.lft.to/lastmile_qr_scan", "android": "https://dc.lft.to/lastmile_qr_scan"}, "is_reserved": 0, "fusion_lon": 0.0, "fusion_lat": 0.0, "lon": -77.0342405, "name": "cd117f0c12b73df180566f5739789831"}, {"bike_id": "a5a08dba6571046dfb3cf702c1a13a1f", "type": "electric_scooter", "is_disabled": 0, "lat": 38.90399683333333, "rental_uris": {"ios": "https://dc.lft.to/lastmile_qr_scan", "android": "https://dc.lft.to/lastmile_qr_scan"}, "is_reserved": 0, "fusion_lon": 0.0, "fusion_lat": 0.0, "lon": -77.06782233333334, "name": "a5a08dba6571046dfb3cf702c1a13a1f"}, {"bike_id": "f3d53724aebb1feeba74e15d82a07b4f", "type": "electric_scooter", "is_disabled": 0, "lat": 38.91402316666667, "rental_uris": {"ios": "https://dc.lft.to/lastmile_qr_scan", "android": "https://dc.lft.to/lastmile_qr_scan"}, "is_reserved": 0, "fusion_lon": 0.0, "fusion_lat": 0.0, "lon": -77.01321433333334, "name": "f3d53724aebb1feeba74e15d82a07b4f"}, {"bike_id": "bb157e9edd1305438e5a4f5f34a4e5de", "type": "electric_scooter", "is_disabled": 0, "lat": 38.9240435, "rental_uris": {"ios": "https://dc.lft.to/lastmile_qr_scan", "android": "https://dc.lft.to/lastmile_qr_scan"}, "is_reserved": 0, "fusion_lon": 0.0, "fusion_lat": 0.0, "lon": -77.0202485, "name": "bb157e9edd1305438e5a4f5f34a4e5de"}, {"bike_id": "38a0a1da7e3a3863cd0274799eb9bb22", "type": "electric_scooter", "is_disabled": 0, "lat": 38.9037735, "rental_uris": {"ios": "https://dc.lft.to/lastmile_qr_scan", "android": "https://dc.lft.to/lastmile_qr_scan"}, "is_reserved": 0, "fusion_lon": 0.0, "fusion_lat": 0.0, "lon": -77.00759183333334, "name": "38a0a1da7e3a3863cd0274799eb9bb22"}, {"bike_id": "e30923ada627784a81be8829cfe4161e", "type": "electric_scooter", "is_disabled": 0, "lat": 38.90524683333334, "rental_uris": {"ios": "https://dc.lft.to/lastmile_qr_scan", "android": "https://dc.lft.to/lastmile_qr_scan"}, "is_reserved": 0, "fusion_lon": 0.0, "fusion_lat": 0.0, "lon": -77.06382633333334, "name": "e30923ada627784a81be8829cfe4161e"}, {"bike_id": "b6557cb90577e8d1adfeedd3a3d73cbf", "type": "electric_scooter", "is_disabled": 0, "lat": 38.882706666666664, "rental_uris": {"ios": "https://dc.lft.to/lastmile_qr_scan", "android": "https://dc.lft.to/lastmile_qr_scan"}, "is_reserved": 0, "fusion_lon": 0.0, "fusion_lat": 0.0, "lon": -76.99253366666667, "name": "b6557cb90577e8d1adfeedd3a3d73cbf"}, {"bike_id": "34ffec28bfe1bf2060416f38cdaeacc3", "type": "electric_scooter", "is_disabled": 0, "lat": 38.906877, "rental_uris": {"ios": "https://dc.lft.to/lastmile_qr_scan", "android": "https://dc.lft.to/lastmile_qr_scan"}, "is_reserved": 0, "fusion_lon": 0.0, "fusion_lat": 0.0, "lon": -77.0634165, "name": "34ffec28bfe1bf2060416f38cdaeacc3"}, {"bike_id": "49dd3fbaa338540225befe281a98a21a", "type": "electric_scooter", "is_disabled": 0, "lat": 38.9085195, "rental_uris": {"ios": "https://dc.lft.to/lastmile_qr_scan", "android": "https://dc.lft.to/lastmile_qr_scan"}, "is_reserved": 0, "fusion_lon": 0.0, "fusion_lat": 0.0, "lon": -77.05568733333334, "name": "49dd3fbaa338540225befe281a98a21a"}, {"bike_id": "708eebceef156258ce737ad4e164c0aa", "type": "electric_scooter", "is_disabled": 0, "lat": 38.91281733333334, "rental_uris": {"ios": "https://dc.lft.to/lastmile_qr_scan", "android": "https://dc.lft.to/lastmile_qr_scan"}, "is_reserved": 0, "fusion_lon": 0.0, "fusion_lat": 0.0, "lon": -77.02718366666667, "name": "708eebceef156258ce737ad4e164c0aa"}, {"bike_id": "dda74e566bbd1b64737c187b05551f15", "type": "electric_scooter", "is_disabled": 0, "lat": 38.915670166666665, "rental_uris": {"ios": "https://dc.lft.to/lastmile_qr_scan", "android": "https://dc.lft.to/lastmile_qr_scan"}, "is_reserved": 0, "fusion_lon": 0.0, "fusion_lat": 0.0, "lon": -77.04504766666666, "name": "dda74e566bbd1b64737c187b05551f15"}, {"bike_id": "53f8653c3130fdfc1a4ac231261ac96a", "type": "electric_bike", "is_disabled": 0, "lat": 38.969587833333335, "rental_uris": {"ios": "https://dc.lft.to/lastmile_qr_scan", "android": "https://dc.lft.to/lastmile_qr_scan"}, "is_reserved": 0, "fusion_lon": 0.0, "fusion_lat": 0.0, "lon": -76.95750166666667, "name": "53f8653c3130fdfc1a4ac231261ac96a"}, {"bike_id": "1044a5e30f252ed33d9536545df170e8", "type": "electric_scooter", "is_disabled": 0, "lat": 38.892227166666665, "rental_uris": {"ios": "https://dc.lft.to/lastmile_qr_scan", "android": "https://dc.lft.to/lastmile_qr_scan"}, "is_reserved": 0, "fusion_lon": 0.0, "fusion_lat": 0.0, "lon": -77.03217216666667, "name": "1044a5e30f252ed33d9536545df170e8"}, {"bike_id": "012c67216f8f3bca591d7264390188af", "type": "electric_scooter", "is_disabled": 0, "lat": 38.93546383333333, "rental_uris": {"ios": "https://dc.lft.to/lastmile_qr_scan", "android": "https://dc.lft.to/lastmile_qr_scan"}, "is_reserved": 0, "fusion_lon": 0.0, "fusion_lat": 0.0, "lon": -77.05861233333333, "name": "012c67216f8f3bca591d7264390188af"}, {"bike_id": "3a9fb896fd2e80c60d68bae8fa6921a8", "type": "electric_scooter", "is_disabled": 0, "lat": 38.883045333333335, "rental_uris": {"ios": "https://dc.lft.to/lastmile_qr_scan", "android": "https://dc.lft.to/lastmile_qr_scan"}, "is_reserved": 0, "fusion_lon": 0.0, "fusion_lat": 0.0, "lon": -76.94856366666667, "name": "3a9fb896fd2e80c60d68bae8fa6921a8"}, {"bike_id": "3909f738558dd1da8621738df2f62f75", "type": "electric_scooter", "is_disabled": 0, "lat": 38.90237583333333, "rental_uris": {"ios": "https://dc.lft.to/lastmile_qr_scan", "android": "https://dc.lft.to/lastmile_qr_scan"}, "is_reserved": 0, "fusion_lon": 0.0, "fusion_lat": 0.0, "lon": -77.00202983333334, "name": "3909f738558dd1da8621738df2f62f75"}, {"bike_id": "913b6830c00084f5072a82e8d3c04984", "type": "electric_scooter", "is_disabled": 0, "lat": 38.92474966666666, "rental_uris": {"ios": "https://dc.lft.to/lastmile_qr_scan", "android": "https://dc.lft.to/lastmile_qr_scan"}, "is_reserved": 0, "fusion_lon": 0.0, "fusion_lat": 0.0, "lon": -77.028364, "name": "913b6830c00084f5072a82e8d3c04984"}, {"bike_id": "29feb410c3f3d37ec0067ee0e59c342f", "type": "electric_scooter", "is_disabled": 0, "lat": 38.92333633333333, "rental_uris": {"ios": "https://dc.lft.to/lastmile_qr_scan", "android": "https://dc.lft.to/lastmile_qr_scan"}, "is_reserved": 0, "fusion_lon": 0.0, "fusion_lat": 0.0, "lon": -77.05612066666667, "name": "29feb410c3f3d37ec0067ee0e59c342f"}, {"bike_id": "1498eedb447c0b51769015c4bafb3acc", "type": "electric_scooter", "is_disabled": 0, "lat": 38.86467183333333, "rental_uris": {"ios": "https://dc.lft.to/lastmile_qr_scan", "android": "https://dc.lft.to/lastmile_qr_scan"}, "is_reserved": 0, "fusion_lon": 0.0, "fusion_lat": 0.0, "lon": -76.97736633333334, "name": "1498eedb447c0b51769015c4bafb3acc"}, {"bike_id": "46ebcd395da9fbaa4c1e2b8fea657ad4", "type": "electric_scooter", "is_disabled": 0, "lat": 38.90139683333334, "rental_uris": {"ios": "https://dc.lft.to/lastmile_qr_scan", "android": "https://dc.lft.to/lastmile_qr_scan"}, "is_reserved": 0, "fusion_lon": 0.0, "fusion_lat": 0.0, "lon": -77.04056866666667, "name": "46ebcd395da9fbaa4c1e2b8fea657ad4"}, {"bike_id": "ea2cacddc647f4e10dbda35b5b1fa6cc", "type": "electric_scooter", "is_disabled": 0, "lat": 38.90038716666667, "rental_uris": {"ios": "https://dc.lft.to/lastmile_qr_scan", "android": "https://dc.lft.to/lastmile_qr_scan"}, "is_reserved": 0, "fusion_lon": 0.0, "fusion_lat": 0.0, "lon": -77.035115, "name": "ea2cacddc647f4e10dbda35b5b1fa6cc"}, {"bike_id": "5a5e927e87d28fb1caad975046873f9c", "type": "electric_scooter", "is_disabled": 0, "lat": 38.906965666666665, "rental_uris": {"ios": "https://dc.lft.to/lastmile_qr_scan", "android": "https://dc.lft.to/lastmile_qr_scan"}, "is_reserved": 0, "fusion_lon": 0.0, "fusion_lat": 0.0, "lon": -77.0413385, "name": "5a5e927e87d28fb1caad975046873f9c"}, {"bike_id": "da45d1be0594895823bc2bf1513a797b", "type": "electric_scooter", "is_disabled": 0, "lat": 38.905657833333336, "rental_uris": {"ios": "https://dc.lft.to/lastmile_qr_scan", "android": "https://dc.lft.to/lastmile_qr_scan"}, "is_reserved": 0, "fusion_lon": 0.0, "fusion_lat": 0.0, "lon": -77.03023933333333, "name": "da45d1be0594895823bc2bf1513a797b"}, {"bike_id": "7e9072c43375a413904b580a7bd799ab", "type": "electric_scooter", "is_disabled": 0, "lat": 38.9027915, "rental_uris": {"ios": "https://dc.lft.to/lastmile_qr_scan", "android": "https://dc.lft.to/lastmile_qr_scan"}, "is_reserved": 0, "fusion_lon": 0.0, "fusion_lat": 0.0, "lon": -77.038426, "name": "7e9072c43375a413904b580a7bd799ab"}, {"bike_id": "1f66fd21f3eb5e6c6a522fa4c07413e6", "type": "electric_scooter", "is_disabled": 0, "lat": 38.89256433333333, "rental_uris": {"ios": "https://dc.lft.to/lastmile_qr_scan", "android": "https://dc.lft.to/lastmile_qr_scan"}, "is_reserved": 0, "fusion_lon": 0.0, "fusion_lat": 0.0, "lon": -77.0467845, "name": "1f66fd21f3eb5e6c6a522fa4c07413e6"}, {"bike_id": "a922d22156646f326c394b038c3e4e22", "type": "electric_scooter", "is_disabled": 0, "lat": 38.92266516666667, "rental_uris": {"ios": "https://dc.lft.to/lastmile_qr_scan", "android": "https://dc.lft.to/lastmile_qr_scan"}, "is_reserved": 0, "fusion_lon": 0.0, "fusion_lat": 0.0, "lon": -77.03395683333333, "name": "a922d22156646f326c394b038c3e4e22"}, {"bike_id": "5341a38d02fd3ebbdd9fcce739a08e5d", "type": "electric_scooter", "is_disabled": 0, "lat": 38.95525666666666, "rental_uris": {"ios": "https://dc.lft.to/lastmile_qr_scan", "android": "https://dc.lft.to/lastmile_qr_scan"}, "is_reserved": 0, "fusion_lon": 0.0, "fusion_lat": 0.0, "lon": -77.02783083333334, "name": "5341a38d02fd3ebbdd9fcce739a08e5d"}, {"bike_id": "d4a269bf4626615d94a9516621d36b9c", "type": "electric_scooter", "is_disabled": 0, "lat": 38.9291755, "rental_uris": {"ios": "https://dc.lft.to/lastmile_qr_scan", "android": "https://dc.lft.to/lastmile_qr_scan"}, "is_reserved": 0, "fusion_lon": 0.0, "fusion_lat": 0.0, "lon": -77.03197333333334, "name": "d4a269bf4626615d94a9516621d36b9c"},