{"data": {"bikes": [{"rental_uris": {"android": "https://dc.lft.to/lastmile_qr_scan", "ios": "https://dc.lft.to/lastmile_qr_scan"}, "lon": -77.03107416666667, "name": "6b421d28cd4058fccec0d8d27cc95bd3", "lat": 38.961274333333336, "is_reserved": 0, "fusion_lat": 0.0, "bike_id": "6b421d28cd4058fccec0d8d27cc95bd3", "type": "electric_bike", "is_disabled": 0, "fusion_lon": 0.0}, {"rental_uris": {"android": "https://dc.lft.to/lastmile_qr_scan", "ios": "https://dc.lft.to/lastmile_qr_scan"}, "lon": -77.02385, "name": "4f8217b82ef0e5c01e8a3c46f0bbe72c", "lat": 38.892304, "is_reserved": 0, "fusion_lat": 0.0, "bike_id": "4f8217b82ef0e5c01e8a3c46f0bbe72c", "type": "electric_scooter", "is_disabled": 0, "fusion_lon": 0.0}, {"rental_uris": {"android": "https://dc.lft.to/lastmile_qr_scan", "ios": "https://dc.lft.to/lastmile_qr_scan"}, "lon": -77.0129155, "name": "8b23fc6ca2efb05bc2a92f91b80c500e", "lat": 38.9181415, "is_reserved": 0, "fusion_lat": 0.0, "bike_id": "8b23fc6ca2efb05bc2a92f91b80c500e", "type": "electric_scooter", "is_disabled": 0, "fusion_lon": 0.0}, {"rental_uris": {"android": "https://dc.lft.to/lastmile_qr_scan", "ios": "https://dc.lft.to/lastmile_qr_scan"}, "lon": -77.009168, "name": "645371210ec36994bee250cc27407111", "lat": 38.968227166666665, "is_reserved": 0, "fusion_lat": 0.0, "bike_id": "645371210ec36994bee250cc27407111", "type": "electric_scooter", "is_disabled": 0, "fusion_lon": 0.0}, {"rental_uris": {"android": "https://dc.lft.to/lastmile_qr_scan", "ios": "https://dc.lft.to/lastmile_qr_scan"}, "lon": -77.0160945, "name": "5f7f4ec07d3770a9c7a542cc02c82c54", "lat": 38.899680833333335, "is_reserved": 0, "fusion_lat": 0.0, "bike_id": "5f7f4ec07d3770a9c7a542cc02c82c54", "type": "electric_scooter", "is_disabled": 0, "fusion_lon": 0.0}, {"rental_uris": {"android": "https://dc.lft.to/lastmile_qr_scan", "ios": "https://dc.lft.to/lastmile_qr_scan"}, "lon": -77.04336, "name": "f4caa13c5f8c3aab35e3345ce4e667a1", "lat": 38.914333166666665, "is_reserved": 0, "fusion_lat": 0.0, "bike_id": "f4caa13c5f8c3aab35e3345ce4e667a1", "type": "electric_scooter", "is_disabled": 0, "fusion_lon": 0.0}, {"rental_uris": {"android": "https://dc.lft.to/lastmile_qr_scan", "ios": "https://dc.lft.to/lastmile_qr_scan"}, "lon": -77.0235945, "name": "468700e60ebda029b08f274534888007", "lat": 38.90201483333333, "is_reserved": 0, "fusion_lat": 0.0, "bike_id": "468700e60ebda029b08f274534888007", "type": "electric_scooter", "is_disabled": 0, "fusion_lon": 0.0}, {"rental_uris": {"android": "https://dc.lft.to/lastmile_qr_scan", "ios": "https://dc.lft.to/lastmile_qr_scan"}, "lon": -77.02795183333333, "name": "8724d8440b0ef18cf5f80b8171c1dd3d", "lat": 38.960495, "is_reserved": 0, "fusion_lat": 0.0, "bike_id": "8724d8440b0ef18cf5f80b8171c1dd3d", "type": "electric_scooter", "is_disabled": 0, "fusion_lon": 0.0}, {"rental_uris": {"android": "https://dc.lft.to/lastmile_qr_scan", "ios": "https://dc.lft.to/lastmile_qr_scan"}, "lon": -77.046195, "name": "94dbdbbc2b7fc7307b903687879c541d", "lat": 38.90666016666667, "is_reserved": 0, "fusion_lat": 0.0, "bike_id": "94dbdbbc2b7fc7307b903687879c541d", "type": "electric_scooter", "is_disabled": 0, "fusion_lon": 0.0}, {"rental_uris": {"android": "https://dc.lft.to/lastmile_qr_scan", "ios": "https://dc.lft.to/lastmile_qr_scan"}, "lon": -77.03194433333333, "name": "5e12242f5fb3278d0a1b591b9487fbd7", "lat": 38.919480666666665, "is_reserved": 0, "fusion_lat": 0.0, "bike_id": "5e12242f5fb3278d0a1b591b9487fbd7", "type": "electric_scooter", "is_disabled": 0, "fusion_lon": 0.0}, {"rental_uris": {"android": "https://dc.lft.to/lastmile_qr_scan", "ios": "https://dc.lft.to/lastmile_qr_scan"}, "lon": -77.00008666666666, "name": "d9255bd272668269f575c75d17616fb6", "lat": 38.923935666666665, "is_reserved": 0, "fusion_lat": 0.0, "bike_id": "d9255bd272668269f575c75d17616fb6", "type": "electric_bike", "is_disabled": 0, "fusion_lon": 0.0}, {"rental_uris": {"android": "https://dc.lft.to/lastmile_qr_scan", "ios": "https://dc.lft.to/lastmile_qr_scan"}, "lon": -77.0282965, "name": "cb58f54cad5cabe44aedeaff415017ff", "lat": 38.88737783333333, "is_reserved": 0, "fusion_lat": 0.0, "bike_id": "cb58f54cad5cabe44aedeaff415017ff", "type": "electric_scooter", "is_disabled": 0, "fusion_lon": 0.0}, {"rental_uris": {"android": "https://dc.lft.to/lastmile_qr_scan", "ios": "https://dc.lft.to/lastmile_qr_scan"}, "lon": -77.03448983333334, "name": "154b4865a852c20d88c35b9b347c7aae", "lat": 38.907136666666666, "is_reserved": 0, "fusion_lat": 0.0, "bike_id": "154b4865a852c20d88c35b9b347c7aae", "type": "electric_scooter", "is_disabled": 0, "fusion_lon": 0.0}, {"rental_uris": {"android": "https://dc.lft.to/lastmile_qr_scan", "ios": "https://dc.lft.to/lastmile_qr_scan"}, "lon": -77.01637516666666, "name": "f6d5ba4db94407c670af80b465fce560", "lat": 38.900908333333334, "is_reserved": 0, "fusion_lat": 0.0, "bike_id": "f6d5ba4db94407c670af80b465fce560", "type": "electric_scooter", "is_disabled": 0, "fusion_lon": 0.0}, {"rental_uris": {"android": "https://dc.lft.to/lastmile_qr_scan", "ios": "https://dc.lft.to/lastmile_qr_scan"}, "lon": -77.02189183333333, "name": "9f672b34bbbed9b34f328c8a90d8361b", "lat": 38.911391333333334, "is_reserved": 0, "fusion_lat": 0.0, "bike_id": "9f672b34bbbed9b34f328c8a90d8361b", "type": "electric_scooter", "is_disabled": 0, "fusion_lon": 0.0}, {"rental_uris": {"android": "https://dc.lft.to/lastmile_qr_scan", "ios": "https://dc.lft.to/lastmile_qr_scan"}, "lon": -77.02696616666667, "name": "d47d2103ea9de2ee54bf95d9ebf6ab97", "lat": 38.936404833333334, "is_reserved": 0, "fusion_lat": 0.0, "bike_id": "d47d2103ea9de2ee54bf95d9ebf6ab97", "type": "electric_scooter", "is_disabled": 0, "fusion_lon": 0.0}, {"rental_uris": {"android": "https://dc.lft.to/lastmile_qr_scan", "ios": "https://dc.lft.to/lastmile_qr_scan"}, "lon": -77.01245666666667, "name": "3b5c22eb2164d805beb6763fe566e865", "lat": 38.9157825, "is_reserved": 0, "fusion_lat": 0.0, "bike_id": "3b5c22eb2164d805beb6763fe566e865", "type": "electric_scooter", "is_disabled": 0, "fusion_lon": 0.0}, {"rental_uris": {"android": "https://dc.lft.to/lastmile_qr_scan", "ios": "https://dc.lft.to/lastmile_qr_scan"}, "lon": -77.04319383333333, "name": "d487d58c14c0f1904d9999a83a33c201", "lat": 38.9224835, "is_reserved": 0, "fusion_lat": 0.0, "bike_id": "d487d58c14c0f1904d9999a83a33c201", "type": "electric_scooter", "is_disabled": 0, "fusion_lon": 0.0}, {"rental_uris": {"android": "https://dc.lft.to/lastmile_qr_scan", "ios": "https://dc.lft.to/lastmile_qr_scan"}, "lon": -77.04223216666666, "name": "8fa3e2720d9243329c1d5af7d4222395", "lat": 38.924508833333334, "is_reserved": 0, "fusion_lat": 0.0, "bike_id": "8fa3e2720d9243329c1d5af7d4222395", "type": "electric_scooter", "is_disabled": 0, "fusion_lon": 0.0}, {"rental_uris": {"android": "https://dc.lft.to/lastmile_qr_scan", "ios": "https://dc.lft.to/lastmile_qr_scan"}, "lon": -76.99657816666667, "name": "29c4af31c0cc62f404535af46059cb24", "lat": 38.816100166666665, "is_reserved": 0, "fusion_lat": 0.0, "bike_id": "29c4af31c0cc62f404535af46059cb24", "type": "electric_bike", "is_disabled": 0, "fusion_lon": 0.0}, {"rental_uris": {"android": "https://dc.lft.to/lastmile_qr_scan", "ios": "https://dc.lft.to/lastmile_qr_scan"}, "lon": -76.97237333333334, "name": "38905f52a3e28c09bbd4cfb624461dc8", "lat": 38.9042675, "is_reserved": 0, "fusion_lat": 0.0, "bike_id": "38905f52a3e28c09bbd4cfb624461dc8", "type": "electric_bike", "is_disabled": 0, "fusion_lon": 0.0}, {"rental_uris": {"android": "https://dc.lft.to/lastmile_qr_scan", "ios": "https://dc.lft.to/lastmile_qr_scan"}, "lon": -76.98765733333333, "name": "abecf9f58468ba027adb105c04e33d63", "lat": 38.90032183333334, "is_reserved": 0, "fusion_lat": 0.0, "bike_id": "abecf9f58468ba027adb105c04e33d63", "type": "electric_scooter", "is_disabled": 0, "fusion_lon": 0.0}, {"rental_uris": {"android": "https://dc.lft.to/lastmile_qr_scan", "ios": "https://dc.lft.to/lastmile_qr_scan"}, "lon": -77.03257233333333, "name": "e2c650d50f3d02904c902c3cf393c987", "lat": 38.91421783333333, "is_reserved": 0, "fusion_lat": 0.0, "bike_id": "e2c650d50f3d02904c902c3cf393c987", "type": "electric_scooter", "is_disabled": 0, "fusion_lon": 0.0}, {"rental_uris": {"android": "https://dc.lft.to/lastmile_qr_scan", "ios": "https://dc.lft.to/lastmile_qr_scan"}, "lon": -76.95836116666666, "name": "d5ef96214261072628e16535a4af0e39", "lat": 38.93047166666667, "is_reserved": 0, "fusion_lat": 0.0, "bike_id": "d5ef96214261072628e16535a4af0e39", "type": "electric_bike", "is_disabled": 0, "fusion_lon": 0.0}, {"rental_uris": {"android": "https://dc.lft.to/lastmile_qr_scan", "ios": "https://dc.lft.to/lastmile_qr_scan"}, "lon": -77.02494533333333, "name": "bc95863b8000857a37d3a662a9070672", "lat": 38.919322333333334, "is_reserved": 0, "fusion_lat": 0.0, "bike_id": "bc95863b8000857a37d3a662a9070672", "type": "electric_scooter", "is_disabled": 0, "fusion_lon": 0.0}, {"rental_uris": {"android": "https://dc.lft.to/lastmile_qr_scan", "ios": "https://dc.lft.to/lastmile_qr_scan"}, "lon": -77.04503466666667, "name": "7d64dc25dc40038b0e6c6e9d4ead1efd", "lat": 39.0141805, "is_reserved": 0, "fusion_lat": 0.0, "bike_id": "7d64dc25dc40038b0e6c6e9d4ead1efd", "type": "electric_bike", "is_disabled": 0, "fusion_lon": 0.0}, {"rental_uris": {"android": "https://dc.lft.to/lastmile_qr_scan", "ios": "https://dc.lft.to/lastmile_qr_scan"}, "lon": -77.04435416666666, "name": "315d388f46ebc889fdc5fe3465b2e973", "lat": 38.922281166666664, "is_reserved": 0, "fusion_lat": 0.0, "bike_id": "315d388f46ebc889fdc5fe3465b2e973", "type": "electric_scooter", "is_disabled": 0, "fusion_lon": 0.0}, {"rental_uris": {"android": "https://dc.lft.to/lastmile_qr_scan", "ios": "https://dc.lft.to/lastmile_qr_scan"}, "lon": -77.02238116666666, "name": "efeeebf722eb027b4b8cd1529f1f8c12", "lat": 38.981101, "is_reserved": 0, "fusion_lat": 0.0, "bike_id": "efeeebf722eb027b4b8cd1529f1f8c12", "type": "electric_scooter", "is_disabled": 0, "fusion_lon": 0.0}, {"rental_uris": {"android": "https://dc.lft.to/lastmile_qr_scan", "ios": "https://dc.lft.to/lastmile_qr_scan"}, "lon": -77.02833016666666, "name": "7d650a3bacfa63732dad2060e853416f", "lat": 38.89374133333333, "is_reserved": 0, "fusion_lat": 0.0, "bike_id": "7d650a3bacfa63732dad2060e853416f", "type": "electric_scooter", "is_disabled": 0, "fusion_lon": 0.0}, {"rental_uris": {"android": "https://dc.lft.to/lastmile_qr_scan", "ios": "https://dc.lft.to/lastmile_qr_scan"}, "lon": -77.099613, "name": "bda37bf384f4067b7fad18fd9ff3e3e3", "lat": 38.85789883333333, "is_reserved": 0, "fusion_lat": 0.0, "bike_id": "bda37bf384f4067b7fad18fd9ff3e3e3", "type": "electric_bike", "is_disabled": 0, "fusion_lon": 0.0}, {"rental_uris": {"android": "https://dc.lft.to/lastmile_qr_scan", "ios": "https://dc.lft.to/lastmile_qr_scan"}, "lon": -77.05385266666667, "name": "445aed759d83e35ad062263588cb991b", "lat": 38.910694, "is_reserved": 0, "fusion_lat": 0.0, "bike_id": "445aed759d83e35ad062263588cb991b", "type": "electric_scooter", "is_disabled": 0, "fusion_lon": 0.0}, {"rental_uris": {"android": "https://dc.lft.to/lastmile_qr_scan", "ios": "https://dc.lft.to/lastmile_qr_scan"}, "lon": -77.02179133333334, "name": "9000d6c0aadf1622526a61f0f7b45b1f", "lat": 38.89311583333333, "is_reserved": 0, "fusion_lat": 0.0, "bike_id": "9000d6c0aadf1622526a61f0f7b45b1f", "type": "electric_scooter", "is_disabled": 0, "fusion_lon": 0.0}, {"rental_uris": {"android": "https://dc.lft.to/lastmile_qr_scan", "ios": "https://dc.lft.to/lastmile_qr_scan"}, "lon": -77.01786483333333, "name": "847dae0ae2cf20511316cf8a298d79f6", "lat": 38.920487333333334, "is_reserved": 0, "fusion_lat": 0.0, "bike_id": "847dae0ae2cf20511316cf8a298d79f6", "type": "electric_scooter", "is_disabled": 0, "fusion_lon": 0.0}, {"rental_uris": {"android": "https://dc.lft.to/lastmile_qr_scan", "ios": "https://dc.lft.to/lastmile_qr_scan"}, "lon": -77.02722083333333, "name": "eb351e4918b29bc2dee8350d72b61b07", "lat": 38.925734166666665, "is_reserved": 0, "fusion_lat": 0.0, "bike_id": "eb351e4918b29bc2dee8350d72b61b07", "type": "electric_scooter", "is_disabled": 0, "fusion_lon": 0.0}, {"rental_uris": {"android": "https://dc.lft.to/lastmile_qr_scan", "ios": "https://dc.lft.to/lastmile_qr_scan"}, "lon": -77.0324305, "name": "6a0ad0051cc663557077c3c7d731346d", "lat": 38.9280235, "is_reserved": 0, "fusion_lat": 0.0, "bike_id": "6a0ad0051cc663557077c3c7d731346d", "type": "electric_bike", "is_disabled": 0, "fusion_lon": 0.0}, {"rental_uris": {"android": "https://dc.lft.to/lastmile_qr_scan", "ios": "https://dc.lft.to/lastmile_qr_scan"}, "lon": -77.01757816666667, "name": "035b078f73dcec040d3b11dda7931a7c", "lat": 38.90259416666667, "is_reserved": 0, "fusion_lat": 0.0, "bike_id": "035b078f73dcec040d3b11dda7931a7c", "type": "electric_scooter", "is_disabled": 0, "fusion_lon": 0.0}, {"rental_uris": {"android": "https://dc.lft.to/lastmile_qr_scan", "ios": "https://dc.lft.to/lastmile_qr_scan"}, "lon": -76.99958583333333, "name": "9b3ab2b03c56e9722aa1733f77cadee2", "lat": 38.908476666666665, "is_reserved": 0, "fusion_lat": 0.0, "bike_id": "9b3ab2b03c56e9722aa1733f77cadee2", "type": "electric_scooter", "is_disabled": 0, "fusion_lon": 0.0}, {"rental_uris": {"android": "https://dc.lft.to/lastmile_qr_scan", "ios": "https://dc.lft.to/lastmile_qr_scan"}, "lon": -76.97857766666667, "name": "998cd0b0756ae79a92237eb73dbb700e", "lat": 38.84466366666667, "is_reserved": 0, "fusion_lat": 0.0, "bike_id": "998cd0b0756ae79a92237eb73dbb700e", "type": "electric_bike", "is_disabled": 0, "fusion_lon": 0.0}, {"rental_uris": {"android": "https://dc.lft.to/lastmile_qr_scan", "ios": "https://dc.lft.to/lastmile_qr_scan"}, "lon": -77.01102133333333, "name": "b31bafcfbce768eb734d62d0c307f2ca", "lat": 38.907237, "is_reserved": 0, "fusion_lat": 0.0, "bike_id": "b31bafcfbce768eb734d62d0c307f2ca", "type": "electric_scooter", "is_disabled": 0, "fusion_lon": 0.0}, {"rental_uris": {"android": "https://dc.lft.to/lastmile_qr_scan", "ios": "https://dc.lft.to/lastmile_qr_scan"}, "lon": -77.04456216666667, "name": "29444ddd670ec53fcb82a60c3b4ff196", "lat": 38.90269383333333, "is_reserved": 0, "fusion_lat": 0.0, "bike_id": "29444ddd670ec53fcb82a60c3b4ff196", "type": "electric_scooter", "is_disabled": 0, "fusion_lon": 0.0}, {"rental_uris": {"android": "https://dc.lft.to/lastmile_qr_scan", "ios": "https://dc.lft.to/lastmile_qr_scan"}, "lon": -77.03157516666667, "name": "1aa4237eec0bf1aed58092a06e8792b3", "lat": 38.89546333333333, "is_reserved": 0, "fusion_lat": 0.0, "bike_id": "1aa4237eec0bf1aed58092a06e8792b3", "type": "electric_scooter", "is_disabled": 0, "fusion_lon": 0.0}, {"rental_uris": {"android": "https://dc.lft.to/lastmile_qr_scan", "ios": "https://dc.lft.to/lastmile_qr_scan"}, "lon": -76.96676933333333, "name": "81846742e764354e7f6530ff35a0b276", "lat": 38.85602033333333, "is_reserved": 0, "fusion_lat": 0.0, "bike_id": "81846742e764354e7f6530ff35a0b276", "type": "electric_scooter", "is_disabled": 0, "fusion_lon": 0.0}, {"rental_uris": {"android": "https://dc.lft.to/lastmile_qr_scan", "ios": "https://dc.lft.to/lastmile_qr_scan"}, "lon": -77.02289966666666, "name": "b761eadaa2686a8decb77eae2e811d24", "lat": 38.897145, "is_reserved": 0, "fusion_lat": 0.0, "bike_id": "b761eadaa2686a8decb77eae2e811d24", "type": "electric_scooter", "is_disabled": 0, "fusion_lon": 0.0}, {"rental_uris": {"android": "https://dc.lft.to/lastmile_qr_scan", "ios": "https://dc.lft.to/lastmile_qr_scan"}, "lon": -77.0502755, "name": "73d84af2c880f4326ea085c6a57266f5", "lat": 38.92371383333333, "is_reserved": 0, "fusion_lat": 0.0, "bike_id": "73d84af2c880f4326ea085c6a57266f5", "type": "electric_scooter", "is_disabled": 0, "fusion_lon": 0.0}, {"rental_uris": {"android": "https://dc.lft.to/lastmile_qr_scan", "ios": "https://dc.lft.to/lastmile_qr_scan"}, "lon": -77.02179466666666, "name": "04c17c6ec4cd55dd793a06e941c2ff41", "lat": 38.916133, "is_reserved": 0, "fusion_lat": 0.0, "bike_id": "04c17c6ec4cd55dd793a06e941c2ff41", "type": "electric_scooter", "is_disabled": 0, "fusion_lon": 0.0}, {"rental_uris": {"android": "https://dc.lft.to/lastmile_qr_scan", "ios": "https://dc.lft.to/lastmile_qr_scan"}, "lon": -77.00675316666667, "name": "b712d012eb3c8887b654759daa7335b7", "lat": 38.87716733333333, "is_reserved": 0, "fusion_lat": 0.0, "bike_id": "b712d012eb3c8887b654759daa7335b7", "type": "electric_scooter", "is_disabled": 0, "fusion_lon": 0.0}, {"rental_uris": {"android": "https://dc.lft.to/lastmile_qr_scan", "ios": "https://dc.lft.to/lastmile_qr_scan"}, "lon": -76.97915466666667, "name": "f0d05c8609a634fefc08e0f5160f5d88", "lat": 38.92457733333333, "is_reserved": 0, "fusion_lat": 0.0, "bike_id": "f0d05c8609a634fefc08e0f5160f5d88", "type": "electric_scooter", "is_disabled": 0, "fusion_lon": 0.0}, {"rental_uris": {"android": "https://dc.lft.to/lastmile_qr_scan", "ios": "https://dc.lft.to/lastmile_qr_scan"}, "lon": -77.02798416666667, "name": "f693173ede0f4d12e98d6756b7073477", "lat": 38.930628166666665, "is_reserved": 0, "fusion_lat": 0.0, "bike_id": "f693173ede0f4d12e98d6756b7073477", "type": "electric_scooter", "is_disabled": 0, "fusion_lon": 0.0}, {"rental_uris": {"android": "https://dc.lft.to/lastmile_qr_scan", "ios": "https://dc.lft.to/lastmile_qr_scan"}, "lon": -76.98566366666667, "name": "93fffed352aeb3c9c4dce08845e83415", "lat": 38.8668515, "is_reserved": 0, "fusion_lat": 0.0, "bike_id": "93fffed352aeb3c9c4dce08845e83415", "type": "electric_scooter", "is_disabled": 0, "fusion_lon": 0.0}, {"rental_uris": {"android": "https://dc.lft.to/lastmile_qr_scan", "ios": "https://dc.lft.to/lastmile_qr_scan"}, "lon": -77.0732815, "name": "32985db76dd2b096cc5df2b9d07e7a8e", "lat": 38.927243, "is_reserved": 0, "fusion_lat": 0.0, "bike_id": "32985db76dd2b096cc5df2b9d07e7a8e", "type": "electric_bike", "is_disabled": 0, "fusion_lon": 0.0}, {"rental_uris": {"android": "https://dc.lft.to/lastmile_qr_scan", "ios": "https://dc.lft.to/lastmile_qr_scan"}, "lon": -77.02849683333334, "name": "cb6346ca767ff72157a345a0f5f9e053", "lat": 38.927576, "is_reserved": 0, "fusion_lat": 0.0, "bike_id": "cb6346ca767ff72157a345a0f5f9e053", "type": "electric_scooter", "is_disabled": 0, "fusion_lon": 0.0}, {"rental_uris": {"android": "https://dc.lft.to/lastmile_qr_scan", "ios": "https://dc.lft.to/lastmile_qr_scan"}, "lon": -76.97439233333333, "name": "f226562e9dfd2add98c018d18aec32ce", "lat": 38.90243383333333, "is_reserved": 0, "fusion_lat": 0.0, "bike_id": "f226562e9dfd2add98c018d18aec32ce", "type": "electric_scooter", "is_disabled": 0, "fusion_lon": 0.0}, {"rental_uris": {"android": "https://dc.lft.to/lastmile_qr_scan", "ios": "https://dc.lft.to/lastmile_qr_scan"}, "lon": -77.01707816666666, "name": "dae96c2bfd5713f89d442dee5c2306b4", "lat": 38.90233516666667, "is_reserved": 0, "fusion_lat": 0.0, "bike_id": "dae96c2bfd5713f89d442dee5c2306b4", "type": "electric_scooter", "is_disabled": 0, "fusion_lon": 0.0}, {"rental_uris": {"android": "https://dc.lft.to/lastmile_qr_scan", "ios": "https://dc.lft.to/lastmile_qr_scan"}, "lon": -77.02790083333333, "name": "185ab5d02f544d71b043d23722d8310c", "lat": 38.93931883333333, "is_reserved": 0, "fusion_lat": 0.0, "bike_id": "185ab5d02f544d71b043d23722d8310c", "type": "electric_scooter", "is_disabled": 0, "fusion_lon": 0.0}, {"rental_uris": {"android": "https://dc.lft.to/lastmile_qr_scan", "ios": "https://dc.lft.to/lastmile_qr_scan"}, "lon": -77.00987866666667, "name": "0f6a0e8a315a506007649c0c0f78c660", "lat": 38.906315166666666, "is_reserved": 0, "fusion_lat": 0.0, "bike_id": "0f6a0e8a315a506007649c0c0f78c660", "type": "electric_scooter", "is_disabled": 0, "fusion_lon": 0.0}, {"rental_uris": {"android": "https://dc.lft.to/lastmile_qr_scan", "ios": "https://dc.lft.to/lastmile_qr_scan"}, "lon": -77.07759566666667, "name": "556d2e37f8bf6813b182eb1cc16dee46", "lat": 38.9255755, "is_reserved": 0, "fusion_lat": 0.0, "bike_id": "556d2e37f8bf6813b182eb1cc16dee46", "type": "electric_scooter", "is_disabled": 0, "fusion_lon": 0.0}, {"rental_uris": {"android": "https://dc.lft.to/lastmile_qr_scan", "ios": "https://dc.lft.to/lastmile_qr_scan"}, "lon": -77.10685583333333, "name": "436b6c8b2b0ee78460936bac5d4f3ed6", "lat": 38.86449916666667, "is_reserved": 0, "fusion_lat": 0.0, "bike_id": "436b6c8b2b0ee78460936bac5d4f3ed6", "type": "electric_bike", "is_disabled": 0, "fusion_lon": 0.0}, {"rental_uris": {"android": "https://dc.lft.to/lastmile_qr_scan", "ios": "https://dc.lft.to/lastmile_qr_scan"}, "lon": -77.05684933333333, "name": "ff86b174e8e334d8f09addf80d79b8d3", "lat": 38.931585166666665, "is_reserved": 0, "fusion_lat": 0.0, "bike_id": "ff86b174e8e334d8f09addf80d79b8d3", "type": "electric_scooter", "is_disabled": 0, "fusion_lon": 0.0}, {"rental_uris": {"android": "https://dc.lft.to/lastmile_qr_scan", "ios": "https://dc.lft.to/lastmile_qr_scan"}, "lon": -77.04107966666666, "name": "86efaa32455847b8477a477b3a435f0d", "lat": 38.91048466666667, "is_reserved": 0, "fusion_lat": 0.0, "bike_id": "86efaa32455847b8477a477b3a435f0d", "type": "electric_scooter", "is_disabled": 0, "fusion_lon": 0.0}, {"rental_uris": {"android": "https://dc.lft.to/lastmile_qr_scan", "ios": "https://dc.lft.to/lastmile_qr_scan"}, "lon": -77.05584516666667, "name": "3e38c986a81d9b4b951c668960f1a986", "lat": 38.93431533333333, "is_reserved": 0, "fusion_lat": 0.0, "bike_id": "3e38c986a81d9b4b951c668960f1a986", "type": "electric_scooter", "is_disabled": 0, "fusion_lon": 0.0}, {"rental_uris": {"android": "https://dc.lft.to/lastmile_qr_scan", "ios": "https://dc.lft.to/lastmile_qr_scan"}, "lon": -77.03860316666666, "name": "90e8b9935f030c81acf54c492e4c6210", "lat": 38.90782433333333, "is_reserved": 0, "fusion_lat": 0.0, "bike_id": "90e8b9935f030c81acf54c492e4c6210", "type": "electric_scooter", "is_disabled": 0, "fusion_lon": 0.0}, {"rental_uris": {"android": "https://dc.lft.to/lastmile_qr_scan", "ios": "https://dc.lft.to/lastmile_qr_scan"}, "lon": -76.9866195, "name": "7d16842fdad6db98c2894718f352763b", "lat": 38.91067366666667, "is_reserved": 0, "fusion_lat": 0.0, "bike_id": "7d16842fdad6db98c2894718f352763b", "type": "electric_scooter", "is_disabled": 0, "fusion_lon": 0.0}, {"rental_uris": {"android": "https://dc.lft.to/lastmile_qr_scan", "ios": "https://dc.lft.to/lastmile_qr_scan"}, "lon": -77.03857183333334, "name": "34f7207f24db996dc00494173dcfe5bc", "lat": 38.9177535, "is_reserved": 0, "fusion_lat": 0.0, "bike_id": "34f7207f24db996dc00494173dcfe5bc", "type": "electric_scooter", "is_disabled": 0, "fusion_lon": 0.0}, {"rental_uris": {"android": "https://dc.lft.to/lastmile_qr_scan", "ios": "https://dc.lft.to/lastmile_qr_scan"}, "lon": -77.0232285, "name": "61208fd1d27f4178fe4dfe62382cdad1", "lat": 38.907192333333334, "is_reserved": 0, "fusion_lat": 0.0, "bike_id": "61208fd1d27f4178fe4dfe62382cdad1", "type": "electric_scooter", "is_disabled": 0, "fusion_lon": 0.0}, {"rental_uris": {"android": "https://dc.lft.to/lastmile_qr_scan", "ios": "https://dc.lft.to/lastmile_qr_scan"}, "lon": -77.05251283333334, "name": "23a2ca356032f82560ea706e586e4a9b", "lat": 38.92573266666667, "is_reserved": 0, "fusion_lat": 0.0, "bike_id": "23a2ca356032f82560ea706e586e4a9b", "type": "electric_scooter", "is_disabled": 0, "fusion_lon": 0.0}, {"rental_uris": {"android": "https://dc.lft.to/lastmile_qr_scan", "ios": "https://dc.lft.to/lastmile_qr_scan"}, "lon": -76.9800595, "name": "e2900756823e73df403bdd847414051a", "lat": 38.864331, "is_reserved": 0, "fusion_lat": 0.0, "bike_id": "e2900756823e73df403bdd847414051a", "type": "electric_scooter", "is_disabled": 0, "fusion_lon": 0.0}, {"rental_uris": {"android": "https://dc.lft.to/lastmile_qr_scan", "ios": "https://dc.lft.to/lastmile_qr_scan"}, "lon": -77.02747883333333, "name": "a854f23f810b24c5640bd15449eaae5a", "lat": 38.943961333333334, "is_reserved": 0, "fusion_lat": 0.0, "bike_id": "a854f23f810b24c5640bd15449eaae5a", "type": "electric_scooter", "is_disabled": 0, "fusion_lon": 0.0}, {"rental_uris": {"android": "https://dc.lft.to/lastmile_qr_scan", "ios": "https://dc.lft.to/lastmile_qr_scan"}, "lon": -77.051402, "name": "a6eac942bc33179b46dc4a3d2aa494ff", "lat": 38.905142833333336, "is_reserved": 0, "fusion_lat": 0.0, "bike_id": "a6eac942bc33179b46dc4a3d2aa494ff", "type": "electric_scooter", "is_disabled": 0, "fusion_lon": 0.0}, {"rental_uris": {"android": "https://dc.lft.to/lastmile_qr_scan", "ios": "https://dc.lft.to/lastmile_qr_scan"}, "lon": -77.0470375, "name": "a1fd37922e8072ef88ecd4866c17e35f", "lat": 38.921774166666665, "is_reserved": 0, "fusion_lat": 0.0, "bike_id": "a1fd37922e8072ef88ecd4866c17e35f", "type": "electric_scooter", "is_disabled": 0, "fusion_lon": 0.0}, {"rental_uris": {"android": "https://dc.lft.to/lastmile_qr_scan", "ios": "https://dc.lft.to/lastmile_qr_scan"}, "lon": -77.023736, "name": "62007d4a47e798b0c418fb4222d0a576", "lat": 38.907174166666664, "is_reserved": 0, "fusion_lat": 0.0, "bike_id": "62007d4a47e798b0c418fb4222d0a576", "type": "electric_scooter", "is_disabled": 0, "fusion_lon": 0.0}, {"rental_uris": {"android": "https://dc.lft.to/lastmile_qr_scan", "ios": "https://dc.lft.to/lastmile_qr_scan"}, "lon": -77.0272385, "name": "43ae684773beaf170ec8e4c361e9ef17", "lat": 38.91104433333334, "is_reserved": 0, "fusion_lat": 0.0, "bike_id": "43ae684773beaf170ec8e4c361e9ef17", "type": "electric_scooter", "is_disabled": 0, "fusion_lon": 0.0}, {"rental_uris": {"android": "https://dc.lft.to/lastmile_qr_scan", "ios": "https://dc.lft.to/lastmile_qr_scan"}, "lon": -76.99992233333333, "name": "ae7b3a45f2a39d7c6d8c2723daa1d806", "lat": 38.87501316666667, "is_reserved": 0, "fusion_lat": 0.0, "bike_id": "ae7b3a45f2a39d7c6d8c2723daa1d806", "type": "electric_scooter", "is_disabled": 0, "fusion_lon": 0.0}, {"rental_uris": {"android": "https://dc.lft.to/lastmile_qr_scan", "ios": "https://dc.lft.to/lastmile_qr_scan"}, "lon": -77.04487833333333, "name": "40df7acb9f5a04cc81fd527e2560c2a1", "lat": 38.91281933333333, "is_reserved": 0, "fusion_lat": 0.0, "bike_id": "40df7acb9f5a04cc81fd527e2560c2a1", "type": "electric_scooter", "is_disabled": 0, "fusion_lon": 0.0}, {"rental_uris": {"android": "https://dc.lft.to/lastmile_qr_scan", "ios": "https://dc.lft.to/lastmile_qr_scan"}, "lon": -76.99039516666667, "name": "7457ea80652d247bbdf1ceec1c4af052", "lat": 38.86389916666667, "is_reserved": 0, "fusion_lat": 0.0, "bike_id": "7457ea80652d247bbdf1ceec1c4af052", "type": "electric_scooter", "is_disabled": 0, "fusion_lon": 0.0}, {"rental_uris": {"android": "https://dc.lft.to/lastmile_qr_scan", "ios": "https://dc.lft.to/lastmile_qr_scan"}, "lon": -77.02957116666667, "name": "b3deb833d13d4199446474f801a76167", "lat": 38.9224705, "is_reserved": 0, "fusion_lat": 0.0, "bike_id": "b3deb833d13d4199446474f801a76167", "type": "electric_scooter", "is_disabled": 0, "fusion_lon": 0.0}, {"rental_uris": {"android": "https://dc.lft.to/lastmile_qr_scan", "ios": "https://dc.lft.to/lastmile_qr_scan"}, "lon": -77.0384225, "name": "093e30d5f1b63fe8c0ccf39cc8955f64", "lat": 38.90286783333333, "is_reserved": 0, "fusion_lat": 0.0, "bike_id": "093e30d5f1b63fe8c0ccf39cc8955f64", "type": "electric_scooter", "is_disabled": 0, "fusion_lon": 0.0}, {"rental_uris": {"android": "https://dc.lft.to/lastmile_qr_scan", "ios": "https://dc.lft.to/lastmile_qr_scan"}, "lon": -76.99599216666667, "name": "4075c09f6625ce28caee90148e15a125", "lat": 38.928511, "is_reserved": 0, "fusion_lat": 0.0, "bike_id": "4075c09f6625ce28caee90148e15a125", "type": "electric_scooter", "is_disabled": 0, "fusion_lon": 0.0}, {"rental_uris": {"android": "https://dc.lft.to/lastmile_qr_scan", "ios": "https://dc.lft.to/lastmile_qr_scan"}, "lon": -77.04015833333334, "name": "c06b21decef4cfcd3fb42a2beb3065e3", "lat": 38.89634816666667, "is_reserved": 0, "fusion_lat": 0.0, "bike_id": "c06b21decef4cfcd3fb42a2beb3065e3", "type": "electric_scooter", "is_disabled": 0, "fusion_lon": 0.0}, {"rental_uris": {"android": "https://dc.lft.to/lastmile_qr_scan", "ios": "https://dc.lft.to/lastmile_qr_scan"}, "lon": -76.99708233333334, "name": "00f53822081ffb3a5be8de8106503cb8", "lat": 38.894789833333334, "is_reserved": 0, "fusion_lat": 0.0, "bike_id": "00f53822081ffb3a5be8de8106503cb8", "type": "electric_scooter", "is_disabled": 0, "fusion_lon": 0.0}, {"rental_uris": {"android": "https://dc.lft.to/lastmile_qr_scan", "ios": "https://dc.lft.to/lastmile_qr_scan"}, "lon": -77.03489216666667, "name": "a30a96ba5f86e8d43080761d3aaca9de", "lat": 38.909719833333334, "is_reserved": 0, "fusion_lat": 0.0, "bike_id": "a30a96ba5f86e8d43080761d3aaca9de", "type": "electric_scooter", "is_disabled": 0, "fusion_lon": 0.0}, {"rental_uris": {"android": "https://dc.lft.to/lastmile_qr_scan", "ios": "https://dc.lft.to/lastmile_qr_scan"}, "lon": -77.00418933333333, "name": "f51277297339b004bd26ca9ca2312eaf", "lat": 38.875829833333334, "is_reserved": 0, "fusion_lat": 0.0, "bike_id": "f51277297339b004bd26ca9ca2312eaf", "type": "electric_scooter", "is_disabled": 0, "fusion_lon": 0.0}, {"rental_uris": {"android": "https://dc.lft.to/lastmile_qr_scan", "ios": "https://dc.lft.to/lastmile_qr_scan"}, "lon": -77.0140975, "name": "8f3e26f6f1c96ec50f2b9fd0076bd767", "lat": 38.90660733333333, "is_reserved": 0, "fusion_lat": 0.0, "bike_id": "8f3e26f6f1c96ec50f2b9fd0076bd767", "type": "electric_scooter", "is_disabled": 0, "fusion_lon": 0.0}, {"rental_uris": {"android": "https://dc.lft.to/lastmile_qr_scan", "ios": "https://dc.lft.to/lastmile_qr_scan"}, "lon": -77.0419825, "name": "09200a79b2be481acc65b782d614da6d", "lat": 38.89223716666667, "is_reserved": 0, "fusion_lat": 0.0, "bike_id": "09200a79b2be481acc65b782d614da6d", "type": "electric_scooter", "is_disabled": 0, "fusion_lon": 0.0}, {"rental_uris": {"android": "https://dc.lft.to/lastmile_qr_scan", "ios": "https://dc.lft.to/lastmile_qr_scan"}, "lon": -76.96552483333333, "name": "54b1f39b8bd78415af9da2dda0060cad", "lat": 38.91846266666667, "is_reserved": 0, "fusion_lat": 0.0, "bike_id": "54b1f39b8bd78415af9da2dda0060cad", "type": "electric_scooter", "is_disabled": 0, "fusion_lon": 0.0}, {"rental_uris": {"android": "https://dc.lft.to/lastmile_qr_scan", "ios": "https://dc.lft.to/lastmile_qr_scan"}, "lon": -76.987276, "name": "a8f9d864423f586acf1fa59bc312cbf9", "lat": 38.835498666666666, "is_reserved": 0, "fusion_lat": 0.0, "bike_id": "a8f9d864423f586acf1fa59bc312cbf9", "type": "electric_bike", "is_disabled": 0, "fusion_lon": 0.0}, {"rental_uris": {"android": "https://dc.lft.to/lastmile_qr_scan", "ios": "https://dc.lft.to/lastmile_qr_scan"}, "lon": -77.01218166666666, "name": "48a8f8b3d22caa6af49a32d7cd88922b", "lat": 38.91685966666667, "is_reserved": 0, "fusion_lat": 0.0, "bike_id": "48a8f8b3d22caa6af49a32d7cd88922b", "type": "electric_scooter", "is_disabled": 0, "fusion_lon": 0.0}, {"rental_uris": {"android": "https://dc.lft.to/lastmile_qr_scan", "ios": "https://dc.lft.to/lastmile_qr_scan"}, "lon": -77.02700483333334, "name": "d2f1280c4b756ed8d92538e738d75777", "lat": 38.94978733333333, "is_reserved": 0, "fusion_lat": 0.0, "bike_id": "d2f1280c4b756ed8d92538e738d75777", "type": "electric_scooter", "is_disabled": 0, "fusion_lon": 0.0}, {"rental_uris": {"android": "https://dc.lft.to/lastmile_qr_scan", "ios": "https://dc.lft.to/lastmile_qr_scan"}, "lon": -76.99548566666667, "name": "5e2dee88aeaf47ed144fd66eab7f29b1", "lat": 38.84341333333333, "is_reserved": 0, "fusion_lat": 0.0, "bike_id": "5e2dee88aeaf47ed144fd66eab7f29b1", "type": "electric_scooter", "is_disabled": 0, "fusion_lon": 0.0}, {"rental_uris": {"android": "https://dc.lft.to/lastmile_qr_scan", "ios": "https://dc.lft.to/lastmile_qr_scan"}, "lon": -77.00200933333333, "name": "4cc42dca8ccc319347100b9a31327000", "lat": 38.907850833333335, "is_reserved": 0, "fusion_lat": 0.0, "bike_id": "4cc42dca8ccc319347100b9a31327000", "type": "electric_scooter", "is_disabled": 0, "fusion_lon": 0.0}, {"rental_uris": {"android": "https://dc.lft.to/lastmile_qr_scan", "ios": "https://dc.lft.to/lastmile_qr_scan"}, "lon": -77.01776766666667, "name": "222b9e2cc78a40b447c5f6c56c60b356", "lat": 38.88714566666667, "is_reserved": 0, "fusion_lat": 0.0, "bike_id": "222b9e2cc78a40b447c5f6c56c60b356", "type": "electric_scooter", "is_disabled": 0, "fusion_lon": 0.0}, {"rental_uris": {"android": "https://dc.lft.to/lastmile_qr_scan", "ios": "https://dc.lft.to/lastmile_qr_scan"}, "lon": -77.023905, "name": "eefc4dbf6bb4bf3301a1f6df832ca911", "lat": 38.892156666666665, "is_reserved": 0, "fusion_lat": 0.0, "bike_id": "eefc4dbf6bb4bf3301a1f6df832ca911", "type": "electric_scooter", "is_disabled": 0, "fusion_lon": 0.0}, {"rental_uris": {"android": "https://dc.lft.to/lastmile_qr_scan", "ios": "https://dc.lft.to/lastmile_qr_scan"}, "lon": -77.04228916666666, "name": "eb5a6ccb55f855fa5216187a1091f1e1", "lat": 38.902735, "is_reserved": 0, "fusion_lat": 0.0, "bike_id": "eb5a6ccb55f855fa5216187a1091f1e1", "type": "electric_scooter", "is_disabled": 0, "fusion_lon": 0.0}, {"rental_uris": {"android": "https://dc.lft.to/lastmile_qr_scan", "ios": "https://dc.lft.to/lastmile_qr_scan"}, "lon": -77.03869333333333, "name": "591f55ea4c0f4ed34f72adc105410003", "lat": 38.99056616666667, "is_reserved": 0, "fusion_lat": 0.0, "bike_id": "591f55ea4c0f4ed34f72adc105410003", "type": "electric_bike", "is_disabled": 0, "fusion_lon": 0.0}, {"rental_uris": {"android": "https://dc.lft.to/lastmile_qr_scan", "ios": "https://dc.lft.to/lastmile_qr_scan"}, "lon": -77.01408766666667, "name": "1eb668de5a0e4bb64fdcb414b1bc4ffa", "lat": 38.905171833333334, "is_reserved": 0, "fusion_lat": 0.0, "bike_id": "1eb668de5a0e4bb64fdcb414b1bc4ffa", "type": "electric_scooter", "is_disabled": 0, "fusion_lon": 0.0}, {"rental_uris": {"android": "https://dc.lft.to/lastmile_qr_scan", "ios": "https://dc.lft.to/lastmile_qr_scan"}, "lon": -77.12064983333333, "name": "15b9037235d819d5431b65e42d399246", "lat": 38.8552805, "is_reserved": 0, "fusion_lat": 0.0, "bike_id": "15b9037235d819d5431b65e42d399246", "type": "electric_bike", "is_disabled": 0, "fusion_lon": 0.0}, {"rental_uris": {"android": "https://dc.lft.to/lastmile_qr_scan", "ios": "https://dc.lft.to/lastmile_qr_scan"}, "lon": -77.02587466666667, "name": "2a4ceef7b419a0b49879ae79f402fd7c", "lat": 38.89562866666667, "is_reserved": 0, "fusion_lat": 0.0, "bike_id": "2a4ceef7b419a0b49879ae79f402fd7c", "type": "electric_scooter", "is_disabled": 0, "fusion_lon": 0.0}, {"rental_uris": {"android": "https://dc.lft.to/lastmile_qr_scan", "ios": "https://dc.lft.to/lastmile_qr_scan"}, "lon": -77.01168083333333, "name": "9e314106c83b1ed3064bb043c20f1dd4", "lat": 38.92136266666667, "is_reserved": 0, "fusion_lat": 0.0, "bike_id": "9e314106c83b1ed3064bb043c20f1dd4", "type": "electric_scooter", "is_disabled": 0, "fusion_lon": 0.0}, {"rental_uris": {"android": "https://dc.lft.to/lastmile_qr_scan", "ios": "https://dc.lft.to/lastmile_qr_scan"}, "lon": -77.12021616666667, "name": "d1e156f158ba7f0bd9161734a7672ad4", "lat": 38.85786433333333, "is_reserved": 0, "fusion_lat": 0.0, "bike_id": "d1e156f158ba7f0bd9161734a7672ad4", "type": "electric_bike", "is_disabled": 0, "fusion_lon": 0.0}, {"rental_uris": {"android": "https://dc.lft.to/lastmile_qr_scan", "ios": "https://dc.lft.to/lastmile_qr_scan"}, "lon": -76.99945466666667, "name": "03f9f3694e39827a5d46690b96d80bab", "lat": 38.94071616666667, "is_reserved": 0, "fusion_lat": 0.0, "bike_id": "03f9f3694e39827a5d46690b96d80bab", "type": "electric_scooter", "is_disabled": 0, "fusion_lon": 0.0}, {"rental_uris": {"android": "https://dc.lft.to/lastmile_qr_scan", "ios": "https://dc.lft.to/lastmile_qr_scan"}, "lon": -77.0455615, "name": "e3d74c50501da6cc244b48fbd0b10d44", "lat": 38.919509833333336, "is_reserved": 0, "fusion_lat": 0.0, "bike_id": "e3d74c50501da6cc244b48fbd0b10d44", "type": "electric_scooter", "is_disabled": 0, "fusion_lon": 0.0}, {"rental_uris": {"android": "https://dc.lft.to/lastmile_qr_scan", "ios": "https://dc.lft.to/lastmile_qr_scan"}, "lon": -77.03998516666667, "name": "93dd402697c462e24796cfd8d0ab3095", "lat": 38.902574, "is_reserved": 0, "fusion_lat": 0.0, "bike_id": "93dd402697c462e24796cfd8d0ab3095", "type": "electric_scooter", "is_disabled": 0, "fusion_lon": 0.0}, {"rental_uris": {"android": "https://dc.lft.to/lastmile_qr_scan", "ios": "https://dc.lft.to/lastmile_qr_scan"}, "lon": -77.04398833333333, "name": "b375f0d8f96859bdc53572151f3434fb", "lat": 38.91358966666667, "is_reserved": 0, "fusion_lat": 0.0, "bike_id": "b375f0d8f96859bdc53572151f3434fb", "type": "electric_scooter", "is_disabled": 0, "fusion_lon": 0.0}, {"rental_uris": {"android": "https://dc.lft.to/lastmile_qr_scan", "ios": "https://dc.lft.to/lastmile_qr_scan"}, "lon": -77.0332215, "name": "0a78d16713a6291342948f077720388c", "lat": 38.898317666666664, "is_reserved": 0, "fusion_lat": 0.0, "bike_id": "0a78d16713a6291342948f077720388c", "type": "electric_scooter", "is_disabled": 0, "fusion_lon": 0.0}, {"rental_uris": {"android": "https://dc.lft.to/lastmile_qr_scan", "ios": "https://dc.lft.to/lastmile_qr_scan"}, "lon": -77.02166183333334, "name": "b15094edab12722d6016f18eb0799e2f", "lat": 38.92511116666667, "is_reserved": 0, "fusion_lat": 0.0, "bike_id": "b15094edab12722d6016f18eb0799e2f", "type": "electric_scooter", "is_disabled": 0, "fusion_lon": 0.0}, {"rental_uris": {"android": "https://dc.lft.to/lastmile_qr_scan", "ios": "https://dc.lft.to/lastmile_qr_scan"}, "lon": -76.944152, "name": "9cabb92563ae0459e1c910283ab49ead", "lat": 38.99225233333333, "is_reserved": 0, "fusion_lat": 0.0, "bike_id": "9cabb92563ae0459e1c910283ab49ead", "type": "electric_bike", "is_disabled": 0, "fusion_lon": 0.0}, {"rental_uris": {"android": "https://dc.lft.to/lastmile_qr_scan", "ios": "https://dc.lft.to/lastmile_qr_scan"}, "lon": -77.00581033333333, "name": "78b08c911f751bcd891440ea6342eaca", "lat": 38.90567, "is_reserved": 0, "fusion_lat": 0.0, "bike_id": "78b08c911f751bcd891440ea6342eaca", "type": "electric_scooter", "is_disabled": 0, "fusion_lon": 0.0}, {"rental_uris": {"android": "https://dc.lft.to/lastmile_qr_scan", "ios": "https://dc.lft.to/lastmile_qr_scan"}, "lon": -77.008655, "name": "c193deae5d5d4010cbc43b2b75fb6838", "lat": 38.9674465, "is_reserved": 0, "fusion_lat": 0.0, "bike_id": "c193deae5d5d4010cbc43b2b75fb6838", "type": "electric_scooter", "is_disabled": 0, "fusion_lon": 0.0}, {"rental_uris": {"android": "https://dc.lft.to/lastmile_qr_scan", "ios": "https://dc.lft.to/lastmile_qr_scan"}, "lon": -76.9569745, "name": "c215b336ae42cdde8a5972df8e645bb5", "lat": 38.89210416666667, "is_reserved": 0, "fusion_lat": 0.0, "bike_id": "c215b336ae42cdde8a5972df8e645bb5", "type": "electric_scooter", "is_disabled": 0, "fusion_lon": 0.0}, {"rental_uris": {"android": "https://dc.lft.to/lastmile_qr_scan", "ios": "https://dc.lft.to/lastmile_qr_scan"}, "lon": -77.027845, "name": "9731b2621b4b1d2f14cf75d5d0319a1d", "lat": 38.929565333333336, "is_reserved": 0, "fusion_lat": 0.0, "bike_id": "9731b2621b4b1d2f14cf75d5d0319a1d", "type": "electric_scooter", "is_disabled": 0, "fusion_lon": 0.0}, {"rental_uris": {"android": "https://dc.lft.to/lastmile_qr_scan", "ios": "https://dc.lft.to/lastmile_qr_scan"}, "lon": -76.96557283333334, "name": "7a64b52fb3cd45a1b200f25afcf73479", "lat": 38.918522333333335, "is_reserved": 0, "fusion_lat": 0.0, "bike_id": "7a64b52fb3cd45a1b200f25afcf73479", "type": "electric_scooter", "is_disabled": 0, "fusion_lon": 0.0}, {"rental_uris": {"android": "https://dc.lft.to/lastmile_qr_scan", "ios": "https://dc.lft.to/lastmile_qr_scan"}, "lon": -76.99899633333334, "name": "ec9bdfc834105ec14509da16b41705ec", "lat": 38.909500666666666, "is_reserved": 0, "fusion_lat": 0.0, "bike_id": "ec9bdfc834105ec14509da16b41705ec", "type": "electric_bike", "is_disabled": 0, "fusion_lon": 0.0}, {"rental_uris": {"android": "https://dc.lft.to/lastmile_qr_scan", "ios": "https://dc.lft.to/lastmile_qr_scan"}, "lon": -77.03226516666666, "name": "942677562c5e9e269724e20aeeba6734", "lat": 38.91049183333333, "is_reserved": 0, "fusion_lat": 0.0, "bike_id": "942677562c5e9e269724e20aeeba6734", "type": "electric_scooter", "is_disabled": 0, "fusion_lon": 0.0}, {"rental_uris": {"android": "https://dc.lft.to/lastmile_qr_scan", "ios": "https://dc.lft.to/lastmile_qr_scan"}, "lon": -77.02395916666667, "name": "a96dc5894bc63b92f8e253341bce2f42", "lat": 38.919783, "is_reserved": 0, "fusion_lat": 0.0, "bike_id": "a96dc5894bc63b92f8e253341bce2f42", "type": "electric_scooter", "is_disabled": 0, "fusion_lon": 0.0}, {"rental_uris": {"android": "https://dc.lft.to/lastmile_qr_scan", "ios": "https://dc.lft.to/lastmile_qr_scan"}, "lon": -76.91600866666667, "name": "620f8f9f216474657c4cdb9fc4d9adb6", "lat": 38.879788833333336, "is_reserved": 0, "fusion_lat": 0.0, "bike_id": "620f8f9f216474657c4cdb9fc4d9adb6", "type": "electric_bike", "is_disabled": 0, "fusion_lon": 0.0}, {"rental_uris": {"android": "https://dc.lft.to/lastmile_qr_scan", "ios": "https://dc.lft.to/lastmile_qr_scan"}, "lon": -77.05598166666667, "name": "b8c3e129bb42c865949169f2284fc860", "lat": 38.937014833333336, "is_reserved": 0, "fusion_lat": 0.0, "bike_id": "b8c3e129bb42c865949169f2284fc860", "type": "electric_scooter", "is_disabled": 0, "fusion_lon": 0.0}, {"rental_uris": {"android": "https://dc.lft.to/lastmile_qr_scan", "ios": "https://dc.lft.to/lastmile_qr_scan"}, "lon": -77.01235466666667, "name": "bea8ef29f471fcc2c1c8fc96aa8a4605", "lat": 38.872061333333335, "is_reserved": 0, "fusion_lat": 0.0, "bike_id": "bea8ef29f471fcc2c1c8fc96aa8a4605", "type": "electric_scooter", "is_disabled": 0, "fusion_lon": 0.0}, {"rental_uris": {"android": "https://dc.lft.to/lastmile_qr_scan", "ios": "https://dc.lft.to/lastmile_qr_scan"}, "lon": -77.02298316666666, "name": "68c7e648378036df98b0f560f3502eb1", "lat": 38.92085766666667, "is_reserved": 0, "fusion_lat": 0.0, "bike_id": "68c7e648378036df98b0f560f3502eb1", "type": "electric_scooter", "is_disabled": 0, "fusion_lon": 0.0}, {"rental_uris": {"android": "https://dc.lft.to/lastmile_qr_scan", "ios": "https://dc.lft.to/lastmile_qr_scan"}, "lon": -77.043524, "name": "463cd935c451f0738b4ceccf596506c2", "lat": 38.904317166666665, "is_reserved": 0, "fusion_lat": 0.0, "bike_id": "463cd935c451f0738b4ceccf596506c2", "type": "electric_scooter", "is_disabled": 0, "fusion_lon": 0.0}, {"rental_uris": {"android": "https://dc.lft.to/lastmile_qr_scan", "ios": "https://dc.lft.to/lastmile_qr_scan"}, "lon": -77.02412716666667, "name": "29323cdb52b419ea52dd1ed3d3fcf357", "lat": 38.9121345, "is_reserved": 0, "fusion_lat": 0.0, "bike_id": "29323cdb52b419ea52dd1ed3d3fcf357", "type": "electric_scooter", "is_disabled": 0, "fusion_lon": 0.0}, {"rental_uris": {"android": "https://dc.lft.to/lastmile_qr_scan", "ios": "https://dc.lft.to/lastmile_qr_scan"}, "lon": -77.03894416666667, "name": "56e1a339dec5435780e199f663e9057d", "lat": 38.92254483333333, "is_reserved": 0, "fusion_lat": 0.0, "bike_id": "56e1a339dec5435780e199f663e9057d", "type": "electric_scooter", "is_disabled": 0, "fusion_lon": 0.0}, {"rental_uris": {"android": "https://dc.lft.to/lastmile_qr_scan", "ios": "https://dc.lft.to/lastmile_qr_scan"}, "lon": -77.03662133333333, "name": "dc17575ed5cd0e511f07ceb4b3d163fd", "lat": 38.9100415, "is_reserved": 0, "fusion_lat": 0.0, "bike_id": "dc17575ed5cd0e511f07ceb4b3d163fd", "type": "electric_scooter", "is_disabled": 0, "fusion_lon": 0.0}, {"rental_uris": {"android": "https://dc.lft.to/lastmile_qr_scan", "ios": "https://dc.lft.to/lastmile_qr_scan"}, "lon": -76.97060433333333, "name": "2f886473769e8e3d948040c77a29f20b", "lat": 38.98458, "is_reserved": 0, "fusion_lat": 0.0, "bike_id": "2f886473769e8e3d948040c77a29f20b", "type": "electric_bike", "is_disabled": 0, "fusion_lon": 0.0}, {"rental_uris": {"android": "https://dc.lft.to/lastmile_qr_scan", "ios": "https://dc.lft.to/lastmile_qr_scan"}, "lon": -77.00221266666667, "name": "5d6a138dfa6b121a617002a07daa98fa", "lat": 38.9086275, "is_reserved": 0, "fusion_lat": 0.0, "bike_id": "5d6a138dfa6b121a617002a07daa98fa", "type": "electric_scooter", "is_disabled": 0, "fusion_lon": 0.0}, {"rental_uris": {"android": "https://dc.lft.to/lastmile_qr_scan", "ios": "https://dc.lft.to/lastmile_qr_scan"}, "lon": -76.98626166666666, "name": "7261533a0176d78f9699d088ae63af5d", "lat": 38.93284366666666, "is_reserved": 0, "fusion_lat": 0.0, "bike_id": "7261533a0176d78f9699d088ae63af5d", "type": "electric_scooter", "is_disabled": 0, "fusion_lon": 0.0}, {"rental_uris": {"android": "https://dc.lft.to/lastmile_qr_scan", "ios": "https://dc.lft.to/lastmile_qr_scan"}, "lon": -77.009166, "name": "9ee0df50a3777143cc5f57bde3989b2b", "lat": 38.92343966666667, "is_reserved": 0, "fusion_lat": 0.0, "bike_id": "9ee0df50a3777143cc5f57bde3989b2b", "type": "electric_scooter", "is_disabled": 0, "fusion_lon": 0.0}, {"rental_uris": {"android": "https://dc.lft.to/lastmile_qr_scan", "ios": "https://dc.lft.to/lastmile_qr_scan"}, "lon": -77.02695016666667, "name": "4a9d57c486dae074cf5e6d23bdeffc52", "lat": 38.90691, "is_reserved": 0, "fusion_lat": 0.0, "bike_id": "4a9d57c486dae074cf5e6d23bdeffc52", "type": "electric_scooter", "is_disabled": 0, "fusion_lon": 0.0}, {"rental_uris": {"android": "https://dc.lft.to/lastmile_qr_scan", "ios": "https://dc.lft.to/lastmile_qr_scan"}, "lon": -77.048779, "name": "40870e8b76db58670b96ba9ddd377b6c", "lat": 38.89867866666667, "is_reserved": 0, "fusion_lat": 0.0, "bike_id": "40870e8b76db58670b96ba9ddd377b6c", "type": "electric_scooter", "is_disabled": 0, "fusion_lon": 0.0}, {"rental_uris": {"android": "https://dc.lft.to/lastmile_qr_scan", "ios": "https://dc.lft.to/lastmile_qr_scan"}, "lon": -77.04358733333333, "name": "bab1d5f8b360e06683a28e378de8cbea", "lat": 38.90127016666667, "is_reserved": 0, "fusion_lat": 0.0, "bike_id": "bab1d5f8b360e06683a28e378de8cbea", "type": "electric_scooter", "is_disabled": 0, "fusion_lon": 0.0}, {"rental_uris": {"android": "https://dc.lft.to/lastmile_qr_scan", "ios": "https://dc.lft.to/lastmile_qr_scan"}, "lon": -77.04324466666667, "name": "4a37a3dad039bc60993ec81b0f294696", "lat": 38.8922965, "is_reserved": 0, "fusion_lat": 0.0, "bike_id": "4a37a3dad039bc60993ec81b0f294696", "type": "electric_scooter", "is_disabled": 0, "fusion_lon": 0.0}, {"rental_uris": {"android": "https://dc.lft.to/lastmile_qr_scan", "ios": "https://dc.lft.to/lastmile_qr_scan"}, "lon": -77.01185416666667, "name": "2278e9ad27eec01a33b0064a2266ef2f", "lat": 38.900430166666666, "is_reserved": 0, "fusion_lat": 0.0, "bike_id": "2278e9ad27eec01a33b0064a2266ef2f", "type": "electric_scooter", "is_disabled": 0, "fusion_lon": 0.0}, {"rental_uris": {"android": "https://dc.lft.to/lastmile_qr_scan", "ios": "https://dc.lft.to/lastmile_qr_scan"}, "lon": -77.0106375, "name": "8e3f4bd708d527abea77fc3409440116", "lat": 38.907872, "is_reserved": 0, "fusion_lat": 0.0, "bike_id": "8e3f4bd708d527abea77fc3409440116", "type": "electric_scooter", "is_disabled": 0, "fusion_lon": 0.0}, {"rental_uris": {"android": "https://dc.lft.to/lastmile_qr_scan", "ios": "https://dc.lft.to/lastmile_qr_scan"}, "lon": -77.07894283333333, "name": "486be7793ba523ae3f4fa439e9aaf8fe", "lat": 38.848409833333335, "is_reserved": 0, "fusion_lat": 0.0, "bike_id": "486be7793ba523ae3f4fa439e9aaf8fe", "type": "electric_bike", "is_disabled": 0, "fusion_lon": 0.0}, {"rental_uris": {"android": "https://dc.lft.to/lastmile_qr_scan", "ios": "https://dc.lft.to/lastmile_qr_scan"}, "lon": -77.02814166666667, "name": "0b20d8f0b7ac9a7aff13c19be325ea72", "lat": 38.96575466666667, "is_reserved": 0, "fusion_lat": 0.0, "bike_id": "0b20d8f0b7ac9a7aff13c19be325ea72", "type": "electric_bike", "is_disabled": 0, "fusion_lon": 0.0}, {"rental_uris": {"android": "https://dc.lft.to/lastmile_qr_scan", "ios": "https://dc.lft.to/lastmile_qr_scan"}, "lon": -76.930714, "name": "d50f7cb1865205c60bfd9e33d7b48f5f", "lat": 38.90166716666667, "is_reserved": 0, "fusion_lat": 0.0, "bike_id": "d50f7cb1865205c60bfd9e33d7b48f5f", "type": "electric_scooter", "is_disabled": 0, "fusion_lon": 0.0}, {"rental_uris": {"android": "https://dc.lft.to/lastmile_qr_scan", "ios": "https://dc.lft.to/lastmile_qr_scan"}, "lon": -77.0282705, "name": "bf31d932c80b3d93d0f6e35b66e79fb7", "lat": 38.88648716666667, "is_reserved": 0, "fusion_lat": 0.0, "bike_id": "bf31d932c80b3d93d0f6e35b66e79fb7", "type": "electric_bike", "is_disabled": 0, "fusion_lon": 0.0}, {"rental_uris": {"android": "https://dc.lft.to/lastmile_qr_scan", "ios": "https://dc.lft.to/lastmile_qr_scan"}, "lon": -76.95425966666667, "name": "e7778c5b5147501c0b2198b55b9b3ec6", "lat": 38.885499833333334, "is_reserved": 0, "fusion_lat": 0.0, "bike_id": "e7778c5b5147501c0b2198b55b9b3ec6", "type": "electric_bike", "is_disabled": 0, "fusion_lon": 0.0}, {"rental_uris": {"android": "https://dc.lft.to/lastmile_qr_scan", "ios": "https://dc.lft.to/lastmile_qr_scan"}, "lon": -77.02845566666667, "name": "0f2ae59ba4fc4fad1062a1cd2628003b", "lat": 38.917108, "is_reserved": 0, "fusion_lat": 0.0, "bike_id": "0f2ae59ba4fc4fad1062a1cd2628003b", "type": "electric_scooter", "is_disabled": 0, "fusion_lon": 0.0}, {"rental_uris": {"android": "https://dc.lft.to/lastmile_qr_scan", "ios": "https://dc.lft.to/lastmile_qr_scan"}, "lon": -77.02693416666666, "name": "377f9336f60261806a5d7df9de89d41c", "lat": 38.9498165, "is_reserved": 0, "fusion_lat": 0.0, "bike_id": "377f9336f60261806a5d7df9de89d41c", "type": "electric_scooter", "is_disabled": 0, "fusion_lon": 0.0}, {"rental_uris": {"android": "https://dc.lft.to/lastmile_qr_scan", "ios": "https://dc.lft.to/lastmile_qr_scan"}, "lon": -77.022251, "name": "8e7074b04e61900f5f842bdb767b0985", "lat": 38.9355315, "is_reserved": 0, "fusion_lat": 0.0, "bike_id": "8e7074b04e61900f5f842bdb767b0985", "type": "electric_scooter", "is_disabled": 0, "fusion_lon": 0.0}, {"rental_uris": {"android": "https://dc.lft.to/lastmile_qr_scan", "ios": "https://dc.lft.to/lastmile_qr_scan"}, "lon": -77.02831333333333, "name": "90dca17315aea87d15313320cdff207e", "lat": 38.88735, "is_reserved": 0, "fusion_lat": 0.0, "bike_id": "90dca17315aea87d15313320cdff207e", "type": "electric_scooter", "is_disabled": 0, "fusion_lon": 0.0}, {"rental_uris": {"android": "https://dc.lft.to/lastmile_qr_scan", "ios": "https://dc.lft.to/lastmile_qr_scan"}, "lon": -77.02398716666667, "name": "35a9c911965881dc19e87fb23a34ee60", "lat": 38.919745666666664, "is_reserved": 0, "fusion_lat": 0.0, "bike_id": "35a9c911965881dc19e87fb23a34ee60", "type": "electric_scooter", "is_disabled": 0, "fusion_lon": 0.0}, {"rental_uris": {"android": "https://dc.lft.to/lastmile_qr_scan", "ios": "https://dc.lft.to/lastmile_qr_scan"}, "lon": -77.02603466666666, "name": "9da9c1c358c708248f86280918c007b8", "lat": 38.94432483333333, "is_reserved": 0, "fusion_lat": 0.0, "bike_id": "9da9c1c358c708248f86280918c007b8", "type": "electric_bike", "is_disabled": 0, "fusion_lon": 0.0}, {"rental_uris": {"android": "https://dc.lft.to/lastmile_qr_scan", "ios": "https://dc.lft.to/lastmile_qr_scan"}, "lon": -77.02290283333333, "name": "899bfc425c9d0732f2d5dd7a7002bbb3", "lat": 38.89512366666666, "is_reserved": 0, "fusion_lat": 0.0, "bike_id": "899bfc425c9d0732f2d5dd7a7002bbb3", "type": "electric_scooter", "is_disabled": 0, "fusion_lon": 0.0}, {"rental_uris": {"android": "https://dc.lft.to/lastmile_qr_scan", "ios": "https://dc.lft.to/lastmile_qr_scan"}, "lon": -77.06306266666667, "name": "cfd38b341be481962927d93151f3ecc5", "lat": 38.7985395, "is_reserved": 0, "fusion_lat": 0.0, "bike_id": "cfd38b341be481962927d93151f3ecc5", "type": "electric_bike", "is_disabled": 0, "fusion_lon": 0.0}, {"rental_uris": {"android": "https://dc.lft.to/lastmile_qr_scan", "ios": "https://dc.lft.to/lastmile_qr_scan"}, "lon": -77.02240633333334, "name": "02e37d365411651939a63d4036b7a54e", "lat": 38.9111705, "is_reserved": 0, "fusion_lat": 0.0, "bike_id": "02e37d365411651939a63d4036b7a54e", "type": "electric_scooter", "is_disabled": 0, "fusion_lon": 0.0}, {"rental_uris": {"android": "https://dc.lft.to/lastmile_qr_scan", "ios": "https://dc.lft.to/lastmile_qr_scan"}, "lon": -77.01348566666667, "name": "eca9f253a405dd583a3daea3dd82964b", "lat": 38.91281716666667, "is_reserved": 0, "fusion_lat": 0.0, "bike_id": "eca9f253a405dd583a3daea3dd82964b", "type": "electric_scooter", "is_disabled": 0, "fusion_lon": 0.0}, {"rental_uris": {"android": "https://dc.lft.to/lastmile_qr_scan", "ios": "https://dc.lft.to/lastmile_qr_scan"}, "lon": -76.977232, "name": "1538dbba5ecf32fbe7620167b3e52b5b", "lat": 38.872499, "is_reserved": 0, "fusion_lat": 0.0, "bike_id": "1538dbba5ecf32fbe7620167b3e52b5b", "type": "electric_scooter", "is_disabled": 0, "fusion_lon": 0.0}, {"rental_uris": {"android": "https://dc.lft.to/lastmile_qr_scan", "ios": "https://dc.lft.to/lastmile_qr_scan"}, "lon": -76.987537, "name": "3b8bab1369a189a6e11b776dae656b16", "lat": 38.857708, "is_reserved": 0, "fusion_lat": 0.0, "bike_id": "3b8bab1369a189a6e11b776dae656b16", "type": "electric_bike", "is_disabled": 0, "fusion_lon": 0.0}, {"rental_uris": {"android": "https://dc.lft.to/lastmile_qr_scan", "ios": "https://dc.lft.to/lastmile_qr_scan"}, "lon": -77.0320925, "name": "abe139be2d6597419c46faa2c40b53b5", "lat": 38.91646983333333, "is_reserved": 0, "fusion_lat": 0.0, "bike_id": "abe139be2d6597419c46faa2c40b53b5", "type": "electric_scooter", "is_disabled": 0, "fusion_lon": 0.0}, {"rental_uris": {"android": "https://dc.lft.to/lastmile_qr_scan", "ios": "https://dc.lft.to/lastmile_qr_scan"}, "lon": -77.00696283333333, "name": "4d7f0de6559a2f9e7d55db2fe5e9bd68", "lat": 38.952471333333335, "is_reserved": 0, "fusion_lat": 0.0, "bike_id": "4d7f0de6559a2f9e7d55db2fe5e9bd68", "type": "electric_scooter", "is_disabled": 0, "fusion_lon": 0.0}, {"rental_uris": {"android": "https://dc.lft.to/lastmile_qr_scan", "ios": "https://dc.lft.to/lastmile_qr_scan"}, "lon": -77.01212816666667, "name": "52ff68e2785ad8eb493fa47fcbe550c4", "lat": 38.91475366666667, "is_reserved": 0, "fusion_lat": 0.0, "bike_id": "52ff68e2785ad8eb493fa47fcbe550c4", "type": "electric_scooter", "is_disabled": 0, "fusion_lon": 0.0}, {"rental_uris": {"android": "https://dc.lft.to/lastmile_qr_scan", "ios": "https://dc.lft.to/lastmile_qr_scan"}, "lon": -77.02598133333333, "name": "2050286770c3d5894be9a8af092db109", "lat": 38.94411783333334, "is_reserved": 0, "fusion_lat": 0.0, "bike_id": "2050286770c3d5894be9a8af092db109", "type": "electric_scooter", "is_disabled": 0, "fusion_lon": 0.0}, {"rental_uris": {"android": "https://dc.lft.to/lastmile_qr_scan", "ios": "https://dc.lft.to/lastmile_qr_scan"}, "lon": -76.99792, "name": "18a740d63f076f6b93a693c27e1fabff", "lat": 38.84185866666667, "is_reserved": 0, "fusion_lat": 0.0, "bike_id": "18a740d63f076f6b93a693c27e1fabff", "type": "electric_scooter", "is_disabled": 0, "fusion_lon": 0.0}, {"rental_uris": {"android": "https://dc.lft.to/lastmile_qr_scan", "ios": "https://dc.lft.to/lastmile_qr_scan"}, "lon": -76.98892283333333, "name": "fb09a803c74fa9a06454712cb62d71f5", "lat": 38.86666183333333, "is_reserved": 0, "fusion_lat": 0.0, "bike_id": "fb09a803c74fa9a06454712cb62d71f5", "type": "electric_scooter", "is_disabled": 0, "fusion_lon": 0.0}, {"rental_uris": {"android": "https://dc.lft.to/lastmile_qr_scan", "ios": "https://dc.lft.to/lastmile_qr_scan"}, "lon": -77.02707066666666, "name": "7f63934e1dc9c42bc319fa0b46af3805", "lat": 38.92554466666667, "is_reserved": 0, "fusion_lat": 0.0, "bike_id": "7f63934e1dc9c42bc319fa0b46af3805", "type": "electric_scooter", "is_disabled": 0, "fusion_lon": 0.0}, {"rental_uris": {"android": "https://dc.lft.to/lastmile_qr_scan", "ios": "https://dc.lft.to/lastmile_qr_scan"}, "lon": -77.02947833333333, "name": "38d8bb4a63333dae5409d53ac1f67152", "lat": 38.91695383333333, "is_reserved": 0, "fusion_lat": 0.0, "bike_id": "38d8bb4a63333dae5409d53ac1f67152", "type": "electric_scooter", "is_disabled": 0, "fusion_lon": 0.0}, {"rental_uris": {"android": "https://dc.lft.to/lastmile_qr_scan", "ios": "https://dc.lft.to/lastmile_qr_scan"}, "lon": -77.012041, "name": "4abaec2fa4ab6e6ee95e57330ec710fe", "lat": 38.9000735, "is_reserved": 0, "fusion_lat": 0.0, "bike_id": "4abaec2fa4ab6e6ee95e57330ec710fe", "type": "electric_scooter", "is_disabled": 0, "fusion_lon": 0.0}, {"rental_uris": {"android": "https://dc.lft.to/lastmile_qr_scan", "ios": "https://dc.lft.to/lastmile_qr_scan"}, "lon": -77.03471133333333, "name": "9e2c7a858af65b9a20376b4a1b0e5df3", "lat": 38.905668666666664, "is_reserved": 0, "fusion_lat": 0.0, "bike_id": "9e2c7a858af65b9a20376b4a1b0e5df3", "type": "electric_scooter", "is_disabled": 0, "fusion_lon": 0.0}, {"rental_uris": {"android": "https://dc.lft.to/lastmile_qr_scan", "ios": "https://dc.lft.to/lastmile_qr_scan"}, "lon": -77.04346466666667, "name": "d5f51aa5f6bbdfff6fc68a1b2df8b208", "lat": 38.903659166666664, "is_reserved": 0, "fusion_lat": 0.0, "bike_id": "d5f51aa5f6bbdfff6fc68a1b2df8b208", "type": "electric_scooter", "is_disabled": 0, "fusion_lon": 0.0}, {"rental_uris": {"android": "https://dc.lft.to/lastmile_qr_scan", "ios": "https://dc.lft.to/lastmile_qr_scan"}, "lon": -77.053218, "name": "287d8d5b5ead1002f91dbedd21d8e7f2", "lat": 38.90294, "is_reserved": 0, "fusion_lat": 0.0, "bike_id": "287d8d5b5ead1002f91dbedd21d8e7f2", "type": "electric_scooter", "is_disabled": 0, "fusion_lon": 0.0}, {"rental_uris": {"android": "https://dc.lft.to/lastmile_qr_scan", "ios": "https://dc.lft.to/lastmile_qr_scan"}, "lon": -77.02451333333333, "name": "20a70e7966cb2da32feb7cad2e367e8f", "lat": 38.9379885, "is_reserved": 0, "fusion_lat": 0.0, "bike_id": "20a70e7966cb2da32feb7cad2e367e8f", "type": "electric_scooter", "is_disabled": 0, "fusion_lon": 0.0}, {"rental_uris": {"android": "https://dc.lft.to/lastmile_qr_scan", "ios": "https://dc.lft.to/lastmile_qr_scan"}, "lon": -77.0163205, "name": "0f945f711c067f8f01f1d94ab09349db", "lat": 38.9011805, "is_reserved": 0, "fusion_lat": 0.0, "bike_id": "0f945f711c067f8f01f1d94ab09349db", "type": "electric_scooter", "is_disabled": 0, "fusion_lon": 0.0}, {"rental_uris": {"android": "https://dc.lft.to/lastmile_qr_scan", "ios": "https://dc.lft.to/lastmile_qr_scan"}, "lon": -77.04705083333333, "name": "a44f1c00538fcf20e71b601a3a340521", "lat": 38.912674833333334, "is_reserved": 0, "fusion_lat": 0.0, "bike_id": "a44f1c00538fcf20e71b601a3a340521", "type": "electric_scooter", "is_disabled": 0, "fusion_lon": 0.0}, {"rental_uris": {"android": "https://dc.lft.to/lastmile_qr_scan", "ios": "https://dc.lft.to/lastmile_qr_scan"}, "lon": -77.0334025, "name": "888f8fa4ac763d4aaaf5faa695075ee4", "lat": 38.9169455, "is_reserved": 0, "fusion_lat": 0.0, "bike_id": "888f8fa4ac763d4aaaf5faa695075ee4", "type": "electric_scooter", "is_disabled": 0, "fusion_lon": 0.0}, {"rental_uris": {"android": "https://dc.lft.to/lastmile_qr_scan", "ios": "https://dc.lft.to/lastmile_qr_scan"}, "lon": -77.02221683333333, "name": "df3464734f1f94110591964c0871f5db", "lat": 38.926246666666664, "is_reserved": 0, "fusion_lat": 0.0, "bike_id": "df3464734f1f94110591964c0871f5db", "type": "electric_scooter", "is_disabled": 0, "fusion_lon": 0.0}, {"rental_uris": {"android": "https://dc.lft.to/lastmile_qr_scan", "ios": "https://dc.lft.to/lastmile_qr_scan"}, "lon": -77.01541566666667, "name": "72e8fe871df43cacaa73081964429105", "lat": 38.89167283333333, "is_reserved": 0, "fusion_lat": 0.0, "bike_id": "72e8fe871df43cacaa73081964429105", "type": "electric_scooter", "is_disabled": 0, "fusion_lon": 0.0}, {"rental_uris": {"android": "https://dc.lft.to/lastmile_qr_scan", "ios": "https://dc.lft.to/lastmile_qr_scan"}, "lon": -77.033363, "name": "cff84f43c176e2b51e9a4a9aeb4ac1e1", "lat": 38.914095333333336, "is_reserved": 0, "fusion_lat": 0.0, "bike_id": "cff84f43c176e2b51e9a4a9aeb4ac1e1", "type": "electric_scooter", "is_disabled": 0, "fusion_lon": 0.0}, {"rental_uris": {"android": "https://dc.lft.to/lastmile_qr_scan", "ios": "https://dc.lft.to/lastmile_qr_scan"}, "lon": -77.00250066666666, "name": "e00f2d6a3c3119b0841405749de73361", "lat": 38.91185633333333, "is_reserved": 0, "fusion_lat": 0.0, "bike_id": "e00f2d6a3c3119b0841405749de73361", "type": "electric_scooter", "is_disabled": 0, "fusion_lon": 0.0}, {"rental_uris": {"android": "https://dc.lft.to/lastmile_qr_scan", "ios": "https://dc.lft.to/lastmile_qr_scan"}, "lon": -77.04138816666666, "name": "2918b5a9cc451f8e11871a4464aeaeaa", "lat": 38.92257766666667, "is_reserved": 0, "fusion_lat": 0.0, "bike_id": "2918b5a9cc451f8e11871a4464aeaeaa", "type": "electric_scooter", "is_disabled": 0, "fusion_lon": 0.0}, {"rental_uris": {"android": "https://dc.lft.to/lastmile_qr_scan", "ios": "https://dc.lft.to/lastmile_qr_scan"}, "lon": -76.98699, "name": "3b780098ef968484d712dab251043a69", "lat": 38.86723933333333, "is_reserved": 0, "fusion_lat": 0.0, "bike_id": "3b780098ef968484d712dab251043a69", "type": "electric_scooter", "is_disabled": 0, "fusion_lon": 0.0}, {"rental_uris": {"android": "https://dc.lft.to/lastmile_qr_scan", "ios": "https://dc.lft.to/lastmile_qr_scan"}, "lon": -77.00709716666667, "name": "61263a519478cb0269b9451dffb4ca7a", "lat": 38.884908833333334, "is_reserved": 0, "fusion_lat": 0.0, "bike_id": "61263a519478cb0269b9451dffb4ca7a", "type": "electric_scooter", "is_disabled": 0, "fusion_lon": 0.0}, {"rental_uris": {"android": "https://dc.lft.to/lastmile_qr_scan", "ios": "https://dc.lft.to/lastmile_qr_scan"}, "lon": -77.03352166666667, "name": "f3c31c7f3567a2f0fea6211b1c09564b", "lat": 38.922420833333334, "is_reserved": 0, "fusion_lat": 0.0, "bike_id": "f3c31c7f3567a2f0fea6211b1c09564b", "type": "electric_scooter", "is_disabled": 0, "fusion_lon": 0.0}, {"rental_uris": {"android": "https://dc.lft.to/lastmile_qr_scan", "ios": "https://dc.lft.to/lastmile_qr_scan"}, "lon": -77.02482483333333, "name": "788a1c85c21a95bbbfca89cadd94d9da", "lat": 38.93888883333333, "is_reserved": 0, "fusion_lat": 0.0, "bike_id": "788a1c85c21a95bbbfca89cadd94d9da", "type": "electric_scooter", "is_disabled": 0, "fusion_lon": 0.0}, {"rental_uris": {"android": "https://dc.lft.to/lastmile_qr_scan", "ios": "https://dc.lft.to/lastmile_qr_scan"}, "lon": -77.01686166666667, "name": "e1f70b49096c176850bfacde90629d6a", "lat": 38.92054483333333, "is_reserved": 0, "fusion_lat": 0.0, "bike_id": "e1f70b49096c176850bfacde90629d6a", "type": "electric_scooter", "is_disabled": 0, "fusion_lon": 0.0}, {"rental_uris": {"android": "https://dc.lft.to/lastmile_qr_scan", "ios": "https://dc.lft.to/lastmile_qr_scan"}, "lon": -77.05744316666667, "name": "0777d3f082d37ff0bad3edfd7c15906c", "lat": 38.93401566666667, "is_reserved": 0, "fusion_lat": 0.0, "bike_id": "0777d3f082d37ff0bad3edfd7c15906c", "type": "electric_scooter", "is_disabled": 0, "fusion_lon": 0.0}, {"rental_uris": {"android": "https://dc.lft.to/lastmile_qr_scan", "ios": "https://dc.lft.to/lastmile_qr_scan"}, "lon": -77.02804366666666, "name": "35e657154ee0b7e49550d68c0f34adeb", "lat": 38.91759666666667, "is_reserved": 0, "fusion_lat": 0.0, "bike_id": "35e657154ee0b7e49550d68c0f34adeb", "type": "electric_scooter", "is_disabled": 0, "fusion_lon": 0.0}, {"rental_uris": {"android": "https://dc.lft.to/lastmile_qr_scan", "ios": "https://dc.lft.to/lastmile_qr_scan"}, "lon": -77.00104683333333, "name": "a8cdeb1e564cdf07a64415ae6558a356", "lat": 38.87369733333333, "is_reserved": 0, "fusion_lat": 0.0, "bike_id": "a8cdeb1e564cdf07a64415ae6558a356", "type": "electric_scooter", "is_disabled": 0, "fusion_lon": 0.0}, {"rental_uris": {"android": "https://dc.lft.to/lastmile_qr_scan", "ios": "https://dc.lft.to/lastmile_qr_scan"}, "lon": -77.03520183333333, "name": "5d4df1b5999802978779efe053d59f3a", "lat": 38.92534166666667, "is_reserved": 0, "fusion_lat": 0.0, "bike_id": "5d4df1b5999802978779efe053d59f3a", "type": "electric_scooter", "is_disabled": 0, "fusion_lon": 0.0}, {"rental_uris": {"android": "https://dc.lft.to/lastmile_qr_scan", "ios": "https://dc.lft.to/lastmile_qr_scan"}, "lon": -77.0233255, "name": "194e4ce121a4acb5ded00ce9cd66bce8", "lat": 38.914172666666666, "is_reserved": 0, "fusion_lat": 0.0, "bike_id": "194e4ce121a4acb5ded00ce9cd66bce8", "type": "electric_scooter", "is_disabled": 0, "fusion_lon": 0.0}, {"rental_uris": {"android": "https://dc.lft.to/lastmile_qr_scan", "ios": "https://dc.lft.to/lastmile_qr_scan"}, "lon": -77.03182566666666, "name": "589ef58cf7dbfc6e048bff689aa64fb8", "lat": 38.909794, "is_reserved": 0, "fusion_lat": 0.0, "bike_id": "589ef58cf7dbfc6e048bff689aa64fb8", "type": "electric_scooter", "is_disabled": 0, "fusion_lon": 0.0}, {"rental_uris": {"android": "https://dc.lft.to/lastmile_qr_scan", "ios": "https://dc.lft.to/lastmile_qr_scan"}, "lon": -77.02977316666667, "name": "86270e36af98698b634bfd29524252cf", "lat": 38.905130166666666, "is_reserved": 0, "fusion_lat": 0.0, "bike_id": "86270e36af98698b634bfd29524252cf", "type": "electric_scooter", "is_disabled": 0, "fusion_lon": 0.0}, {"rental_uris": {"android": "https://dc.lft.to/lastmile_qr_scan", "ios": "https://dc.lft.to/lastmile_qr_scan"}, "lon": -77.06105333333333, "name": "ab40d8081969c05bc2ece0db82f049c5", "lat": 38.94369183333333, "is_reserved": 0, "fusion_lat": 0.0, "bike_id": "ab40d8081969c05bc2ece0db82f049c5", "type": "electric_scooter", "is_disabled": 0, "fusion_lon": 0.0}, {"rental_uris": {"android": "https://dc.lft.to/lastmile_qr_scan", "ios": "https://dc.lft.to/lastmile_qr_scan"}, "lon": -77.04659583333333, "name": "afe42eca925875b2e53b98746c9dd1c1", "lat": 38.89972216666666, "is_reserved": 0, "fusion_lat": 0.0, "bike_id": "afe42eca925875b2e53b98746c9dd1c1", "type": "electric_scooter", "is_disabled": 0, "fusion_lon": 0.0}, {"rental_uris": {"android": "https://dc.lft.to/lastmile_qr_scan", "ios": "https://dc.lft.to/lastmile_qr_scan"}, "lon": -77.01284316666667, "name": "b14386c7c5f503e789259f56bc783d94", "lat": 39.003783, "is_reserved": 0, "fusion_lat": 0.0, "bike_id": "b14386c7c5f503e789259f56bc783d94", "type": "electric_bike", "is_disabled": 0, "fusion_lon": 0.0}, {"rental_uris": {"android": "https://dc.lft.to/lastmile_qr_scan", "ios": "https://dc.lft.to/lastmile_qr_scan"}, "lon": -77.060071, "name": "8f260138ad9d33883822341da1242df0", "lat": 38.93641733333333, "is_reserved": 0, "fusion_lat": 0.0, "bike_id": "8f260138ad9d33883822341da1242df0", "type": "electric_scooter", "is_disabled": 0, "fusion_lon": 0.0}, {"rental_uris": {"android": "https://dc.lft.to/lastmile_qr_scan", "ios": "https://dc.lft.to/lastmile_qr_scan"}, "lon": -76.983559, "name": "b428605da71d417eadf9c4fdc15d41e1", "lat": 38.88295733333333, "is_reserved": 0, "fusion_lat": 0.0, "bike_id": "b428605da71d417eadf9c4fdc15d41e1", "type": "electric_scooter", "is_disabled": 0, "fusion_lon": 0.0}, {"rental_uris": {"android": "https://dc.lft.to/lastmile_qr_scan", "ios": "https://dc.lft.to/lastmile_qr_scan"}, "lon": -77.01348216666666, "name": "e234f6a18a9aecb61c9f53489843b35e", "lat": 38.91852866666667, "is_reserved": 0, "fusion_lat": 0.0, "bike_id": "e234f6a18a9aecb61c9f53489843b35e", "type": "electric_scooter", "is_disabled": 0, "fusion_lon": 0.0}, {"rental_uris": {"android": "https://dc.lft.to/lastmile_qr_scan", "ios": "https://dc.lft.to/lastmile_qr_scan"}, "lon": -77.01408383333333, "name": "86cff7b104cc5f5dded74260d699a016", "lat": 38.89601666666667, "is_reserved": 0, "fusion_lat": 0.0, "bike_id": "86cff7b104cc5f5dded74260d699a016", "type": "electric_scooter", "is_disabled": 0, "fusion_lon": 0.0}, {"rental_uris": {"android": "https://dc.lft.to/lastmile_qr_scan", "ios": "https://dc.lft.to/lastmile_qr_scan"}, "lon": -77.0155595, "name": "4d1bc014315f3f4fbe7144998d4c0f3c", "lat": 38.926755666666665, "is_reserved": 0, "fusion_lat": 0.0, "bike_id": "4d1bc014315f3f4fbe7144998d4c0f3c", "type": "electric_scooter", "is_disabled": 0, "fusion_lon": 0.0}, {"rental_uris": {"android": "https://dc.lft.to/lastmile_qr_scan", "ios": "https://dc.lft.to/lastmile_qr_scan"}, "lon": -77.0270805, "name": "dc5846a2c964ecb938f5319c292808e2", "lat": 38.926398, "is_reserved": 0, "fusion_lat": 0.0, "bike_id": "dc5846a2c964ecb938f5319c292808e2", "type": "electric_scooter", "is_disabled": 0, "fusion_lon": 0.0}, {"rental_uris": {"android": "https://dc.lft.to/lastmile_qr_scan", "ios": "https://dc.lft.to/lastmile_qr_scan"}, "lon": -77.00055266666666, "name": "2fcbc9790b173b70c5f5305ca4a89bdc", "lat": 38.8743765, "is_reserved": 0, "fusion_lat": 0.0, "bike_id": "2fcbc9790b173b70c5f5305ca4a89bdc", "type": "electric_scooter", "is_disabled": 0, "fusion_lon": 0.0}, {"rental_uris": {"android": "https://dc.lft.to/lastmile_qr_scan", "ios": "https://dc.lft.to/lastmile_qr_scan"}, "lon": -77.03257916666666, "name": "92a708fd6e1e9fa1edf0d6d01e9d310b", "lat": 38.91108216666667, "is_reserved": 0, "fusion_lat": 0.0, "bike_id": "92a708fd6e1e9fa1edf0d6d01e9d310b", "type": "electric_scooter", "is_disabled": 0, "fusion_lon": 0.0}, {"rental_uris": {"android": "https://dc.lft.to/lastmile_qr_scan", "ios": "https://dc.lft.to/lastmile_qr_scan"}, "lon": -76.96563983333333, "name": "687f9b7e7fea749adc49ad5442b98e32", "lat": 38.918461, "is_reserved": 0, "fusion_lat": 0.0, "bike_id": "687f9b7e7fea749adc49ad5442b98e32", "type": "electric_scooter", "is_disabled": 0, "fusion_lon": 0.0}, {"rental_uris": {"android": "https://dc.lft.to/lastmile_qr_scan", "ios": "https://dc.lft.to/lastmile_qr_scan"}, "lon": -77.02195716666667, "name": "f10e0503b3d3a0c3f6292af2585d2bb8", "lat": 38.9145485, "is_reserved": 0, "fusion_lat": 0.0, "bike_id": "f10e0503b3d3a0c3f6292af2585d2bb8", "type": "electric_scooter", "is_disabled": 0, "fusion_lon": 0.0}, {"rental_uris": {"android": "https://dc.lft.to/lastmile_qr_scan", "ios": "https://dc.lft.to/lastmile_qr_scan"}, "lon": -77.02127133333333, "name": "c10f7262a1628887b5242d922d9b6932", "lat": 38.923177, "is_reserved": 0, "fusion_lat": 0.0, "bike_id": "c10f7262a1628887b5242d922d9b6932", "type": "electric_scooter", "is_disabled": 0, "fusion_lon": 0.0}, {"rental_uris": {"android": "https://dc.lft.to/lastmile_qr_scan", "ios": "https://dc.lft.to/lastmile_qr_scan"}, "lon": -77.0440185, "name": "576150ff2380150f78b7c0e83f31ce48", "lat": 38.925917, "is_reserved": 0, "fusion_lat": 0.0, "bike_id": "576150ff2380150f78b7c0e83f31ce48", "type": "electric_scooter", "is_disabled": 0, "fusion_lon": 0.0}, {"rental_uris": {"android": "https://dc.lft.to/lastmile_qr_scan", "ios": "https://dc.lft.to/lastmile_qr_scan"}, "lon": -76.998381, "name": "b274e807a87d3d29ebe230e24bb4d63d", "lat": 38.88458383333333, "is_reserved": 0, "fusion_lat": 0.0, "bike_id": "b274e807a87d3d29ebe230e24bb4d63d", "type": "electric_scooter", "is_disabled": 0, "fusion_lon": 0.0}, {"rental_uris": {"android": "https://dc.lft.to/lastmile_qr_scan", "ios": "https://dc.lft.to/lastmile_qr_scan"}, "lon": -77.04378916666667, "name": "d968ee0b2a646b17dbbb5857b786841d", "lat": 38.892288, "is_reserved": 0, "fusion_lat": 0.0, "bike_id": "d968ee0b2a646b17dbbb5857b786841d", "type": "electric_scooter", "is_disabled": 0, "fusion_lon": 0.0}, {"rental_uris": {"android": "https://dc.lft.to/lastmile_qr_scan", "ios": "https://dc.lft.to/lastmile_qr_scan"}, "lon": -77.051266, "name": "b44f4b5b7ac7536c56fe081ee279402d", "lat": 38.9252135, "is_reserved": 0, "fusion_lat": 0.0, "bike_id": "b44f4b5b7ac7536c56fe081ee279402d", "type": "electric_scooter", "is_disabled": 0, "fusion_lon": 0.0}, {"rental_uris": {"android": "https://dc.lft.to/lastmile_qr_scan", "ios": "https://dc.lft.to/lastmile_qr_scan"}, "lon": -77.025953, "name": "0077475becb88db2f3ff089cd71bf744", "lat": 38.943150833333334, "is_reserved": 0, "fusion_lat": 0.0, "bike_id": "0077475becb88db2f3ff089cd71bf744", "type": "electric_scooter", "is_disabled": 0, "fusion_lon": 0.0}, {"rental_uris": {"android": "https://dc.lft.to/lastmile_qr_scan", "ios": "https://dc.lft.to/lastmile_qr_scan"}, "lon": -77.03913233333333, "name": "bceb06aac7e93f04594d2b1d4bc930c6", "lat": 38.9014565, "is_reserved": 0, "fusion_lat": 0.0, "bike_id": "bceb06aac7e93f04594d2b1d4bc930c6", "type": "electric_scooter", "is_disabled": 0, "fusion_lon": 0.0}, {"rental_uris": {"android": "https://dc.lft.to/lastmile_qr_scan", "ios": "https://dc.lft.to/lastmile_qr_scan"}, "lon": -76.94638383333333, "name": "52886e7b15e8df36bb2774b674ff2663", "lat": 38.898695000000004, "is_reserved": 0, "fusion_lat": 0.0, "bike_id": "52886e7b15e8df36bb2774b674ff2663", "type": "electric_scooter", "is_disabled": 0, "fusion_lon": 0.0}, {"rental_uris": {"android": "https://dc.lft.to/lastmile_qr_scan", "ios": "https://dc.lft.to/lastmile_qr_scan"}, "lon": -77.03903766666667, "name": "eff781c31500e2aa1463ab0cd3d5868c", "lat": 38.914069833333336, "is_reserved": 0, "fusion_lat": 0.0, "bike_id": "eff781c31500e2aa1463ab0cd3d5868c", "type": "electric_scooter", "is_disabled": 0, "fusion_lon": 0.0}, {"rental_uris": {"android": "https://dc.lft.to/lastmile_qr_scan", "ios": "https://dc.lft.to/lastmile_qr_scan"}, "lon": -77.02377366666667, "name": "d2d72e7410a9f71a42b08a74cd6450d2", "lat": 38.908941166666665, "is_reserved": 0, "fusion_lat": 0.0, "bike_id": "d2d72e7410a9f71a42b08a74cd6450d2", "type": "electric_scooter", "is_disabled": 0, "fusion_lon": 0.0}, {"rental_uris": {"android": "https://dc.lft.to/lastmile_qr_scan", "ios": "https://dc.lft.to/lastmile_qr_scan"}, "lon": -77.18738733333333, "name": "18d503aa6b02ec6d181e4e2b053c47ec", "lat": 38.893517, "is_reserved": 0, "fusion_lat": 0.0, "bike_id": "18d503aa6b02ec6d181e4e2b053c47ec", "type": "electric_bike", "is_disabled": 0, "fusion_lon": 0.0}, {"rental_uris": {"android": "https://dc.lft.to/lastmile_qr_scan", "ios": "https://dc.lft.to/lastmile_qr_scan"}, "lon": -77.02143283333334, "name": "c640f717e9e1e635280f97c861ace19d", "lat": 38.948093166666666, "is_reserved": 0, "fusion_lat": 0.0, "bike_id": "c640f717e9e1e635280f97c861ace19d", "type": "electric_bike", "is_disabled": 0, "fusion_lon": 0.0}, {"rental_uris": {"android": "https://dc.lft.to/lastmile_qr_scan", "ios": "https://dc.lft.to/lastmile_qr_scan"}, "lon": -77.06294383333334, "name": "7450cb2a7117fa2dc3dcfb12929e679d", "lat": 38.943786, "is_reserved": 0, "fusion_lat": 0.0, "bike_id": "7450cb2a7117fa2dc3dcfb12929e679d", "type": "electric_scooter", "is_disabled": 0, "fusion_lon": 0.0}, {"rental_uris": {"android": "https://dc.lft.to/lastmile_qr_scan", "ios": "https://dc.lft.to/lastmile_qr_scan"}, "lon": -77.02799766666666, "name": "e06cdfd8d00f99f939de8df03851d69a", "lat": 38.9171155, "is_reserved": 0, "fusion_lat": 0.0, "bike_id": "e06cdfd8d00f99f939de8df03851d69a", "type": "electric_scooter", "is_disabled": 0, "fusion_lon": 0.0}, {"rental_uris": {"android": "https://dc.lft.to/lastmile_qr_scan", "ios": "https://dc.lft.to/lastmile_qr_scan"}, "lon": -76.9518225, "name": "175b3d87abbb3ca258e0c9508c9e6143", "lat": 39.084428, "is_reserved": 0, "fusion_lat": 0.0, "bike_id": "175b3d87abbb3ca258e0c9508c9e6143", "type": "electric_bike", "is_disabled": 0, "fusion_lon": 0.0}, {"rental_uris": {"android": "https://dc.lft.to/lastmile_qr_scan", "ios": "https://dc.lft.to/lastmile_qr_scan"}, "lon": -77.03825216666667, "name": "26834a820c22a71585190c55e526552a", "lat": 38.912570333333335, "is_reserved": 0, "fusion_lat": 0.0, "bike_id": "26834a820c22a71585190c55e526552a", "type": "electric_scooter", "is_disabled": 0, "fusion_lon": 0.0}, {"rental_uris": {"android": "https://dc.lft.to/lastmile_qr_scan", "ios": "https://dc.lft.to/lastmile_qr_scan"}, "lon": -77.05511966666667, "name": "67680aa07b79747a6362f5717f00c8a7", "lat": 38.929488666666664, "is_reserved": 0, "fusion_lat": 0.0, "bike_id": "67680aa07b79747a6362f5717f00c8a7", "type": "electric_scooter", "is_disabled": 0, "fusion_lon": 0.0}, {"rental_uris": {"android": "https://dc.lft.to/lastmile_qr_scan", "ios": "https://dc.lft.to/lastmile_qr_scan"}, "lon": -77.02819566666666, "name": "73a59be87811639f92e3195c0a9979c6", "lat": 38.95616016666666, "is_reserved": 0, "fusion_lat": 0.0, "bike_id": "73a59be87811639f92e3195c0a9979c6", "type": "electric_scooter", "is_disabled": 0, "fusion_lon": 0.0}, {"rental_uris": {"android": "https://dc.lft.to/lastmile_qr_scan", "ios": "https://dc.lft.to/lastmile_qr_scan"}, "lon": -76.997829, "name": "4bb2cd3903b357c6d28a6787e1bf8070", "lat": 38.844387166666664, "is_reserved": 0, "fusion_lat": 0.0, "bike_id": "4bb2cd3903b357c6d28a6787e1bf8070", "type": "electric_scooter", "is_disabled": 0, "fusion_lon": 0.0}, {"rental_uris": {"android": "https://dc.lft.to/lastmile_qr_scan", "ios": "https://dc.lft.to/lastmile_qr_scan"}, "lon": -77.03837433333334, "name": "cdfcd90c165bdbef97f48bbce183e1fe", "lat": 38.9097705, "is_reserved": 0, "fusion_lat": 0.0, "bike_id": "cdfcd90c165bdbef97f48bbce183e1fe", "type": "electric_scooter", "is_disabled": 0, "fusion_lon": 0.0}, {"rental_uris": {"android": "https://dc.lft.to/lastmile_qr_scan", "ios": "https://dc.lft.to/lastmile_qr_scan"}, "lon": -77.02397333333333, "name": "143314562ee5c13e7260ff73fef384db", "lat": 38.9167095, "is_reserved": 0, "fusion_lat": 0.0, "bike_id": "143314562ee5c13e7260ff73fef384db", "type": "electric_scooter", "is_disabled": 0, "fusion_lon": 0.0}, {"rental_uris": {"android": "https://dc.lft.to/lastmile_qr_scan", "ios": "https://dc.lft.to/lastmile_qr_scan"}, "lon": -77.039585, "name": "f4cfdf3c4b46cc2aed2052032886c86b", "lat": 38.93326916666667, "is_reserved": 0, "fusion_lat": 0.0, "bike_id": "f4cfdf3c4b46cc2aed2052032886c86b", "type": "electric_bike", "is_disabled": 0, "fusion_lon": 0.0}, {"rental_uris": {"android": "https://dc.lft.to/lastmile_qr_scan", "ios": "https://dc.lft.to/lastmile_qr_scan"}, "lon": -77.04287633333334, "name": "2bbf2bbc2fee8bf015ea0451318438ac", "lat": 38.926699666666664, "is_reserved": 0, "fusion_lat": 0.0, "bike_id": "2bbf2bbc2fee8bf015ea0451318438ac", "type": "electric_scooter", "is_disabled": 0, "fusion_lon": 0.0}, {"rental_uris": {"android": "https://dc.lft.to/lastmile_qr_scan", "ios": "https://dc.lft.to/lastmile_qr_scan"}, "lon": -77.044803, "name": "be3b1b150ea0af3b3551195330f0d7d4", "lat": 38.918709, "is_reserved": 0, "fusion_lat": 0.0, "bike_id": "be3b1b150ea0af3b3551195330f0d7d4", "type": "electric_scooter", "is_disabled": 0, "fusion_lon": 0.0}, {"rental_uris": {"android": "https://dc.lft.to/lastmile_qr_scan", "ios": "https://dc.lft.to/lastmile_qr_scan"}, "lon": -77.026831, "name": "76196ff8f75be6a3f6f16df0e3e88f10", "lat": 38.923914833333335, "is_reserved": 0, "fusion_lat": 0.0, "bike_id": "76196ff8f75be6a3f6f16df0e3e88f10", "type": "electric_scooter", "is_disabled": 0, "fusion_lon": 0.0}, {"rental_uris": {"android": "https://dc.lft.to/lastmile_qr_scan", "ios": "https://dc.lft.to/lastmile_qr_scan"}, "lon": -77.04711866666666, "name": "d9d05924cd21c38ba772f30d8f31eed0", "lat": 38.9023305, "is_reserved": 0, "fusion_lat": 0.0, "bike_id": "d9d05924cd21c38ba772f30d8f31eed0", "type": "electric_scooter", "is_disabled": 0, "fusion_lon": 0.0}, {"rental_uris": {"android": "https://dc.lft.to/lastmile_qr_scan", "ios": "https://dc.lft.to/lastmile_qr_scan"}, "lon": -76.99853483333334, "name": "c97a8abe2270f302c6573b65a5993814", "lat": 38.900368, "is_reserved": 0, "fusion_lat": 0.0, "bike_id": "c97a8abe2270f302c6573b65a5993814", "type": "electric_scooter", "is_disabled": 0, "fusion_lon": 0.0}, {"rental_uris": {"android": "https://dc.lft.to/lastmile_qr_scan", "ios": "https://dc.lft.to/lastmile_qr_scan"}, "lon": -77.01768733333333, "name": "dad9c9ae1dff5677b05b4cf9d688d9d6", "lat": 38.9203485, "is_reserved": 0, "fusion_lat": 0.0, "bike_id": "dad9c9ae1dff5677b05b4cf9d688d9d6", "type": "electric_scooter", "is_disabled": 0, "fusion_lon": 0.0}, {"rental_uris": {"android": "https://dc.lft.to/lastmile_qr_scan", "ios": "https://dc.lft.to/lastmile_qr_scan"}, "lon": -77.032702, "name": "f2807434c2bd14a503295aae2ab38344", "lat": 38.93251816666667, "is_reserved": 0, "fusion_lat": 0.0, "bike_id": "f2807434c2bd14a503295aae2ab38344", "type": "electric_scooter", "is_disabled": 0, "fusion_lon": 0.0}, {"rental_uris": {"android": "https://dc.lft.to/lastmile_qr_scan", "ios": "https://dc.lft.to/lastmile_qr_scan"}, "lon": -76.99542283333334, "name": "329236dbaf333c80ca0f83a21e442bc0", "lat": 38.831618666666664, "is_reserved": 0, "fusion_lat": 0.0, "bike_id": "329236dbaf333c80ca0f83a21e442bc0", "type": "electric_bike", "is_disabled": 0, "fusion_lon": 0.0}, {"rental_uris": {"android": "https://dc.lft.to/lastmile_qr_scan", "ios": "https://dc.lft.to/lastmile_qr_scan"}, "lon": -77.03179016666667, "name": "bbec91bcf0bb58e482fa4879cfedafc0", "lat": 38.901074333333334, "is_reserved": 0, "fusion_lat": 0.0, "bike_id": "bbec91bcf0bb58e482fa4879cfedafc0", "type": "electric_scooter", "is_disabled": 0, "fusion_lon": 0.0}, {"rental_uris": {"android": "https://dc.lft.to/lastmile_qr_scan", "ios": "https://dc.lft.to/lastmile_qr_scan"}, "lon": -77.023582, "name": "fe308e6ff69fe52eab2f42040ab477a3", "lat": 38.90208916666667, "is_reserved": 0, "fusion_lat": 0.0, "bike_id": "fe308e6ff69fe52eab2f42040ab477a3", "type": "electric_scooter", "is_disabled": 0, "fusion_lon": 0.0}, {"rental_uris": {"android": "https://dc.lft.to/lastmile_qr_scan", "ios": "https://dc.lft.to/lastmile_qr_scan"}, "lon": -77.0198035, "name": "2b546de916816fe2db0b7014e829e295", "lat": 38.911705166666664, "is_reserved": 0, "fusion_lat": 0.0, "bike_id": "2b546de916816fe2db0b7014e829e295", "type": "electric_scooter", "is_disabled": 0, "fusion_lon": 0.0}, {"rental_uris": {"android": "https://dc.lft.to/lastmile_qr_scan", "ios": "https://dc.lft.to/lastmile_qr_scan"}, "lon": -77.035089, "name": "ddeeb49cde15fd81feadfa7f926e08c9", "lat": 38.90038766666667, "is_reserved": 0, "fusion_lat": 0.0, "bike_id": "ddeeb49cde15fd81feadfa7f926e08c9", "type": "electric_scooter", "is_disabled": 0, "fusion_lon": 0.0}, {"rental_uris": {"android": "https://dc.lft.to/lastmile_qr_scan", "ios": "https://dc.lft.to/lastmile_qr_scan"}, "lon": -77.004187, "name": "66c1b640c1d691807aa2dd33d11bad1d", "lat": 38.877052, "is_reserved": 0, "fusion_lat": 0.0, "bike_id": "66c1b640c1d691807aa2dd33d11bad1d", "type": "electric_scooter", "is_disabled": 0, "fusion_lon": 0.0}, {"rental_uris": {"android": "https://dc.lft.to/lastmile_qr_scan", "ios": "https://dc.lft.to/lastmile_qr_scan"}, "lon": -76.97225466666667, "name": "a93fc76e6bb8678054b0ecebe47ccb9e", "lat": 38.900300666666666, "is_reserved": 0, "fusion_lat": 0.0, "bike_id": "a93fc76e6bb8678054b0ecebe47ccb9e", "type": "electric_bike", "is_disabled": 0, "fusion_lon": 0.0}, {"rental_uris": {"android": "https://dc.lft.to/lastmile_qr_scan", "ios": "https://dc.lft.to/lastmile_qr_scan"}, "lon": -77.0237465, "name": "49cc364adbe216f04f9339dd018a776f", "lat": 38.95305166666667, "is_reserved": 0, "fusion_lat": 0.0, "bike_id": "49cc364adbe216f04f9339dd018a776f", "type": "electric_scooter", "is_disabled": 0, "fusion_lon": 0.0}, {"rental_uris": {"android": "https://dc.lft.to/lastmile_qr_scan", "ios": "https://dc.lft.to/lastmile_qr_scan"}, "lon": -77.02838883333334, "name": "c86a0a4911880549ce27302af7d10187", "lat": 38.924715166666665, "is_reserved": 0, "fusion_lat": 0.0, "bike_id": "c86a0a4911880549ce27302af7d10187", "type": "electric_scooter", "is_disabled": 0, "fusion_lon": 0.0}, {"rental_uris": {"android": "https://dc.lft.to/lastmile_qr_scan", "ios": "https://dc.lft.to/lastmile_qr_scan"}, "lon": -76.999723, "name": "5aa98f8b71eab6a9715d2e2f17b802de", "lat": 38.90840716666666, "is_reserved": 0, "fusion_lat": 0.0, "bike_id": "5aa98f8b71eab6a9715d2e2f17b802de", "type": "electric_scooter", "is_disabled": 0, "fusion_lon": 0.0}, {"rental_uris": {"android": "https://dc.lft.to/lastmile_qr_scan", "ios": "https://dc.lft.to/lastmile_qr_scan"}, "lon": -76.94651733333333, "name": "ae61d63d10818fbbadba2d5588e33738", "lat": 38.898283666666664, "is_reserved": 0, "fusion_lat": 0.0, "bike_id": "ae61d63d10818fbbadba2d5588e33738", "type": "electric_scooter", "is_disabled": 0, "fusion_lon": 0.0}, {"rental_uris": {"android": "https://dc.lft.to/lastmile_qr_scan", "ios": "https://dc.lft.to/lastmile_qr_scan"}, "lon": -77.04302116666666, "name": "040b728d53fe40a08098285adf5b4cb8", "lat": 38.92329333333333, "is_reserved": 0, "fusion_lat": 0.0, "bike_id": "040b728d53fe40a08098285adf5b4cb8", "type": "electric_scooter", "is_disabled": 0, "fusion_lon": 0.0}, {"rental_uris": {"android": "https://dc.lft.to/lastmile_qr_scan", "ios": "https://dc.lft.to/lastmile_qr_scan"}, "lon": -77.05279066666667, "name": "b55026560503dfb1bf60accdbb6f19ba", "lat": 38.91019816666667, "is_reserved": 0, "fusion_lat": 0.0, "bike_id": "b55026560503dfb1bf60accdbb6f19ba", "type": "electric_scooter", "is_disabled": 0, "fusion_lon": 0.0}, {"rental_uris": {"android": "https://dc.lft.to/lastmile_qr_scan", "ios": "https://dc.lft.to/lastmile_qr_scan"}, "lon": -76.99616516666667, "name": "9c3cb971d40b2c04e32f4d5810d3401c", "lat": 38.950733166666666, "is_reserved": 0, "fusion_lat": 0.0, "bike_id": "9c3cb971d40b2c04e32f4d5810d3401c", "type": "electric_scooter", "is_disabled": 0, "fusion_lon": 0.0}, {"rental_uris": {"android": "https://dc.lft.to/lastmile_qr_scan", "ios": "https://dc.lft.to/lastmile_qr_scan"}, "lon": -76.99274233333334, "name": "dc4a9dd947026581b0abcaa4107ae9cc", "lat": 38.972574, "is_reserved": 0, "fusion_lat": 0.0, "bike_id": "dc4a9dd947026581b0abcaa4107ae9cc", "type": "electric_bike", "is_disabled": 0, "fusion_lon": 0.0}, {"rental_uris": {"android": "https://dc.lft.to/lastmile_qr_scan", "ios": "https://dc.lft.to/lastmile_qr_scan"}, "lon": -77.0436075, "name": "8b8b1efbd90182f0c42848fe583f9a2d", "lat": 38.904342666666665, "is_reserved": 0, "fusion_lat": 0.0, "bike_id": "8b8b1efbd90182f0c42848fe583f9a2d", "type": "electric_scooter", "is_disabled": 0, "fusion_lon": 0.0}, {"rental_uris": {"android": "https://dc.lft.to/lastmile_qr_scan", "ios": "https://dc.lft.to/lastmile_qr_scan"}, "lon": -77.04455916666667, "name": "8f419f0b9f282d70d62580a61b053725", "lat": 38.902703333333335, "is_reserved": 0, "fusion_lat": 0.0, "bike_id": "8f419f0b9f282d70d62580a61b053725", "type": "electric_scooter", "is_disabled": 0, "fusion_lon": 0.0}, {"rental_uris": {"android": "https://dc.lft.to/lastmile_qr_scan", "ios": "https://dc.lft.to/lastmile_qr_scan"}, "lon": -77.05335916666667, "name": "babfb3e975c155f8ca194850cf59e71a", "lat": 39.040819166666665, "is_reserved": 0, "fusion_lat": 0.0, "bike_id": "babfb3e975c155f8ca194850cf59e71a", "type": "electric_bike", "is_disabled": 0, "fusion_lon": 0.0}, {"rental_uris": {"android": "https://dc.lft.to/lastmile_qr_scan", "ios": "https://dc.lft.to/lastmile_qr_scan"}, "lon": -77.0338405, "name": "fce1be5ac9fd695bc058b55c49dd159a", "lat": 38.9253625, "is_reserved": 0, "fusion_lat": 0.0, "bike_id": "fce1be5ac9fd695bc058b55c49dd159a", "type": "electric_scooter", "is_disabled": 0, "fusion_lon": 0.0}, {"rental_uris": {"android": "https://dc.lft.to/lastmile_qr_scan", "ios": "https://dc.lft.to/lastmile_qr_scan"}, "lon": -77.08621933333333, "name": "e307bcb633be8f9c183c1fb232c5854e", "lat": 38.88076683333333, "is_reserved": 0, "fusion_lat": 0.0, "bike_id": "e307bcb633be8f9c183c1fb232c5854e", "type": "electric_bike", "is_disabled": 0, "fusion_lon": 0.0}, {"rental_uris": {"android": "https://dc.lft.to/lastmile_qr_scan", "ios": "https://dc.lft.to/lastmile_qr_scan"}, "lon": -77.02340716666667, "name": "9db030558477e88137205c2165df3c27", "lat": 38.927124166666665, "is_reserved": 0, "fusion_lat": 0.0, "bike_id": "9db030558477e88137205c2165df3c27", "type": "electric_scooter", "is_disabled": 0, "fusion_lon": 0.0}, {"rental_uris": {"android": "https://dc.lft.to/lastmile_qr_scan", "ios": "https://dc.lft.to/lastmile_qr_scan"}, "lon": -77.00754466666666, "name": "3545b2d4a7953da2cd632135790a932f", "lat": 38.87112783333333, "is_reserved": 0, "fusion_lat": 0.0, "bike_id": "3545b2d4a7953da2cd632135790a932f", "type": "electric_scooter", "is_disabled": 0, "fusion_lon": 0.0}, {"rental_uris": {"android": "https://dc.lft.to/lastmile_qr_scan", "ios": "https://dc.lft.to/lastmile_qr_scan"}, "lon": -77.03239933333333, "name": "be416bc1c6084d40c62fcc88fcb8bc8e", "lat": 38.92729033333333, "is_reserved": 0, "fusion_lat": 0.0, "bike_id": "be416bc1c6084d40c62fcc88fcb8bc8e", "type": "electric_scooter", "is_disabled": 0, "fusion_lon": 0.0}, {"rental_uris": {"android": "https://dc.lft.to/lastmile_qr_scan", "ios": "https://dc.lft.to/lastmile_qr_scan"}, "lon": -77.032821, "name": "2e20c2ec8ec81e8977fed613ba2e5686", "lat": 38.9226805, "is_reserved": 0, "fusion_lat": 0.0, "bike_id": "2e20c2ec8ec81e8977fed613ba2e5686", "type": "electric_scooter", "is_disabled": 0, "fusion_lon": 0.0}, {"rental_uris": {"android": "https://dc.lft.to/lastmile_qr_scan", "ios": "https://dc.lft.to/lastmile_qr_scan"}, "lon": -77.033587, "name": "858bc819b1669bf6f415f5b32d493cbe", "lat": 38.93587733333333, "is_reserved": 0, "fusion_lat": 0.0, "bike_id": "858bc819b1669bf6f415f5b32d493cbe", "type": "electric_scooter", "is_disabled": 0, "fusion_lon": 0.0}, {"rental_uris": {"android": "https://dc.lft.to/lastmile_qr_scan", "ios": "https://dc.lft.to/lastmile_qr_scan"}, "lon": -77.04565116666667, "name": "b2502a331a16766a59b3e752e757782c", "lat": 38.908636, "is_reserved": 0, "fusion_lat": 0.0, "bike_id": "b2502a331a16766a59b3e752e757782c", "type": "electric_scooter", "is_disabled": 0, "fusion_lon": 0.0}, {"rental_uris": {"android": "https://dc.lft.to/lastmile_qr_scan", "ios": "https://dc.lft.to/lastmile_qr_scan"}, "lon": -77.0383615, "name": "a795dd0f1106299ea8cf8bd9fea629d9", "lat": 38.90284333333334, "is_reserved": 0, "fusion_lat": 0.0, "bike_id": "a795dd0f1106299ea8cf8bd9fea629d9", "type": "electric_scooter", "is_disabled": 0, "fusion_lon": 0.0}, {"rental_uris": {"android": "https://dc.lft.to/lastmile_qr_scan", "ios": "https://dc.lft.to/lastmile_qr_scan"}, "lon": -77.04768533333333, "name": "885df4a4bfda6b5b5fd45ed18856e501", "lat": 38.91757883333333, "is_reserved": 0, "fusion_lat": 0.0, "bike_id": "885df4a4bfda6b5b5fd45ed18856e501", "type": "electric_scooter", "is_disabled": 0, "fusion_lon": 0.0}, {"rental_uris": {"android": "https://dc.lft.to/lastmile_qr_scan", "ios": "https://dc.lft.to/lastmile_qr_scan"}, "lon": -77.0451865, "name": "eb1d113c2a8522f8f229469d276dad1e", "lat": 38.896081, "is_reserved": 0, "fusion_lat": 0.0, "bike_id": "eb1d113c2a8522f8f229469d276dad1e", "type": "electric_scooter", "is_disabled": 0, "fusion_lon": 0.0}, {"rental_uris": {"android": "https://dc.lft.to/lastmile_qr_scan", "ios": "https://dc.lft.to/lastmile_qr_scan"}, "lon": -76.9716515, "name": "d0a5b598eb883d33f8c6f8680bca1199", "lat": 38.8613765, "is_reserved": 0, "fusion_lat": 0.0, "bike_id": "d0a5b598eb883d33f8c6f8680bca1199", "type": "electric_scooter", "is_disabled": 0, "fusion_lon": 0.0}, {"rental_uris": {"android": "https://dc.lft.to/lastmile_qr_scan", "ios": "https://dc.lft.to/lastmile_qr_scan"}, "lon": -77.015054, "name": "77f44e2cacf23f2cb5b9dda16d952bd6", "lat": 38.89058033333333, "is_reserved": 0, "fusion_lat": 0.0, "bike_id": "77f44e2cacf23f2cb5b9dda16d952bd6", "type": "electric_scooter", "is_disabled": 0, "fusion_lon": 0.0}, {"rental_uris": {"android": "https://dc.lft.to/lastmile_qr_scan", "ios": "https://dc.lft.to/lastmile_qr_scan"}, "lon": -77.0418755, "name": "bb2220653ad96daf2985ca2d9572e63c", "lat": 38.920925, "is_reserved": 0, "fusion_lat": 0.0, "bike_id": "bb2220653ad96daf2985ca2d9572e63c", "type": "electric_scooter", "is_disabled": 0, "fusion_lon": 0.0}, {"rental_uris": {"android": "https://dc.lft.to/lastmile_qr_scan", "ios": "https://dc.lft.to/lastmile_qr_scan"}, "lon": -77.04375633333333, "name": "46da3ed92b7d5969363686ba47706b5c", "lat": 38.89226883333333, "is_reserved": 0, "fusion_lat": 0.0, "bike_id": "46da3ed92b7d5969363686ba47706b5c", "type": "electric_scooter", "is_disabled": 0, "fusion_lon": 0.0}, {"rental_uris": {"android": "https://dc.lft.to/lastmile_qr_scan", "ios": "https://dc.lft.to/lastmile_qr_scan"}, "lon": -77.02624466666667, "name": "d59cb35db75136110cc39b8a5249ce32", "lat": 38.933449, "is_reserved": 0, "fusion_lat": 0.0, "bike_id": "d59cb35db75136110cc39b8a5249ce32", "type": "electric_scooter", "is_disabled": 0, "fusion_lon": 0.0}, {"rental_uris": {"android": "https://dc.lft.to/lastmile_qr_scan", "ios": "https://dc.lft.to/lastmile_qr_scan"}, "lon": -77.02857366666667, "name": "600f6d6b5aa8b580ea8854df27c60a26", "lat": 38.935879166666666, "is_reserved": 0, "fusion_lat": 0.0, "bike_id": "600f6d6b5aa8b580ea8854df27c60a26", "type": "electric_scooter", "is_disabled": 0, "fusion_lon": 0.0}, {"rental_uris": {"android": "https://dc.lft.to/lastmile_qr_scan", "ios": "https://dc.lft.to/lastmile_qr_scan"}, "lon": -76.94640883333334, "name": "052545b79b4a0e56bc2072de9633ffcf", "lat": 38.898627166666664, "is_reserved": 0, "fusion_lat": 0.0, "bike_id": "052545b79b4a0e56bc2072de9633ffcf", "type": "electric_scooter", "is_disabled": 0, "fusion_lon": 0.0}, {"rental_uris": {"android": "https://dc.lft.to/lastmile_qr_scan", "ios": "https://dc.lft.to/lastmile_qr_scan"}, "lon": -77.04470866666666, "name": "09a1ad6add010fb46f63be9f73be8264", "lat": 38.91880366666667, "is_reserved": 0, "fusion_lat": 0.0, "bike_id": "09a1ad6add010fb46f63be9f73be8264", "type": "electric_scooter", "is_disabled": 0, "fusion_lon": 0.0}, {"rental_uris": {"android": "https://dc.lft.to/lastmile_qr_scan", "ios": "https://dc.lft.to/lastmile_qr_scan"}, "lon": -77.02794416666667, "name": "e646c0ae07de532eaea65a39d8cc5ed0", "lat": 38.898673, "is_reserved": 0, "fusion_lat": 0.0, "bike_id": "e646c0ae07de532eaea65a39d8cc5ed0", "type": "electric_scooter", "is_disabled": 0, "fusion_lon": 0.0}, {"rental_uris": {"android": "https://dc.lft.to/lastmile_qr_scan", "ios": "https://dc.lft.to/lastmile_qr_scan"}, "lon": -77.03203183333333, "name": "4a477095cf598d149ea567e1656ce822", "lat": 38.92150066666667, "is_reserved": 0, "fusion_lat": 0.0, "bike_id": "4a477095cf598d149ea567e1656ce822", "type": "electric_scooter", "is_disabled": 0, "fusion_lon": 0.0}, {"rental_uris": {"android": "https://dc.lft.to/lastmile_qr_scan", "ios": "https://dc.lft.to/lastmile_qr_scan"}, "lon": -77.005882, "name": "665ef8c1e84e1c281579d3556b1225e8", "lat": 38.90562333333333, "is_reserved": 0, "fusion_lat": 0.0, "bike_id": "665ef8c1e84e1c281579d3556b1225e8", "type": "electric_scooter", "is_disabled": 0, "fusion_lon": 0.0}, {"rental_uris": {"android": "https://dc.lft.to/lastmile_qr_scan", "ios": "https://dc.lft.to/lastmile_qr_scan"}, "lon": -77.00224733333333, "name": "3e22927564169af7d4a2deb338d7dd40", "lat": 38.9251065, "is_reserved": 0, "fusion_lat": 0.0, "bike_id": "3e22927564169af7d4a2deb338d7dd40", "type": "electric_scooter", "is_disabled": 0, "fusion_lon": 0.0}, {"rental_uris": {"android": "https://dc.lft.to/lastmile_qr_scan", "ios": "https://dc.lft.to/lastmile_qr_scan"}, "lon": -77.0298395, "name": "1af834277bcea41d91c815e1d8480409", "lat": 38.931101166666664, "is_reserved": 0, "fusion_lat": 0.0, "bike_id": "1af834277bcea41d91c815e1d8480409", "type": "electric_scooter", "is_disabled": 0, "fusion_lon": 0.0}, {"rental_uris": {"android": "https://dc.lft.to/lastmile_qr_scan", "ios": "https://dc.lft.to/lastmile_qr_scan"}, "lon": -77.12528933333333, "name": "8a15528775624f7f0c7d6242318f6765", "lat": 39.05634633333333, "is_reserved": 0, "fusion_lat": 0.0, "bike_id": "8a15528775624f7f0c7d6242318f6765", "type": "electric_bike", "is_disabled": 0, "fusion_lon": 0.0}, {"rental_uris": {"android": "https://dc.lft.to/lastmile_qr_scan", "ios": "https://dc.lft.to/lastmile_qr_scan"}, "lon": -77.0067975, "name": "9744938bd3ff3b85d52bb91551157d16", "lat": 38.900171666666665, "is_reserved": 0, "fusion_lat": 0.0, "bike_id": "9744938bd3ff3b85d52bb91551157d16", "type": "electric_scooter", "is_disabled": 0, "fusion_lon": 0.0}, {"rental_uris": {"android": "https://dc.lft.to/lastmile_qr_scan", "ios": "https://dc.lft.to/lastmile_qr_scan"}, "lon": -77.04739066666667, "name": "d76605414603b0bc4671a00d548087ec", "lat": 38.89729966666667, "is_reserved": 0, "fusion_lat": 0.0, "bike_id": "d76605414603b0bc4671a00d548087ec", "type": "electric_scooter", "is_disabled": 0, "fusion_lon": 0.0}, {"rental_uris": {"android": "https://dc.lft.to/lastmile_qr_scan", "ios": "https://dc.lft.to/lastmile_qr_scan"}, "lon": -77.00455183333334, "name": "8902585037bf826235f65724bd2b19ac", "lat": 38.912418, "is_reserved": 0, "fusion_lat": 0.0, "bike_id": "8902585037bf826235f65724bd2b19ac", "type": "electric_scooter", "is_disabled": 0, "fusion_lon": 0.0}, {"rental_uris": {"android": "https://dc.lft.to/lastmile_qr_scan", "ios": "https://dc.lft.to/lastmile_qr_scan"}, "lon": -77.03845616666666, "name": "4fb5bbf8be5ce19a5f9f116f58b9d59d", "lat": 38.9265035, "is_reserved": 0, "fusion_lat": 0.0, "bike_id": "4fb5bbf8be5ce19a5f9f116f58b9d59d", "type": "electric_scooter", "is_disabled": 0, "fusion_lon": 0.0}, {"rental_uris": {"android": "https://dc.lft.to/lastmile_qr_scan", "ios": "https://dc.lft.to/lastmile_qr_scan"}, "lon": -77.001927, "name": "2fb9038ff816d85c0d4c44b2e89fe08a", "lat": 38.900340666666665, "is_reserved": 0, "fusion_lat": 0.0, "bike_id": "2fb9038ff816d85c0d4c44b2e89fe08a", "type": "electric_scooter", "is_disabled": 0, "fusion_lon": 0.0}, {"rental_uris": {"android": "https://dc.lft.to/lastmile_qr_scan", "ios": "https://dc.lft.to/lastmile_qr_scan"}, "lon": -76.9835955, "name": "50cf2badb9dc7737211a9563917b162c", "lat": 38.89437683333333, "is_reserved": 0, "fusion_lat": 0.0, "bike_id": "50cf2badb9dc7737211a9563917b162c", "type": "electric_scooter", "is_disabled": 0, "fusion_lon": 0.0}, {"rental_uris": {"android": "https://dc.lft.to/lastmile_qr_scan", "ios": "https://dc.lft.to/lastmile_qr_scan"}, "lon": -77.03841816666667, "name": "47d7e087e9276faf65c7bc13bf6bfed0", "lat": 38.9121995, "is_reserved": 0, "fusion_lat": 0.0, "bike_id": "47d7e087e9276faf65c7bc13bf6bfed0", "type": "electric_scooter", "is_disabled": 0, "fusion_lon": 0.0}, {"rental_uris": {"android": "https://dc.lft.to/lastmile_qr_scan", "ios": "https://dc.lft.to/lastmile_qr_scan"}, "lon": -77.019599, "name": "a30bdc674fed3abf965ae959a815c71e", "lat": 38.89255933333333, "is_reserved": 0, "fusion_lat": 0.0, "bike_id": "a30bdc674fed3abf965ae959a815c71e", "type": "electric_scooter", "is_disabled": 0, "fusion_lon": 0.0}, {"rental_uris": {"android": "https://dc.lft.to/lastmile_qr_scan", "ios": "https://dc.lft.to/lastmile_qr_scan"}, "lon": -76.995594, "name": "0feac9068d2864dfe293b5df6b8a5ebd", "lat": 38.90029533333333, "is_reserved": 0, "fusion_lat": 0.0, "bike_id": "0feac9068d2864dfe293b5df6b8a5ebd", "type": "electric_scooter", "is_disabled": 0, "fusion_lon": 0.0}, {"rental_uris": {"android": "https://dc.lft.to/lastmile_qr_scan", "ios": "https://dc.lft.to/lastmile_qr_scan"}, "lon": -77.02425983333333, "name": "c32f193e96c47be35a9d2e1e95921609", "lat": 38.926558666666665, "is_reserved": 0, "fusion_lat": 0.0, "bike_id": "c32f193e96c47be35a9d2e1e95921609", "type": "electric_scooter", "is_disabled": 0, "fusion_lon": 0.0}, {"rental_uris": {"android": "https://dc.lft.to/lastmile_qr_scan", "ios": "https://dc.lft.to/lastmile_qr_scan"}, "lon": -77.00002716666667, "name": "6df8d262609673a4fa25994424bb1531", "lat": 38.90246116666667, "is_reserved": 0, "fusion_lat": 0.0, "bike_id": "6df8d262609673a4fa25994424bb1531", "type": "electric_scooter", "is_disabled": 0, "fusion_lon": 0.0}, {"rental_uris": {"android": "https://dc.lft.to/lastmile_qr_scan", "ios": "https://dc.lft.to/lastmile_qr_scan"}, "lon": -77.02378783333333, "name": "de4c6a3a4b6c52b57869aea49888b2c6", "lat": 38.90733933333333, "is_reserved": 0, "fusion_lat": 0.0, "bike_id": "de4c6a3a4b6c52b57869aea49888b2c6", "type": "electric_scooter", "is_disabled": 0, "fusion_lon": 0.0}, {"rental_uris": {"android": "https://dc.lft.to/lastmile_qr_scan", "ios": "https://dc.lft.to/lastmile_qr_scan"}, "lon": -77.02695416666667, "name": "0e284701df26bf16e6384a51ebfe2253", "lat": 38.89452383333333, "is_reserved": 0, "fusion_lat": 0.0, "bike_id": "0e284701df26bf16e6384a51ebfe2253", "type": "electric_scooter", "is_disabled": 0, "fusion_lon": 0.0}, {"rental_uris": {"android": "https://dc.lft.to/lastmile_qr_scan", "ios": "https://dc.lft.to/lastmile_qr_scan"}, "lon": -77.02239333333333, "name": "aad12ad526fc4c59c1cfa041bdcfb070", "lat": 38.908608, "is_reserved": 0, "fusion_lat": 0.0, "bike_id": "aad12ad526fc4c59c1cfa041bdcfb070", "type": "electric_scooter", "is_disabled": 0, "fusion_lon": 0.0}, {"rental_uris": {"android": "https://dc.lft.to/lastmile_qr_scan", "ios": "https://dc.lft.to/lastmile_qr_scan"}, "lon": -76.9725415, "name": "925b4bae219f15068cef454d6e11ec78", "lat": 38.95742633333333, "is_reserved": 0, "fusion_lat": 0.0, "bike_id": "925b4bae219f15068cef454d6e11ec78", "type": "electric_bike", "is_disabled": 0, "fusion_lon": 0.0}, {"rental_uris": {"android": "https://dc.lft.to/lastmile_qr_scan", "ios": "https://dc.lft.to/lastmile_qr_scan"}, "lon": -77.00801533333333, "name": "875d0ee29e480c40f7fe7d7d6c930c40", "lat": 38.949188666666664, "is_reserved": 0, "fusion_lat": 0.0, "bike_id": "875d0ee29e480c40f7fe7d7d6c930c40", "type": "electric_bike", "is_disabled": 0, "fusion_lon": 0.0},