{"data": {"bikes": [{"lon": -77.04356166666666, "bike_id": "7afba0220689a808a6abdc4adadcdd09", "lat": 38.9217445, "fusion_lon": 0.0, "fusion_lat": 0.0, "type": "electric_scooter", "name": "7afba0220689a808a6abdc4adadcdd09", "is_disabled": 0, "rental_uris": {"ios": "https://dc.lft.to/lastmile_qr_scan", "android": "https://dc.lft.to/lastmile_qr_scan"}, "is_reserved": 0}, {"lon": -77.0268945, "bike_id": "433c3cbe4c17a21f57b3c6f59a13d6ff", "lat": 38.926656666666666, "fusion_lon": 0.0, "fusion_lat": 0.0, "type": "electric_scooter", "name": "433c3cbe4c17a21f57b3c6f59a13d6ff", "is_disabled": 0, "rental_uris": {"ios": "https://dc.lft.to/lastmile_qr_scan", "android": "https://dc.lft.to/lastmile_qr_scan"}, "is_reserved": 0}, {"lon": -77.031786, "bike_id": "c4956faa10559020693a600c165b5b26", "lat": 38.892021166666666, "fusion_lon": 0.0, "fusion_lat": 0.0, "type": "electric_scooter", "name": "c4956faa10559020693a600c165b5b26", "is_disabled": 0, "rental_uris": {"ios": "https://dc.lft.to/lastmile_qr_scan", "android": "https://dc.lft.to/lastmile_qr_scan"}, "is_reserved": 0}, {"lon": -77.02254466666666, "bike_id": "d357d5dbf3e77e49a862e5f79762c7e8", "lat": 38.937735833333335, "fusion_lon": 0.0, "fusion_lat": 0.0, "type": "electric_scooter", "name": "d357d5dbf3e77e49a862e5f79762c7e8", "is_disabled": 0, "rental_uris": {"ios": "https://dc.lft.to/lastmile_qr_scan", "android": "https://dc.lft.to/lastmile_qr_scan"}, "is_reserved": 0}, {"lon": -77.0448695, "bike_id": "06fadbdc77ce3a7fc35f64466a9b3335", "lat": 38.892418, "fusion_lon": 0.0, "fusion_lat": 0.0, "type": "electric_scooter", "name": "06fadbdc77ce3a7fc35f64466a9b3335", "is_disabled": 0, "rental_uris": {"ios": "https://dc.lft.to/lastmile_qr_scan", "android": "https://dc.lft.to/lastmile_qr_scan"}, "is_reserved": 0}, {"lon": -77.0127845, "bike_id": "4d47431505a2766f3b261814ca512a64", "lat": 38.915672666666666, "fusion_lon": 0.0, "fusion_lat": 0.0, "type": "electric_scooter", "name": "4d47431505a2766f3b261814ca512a64", "is_disabled": 0, "rental_uris": {"ios": "https://dc.lft.to/lastmile_qr_scan", "android": "https://dc.lft.to/lastmile_qr_scan"}, "is_reserved": 0}, {"lon": -77.00533183333333, "bike_id": "17f299fb44d9a949dc5b4a17ad32a7fe", "lat": 38.92975166666667, "fusion_lon": 0.0, "fusion_lat": 0.0, "type": "electric_scooter", "name": "17f299fb44d9a949dc5b4a17ad32a7fe", "is_disabled": 0, "rental_uris": {"ios": "https://dc.lft.to/lastmile_qr_scan", "android": "https://dc.lft.to/lastmile_qr_scan"}, "is_reserved": 0}, {"lon": -77.05259783333334, "bike_id": "34b023cd285f9017af463472700fee0c", "lat": 38.9257165, "fusion_lon": 0.0, "fusion_lat": 0.0, "type": "electric_scooter", "name": "34b023cd285f9017af463472700fee0c", "is_disabled": 0, "rental_uris": {"ios": "https://dc.lft.to/lastmile_qr_scan", "android": "https://dc.lft.to/lastmile_qr_scan"}, "is_reserved": 0}, {"lon": -77.02086066666666, "bike_id": "193795a7c852b8d26f34210e626adb5c", "lat": 38.8998615, "fusion_lon": 0.0, "fusion_lat": 0.0, "type": "electric_scooter", "name": "193795a7c852b8d26f34210e626adb5c", "is_disabled": 0, "rental_uris": {"ios": "https://dc.lft.to/lastmile_qr_scan", "android": "https://dc.lft.to/lastmile_qr_scan"}, "is_reserved": 0}, {"lon": -76.98526616666666, "bike_id": "1e39d4fba14f59790c51abb59f3f8933", "lat": 38.86684133333333, "fusion_lon": 0.0, "fusion_lat": 0.0, "type": "electric_scooter", "name": "1e39d4fba14f59790c51abb59f3f8933", "is_disabled": 0, "rental_uris": {"ios": "https://dc.lft.to/lastmile_qr_scan", "android": "https://dc.lft.to/lastmile_qr_scan"}, "is_reserved": 0}, {"lon": -77.0223485, "bike_id": "fe9f7e71acd5c4820b10641b1c0a87b4", "lat": 38.91253966666667, "fusion_lon": 0.0, "fusion_lat": 0.0, "type": "electric_scooter", "name": "fe9f7e71acd5c4820b10641b1c0a87b4", "is_disabled": 0, "rental_uris": {"ios": "https://dc.lft.to/lastmile_qr_scan", "android": "https://dc.lft.to/lastmile_qr_scan"}, "is_reserved": 0}, {"lon": -76.9306185, "bike_id": "2129b646884733abe8343e145a6bdb98", "lat": 38.883897, "fusion_lon": 0.0, "fusion_lat": 0.0, "type": "electric_scooter", "name": "2129b646884733abe8343e145a6bdb98", "is_disabled": 0, "rental_uris": {"ios": "https://dc.lft.to/lastmile_qr_scan", "android": "https://dc.lft.to/lastmile_qr_scan"}, "is_reserved": 0}, {"lon": -77.02040433333333, "bike_id": "23e1219c514a42155315bcbb43aa55c3", "lat": 38.908646166666664, "fusion_lon": 0.0, "fusion_lat": 0.0, "type": "electric_scooter", "name": "23e1219c514a42155315bcbb43aa55c3", "is_disabled": 0, "rental_uris": {"ios": "https://dc.lft.to/lastmile_qr_scan", "android": "https://dc.lft.to/lastmile_qr_scan"}, "is_reserved": 0}, {"lon": -77.02658183333334, "bike_id": "921456537e26717b58ed8b57c9bd7a9b", "lat": 38.916961, "fusion_lon": 0.0, "fusion_lat": 0.0, "type": "electric_scooter", "name": "921456537e26717b58ed8b57c9bd7a9b", "is_disabled": 0, "rental_uris": {"ios": "https://dc.lft.to/lastmile_qr_scan", "android": "https://dc.lft.to/lastmile_qr_scan"}, "is_reserved": 0}, {"lon": -77.014798, "bike_id": "5f14eeb3b7c576aec8c8b347aabc9a77", "lat": 38.940669666666665, "fusion_lon": 0.0, "fusion_lat": 0.0, "type": "electric_bike", "name": "5f14eeb3b7c576aec8c8b347aabc9a77", "is_disabled": 0, "rental_uris": {"ios": "https://dc.lft.to/lastmile_qr_scan", "android": "https://dc.lft.to/lastmile_qr_scan"}, "is_reserved": 0}, {"lon": -77.00338333333333, "bike_id": "45fd82398bef946ff6ddd197759e2913", "lat": 38.89918383333333, "fusion_lon": 0.0, "fusion_lat": 0.0, "type": "electric_scooter", "name": "45fd82398bef946ff6ddd197759e2913", "is_disabled": 0, "rental_uris": {"ios": "https://dc.lft.to/lastmile_qr_scan", "android": "https://dc.lft.to/lastmile_qr_scan"}, "is_reserved": 0}, {"lon": -77.02661133333334, "bike_id": "55d2059a1ef75d02f597f021ffb5d723", "lat": 38.92177066666667, "fusion_lon": 0.0, "fusion_lat": 0.0, "type": "electric_scooter", "name": "55d2059a1ef75d02f597f021ffb5d723", "is_disabled": 0, "rental_uris": {"ios": "https://dc.lft.to/lastmile_qr_scan", "android": "https://dc.lft.to/lastmile_qr_scan"}, "is_reserved": 0}, {"lon": -77.00968616666667, "bike_id": "c9f00c015d24e4deee8ac132599d8471", "lat": 38.953471666666665, "fusion_lon": 0.0, "fusion_lat": 0.0, "type": "electric_bike", "name": "c9f00c015d24e4deee8ac132599d8471", "is_disabled": 0, "rental_uris": {"ios": "https://dc.lft.to/lastmile_qr_scan", "android": "https://dc.lft.to/lastmile_qr_scan"}, "is_reserved": 0}, {"lon": -77.02725833333334, "bike_id": "43781f5d032648245ef838900799bf5a", "lat": 38.95133166666667, "fusion_lon": 0.0, "fusion_lat": 0.0, "type": "electric_scooter", "name": "43781f5d032648245ef838900799bf5a", "is_disabled": 0, "rental_uris": {"ios": "https://dc.lft.to/lastmile_qr_scan", "android": "https://dc.lft.to/lastmile_qr_scan"}, "is_reserved": 0}, {"lon": -77.07401966666667, "bike_id": "e3bd73cb78a8fe2f90bd13d90341cb01", "lat": 38.962148166666665, "fusion_lon": 0.0, "fusion_lat": 0.0, "type": "electric_scooter", "name": "e3bd73cb78a8fe2f90bd13d90341cb01", "is_disabled": 0, "rental_uris": {"ios": "https://dc.lft.to/lastmile_qr_scan", "android": "https://dc.lft.to/lastmile_qr_scan"}, "is_reserved": 0}, {"lon": -77.02979066666667, "bike_id": "a2e33c6005ffb90ff2a4f46e702df7bc", "lat": 38.9230865, "fusion_lon": 0.0, "fusion_lat": 0.0, "type": "electric_scooter", "name": "a2e33c6005ffb90ff2a4f46e702df7bc", "is_disabled": 0, "rental_uris": {"ios": "https://dc.lft.to/lastmile_qr_scan", "android": "https://dc.lft.to/lastmile_qr_scan"}, "is_reserved": 0}, {"lon": -77.02554666666667, "bike_id": "25a9c11c1c184febc60d347aedd9219c", "lat": 38.909592, "fusion_lon": 0.0, "fusion_lat": 0.0, "type": "electric_scooter", "name": "25a9c11c1c184febc60d347aedd9219c", "is_disabled": 0, "rental_uris": {"ios": "https://dc.lft.to/lastmile_qr_scan", "android": "https://dc.lft.to/lastmile_qr_scan"}, "is_reserved": 0}, {"lon": -76.98529316666666, "bike_id": "e5b1a9c7dfc0854c3c8d5f96a4391e48", "lat": 38.866879, "fusion_lon": 0.0, "fusion_lat": 0.0, "type": "electric_scooter", "name": "e5b1a9c7dfc0854c3c8d5f96a4391e48", "is_disabled": 0, "rental_uris": {"ios": "https://dc.lft.to/lastmile_qr_scan", "android": "https://dc.lft.to/lastmile_qr_scan"}, "is_reserved": 0}, {"lon": -77.04784733333334, "bike_id": "d0e96b7b52c22002c09ec051df08e8d8", "lat": 38.82952016666667, "fusion_lon": 0.0, "fusion_lat": 0.0, "type": "electric_bike", "name": "d0e96b7b52c22002c09ec051df08e8d8", "is_disabled": 0, "rental_uris": {"ios": "https://dc.lft.to/lastmile_qr_scan", "android": "https://dc.lft.to/lastmile_qr_scan"}, "is_reserved": 0}, {"lon": -77.024058, "bike_id": "f50c751b0d56127678df3a547f2a91a1", "lat": 38.891880666666665, "fusion_lon": 0.0, "fusion_lat": 0.0, "type": "electric_scooter", "name": "f50c751b0d56127678df3a547f2a91a1", "is_disabled": 0, "rental_uris": {"ios": "https://dc.lft.to/lastmile_qr_scan", "android": "https://dc.lft.to/lastmile_qr_scan"}, "is_reserved": 0}, {"lon": -77.043287, "bike_id": "910fe371183e69f55e9dc08fb6bf98fb", "lat": 38.907154, "fusion_lon": 0.0, "fusion_lat": 0.0, "type": "electric_scooter", "name": "910fe371183e69f55e9dc08fb6bf98fb", "is_disabled": 0, "rental_uris": {"ios": "https://dc.lft.to/lastmile_qr_scan", "android": "https://dc.lft.to/lastmile_qr_scan"}, "is_reserved": 0}, {"lon": -76.98595083333333, "bike_id": "e3de3804b6e5c62759bf1921e921a8d9", "lat": 38.866872666666666, "fusion_lon": 0.0, "fusion_lat": 0.0, "type": "electric_scooter", "name": "e3de3804b6e5c62759bf1921e921a8d9", "is_disabled": 0, "rental_uris": {"ios": "https://dc.lft.to/lastmile_qr_scan", "android": "https://dc.lft.to/lastmile_qr_scan"}, "is_reserved": 0}, {"lon": -77.11577, "bike_id": "966648304df5a8b85041fe5f44cc48ef", "lat": 38.993445666666666, "fusion_lon": 0.0, "fusion_lat": 0.0, "type": "electric_bike", "name": "966648304df5a8b85041fe5f44cc48ef", "is_disabled": 0, "rental_uris": {"ios": "https://dc.lft.to/lastmile_qr_scan", "android": "https://dc.lft.to/lastmile_qr_scan"}, "is_reserved": 0}, {"lon": -77.03391516666667, "bike_id": "2bbbbc1dad072dc4ac3e420a0503d1d7", "lat": 38.92158416666667, "fusion_lon": 0.0, "fusion_lat": 0.0, "type": "electric_scooter", "name": "2bbbbc1dad072dc4ac3e420a0503d1d7", "is_disabled": 0, "rental_uris": {"ios": "https://dc.lft.to/lastmile_qr_scan", "android": "https://dc.lft.to/lastmile_qr_scan"}, "is_reserved": 0}, {"lon": -77.02419733333333, "bike_id": "fa4b060c8ac56073a176d79229b0e9d9", "lat": 38.918264666666666, "fusion_lon": 0.0, "fusion_lat": 0.0, "type": "electric_scooter", "name": "fa4b060c8ac56073a176d79229b0e9d9", "is_disabled": 0, "rental_uris": {"ios": "https://dc.lft.to/lastmile_qr_scan", "android": "https://dc.lft.to/lastmile_qr_scan"}, "is_reserved": 0}, {"lon": -77.017597, "bike_id": "963a37e698018302f9f832e637162d7d", "lat": 38.87669266666666, "fusion_lon": 0.0, "fusion_lat": 0.0, "type": "electric_scooter", "name": "963a37e698018302f9f832e637162d7d", "is_disabled": 0, "rental_uris": {"ios": "https://dc.lft.to/lastmile_qr_scan", "android": "https://dc.lft.to/lastmile_qr_scan"}, "is_reserved": 0}, {"lon": -77.027162, "bike_id": "c31e48d2ae1f1e60065f2b83901c532c", "lat": 38.90954383333333, "fusion_lon": 0.0, "fusion_lat": 0.0, "type": "electric_scooter", "name": "c31e48d2ae1f1e60065f2b83901c532c", "is_disabled": 0, "rental_uris": {"ios": "https://dc.lft.to/lastmile_qr_scan", "android": "https://dc.lft.to/lastmile_qr_scan"}, "is_reserved": 0}, {"lon": -77.04337616666666, "bike_id": "40fe06b404ae79eb1d292a6044b7be9b", "lat": 38.89223916666667, "fusion_lon": 0.0, "fusion_lat": 0.0, "type": "electric_scooter", "name": "40fe06b404ae79eb1d292a6044b7be9b", "is_disabled": 0, "rental_uris": {"ios": "https://dc.lft.to/lastmile_qr_scan", "android": "https://dc.lft.to/lastmile_qr_scan"}, "is_reserved": 0}, {"lon": -77.02450233333333, "bike_id": "8288714da33aaa0b110a12c854543aa0", "lat": 38.91413416666666, "fusion_lon": 0.0, "fusion_lat": 0.0, "type": "electric_scooter", "name": "8288714da33aaa0b110a12c854543aa0", "is_disabled": 0, "rental_uris": {"ios": "https://dc.lft.to/lastmile_qr_scan", "android": "https://dc.lft.to/lastmile_qr_scan"}, "is_reserved": 0}, {"lon": -77.0211795, "bike_id": "64b136469d6b6f3d8b45eb03c0534477", "lat": 38.93697733333333, "fusion_lon": 0.0, "fusion_lat": 0.0, "type": "electric_scooter", "name": "64b136469d6b6f3d8b45eb03c0534477", "is_disabled": 0, "rental_uris": {"ios": "https://dc.lft.to/lastmile_qr_scan", "android": "https://dc.lft.to/lastmile_qr_scan"}, "is_reserved": 0}, {"lon": -77.008251, "bike_id": "6df37cf7e140ccaa88ff36202e1cafe2", "lat": 38.879101, "fusion_lon": 0.0, "fusion_lat": 0.0, "type": "electric_scooter", "name": "6df37cf7e140ccaa88ff36202e1cafe2", "is_disabled": 0, "rental_uris": {"ios": "https://dc.lft.to/lastmile_qr_scan", "android": "https://dc.lft.to/lastmile_qr_scan"}, "is_reserved": 0}, {"lon": -77.04352366666667, "bike_id": "4a8275a5d28f829de26712c049c3f8c4", "lat": 38.92150783333334, "fusion_lon": 0.0, "fusion_lat": 0.0, "type": "electric_scooter", "name": "4a8275a5d28f829de26712c049c3f8c4", "is_disabled": 0, "rental_uris": {"ios": "https://dc.lft.to/lastmile_qr_scan", "android": "https://dc.lft.to/lastmile_qr_scan"}, "is_reserved": 0}, {"lon": -76.9488015, "bike_id": "c78e3579cfaf2427bc4e87d84263ae3c", "lat": 38.89506516666667, "fusion_lon": 0.0, "fusion_lat": 0.0, "type": "electric_scooter", "name": "c78e3579cfaf2427bc4e87d84263ae3c", "is_disabled": 0, "rental_uris": {"ios": "https://dc.lft.to/lastmile_qr_scan", "android": "https://dc.lft.to/lastmile_qr_scan"}, "is_reserved": 0}, {"lon": -77.016216, "bike_id": "9bdaf9b0c7cf954b9f110b8209b8b631", "lat": 38.92048283333333, "fusion_lon": 0.0, "fusion_lat": 0.0, "type": "electric_scooter", "name": "9bdaf9b0c7cf954b9f110b8209b8b631", "is_disabled": 0, "rental_uris": {"ios": "https://dc.lft.to/lastmile_qr_scan", "android": "https://dc.lft.to/lastmile_qr_scan"}, "is_reserved": 0}, {"lon": -77.05699783333333, "bike_id": "9d8c5bb1bec9e1ea8f5c1c59e0884bee", "lat": 38.90544933333334, "fusion_lon": 0.0, "fusion_lat": 0.0, "type": "electric_scooter", "name": "9d8c5bb1bec9e1ea8f5c1c59e0884bee", "is_disabled": 0, "rental_uris": {"ios": "https://dc.lft.to/lastmile_qr_scan", "android": "https://dc.lft.to/lastmile_qr_scan"}, "is_reserved": 0}, {"lon": -77.041699, "bike_id": "de12e53bbd44222b1d6d426024000e6b", "lat": 38.91790133333333, "fusion_lon": 0.0, "fusion_lat": 0.0, "type": "electric_scooter", "name": "de12e53bbd44222b1d6d426024000e6b", "is_disabled": 0, "rental_uris": {"ios": "https://dc.lft.to/lastmile_qr_scan", "android": "https://dc.lft.to/lastmile_qr_scan"}, "is_reserved": 0}, {"lon": -77.04189583333333, "bike_id": "92c582cdd88b85f87435df22b9aa8178", "lat": 38.89983333333333, "fusion_lon": 0.0, "fusion_lat": 0.0, "type": "electric_scooter", "name": "92c582cdd88b85f87435df22b9aa8178", "is_disabled": 0, "rental_uris": {"ios": "https://dc.lft.to/lastmile_qr_scan", "android": "https://dc.lft.to/lastmile_qr_scan"}, "is_reserved": 0}, {"lon": -77.02307266666666, "bike_id": "87eb82ed3b0683a7dc4bb3b45258000a", "lat": 38.91790783333333, "fusion_lon": 0.0, "fusion_lat": 0.0, "type": "electric_scooter", "name": "87eb82ed3b0683a7dc4bb3b45258000a", "is_disabled": 0, "rental_uris": {"ios": "https://dc.lft.to/lastmile_qr_scan", "android": "https://dc.lft.to/lastmile_qr_scan"}, "is_reserved": 0}, {"lon": -76.99807766666666, "bike_id": "73c36befd69f51517588eed1c0e170c2", "lat": 38.8291545, "fusion_lon": 0.0, "fusion_lat": 0.0, "type": "electric_bike", "name": "73c36befd69f51517588eed1c0e170c2", "is_disabled": 0, "rental_uris": {"ios": "https://dc.lft.to/lastmile_qr_scan", "android": "https://dc.lft.to/lastmile_qr_scan"}, "is_reserved": 0}, {"lon": -77.03428116666667, "bike_id": "26b702df4f63369b039da943488a09dd", "lat": 38.965339666666665, "fusion_lon": 0.0, "fusion_lat": 0.0, "type": "electric_bike", "name": "26b702df4f63369b039da943488a09dd", "is_disabled": 0, "rental_uris": {"ios": "https://dc.lft.to/lastmile_qr_scan", "android": "https://dc.lft.to/lastmile_qr_scan"}, "is_reserved": 0}, {"lon": -77.03075416666667, "bike_id": "d2a63a2b9b8b176614dd9543eb0d8d30", "lat": 38.920263166666665, "fusion_lon": 0.0, "fusion_lat": 0.0, "type": "electric_scooter", "name": "d2a63a2b9b8b176614dd9543eb0d8d30", "is_disabled": 0, "rental_uris": {"ios": "https://dc.lft.to/lastmile_qr_scan", "android": "https://dc.lft.to/lastmile_qr_scan"}, "is_reserved": 0}, {"lon": -77.03607016666666, "bike_id": "68e055d00072e0a5d5ea1828c60ef064", "lat": 38.936857, "fusion_lon": 0.0, "fusion_lat": 0.0, "type": "electric_scooter", "name": "68e055d00072e0a5d5ea1828c60ef064", "is_disabled": 0, "rental_uris": {"ios": "https://dc.lft.to/lastmile_qr_scan", "android": "https://dc.lft.to/lastmile_qr_scan"}, "is_reserved": 0}, {"lon": -77.02715666666667, "bike_id": "c346c6763f32b2d2642e6aae5847c864", "lat": 38.90952083333333, "fusion_lon": 0.0, "fusion_lat": 0.0, "type": "electric_scooter", "name": "c346c6763f32b2d2642e6aae5847c864", "is_disabled": 0, "rental_uris": {"ios": "https://dc.lft.to/lastmile_qr_scan", "android": "https://dc.lft.to/lastmile_qr_scan"}, "is_reserved": 0}, {"lon": -77.03049233333333, "bike_id": "c1bab44896dd87dc35a7d02cb17ea317", "lat": 38.88449983333334, "fusion_lon": 0.0, "fusion_lat": 0.0, "type": "electric_scooter", "name": "c1bab44896dd87dc35a7d02cb17ea317", "is_disabled": 0, "rental_uris": {"ios": "https://dc.lft.to/lastmile_qr_scan", "android": "https://dc.lft.to/lastmile_qr_scan"}, "is_reserved": 0}, {"lon": -77.02210033333333, "bike_id": "49b1e2a0ad9535a0b7d9a0f0b7936966", "lat": 38.9127175, "fusion_lon": 0.0, "fusion_lat": 0.0, "type": "electric_scooter", "name": "49b1e2a0ad9535a0b7d9a0f0b7936966", "is_disabled": 0, "rental_uris": {"ios": "https://dc.lft.to/lastmile_qr_scan", "android": "https://dc.lft.to/lastmile_qr_scan"}, "is_reserved": 0}, {"lon": -77.02182566666667, "bike_id": "6abd8cf7b3d688a245a745b724679504", "lat": 38.9098055, "fusion_lon": 0.0, "fusion_lat": 0.0, "type": "electric_scooter", "name": "6abd8cf7b3d688a245a745b724679504", "is_disabled": 0, "rental_uris": {"ios": "https://dc.lft.to/lastmile_qr_scan", "android": "https://dc.lft.to/lastmile_qr_scan"}, "is_reserved": 0}, {"lon": -77.03212533333334, "bike_id": "0376516f0569dbff5a57a3829f6768a3", "lat": 38.9124845, "fusion_lon": 0.0, "fusion_lat": 0.0, "type": "electric_scooter", "name": "0376516f0569dbff5a57a3829f6768a3", "is_disabled": 0, "rental_uris": {"ios": "https://dc.lft.to/lastmile_qr_scan", "android": "https://dc.lft.to/lastmile_qr_scan"}, "is_reserved": 0}, {"lon": -77.03189033333334, "bike_id": "ffe463789f7417010f28938fa4898269", "lat": 38.90697133333333, "fusion_lon": 0.0, "fusion_lat": 0.0, "type": "electric_scooter", "name": "ffe463789f7417010f28938fa4898269", "is_disabled": 0, "rental_uris": {"ios": "https://dc.lft.to/lastmile_qr_scan", "android": "https://dc.lft.to/lastmile_qr_scan"}, "is_reserved": 0}, {"lon": -77.07631866666667, "bike_id": "b372a8b963822d71ef699d07299a74f7", "lat": 38.965725166666665, "fusion_lon": 0.0, "fusion_lat": 0.0, "type": "electric_bike", "name": "b372a8b963822d71ef699d07299a74f7", "is_disabled": 0, "rental_uris": {"ios": "https://dc.lft.to/lastmile_qr_scan", "android": "https://dc.lft.to/lastmile_qr_scan"}, "is_reserved": 0}, {"lon": -77.11710066666667, "bike_id": "ce137b143906ab2fb6a6b1ab6b2b30c2", "lat": 38.8674605, "fusion_lon": 0.0, "fusion_lat": 0.0, "type": "electric_bike", "name": "ce137b143906ab2fb6a6b1ab6b2b30c2", "is_disabled": 0, "rental_uris": {"ios": "https://dc.lft.to/lastmile_qr_scan", "android": "https://dc.lft.to/lastmile_qr_scan"}, "is_reserved": 0}, {"lon": -77.01740516666666, "bike_id": "51ca39efde6553e3084cb3bf7191cb48", "lat": 38.90377016666667, "fusion_lon": 0.0, "fusion_lat": 0.0, "type": "electric_scooter", "name": "51ca39efde6553e3084cb3bf7191cb48", "is_disabled": 0, "rental_uris": {"ios": "https://dc.lft.to/lastmile_qr_scan", "android": "https://dc.lft.to/lastmile_qr_scan"}, "is_reserved": 0}, {"lon": -76.95746633333333, "bike_id": "7423df5aa56bfa06f49980b47e01510e", "lat": 38.884293166666666, "fusion_lon": 0.0, "fusion_lat": 0.0, "type": "electric_scooter", "name": "7423df5aa56bfa06f49980b47e01510e", "is_disabled": 0, "rental_uris": {"ios": "https://dc.lft.to/lastmile_qr_scan", "android": "https://dc.lft.to/lastmile_qr_scan"}, "is_reserved": 0}, {"lon": -77.02321783333333, "bike_id": "7e13c966e27ead230018290dd1c65593", "lat": 38.8950415, "fusion_lon": 0.0, "fusion_lat": 0.0, "type": "electric_scooter", "name": "7e13c966e27ead230018290dd1c65593", "is_disabled": 0, "rental_uris": {"ios": "https://dc.lft.to/lastmile_qr_scan", "android": "https://dc.lft.to/lastmile_qr_scan"}, "is_reserved": 0}, {"lon": -77.02242433333333, "bike_id": "127aec8e3cff249d30a33a8296cbb6bf", "lat": 38.92736566666667, "fusion_lon": 0.0, "fusion_lat": 0.0, "type": "electric_scooter", "name": "127aec8e3cff249d30a33a8296cbb6bf", "is_disabled": 0, "rental_uris": {"ios": "https://dc.lft.to/lastmile_qr_scan", "android": "https://dc.lft.to/lastmile_qr_scan"}, "is_reserved": 0}, {"lon": -77.021277, "bike_id": "1095bb39385c8a2828f553233fe562b5", "lat": 38.897239166666665, "fusion_lon": 0.0, "fusion_lat": 0.0, "type": "electric_scooter", "name": "1095bb39385c8a2828f553233fe562b5", "is_disabled": 0, "rental_uris": {"ios": "https://dc.lft.to/lastmile_qr_scan", "android": "https://dc.lft.to/lastmile_qr_scan"}, "is_reserved": 0}, {"lon": -77.01762683333334, "bike_id": "eee1a07cbecd2ab2252edba23dc06565", "lat": 38.8766875, "fusion_lon": 0.0, "fusion_lat": 0.0, "type": "electric_scooter", "name": "eee1a07cbecd2ab2252edba23dc06565", "is_disabled": 0, "rental_uris": {"ios": "https://dc.lft.to/lastmile_qr_scan", "android": "https://dc.lft.to/lastmile_qr_scan"}, "is_reserved": 0}, {"lon": -77.04693033333334, "bike_id": "1b5a4953aac9ea3a3f0df1ee66701bbf", "lat": 38.89225016666666, "fusion_lon": 0.0, "fusion_lat": 0.0, "type": "electric_scooter", "name": "1b5a4953aac9ea3a3f0df1ee66701bbf", "is_disabled": 0, "rental_uris": {"ios": "https://dc.lft.to/lastmile_qr_scan", "android": "https://dc.lft.to/lastmile_qr_scan"}, "is_reserved": 0}, {"lon": -77.02983533333334, "bike_id": "b2229233386bd13c9de63cf82154b5e3", "lat": 38.916311, "fusion_lon": 0.0, "fusion_lat": 0.0, "type": "electric_scooter", "name": "b2229233386bd13c9de63cf82154b5e3", "is_disabled": 0, "rental_uris": {"ios": "https://dc.lft.to/lastmile_qr_scan", "android": "https://dc.lft.to/lastmile_qr_scan"}, "is_reserved": 0}, {"lon": -77.02719716666667, "bike_id": "c3c7167ff85f40360ddd361f61fbd2c1", "lat": 38.920336666666664, "fusion_lon": 0.0, "fusion_lat": 0.0, "type": "electric_scooter", "name": "c3c7167ff85f40360ddd361f61fbd2c1", "is_disabled": 0, "rental_uris": {"ios": "https://dc.lft.to/lastmile_qr_scan", "android": "https://dc.lft.to/lastmile_qr_scan"}, "is_reserved": 0}, {"lon": -77.02186416666666, "bike_id": "9eb27679d5e62334a9e83feb732f156e", "lat": 38.913151, "fusion_lon": 0.0, "fusion_lat": 0.0, "type": "electric_bike", "name": "9eb27679d5e62334a9e83feb732f156e", "is_disabled": 0, "rental_uris": {"ios": "https://dc.lft.to/lastmile_qr_scan", "android": "https://dc.lft.to/lastmile_qr_scan"}, "is_reserved": 0}, {"lon": -76.969108, "bike_id": "9689f512a4b818db9284526b893069c6", "lat": 38.8461155, "fusion_lon": 0.0, "fusion_lat": 0.0, "type": "electric_bike", "name": "9689f512a4b818db9284526b893069c6", "is_disabled": 0, "rental_uris": {"ios": "https://dc.lft.to/lastmile_qr_scan", "android": "https://dc.lft.to/lastmile_qr_scan"}, "is_reserved": 0}, {"lon": -77.02987483333334, "bike_id": "333519aa09625c656ede8859a1b4783f", "lat": 38.90716466666667, "fusion_lon": 0.0, "fusion_lat": 0.0, "type": "electric_scooter", "name": "333519aa09625c656ede8859a1b4783f", "is_disabled": 0, "rental_uris": {"ios": "https://dc.lft.to/lastmile_qr_scan", "android": "https://dc.lft.to/lastmile_qr_scan"}, "is_reserved": 0}, {"lon": -77.00452783333333, "bike_id": "2a95460f9502fe809021cd263b593304", "lat": 38.880374333333336, "fusion_lon": 0.0, "fusion_lat": 0.0, "type": "electric_scooter", "name": "2a95460f9502fe809021cd263b593304", "is_disabled": 0, "rental_uris": {"ios": "https://dc.lft.to/lastmile_qr_scan", "android": "https://dc.lft.to/lastmile_qr_scan"}, "is_reserved": 0}, {"lon": -77.02577233333334, "bike_id": "dff94dfbbcdb798a36d8b03f172e0f22", "lat": 38.9036615, "fusion_lon": 0.0, "fusion_lat": 0.0, "type": "electric_scooter", "name": "dff94dfbbcdb798a36d8b03f172e0f22", "is_disabled": 0, "rental_uris": {"ios": "https://dc.lft.to/lastmile_qr_scan", "android": "https://dc.lft.to/lastmile_qr_scan"}, "is_reserved": 0}, {"lon": -77.11594066666666, "bike_id": "e0ab4981d337a6a9da7439e9acb289c0", "lat": 39.074955, "fusion_lon": 0.0, "fusion_lat": 0.0, "type": "electric_bike", "name": "e0ab4981d337a6a9da7439e9acb289c0", "is_disabled": 0, "rental_uris": {"ios": "https://dc.lft.to/lastmile_qr_scan", "android": "https://dc.lft.to/lastmile_qr_scan"}, "is_reserved": 0}, {"lon": -77.00070833333334, "bike_id": "2bdc4b704719f6eb57010723618571fc", "lat": 38.901483, "fusion_lon": 0.0, "fusion_lat": 0.0, "type": "electric_bike", "name": "2bdc4b704719f6eb57010723618571fc", "is_disabled": 0, "rental_uris": {"ios": "https://dc.lft.to/lastmile_qr_scan", "android": "https://dc.lft.to/lastmile_qr_scan"}, "is_reserved": 0}, {"lon": -76.99030516666667, "bike_id": "5d8edd838a64749026aa0602e92bc34a", "lat": 38.864056, "fusion_lon": 0.0, "fusion_lat": 0.0, "type": "electric_scooter", "name": "5d8edd838a64749026aa0602e92bc34a", "is_disabled": 0, "rental_uris": {"ios": "https://dc.lft.to/lastmile_qr_scan", "android": "https://dc.lft.to/lastmile_qr_scan"}, "is_reserved": 0}, {"lon": -77.03120066666666, "bike_id": "286efd466c36baddc3f61a193cc60454", "lat": 38.91262416666667, "fusion_lon": 0.0, "fusion_lat": 0.0, "type": "electric_scooter", "name": "286efd466c36baddc3f61a193cc60454", "is_disabled": 0, "rental_uris": {"ios": "https://dc.lft.to/lastmile_qr_scan", "android": "https://dc.lft.to/lastmile_qr_scan"}, "is_reserved": 0}, {"lon": -77.03216583333334, "bike_id": "057314e376ee218080c34cf33edfb90d", "lat": 38.8923645, "fusion_lon": 0.0, "fusion_lat": 0.0, "type": "electric_scooter", "name": "057314e376ee218080c34cf33edfb90d", "is_disabled": 0, "rental_uris": {"ios": "https://dc.lft.to/lastmile_qr_scan", "android": "https://dc.lft.to/lastmile_qr_scan"}, "is_reserved": 0}, {"lon": -77.0260225, "bike_id": "5d4aa299049b7284cd5e25264f7387ea", "lat": 38.906592, "fusion_lon": 0.0, "fusion_lat": 0.0, "type": "electric_scooter", "name": "5d4aa299049b7284cd5e25264f7387ea", "is_disabled": 0, "rental_uris": {"ios": "https://dc.lft.to/lastmile_qr_scan", "android": "https://dc.lft.to/lastmile_qr_scan"}, "is_reserved": 0}, {"lon": -77.032149, "bike_id": "26baf3c1a6717f74041b9c208ef852ff", "lat": 38.91484583333333, "fusion_lon": 0.0, "fusion_lat": 0.0, "type": "electric_scooter", "name": "26baf3c1a6717f74041b9c208ef852ff", "is_disabled": 0, "rental_uris": {"ios": "https://dc.lft.to/lastmile_qr_scan", "android": "https://dc.lft.to/lastmile_qr_scan"}, "is_reserved": 0}, {"lon": -77.0258435, "bike_id": "80cc4a80726dca012a3190e68909e5c4", "lat": 38.88742166666667, "fusion_lon": 0.0, "fusion_lat": 0.0, "type": "electric_scooter", "name": "80cc4a80726dca012a3190e68909e5c4", "is_disabled": 0, "rental_uris": {"ios": "https://dc.lft.to/lastmile_qr_scan", "android": "https://dc.lft.to/lastmile_qr_scan"}, "is_reserved": 0}, {"lon": -77.00902333333333, "bike_id": "3c82278acb28d9986a8a2f93f8146753", "lat": 38.961249, "fusion_lon": 0.0, "fusion_lat": 0.0, "type": "electric_scooter", "name": "3c82278acb28d9986a8a2f93f8146753", "is_disabled": 0, "rental_uris": {"ios": "https://dc.lft.to/lastmile_qr_scan", "android": "https://dc.lft.to/lastmile_qr_scan"}, "is_reserved": 0}, {"lon": -76.98918216666667, "bike_id": "1e4c08c0bb3694c15b3080fa33479421", "lat": 38.864923166666664, "fusion_lon": 0.0, "fusion_lat": 0.0, "type": "electric_scooter", "name": "1e4c08c0bb3694c15b3080fa33479421", "is_disabled": 0, "rental_uris": {"ios": "https://dc.lft.to/lastmile_qr_scan", "android": "https://dc.lft.to/lastmile_qr_scan"}, "is_reserved": 0}, {"lon": -76.93302616666666, "bike_id": "acdb995926f91c2ed025509a364ee18b", "lat": 38.9009655, "fusion_lon": 0.0, "fusion_lat": 0.0, "type": "electric_scooter", "name": "acdb995926f91c2ed025509a364ee18b", "is_disabled": 0, "rental_uris": {"ios": "https://dc.lft.to/lastmile_qr_scan", "android": "https://dc.lft.to/lastmile_qr_scan"}, "is_reserved": 0}, {"lon": -77.02592916666667, "bike_id": "52616ca02b88c3f3f609c6fd7f561dea", "lat": 38.94203133333333, "fusion_lon": 0.0, "fusion_lat": 0.0, "type": "electric_scooter", "name": "52616ca02b88c3f3f609c6fd7f561dea", "is_disabled": 0, "rental_uris": {"ios": "https://dc.lft.to/lastmile_qr_scan", "android": "https://dc.lft.to/lastmile_qr_scan"}, "is_reserved": 0}, {"lon": -76.99388666666667, "bike_id": "c6656cb25d24d238b5c4207ac4480a9f", "lat": 38.892097166666666, "fusion_lon": 0.0, "fusion_lat": 0.0, "type": "electric_scooter", "name": "c6656cb25d24d238b5c4207ac4480a9f", "is_disabled": 0, "rental_uris": {"ios": "https://dc.lft.to/lastmile_qr_scan", "android": "https://dc.lft.to/lastmile_qr_scan"}, "is_reserved": 0}, {"lon": -77.03266316666667, "bike_id": "d4a181c986680461aea44d6c8dd89375", "lat": 38.901446166666666, "fusion_lon": 0.0, "fusion_lat": 0.0, "type": "electric_scooter", "name": "d4a181c986680461aea44d6c8dd89375", "is_disabled": 0, "rental_uris": {"ios": "https://dc.lft.to/lastmile_qr_scan", "android": "https://dc.lft.to/lastmile_qr_scan"}, "is_reserved": 0}, {"lon": -77.03249, "bike_id": "69c9e829050489b9e1bc588aeea73226", "lat": 38.919875166666664, "fusion_lon": 0.0, "fusion_lat": 0.0, "type": "electric_scooter", "name": "69c9e829050489b9e1bc588aeea73226", "is_disabled": 0, "rental_uris": {"ios": "https://dc.lft.to/lastmile_qr_scan", "android": "https://dc.lft.to/lastmile_qr_scan"}, "is_reserved": 0}, {"lon": -77.02208583333334, "bike_id": "70c197f5108bcd4fb6d030f8315820ee", "lat": 38.9127195, "fusion_lon": 0.0, "fusion_lat": 0.0, "type": "electric_scooter", "name": "70c197f5108bcd4fb6d030f8315820ee", "is_disabled": 0, "rental_uris": {"ios": "https://dc.lft.to/lastmile_qr_scan", "android": "https://dc.lft.to/lastmile_qr_scan"}, "is_reserved": 0}, {"lon": -77.04715333333333, "bike_id": "21b65947d3f57d728c804898f49f75a7", "lat": 38.9033485, "fusion_lon": 0.0, "fusion_lat": 0.0, "type": "electric_scooter", "name": "21b65947d3f57d728c804898f49f75a7", "is_disabled": 0, "rental_uris": {"ios": "https://dc.lft.to/lastmile_qr_scan", "android": "https://dc.lft.to/lastmile_qr_scan"}, "is_reserved": 0}, {"lon": -76.97394783333333, "bike_id": "a907afe0db30e4cd4ba4d956c8c3385b", "lat": 38.90298466666667, "fusion_lon": 0.0, "fusion_lat": 0.0, "type": "electric_scooter", "name": "a907afe0db30e4cd4ba4d956c8c3385b", "is_disabled": 0, "rental_uris": {"ios": "https://dc.lft.to/lastmile_qr_scan", "android": "https://dc.lft.to/lastmile_qr_scan"}, "is_reserved": 0}, {"lon": -77.0341135, "bike_id": "32f217dd0495aac245c1e0c604854b0c", "lat": 38.93420916666667, "fusion_lon": 0.0, "fusion_lat": 0.0, "type": "electric_scooter", "name": "32f217dd0495aac245c1e0c604854b0c", "is_disabled": 0, "rental_uris": {"ios": "https://dc.lft.to/lastmile_qr_scan", "android": "https://dc.lft.to/lastmile_qr_scan"}, "is_reserved": 0}, {"lon": -77.02193566666666, "bike_id": "3189c0dde1e0cfdd9e96899a33f9aaf6", "lat": 38.9153325, "fusion_lon": 0.0, "fusion_lat": 0.0, "type": "electric_scooter", "name": "3189c0dde1e0cfdd9e96899a33f9aaf6", "is_disabled": 0, "rental_uris": {"ios": "https://dc.lft.to/lastmile_qr_scan", "android": "https://dc.lft.to/lastmile_qr_scan"}, "is_reserved": 0}, {"lon": -77.021757, "bike_id": "8752faeb342794780ef76854cd07f181", "lat": 38.89477466666666, "fusion_lon": 0.0, "fusion_lat": 0.0, "type": "electric_scooter", "name": "8752faeb342794780ef76854cd07f181", "is_disabled": 0, "rental_uris": {"ios": "https://dc.lft.to/lastmile_qr_scan", "android": "https://dc.lft.to/lastmile_qr_scan"}, "is_reserved": 0}, {"lon": -77.028322, "bike_id": "7d41d3c3d738c46affab4f7a6c93f7cf", "lat": 38.88730616666667, "fusion_lon": 0.0, "fusion_lat": 0.0, "type": "electric_scooter", "name": "7d41d3c3d738c46affab4f7a6c93f7cf", "is_disabled": 0, "rental_uris": {"ios": "https://dc.lft.to/lastmile_qr_scan", "android": "https://dc.lft.to/lastmile_qr_scan"}, "is_reserved": 0}, {"lon": -76.94597983333334, "bike_id": "2edcaff8644de1ff3bad12a05f8d69a6", "lat": 38.90146333333333, "fusion_lon": 0.0, "fusion_lat": 0.0, "type": "electric_scooter", "name": "2edcaff8644de1ff3bad12a05f8d69a6", "is_disabled": 0, "rental_uris": {"ios": "https://dc.lft.to/lastmile_qr_scan", "android": "https://dc.lft.to/lastmile_qr_scan"}, "is_reserved": 0}, {"lon": -77.0320725, "bike_id": "488ce158bffc7615811218de0dc90b4e", "lat": 38.92877283333333, "fusion_lon": 0.0, "fusion_lat": 0.0, "type": "electric_scooter", "name": "488ce158bffc7615811218de0dc90b4e", "is_disabled": 0, "rental_uris": {"ios": "https://dc.lft.to/lastmile_qr_scan", "android": "https://dc.lft.to/lastmile_qr_scan"}, "is_reserved": 0}, {"lon": -77.02964416666667, "bike_id": "2add343e1342cb9f44737d80a8604142", "lat": 38.922940833333335, "fusion_lon": 0.0, "fusion_lat": 0.0, "type": "electric_scooter", "name": "2add343e1342cb9f44737d80a8604142", "is_disabled": 0, "rental_uris": {"ios": "https://dc.lft.to/lastmile_qr_scan", "android": "https://dc.lft.to/lastmile_qr_scan"}, "is_reserved": 0}, {"lon": -77.01063266666667, "bike_id": "d7017378100576d97c804266fec935db", "lat": 38.907159166666666, "fusion_lon": 0.0, "fusion_lat": 0.0, "type": "electric_bike", "name": "d7017378100576d97c804266fec935db", "is_disabled": 0, "rental_uris": {"ios": "https://dc.lft.to/lastmile_qr_scan", "android": "https://dc.lft.to/lastmile_qr_scan"}, "is_reserved": 0}, {"lon": -77.0265855, "bike_id": "855e744c0c65e913a605f304f210d7e1", "lat": 38.916945, "fusion_lon": 0.0, "fusion_lat": 0.0, "type": "electric_scooter", "name": "855e744c0c65e913a605f304f210d7e1", "is_disabled": 0, "rental_uris": {"ios": "https://dc.lft.to/lastmile_qr_scan", "android": "https://dc.lft.to/lastmile_qr_scan"}, "is_reserved": 0}, {"lon": -77.03175966666667, "bike_id": "0e7ea918657debb91be0501a347555c4", "lat": 38.919103166666666, "fusion_lon": 0.0, "fusion_lat": 0.0, "type": "electric_scooter", "name": "0e7ea918657debb91be0501a347555c4", "is_disabled": 0, "rental_uris": {"ios": "https://dc.lft.to/lastmile_qr_scan", "android": "https://dc.lft.to/lastmile_qr_scan"}, "is_reserved": 0}, {"lon": -77.02803783333333, "bike_id": "bbc7efcd632d51aaaeb6c4a6819c3c68", "lat": 38.911293, "fusion_lon": 0.0, "fusion_lat": 0.0, "type": "electric_scooter", "name": "bbc7efcd632d51aaaeb6c4a6819c3c68", "is_disabled": 0, "rental_uris": {"ios": "https://dc.lft.to/lastmile_qr_scan", "android": "https://dc.lft.to/lastmile_qr_scan"}, "is_reserved": 0}, {"lon": -77.00193416666667, "bike_id": "9d84023d4eddc2cf7129bcdc310a754c", "lat": 38.89102616666667, "fusion_lon": 0.0, "fusion_lat": 0.0, "type": "electric_scooter", "name": "9d84023d4eddc2cf7129bcdc310a754c", "is_disabled": 0, "rental_uris": {"ios": "https://dc.lft.to/lastmile_qr_scan", "android": "https://dc.lft.to/lastmile_qr_scan"}, "is_reserved": 0}, {"lon": -77.03005716666667, "bike_id": "fd1c94ae1c1499841cee6d332050a842", "lat": 39.041968, "fusion_lon": 0.0, "fusion_lat": 0.0, "type": "electric_bike", "name": "fd1c94ae1c1499841cee6d332050a842", "is_disabled": 0, "rental_uris": {"ios": "https://dc.lft.to/lastmile_qr_scan", "android": "https://dc.lft.to/lastmile_qr_scan"}, "is_reserved": 0}, {"lon": -77.01978783333334, "bike_id": "0b84cd99664dff6c7225e7b0751eb866", "lat": 38.886094666666665, "fusion_lon": 0.0, "fusion_lat": 0.0, "type": "electric_scooter", "name": "0b84cd99664dff6c7225e7b0751eb866", "is_disabled": 0, "rental_uris": {"ios": "https://dc.lft.to/lastmile_qr_scan", "android": "https://dc.lft.to/lastmile_qr_scan"}, "is_reserved": 0}, {"lon": -77.0498725, "bike_id": "3df05adc389816dc4b9cdf4d76016820", "lat": 38.89998883333333, "fusion_lon": 0.0, "fusion_lat": 0.0, "type": "electric_scooter", "name": "3df05adc389816dc4b9cdf4d76016820", "is_disabled": 0, "rental_uris": {"ios": "https://dc.lft.to/lastmile_qr_scan", "android": "https://dc.lft.to/lastmile_qr_scan"}, "is_reserved": 0}, {"lon": -77.03585716666667, "bike_id": "9d07cac81488ba3f270ec995ffc851c9", "lat": 38.90970683333333, "fusion_lon": 0.0, "fusion_lat": 0.0, "type": "electric_scooter", "name": "9d07cac81488ba3f270ec995ffc851c9", "is_disabled": 0, "rental_uris": {"ios": "https://dc.lft.to/lastmile_qr_scan", "android": "https://dc.lft.to/lastmile_qr_scan"}, "is_reserved": 0}, {"lon": -77.0499675, "bike_id": "6dc13523840127363a5537a6344668ad", "lat": 38.9010755, "fusion_lon": 0.0, "fusion_lat": 0.0, "type": "electric_scooter", "name": "6dc13523840127363a5537a6344668ad", "is_disabled": 0, "rental_uris": {"ios": "https://dc.lft.to/lastmile_qr_scan", "android": "https://dc.lft.to/lastmile_qr_scan"}, "is_reserved": 0}, {"lon": -77.07796116666667, "bike_id": "5834608779df5bf913712d452cc9779d", "lat": 38.996047, "fusion_lon": 0.0, "fusion_lat": 0.0, "type": "electric_bike", "name": "5834608779df5bf913712d452cc9779d", "is_disabled": 0, "rental_uris": {"ios": "https://dc.lft.to/lastmile_qr_scan", "android": "https://dc.lft.to/lastmile_qr_scan"}, "is_reserved": 0}, {"lon": -77.06137533333333, "bike_id": "529b49476bde1b70a30248f5ad463603", "lat": 38.943592833333334, "fusion_lon": 0.0, "fusion_lat": 0.0, "type": "electric_scooter", "name": "529b49476bde1b70a30248f5ad463603", "is_disabled": 0, "rental_uris": {"ios": "https://dc.lft.to/lastmile_qr_scan", "android": "https://dc.lft.to/lastmile_qr_scan"}, "is_reserved": 0}, {"lon": -76.97656616666667, "bike_id": "5ebf6e4d426804f3a7de1e98ca8e67e0", "lat": 38.89873716666666, "fusion_lon": 0.0, "fusion_lat": 0.0, "type": "electric_bike", "name": "5ebf6e4d426804f3a7de1e98ca8e67e0", "is_disabled": 0, "rental_uris": {"ios": "https://dc.lft.to/lastmile_qr_scan", "android": "https://dc.lft.to/lastmile_qr_scan"}, "is_reserved": 0}, {"lon": -77.02505883333333, "bike_id": "64619ec856bc560cb08bb376ea3d883f", "lat": 38.920876, "fusion_lon": 0.0, "fusion_lat": 0.0, "type": "electric_scooter", "name": "64619ec856bc560cb08bb376ea3d883f", "is_disabled": 0, "rental_uris": {"ios": "https://dc.lft.to/lastmile_qr_scan", "android": "https://dc.lft.to/lastmile_qr_scan"}, "is_reserved": 0}, {"lon": -77.0242685, "bike_id": "6ba8765077a2a69751f41293ddd83131", "lat": 38.922838, "fusion_lon": 0.0, "fusion_lat": 0.0, "type": "electric_scooter", "name": "6ba8765077a2a69751f41293ddd83131", "is_disabled": 0, "rental_uris": {"ios": "https://dc.lft.to/lastmile_qr_scan", "android": "https://dc.lft.to/lastmile_qr_scan"}, "is_reserved": 0}, {"lon": -77.02698633333333, "bike_id": "2b72833e592fa7a5457e2c5b488733f7", "lat": 38.90246716666667, "fusion_lon": 0.0, "fusion_lat": 0.0, "type": "electric_scooter", "name": "2b72833e592fa7a5457e2c5b488733f7", "is_disabled": 0, "rental_uris": {"ios": "https://dc.lft.to/lastmile_qr_scan", "android": "https://dc.lft.to/lastmile_qr_scan"}, "is_reserved": 0}, {"lon": -77.03266666666667, "bike_id": "755d86a203eb03ec37f1b2af28922a29", "lat": 38.92987816666667, "fusion_lon": 0.0, "fusion_lat": 0.0, "type": "electric_scooter", "name": "755d86a203eb03ec37f1b2af28922a29", "is_disabled": 0, "rental_uris": {"ios": "https://dc.lft.to/lastmile_qr_scan", "android": "https://dc.lft.to/lastmile_qr_scan"}, "is_reserved": 0}, {"lon": -77.04675366666666, "bike_id": "bf991a873f0dd50d6835c4d4d51b2a8e", "lat": 38.892326, "fusion_lon": 0.0, "fusion_lat": 0.0, "type": "electric_scooter", "name": "bf991a873f0dd50d6835c4d4d51b2a8e", "is_disabled": 0, "rental_uris": {"ios": "https://dc.lft.to/lastmile_qr_scan", "android": "https://dc.lft.to/lastmile_qr_scan"}, "is_reserved": 0}, {"lon": -76.978602, "bike_id": "eb17c01615fd8853fae48526438854b4", "lat": 38.907256833333335, "fusion_lon": 0.0, "fusion_lat": 0.0, "type": "electric_scooter", "name": "eb17c01615fd8853fae48526438854b4", "is_disabled": 0, "rental_uris": {"ios": "https://dc.lft.to/lastmile_qr_scan", "android": "https://dc.lft.to/lastmile_qr_scan"}, "is_reserved": 0}, {"lon": -76.99599483333333, "bike_id": "c99cf38e13a5ca472ad3d33a8c6fc89e", "lat": 38.950755666666666, "fusion_lon": 0.0, "fusion_lat": 0.0, "type": "electric_bike", "name": "c99cf38e13a5ca472ad3d33a8c6fc89e", "is_disabled": 0, "rental_uris": {"ios": "https://dc.lft.to/lastmile_qr_scan", "android": "https://dc.lft.to/lastmile_qr_scan"}, "is_reserved": 0}, {"lon": -77.03262866666667, "bike_id": "d174cbfaf7d59e26953181dfb1c28618", "lat": 38.937791833333335, "fusion_lon": 0.0, "fusion_lat": 0.0, "type": "electric_scooter", "name": "d174cbfaf7d59e26953181dfb1c28618", "is_disabled": 0, "rental_uris": {"ios": "https://dc.lft.to/lastmile_qr_scan", "android": "https://dc.lft.to/lastmile_qr_scan"}, "is_reserved": 0}, {"lon": -77.01772166666667, "bike_id": "f6385f129bbb224f3d8c2cd8615c3959", "lat": 38.8863605, "fusion_lon": 0.0, "fusion_lat": 0.0, "type": "electric_scooter", "name": "f6385f129bbb224f3d8c2cd8615c3959", "is_disabled": 0, "rental_uris": {"ios": "https://dc.lft.to/lastmile_qr_scan", "android": "https://dc.lft.to/lastmile_qr_scan"}, "is_reserved": 0}, {"lon": -77.04467566666666, "bike_id": "c5f5b0d778412cad64ca6cc94c84f626", "lat": 38.905488166666665, "fusion_lon": 0.0, "fusion_lat": 0.0, "type": "electric_scooter", "name": "c5f5b0d778412cad64ca6cc94c84f626", "is_disabled": 0, "rental_uris": {"ios": "https://dc.lft.to/lastmile_qr_scan", "android": "https://dc.lft.to/lastmile_qr_scan"}, "is_reserved": 0}, {"lon": -77.0385665, "bike_id": "bb7969690162c0726025450669611664", "lat": 38.93236383333333, "fusion_lon": 0.0, "fusion_lat": 0.0, "type": "electric_scooter", "name": "bb7969690162c0726025450669611664", "is_disabled": 0, "rental_uris": {"ios": "https://dc.lft.to/lastmile_qr_scan", "android": "https://dc.lft.to/lastmile_qr_scan"}, "is_reserved": 0}, {"lon": -77.03444166666667, "bike_id": "9ab4bfb28afdf5b48207829eb2ce2368", "lat": 38.909834000000004, "fusion_lon": 0.0, "fusion_lat": 0.0, "type": "electric_scooter", "name": "9ab4bfb28afdf5b48207829eb2ce2368", "is_disabled": 0, "rental_uris": {"ios": "https://dc.lft.to/lastmile_qr_scan", "android": "https://dc.lft.to/lastmile_qr_scan"}, "is_reserved": 0}, {"lon": -77.03295566666667, "bike_id": "63019f0b8239523d64878f61879d71f2", "lat": 38.91039, "fusion_lon": 0.0, "fusion_lat": 0.0, "type": "electric_scooter", "name": "63019f0b8239523d64878f61879d71f2", "is_disabled": 0, "rental_uris": {"ios": "https://dc.lft.to/lastmile_qr_scan", "android": "https://dc.lft.to/lastmile_qr_scan"}, "is_reserved": 0}, {"lon": -77.05043683333334, "bike_id": "06fe8c8126c0767927bf3dacb91ae210", "lat": 38.923649833333336, "fusion_lon": 0.0, "fusion_lat": 0.0, "type": "electric_scooter", "name": "06fe8c8126c0767927bf3dacb91ae210", "is_disabled": 0, "rental_uris": {"ios": "https://dc.lft.to/lastmile_qr_scan", "android": "https://dc.lft.to/lastmile_qr_scan"}, "is_reserved": 0}, {"lon": -77.03943516666666, "bike_id": "fac164e696c65cbf8f77325541b5e272", "lat": 38.89900933333333, "fusion_lon": 0.0, "fusion_lat": 0.0, "type": "electric_scooter", "name": "fac164e696c65cbf8f77325541b5e272", "is_disabled": 0, "rental_uris": {"ios": "https://dc.lft.to/lastmile_qr_scan", "android": "https://dc.lft.to/lastmile_qr_scan"}, "is_reserved": 0}, {"lon": -76.9499945, "bike_id": "edb881a6ca6e250c585f8984b1e842dd", "lat": 38.89382583333333, "fusion_lon": 0.0, "fusion_lat": 0.0, "type": "electric_scooter", "name": "edb881a6ca6e250c585f8984b1e842dd", "is_disabled": 0, "rental_uris": {"ios": "https://dc.lft.to/lastmile_qr_scan", "android": "https://dc.lft.to/lastmile_qr_scan"}, "is_reserved": 0}, {"lon": -77.035509, "bike_id": "f4eceeba37310371e4ffae4f3b278206", "lat": 38.933829833333334, "fusion_lon": 0.0, "fusion_lat": 0.0, "type": "electric_scooter", "name": "f4eceeba37310371e4ffae4f3b278206", "is_disabled": 0, "rental_uris": {"ios": "https://dc.lft.to/lastmile_qr_scan", "android": "https://dc.lft.to/lastmile_qr_scan"}, "is_reserved": 0}, {"lon": -77.05000216666667, "bike_id": "4ca0c5fa4307f1b7ce5c20c46335d894", "lat": 38.89196316666666, "fusion_lon": 0.0, "fusion_lat": 0.0, "type": "electric_scooter", "name": "4ca0c5fa4307f1b7ce5c20c46335d894", "is_disabled": 0, "rental_uris": {"ios": "https://dc.lft.to/lastmile_qr_scan", "android": "https://dc.lft.to/lastmile_qr_scan"}, "is_reserved": 0}, {"lon": -76.9756425, "bike_id": "480afc7ea301a1ad7bbe962d300e99f6", "lat": 38.9245545, "fusion_lon": 0.0, "fusion_lat": 0.0, "type": "electric_bike", "name": "480afc7ea301a1ad7bbe962d300e99f6", "is_disabled": 0, "rental_uris": {"ios": "https://dc.lft.to/lastmile_qr_scan", "android": "https://dc.lft.to/lastmile_qr_scan"}, "is_reserved": 0}, {"lon": -77.02091633333333, "bike_id": "80d5188d18ae1881f80206b523c3b353", "lat": 38.929129833333334, "fusion_lon": 0.0, "fusion_lat": 0.0, "type": "electric_scooter", "name": "80d5188d18ae1881f80206b523c3b353", "is_disabled": 0, "rental_uris": {"ios": "https://dc.lft.to/lastmile_qr_scan", "android": "https://dc.lft.to/lastmile_qr_scan"}, "is_reserved": 0}, {"lon": -77.035572, "bike_id": "88faf40767a38574e49212683573a3bd", "lat": 38.9084385, "fusion_lon": 0.0, "fusion_lat": 0.0, "type": "electric_scooter", "name": "88faf40767a38574e49212683573a3bd", "is_disabled": 0, "rental_uris": {"ios": "https://dc.lft.to/lastmile_qr_scan", "android": "https://dc.lft.to/lastmile_qr_scan"}, "is_reserved": 0}, {"lon": -77.04475483333333, "bike_id": "cc017532c99f8ec159b9fe4a564109e4", "lat": 38.90864233333333, "fusion_lon": 0.0, "fusion_lat": 0.0, "type": "electric_scooter", "name": "cc017532c99f8ec159b9fe4a564109e4", "is_disabled": 0, "rental_uris": {"ios": "https://dc.lft.to/lastmile_qr_scan", "android": "https://dc.lft.to/lastmile_qr_scan"}, "is_reserved": 0}, {"lon": -77.02765533333333, "bike_id": "7f61d426ce95b3e8aa44c3ee891bc8ab", "lat": 38.93459983333333, "fusion_lon": 0.0, "fusion_lat": 0.0, "type": "electric_scooter", "name": "7f61d426ce95b3e8aa44c3ee891bc8ab", "is_disabled": 0, "rental_uris": {"ios": "https://dc.lft.to/lastmile_qr_scan", "android": "https://dc.lft.to/lastmile_qr_scan"}, "is_reserved": 0}, {"lon": -77.02966966666666, "bike_id": "0e20731d3b475cdc144d5ddac9559f31", "lat": 38.9249095, "fusion_lon": 0.0, "fusion_lat": 0.0, "type": "electric_scooter", "name": "0e20731d3b475cdc144d5ddac9559f31", "is_disabled": 0, "rental_uris": {"ios": "https://dc.lft.to/lastmile_qr_scan", "android": "https://dc.lft.to/lastmile_qr_scan"}, "is_reserved": 0}, {"lon": -77.03185883333333, "bike_id": "00ccc94235273962ad45d5e9e222876c", "lat": 38.904354166666664, "fusion_lon": 0.0, "fusion_lat": 0.0, "type": "electric_scooter", "name": "00ccc94235273962ad45d5e9e222876c", "is_disabled": 0, "rental_uris": {"ios": "https://dc.lft.to/lastmile_qr_scan", "android": "https://dc.lft.to/lastmile_qr_scan"}, "is_reserved": 0}, {"lon": -77.03913633333333, "bike_id": "d6ccc84971feabd9a2d61ab40a0a715e", "lat": 38.92578, "fusion_lon": 0.0, "fusion_lat": 0.0, "type": "electric_scooter", "name": "d6ccc84971feabd9a2d61ab40a0a715e", "is_disabled": 0, "rental_uris": {"ios": "https://dc.lft.to/lastmile_qr_scan", "android": "https://dc.lft.to/lastmile_qr_scan"}, "is_reserved": 0}, {"lon": -77.0272005, "bike_id": "96cfa7b36afb25ade56c241a5be0c986", "lat": 38.92481733333334, "fusion_lon": 0.0, "fusion_lat": 0.0, "type": "electric_scooter", "name": "96cfa7b36afb25ade56c241a5be0c986", "is_disabled": 0, "rental_uris": {"ios": "https://dc.lft.to/lastmile_qr_scan", "android": "https://dc.lft.to/lastmile_qr_scan"}, "is_reserved": 0}, {"lon": -77.03518116666666, "bike_id": "4a3d5541fe94ceeb41b3606b88c4b1eb", "lat": 38.92201, "fusion_lon": 0.0, "fusion_lat": 0.0, "type": "electric_scooter", "name": "4a3d5541fe94ceeb41b3606b88c4b1eb", "is_disabled": 0, "rental_uris": {"ios": "https://dc.lft.to/lastmile_qr_scan", "android": "https://dc.lft.to/lastmile_qr_scan"}, "is_reserved": 0}, {"lon": -77.09960833333334, "bike_id": "ce94aec324befe93d992e604cbb9247b", "lat": 38.8579005, "fusion_lon": 0.0, "fusion_lat": 0.0, "type": "electric_bike", "name": "ce94aec324befe93d992e604cbb9247b", "is_disabled": 0, "rental_uris": {"ios": "https://dc.lft.to/lastmile_qr_scan", "android": "https://dc.lft.to/lastmile_qr_scan"}, "is_reserved": 0}, {"lon": -77.08684933333333, "bike_id": "584ceb7395cf00bc30cb6dbe3c88c0a8", "lat": 38.873940833333336, "fusion_lon": 0.0, "fusion_lat": 0.0, "type": "electric_bike", "name": "584ceb7395cf00bc30cb6dbe3c88c0a8", "is_disabled": 0, "rental_uris": {"ios": "https://dc.lft.to/lastmile_qr_scan", "android": "https://dc.lft.to/lastmile_qr_scan"}, "is_reserved": 0}, {"lon": -77.0343905, "bike_id": "77ab08b8ee3469de9ae172d0801f59f1", "lat": 38.918146666666665, "fusion_lon": 0.0, "fusion_lat": 0.0, "type": "electric_scooter", "name": "77ab08b8ee3469de9ae172d0801f59f1", "is_disabled": 0, "rental_uris": {"ios": "https://dc.lft.to/lastmile_qr_scan", "android": "https://dc.lft.to/lastmile_qr_scan"}, "is_reserved": 0}, {"lon": -77.02162716666666, "bike_id": "1c1a0b91d538e79dfe40469a2e76ccbf", "lat": 38.9261625, "fusion_lon": 0.0, "fusion_lat": 0.0, "type": "electric_scooter", "name": "1c1a0b91d538e79dfe40469a2e76ccbf", "is_disabled": 0, "rental_uris": {"ios": "https://dc.lft.to/lastmile_qr_scan", "android": "https://dc.lft.to/lastmile_qr_scan"}, "is_reserved": 0}, {"lon": -76.9492455, "bike_id": "9001b67c2db01fb9225b380521888a92", "lat": 38.89355116666667, "fusion_lon": 0.0, "fusion_lat": 0.0, "type": "electric_scooter", "name": "9001b67c2db01fb9225b380521888a92", "is_disabled": 0, "rental_uris": {"ios": "https://dc.lft.to/lastmile_qr_scan", "android": "https://dc.lft.to/lastmile_qr_scan"}, "is_reserved": 0}, {"lon": -77.041416, "bike_id": "9e48e5bdea472590614a1dd6adba940d", "lat": 38.926499, "fusion_lon": 0.0, "fusion_lat": 0.0, "type": "electric_scooter", "name": "9e48e5bdea472590614a1dd6adba940d", "is_disabled": 0, "rental_uris": {"ios": "https://dc.lft.to/lastmile_qr_scan", "android": "https://dc.lft.to/lastmile_qr_scan"}, "is_reserved": 0}, {"lon": -76.98945933333333, "bike_id": "1c6750155ab805b03ac530df6e554947", "lat": 38.903986333333336, "fusion_lon": 0.0, "fusion_lat": 0.0, "type": "electric_scooter", "name": "1c6750155ab805b03ac530df6e554947", "is_disabled": 0, "rental_uris": {"ios": "https://dc.lft.to/lastmile_qr_scan", "android": "https://dc.lft.to/lastmile_qr_scan"}, "is_reserved": 0}, {"lon": -77.05809166666667, "bike_id": "78bbc1c8e1495d9a73d26c1ecd902eb9", "lat": 38.8239525, "fusion_lon": 0.0, "fusion_lat": 0.0, "type": "electric_bike", "name": "78bbc1c8e1495d9a73d26c1ecd902eb9", "is_disabled": 0, "rental_uris": {"ios": "https://dc.lft.to/lastmile_qr_scan", "android": "https://dc.lft.to/lastmile_qr_scan"}, "is_reserved": 0}, {"lon": -77.06409383333333, "bike_id": "d50e189fbadc6fd4ea27c87c2fa2ab78", "lat": 38.9077995, "fusion_lon": 0.0, "fusion_lat": 0.0, "type": "electric_scooter", "name": "d50e189fbadc6fd4ea27c87c2fa2ab78", "is_disabled": 0, "rental_uris": {"ios": "https://dc.lft.to/lastmile_qr_scan", "android": "https://dc.lft.to/lastmile_qr_scan"}, "is_reserved": 0}, {"lon": -76.9871925, "bike_id": "507ba46365d93003dcef6ef0ea91dbc3", "lat": 38.866277833333335, "fusion_lon": 0.0, "fusion_lat": 0.0, "type": "electric_scooter", "name": "507ba46365d93003dcef6ef0ea91dbc3", "is_disabled": 0, "rental_uris": {"ios": "https://dc.lft.to/lastmile_qr_scan", "android": "https://dc.lft.to/lastmile_qr_scan"}, "is_reserved": 0}, {"lon": -76.9653035, "bike_id": "f6615f2a08d1bd74ee049777cb51cd4c", "lat": 38.919168166666665, "fusion_lon": 0.0, "fusion_lat": 0.0, "type": "electric_scooter", "name": "f6615f2a08d1bd74ee049777cb51cd4c", "is_disabled": 0, "rental_uris": {"ios": "https://dc.lft.to/lastmile_qr_scan", "android": "https://dc.lft.to/lastmile_qr_scan"}, "is_reserved": 0}, {"lon": -77.07432616666667, "bike_id": "90c205943f825eab310e44ebd351b8f0", "lat": 38.99947216666666, "fusion_lon": 0.0, "fusion_lat": 0.0, "type": "electric_bike", "name": "90c205943f825eab310e44ebd351b8f0", "is_disabled": 0, "rental_uris": {"ios": "https://dc.lft.to/lastmile_qr_scan", "android": "https://dc.lft.to/lastmile_qr_scan"}, "is_reserved": 0}, {"lon": -77.05218466666666, "bike_id": "83c7edc13ca134424e29c9505cfd4c73", "lat": 38.92486, "fusion_lon": 0.0, "fusion_lat": 0.0, "type": "electric_scooter", "name": "83c7edc13ca134424e29c9505cfd4c73", "is_disabled": 0, "rental_uris": {"ios": "https://dc.lft.to/lastmile_qr_scan", "android": "https://dc.lft.to/lastmile_qr_scan"}, "is_reserved": 0}, {"lon": -76.9983705, "bike_id": "e25ee7194cd7307544194918ea064ab9", "lat": 38.8945175, "fusion_lon": 0.0, "fusion_lat": 0.0, "type": "electric_scooter", "name": "e25ee7194cd7307544194918ea064ab9", "is_disabled": 0, "rental_uris": {"ios": "https://dc.lft.to/lastmile_qr_scan", "android": "https://dc.lft.to/lastmile_qr_scan"}, "is_reserved": 0}, {"lon": -77.028416, "bike_id": "3763489bb9bf00ca72dfe96f4527f573", "lat": 38.934245, "fusion_lon": 0.0, "fusion_lat": 0.0, "type": "electric_scooter", "name": "3763489bb9bf00ca72dfe96f4527f573", "is_disabled": 0, "rental_uris": {"ios": "https://dc.lft.to/lastmile_qr_scan", "android": "https://dc.lft.to/lastmile_qr_scan"}, "is_reserved": 0}, {"lon": -77.06640216666666, "bike_id": "cc1a66811120ba6a138f22f027e734c2", "lat": 38.9059665, "fusion_lon": 0.0, "fusion_lat": 0.0, "type": "electric_scooter", "name": "cc1a66811120ba6a138f22f027e734c2", "is_disabled": 0, "rental_uris": {"ios": "https://dc.lft.to/lastmile_qr_scan", "android": "https://dc.lft.to/lastmile_qr_scan"}, "is_reserved": 0}, {"lon": -77.0020635, "bike_id": "449d70e35a237b483d57ca86dfaeeff6", "lat": 38.902439666666666, "fusion_lon": 0.0, "fusion_lat": 0.0, "type": "electric_scooter", "name": "449d70e35a237b483d57ca86dfaeeff6", "is_disabled": 0, "rental_uris": {"ios": "https://dc.lft.to/lastmile_qr_scan", "android": "https://dc.lft.to/lastmile_qr_scan"}, "is_reserved": 0}, {"lon": -77.02086083333333, "bike_id": "55e2136e2f56667966cb4aa41f053cda", "lat": 38.881850666666665, "fusion_lon": 0.0, "fusion_lat": 0.0, "type": "electric_scooter", "name": "55e2136e2f56667966cb4aa41f053cda", "is_disabled": 0, "rental_uris": {"ios": "https://dc.lft.to/lastmile_qr_scan", "android": "https://dc.lft.to/lastmile_qr_scan"}, "is_reserved": 0}, {"lon": -77.01347383333334, "bike_id": "d1e1b25034f86b34ad0209cc863b1610", "lat": 38.878138666666665, "fusion_lon": 0.0, "fusion_lat": 0.0, "type": "electric_scooter", "name": "d1e1b25034f86b34ad0209cc863b1610", "is_disabled": 0, "rental_uris": {"ios": "https://dc.lft.to/lastmile_qr_scan", "android": "https://dc.lft.to/lastmile_qr_scan"}, "is_reserved": 0}, {"lon": -77.03509283333334, "bike_id": "ee8eb4d00d5a4e18d2db0173671536c6", "lat": 38.932761, "fusion_lon": 0.0, "fusion_lat": 0.0, "type": "electric_scooter", "name": "ee8eb4d00d5a4e18d2db0173671536c6", "is_disabled": 0, "rental_uris": {"ios": "https://dc.lft.to/lastmile_qr_scan", "android": "https://dc.lft.to/lastmile_qr_scan"}, "is_reserved": 0}, {"lon": -77.03015216666667, "bike_id": "907e235cacf1ae10ca67bdfd062f47cf", "lat": 38.93486683333333, "fusion_lon": 0.0, "fusion_lat": 0.0, "type": "electric_bike", "name": "907e235cacf1ae10ca67bdfd062f47cf", "is_disabled": 0, "rental_uris": {"ios": "https://dc.lft.to/lastmile_qr_scan", "android": "https://dc.lft.to/lastmile_qr_scan"}, "is_reserved": 0}, {"lon": -77.03753416666666, "bike_id": "375b1ee0139d06d445af5062715a0992", "lat": 38.907779166666664, "fusion_lon": 0.0, "fusion_lat": 0.0, "type": "electric_scooter", "name": "375b1ee0139d06d445af5062715a0992", "is_disabled": 0, "rental_uris": {"ios": "https://dc.lft.to/lastmile_qr_scan", "android": "https://dc.lft.to/lastmile_qr_scan"}, "is_reserved": 0}, {"lon": -77.0493215, "bike_id": "5f347f70afa1d6dd06c7f3770c1be0af", "lat": 38.90207983333333, "fusion_lon": 0.0, "fusion_lat": 0.0, "type": "electric_scooter", "name": "5f347f70afa1d6dd06c7f3770c1be0af", "is_disabled": 0, "rental_uris": {"ios": "https://dc.lft.to/lastmile_qr_scan", "android": "https://dc.lft.to/lastmile_qr_scan"}, "is_reserved": 0}, {"lon": -77.02281433333333, "bike_id": "6b744ba2911f005a727d9dff0830fb26", "lat": 38.90782216666667, "fusion_lon": 0.0, "fusion_lat": 0.0, "type": "electric_scooter", "name": "6b744ba2911f005a727d9dff0830fb26", "is_disabled": 0, "rental_uris": {"ios": "https://dc.lft.to/lastmile_qr_scan", "android": "https://dc.lft.to/lastmile_qr_scan"}, "is_reserved": 0}, {"lon": -77.02971166666667, "bike_id": "bab4833128f42bf37fe6115fa8425140", "lat": 38.914540833333334, "fusion_lon": 0.0, "fusion_lat": 0.0, "type": "electric_scooter", "name": "bab4833128f42bf37fe6115fa8425140", "is_disabled": 0, "rental_uris": {"ios": "https://dc.lft.to/lastmile_qr_scan", "android": "https://dc.lft.to/lastmile_qr_scan"}, "is_reserved": 0}, {"lon": -76.9820015, "bike_id": "2188759a4423053fadd3375ef1635bcf", "lat": 38.967403833333336, "fusion_lon": 0.0, "fusion_lat": 0.0, "type": "electric_bike", "name": "2188759a4423053fadd3375ef1635bcf", "is_disabled": 0, "rental_uris": {"ios": "https://dc.lft.to/lastmile_qr_scan", "android": "https://dc.lft.to/lastmile_qr_scan"}, "is_reserved": 0}, {"lon": -77.02873966666667, "bike_id": "7c83c249228ea9b2c9f52ce9fcfcad28", "lat": 38.91696133333333, "fusion_lon": 0.0, "fusion_lat": 0.0, "type": "electric_scooter", "name": "7c83c249228ea9b2c9f52ce9fcfcad28", "is_disabled": 0, "rental_uris": {"ios": "https://dc.lft.to/lastmile_qr_scan", "android": "https://dc.lft.to/lastmile_qr_scan"}, "is_reserved": 0}, {"lon": -77.02485066666667, "bike_id": "1e3132b23d9b301e5d130082af40fa35", "lat": 38.91874, "fusion_lon": 0.0, "fusion_lat": 0.0, "type": "electric_scooter", "name": "1e3132b23d9b301e5d130082af40fa35", "is_disabled": 0, "rental_uris": {"ios": "https://dc.lft.to/lastmile_qr_scan", "android": "https://dc.lft.to/lastmile_qr_scan"}, "is_reserved": 0}, {"lon": -76.92201916666667, "bike_id": "7cfb6fbb1ed94b9aee3e6dc61468bfa0", "lat": 38.89502433333333, "fusion_lon": 0.0, "fusion_lat": 0.0, "type": "electric_bike", "name": "7cfb6fbb1ed94b9aee3e6dc61468bfa0", "is_disabled": 0, "rental_uris": {"ios": "https://dc.lft.to/lastmile_qr_scan", "android": "https://dc.lft.to/lastmile_qr_scan"}, "is_reserved": 0}, {"lon": -76.93188616666667, "bike_id": "68570bfd319dd439880dee7dfb2bf0d1", "lat": 38.898787, "fusion_lon": 0.0, "fusion_lat": 0.0, "type": "electric_scooter", "name": "68570bfd319dd439880dee7dfb2bf0d1", "is_disabled": 0, "rental_uris": {"ios": "https://dc.lft.to/lastmile_qr_scan", "android": "https://dc.lft.to/lastmile_qr_scan"}, "is_reserved": 0}, {"lon": -77.07905016666666, "bike_id": "3aabebc4cd1ca9f14230a0f01e14bd4b", "lat": 38.839347833333335, "fusion_lon": 0.0, "fusion_lat": 0.0, "type": "electric_bike", "name": "3aabebc4cd1ca9f14230a0f01e14bd4b", "is_disabled": 0, "rental_uris": {"ios": "https://dc.lft.to/lastmile_qr_scan", "android": "https://dc.lft.to/lastmile_qr_scan"}, "is_reserved": 0}, {"lon": -76.9901825, "bike_id": "277cd1867be00bb64962fdbc6203dec2", "lat": 38.88273866666667, "fusion_lon": 0.0, "fusion_lat": 0.0, "type": "electric_scooter", "name": "277cd1867be00bb64962fdbc6203dec2", "is_disabled": 0, "rental_uris": {"ios": "https://dc.lft.to/lastmile_qr_scan", "android": "https://dc.lft.to/lastmile_qr_scan"}, "is_reserved": 0}, {"lon": -77.00370316666667, "bike_id": "570f5e338b1ea34554187b9340f44c09", "lat": 38.89748733333333, "fusion_lon": 0.0, "fusion_lat": 0.0, "type": "electric_scooter", "name": "570f5e338b1ea34554187b9340f44c09", "is_disabled": 0, "rental_uris": {"ios": "https://dc.lft.to/lastmile_qr_scan", "android": "https://dc.lft.to/lastmile_qr_scan"}, "is_reserved": 0}, {"lon": -76.98036566666667, "bike_id": "d26bd41a0925498aeca205e3267f9fc2", "lat": 38.889698833333334, "fusion_lon": 0.0, "fusion_lat": 0.0, "type": "electric_scooter", "name": "d26bd41a0925498aeca205e3267f9fc2", "is_disabled": 0, "rental_uris": {"ios": "https://dc.lft.to/lastmile_qr_scan", "android": "https://dc.lft.to/lastmile_qr_scan"}, "is_reserved": 0}, {"lon": -77.023852, "bike_id": "ed47cf4817070deefa58e1d8b06556af", "lat": 38.914429, "fusion_lon": 0.0, "fusion_lat": 0.0, "type": "electric_scooter", "name": "ed47cf4817070deefa58e1d8b06556af", "is_disabled": 0, "rental_uris": {"ios": "https://dc.lft.to/lastmile_qr_scan", "android": "https://dc.lft.to/lastmile_qr_scan"}, "is_reserved": 0}, {"lon": -77.00558283333334, "bike_id": "b0593fa69a4affbcf1a29adca15a342c", "lat": 38.9057725, "fusion_lon": 0.0, "fusion_lat": 0.0, "type": "electric_scooter", "name": "b0593fa69a4affbcf1a29adca15a342c", "is_disabled": 0, "rental_uris": {"ios": "https://dc.lft.to/lastmile_qr_scan", "android": "https://dc.lft.to/lastmile_qr_scan"}, "is_reserved": 0}, {"lon": -77.03288216666667, "bike_id": "4a53c5858a9d0a4bd2eb91cae83d0e50", "lat": 38.90722383333333, "fusion_lon": 0.0, "fusion_lat": 0.0, "type": "electric_scooter", "name": "4a53c5858a9d0a4bd2eb91cae83d0e50", "is_disabled": 0, "rental_uris": {"ios": "https://dc.lft.to/lastmile_qr_scan", "android": "https://dc.lft.to/lastmile_qr_scan"}, "is_reserved": 0}, {"lon": -76.98402533333334, "bike_id": "22e071b8f23234fa8b724fbed3ce0777", "lat": 38.86644316666667, "fusion_lon": 0.0, "fusion_lat": 0.0, "type": "electric_scooter", "name": "22e071b8f23234fa8b724fbed3ce0777", "is_disabled": 0, "rental_uris": {"ios": "https://dc.lft.to/lastmile_qr_scan", "android": "https://dc.lft.to/lastmile_qr_scan"}, "is_reserved": 0}, {"lon": -77.0363275, "bike_id": "16a69f7cb8c6ee5f9640e976e21fc6cb", "lat": 38.93474033333333, "fusion_lon": 0.0, "fusion_lat": 0.0, "type": "electric_scooter", "name": "16a69f7cb8c6ee5f9640e976e21fc6cb", "is_disabled": 0, "rental_uris": {"ios": "https://dc.lft.to/lastmile_qr_scan", "android": "https://dc.lft.to/lastmile_qr_scan"}, "is_reserved": 0}, {"lon": -77.08005433333334, "bike_id": "8158a40fb7f67023442158e7093068fe", "lat": 38.964869166666666, "fusion_lon": 0.0, "fusion_lat": 0.0, "type": "electric_scooter", "name": "8158a40fb7f67023442158e7093068fe", "is_disabled": 0, "rental_uris": {"ios": "https://dc.lft.to/lastmile_qr_scan", "android": "https://dc.lft.to/lastmile_qr_scan"}, "is_reserved": 0}, {"lon": -77.01498, "bike_id": "2e591a2ede192f49e8905a64e3f77676", "lat": 38.91756433333333, "fusion_lon": 0.0, "fusion_lat": 0.0, "type": "electric_scooter", "name": "2e591a2ede192f49e8905a64e3f77676", "is_disabled": 0, "rental_uris": {"ios": "https://dc.lft.to/lastmile_qr_scan", "android": "https://dc.lft.to/lastmile_qr_scan"}, "is_reserved": 0}, {"lon": -77.0186015, "bike_id": "31e97d1fd937b98481086af125f0db84", "lat": 38.97370083333333, "fusion_lon": 0.0, "fusion_lat": 0.0, "type": "electric_scooter", "name": "31e97d1fd937b98481086af125f0db84", "is_disabled": 0, "rental_uris": {"ios": "https://dc.lft.to/lastmile_qr_scan", "android": "https://dc.lft.to/lastmile_qr_scan"}, "is_reserved": 0}, {"lon": -77.0421675, "bike_id": "29526b23df9e8b2713df43941f3ab895", "lat": 38.921294333333336, "fusion_lon": 0.0, "fusion_lat": 0.0, "type": "electric_scooter", "name": "29526b23df9e8b2713df43941f3ab895", "is_disabled": 0, "rental_uris": {"ios": "https://dc.lft.to/lastmile_qr_scan", "android": "https://dc.lft.to/lastmile_qr_scan"}, "is_reserved": 0}, {"lon": -77.039582, "bike_id": "453348c92d34ed8d31c0c60d7ff44ff9", "lat": 38.916337166666665, "fusion_lon": 0.0, "fusion_lat": 0.0, "type": "electric_scooter", "name": "453348c92d34ed8d31c0c60d7ff44ff9", "is_disabled": 0, "rental_uris": {"ios": "https://dc.lft.to/lastmile_qr_scan", "android": "https://dc.lft.to/lastmile_qr_scan"}, "is_reserved": 0}, {"lon": -77.01223033333333, "bike_id": "38087ea042ec619766ae725f9b0a58d6", "lat": 38.915416, "fusion_lon": 0.0, "fusion_lat": 0.0, "type": "electric_scooter", "name": "38087ea042ec619766ae725f9b0a58d6", "is_disabled": 0, "rental_uris": {"ios": "https://dc.lft.to/lastmile_qr_scan", "android": "https://dc.lft.to/lastmile_qr_scan"}, "is_reserved": 0}, {"lon": -77.02541333333333, "bike_id": "d50a942447600f1beab35bf26f5823c5", "lat": 38.941031, "fusion_lon": 0.0, "fusion_lat": 0.0, "type": "electric_scooter", "name": "d50a942447600f1beab35bf26f5823c5", "is_disabled": 0, "rental_uris": {"ios": "https://dc.lft.to/lastmile_qr_scan", "android": "https://dc.lft.to/lastmile_qr_scan"}, "is_reserved": 0}, {"lon": -77.02474816666667, "bike_id": "90672c9f119d599eed0e413a1866a284", "lat": 38.9182, "fusion_lon": 0.0, "fusion_lat": 0.0, "type": "electric_scooter", "name": "90672c9f119d599eed0e413a1866a284", "is_disabled": 0, "rental_uris": {"ios": "https://dc.lft.to/lastmile_qr_scan", "android": "https://dc.lft.to/lastmile_qr_scan"}, "is_reserved": 0}, {"lon": -77.039374, "bike_id": "ef358b7aa0c112f01f63fbbe0e865b0b", "lat": 38.898982, "fusion_lon": 0.0, "fusion_lat": 0.0, "type": "electric_scooter", "name": "ef358b7aa0c112f01f63fbbe0e865b0b", "is_disabled": 0, "rental_uris": {"ios": "https://dc.lft.to/lastmile_qr_scan", "android": "https://dc.lft.to/lastmile_qr_scan"}, "is_reserved": 0}, {"lon": -76.990311, "bike_id": "bfe141edee935d239389f89e737c0ae0", "lat": 38.8987615, "fusion_lon": 0.0, "fusion_lat": 0.0, "type": "electric_scooter", "name": "bfe141edee935d239389f89e737c0ae0", "is_disabled": 0, "rental_uris": {"ios": "https://dc.lft.to/lastmile_qr_scan", "android": "https://dc.lft.to/lastmile_qr_scan"}, "is_reserved": 0}, {"lon": -76.98774966666667, "bike_id": "e442dda29f5ce534b357163aa64631b9", "lat": 38.866096166666665, "fusion_lon": 0.0, "fusion_lat": 0.0, "type": "electric_bike", "name": "e442dda29f5ce534b357163aa64631b9", "is_disabled": 0, "rental_uris": {"ios": "https://dc.lft.to/lastmile_qr_scan", "android": "https://dc.lft.to/lastmile_qr_scan"}, "is_reserved": 0}, {"lon": -76.9840735, "bike_id": "3cbdbc5028e9b5f0042e6becbd0431b6", "lat": 38.90630266666667, "fusion_lon": 0.0, "fusion_lat": 0.0, "type": "electric_scooter", "name": "3cbdbc5028e9b5f0042e6becbd0431b6", "is_disabled": 0, "rental_uris": {"ios": "https://dc.lft.to/lastmile_qr_scan", "android": "https://dc.lft.to/lastmile_qr_scan"}, "is_reserved": 0}, {"lon": -77.0314535, "bike_id": "d701dfc85741fc9e1e2142e7f171c5dc", "lat": 38.893549166666666, "fusion_lon": 0.0, "fusion_lat": 0.0, "type": "electric_scooter", "name": "d701dfc85741fc9e1e2142e7f171c5dc", "is_disabled": 0, "rental_uris": {"ios": "https://dc.lft.to/lastmile_qr_scan", "android": "https://dc.lft.to/lastmile_qr_scan"}, "is_reserved": 0}, {"lon": -76.98230633333333, "bike_id": "bdaffdc6c3ac20321b3b57e1a41558ae", "lat": 38.86894916666667, "fusion_lon": 0.0, "fusion_lat": 0.0, "type": "electric_scooter", "name": "bdaffdc6c3ac20321b3b57e1a41558ae", "is_disabled": 0, "rental_uris": {"ios": "https://dc.lft.to/lastmile_qr_scan", "android": "https://dc.lft.to/lastmile_qr_scan"}, "is_reserved": 0}, {"lon": -76.99201266666667, "bike_id": "d615e59131cb9b9b606b2c585a56789b", "lat": 38.86289766666667, "fusion_lon": 0.0, "fusion_lat": 0.0, "type": "electric_scooter", "name": "d615e59131cb9b9b606b2c585a56789b", "is_disabled": 0, "rental_uris": {"ios": "https://dc.lft.to/lastmile_qr_scan", "android": "https://dc.lft.to/lastmile_qr_scan"}, "is_reserved": 0}, {"lon": -77.04189483333333, "bike_id": "d2c2cedc83c5e781a9b19459a86cf424", "lat": 38.905521, "fusion_lon": 0.0, "fusion_lat": 0.0, "type": "electric_scooter", "name": "d2c2cedc83c5e781a9b19459a86cf424", "is_disabled": 0, "rental_uris": {"ios": "https://dc.lft.to/lastmile_qr_scan", "android": "https://dc.lft.to/lastmile_qr_scan"}, "is_reserved": 0}, {"lon": -77.04329283333334, "bike_id": "06d3297897689be55649c2d3b75829a2", "lat": 38.90233633333333, "fusion_lon": 0.0, "fusion_lat": 0.0, "type": "electric_scooter", "name": "06d3297897689be55649c2d3b75829a2", "is_disabled": 0, "rental_uris": {"ios": "https://dc.lft.to/lastmile_qr_scan", "android": "https://dc.lft.to/lastmile_qr_scan"}, "is_reserved": 0}, {"lon": -77.03850633333333, "bike_id": "e432f7555293608d1475ba70819b3ffa", "lat": 38.91281133333333, "fusion_lon": 0.0, "fusion_lat": 0.0, "type": "electric_scooter", "name": "e432f7555293608d1475ba70819b3ffa", "is_disabled": 0, "rental_uris": {"ios": "https://dc.lft.to/lastmile_qr_scan", "android": "https://dc.lft.to/lastmile_qr_scan"}, "is_reserved": 0}, {"lon": -77.02690466666667, "bike_id": "60df7315290be4f37f1179a80522a9aa", "lat": 38.904601166666666, "fusion_lon": 0.0, "fusion_lat": 0.0, "type": "electric_scooter", "name": "60df7315290be4f37f1179a80522a9aa", "is_disabled": 0, "rental_uris": {"ios": "https://dc.lft.to/lastmile_qr_scan", "android": "https://dc.lft.to/lastmile_qr_scan"}, "is_reserved": 0}, {"lon": -77.0449615, "bike_id": "351c4ba576bb8f05b16e2da7387c0db5", "lat": 38.897867833333336, "fusion_lon": 0.0, "fusion_lat": 0.0, "type": "electric_scooter", "name": "351c4ba576bb8f05b16e2da7387c0db5", "is_disabled": 0, "rental_uris": {"ios": "https://dc.lft.to/lastmile_qr_scan", "android": "https://dc.lft.to/lastmile_qr_scan"}, "is_reserved": 0}, {"lon": -77.01214233333333, "bike_id": "7837c16841a4c029e76acd0112af8e31", "lat": 38.90009966666667, "fusion_lon": 0.0, "fusion_lat": 0.0, "type": "electric_bike", "name": "7837c16841a4c029e76acd0112af8e31", "is_disabled": 0, "rental_uris": {"ios": "https://dc.lft.to/lastmile_qr_scan", "android": "https://dc.lft.to/lastmile_qr_scan"}, "is_reserved": 0}, {"lon": -77.02375633333334, "bike_id": "46cb68fbd21952d4ca86ef555b11602b", "lat": 38.919851333333334, "fusion_lon": 0.0, "fusion_lat": 0.0, "type": "electric_scooter", "name": "46cb68fbd21952d4ca86ef555b11602b", "is_disabled": 0, "rental_uris": {"ios": "https://dc.lft.to/lastmile_qr_scan", "android": "https://dc.lft.to/lastmile_qr_scan"}, "is_reserved": 0}, {"lon": -77.02400183333333, "bike_id": "1eefd2b379f2af10ea03e01833696ae3", "lat": 38.93101333333333, "fusion_lon": 0.0, "fusion_lat": 0.0, "type": "electric_scooter", "name": "1eefd2b379f2af10ea03e01833696ae3", "is_disabled": 0, "rental_uris": {"ios": "https://dc.lft.to/lastmile_qr_scan", "android": "https://dc.lft.to/lastmile_qr_scan"}, "is_reserved": 0}, {"lon": -77.03866783333334, "bike_id": "49cd45933ab2ebae3088d79b8b80561b", "lat": 38.902831, "fusion_lon": 0.0, "fusion_lat": 0.0, "type": "electric_scooter", "name": "49cd45933ab2ebae3088d79b8b80561b", "is_disabled": 0, "rental_uris": {"ios": "https://dc.lft.to/lastmile_qr_scan", "android": "https://dc.lft.to/lastmile_qr_scan"}, "is_reserved": 0}, {"lon": -77.02588733333333, "bike_id": "0cc17bcd4db8b6142ed2f16265b6dacb", "lat": 38.96395966666667, "fusion_lon": 0.0, "fusion_lat": 0.0, "type": "electric_scooter", "name": "0cc17bcd4db8b6142ed2f16265b6dacb", "is_disabled": 0, "rental_uris": {"ios": "https://dc.lft.to/lastmile_qr_scan", "android": "https://dc.lft.to/lastmile_qr_scan"}, "is_reserved": 0}, {"lon": -77.03273066666667, "bike_id": "5e4c387dd1b17eb40e2341b7747119b6", "lat": 38.919923, "fusion_lon": 0.0, "fusion_lat": 0.0, "type": "electric_scooter", "name": "5e4c387dd1b17eb40e2341b7747119b6", "is_disabled": 0, "rental_uris": {"ios": "https://dc.lft.to/lastmile_qr_scan", "android": "https://dc.lft.to/lastmile_qr_scan"}, "is_reserved": 0}, {"lon": -77.02979033333334, "bike_id": "92f5c3f6fa69c9cc74bf5bc7a0a46fa1", "lat": 38.9287655, "fusion_lon": 0.0, "fusion_lat": 0.0, "type": "electric_scooter", "name": "92f5c3f6fa69c9cc74bf5bc7a0a46fa1", "is_disabled": 0, "rental_uris": {"ios": "https://dc.lft.to/lastmile_qr_scan", "android": "https://dc.lft.to/lastmile_qr_scan"}, "is_reserved": 0}, {"lon": -76.9871165, "bike_id": "c389abf12ec46532c04504f0b73afa68", "lat": 38.867000833333336, "fusion_lon": 0.0, "fusion_lat": 0.0, "type": "electric_scooter", "name": "c389abf12ec46532c04504f0b73afa68", "is_disabled": 0, "rental_uris": {"ios": "https://dc.lft.to/lastmile_qr_scan", "android": "https://dc.lft.to/lastmile_qr_scan"}, "is_reserved": 0}, {"lon": -76.93732433333334, "bike_id": "898027e3af135238b0f71f2234930d40", "lat": 38.89014816666667, "fusion_lon": 0.0, "fusion_lat": 0.0, "type": "electric_scooter", "name": "898027e3af135238b0f71f2234930d40", "is_disabled": 0, "rental_uris": {"ios": "https://dc.lft.to/lastmile_qr_scan", "android": "https://dc.lft.to/lastmile_qr_scan"}, "is_reserved": 0}, {"lon": -77.0205535, "bike_id": "d15ab3dc3786e7293be684462e260316", "lat": 38.9576065, "fusion_lon": 0.0, "fusion_lat": 0.0, "type": "electric_bike", "name": "d15ab3dc3786e7293be684462e260316", "is_disabled": 0, "rental_uris": {"ios": "https://dc.lft.to/lastmile_qr_scan", "android": "https://dc.lft.to/lastmile_qr_scan"}, "is_reserved": 0}, {"lon": -77.04506, "bike_id": "3aba752041842412399d436ad04b8413", "lat": 38.903590333333334, "fusion_lon": 0.0, "fusion_lat": 0.0, "type": "electric_scooter", "name": "3aba752041842412399d436ad04b8413", "is_disabled": 0, "rental_uris": {"ios": "https://dc.lft.to/lastmile_qr_scan", "android": "https://dc.lft.to/lastmile_qr_scan"}, "is_reserved": 0}, {"lon": -76.99823533333333, "bike_id": "e84e8f63ce8573f550cc62441be24b91", "lat": 38.908599333333335, "fusion_lon": 0.0, "fusion_lat": 0.0, "type": "electric_scooter", "name": "e84e8f63ce8573f550cc62441be24b91", "is_disabled": 0, "rental_uris": {"ios": "https://dc.lft.to/lastmile_qr_scan", "android": "https://dc.lft.to/lastmile_qr_scan"}, "is_reserved": 0}, {"lon": -77.03663966666667, "bike_id": "1641cc0db117d0b84fa9835b47946350", "lat": 38.91712283333333, "fusion_lon": 0.0, "fusion_lat": 0.0, "type": "electric_scooter", "name": "1641cc0db117d0b84fa9835b47946350", "is_disabled": 0, "rental_uris": {"ios": "https://dc.lft.to/lastmile_qr_scan", "android": "https://dc.lft.to/lastmile_qr_scan"}, "is_reserved": 0}, {"lon": -76.98022033333334, "bike_id": "3b887cc57b41c6c9a28a9a134201afa5", "lat": 38.853221166666664, "fusion_lon": 0.0, "fusion_lat": 0.0, "type": "electric_bike", "name": "3b887cc57b41c6c9a28a9a134201afa5", "is_disabled": 0, "rental_uris": {"ios": "https://dc.lft.to/lastmile_qr_scan", "android": "https://dc.lft.to/lastmile_qr_scan"}, "is_reserved": 0}, {"lon": -77.03535166666667, "bike_id": "922b8cfee5872677eb204f448a048781", "lat": 38.92483883333333, "fusion_lon": 0.0, "fusion_lat": 0.0, "type": "electric_scooter", "name": "922b8cfee5872677eb204f448a048781", "is_disabled": 0, "rental_uris": {"ios": "https://dc.lft.to/lastmile_qr_scan", "android": "https://dc.lft.to/lastmile_qr_scan"}, "is_reserved": 0}, {"lon": -77.00381416666667, "bike_id": "a616d28dc700d261f121531e35d977e9", "lat": 38.876370666666666, "fusion_lon": 0.0, "fusion_lat": 0.0, "type": "electric_scooter", "name": "a616d28dc700d261f121531e35d977e9", "is_disabled": 0, "rental_uris": {"ios": "https://dc.lft.to/lastmile_qr_scan", "android": "https://dc.lft.to/lastmile_qr_scan"}, "is_reserved": 0}, {"lon": -76.9952355, "bike_id": "2a4dbc4aa01fc5418d2016a477435d46", "lat": 38.86260633333333, "fusion_lon": 0.0, "fusion_lat": 0.0, "type": "electric_scooter", "name": "2a4dbc4aa01fc5418d2016a477435d46", "is_disabled": 0, "rental_uris": {"ios": "https://dc.lft.to/lastmile_qr_scan", "android": "https://dc.lft.to/lastmile_qr_scan"}, "is_reserved": 0}, {"lon": -76.94884333333333, "bike_id": "b608882c2af0612600711bcc35665106", "lat": 38.895116, "fusion_lon": 0.0, "fusion_lat": 0.0, "type": "electric_scooter", "name": "b608882c2af0612600711bcc35665106", "is_disabled": 0, "rental_uris": {"ios": "https://dc.lft.to/lastmile_qr_scan", "android": "https://dc.lft.to/lastmile_qr_scan"}, "is_reserved": 0}, {"lon": -77.0320135, "bike_id": "999533fb18a03eb05491d34833e6ea3e", "lat": 38.917394333333334, "fusion_lon": 0.0, "fusion_lat": 0.0, "type": "electric_scooter", "name": "999533fb18a03eb05491d34833e6ea3e", "is_disabled": 0, "rental_uris": {"ios": "https://dc.lft.to/lastmile_qr_scan", "android": "https://dc.lft.to/lastmile_qr_scan"}, "is_reserved": 0}, {"lon": -77.032106, "bike_id": "28c598dc7c799533f90ea4fabbd89e22", "lat": 38.897512, "fusion_lon": 0.0, "fusion_lat": 0.0, "type": "electric_scooter", "name": "28c598dc7c799533f90ea4fabbd89e22", "is_disabled": 0, "rental_uris": {"ios": "https://dc.lft.to/lastmile_qr_scan", "android": "https://dc.lft.to/lastmile_qr_scan"}, "is_reserved": 0}, {"lon": -77.020134, "bike_id": "48dda55cf6cf997b42e5728883574560", "lat": 38.92413166666667, "fusion_lon": 0.0, "fusion_lat": 0.0, "type": "electric_scooter", "name": "48dda55cf6cf997b42e5728883574560", "is_disabled": 0, "rental_uris": {"ios": "https://dc.lft.to/lastmile_qr_scan", "android": "https://dc.lft.to/lastmile_qr_scan"}, "is_reserved": 0}, {"lon": -76.98995933333333, "bike_id": "67013eea1ea91b1a04451cf0b42078f9", "lat": 38.93364483333333, "fusion_lon": 0.0, "fusion_lat": 0.0, "type": "electric_scooter", "name": "67013eea1ea91b1a04451cf0b42078f9", "is_disabled": 0, "rental_uris": {"ios": "https://dc.lft.to/lastmile_qr_scan", "android": "https://dc.lft.to/lastmile_qr_scan"}, "is_reserved": 0}, {"lon": -77.0573695, "bike_id": "1f4dafe235f644b85e65c437b4c04219", "lat": 38.9335245, "fusion_lon": 0.0, "fusion_lat": 0.0, "type": "electric_scooter", "name": "1f4dafe235f644b85e65c437b4c04219", "is_disabled": 0, "rental_uris": {"ios": "https://dc.lft.to/lastmile_qr_scan", "android": "https://dc.lft.to/lastmile_qr_scan"}, "is_reserved": 0}, {"lon": -77.03271666666667, "bike_id": "898ef8ce75895cabcf9045ceee5693ed", "lat": 38.90146583333333, "fusion_lon": 0.0, "fusion_lat": 0.0, "type": "electric_scooter", "name": "898ef8ce75895cabcf9045ceee5693ed", "is_disabled": 0, "rental_uris": {"ios": "https://dc.lft.to/lastmile_qr_scan", "android": "https://dc.lft.to/lastmile_qr_scan"}, "is_reserved": 0}, {"lon": -77.03213916666667, "bike_id": "eabf8f3137e158604b2c4272044cfe76", "lat": 38.91470616666667, "fusion_lon": 0.0, "fusion_lat": 0.0, "type": "electric_scooter", "name": "eabf8f3137e158604b2c4272044cfe76", "is_disabled": 0, "rental_uris": {"ios": "https://dc.lft.to/lastmile_qr_scan", "android": "https://dc.lft.to/lastmile_qr_scan"}, "is_reserved": 0}, {"lon": -76.99034866666666, "bike_id": "5da9483a0515b96df67ffebe730af963", "lat": 38.888703166666666, "fusion_lon": 0.0, "fusion_lat": 0.0, "type": "electric_scooter", "name": "5da9483a0515b96df67ffebe730af963", "is_disabled": 0, "rental_uris": {"ios": "https://dc.lft.to/lastmile_qr_scan", "android": "https://dc.lft.to/lastmile_qr_scan"}, "is_reserved": 0}, {"lon": -77.0318285, "bike_id": "43791bd88e0d47e1065f10f8464f6bed", "lat": 38.892304333333335, "fusion_lon": 0.0, "fusion_lat": 0.0, "type": "electric_scooter", "name": "43791bd88e0d47e1065f10f8464f6bed", "is_disabled": 0, "rental_uris": {"ios": "https://dc.lft.to/lastmile_qr_scan", "android": "https://dc.lft.to/lastmile_qr_scan"}, "is_reserved": 0}, {"lon": -77.01261383333333, "bike_id": "1c0381099d5224b3e6e7cbb23f18e403", "lat": 38.908507, "fusion_lon": 0.0, "fusion_lat": 0.0, "type": "electric_scooter", "name": "1c0381099d5224b3e6e7cbb23f18e403", "is_disabled": 0, "rental_uris": {"ios": "https://dc.lft.to/lastmile_qr_scan", "android": "https://dc.lft.to/lastmile_qr_scan"}, "is_reserved": 0}, {"lon": -76.993614, "bike_id": "2c993829eb5ee7e146b74c5407a06ce3", "lat": 38.900221333333334, "fusion_lon": 0.0, "fusion_lat": 0.0, "type": "electric_bike", "name": "2c993829eb5ee7e146b74c5407a06ce3", "is_disabled": 0, "rental_uris": {"ios": "https://dc.lft.to/lastmile_qr_scan", "android": "https://dc.lft.to/lastmile_qr_scan"}, "is_reserved": 0}, {"lon": -77.04273016666667, "bike_id": "8150b40561eac582df449eb84dc72abc", "lat": 38.904355833333334, "fusion_lon": 0.0, "fusion_lat": 0.0, "type": "electric_scooter", "name": "8150b40561eac582df449eb84dc72abc", "is_disabled": 0, "rental_uris": {"ios": "https://dc.lft.to/lastmile_qr_scan", "android": "https://dc.lft.to/lastmile_qr_scan"}, "is_reserved": 0}, {"lon": -77.039946, "bike_id": "5fdd8e8ac69c1c186706ac882c20b49f", "lat": 38.932810333333336, "fusion_lon": 0.0, "fusion_lat": 0.0, "type": "electric_scooter", "name": "5fdd8e8ac69c1c186706ac882c20b49f", "is_disabled": 0, "rental_uris": {"ios": "https://dc.lft.to/lastmile_qr_scan", "android": "https://dc.lft.to/lastmile_qr_scan"}, "is_reserved": 0}, {"lon": -77.030074, "bike_id": "4889462c05f1c1aae86b870e724bb9c2", "lat": 38.925747666666666, "fusion_lon": 0.0, "fusion_lat": 0.0, "type": "electric_scooter", "name": "4889462c05f1c1aae86b870e724bb9c2", "is_disabled": 0, "rental_uris": {"ios": "https://dc.lft.to/lastmile_qr_scan", "android": "https://dc.lft.to/lastmile_qr_scan"}, "is_reserved": 0}, {"lon": -77.0326335, "bike_id": "5695b1795f618a52a12d39eda79c89bb", "lat": 38.9389485, "fusion_lon": 0.0, "fusion_lat": 0.0, "type": "electric_scooter", "name": "5695b1795f618a52a12d39eda79c89bb", "is_disabled": 0, "rental_uris": {"ios": "https://dc.lft.to/lastmile_qr_scan", "android": "https://dc.lft.to/lastmile_qr_scan"}, "is_reserved": 0}, {"lon": -77.166242, "bike_id": "2585e46fb6d9cff86b999367f58fbc82", "lat": 38.888388, "fusion_lon": 0.0, "fusion_lat": 0.0, "type": "electric_bike", "name": "2585e46fb6d9cff86b999367f58fbc82", "is_disabled": 0, "rental_uris": {"ios": "https://dc.lft.to/lastmile_qr_scan", "android": "https://dc.lft.to/lastmile_qr_scan"}, "is_reserved": 0}, {"lon": -76.9952285, "bike_id": "a22fdf4e4022f7049ff8174a65f2edaa", "lat": 38.8917315, "fusion_lon": 0.0, "fusion_lat": 0.0, "type": "electric_scooter", "name": "a22fdf4e4022f7049ff8174a65f2edaa", "is_disabled": 0, "rental_uris": {"ios": "https://dc.lft.to/lastmile_qr_scan", "android": "https://dc.lft.to/lastmile_qr_scan"}, "is_reserved": 0}, {"lon": -77.0271445, "bike_id": "86694878333d66424ef2231a55b72211", "lat": 38.89481166666667, "fusion_lon": 0.0, "fusion_lat": 0.0, "type": "electric_scooter", "name": "86694878333d66424ef2231a55b72211", "is_disabled": 0, "rental_uris": {"ios": "https://dc.lft.to/lastmile_qr_scan", "android": "https://dc.lft.to/lastmile_qr_scan"}, "is_reserved": 0}, {"lon": -76.98663866666666, "bike_id": "254a52107549dede095ba92367d5f938", "lat": 38.867339333333334, "fusion_lon": 0.0, "fusion_lat": 0.0, "type": "electric_scooter", "name": "254a52107549dede095ba92367d5f938", "is_disabled": 0, "rental_uris": {"ios": "https://dc.lft.to/lastmile_qr_scan", "android": "https://dc.lft.to/lastmile_qr_scan"}, "is_reserved": 0}, {"lon": -77.02474983333333, "bike_id": "ba2dad51852095a60ee3ef3044847a79", "lat": 38.938588833333334, "fusion_lon": 0.0, "fusion_lat": 0.0, "type": "electric_scooter", "name": "ba2dad51852095a60ee3ef3044847a79", "is_disabled": 0, "rental_uris": {"ios": "https://dc.lft.to/lastmile_qr_scan", "android": "https://dc.lft.to/lastmile_qr_scan"}, "is_reserved": 0}, {"lon": -77.0274075, "bike_id": "2075d6430508d562f22cd3cbf7bd263a", "lat": 38.881556, "fusion_lon": 0.0, "fusion_lat": 0.0, "type": "electric_scooter", "name": "2075d6430508d562f22cd3cbf7bd263a", "is_disabled": 0, "rental_uris": {"ios": "https://dc.lft.to/lastmile_qr_scan", "android": "https://dc.lft.to/lastmile_qr_scan"}, "is_reserved": 0}, {"lon": -77.02717883333334, "bike_id": "a449e9cfb95cd52b13c93d44d0f805fe", "lat": 38.950855, "fusion_lon": 0.0, "fusion_lat": 0.0, "type": "electric_scooter", "name": "a449e9cfb95cd52b13c93d44d0f805fe", "is_disabled": 0, "rental_uris": {"ios": "https://dc.lft.to/lastmile_qr_scan", "android": "https://dc.lft.to/lastmile_qr_scan"}, "is_reserved": 0}, {"lon": -77.04363133333334, "bike_id": "e1e0712037259d1a3555df0fd08d6b88", "lat": 38.92103733333333, "fusion_lon": 0.0, "fusion_lat": 0.0, "type": "electric_scooter", "name": "e1e0712037259d1a3555df0fd08d6b88", "is_disabled": 0, "rental_uris": {"ios": "https://dc.lft.to/lastmile_qr_scan", "android": "https://dc.lft.to/lastmile_qr_scan"}, "is_reserved": 0}, {"lon": -77.031079, "bike_id": "5845561a73e72a2539311019387c9f52", "lat": 38.918053, "fusion_lon": 0.0, "fusion_lat": 0.0, "type": "electric_scooter", "name": "5845561a73e72a2539311019387c9f52", "is_disabled": 0, "rental_uris": {"ios": "https://dc.lft.to/lastmile_qr_scan", "android": "https://dc.lft.to/lastmile_qr_scan"}, "is_reserved": 0}, {"lon": -77.024727, "bike_id": "6227698e23a9d6ff927eb7ff99a1822e", "lat": 38.93856066666667, "fusion_lon": 0.0, "fusion_lat": 0.0, "type": "electric_scooter", "name": "6227698e23a9d6ff927eb7ff99a1822e", "is_disabled": 0, "rental_uris": {"ios": "https://dc.lft.to/lastmile_qr_scan", "android": "https://dc.lft.to/lastmile_qr_scan"}, "is_reserved": 0}, {"lon": -76.9776875, "bike_id": "a3fb256e821fca50f24451ba434f3bed", "lat": 38.95154383333333, "fusion_lon": 0.0, "fusion_lat": 0.0, "type": "electric_bike", "name": "a3fb256e821fca50f24451ba434f3bed", "is_disabled": 0, "rental_uris": {"ios": "https://dc.lft.to/lastmile_qr_scan", "android": "https://dc.lft.to/lastmile_qr_scan"}, "is_reserved": 0}, {"lon": -77.0437575, "bike_id": "f6406b0873f6f64c63a6e9156af2e5d9", "lat": 38.921057, "fusion_lon": 0.0, "fusion_lat": 0.0, "type": "electric_scooter", "name": "f6406b0873f6f64c63a6e9156af2e5d9", "is_disabled": 0, "rental_uris": {"ios": "https://dc.lft.to/lastmile_qr_scan", "android": "https://dc.lft.to/lastmile_qr_scan"}, "is_reserved": 0}, {"lon": -77.0259185, "bike_id": "5cfb3dd61c4246283df45276a48a590b", "lat": 38.9419865, "fusion_lon": 0.0, "fusion_lat": 0.0, "type": "electric_scooter", "name": "5cfb3dd61c4246283df45276a48a590b", "is_disabled": 0, "rental_uris": {"ios": "https://dc.lft.to/lastmile_qr_scan", "android": "https://dc.lft.to/lastmile_qr_scan"}, "is_reserved": 0}, {"lon": -77.01756966666666, "bike_id": "ba4731e3c9fc387cd28dbbc288db52d8", "lat": 38.88600183333333, "fusion_lon": 0.0, "fusion_lat": 0.0, "type": "electric_scooter", "name": "ba4731e3c9fc387cd28dbbc288db52d8", "is_disabled": 0, "rental_uris": {"ios": "https://dc.lft.to/lastmile_qr_scan", "android": "https://dc.lft.to/lastmile_qr_scan"}, "is_reserved": 0}, {"lon": -77.03207333333333, "bike_id": "d3d2cc2284c1bc8da9db4e3c7b3e3631", "lat": 38.898671666666665, "fusion_lon": 0.0, "fusion_lat": 0.0, "type": "electric_scooter", "name": "d3d2cc2284c1bc8da9db4e3c7b3e3631", "is_disabled": 0, "rental_uris": {"ios": "https://dc.lft.to/lastmile_qr_scan", "android": "https://dc.lft.to/lastmile_qr_scan"}, "is_reserved": 0}, {"lon": -77.04267266666666, "bike_id": "b712cd8a6ea33f84a4c54a39f1ba74c9", "lat": 38.922368, "fusion_lon": 0.0, "fusion_lat": 0.0, "type": "electric_scooter", "name": "b712cd8a6ea33f84a4c54a39f1ba74c9", "is_disabled": 0, "rental_uris": {"ios": "https://dc.lft.to/lastmile_qr_scan", "android": "https://dc.lft.to/lastmile_qr_scan"}, "is_reserved": 0}, {"lon": -77.016642, "bike_id": "62af935ce845f7cea8be41ddbbf054c6", "lat": 38.9174025, "fusion_lon": 0.0, "fusion_lat": 0.0, "type": "electric_scooter", "name": "62af935ce845f7cea8be41ddbbf054c6", "is_disabled": 0, "rental_uris": {"ios": "https://dc.lft.to/lastmile_qr_scan", "android": "https://dc.lft.to/lastmile_qr_scan"}, "is_reserved": 0}, {"lon": -77.0361035, "bike_id": "eb892bc04103105decacea459f887eb7", "lat": 38.92336516666667, "fusion_lon": 0.0, "fusion_lat": 0.0, "type": "electric_scooter", "name": "eb892bc04103105decacea459f887eb7", "is_disabled": 0, "rental_uris": {"ios": "https://dc.lft.to/lastmile_qr_scan", "android": "https://dc.lft.to/lastmile_qr_scan"}, "is_reserved": 0}, {"lon": -77.041729, "bike_id": "c53c48f8efe609defdb7810185079122", "lat": 38.91981716666667, "fusion_lon": 0.0, "fusion_lat": 0.0, "type": "electric_scooter", "name": "c53c48f8efe609defdb7810185079122", "is_disabled": 0, "rental_uris": {"ios": "https://dc.lft.to/lastmile_qr_scan", "android": "https://dc.lft.to/lastmile_qr_scan"}, "is_reserved": 0}, {"lon": -77.04858016666667, "bike_id": "31ac8cb9a02920bed9e812fb103d284a", "lat": 38.904793166666664, "fusion_lon": 0.0, "fusion_lat": 0.0, "type": "electric_bike", "name": "31ac8cb9a02920bed9e812fb103d284a", "is_disabled": 0, "rental_uris": {"ios": "https://dc.lft.to/lastmile_qr_scan", "android": "https://dc.lft.to/lastmile_qr_scan"}, "is_reserved": 0}, {"lon": -77.01762116666667, "bike_id": "4c538795cf6f34792060bc5d9d9d4636", "lat": 38.87723116666667, "fusion_lon": 0.0, "fusion_lat": 0.0, "type": "electric_scooter", "name": "4c538795cf6f34792060bc5d9d9d4636", "is_disabled": 0, "rental_uris": {"ios": "https://dc.lft.to/lastmile_qr_scan", "android": "https://dc.lft.to/lastmile_qr_scan"}, "is_reserved": 0}, {"lon": -76.975299, "bike_id": "292e6983165308b9e1c930726b9d5db4", "lat": 38.90326183333333, "fusion_lon": 0.0, "fusion_lat": 0.0, "type": "electric_bike", "name": "292e6983165308b9e1c930726b9d5db4", "is_disabled": 0, "rental_uris": {"ios": "https://dc.lft.to/lastmile_qr_scan", "android": "https://dc.lft.to/lastmile_qr_scan"}, "is_reserved": 0}, {"lon": -77.044867, "bike_id": "87a00bae9c9bff6b4585c626f188e575", "lat": 38.8924195, "fusion_lon": 0.0, "fusion_lat": 0.0, "type": "electric_scooter", "name": "87a00bae9c9bff6b4585c626f188e575", "is_disabled": 0, "rental_uris": {"ios": "https://dc.lft.to/lastmile_qr_scan", "android": "https://dc.lft.to/lastmile_qr_scan"}, "is_reserved": 0}, {"lon": -77.024037, "bike_id": "546f078dd3ae6494617babdf88afa20d", "lat": 38.934287833333336, "fusion_lon": 0.0, "fusion_lat": 0.0, "type": "electric_bike", "name": "546f078dd3ae6494617babdf88afa20d", "is_disabled": 0, "rental_uris": {"ios": "https://dc.lft.to/lastmile_qr_scan", "android": "https://dc.lft.to/lastmile_qr_scan"}, "is_reserved": 0}, {"lon": -77.0217235, "bike_id": "7180929c5833f6976f9afe87ef029079", "lat": 38.89481516666667, "fusion_lon": 0.0, "fusion_lat": 0.0, "type": "electric_scooter", "name": "7180929c5833f6976f9afe87ef029079", "is_disabled": 0, "rental_uris": {"ios": "https://dc.lft.to/lastmile_qr_scan", "android": "https://dc.lft.to/lastmile_qr_scan"}, "is_reserved": 0}, {"lon": -77.11781966666666, "bike_id": "2648f659e0f48241a0dfaf01025c1557", "lat": 39.05493283333333, "fusion_lon": 0.0, "fusion_lat": 0.0, "type": "electric_bike", "name": "2648f659e0f48241a0dfaf01025c1557", "is_disabled": 0, "rental_uris": {"ios": "https://dc.lft.to/lastmile_qr_scan", "android": "https://dc.lft.to/lastmile_qr_scan"}, "is_reserved": 0}, {"lon": -77.03281066666666, "bike_id": "4c7f15fec57e402bbf7200ec3b6db99a", "lat": 38.94156433333333, "fusion_lon": 0.0, "fusion_lat": 0.0, "type": "electric_scooter", "name": "4c7f15fec57e402bbf7200ec3b6db99a", "is_disabled": 0, "rental_uris": {"ios": "https://dc.lft.to/lastmile_qr_scan", "android": "https://dc.lft.to/lastmile_qr_scan"}, "is_reserved": 0}, {"lon": -77.0273385, "bike_id": "47bbf791935355fecdac1498195fe1db", "lat": 38.93206633333333, "fusion_lon": 0.0, "fusion_lat": 0.0, "type": "electric_scooter", "name": "47bbf791935355fecdac1498195fe1db", "is_disabled": 0, "rental_uris": {"ios": "https://dc.lft.to/lastmile_qr_scan", "android": "https://dc.lft.to/lastmile_qr_scan"}, "is_reserved": 0}, {"lon": -77.02374216666666, "bike_id": "3f820734b6c612058effd68b625d36ea", "lat": 38.91784533333333, "fusion_lon": 0.0, "fusion_lat": 0.0, "type": "electric_scooter", "name": "3f820734b6c612058effd68b625d36ea", "is_disabled": 0, "rental_uris": {"ios": "https://dc.lft.to/lastmile_qr_scan", "android": "https://dc.lft.to/lastmile_qr_scan"}, "is_reserved": 0}, {"lon": -77.01993966666667, "bike_id": "e3767fd8407b25a743e851eb512b64ff", "lat": 38.8837835, "fusion_lon": 0.0, "fusion_lat": 0.0, "type": "electric_scooter", "name": "e3767fd8407b25a743e851eb512b64ff", "is_disabled": 0, "rental_uris": {"ios": "https://dc.lft.to/lastmile_qr_scan", "android": "https://dc.lft.to/lastmile_qr_scan"}, "is_reserved": 0}, {"lon": -77.02158966666667, "bike_id": "f2ce3ffa7cf6d49146042b3788ea1bf4", "lat": 38.926874833333336, "fusion_lon": 0.0, "fusion_lat": 0.0, "type": "electric_scooter", "name": "f2ce3ffa7cf6d49146042b3788ea1bf4", "is_disabled": 0, "rental_uris": {"ios": "https://dc.lft.to/lastmile_qr_scan", "android": "https://dc.lft.to/lastmile_qr_scan"}, "is_reserved": 0}, {"lon": -77.033304, "bike_id": "a11a24b4f3ef99ca777cd90004f83caa", "lat": 38.909887833333336, "fusion_lon": 0.0, "fusion_lat": 0.0, "type": "electric_scooter", "name": "a11a24b4f3ef99ca777cd90004f83caa", "is_disabled": 0, "rental_uris": {"ios": "https://dc.lft.to/lastmile_qr_scan", "android": "https://dc.lft.to/lastmile_qr_scan"}, "is_reserved": 0}, {"lon": -77.03182616666666, "bike_id": "38a083e5732e6251822eac45a9e4663a", "lat": 38.89225616666667, "fusion_lon": 0.0, "fusion_lat": 0.0, "type": "electric_scooter", "name": "38a083e5732e6251822eac45a9e4663a", "is_disabled": 0, "rental_uris": {"ios": "https://dc.lft.to/lastmile_qr_scan", "android": "https://dc.lft.to/lastmile_qr_scan"}, "is_reserved": 0}, {"lon": -77.0413045, "bike_id": "093d6ba336cb7ae24317ff9a407df5af", "lat": 38.923648, "fusion_lon": 0.0, "fusion_lat": 0.0, "type": "electric_scooter", "name": "093d6ba336cb7ae24317ff9a407df5af", "is_disabled": 0, "rental_uris": {"ios": "https://dc.lft.to/lastmile_qr_scan", "android": "https://dc.lft.to/lastmile_qr_scan"}, "is_reserved": 0}, {"lon": -77.01757966666666, "bike_id": "fcca5cc2961aff9388103da58d718595", "lat": 38.902569166666666, "fusion_lon": 0.0, "fusion_lat": 0.0, "type": "electric_scooter", "name": "fcca5cc2961aff9388103da58d718595", "is_disabled": 0, "rental_uris": {"ios": "https://dc.lft.to/lastmile_qr_scan", "android": "https://dc.lft.to/lastmile_qr_scan"}, "is_reserved": 0}, {"lon": -77.03189333333333, "bike_id": "ae46291c7fa372d45fdd97337482d9f6", "lat": 38.9304155, "fusion_lon": 0.0, "fusion_lat": 0.0, "type": "electric_scooter", "name": "ae46291c7fa372d45fdd97337482d9f6", "is_disabled": 0, "rental_uris": {"ios": "https://dc.lft.to/lastmile_qr_scan", "android": "https://dc.lft.to/lastmile_qr_scan"}, "is_reserved": 0}, {"lon": -77.02580033333334, "bike_id": "e83cc3d54b06ce57e4606f4e0966704b", "lat": 38.9318885, "fusion_lon": 0.0, "fusion_lat": 0.0, "type": "electric_scooter", "name": "e83cc3d54b06ce57e4606f4e0966704b", "is_disabled": 0, "rental_uris": {"ios": "https://dc.lft.to/lastmile_qr_scan", "android": "https://dc.lft.to/lastmile_qr_scan"}, "is_reserved": 0}, {"lon": -77.00366483333333, "bike_id": "dc6e1544a6c36057d65146617e297687", "lat": 38.89663933333333, "fusion_lon": 0.0, "fusion_lat": 0.0, "type": "electric_scooter", "name": "dc6e1544a6c36057d65146617e297687", "is_disabled": 0, "rental_uris": {"ios": "https://dc.lft.to/lastmile_qr_scan", "android": "https://dc.lft.to/lastmile_qr_scan"}, "is_reserved": 0}, {"lon": -77.0218135, "bike_id": "ac449ae7c8e5f78665ae51e25525da1e", "lat": 38.915366666666664, "fusion_lon": 0.0, "fusion_lat": 0.0, "type": "electric_scooter", "name": "ac449ae7c8e5f78665ae51e25525da1e", "is_disabled": 0, "rental_uris": {"ios": "https://dc.lft.to/lastmile_qr_scan", "android": "https://dc.lft.to/lastmile_qr_scan"}, "is_reserved": 0}, {"lon": -77.025833, "bike_id": "45122609404ed0987d1d2a0cdc14c284", "lat": 38.92033266666667, "fusion_lon": 0.0, "fusion_lat": 0.0, "type": "electric_scooter", "name": "45122609404ed0987d1d2a0cdc14c284", "is_disabled": 0, "rental_uris": {"ios": "https://dc.lft.to/lastmile_qr_scan", "android": "https://dc.lft.to/lastmile_qr_scan"}, "is_reserved": 0}, {"lon": -77.02128733333333, "bike_id": "a8ffdb219f07a9895adaf1578c629754", "lat": 38.89715783333333, "fusion_lon": 0.0, "fusion_lat": 0.0, "type": "electric_scooter", "name": "a8ffdb219f07a9895adaf1578c629754", "is_disabled": 0, "rental_uris": {"ios": "https://dc.lft.to/lastmile_qr_scan", "android": "https://dc.lft.to/lastmile_qr_scan"}, "is_reserved": 0}, {"lon": -77.02005416666667, "bike_id": "8053db22f6beed28d299f715e20fc76e", "lat": 38.90271633333333, "fusion_lon": 0.0, "fusion_lat": 0.0, "type": "electric_scooter", "name": "8053db22f6beed28d299f715e20fc76e", "is_disabled": 0, "rental_uris": {"ios": "https://dc.lft.to/lastmile_qr_scan", "android": "https://dc.lft.to/lastmile_qr_scan"}, "is_reserved": 0}, {"lon": -77.04267116666666, "bike_id": "756aae810ffa0adfcd2f43b041f8846b", "lat": 38.922329, "fusion_lon": 0.0, "fusion_lat": 0.0, "type": "electric_scooter", "name": "756aae810ffa0adfcd2f43b041f8846b", "is_disabled": 0, "rental_uris": {"ios": "https://dc.lft.to/lastmile_qr_scan", "android": "https://dc.lft.to/lastmile_qr_scan"}, "is_reserved": 0}, {"lon": -77.02715883333333, "bike_id": "48e7087485bc2401a0a8f95255de6603", "lat": 38.8977655, "fusion_lon": 0.0, "fusion_lat": 0.0, "type": "electric_scooter", "name": "48e7087485bc2401a0a8f95255de6603", "is_disabled": 0, "rental_uris": {"ios": "https://dc.lft.to/lastmile_qr_scan", "android": "https://dc.lft.to/lastmile_qr_scan"}, "is_reserved": 0}, {"lon": -77.02413933333334, "bike_id": "585fc3d1934cad28021bea9e596cbb35", "lat": 38.919149166666664, "fusion_lon": 0.0, "fusion_lat": 0.0, "type": "electric_scooter", "name": "585fc3d1934cad28021bea9e596cbb35", "is_disabled": 0, "rental_uris": {"ios": "https://dc.lft.to/lastmile_qr_scan", "android": "https://dc.lft.to/lastmile_qr_scan"}, "is_reserved": 0}, {"lon": -77.05003966666666, "bike_id": "3a6236e3176020c4904407eda854e791", "lat": 38.8919825, "fusion_lon": 0.0, "fusion_lat": 0.0, "type": "electric_scooter", "name": "3a6236e3176020c4904407eda854e791", "is_disabled": 0, "rental_uris": {"ios": "https://dc.lft.to/lastmile_qr_scan", "android": "https://dc.lft.to/lastmile_qr_scan"}, "is_reserved": 0}, {"lon": -77.02193483333333, "bike_id": "fe77cd2a32f53dcb461c6ec4dcdb8a12", "lat": 38.933105, "fusion_lon": 0.0, "fusion_lat": 0.0, "type": "electric_scooter", "name": "fe77cd2a32f53dcb461c6ec4dcdb8a12", "is_disabled": 0, "rental_uris": {"ios": "https://dc.lft.to/lastmile_qr_scan", "android": "https://dc.lft.to/lastmile_qr_scan"}, "is_reserved": 0}, {"lon": -76.93355066666666, "bike_id": "1a8f2f5c97ba7f60941d0dfd8827355b", "lat": 38.887943, "fusion_lon": 0.0, "fusion_lat": 0.0, "type": "electric_scooter", "name": "1a8f2f5c97ba7f60941d0dfd8827355b", "is_disabled": 0, "rental_uris": {"ios": "https://dc.lft.to/lastmile_qr_scan", "android": "https://dc.lft.to/lastmile_qr_scan"}, "is_reserved": 0}, {"lon": -77.01189333333333, "bike_id": "cb9825dccb59452e48250dd050d7b32f", "lat": 38.900262833333336, "fusion_lon": 0.0, "fusion_lat": 0.0, "type": "electric_scooter", "name": "cb9825dccb59452e48250dd050d7b32f", "is_disabled": 0, "rental_uris": {"ios": "https://dc.lft.to/lastmile_qr_scan", "android": "https://dc.lft.to/lastmile_qr_scan"}, "is_reserved": 0}, {"lon": -77.03370933333333, "bike_id": "9dcce7a7ed6235a46fdafa3eaa65650b", "lat": 38.901134166666665, "fusion_lon": 0.0, "fusion_lat": 0.0, "type": "electric_scooter", "name": "9dcce7a7ed6235a46fdafa3eaa65650b", "is_disabled": 0, "rental_uris": {"ios": "https://dc.lft.to/lastmile_qr_scan", "android": "https://dc.lft.to/lastmile_qr_scan"}, "is_reserved": 0}, {"lon": -77.03208733333334, "bike_id": "13dbe7b9272df74ba830df0c2d165f20", "lat": 38.907235, "fusion_lon": 0.0, "fusion_lat": 0.0, "type": "electric_scooter", "name": "13dbe7b9272df74ba830df0c2d165f20", "is_disabled": 0, "rental_uris": {"ios": "https://dc.lft.to/lastmile_qr_scan", "android": "https://dc.lft.to/lastmile_qr_scan"}, "is_reserved": 0}, {"lon": -77.04347666666666, "bike_id": "4130d6efa1cb288fd5747711c3bf8f0e", "lat": 38.9081755, "fusion_lon": 0.0, "fusion_lat": 0.0, "type": "electric_scooter", "name": "4130d6efa1cb288fd5747711c3bf8f0e", "is_disabled": 0, "rental_uris": {"ios": "https://dc.lft.to/lastmile_qr_scan", "android": "https://dc.lft.to/lastmile_qr_scan"}, "is_reserved": 0}, {"lon": -77.0296145, "bike_id": "0655b4a7fc9fd8e35c8922d4904749a8", "lat": 38.916687333333336, "fusion_lon": 0.0, "fusion_lat": 0.0, "type": "electric_scooter", "name": "0655b4a7fc9fd8e35c8922d4904749a8", "is_disabled": 0, "rental_uris": {"ios": "https://dc.lft.to/lastmile_qr_scan", "android": "https://dc.lft.to/lastmile_qr_scan"}, "is_reserved": 0}, {"lon": -77.0466435, "bike_id": "86a79b1a0fc06be28be13a9ae0d30241", "lat": 38.905477, "fusion_lon": 0.0, "fusion_lat": 0.0, "type": "electric_scooter", "name": "86a79b1a0fc06be28be13a9ae0d30241", "is_disabled": 0, "rental_uris": {"ios": "https://dc.lft.to/lastmile_qr_scan", "android": "https://dc.lft.to/lastmile_qr_scan"}, "is_reserved": 0}, {"lon": -77.07122683333333, "bike_id": "5bf198c976439d1ac12931a64adbc05a", "lat": 38.919702, "fusion_lon": 0.0, "fusion_lat": 0.0, "type": "electric_scooter", "name": "5bf198c976439d1ac12931a64adbc05a", "is_disabled": 0, "rental_uris": {"ios": "https://dc.lft.to/lastmile_qr_scan", "android": "https://dc.lft.to/lastmile_qr_scan"}, "is_reserved": 0},