{"data": {"bikes": [{"lon": -76.9756515, "lat": 38.90445916666667, "name": "5704c02994615cc121cc7a61518713ab", "fusion_lat": 0.0, "fusion_lon": 0.0, "rental_uris": {"android": "https://dc.lft.to/lastmile_qr_scan", "ios": "https://dc.lft.to/lastmile_qr_scan"}, "is_reserved": 0, "is_disabled": 0, "type": "electric_scooter", "bike_id": "5704c02994615cc121cc7a61518713ab"}, {"lon": -77.03196733333333, "lat": 38.9306825, "name": "002852a36511dba46cbc8e627e8b1170", "fusion_lat": 0.0, "fusion_lon": 0.0, "rental_uris": {"android": "https://dc.lft.to/lastmile_qr_scan", "ios": "https://dc.lft.to/lastmile_qr_scan"}, "is_reserved": 0, "is_disabled": 0, "type": "electric_scooter", "bike_id": "002852a36511dba46cbc8e627e8b1170"}, {"lon": -76.9960505, "lat": 38.8862545, "name": "5ffb3a35dc6f33dd27863731e88bcc75", "fusion_lat": 0.0, "fusion_lon": 0.0, "rental_uris": {"android": "https://dc.lft.to/lastmile_qr_scan", "ios": "https://dc.lft.to/lastmile_qr_scan"}, "is_reserved": 0, "is_disabled": 0, "type": "electric_scooter", "bike_id": "5ffb3a35dc6f33dd27863731e88bcc75"}, {"lon": -77.04033633333333, "lat": 38.80408766666667, "name": "b7e22d694b817b81bc969fa8652f6b08", "fusion_lat": 0.0, "fusion_lon": 0.0, "rental_uris": {"android": "https://dc.lft.to/lastmile_qr_scan", "ios": "https://dc.lft.to/lastmile_qr_scan"}, "is_reserved": 0, "is_disabled": 0, "type": "electric_bike", "bike_id": "b7e22d694b817b81bc969fa8652f6b08"}, {"lon": -77.02971683333334, "lat": 38.917801833333336, "name": "36819c8ff7a141072b316ca7099fd106", "fusion_lat": 0.0, "fusion_lon": 0.0, "rental_uris": {"android": "https://dc.lft.to/lastmile_qr_scan", "ios": "https://dc.lft.to/lastmile_qr_scan"}, "is_reserved": 0, "is_disabled": 0, "type": "electric_scooter", "bike_id": "36819c8ff7a141072b316ca7099fd106"}, {"lon": -76.98374533333333, "lat": 38.86033166666667, "name": "46353ea88a8199ba487737d098f29cab", "fusion_lat": 0.0, "fusion_lon": 0.0, "rental_uris": {"android": "https://dc.lft.to/lastmile_qr_scan", "ios": "https://dc.lft.to/lastmile_qr_scan"}, "is_reserved": 0, "is_disabled": 0, "type": "electric_scooter", "bike_id": "46353ea88a8199ba487737d098f29cab"}, {"lon": -77.0162315, "lat": 38.910235166666666, "name": "0f7a7135b27788f9ca2bd9497fa48ef2", "fusion_lat": 0.0, "fusion_lon": 0.0, "rental_uris": {"android": "https://dc.lft.to/lastmile_qr_scan", "ios": "https://dc.lft.to/lastmile_qr_scan"}, "is_reserved": 0, "is_disabled": 0, "type": "electric_scooter", "bike_id": "0f7a7135b27788f9ca2bd9497fa48ef2"}, {"lon": -77.02580566666667, "lat": 38.89764233333333, "name": "3be5bfe45f7fb7bacedeaa0cb67c32a1", "fusion_lat": 0.0, "fusion_lon": 0.0, "rental_uris": {"android": "https://dc.lft.to/lastmile_qr_scan", "ios": "https://dc.lft.to/lastmile_qr_scan"}, "is_reserved": 0, "is_disabled": 0, "type": "electric_scooter", "bike_id": "3be5bfe45f7fb7bacedeaa0cb67c32a1"}, {"lon": -77.0369835, "lat": 38.916756666666664, "name": "78294416bf74b9ffa5afd3787a439db0", "fusion_lat": 0.0, "fusion_lon": 0.0, "rental_uris": {"android": "https://dc.lft.to/lastmile_qr_scan", "ios": "https://dc.lft.to/lastmile_qr_scan"}, "is_reserved": 0, "is_disabled": 0, "type": "electric_scooter", "bike_id": "78294416bf74b9ffa5afd3787a439db0"}, {"lon": -77.04635483333334, "lat": 38.89225783333333, "name": "603688ee88739c15a3a1355ef3a18cbe", "fusion_lat": 0.0, "fusion_lon": 0.0, "rental_uris": {"android": "https://dc.lft.to/lastmile_qr_scan", "ios": "https://dc.lft.to/lastmile_qr_scan"}, "is_reserved": 0, "is_disabled": 0, "type": "electric_scooter", "bike_id": "603688ee88739c15a3a1355ef3a18cbe"}, {"lon": -76.97325783333334, "lat": 38.930277333333336, "name": "b57418c4269575c866dbf240fd7b0508", "fusion_lat": 0.0, "fusion_lon": 0.0, "rental_uris": {"android": "https://dc.lft.to/lastmile_qr_scan", "ios": "https://dc.lft.to/lastmile_qr_scan"}, "is_reserved": 0, "is_disabled": 0, "type": "electric_scooter", "bike_id": "b57418c4269575c866dbf240fd7b0508"}, {"lon": -77.041473, "lat": 38.91693133333333, "name": "2815431f9fde9795e849c03420dbb8ec", "fusion_lat": 0.0, "fusion_lon": 0.0, "rental_uris": {"android": "https://dc.lft.to/lastmile_qr_scan", "ios": "https://dc.lft.to/lastmile_qr_scan"}, "is_reserved": 0, "is_disabled": 0, "type": "electric_scooter", "bike_id": "2815431f9fde9795e849c03420dbb8ec"}, {"lon": -76.98575166666667, "lat": 38.86155866666667, "name": "6a35f35a798711bf9283f139869642fe", "fusion_lat": 0.0, "fusion_lon": 0.0, "rental_uris": {"android": "https://dc.lft.to/lastmile_qr_scan", "ios": "https://dc.lft.to/lastmile_qr_scan"}, "is_reserved": 0, "is_disabled": 0, "type": "electric_scooter", "bike_id": "6a35f35a798711bf9283f139869642fe"}, {"lon": -76.9750605, "lat": 38.919371, "name": "5dfa283d1819295b778a885fa697a990", "fusion_lat": 0.0, "fusion_lon": 0.0, "rental_uris": {"android": "https://dc.lft.to/lastmile_qr_scan", "ios": "https://dc.lft.to/lastmile_qr_scan"}, "is_reserved": 0, "is_disabled": 0, "type": "electric_bike", "bike_id": "5dfa283d1819295b778a885fa697a990"}, {"lon": -76.981644, "lat": 38.845864666666664, "name": "b3fc975d9a42f914d17642c2263ca58e", "fusion_lat": 0.0, "fusion_lon": 0.0, "rental_uris": {"android": "https://dc.lft.to/lastmile_qr_scan", "ios": "https://dc.lft.to/lastmile_qr_scan"}, "is_reserved": 0, "is_disabled": 0, "type": "electric_bike", "bike_id": "b3fc975d9a42f914d17642c2263ca58e"}, {"lon": -76.9317515, "lat": 38.8988505, "name": "1b9eb766d1c35bca5e22f698174dc429", "fusion_lat": 0.0, "fusion_lon": 0.0, "rental_uris": {"android": "https://dc.lft.to/lastmile_qr_scan", "ios": "https://dc.lft.to/lastmile_qr_scan"}, "is_reserved": 0, "is_disabled": 0, "type": "electric_scooter", "bike_id": "1b9eb766d1c35bca5e22f698174dc429"}, {"lon": -77.04168333333334, "lat": 38.90621933333333, "name": "6a361d0a30757ff1be2df6bbd6ce95cd", "fusion_lat": 0.0, "fusion_lon": 0.0, "rental_uris": {"android": "https://dc.lft.to/lastmile_qr_scan", "ios": "https://dc.lft.to/lastmile_qr_scan"}, "is_reserved": 0, "is_disabled": 0, "type": "electric_scooter", "bike_id": "6a361d0a30757ff1be2df6bbd6ce95cd"}, {"lon": -77.05304233333334, "lat": 38.92629066666667, "name": "73ed24db156e972115367d7b49a8f2a7", "fusion_lat": 0.0, "fusion_lon": 0.0, "rental_uris": {"android": "https://dc.lft.to/lastmile_qr_scan", "ios": "https://dc.lft.to/lastmile_qr_scan"}, "is_reserved": 0, "is_disabled": 0, "type": "electric_scooter", "bike_id": "73ed24db156e972115367d7b49a8f2a7"}, {"lon": -77.0335485, "lat": 38.885074333333336, "name": "5847dc73c819b5f29cc7f6369e3c01a7", "fusion_lat": 0.0, "fusion_lon": 0.0, "rental_uris": {"android": "https://dc.lft.to/lastmile_qr_scan", "ios": "https://dc.lft.to/lastmile_qr_scan"}, "is_reserved": 0, "is_disabled": 0, "type": "electric_scooter", "bike_id": "5847dc73c819b5f29cc7f6369e3c01a7"}, {"lon": -77.05160716666667, "lat": 38.9057455, "name": "049e24a60ad4a32c311682324d6b26f4", "fusion_lat": 0.0, "fusion_lon": 0.0, "rental_uris": {"android": "https://dc.lft.to/lastmile_qr_scan", "ios": "https://dc.lft.to/lastmile_qr_scan"}, "is_reserved": 0, "is_disabled": 0, "type": "electric_scooter", "bike_id": "049e24a60ad4a32c311682324d6b26f4"}, {"lon": -77.107183, "lat": 38.855360833333336, "name": "60d60df1dd0a198a54aac00086c26ffe", "fusion_lat": 0.0, "fusion_lon": 0.0, "rental_uris": {"android": "https://dc.lft.to/lastmile_qr_scan", "ios": "https://dc.lft.to/lastmile_qr_scan"}, "is_reserved": 0, "is_disabled": 0, "type": "electric_bike", "bike_id": "60d60df1dd0a198a54aac00086c26ffe"}, {"lon": -76.99272383333333, "lat": 38.8969165, "name": "c912841a9b801510ff138d32e2d68a75", "fusion_lat": 0.0, "fusion_lon": 0.0, "rental_uris": {"android": "https://dc.lft.to/lastmile_qr_scan", "ios": "https://dc.lft.to/lastmile_qr_scan"}, "is_reserved": 0, "is_disabled": 0, "type": "electric_scooter", "bike_id": "c912841a9b801510ff138d32e2d68a75"}, {"lon": -76.99475883333334, "lat": 38.8621195, "name": "190e62079bfe05c485b772e7b899abf2", "fusion_lat": 0.0, "fusion_lon": 0.0, "rental_uris": {"android": "https://dc.lft.to/lastmile_qr_scan", "ios": "https://dc.lft.to/lastmile_qr_scan"}, "is_reserved": 0, "is_disabled": 0, "type": "electric_scooter", "bike_id": "190e62079bfe05c485b772e7b899abf2"}, {"lon": -77.04154933333334, "lat": 38.90749183333333, "name": "257ce4531ced8fe0f7d7dc1bf94f8a95", "fusion_lat": 0.0, "fusion_lon": 0.0, "rental_uris": {"android": "https://dc.lft.to/lastmile_qr_scan", "ios": "https://dc.lft.to/lastmile_qr_scan"}, "is_reserved": 0, "is_disabled": 0, "type": "electric_scooter", "bike_id": "257ce4531ced8fe0f7d7dc1bf94f8a95"}, {"lon": -76.94846366666667, "lat": 38.89485716666667, "name": "f9688896b9d1efa4a16741d0f24c21d0", "fusion_lat": 0.0, "fusion_lon": 0.0, "rental_uris": {"android": "https://dc.lft.to/lastmile_qr_scan", "ios": "https://dc.lft.to/lastmile_qr_scan"}, "is_reserved": 0, "is_disabled": 0, "type": "electric_scooter", "bike_id": "f9688896b9d1efa4a16741d0f24c21d0"}, {"lon": -77.06534566666667, "lat": 38.9112645, "name": "c38c4ed19f5b5df143fc625718a90c91", "fusion_lat": 0.0, "fusion_lon": 0.0, "rental_uris": {"android": "https://dc.lft.to/lastmile_qr_scan", "ios": "https://dc.lft.to/lastmile_qr_scan"}, "is_reserved": 0, "is_disabled": 0, "type": "electric_scooter", "bike_id": "c38c4ed19f5b5df143fc625718a90c91"}, {"lon": -77.03227166666667, "lat": 38.93872733333333, "name": "9b9ce803accd103685cb8eb6f3c27647", "fusion_lat": 0.0, "fusion_lon": 0.0, "rental_uris": {"android": "https://dc.lft.to/lastmile_qr_scan", "ios": "https://dc.lft.to/lastmile_qr_scan"}, "is_reserved": 0, "is_disabled": 0, "type": "electric_scooter", "bike_id": "9b9ce803accd103685cb8eb6f3c27647"}, {"lon": -76.99515966666667, "lat": 38.894869666666665, "name": "ec92011da565b5c401c9f9b26511659f", "fusion_lat": 0.0, "fusion_lon": 0.0, "rental_uris": {"android": "https://dc.lft.to/lastmile_qr_scan", "ios": "https://dc.lft.to/lastmile_qr_scan"}, "is_reserved": 0, "is_disabled": 0, "type": "electric_scooter", "bike_id": "ec92011da565b5c401c9f9b26511659f"}, {"lon": -77.032, "lat": 38.9116315, "name": "88e394250ceabca6af302029f57230f5", "fusion_lat": 0.0, "fusion_lon": 0.0, "rental_uris": {"android": "https://dc.lft.to/lastmile_qr_scan", "ios": "https://dc.lft.to/lastmile_qr_scan"}, "is_reserved": 0, "is_disabled": 0, "type": "electric_scooter", "bike_id": "88e394250ceabca6af302029f57230f5"}, {"lon": -76.94855133333333, "lat": 38.88300983333333, "name": "57adff78d0fce48948e6b1c1b3c20dcd", "fusion_lat": 0.0, "fusion_lon": 0.0, "rental_uris": {"android": "https://dc.lft.to/lastmile_qr_scan", "ios": "https://dc.lft.to/lastmile_qr_scan"}, "is_reserved": 0, "is_disabled": 0, "type": "electric_scooter", "bike_id": "57adff78d0fce48948e6b1c1b3c20dcd"}, {"lon": -77.01506183333333, "lat": 38.91340666666667, "name": "507bfbfc3a4fe81e8d16c980a24e020e", "fusion_lat": 0.0, "fusion_lon": 0.0, "rental_uris": {"android": "https://dc.lft.to/lastmile_qr_scan", "ios": "https://dc.lft.to/lastmile_qr_scan"}, "is_reserved": 0, "is_disabled": 0, "type": "electric_scooter", "bike_id": "507bfbfc3a4fe81e8d16c980a24e020e"}, {"lon": -76.99877083333334, "lat": 38.90752783333333, "name": "14229bcf13ad246dc0913fe7042f4931", "fusion_lat": 0.0, "fusion_lon": 0.0, "rental_uris": {"android": "https://dc.lft.to/lastmile_qr_scan", "ios": "https://dc.lft.to/lastmile_qr_scan"}, "is_reserved": 0, "is_disabled": 0, "type": "electric_scooter", "bike_id": "14229bcf13ad246dc0913fe7042f4931"}, {"lon": -77.038674, "lat": 38.912623833333335, "name": "91d66b5ce99a65fb45e8a180501a8d43", "fusion_lat": 0.0, "fusion_lon": 0.0, "rental_uris": {"android": "https://dc.lft.to/lastmile_qr_scan", "ios": "https://dc.lft.to/lastmile_qr_scan"}, "is_reserved": 0, "is_disabled": 0, "type": "electric_scooter", "bike_id": "91d66b5ce99a65fb45e8a180501a8d43"}, {"lon": -77.005069, "lat": 38.875305, "name": "cb14832d937cba05d73cfcce40a1f82f", "fusion_lat": 0.0, "fusion_lon": 0.0, "rental_uris": {"android": "https://dc.lft.to/lastmile_qr_scan", "ios": "https://dc.lft.to/lastmile_qr_scan"}, "is_reserved": 0, "is_disabled": 0, "type": "electric_scooter", "bike_id": "cb14832d937cba05d73cfcce40a1f82f"}, {"lon": -77.000492, "lat": 38.9069605, "name": "fea6cf9d08a2ad27ec0a10a5cf77dee8", "fusion_lat": 0.0, "fusion_lon": 0.0, "rental_uris": {"android": "https://dc.lft.to/lastmile_qr_scan", "ios": "https://dc.lft.to/lastmile_qr_scan"}, "is_reserved": 0, "is_disabled": 0, "type": "electric_scooter", "bike_id": "fea6cf9d08a2ad27ec0a10a5cf77dee8"}, {"lon": -77.0316525, "lat": 38.914135333333334, "name": "c4d741efe4e314c50ea005f282458b6d", "fusion_lat": 0.0, "fusion_lon": 0.0, "rental_uris": {"android": "https://dc.lft.to/lastmile_qr_scan", "ios": "https://dc.lft.to/lastmile_qr_scan"}, "is_reserved": 0, "is_disabled": 0, "type": "electric_scooter", "bike_id": "c4d741efe4e314c50ea005f282458b6d"}, {"lon": -77.04416, "lat": 38.9113235, "name": "dfb8b032d6917c9870ff16b6f050b8d9", "fusion_lat": 0.0, "fusion_lon": 0.0, "rental_uris": {"android": "https://dc.lft.to/lastmile_qr_scan", "ios": "https://dc.lft.to/lastmile_qr_scan"}, "is_reserved": 0, "is_disabled": 0, "type": "electric_scooter", "bike_id": "dfb8b032d6917c9870ff16b6f050b8d9"}, {"lon": -77.00219516666667, "lat": 38.90515216666667, "name": "d10b54747474b62987ef822f8283ea4b", "fusion_lat": 0.0, "fusion_lon": 0.0, "rental_uris": {"android": "https://dc.lft.to/lastmile_qr_scan", "ios": "https://dc.lft.to/lastmile_qr_scan"}, "is_reserved": 0, "is_disabled": 0, "type": "electric_scooter", "bike_id": "d10b54747474b62987ef822f8283ea4b"}, {"lon": -77.02815216666667, "lat": 38.892487333333335, "name": "73fcdcad44b3c05e0c0063d32a4e2784", "fusion_lat": 0.0, "fusion_lon": 0.0, "rental_uris": {"android": "https://dc.lft.to/lastmile_qr_scan", "ios": "https://dc.lft.to/lastmile_qr_scan"}, "is_reserved": 0, "is_disabled": 0, "type": "electric_scooter", "bike_id": "73fcdcad44b3c05e0c0063d32a4e2784"}, {"lon": -76.991684, "lat": 38.87924783333333, "name": "7c1115b00a3610196dc106f1f251d245", "fusion_lat": 0.0, "fusion_lon": 0.0, "rental_uris": {"android": "https://dc.lft.to/lastmile_qr_scan", "ios": "https://dc.lft.to/lastmile_qr_scan"}, "is_reserved": 0, "is_disabled": 0, "type": "electric_scooter", "bike_id": "7c1115b00a3610196dc106f1f251d245"}, {"lon": -77.06478916666667, "lat": 38.973863, "name": "520846feff3b54a164bd80a820969e17", "fusion_lat": 0.0, "fusion_lon": 0.0, "rental_uris": {"android": "https://dc.lft.to/lastmile_qr_scan", "ios": "https://dc.lft.to/lastmile_qr_scan"}, "is_reserved": 0, "is_disabled": 0, "type": "electric_bike", "bike_id": "520846feff3b54a164bd80a820969e17"}, {"lon": -77.041961, "lat": 38.934225833333336, "name": "3f38a62ead3f48761ba89e7eb221c74f", "fusion_lat": 0.0, "fusion_lon": 0.0, "rental_uris": {"android": "https://dc.lft.to/lastmile_qr_scan", "ios": "https://dc.lft.to/lastmile_qr_scan"}, "is_reserved": 0, "is_disabled": 0, "type": "electric_bike", "bike_id": "3f38a62ead3f48761ba89e7eb221c74f"}, {"lon": -77.03382833333333, "lat": 38.921523, "name": "2674aa27cfd0f7ff5e8246913404517d", "fusion_lat": 0.0, "fusion_lon": 0.0, "rental_uris": {"android": "https://dc.lft.to/lastmile_qr_scan", "ios": "https://dc.lft.to/lastmile_qr_scan"}, "is_reserved": 0, "is_disabled": 0, "type": "electric_scooter", "bike_id": "2674aa27cfd0f7ff5e8246913404517d"}, {"lon": -77.02819933333333, "lat": 38.8950035, "name": "236e6ced28a93a7316977bfeddb5c8ef", "fusion_lat": 0.0, "fusion_lon": 0.0, "rental_uris": {"android": "https://dc.lft.to/lastmile_qr_scan", "ios": "https://dc.lft.to/lastmile_qr_scan"}, "is_reserved": 0, "is_disabled": 0, "type": "electric_scooter", "bike_id": "236e6ced28a93a7316977bfeddb5c8ef"}, {"lon": -77.03816466666666, "lat": 38.925559, "name": "5fd956acf5604fbd8cf04ccf14531bb7", "fusion_lat": 0.0, "fusion_lon": 0.0, "rental_uris": {"android": "https://dc.lft.to/lastmile_qr_scan", "ios": "https://dc.lft.to/lastmile_qr_scan"}, "is_reserved": 0, "is_disabled": 0, "type": "electric_scooter", "bike_id": "5fd956acf5604fbd8cf04ccf14531bb7"}, {"lon": -77.02060783333333, "lat": 38.92016316666667, "name": "0462299015e2f4338ef6fc4a10750246", "fusion_lat": 0.0, "fusion_lon": 0.0, "rental_uris": {"android": "https://dc.lft.to/lastmile_qr_scan", "ios": "https://dc.lft.to/lastmile_qr_scan"}, "is_reserved": 0, "is_disabled": 0, "type": "electric_scooter", "bike_id": "0462299015e2f4338ef6fc4a10750246"}, {"lon": -77.03639916666667, "lat": 38.924217, "name": "35e544d86f5261017e8183a1aa8daced", "fusion_lat": 0.0, "fusion_lon": 0.0, "rental_uris": {"android": "https://dc.lft.to/lastmile_qr_scan", "ios": "https://dc.lft.to/lastmile_qr_scan"}, "is_reserved": 0, "is_disabled": 0, "type": "electric_scooter", "bike_id": "35e544d86f5261017e8183a1aa8daced"}, {"lon": -77.0175505, "lat": 38.900771166666665, "name": "68ba09513c2d28fe29060bd0e0d09f51", "fusion_lat": 0.0, "fusion_lon": 0.0, "rental_uris": {"android": "https://dc.lft.to/lastmile_qr_scan", "ios": "https://dc.lft.to/lastmile_qr_scan"}, "is_reserved": 0, "is_disabled": 0, "type": "electric_scooter", "bike_id": "68ba09513c2d28fe29060bd0e0d09f51"}, {"lon": -77.02665666666667, "lat": 38.95483766666667, "name": "65816b9b3026e9bc60d512079c199167", "fusion_lat": 0.0, "fusion_lon": 0.0, "rental_uris": {"android": "https://dc.lft.to/lastmile_qr_scan", "ios": "https://dc.lft.to/lastmile_qr_scan"}, "is_reserved": 0, "is_disabled": 0, "type": "electric_bike", "bike_id": "65816b9b3026e9bc60d512079c199167"}, {"lon": -77.06418683333334, "lat": 38.9059645, "name": "9d33cd11160c401c55d9777406616960", "fusion_lat": 0.0, "fusion_lon": 0.0, "rental_uris": {"android": "https://dc.lft.to/lastmile_qr_scan", "ios": "https://dc.lft.to/lastmile_qr_scan"}, "is_reserved": 0, "is_disabled": 0, "type": "electric_bike", "bike_id": "9d33cd11160c401c55d9777406616960"}, {"lon": -76.9723065, "lat": 38.84487083333333, "name": "3e0c00de04e8fe0c43a218e0b5380561", "fusion_lat": 0.0, "fusion_lon": 0.0, "rental_uris": {"android": "https://dc.lft.to/lastmile_qr_scan", "ios": "https://dc.lft.to/lastmile_qr_scan"}, "is_reserved": 0, "is_disabled": 0, "type": "electric_bike", "bike_id": "3e0c00de04e8fe0c43a218e0b5380561"}, {"lon": -77.067767, "lat": 38.949775833333334, "name": "1ff2e84168b4fe2f7b729f90df5117f4", "fusion_lat": 0.0, "fusion_lon": 0.0, "rental_uris": {"android": "https://dc.lft.to/lastmile_qr_scan", "ios": "https://dc.lft.to/lastmile_qr_scan"}, "is_reserved": 0, "is_disabled": 0, "type": "electric_scooter", "bike_id": "1ff2e84168b4fe2f7b729f90df5117f4"}, {"lon": -77.007305, "lat": 38.95973766666667, "name": "d32e341b205043001b3bf15e612c2eab", "fusion_lat": 0.0, "fusion_lon": 0.0, "rental_uris": {"android": "https://dc.lft.to/lastmile_qr_scan", "ios": "https://dc.lft.to/lastmile_qr_scan"}, "is_reserved": 0, "is_disabled": 0, "type": "electric_scooter", "bike_id": "d32e341b205043001b3bf15e612c2eab"}, {"lon": -76.97704533333334, "lat": 38.8989425, "name": "171a56812dbde56091cf3a6be131509c", "fusion_lat": 0.0, "fusion_lon": 0.0, "rental_uris": {"android": "https://dc.lft.to/lastmile_qr_scan", "ios": "https://dc.lft.to/lastmile_qr_scan"}, "is_reserved": 0, "is_disabled": 0, "type": "electric_scooter", "bike_id": "171a56812dbde56091cf3a6be131509c"}, {"lon": -77.01844883333334, "lat": 38.91981216666667, "name": "10a349239fd44ae135f9dde569b808a4", "fusion_lat": 0.0, "fusion_lon": 0.0, "rental_uris": {"android": "https://dc.lft.to/lastmile_qr_scan", "ios": "https://dc.lft.to/lastmile_qr_scan"}, "is_reserved": 0, "is_disabled": 0, "type": "electric_scooter", "bike_id": "10a349239fd44ae135f9dde569b808a4"}, {"lon": -77.03287566666667, "lat": 38.95648516666667, "name": "8e2fe8fb71bd4044458deb5036426121", "fusion_lat": 0.0, "fusion_lon": 0.0, "rental_uris": {"android": "https://dc.lft.to/lastmile_qr_scan", "ios": "https://dc.lft.to/lastmile_qr_scan"}, "is_reserved": 0, "is_disabled": 0, "type": "electric_scooter", "bike_id": "8e2fe8fb71bd4044458deb5036426121"}, {"lon": -76.9494115, "lat": 38.883192666666666, "name": "f3c33197911957ac4b0ce514d574c144", "fusion_lat": 0.0, "fusion_lon": 0.0, "rental_uris": {"android": "https://dc.lft.to/lastmile_qr_scan", "ios": "https://dc.lft.to/lastmile_qr_scan"}, "is_reserved": 0, "is_disabled": 0, "type": "electric_scooter", "bike_id": "f3c33197911957ac4b0ce514d574c144"}, {"lon": -77.01159566666666, "lat": 38.89347266666667, "name": "1847a4807cf213b7a8373de4991d2106", "fusion_lat": 0.0, "fusion_lon": 0.0, "rental_uris": {"android": "https://dc.lft.to/lastmile_qr_scan", "ios": "https://dc.lft.to/lastmile_qr_scan"}, "is_reserved": 0, "is_disabled": 0, "type": "electric_scooter", "bike_id": "1847a4807cf213b7a8373de4991d2106"}, {"lon": -77.09548033333333, "lat": 38.837323166666664, "name": "7fa1278b5394bed7fffe57cbab3eea49", "fusion_lat": 0.0, "fusion_lon": 0.0, "rental_uris": {"android": "https://dc.lft.to/lastmile_qr_scan", "ios": "https://dc.lft.to/lastmile_qr_scan"}, "is_reserved": 0, "is_disabled": 0, "type": "electric_bike", "bike_id": "7fa1278b5394bed7fffe57cbab3eea49"}, {"lon": -76.997791, "lat": 38.844324666666665, "name": "c8366c6ea8eeb8bdd929fbfc2e1d70e3", "fusion_lat": 0.0, "fusion_lon": 0.0, "rental_uris": {"android": "https://dc.lft.to/lastmile_qr_scan", "ios": "https://dc.lft.to/lastmile_qr_scan"}, "is_reserved": 0, "is_disabled": 0, "type": "electric_scooter", "bike_id": "c8366c6ea8eeb8bdd929fbfc2e1d70e3"}, {"lon": -77.04285783333333, "lat": 38.90733516666667, "name": "29095aed87e3007a6a34c5a7b581a86e", "fusion_lat": 0.0, "fusion_lon": 0.0, "rental_uris": {"android": "https://dc.lft.to/lastmile_qr_scan", "ios": "https://dc.lft.to/lastmile_qr_scan"}, "is_reserved": 0, "is_disabled": 0, "type": "electric_scooter", "bike_id": "29095aed87e3007a6a34c5a7b581a86e"}, {"lon": -77.0364875, "lat": 38.912724833333336, "name": "4538454d223b433ff00d7f761085ebcf", "fusion_lat": 0.0, "fusion_lon": 0.0, "rental_uris": {"android": "https://dc.lft.to/lastmile_qr_scan", "ios": "https://dc.lft.to/lastmile_qr_scan"}, "is_reserved": 0, "is_disabled": 0, "type": "electric_scooter", "bike_id": "4538454d223b433ff00d7f761085ebcf"}, {"lon": -77.003699, "lat": 38.83605683333333, "name": "4ef516afa6ebbcef144e961af88a3ced", "fusion_lat": 0.0, "fusion_lon": 0.0, "rental_uris": {"android": "https://dc.lft.to/lastmile_qr_scan", "ios": "https://dc.lft.to/lastmile_qr_scan"}, "is_reserved": 0, "is_disabled": 0, "type": "electric_bike", "bike_id": "4ef516afa6ebbcef144e961af88a3ced"}, {"lon": -77.02465016666666, "lat": 38.906274333333336, "name": "75fd5bf25a986a33328d7f5135a19939", "fusion_lat": 0.0, "fusion_lon": 0.0, "rental_uris": {"android": "https://dc.lft.to/lastmile_qr_scan", "ios": "https://dc.lft.to/lastmile_qr_scan"}, "is_reserved": 0, "is_disabled": 0, "type": "electric_bike", "bike_id": "75fd5bf25a986a33328d7f5135a19939"}, {"lon": -77.02738, "lat": 38.91825433333333, "name": "ec43faa78e0343fc8d81bb24aa4d4603", "fusion_lat": 0.0, "fusion_lon": 0.0, "rental_uris": {"android": "https://dc.lft.to/lastmile_qr_scan", "ios": "https://dc.lft.to/lastmile_qr_scan"}, "is_reserved": 0, "is_disabled": 0, "type": "electric_scooter", "bike_id": "ec43faa78e0343fc8d81bb24aa4d4603"}, {"lon": -76.9995195, "lat": 38.842909666666664, "name": "bae7601dbef39ed5fb8da13d12d14bef", "fusion_lat": 0.0, "fusion_lon": 0.0, "rental_uris": {"android": "https://dc.lft.to/lastmile_qr_scan", "ios": "https://dc.lft.to/lastmile_qr_scan"}, "is_reserved": 0, "is_disabled": 0, "type": "electric_scooter", "bike_id": "bae7601dbef39ed5fb8da13d12d14bef"}, {"lon": -77.000248, "lat": 38.91985233333333, "name": "df8bfe73a5e9cfec91596d15aa9da722", "fusion_lat": 0.0, "fusion_lon": 0.0, "rental_uris": {"android": "https://dc.lft.to/lastmile_qr_scan", "ios": "https://dc.lft.to/lastmile_qr_scan"}, "is_reserved": 0, "is_disabled": 0, "type": "electric_scooter", "bike_id": "df8bfe73a5e9cfec91596d15aa9da722"}, {"lon": -77.01936133333334, "lat": 38.94922533333333, "name": "5f75e0839caeef71665de565da88b689", "fusion_lat": 0.0, "fusion_lon": 0.0, "rental_uris": {"android": "https://dc.lft.to/lastmile_qr_scan", "ios": "https://dc.lft.to/lastmile_qr_scan"}, "is_reserved": 0, "is_disabled": 0, "type": "electric_scooter", "bike_id": "5f75e0839caeef71665de565da88b689"}, {"lon": -77.03200633333333, "lat": 38.916447833333336, "name": "d50c14c2ea0e0ae5d0396d89c54704cc", "fusion_lat": 0.0, "fusion_lon": 0.0, "rental_uris": {"android": "https://dc.lft.to/lastmile_qr_scan", "ios": "https://dc.lft.to/lastmile_qr_scan"}, "is_reserved": 0, "is_disabled": 0, "type": "electric_scooter", "bike_id": "d50c14c2ea0e0ae5d0396d89c54704cc"}, {"lon": -77.01756416666667, "lat": 38.87689533333333, "name": "e6d1b48b77ace416538afbe83b6b55ae", "fusion_lat": 0.0, "fusion_lon": 0.0, "rental_uris": {"android": "https://dc.lft.to/lastmile_qr_scan", "ios": "https://dc.lft.to/lastmile_qr_scan"}, "is_reserved": 0, "is_disabled": 0, "type": "electric_scooter", "bike_id": "e6d1b48b77ace416538afbe83b6b55ae"}, {"lon": -77.0326765, "lat": 38.93078966666667, "name": "4a0e32036b8f9226320dbd11b4d862fe", "fusion_lat": 0.0, "fusion_lon": 0.0, "rental_uris": {"android": "https://dc.lft.to/lastmile_qr_scan", "ios": "https://dc.lft.to/lastmile_qr_scan"}, "is_reserved": 0, "is_disabled": 0, "type": "electric_scooter", "bike_id": "4a0e32036b8f9226320dbd11b4d862fe"}, {"lon": -77.0512185, "lat": 38.90552, "name": "205d691520039e4010a9b6d07d392a9c", "fusion_lat": 0.0, "fusion_lon": 0.0, "rental_uris": {"android": "https://dc.lft.to/lastmile_qr_scan", "ios": "https://dc.lft.to/lastmile_qr_scan"}, "is_reserved": 0, "is_disabled": 0, "type": "electric_scooter", "bike_id": "205d691520039e4010a9b6d07d392a9c"}, {"lon": -77.02688333333333, "lat": 38.90838883333333, "name": "11aca8e6128076fdb71fd7527b64001f", "fusion_lat": 0.0, "fusion_lon": 0.0, "rental_uris": {"android": "https://dc.lft.to/lastmile_qr_scan", "ios": "https://dc.lft.to/lastmile_qr_scan"}, "is_reserved": 0, "is_disabled": 0, "type": "electric_scooter", "bike_id": "11aca8e6128076fdb71fd7527b64001f"}, {"lon": -77.0332625, "lat": 38.89843183333333, "name": "264a57d2b9fd8a458743a26fa086972b", "fusion_lat": 0.0, "fusion_lon": 0.0, "rental_uris": {"android": "https://dc.lft.to/lastmile_qr_scan", "ios": "https://dc.lft.to/lastmile_qr_scan"}, "is_reserved": 0, "is_disabled": 0, "type": "electric_scooter", "bike_id": "264a57d2b9fd8a458743a26fa086972b"}, {"lon": -77.0381425, "lat": 38.920790333333336, "name": "834222cf9c938bb647f2511983432bdb", "fusion_lat": 0.0, "fusion_lon": 0.0, "rental_uris": {"android": "https://dc.lft.to/lastmile_qr_scan", "ios": "https://dc.lft.to/lastmile_qr_scan"}, "is_reserved": 0, "is_disabled": 0, "type": "electric_scooter", "bike_id": "834222cf9c938bb647f2511983432bdb"}, {"lon": -77.038046, "lat": 38.91230266666667, "name": "83af337b36ffe1da7ea0a8fae2a6a03e", "fusion_lat": 0.0, "fusion_lon": 0.0, "rental_uris": {"android": "https://dc.lft.to/lastmile_qr_scan", "ios": "https://dc.lft.to/lastmile_qr_scan"}, "is_reserved": 0, "is_disabled": 0, "type": "electric_scooter", "bike_id": "83af337b36ffe1da7ea0a8fae2a6a03e"}, {"lon": -77.04501933333333, "lat": 38.90386916666667, "name": "4456c91c4e54a2157040b4df7b49d082", "fusion_lat": 0.0, "fusion_lon": 0.0, "rental_uris": {"android": "https://dc.lft.to/lastmile_qr_scan", "ios": "https://dc.lft.to/lastmile_qr_scan"}, "is_reserved": 0, "is_disabled": 0, "type": "electric_scooter", "bike_id": "4456c91c4e54a2157040b4df7b49d082"}, {"lon": -77.04378966666667, "lat": 38.9257445, "name": "0d0dc7271f191c65098defaafad89dcc", "fusion_lat": 0.0, "fusion_lon": 0.0, "rental_uris": {"android": "https://dc.lft.to/lastmile_qr_scan", "ios": "https://dc.lft.to/lastmile_qr_scan"}, "is_reserved": 0, "is_disabled": 0, "type": "electric_scooter", "bike_id": "0d0dc7271f191c65098defaafad89dcc"}, {"lon": -77.04376783333333, "lat": 38.91113433333334, "name": "41908939df4bd918da997d4af2ff3c4c", "fusion_lat": 0.0, "fusion_lon": 0.0, "rental_uris": {"android": "https://dc.lft.to/lastmile_qr_scan", "ios": "https://dc.lft.to/lastmile_qr_scan"}, "is_reserved": 0, "is_disabled": 0, "type": "electric_scooter", "bike_id": "41908939df4bd918da997d4af2ff3c4c"}, {"lon": -77.013817, "lat": 38.928275, "name": "f0e7abe303f44c2ec7a2e723ba8cf731", "fusion_lat": 0.0, "fusion_lon": 0.0, "rental_uris": {"android": "https://dc.lft.to/lastmile_qr_scan", "ios": "https://dc.lft.to/lastmile_qr_scan"}, "is_reserved": 0, "is_disabled": 0, "type": "electric_scooter", "bike_id": "f0e7abe303f44c2ec7a2e723ba8cf731"}, {"lon": -77.07837666666667, "lat": 38.93152366666666, "name": "e649cef2bea9d583cd16ed5e92dba6b3", "fusion_lat": 0.0, "fusion_lon": 0.0, "rental_uris": {"android": "https://dc.lft.to/lastmile_qr_scan", "ios": "https://dc.lft.to/lastmile_qr_scan"}, "is_reserved": 0, "is_disabled": 0, "type": "electric_scooter", "bike_id": "e649cef2bea9d583cd16ed5e92dba6b3"}, {"lon": -77.02186466666667, "lat": 38.90981433333333, "name": "33115735ff51d546b1a1a8b094c4a62a", "fusion_lat": 0.0, "fusion_lon": 0.0, "rental_uris": {"android": "https://dc.lft.to/lastmile_qr_scan", "ios": "https://dc.lft.to/lastmile_qr_scan"}, "is_reserved": 0, "is_disabled": 0, "type": "electric_scooter", "bike_id": "33115735ff51d546b1a1a8b094c4a62a"}, {"lon": -77.00576866666667, "lat": 38.872121666666665, "name": "a9a0e02fde9368f428b8d8a58c6359fa", "fusion_lat": 0.0, "fusion_lon": 0.0, "rental_uris": {"android": "https://dc.lft.to/lastmile_qr_scan", "ios": "https://dc.lft.to/lastmile_qr_scan"}, "is_reserved": 0, "is_disabled": 0, "type": "electric_scooter", "bike_id": "a9a0e02fde9368f428b8d8a58c6359fa"}, {"lon": -77.00210816666667, "lat": 38.904803666666666, "name": "f97482dba00f28a22dc6b0f6deb9cb82", "fusion_lat": 0.0, "fusion_lon": 0.0, "rental_uris": {"android": "https://dc.lft.to/lastmile_qr_scan", "ios": "https://dc.lft.to/lastmile_qr_scan"}, "is_reserved": 0, "is_disabled": 0, "type": "electric_scooter", "bike_id": "f97482dba00f28a22dc6b0f6deb9cb82"}, {"lon": -77.01230083333333, "lat": 38.90036833333333, "name": "7027b5294fb66bdcae62092ff82df754", "fusion_lat": 0.0, "fusion_lon": 0.0, "rental_uris": {"android": "https://dc.lft.to/lastmile_qr_scan", "ios": "https://dc.lft.to/lastmile_qr_scan"}, "is_reserved": 0, "is_disabled": 0, "type": "electric_scooter", "bike_id": "7027b5294fb66bdcae62092ff82df754"}, {"lon": -76.9656125, "lat": 38.9509875, "name": "09076ccb264fab85eb9bddd3e2f60994", "fusion_lat": 0.0, "fusion_lon": 0.0, "rental_uris": {"android": "https://dc.lft.to/lastmile_qr_scan", "ios": "https://dc.lft.to/lastmile_qr_scan"}, "is_reserved": 0, "is_disabled": 0, "type": "electric_bike", "bike_id": "09076ccb264fab85eb9bddd3e2f60994"}, {"lon": -77.04038166666666, "lat": 38.91719883333333, "name": "b0052b2b362ebf31547860aca031dd6d", "fusion_lat": 0.0, "fusion_lon": 0.0, "rental_uris": {"android": "https://dc.lft.to/lastmile_qr_scan", "ios": "https://dc.lft.to/lastmile_qr_scan"}, "is_reserved": 0, "is_disabled": 0, "type": "electric_scooter", "bike_id": "b0052b2b362ebf31547860aca031dd6d"}, {"lon": -77.02307833333333, "lat": 38.927042666666665, "name": "2f9453ac1ac9b245bfee3074cd33e01d", "fusion_lat": 0.0, "fusion_lon": 0.0, "rental_uris": {"android": "https://dc.lft.to/lastmile_qr_scan", "ios": "https://dc.lft.to/lastmile_qr_scan"}, "is_reserved": 0, "is_disabled": 0, "type": "electric_scooter", "bike_id": "2f9453ac1ac9b245bfee3074cd33e01d"}, {"lon": -77.0708075, "lat": 38.9193075, "name": "ec7852dae489772730b1aab03758c6a0", "fusion_lat": 0.0, "fusion_lon": 0.0, "rental_uris": {"android": "https://dc.lft.to/lastmile_qr_scan", "ios": "https://dc.lft.to/lastmile_qr_scan"}, "is_reserved": 0, "is_disabled": 0, "type": "electric_bike", "bike_id": "ec7852dae489772730b1aab03758c6a0"}, {"lon": -76.984387, "lat": 38.91425133333333, "name": "3f7d293adfee5bc26f0437df213e34e3", "fusion_lat": 0.0, "fusion_lon": 0.0, "rental_uris": {"android": "https://dc.lft.to/lastmile_qr_scan", "ios": "https://dc.lft.to/lastmile_qr_scan"}, "is_reserved": 0, "is_disabled": 0, "type": "electric_scooter", "bike_id": "3f7d293adfee5bc26f0437df213e34e3"}, {"lon": -77.04820833333333, "lat": 38.913324833333334, "name": "d2c28eb93331a6293cf71dcfa28fe84c", "fusion_lat": 0.0, "fusion_lon": 0.0, "rental_uris": {"android": "https://dc.lft.to/lastmile_qr_scan", "ios": "https://dc.lft.to/lastmile_qr_scan"}, "is_reserved": 0, "is_disabled": 0, "type": "electric_scooter", "bike_id": "d2c28eb93331a6293cf71dcfa28fe84c"}, {"lon": -77.04870216666667, "lat": 38.89220016666667, "name": "686c9fe1bc0d635f44042cb7bdeaa567", "fusion_lat": 0.0, "fusion_lon": 0.0, "rental_uris": {"android": "https://dc.lft.to/lastmile_qr_scan", "ios": "https://dc.lft.to/lastmile_qr_scan"}, "is_reserved": 0, "is_disabled": 0, "type": "electric_scooter", "bike_id": "686c9fe1bc0d635f44042cb7bdeaa567"}, {"lon": -77.03201816666666, "lat": 38.929792166666665, "name": "f44a841185f3430e280882c7e5dc23f5", "fusion_lat": 0.0, "fusion_lon": 0.0, "rental_uris": {"android": "https://dc.lft.to/lastmile_qr_scan", "ios": "https://dc.lft.to/lastmile_qr_scan"}, "is_reserved": 0, "is_disabled": 0, "type": "electric_scooter", "bike_id": "f44a841185f3430e280882c7e5dc23f5"}, {"lon": -76.90820133333334, "lat": 38.9945555, "name": "115f697a727f10a9ed2fa863b32ad554", "fusion_lat": 0.0, "fusion_lon": 0.0, "rental_uris": {"android": "https://dc.lft.to/lastmile_qr_scan", "ios": "https://dc.lft.to/lastmile_qr_scan"}, "is_reserved": 0, "is_disabled": 0, "type": "electric_bike", "bike_id": "115f697a727f10a9ed2fa863b32ad554"}, {"lon": -77.03436616666667, "lat": 38.9074055, "name": "ab29e2b2c222a87f68c2134a3fc1919d", "fusion_lat": 0.0, "fusion_lon": 0.0, "rental_uris": {"android": "https://dc.lft.to/lastmile_qr_scan", "ios": "https://dc.lft.to/lastmile_qr_scan"}, "is_reserved": 0, "is_disabled": 0, "type": "electric_scooter", "bike_id": "ab29e2b2c222a87f68c2134a3fc1919d"}, {"lon": -77.03853233333334, "lat": 38.91278116666667, "name": "50c81e745178858be3e6ed70c7775ffb", "fusion_lat": 0.0, "fusion_lon": 0.0, "rental_uris": {"android": "https://dc.lft.to/lastmile_qr_scan", "ios": "https://dc.lft.to/lastmile_qr_scan"}, "is_reserved": 0, "is_disabled": 0, "type": "electric_scooter", "bike_id": "50c81e745178858be3e6ed70c7775ffb"}, {"lon": -77.065332, "lat": 38.9347445, "name": "2936d9f4f8f9bcf8ed9b8cb4cb130c6c", "fusion_lat": 0.0, "fusion_lon": 0.0, "rental_uris": {"android": "https://dc.lft.to/lastmile_qr_scan", "ios": "https://dc.lft.to/lastmile_qr_scan"}, "is_reserved": 0, "is_disabled": 0, "type": "electric_scooter", "bike_id": "2936d9f4f8f9bcf8ed9b8cb4cb130c6c"}, {"lon": -77.05516366666667, "lat": 38.9299805, "name": "0c40d4ce8cb5b5d5d81e7ab0a91e287b", "fusion_lat": 0.0, "fusion_lon": 0.0, "rental_uris": {"android": "https://dc.lft.to/lastmile_qr_scan", "ios": "https://dc.lft.to/lastmile_qr_scan"}, "is_reserved": 0, "is_disabled": 0, "type": "electric_scooter", "bike_id": "0c40d4ce8cb5b5d5d81e7ab0a91e287b"}, {"lon": -76.99624633333333, "lat": 38.8855475, "name": "b96670eb419d3a1dcdd5d12aea96da71", "fusion_lat": 0.0, "fusion_lon": 0.0, "rental_uris": {"android": "https://dc.lft.to/lastmile_qr_scan", "ios": "https://dc.lft.to/lastmile_qr_scan"}, "is_reserved": 0, "is_disabled": 0, "type": "electric_scooter", "bike_id": "b96670eb419d3a1dcdd5d12aea96da71"}, {"lon": -76.98730033333334, "lat": 38.867106, "name": "ed4fe12dc5c344cbb9a61b8b928ec3d6", "fusion_lat": 0.0, "fusion_lon": 0.0, "rental_uris": {"android": "https://dc.lft.to/lastmile_qr_scan", "ios": "https://dc.lft.to/lastmile_qr_scan"}, "is_reserved": 0, "is_disabled": 0, "type": "electric_scooter", "bike_id": "ed4fe12dc5c344cbb9a61b8b928ec3d6"}, {"lon": -77.01631983333333, "lat": 38.899679666666664, "name": "de2fe366898b31dc0ca27ad84b1c0870", "fusion_lat": 0.0, "fusion_lon": 0.0, "rental_uris": {"android": "https://dc.lft.to/lastmile_qr_scan", "ios": "https://dc.lft.to/lastmile_qr_scan"}, "is_reserved": 0, "is_disabled": 0, "type": "electric_scooter", "bike_id": "de2fe366898b31dc0ca27ad84b1c0870"}, {"lon": -76.98906833333334, "lat": 38.9003015, "name": "8740eb8ee52897185c570ecb39e7c94d", "fusion_lat": 0.0, "fusion_lon": 0.0, "rental_uris": {"android": "https://dc.lft.to/lastmile_qr_scan", "ios": "https://dc.lft.to/lastmile_qr_scan"}, "is_reserved": 0, "is_disabled": 0, "type": "electric_scooter", "bike_id": "8740eb8ee52897185c570ecb39e7c94d"}, {"lon": -77.016177, "lat": 38.90234066666667, "name": "db2b7a1bd2efb8a6fd55a932fcac000a", "fusion_lat": 0.0, "fusion_lon": 0.0, "rental_uris": {"android": "https://dc.lft.to/lastmile_qr_scan", "ios": "https://dc.lft.to/lastmile_qr_scan"}, "is_reserved": 0, "is_disabled": 0, "type": "electric_scooter", "bike_id": "db2b7a1bd2efb8a6fd55a932fcac000a"}, {"lon": -77.03917516666667, "lat": 38.924765, "name": "505a2ba95bac67ca74b28ce52214c446", "fusion_lat": 0.0, "fusion_lon": 0.0, "rental_uris": {"android": "https://dc.lft.to/lastmile_qr_scan", "ios": "https://dc.lft.to/lastmile_qr_scan"}, "is_reserved": 0, "is_disabled": 0, "type": "electric_scooter", "bike_id": "505a2ba95bac67ca74b28ce52214c446"}, {"lon": -77.04268516666667, "lat": 38.922360833333336, "name": "3025d2507b160b441d19d5f5b0fea4b5", "fusion_lat": 0.0, "fusion_lon": 0.0, "rental_uris": {"android": "https://dc.lft.to/lastmile_qr_scan", "ios": "https://dc.lft.to/lastmile_qr_scan"}, "is_reserved": 0, "is_disabled": 0, "type": "electric_scooter", "bike_id": "3025d2507b160b441d19d5f5b0fea4b5"}, {"lon": -77.01117083333334, "lat": 38.87086766666667, "name": "49a7c8d3e5d760f775b4f07966e52223", "fusion_lat": 0.0, "fusion_lon": 0.0, "rental_uris": {"android": "https://dc.lft.to/lastmile_qr_scan", "ios": "https://dc.lft.to/lastmile_qr_scan"}, "is_reserved": 0, "is_disabled": 0, "type": "electric_scooter", "bike_id": "49a7c8d3e5d760f775b4f07966e52223"}, {"lon": -77.038397, "lat": 38.911376833333335, "name": "bc51d91899276446cfa9e3b461a46153", "fusion_lat": 0.0, "fusion_lon": 0.0, "rental_uris": {"android": "https://dc.lft.to/lastmile_qr_scan", "ios": "https://dc.lft.to/lastmile_qr_scan"}, "is_reserved": 0, "is_disabled": 0, "type": "electric_scooter", "bike_id": "bc51d91899276446cfa9e3b461a46153"}, {"lon": -77.05000583333333, "lat": 38.89230533333333, "name": "5e71d5cc3a20addf252fd99bd63de57e", "fusion_lat": 0.0, "fusion_lon": 0.0, "rental_uris": {"android": "https://dc.lft.to/lastmile_qr_scan", "ios": "https://dc.lft.to/lastmile_qr_scan"}, "is_reserved": 0, "is_disabled": 0, "type": "electric_scooter", "bike_id": "5e71d5cc3a20addf252fd99bd63de57e"}, {"lon": -77.00113866666666, "lat": 38.894357166666666, "name": "d5ae7ced33b7526e9157ed226aa30148", "fusion_lat": 0.0, "fusion_lon": 0.0, "rental_uris": {"android": "https://dc.lft.to/lastmile_qr_scan", "ios": "https://dc.lft.to/lastmile_qr_scan"}, "is_reserved": 0, "is_disabled": 0, "type": "electric_scooter", "bike_id": "d5ae7ced33b7526e9157ed226aa30148"}, {"lon": -77.03254516666667, "lat": 38.93525916666667, "name": "5905c7b70abebf6e4717b07f6f8ced8a", "fusion_lat": 0.0, "fusion_lon": 0.0, "rental_uris": {"android": "https://dc.lft.to/lastmile_qr_scan", "ios": "https://dc.lft.to/lastmile_qr_scan"}, "is_reserved": 0, "is_disabled": 0, "type": "electric_scooter", "bike_id": "5905c7b70abebf6e4717b07f6f8ced8a"}, {"lon": -77.0306835, "lat": 38.9277555, "name": "5ec6a2a98aafdb90f843f789a8900f6b", "fusion_lat": 0.0, "fusion_lon": 0.0, "rental_uris": {"android": "https://dc.lft.to/lastmile_qr_scan", "ios": "https://dc.lft.to/lastmile_qr_scan"}, "is_reserved": 0, "is_disabled": 0, "type": "electric_scooter", "bike_id": "5ec6a2a98aafdb90f843f789a8900f6b"}, {"lon": -77.0272035, "lat": 38.892218, "name": "d0aa98b959cd2339494912c135d63949", "fusion_lat": 0.0, "fusion_lon": 0.0, "rental_uris": {"android": "https://dc.lft.to/lastmile_qr_scan", "ios": "https://dc.lft.to/lastmile_qr_scan"}, "is_reserved": 0, "is_disabled": 0, "type": "electric_scooter", "bike_id": "d0aa98b959cd2339494912c135d63949"}, {"lon": -77.072874, "lat": 38.931777, "name": "fa6d9a315d914da8d278ebe81c435edc", "fusion_lat": 0.0, "fusion_lon": 0.0, "rental_uris": {"android": "https://dc.lft.to/lastmile_qr_scan", "ios": "https://dc.lft.to/lastmile_qr_scan"}, "is_reserved": 0, "is_disabled": 0, "type": "electric_scooter", "bike_id": "fa6d9a315d914da8d278ebe81c435edc"}, {"lon": -76.938322, "lat": 38.89761133333333, "name": "c87d8ff5cda605b361493a82ca03a7a1", "fusion_lat": 0.0, "fusion_lon": 0.0, "rental_uris": {"android": "https://dc.lft.to/lastmile_qr_scan", "ios": "https://dc.lft.to/lastmile_qr_scan"}, "is_reserved": 0, "is_disabled": 0, "type": "electric_scooter", "bike_id": "c87d8ff5cda605b361493a82ca03a7a1"}, {"lon": -77.043535, "lat": 38.9110745, "name": "03347cacd73743442abcb39272353407", "fusion_lat": 0.0, "fusion_lon": 0.0, "rental_uris": {"android": "https://dc.lft.to/lastmile_qr_scan", "ios": "https://dc.lft.to/lastmile_qr_scan"}, "is_reserved": 0, "is_disabled": 0, "type": "electric_scooter", "bike_id": "03347cacd73743442abcb39272353407"}, {"lon": -77.04263483333334, "lat": 38.917057666666665, "name": "25f4e095caaee9701afe131351dff545", "fusion_lat": 0.0, "fusion_lon": 0.0, "rental_uris": {"android": "https://dc.lft.to/lastmile_qr_scan", "ios": "https://dc.lft.to/lastmile_qr_scan"}, "is_reserved": 0, "is_disabled": 0, "type": "electric_scooter", "bike_id": "25f4e095caaee9701afe131351dff545"}, {"lon": -77.01436333333334, "lat": 38.929934833333334, "name": "9cc4a0295420ed4392832ecfc166a110", "fusion_lat": 0.0, "fusion_lon": 0.0, "rental_uris": {"android": "https://dc.lft.to/lastmile_qr_scan", "ios": "https://dc.lft.to/lastmile_qr_scan"}, "is_reserved": 0, "is_disabled": 0, "type": "electric_scooter", "bike_id": "9cc4a0295420ed4392832ecfc166a110"}, {"lon": -77.028351, "lat": 38.8877, "name": "d48bdc3884f0f25f5eb9109dc410bb1a", "fusion_lat": 0.0, "fusion_lon": 0.0, "rental_uris": {"android": "https://dc.lft.to/lastmile_qr_scan", "ios": "https://dc.lft.to/lastmile_qr_scan"}, "is_reserved": 0, "is_disabled": 0, "type": "electric_scooter", "bike_id": "d48bdc3884f0f25f5eb9109dc410bb1a"}, {"lon": -77.03958733333333, "lat": 38.903721, "name": "cb5b25e0d1ee3511cb43aafdd1873f45", "fusion_lat": 0.0, "fusion_lon": 0.0, "rental_uris": {"android": "https://dc.lft.to/lastmile_qr_scan", "ios": "https://dc.lft.to/lastmile_qr_scan"}, "is_reserved": 0, "is_disabled": 0, "type": "electric_scooter", "bike_id": "cb5b25e0d1ee3511cb43aafdd1873f45"}, {"lon": -77.05622733333334, "lat": 38.92419783333333, "name": "674b0299f5e62313abc9a1c95ee7d7f5", "fusion_lat": 0.0, "fusion_lon": 0.0, "rental_uris": {"android": "https://dc.lft.to/lastmile_qr_scan", "ios": "https://dc.lft.to/lastmile_qr_scan"}, "is_reserved": 0, "is_disabled": 0, "type": "electric_scooter", "bike_id": "674b0299f5e62313abc9a1c95ee7d7f5"}, {"lon": -77.03502116666667, "lat": 38.921416, "name": "5bcdad7ad2f985e8e4bf3f67b997319f", "fusion_lat": 0.0, "fusion_lon": 0.0, "rental_uris": {"android": "https://dc.lft.to/lastmile_qr_scan", "ios": "https://dc.lft.to/lastmile_qr_scan"}, "is_reserved": 0, "is_disabled": 0, "type": "electric_scooter", "bike_id": "5bcdad7ad2f985e8e4bf3f67b997319f"}, {"lon": -77.0429215, "lat": 38.92297466666667, "name": "22b2dc06e5e5224e9f97da7611f63854", "fusion_lat": 0.0, "fusion_lon": 0.0, "rental_uris": {"android": "https://dc.lft.to/lastmile_qr_scan", "ios": "https://dc.lft.to/lastmile_qr_scan"}, "is_reserved": 0, "is_disabled": 0, "type": "electric_scooter", "bike_id": "22b2dc06e5e5224e9f97da7611f63854"}, {"lon": -77.09198433333333, "lat": 38.917104333333334, "name": "c7197c7a53274494a2e97c60f684d73d", "fusion_lat": 0.0, "fusion_lon": 0.0, "rental_uris": {"android": "https://dc.lft.to/lastmile_qr_scan", "ios": "https://dc.lft.to/lastmile_qr_scan"}, "is_reserved": 0, "is_disabled": 0, "type": "electric_scooter", "bike_id": "c7197c7a53274494a2e97c60f684d73d"}, {"lon": -77.03264816666666, "lat": 38.938203, "name": "22cc6df8665397fd90fd558c0b5a2106", "fusion_lat": 0.0, "fusion_lon": 0.0, "rental_uris": {"android": "https://dc.lft.to/lastmile_qr_scan", "ios": "https://dc.lft.to/lastmile_qr_scan"}, "is_reserved": 0, "is_disabled": 0, "type": "electric_scooter", "bike_id": "22cc6df8665397fd90fd558c0b5a2106"}, {"lon": -77.02692283333333, "lat": 38.91269366666667, "name": "5b95913c1ad90b970d91750d596aff16", "fusion_lat": 0.0, "fusion_lon": 0.0, "rental_uris": {"android": "https://dc.lft.to/lastmile_qr_scan", "ios": "https://dc.lft.to/lastmile_qr_scan"}, "is_reserved": 0, "is_disabled": 0, "type": "electric_scooter", "bike_id": "5b95913c1ad90b970d91750d596aff16"}, {"lon": -77.03252, "lat": 38.95938066666667, "name": "d3514cb2224e46bbc6f8360e3f007213", "fusion_lat": 0.0, "fusion_lon": 0.0, "rental_uris": {"android": "https://dc.lft.to/lastmile_qr_scan", "ios": "https://dc.lft.to/lastmile_qr_scan"}, "is_reserved": 0, "is_disabled": 0, "type": "electric_scooter", "bike_id": "d3514cb2224e46bbc6f8360e3f007213"}, {"lon": -77.032924, "lat": 38.95637033333333, "name": "2302c7be6c9f55e741e474bc678bcd38", "fusion_lat": 0.0, "fusion_lon": 0.0, "rental_uris": {"android": "https://dc.lft.to/lastmile_qr_scan", "ios": "https://dc.lft.to/lastmile_qr_scan"}, "is_reserved": 0, "is_disabled": 0, "type": "electric_scooter", "bike_id": "2302c7be6c9f55e741e474bc678bcd38"}, {"lon": -77.022412, "lat": 38.9111115, "name": "7d9a33db708c3d8008a218a2312c7e14", "fusion_lat": 0.0, "fusion_lon": 0.0, "rental_uris": {"android": "https://dc.lft.to/lastmile_qr_scan", "ios": "https://dc.lft.to/lastmile_qr_scan"}, "is_reserved": 0, "is_disabled": 0, "type": "electric_scooter", "bike_id": "7d9a33db708c3d8008a218a2312c7e14"}, {"lon": -77.00596116666667, "lat": 38.90617366666667, "name": "d8d7c2737392a65c2bd390acf3d29d5d", "fusion_lat": 0.0, "fusion_lon": 0.0, "rental_uris": {"android": "https://dc.lft.to/lastmile_qr_scan", "ios": "https://dc.lft.to/lastmile_qr_scan"}, "is_reserved": 0, "is_disabled": 0, "type": "electric_scooter", "bike_id": "d8d7c2737392a65c2bd390acf3d29d5d"}, {"lon": -77.04247016666666, "lat": 38.92063666666667, "name": "2fa059e961ce00b062ddb00352e4938c", "fusion_lat": 0.0, "fusion_lon": 0.0, "rental_uris": {"android": "https://dc.lft.to/lastmile_qr_scan", "ios": "https://dc.lft.to/lastmile_qr_scan"}, "is_reserved": 0, "is_disabled": 0, "type": "electric_scooter", "bike_id": "2fa059e961ce00b062ddb00352e4938c"}, {"lon": -77.03955816666667, "lat": 38.906046, "name": "8b26ff2396f3c6c1f51af1ea31aa3ac6", "fusion_lat": 0.0, "fusion_lon": 0.0, "rental_uris": {"android": "https://dc.lft.to/lastmile_qr_scan", "ios": "https://dc.lft.to/lastmile_qr_scan"}, "is_reserved": 0, "is_disabled": 0, "type": "electric_scooter", "bike_id": "8b26ff2396f3c6c1f51af1ea31aa3ac6"}, {"lon": -77.02769933333333, "lat": 38.892004, "name": "72b735c5e9eb648351ce9f9235f9612b", "fusion_lat": 0.0, "fusion_lon": 0.0, "rental_uris": {"android": "https://dc.lft.to/lastmile_qr_scan", "ios": "https://dc.lft.to/lastmile_qr_scan"}, "is_reserved": 0, "is_disabled": 0, "type": "electric_scooter", "bike_id": "72b735c5e9eb648351ce9f9235f9612b"}, {"lon": -77.026955, "lat": 38.9182645, "name": "41dd88deb1cb3812b5becdfa6961c235", "fusion_lat": 0.0, "fusion_lon": 0.0, "rental_uris": {"android": "https://dc.lft.to/lastmile_qr_scan", "ios": "https://dc.lft.to/lastmile_qr_scan"}, "is_reserved": 0, "is_disabled": 0, "type": "electric_scooter", "bike_id": "41dd88deb1cb3812b5becdfa6961c235"}, {"lon": -77.04590333333333, "lat": 38.896082666666665, "name": "089422d9832347cfec9a893c30ffdcca", "fusion_lat": 0.0, "fusion_lon": 0.0, "rental_uris": {"android": "https://dc.lft.to/lastmile_qr_scan", "ios": "https://dc.lft.to/lastmile_qr_scan"}, "is_reserved": 0, "is_disabled": 0, "type": "electric_scooter", "bike_id": "089422d9832347cfec9a893c30ffdcca"}, {"lon": -76.99870233333333, "lat": 38.900316, "name": "fedd1848baa5fe4df22875a3cf362767", "fusion_lat": 0.0, "fusion_lon": 0.0, "rental_uris": {"android": "https://dc.lft.to/lastmile_qr_scan", "ios": "https://dc.lft.to/lastmile_qr_scan"}, "is_reserved": 0, "is_disabled": 0, "type": "electric_scooter", "bike_id": "fedd1848baa5fe4df22875a3cf362767"}, {"lon": -77.01080533333334, "lat": 38.9565525, "name": "22c65f9d8200c182ce02811bd49eb0a1", "fusion_lat": 0.0, "fusion_lon": 0.0, "rental_uris": {"android": "https://dc.lft.to/lastmile_qr_scan", "ios": "https://dc.lft.to/lastmile_qr_scan"}, "is_reserved": 0, "is_disabled": 0, "type": "electric_bike", "bike_id": "22c65f9d8200c182ce02811bd49eb0a1"}, {"lon": -77.06394483333334, "lat": 38.92909433333333, "name": "be1478b4d6fd8f5e5ec485d3d9ce2462", "fusion_lat": 0.0, "fusion_lon": 0.0, "rental_uris": {"android": "https://dc.lft.to/lastmile_qr_scan", "ios": "https://dc.lft.to/lastmile_qr_scan"}, "is_reserved": 0, "is_disabled": 0, "type": "electric_scooter", "bike_id": "be1478b4d6fd8f5e5ec485d3d9ce2462"}, {"lon": -76.97625583333334, "lat": 38.892857, "name": "fa4854495753612a0d897ec610ff1684", "fusion_lat": 0.0, "fusion_lon": 0.0, "rental_uris": {"android": "https://dc.lft.to/lastmile_qr_scan", "ios": "https://dc.lft.to/lastmile_qr_scan"}, "is_reserved": 0, "is_disabled": 0, "type": "electric_bike", "bike_id": "fa4854495753612a0d897ec610ff1684"}, {"lon": -77.01755733333333, "lat": 38.90034416666667, "name": "327390577bd4144704e0deec3ee736d2", "fusion_lat": 0.0, "fusion_lon": 0.0, "rental_uris": {"android": "https://dc.lft.to/lastmile_qr_scan", "ios": "https://dc.lft.to/lastmile_qr_scan"}, "is_reserved": 0, "is_disabled": 0, "type": "electric_scooter", "bike_id": "327390577bd4144704e0deec3ee736d2"}, {"lon": -77.0402545, "lat": 38.904679, "name": "d918f281952639329d26bceaad549add", "fusion_lat": 0.0, "fusion_lon": 0.0, "rental_uris": {"android": "https://dc.lft.to/lastmile_qr_scan", "ios": "https://dc.lft.to/lastmile_qr_scan"}, "is_reserved": 0, "is_disabled": 0, "type": "electric_scooter", "bike_id": "d918f281952639329d26bceaad549add"}, {"lon": -77.02318533333333, "lat": 38.90908833333334, "name": "265e727bdfaea57a53e816eb7402834d", "fusion_lat": 0.0, "fusion_lon": 0.0, "rental_uris": {"android": "https://dc.lft.to/lastmile_qr_scan", "ios": "https://dc.lft.to/lastmile_qr_scan"}, "is_reserved": 0, "is_disabled": 0, "type": "electric_scooter", "bike_id": "265e727bdfaea57a53e816eb7402834d"}, {"lon": -77.039146, "lat": 38.923332333333335, "name": "9ca48b89e9c4a2f29b355b549cd6ea68", "fusion_lat": 0.0, "fusion_lon": 0.0, "rental_uris": {"android": "https://dc.lft.to/lastmile_qr_scan", "ios": "https://dc.lft.to/lastmile_qr_scan"}, "is_reserved": 0, "is_disabled": 0, "type": "electric_scooter", "bike_id": "9ca48b89e9c4a2f29b355b549cd6ea68"}, {"lon": -77.0430655, "lat": 38.922598666666666, "name": "1a49989bf3c426505d7183ad904ea512", "fusion_lat": 0.0, "fusion_lon": 0.0, "rental_uris": {"android": "https://dc.lft.to/lastmile_qr_scan", "ios": "https://dc.lft.to/lastmile_qr_scan"}, "is_reserved": 0, "is_disabled": 0, "type": "electric_scooter", "bike_id": "1a49989bf3c426505d7183ad904ea512"}, {"lon": -76.990088, "lat": 38.8650905, "name": "adc1ab6809c1574aab1318d839b193f2", "fusion_lat": 0.0, "fusion_lon": 0.0, "rental_uris": {"android": "https://dc.lft.to/lastmile_qr_scan", "ios": "https://dc.lft.to/lastmile_qr_scan"}, "is_reserved": 0, "is_disabled": 0, "type": "electric_scooter", "bike_id": "adc1ab6809c1574aab1318d839b193f2"}, {"lon": -77.03918833333333, "lat": 38.911139, "name": "ecb545240b7cc653a8a1c1c8a918e1de", "fusion_lat": 0.0, "fusion_lon": 0.0, "rental_uris": {"android": "https://dc.lft.to/lastmile_qr_scan", "ios": "https://dc.lft.to/lastmile_qr_scan"}, "is_reserved": 0, "is_disabled": 0, "type": "electric_scooter", "bike_id": "ecb545240b7cc653a8a1c1c8a918e1de"}, {"lon": -77.04866916666667, "lat": 38.901674666666665, "name": "20ac6121dd8da4050aa2f77af898f63e", "fusion_lat": 0.0, "fusion_lon": 0.0, "rental_uris": {"android": "https://dc.lft.to/lastmile_qr_scan", "ios": "https://dc.lft.to/lastmile_qr_scan"}, "is_reserved": 0, "is_disabled": 0, "type": "electric_scooter", "bike_id": "20ac6121dd8da4050aa2f77af898f63e"}, {"lon": -76.9907475, "lat": 38.86048516666666, "name": "52d6f3b7ab5739c20f79d1ff069ef1c2", "fusion_lat": 0.0, "fusion_lon": 0.0, "rental_uris": {"android": "https://dc.lft.to/lastmile_qr_scan", "ios": "https://dc.lft.to/lastmile_qr_scan"}, "is_reserved": 0, "is_disabled": 0, "type": "electric_scooter", "bike_id": "52d6f3b7ab5739c20f79d1ff069ef1c2"}, {"lon": -77.02397766666667, "lat": 38.91674616666667, "name": "bd789bc76406791329277afbeba706c5", "fusion_lat": 0.0, "fusion_lon": 0.0, "rental_uris": {"android": "https://dc.lft.to/lastmile_qr_scan", "ios": "https://dc.lft.to/lastmile_qr_scan"}, "is_reserved": 0, "is_disabled": 0, "type": "electric_scooter", "bike_id": "bd789bc76406791329277afbeba706c5"}, {"lon": -76.99973383333334, "lat": 38.83839733333333, "name": "0c2bb4ad4d2dbbc7626f9dde35dfcc74", "fusion_lat": 0.0, "fusion_lon": 0.0, "rental_uris": {"android": "https://dc.lft.to/lastmile_qr_scan", "ios": "https://dc.lft.to/lastmile_qr_scan"}, "is_reserved": 0, "is_disabled": 0, "type": "electric_scooter", "bike_id": "0c2bb4ad4d2dbbc7626f9dde35dfcc74"}, {"lon": -76.9718835, "lat": 38.91263566666667, "name": "1062f7ddb38ca9eef02ea38bed99b137", "fusion_lat": 0.0, "fusion_lon": 0.0, "rental_uris": {"android": "https://dc.lft.to/lastmile_qr_scan", "ios": "https://dc.lft.to/lastmile_qr_scan"}, "is_reserved": 0, "is_disabled": 0, "type": "electric_scooter", "bike_id": "1062f7ddb38ca9eef02ea38bed99b137"}, {"lon": -77.0322415, "lat": 38.900409333333336, "name": "39bbdcb9a71cd7e8159ac4bbd396880a", "fusion_lat": 0.0, "fusion_lon": 0.0, "rental_uris": {"android": "https://dc.lft.to/lastmile_qr_scan", "ios": "https://dc.lft.to/lastmile_qr_scan"}, "is_reserved": 0, "is_disabled": 0, "type": "electric_scooter", "bike_id": "39bbdcb9a71cd7e8159ac4bbd396880a"}, {"lon": -76.99036916666667, "lat": 38.85870216666667, "name": "92c6666a3f6ec19b1f0e71eaf88b4c38", "fusion_lat": 0.0, "fusion_lon": 0.0, "rental_uris": {"android": "https://dc.lft.to/lastmile_qr_scan", "ios": "https://dc.lft.to/lastmile_qr_scan"}, "is_reserved": 0, "is_disabled": 0, "type": "electric_scooter", "bike_id": "92c6666a3f6ec19b1f0e71eaf88b4c38"}, {"lon": -77.04396883333334, "lat": 38.9228005, "name": "de0f70f44f88a91bda45a72b48d98180", "fusion_lat": 0.0, "fusion_lon": 0.0, "rental_uris": {"android": "https://dc.lft.to/lastmile_qr_scan", "ios": "https://dc.lft.to/lastmile_qr_scan"}, "is_reserved": 0, "is_disabled": 0, "type": "electric_scooter", "bike_id": "de0f70f44f88a91bda45a72b48d98180"}, {"lon": -77.02403033333333, "lat": 38.887392166666665, "name": "f18b8dcbebb75c298c118d59b2483a69", "fusion_lat": 0.0, "fusion_lon": 0.0, "rental_uris": {"android": "https://dc.lft.to/lastmile_qr_scan", "ios": "https://dc.lft.to/lastmile_qr_scan"}, "is_reserved": 0, "is_disabled": 0, "type": "electric_scooter", "bike_id": "f18b8dcbebb75c298c118d59b2483a69"}, {"lon": -77.10925266666666, "lat": 39.052044, "name": "978aee70954fb6b2d5705ada349d1785", "fusion_lat": 0.0, "fusion_lon": 0.0, "rental_uris": {"android": "https://dc.lft.to/lastmile_qr_scan", "ios": "https://dc.lft.to/lastmile_qr_scan"}, "is_reserved": 0, "is_disabled": 0, "type": "electric_bike", "bike_id": "978aee70954fb6b2d5705ada349d1785"}, {"lon": -77.02225316666667, "lat": 38.88629, "name": "5afc91554d9c468ecc0cf673e82d471e", "fusion_lat": 0.0, "fusion_lon": 0.0, "rental_uris": {"android": "https://dc.lft.to/lastmile_qr_scan", "ios": "https://dc.lft.to/lastmile_qr_scan"}, "is_reserved": 0, "is_disabled": 0, "type": "electric_bike", "bike_id": "5afc91554d9c468ecc0cf673e82d471e"}, {"lon": -77.01824283333333, "lat": 38.908111166666664, "name": "c4622f74057433313ec6894da81466b2", "fusion_lat": 0.0, "fusion_lon": 0.0, "rental_uris": {"android": "https://dc.lft.to/lastmile_qr_scan", "ios": "https://dc.lft.to/lastmile_qr_scan"}, "is_reserved": 0, "is_disabled": 0, "type": "electric_scooter", "bike_id": "c4622f74057433313ec6894da81466b2"}, {"lon": -77.01075383333334, "lat": 38.871098833333335, "name": "cf9077a183884a6dec99d9cb5c3a456d", "fusion_lat": 0.0, "fusion_lon": 0.0, "rental_uris": {"android": "https://dc.lft.to/lastmile_qr_scan", "ios": "https://dc.lft.to/lastmile_qr_scan"}, "is_reserved": 0, "is_disabled": 0, "type": "electric_scooter", "bike_id": "cf9077a183884a6dec99d9cb5c3a456d"}, {"lon": -77.02311433333334, "lat": 38.88735, "name": "a3ce7ba503b5e712bb70213eb815fd82", "fusion_lat": 0.0, "fusion_lon": 0.0, "rental_uris": {"android": "https://dc.lft.to/lastmile_qr_scan", "ios": "https://dc.lft.to/lastmile_qr_scan"}, "is_reserved": 0, "is_disabled": 0, "type": "electric_scooter", "bike_id": "a3ce7ba503b5e712bb70213eb815fd82"}, {"lon": -77.00091416666666, "lat": 38.87374233333333, "name": "97268a2d94756555b23d781abd2612ec", "fusion_lat": 0.0, "fusion_lon": 0.0, "rental_uris": {"android": "https://dc.lft.to/lastmile_qr_scan", "ios": "https://dc.lft.to/lastmile_qr_scan"}, "is_reserved": 0, "is_disabled": 0, "type": "electric_scooter", "bike_id": "97268a2d94756555b23d781abd2612ec"}, {"lon": -76.97611516666667, "lat": 38.9131235, "name": "388927aca5194e64fe5fb6f0ee755807", "fusion_lat": 0.0, "fusion_lon": 0.0, "rental_uris": {"android": "https://dc.lft.to/lastmile_qr_scan", "ios": "https://dc.lft.to/lastmile_qr_scan"}, "is_reserved": 0, "is_disabled": 0, "type": "electric_bike", "bike_id": "388927aca5194e64fe5fb6f0ee755807"}, {"lon": -77.003452, "lat": 38.89162133333333, "name": "a79db74e29980172956a3bc14c92f752", "fusion_lat": 0.0, "fusion_lon": 0.0, "rental_uris": {"android": "https://dc.lft.to/lastmile_qr_scan", "ios": "https://dc.lft.to/lastmile_qr_scan"}, "is_reserved": 0, "is_disabled": 0, "type": "electric_scooter", "bike_id": "a79db74e29980172956a3bc14c92f752"}, {"lon": -77.02677683333333, "lat": 38.932164666666665, "name": "bd1e2d153506efad13e11afc316c94c6", "fusion_lat": 0.0, "fusion_lon": 0.0, "rental_uris": {"android": "https://dc.lft.to/lastmile_qr_scan", "ios": "https://dc.lft.to/lastmile_qr_scan"}, "is_reserved": 0, "is_disabled": 0, "type": "electric_scooter", "bike_id": "bd1e2d153506efad13e11afc316c94c6"}, {"lon": -77.19908883333333, "lat": 38.87531083333333, "name": "4a3ea30b1e79c32012220478831f3371", "fusion_lat": 0.0, "fusion_lon": 0.0, "rental_uris": {"android": "https://dc.lft.to/lastmile_qr_scan", "ios": "https://dc.lft.to/lastmile_qr_scan"}, "is_reserved": 0, "is_disabled": 0, "type": "electric_bike", "bike_id": "4a3ea30b1e79c32012220478831f3371"}, {"lon": -77.07653483333333, "lat": 38.910814333333335, "name": "3d370a7ebee101e48c94a46ec1de9e05", "fusion_lat": 0.0, "fusion_lon": 0.0, "rental_uris": {"android": "https://dc.lft.to/lastmile_qr_scan", "ios": "https://dc.lft.to/lastmile_qr_scan"}, "is_reserved": 0, "is_disabled": 0, "type": "electric_scooter", "bike_id": "3d370a7ebee101e48c94a46ec1de9e05"}, {"lon": -77.00653183333333, "lat": 38.908597666666665, "name": "92a4fe461b4ef35a859c5e5b234b96f9", "fusion_lat": 0.0, "fusion_lon": 0.0, "rental_uris": {"android": "https://dc.lft.to/lastmile_qr_scan", "ios": "https://dc.lft.to/lastmile_qr_scan"}, "is_reserved": 0, "is_disabled": 0, "type": "electric_scooter", "bike_id": "92a4fe461b4ef35a859c5e5b234b96f9"}, {"lon": -77.068315, "lat": 38.91181133333333, "name": "6444c239f1d5bada1a9a62f9b5880c2b", "fusion_lat": 0.0, "fusion_lon": 0.0, "rental_uris": {"android": "https://dc.lft.to/lastmile_qr_scan", "ios": "https://dc.lft.to/lastmile_qr_scan"}, "is_reserved": 0, "is_disabled": 0, "type": "electric_scooter", "bike_id": "6444c239f1d5bada1a9a62f9b5880c2b"}, {"lon": -77.0363955, "lat": 38.94916533333333, "name": "4d0d0f071661a1f6d206fd996b63641c", "fusion_lat": 0.0, "fusion_lon": 0.0, "rental_uris": {"android": "https://dc.lft.to/lastmile_qr_scan", "ios": "https://dc.lft.to/lastmile_qr_scan"}, "is_reserved": 0, "is_disabled": 0, "type": "electric_scooter", "bike_id": "4d0d0f071661a1f6d206fd996b63641c"}, {"lon": -77.05377066666667, "lat": 38.923360833333334, "name": "53577f22ec83aae44e4f6c8448c81f62", "fusion_lat": 0.0, "fusion_lon": 0.0, "rental_uris": {"android": "https://dc.lft.to/lastmile_qr_scan", "ios": "https://dc.lft.to/lastmile_qr_scan"}, "is_reserved": 0, "is_disabled": 0, "type": "electric_scooter", "bike_id": "53577f22ec83aae44e4f6c8448c81f62"}, {"lon": -77.14988483333333, "lat": 39.09459866666667, "name": "54a0af154a7eefbb8c47446062b4a2a6", "fusion_lat": 0.0, "fusion_lon": 0.0, "rental_uris": {"android": "https://dc.lft.to/lastmile_qr_scan", "ios": "https://dc.lft.to/lastmile_qr_scan"}, "is_reserved": 0, "is_disabled": 0, "type": "electric_bike", "bike_id": "54a0af154a7eefbb8c47446062b4a2a6"}, {"lon": -77.09040833333333, "lat": 38.841161166666666, "name": "8c16e09efaae7dc4e9f88be132148d7d", "fusion_lat": 0.0, "fusion_lon": 0.0, "rental_uris": {"android": "https://dc.lft.to/lastmile_qr_scan", "ios": "https://dc.lft.to/lastmile_qr_scan"}, "is_reserved": 0, "is_disabled": 0, "type": "electric_bike", "bike_id": "8c16e09efaae7dc4e9f88be132148d7d"}, {"lon": -77.03861166666667, "lat": 38.93213216666667, "name": "2d02e2d76e2eee051ff3e902f6ff38e1", "fusion_lat": 0.0, "fusion_lon": 0.0, "rental_uris": {"android": "https://dc.lft.to/lastmile_qr_scan", "ios": "https://dc.lft.to/lastmile_qr_scan"}, "is_reserved": 0, "is_disabled": 0, "type": "electric_scooter", "bike_id": "2d02e2d76e2eee051ff3e902f6ff38e1"}, {"lon": -77.062826, "lat": 38.904618666666664, "name": "8a64b3f4a53437202ef94b09982eb4ff", "fusion_lat": 0.0, "fusion_lon": 0.0, "rental_uris": {"android": "https://dc.lft.to/lastmile_qr_scan", "ios": "https://dc.lft.to/lastmile_qr_scan"}, "is_reserved": 0, "is_disabled": 0, "type": "electric_scooter", "bike_id": "8a64b3f4a53437202ef94b09982eb4ff"}, {"lon": -77.018403, "lat": 38.913461833333336, "name": "d96b78458fd0b636a88439a177593fc5", "fusion_lat": 0.0, "fusion_lon": 0.0, "rental_uris": {"android": "https://dc.lft.to/lastmile_qr_scan", "ios": "https://dc.lft.to/lastmile_qr_scan"}, "is_reserved": 0, "is_disabled": 0, "type": "electric_scooter", "bike_id": "d96b78458fd0b636a88439a177593fc5"}, {"lon": -77.02197516666666, "lat": 38.916894, "name": "eb78f417f2156f66278d26be8cd12206", "fusion_lat": 0.0, "fusion_lon": 0.0, "rental_uris": {"android": "https://dc.lft.to/lastmile_qr_scan", "ios": "https://dc.lft.to/lastmile_qr_scan"}, "is_reserved": 0, "is_disabled": 0, "type": "electric_scooter", "bike_id": "eb78f417f2156f66278d26be8cd12206"}, {"lon": -77.0334885, "lat": 38.928752, "name": "1a6d4c2a805af52e1b35da7ca27dd508", "fusion_lat": 0.0, "fusion_lon": 0.0, "rental_uris": {"android": "https://dc.lft.to/lastmile_qr_scan", "ios": "https://dc.lft.to/lastmile_qr_scan"}, "is_reserved": 0, "is_disabled": 0, "type": "electric_scooter", "bike_id": "1a6d4c2a805af52e1b35da7ca27dd508"}, {"lon": -76.98126916666666, "lat": 38.891962, "name": "05f72e6ecf5885c8971ce27aa375499e", "fusion_lat": 0.0, "fusion_lon": 0.0, "rental_uris": {"android": "https://dc.lft.to/lastmile_qr_scan", "ios": "https://dc.lft.to/lastmile_qr_scan"}, "is_reserved": 0, "is_disabled": 0, "type": "electric_scooter", "bike_id": "05f72e6ecf5885c8971ce27aa375499e"}, {"lon": -77.04224583333334, "lat": 38.91111033333333, "name": "ff7128e5304ef9e169c2be4100c07778", "fusion_lat": 0.0, "fusion_lon": 0.0, "rental_uris": {"android": "https://dc.lft.to/lastmile_qr_scan", "ios": "https://dc.lft.to/lastmile_qr_scan"}, "is_reserved": 0, "is_disabled": 0, "type": "electric_scooter", "bike_id": "ff7128e5304ef9e169c2be4100c07778"}, {"lon": -76.99500583333334, "lat": 38.862451666666665, "name": "8fe65b09f66349afcfaf7e23e8a55f83", "fusion_lat": 0.0, "fusion_lon": 0.0, "rental_uris": {"android": "https://dc.lft.to/lastmile_qr_scan", "ios": "https://dc.lft.to/lastmile_qr_scan"}, "is_reserved": 0, "is_disabled": 0, "type": "electric_scooter", "bike_id": "8fe65b09f66349afcfaf7e23e8a55f83"}, {"lon": -76.95521016666666, "lat": 38.890574666666666, "name": "24279662d520f32cbd0ab162aa258103", "fusion_lat": 0.0, "fusion_lon": 0.0, "rental_uris": {"android": "https://dc.lft.to/lastmile_qr_scan", "ios": "https://dc.lft.to/lastmile_qr_scan"}, "is_reserved": 0, "is_disabled": 0, "type": "electric_scooter", "bike_id": "24279662d520f32cbd0ab162aa258103"}, {"lon": -77.02188933333333, "lat": 38.9113525, "name": "247f3080acda916288765740752c8a19", "fusion_lat": 0.0, "fusion_lon": 0.0, "rental_uris": {"android": "https://dc.lft.to/lastmile_qr_scan", "ios": "https://dc.lft.to/lastmile_qr_scan"}, "is_reserved": 0, "is_disabled": 0, "type": "electric_scooter", "bike_id": "247f3080acda916288765740752c8a19"}, {"lon": -77.07666916666666, "lat": 38.906271333333336, "name": "ed2ee2063041dbfaa478198a6fbead18", "fusion_lat": 0.0, "fusion_lon": 0.0, "rental_uris": {"android": "https://dc.lft.to/lastmile_qr_scan", "ios": "https://dc.lft.to/lastmile_qr_scan"}, "is_reserved": 0, "is_disabled": 0, "type": "electric_scooter", "bike_id": "ed2ee2063041dbfaa478198a6fbead18"}, {"lon": -77.036691, "lat": 38.9126445, "name": "6aecabbe025626e9cb13e0f5caea54fa", "fusion_lat": 0.0, "fusion_lon": 0.0, "rental_uris": {"android": "https://dc.lft.to/lastmile_qr_scan", "ios": "https://dc.lft.to/lastmile_qr_scan"}, "is_reserved": 0, "is_disabled": 0, "type": "electric_scooter", "bike_id": "6aecabbe025626e9cb13e0f5caea54fa"}, {"lon": -76.9905805, "lat": 38.90402016666667, "name": "57e9280f219cc7b245145678a43653a6", "fusion_lat": 0.0, "fusion_lon": 0.0, "rental_uris": {"android": "https://dc.lft.to/lastmile_qr_scan", "ios": "https://dc.lft.to/lastmile_qr_scan"}, "is_reserved": 0, "is_disabled": 0, "type": "electric_scooter", "bike_id": "57e9280f219cc7b245145678a43653a6"}, {"lon": -76.98555733333333, "lat": 38.868906, "name": "531a13bf0d2c2a54788eb0c9a99b8cca", "fusion_lat": 0.0, "fusion_lon": 0.0, "rental_uris": {"android": "https://dc.lft.to/lastmile_qr_scan", "ios": "https://dc.lft.to/lastmile_qr_scan"}, "is_reserved": 0, "is_disabled": 0, "type": "electric_bike", "bike_id": "531a13bf0d2c2a54788eb0c9a99b8cca"}, {"lon": -77.03188133333333, "lat": 38.89407583333333, "name": "4895889dc0a28919131bf4343ac57af7", "fusion_lat": 0.0, "fusion_lon": 0.0, "rental_uris": {"android": "https://dc.lft.to/lastmile_qr_scan", "ios": "https://dc.lft.to/lastmile_qr_scan"}, "is_reserved": 0, "is_disabled": 0, "type": "electric_scooter", "bike_id": "4895889dc0a28919131bf4343ac57af7"}, {"lon": -77.0464175, "lat": 38.89225416666667, "name": "09cb15df6724ba7a6196cd0983c31913", "fusion_lat": 0.0, "fusion_lon": 0.0, "rental_uris": {"android": "https://dc.lft.to/lastmile_qr_scan", "ios": "https://dc.lft.to/lastmile_qr_scan"}, "is_reserved": 0, "is_disabled": 0, "type": "electric_scooter", "bike_id": "09cb15df6724ba7a6196cd0983c31913"}, {"lon": -77.026935, "lat": 38.90936166666667, "name": "09ecd03d165556538484068de9de091f", "fusion_lat": 0.0, "fusion_lon": 0.0, "rental_uris": {"android": "https://dc.lft.to/lastmile_qr_scan", "ios": "https://dc.lft.to/lastmile_qr_scan"}, "is_reserved": 0, "is_disabled": 0, "type": "electric_scooter", "bike_id": "09ecd03d165556538484068de9de091f"}, {"lon": -76.946291, "lat": 38.946231, "name": "a248cc8d0a3124f8bbb4cd03b172cee5", "fusion_lat": 0.0, "fusion_lon": 0.0, "rental_uris": {"android": "https://dc.lft.to/lastmile_qr_scan", "ios": "https://dc.lft.to/lastmile_qr_scan"}, "is_reserved": 0, "is_disabled": 0, "type": "electric_bike", "bike_id": "a248cc8d0a3124f8bbb4cd03b172cee5"}, {"lon": -77.0020445, "lat": 38.90078783333333, "name": "bd6af46ed30b0a7fa6b9bae19ecb82d5", "fusion_lat": 0.0, "fusion_lon": 0.0, "rental_uris": {"android": "https://dc.lft.to/lastmile_qr_scan", "ios": "https://dc.lft.to/lastmile_qr_scan"}, "is_reserved": 0, "is_disabled": 0, "type": "electric_scooter", "bike_id": "bd6af46ed30b0a7fa6b9bae19ecb82d5"}, {"lon": -77.04503733333334, "lat": 38.907372, "name": "08a7b61d36e66a5e07398c47c954904a", "fusion_lat": 0.0, "fusion_lon": 0.0, "rental_uris": {"android": "https://dc.lft.to/lastmile_qr_scan", "ios": "https://dc.lft.to/lastmile_qr_scan"}, "is_reserved": 0, "is_disabled": 0, "type": "electric_scooter", "bike_id": "08a7b61d36e66a5e07398c47c954904a"}, {"lon": -76.9856725, "lat": 38.85584633333333, "name": "7b8b301e2d2c97f7ccb12d0f5e05a45b", "fusion_lat": 0.0, "fusion_lon": 0.0, "rental_uris": {"android": "https://dc.lft.to/lastmile_qr_scan", "ios": "https://dc.lft.to/lastmile_qr_scan"}, "is_reserved": 0, "is_disabled": 0, "type": "electric_scooter", "bike_id": "7b8b301e2d2c97f7ccb12d0f5e05a45b"}, {"lon": -77.03208433333333, "lat": 38.9171485, "name": "002c8b92d230e0e3b73d17474e00446e", "fusion_lat": 0.0, "fusion_lon": 0.0, "rental_uris": {"android": "https://dc.lft.to/lastmile_qr_scan", "ios": "https://dc.lft.to/lastmile_qr_scan"}, "is_reserved": 0, "is_disabled": 0, "type": "electric_scooter", "bike_id": "002c8b92d230e0e3b73d17474e00446e"}, {"lon": -77.06167366666666, "lat": 38.943211833333336, "name": "39309a61b872b3583b874d13845adfef", "fusion_lat": 0.0, "fusion_lon": 0.0, "rental_uris": {"android": "https://dc.lft.to/lastmile_qr_scan", "ios": "https://dc.lft.to/lastmile_qr_scan"}, "is_reserved": 0, "is_disabled": 0, "type": "electric_scooter", "bike_id": "39309a61b872b3583b874d13845adfef"}, {"lon": -77.051655, "lat": 38.9056665, "name": "92f6ff7e795d9c95b17c4f52ede92059", "fusion_lat": 0.0, "fusion_lon": 0.0, "rental_uris": {"android": "https://dc.lft.to/lastmile_qr_scan", "ios": "https://dc.lft.to/lastmile_qr_scan"}, "is_reserved": 0, "is_disabled": 0, "type": "electric_scooter", "bike_id": "92f6ff7e795d9c95b17c4f52ede92059"}, {"lon": -77.019474, "lat": 38.92416266666667, "name": "b54abb216158623f063a4da73dacc4f0", "fusion_lat": 0.0, "fusion_lon": 0.0, "rental_uris": {"android": "https://dc.lft.to/lastmile_qr_scan", "ios": "https://dc.lft.to/lastmile_qr_scan"}, "is_reserved": 0, "is_disabled": 0, "type": "electric_scooter", "bike_id": "b54abb216158623f063a4da73dacc4f0"}, {"lon": -77.0345975, "lat": 38.90867166666666, "name": "c81edd5dee8e6f001e433a05ac3389d8", "fusion_lat": 0.0, "fusion_lon": 0.0, "rental_uris": {"android": "https://dc.lft.to/lastmile_qr_scan", "ios": "https://dc.lft.to/lastmile_qr_scan"}, "is_reserved": 0, "is_disabled": 0, "type": "electric_scooter", "bike_id": "c81edd5dee8e6f001e433a05ac3389d8"}, {"lon": -77.026279, "lat": 38.900507166666664, "name": "7ef8e812f7fc9eac384ade639d6c6fdc", "fusion_lat": 0.0, "fusion_lon": 0.0, "rental_uris": {"android": "https://dc.lft.to/lastmile_qr_scan", "ios": "https://dc.lft.to/lastmile_qr_scan"}, "is_reserved": 0, "is_disabled": 0, "type": "electric_scooter", "bike_id": "7ef8e812f7fc9eac384ade639d6c6fdc"}, {"lon": -77.04197516666666, "lat": 38.90747133333333, "name": "0446ed2534fbbe7a3fec5f7d8aaa9035", "fusion_lat": 0.0, "fusion_lon": 0.0, "rental_uris": {"android": "https://dc.lft.to/lastmile_qr_scan", "ios": "https://dc.lft.to/lastmile_qr_scan"}, "is_reserved": 0, "is_disabled": 0, "type": "electric_bike", "bike_id": "0446ed2534fbbe7a3fec5f7d8aaa9035"}, {"lon": -77.00864216666666, "lat": 38.827279, "name": "6bf357daae23a458d4d342834a31db0e", "fusion_lat": 0.0, "fusion_lon": 0.0, "rental_uris": {"android": "https://dc.lft.to/lastmile_qr_scan", "ios": "https://dc.lft.to/lastmile_qr_scan"}, "is_reserved": 0, "is_disabled": 0, "type": "electric_bike", "bike_id": "6bf357daae23a458d4d342834a31db0e"}, {"lon": -77.04439716666667, "lat": 38.9008295, "name": "5bb84f6891e6d31642c71e81507c828a", "fusion_lat": 0.0, "fusion_lon": 0.0, "rental_uris": {"android": "https://dc.lft.to/lastmile_qr_scan", "ios": "https://dc.lft.to/lastmile_qr_scan"}, "is_reserved": 0, "is_disabled": 0, "type": "electric_scooter", "bike_id": "5bb84f6891e6d31642c71e81507c828a"}, {"lon": -77.07273416666666, "lat": 38.934835, "name": "ded7d92cc60cd8c630f0f912232443a4", "fusion_lat": 0.0, "fusion_lon": 0.0, "rental_uris": {"android": "https://dc.lft.to/lastmile_qr_scan", "ios": "https://dc.lft.to/lastmile_qr_scan"}, "is_reserved": 0, "is_disabled": 0, "type": "electric_scooter", "bike_id": "ded7d92cc60cd8c630f0f912232443a4"}, {"lon": -77.05318833333334, "lat": 38.902680833333335, "name": "23e24e2540659084a300fa62bc276e45", "fusion_lat": 0.0, "fusion_lon": 0.0, "rental_uris": {"android": "https://dc.lft.to/lastmile_qr_scan", "ios": "https://dc.lft.to/lastmile_qr_scan"}, "is_reserved": 0, "is_disabled": 0, "type": "electric_scooter", "bike_id": "23e24e2540659084a300fa62bc276e45"}, {"lon": -77.02573, "lat": 38.88748666666667, "name": "9ef96ffc38231a4440451a5ed08dd2be", "fusion_lat": 0.0, "fusion_lon": 0.0, "rental_uris": {"android": "https://dc.lft.to/lastmile_qr_scan", "ios": "https://dc.lft.to/lastmile_qr_scan"}, "is_reserved": 0, "is_disabled": 0, "type": "electric_scooter", "bike_id": "9ef96ffc38231a4440451a5ed08dd2be"}, {"lon": -76.93567916666666, "lat": 38.885290833333336, "name": "878ba7eab9497ef3b793f1609020f8e6", "fusion_lat": 0.0, "fusion_lon": 0.0, "rental_uris": {"android": "https://dc.lft.to/lastmile_qr_scan", "ios": "https://dc.lft.to/lastmile_qr_scan"}, "is_reserved": 0, "is_disabled": 0, "type": "electric_bike", "bike_id": "878ba7eab9497ef3b793f1609020f8e6"}, {"lon": -77.03469033333333, "lat": 38.9169725, "name": "7ee1a2a6347534f33d0bad6187689f4b", "fusion_lat": 0.0, "fusion_lon": 0.0, "rental_uris": {"android": "https://dc.lft.to/lastmile_qr_scan", "ios": "https://dc.lft.to/lastmile_qr_scan"}, "is_reserved": 0, "is_disabled": 0, "type": "electric_scooter", "bike_id": "7ee1a2a6347534f33d0bad6187689f4b"}, {"lon": -76.9802285, "lat": 38.903793666666665, "name": "11ab2ef4536c4ff39327e0e08712d9b9", "fusion_lat": 0.0, "fusion_lon": 0.0, "rental_uris": {"android": "https://dc.lft.to/lastmile_qr_scan", "ios": "https://dc.lft.to/lastmile_qr_scan"}, "is_reserved": 0, "is_disabled": 0, "type": "electric_scooter", "bike_id": "11ab2ef4536c4ff39327e0e08712d9b9"}, {"lon": -77.03002566666666, "lat": 38.934569, "name": "36b7c01ef317623818ec34f87eb85f35", "fusion_lat": 0.0, "fusion_lon": 0.0, "rental_uris": {"android": "https://dc.lft.to/lastmile_qr_scan", "ios": "https://dc.lft.to/lastmile_qr_scan"}, "is_reserved": 0, "is_disabled": 0, "type": "electric_scooter", "bike_id": "36b7c01ef317623818ec34f87eb85f35"}, {"lon": -77.00508916666666, "lat": 38.87536266666667, "name": "8470f2078760a4e40be13ff432cd96fa", "fusion_lat": 0.0, "fusion_lon": 0.0, "rental_uris": {"android": "https://dc.lft.to/lastmile_qr_scan", "ios": "https://dc.lft.to/lastmile_qr_scan"}, "is_reserved": 0, "is_disabled": 0, "type": "electric_scooter", "bike_id": "8470f2078760a4e40be13ff432cd96fa"}, {"lon": -77.04318083333334, "lat": 38.92325533333333, "name": "68387f2f194d8d101f5463247f3c949f", "fusion_lat": 0.0, "fusion_lon": 0.0, "rental_uris": {"android": "https://dc.lft.to/lastmile_qr_scan", "ios": "https://dc.lft.to/lastmile_qr_scan"}, "is_reserved": 0, "is_disabled": 0, "type": "electric_bike", "bike_id": "68387f2f194d8d101f5463247f3c949f"}, {"lon": -77.03225083333334, "lat": 38.9164885, "name": "3f86f495a10b3cad6155695f0332965a", "fusion_lat": 0.0, "fusion_lon": 0.0, "rental_uris": {"android": "https://dc.lft.to/lastmile_qr_scan", "ios": "https://dc.lft.to/lastmile_qr_scan"}, "is_reserved": 0, "is_disabled": 0, "type": "electric_scooter", "bike_id": "3f86f495a10b3cad6155695f0332965a"}, {"lon": -77.01078383333333, "lat": 38.962611333333335, "name": "69c2bb6b647434c9829ed8a2cdeffada", "fusion_lat": 0.0, "fusion_lon": 0.0, "rental_uris": {"android": "https://dc.lft.to/lastmile_qr_scan", "ios": "https://dc.lft.to/lastmile_qr_scan"}, "is_reserved": 0, "is_disabled": 0, "type": "electric_bike", "bike_id": "69c2bb6b647434c9829ed8a2cdeffada"}, {"lon": -77.03728466666666, "lat": 38.933596666666666, "name": "07361a69d22e7b24098d402973e8a42d", "fusion_lat": 0.0, "fusion_lon": 0.0, "rental_uris": {"android": "https://dc.lft.to/lastmile_qr_scan", "ios": "https://dc.lft.to/lastmile_qr_scan"}, "is_reserved": 0, "is_disabled": 0, "type": "electric_scooter", "bike_id": "07361a69d22e7b24098d402973e8a42d"}, {"lon": -77.0335835, "lat": 38.89289333333333, "name": "8d55acd8630a3d28d0625d77ac0c083a", "fusion_lat": 0.0, "fusion_lon": 0.0, "rental_uris": {"android": "https://dc.lft.to/lastmile_qr_scan", "ios": "https://dc.lft.to/lastmile_qr_scan"}, "is_reserved": 0, "is_disabled": 0, "type": "electric_scooter", "bike_id": "8d55acd8630a3d28d0625d77ac0c083a"}, {"lon": -77.017676, "lat": 38.97442516666667, "name": "6c20e02d936e8686ef6848c3cd5dff65", "fusion_lat": 0.0, "fusion_lon": 0.0, "rental_uris": {"android": "https://dc.lft.to/lastmile_qr_scan", "ios": "https://dc.lft.to/lastmile_qr_scan"}, "is_reserved": 0, "is_disabled": 0, "type": "electric_bike", "bike_id": "6c20e02d936e8686ef6848c3cd5dff65"}, {"lon": -77.0002915, "lat": 38.906830666666664, "name": "4b81fc5821550bca4876ee24bc8bef80", "fusion_lat": 0.0, "fusion_lon": 0.0, "rental_uris": {"android": "https://dc.lft.to/lastmile_qr_scan", "ios": "https://dc.lft.to/lastmile_qr_scan"}, "is_reserved": 0, "is_disabled": 0, "type": "electric_scooter", "bike_id": "4b81fc5821550bca4876ee24bc8bef80"}, {"lon": -76.98614866666667, "lat": 38.854610666666666, "name": "767e37f90d8a4496c73dffa5a2c5affc", "fusion_lat": 0.0, "fusion_lon": 0.0, "rental_uris": {"android": "https://dc.lft.to/lastmile_qr_scan", "ios": "https://dc.lft.to/lastmile_qr_scan"}, "is_reserved": 0, "is_disabled": 0, "type": "electric_scooter", "bike_id": "767e37f90d8a4496c73dffa5a2c5affc"}, {"lon": -77.05165666666667, "lat": 38.92384533333333, "name": "fe50b599a234351de615dd6202c5e981", "fusion_lat": 0.0, "fusion_lon": 0.0, "rental_uris": {"android": "https://dc.lft.to/lastmile_qr_scan", "ios": "https://dc.lft.to/lastmile_qr_scan"}, "is_reserved": 0, "is_disabled": 0, "type": "electric_scooter", "bike_id": "fe50b599a234351de615dd6202c5e981"}, {"lon": -77.00920883333333, "lat": 38.91051266666667, "name": "987ee69410225a82efa4da8d9a5b79c5", "fusion_lat": 0.0, "fusion_lon": 0.0, "rental_uris": {"android": "https://dc.lft.to/lastmile_qr_scan", "ios": "https://dc.lft.to/lastmile_qr_scan"}, "is_reserved": 0, "is_disabled": 0, "type": "electric_scooter", "bike_id": "987ee69410225a82efa4da8d9a5b79c5"}, {"lon": -77.04060716666666, "lat": 38.91771516666667, "name": "d60cde4b9fa8ec6cdb7165c753f4f33e", "fusion_lat": 0.0, "fusion_lon": 0.0, "rental_uris": {"android": "https://dc.lft.to/lastmile_qr_scan", "ios": "https://dc.lft.to/lastmile_qr_scan"}, "is_reserved": 0, "is_disabled": 0, "type": "electric_scooter", "bike_id": "d60cde4b9fa8ec6cdb7165c753f4f33e"}, {"lon": -77.06595216666666, "lat": 38.912425666666664, "name": "7eb0cbf4206f1deaf410f50e97e1b4da", "fusion_lat": 0.0, "fusion_lon": 0.0, "rental_uris": {"android": "https://dc.lft.to/lastmile_qr_scan", "ios": "https://dc.lft.to/lastmile_qr_scan"}, "is_reserved": 0, "is_disabled": 0, "type": "electric_bike", "bike_id": "7eb0cbf4206f1deaf410f50e97e1b4da"}, {"lon": -77.0283165, "lat": 38.91418383333333, "name": "781b18c5b26a880426adb7b5e2e71d14", "fusion_lat": 0.0, "fusion_lon": 0.0, "rental_uris": {"android": "https://dc.lft.to/lastmile_qr_scan", "ios": "https://dc.lft.to/lastmile_qr_scan"}, "is_reserved": 0, "is_disabled": 0, "type": "electric_scooter", "bike_id": "781b18c5b26a880426adb7b5e2e71d14"}, {"lon": -76.99838833333334, "lat": 38.83919083333333, "name": "cb7cae3e0dc52be441101db5b38c8e95", "fusion_lat": 0.0, "fusion_lon": 0.0, "rental_uris": {"android": "https://dc.lft.to/lastmile_qr_scan", "ios": "https://dc.lft.to/lastmile_qr_scan"}, "is_reserved": 0, "is_disabled": 0, "type": "electric_bike", "bike_id": "cb7cae3e0dc52be441101db5b38c8e95"}, {"lon": -77.04648333333333, "lat": 38.90955683333333, "name": "6167d6f2073719bccecf6df01d0da65c", "fusion_lat": 0.0, "fusion_lon": 0.0, "rental_uris": {"android": "https://dc.lft.to/lastmile_qr_scan", "ios": "https://dc.lft.to/lastmile_qr_scan"}, "is_reserved": 0, "is_disabled": 0, "type": "electric_scooter", "bike_id": "6167d6f2073719bccecf6df01d0da65c"}, {"lon": -77.099655, "lat": 38.857863, "name": "87afd77e876d041a014bc26a8e0cba4e", "fusion_lat": 0.0, "fusion_lon": 0.0, "rental_uris": {"android": "https://dc.lft.to/lastmile_qr_scan", "ios": "https://dc.lft.to/lastmile_qr_scan"}, "is_reserved": 0, "is_disabled": 0, "type": "electric_bike", "bike_id": "87afd77e876d041a014bc26a8e0cba4e"}, {"lon": -76.94847216666666, "lat": 38.894867833333336, "name": "a6279a1c8c434c5b8596b6c1b31474c1", "fusion_lat": 0.0, "fusion_lon": 0.0, "rental_uris": {"android": "https://dc.lft.to/lastmile_qr_scan", "ios": "https://dc.lft.to/lastmile_qr_scan"}, "is_reserved": 0, "is_disabled": 0, "type": "electric_scooter", "bike_id": "a6279a1c8c434c5b8596b6c1b31474c1"}, {"lon": -77.022705, "lat": 38.89369, "name": "997ae52565082a3681252fe80e681b42", "fusion_lat": 0.0, "fusion_lon": 0.0, "rental_uris": {"android": "https://dc.lft.to/lastmile_qr_scan", "ios": "https://dc.lft.to/lastmile_qr_scan"}, "is_reserved": 0, "is_disabled": 0, "type": "electric_scooter", "bike_id": "997ae52565082a3681252fe80e681b42"}, {"lon": -77.02550366666667, "lat": 38.89222983333333, "name": "90065d0f9f568fad12c2e61aa69425b7", "fusion_lat": 0.0, "fusion_lon": 0.0, "rental_uris": {"android": "https://dc.lft.to/lastmile_qr_scan", "ios": "https://dc.lft.to/lastmile_qr_scan"}, "is_reserved": 0, "is_disabled": 0, "type": "electric_scooter", "bike_id": "90065d0f9f568fad12c2e61aa69425b7"}, {"lon": -77.04901066666666, "lat": 38.9133355, "name": "b63cb1697a98fdeff19abc84d174111d", "fusion_lat": 0.0, "fusion_lon": 0.0, "rental_uris": {"android": "https://dc.lft.to/lastmile_qr_scan", "ios": "https://dc.lft.to/lastmile_qr_scan"}, "is_reserved": 0, "is_disabled": 0, "type": "electric_scooter", "bike_id": "b63cb1697a98fdeff19abc84d174111d"}, {"lon": -77.00497783333333, "lat": 38.89694383333333, "name": "375567751e2bbc0272005f1c8fc173ea", "fusion_lat": 0.0, "fusion_lon": 0.0, "rental_uris": {"android": "https://dc.lft.to/lastmile_qr_scan", "ios": "https://dc.lft.to/lastmile_qr_scan"}, "is_reserved": 0, "is_disabled": 0, "type": "electric_scooter", "bike_id": "375567751e2bbc0272005f1c8fc173ea"}, {"lon": -77.0201485, "lat": 38.89221216666667, "name": "ebe0ccef8921945f4163d6e1597455ff", "fusion_lat": 0.0, "fusion_lon": 0.0, "rental_uris": {"android": "https://dc.lft.to/lastmile_qr_scan", "ios": "https://dc.lft.to/lastmile_qr_scan"}, "is_reserved": 0, "is_disabled": 0, "type": "electric_scooter", "bike_id": "ebe0ccef8921945f4163d6e1597455ff"}, {"lon": -77.01292333333333, "lat": 39.0038435, "name": "058d72bfc21caff4935ef35cbe0ea6d5", "fusion_lat": 0.0, "fusion_lon": 0.0, "rental_uris": {"android": "https://dc.lft.to/lastmile_qr_scan", "ios": "https://dc.lft.to/lastmile_qr_scan"}, "is_reserved": 0, "is_disabled": 0, "type": "electric_bike", "bike_id": "058d72bfc21caff4935ef35cbe0ea6d5"}, {"lon": -77.01118316666667, "lat": 38.903578, "name": "453a19fd52bf084465e99eb6fd586ed5", "fusion_lat": 0.0, "fusion_lon": 0.0, "rental_uris": {"android": "https://dc.lft.to/lastmile_qr_scan", "ios": "https://dc.lft.to/lastmile_qr_scan"}, "is_reserved": 0, "is_disabled": 0, "type": "electric_scooter", "bike_id": "453a19fd52bf084465e99eb6fd586ed5"}, {"lon": -77.04484033333334, "lat": 38.91162466666667, "name": "95e21c28af90b6bc0affbafa0605ffb4", "fusion_lat": 0.0, "fusion_lon": 0.0, "rental_uris": {"android": "https://dc.lft.to/lastmile_qr_scan", "ios": "https://dc.lft.to/lastmile_qr_scan"}, "is_reserved": 0, "is_disabled": 0, "type": "electric_scooter", "bike_id": "95e21c28af90b6bc0affbafa0605ffb4"}, {"lon": -77.07168833333333, "lat": 38.914509333333335, "name": "a5006ba7ca0b7eaf999a75f6791242ee", "fusion_lat": 0.0, "fusion_lon": 0.0, "rental_uris": {"android": "https://dc.lft.to/lastmile_qr_scan", "ios": "https://dc.lft.to/lastmile_qr_scan"}, "is_reserved": 0, "is_disabled": 0, "type": "electric_scooter", "bike_id": "a5006ba7ca0b7eaf999a75f6791242ee"}, {"lon": -76.99800566666667, "lat": 38.90855766666667, "name": "6d51b9f5b45f8271003dcfdd00762ca0", "fusion_lat": 0.0, "fusion_lon": 0.0, "rental_uris": {"android": "https://dc.lft.to/lastmile_qr_scan", "ios": "https://dc.lft.to/lastmile_qr_scan"}, "is_reserved": 0, "is_disabled": 0, "type": "electric_scooter", "bike_id": "6d51b9f5b45f8271003dcfdd00762ca0"}, {"lon": -77.03255916666667, "lat": 38.93527016666667, "name": "078c46e35f95f255cf9db4bcc8727664", "fusion_lat": 0.0, "fusion_lon": 0.0, "rental_uris": {"android": "https://dc.lft.to/lastmile_qr_scan", "ios": "https://dc.lft.to/lastmile_qr_scan"}, "is_reserved": 0, "is_disabled": 0, "type": "electric_scooter", "bike_id": "078c46e35f95f255cf9db4bcc8727664"}, {"lon": -77.04444633333334, "lat": 38.918801333333334, "name": "64492a37e82a7d0ed86d9c9f78e16c1b", "fusion_lat": 0.0, "fusion_lon": 0.0, "rental_uris": {"android": "https://dc.lft.to/lastmile_qr_scan", "ios": "https://dc.lft.to/lastmile_qr_scan"}, "is_reserved": 0, "is_disabled": 0, "type": "electric_scooter", "bike_id": "64492a37e82a7d0ed86d9c9f78e16c1b"}, {"lon": -76.99780283333334, "lat": 38.84425516666667, "name": "623b0cd5faf767e51e185d2583acb2ae", "fusion_lat": 0.0, "fusion_lon": 0.0, "rental_uris": {"android": "https://dc.lft.to/lastmile_qr_scan", "ios": "https://dc.lft.to/lastmile_qr_scan"}, "is_reserved": 0, "is_disabled": 0, "type": "electric_scooter", "bike_id": "623b0cd5faf767e51e185d2583acb2ae"}, {"lon": -77.03281116666666, "lat": 38.90567633333333, "name": "5ad233b07e6d7392393d50e16a7782ec", "fusion_lat": 0.0, "fusion_lon": 0.0, "rental_uris": {"android": "https://dc.lft.to/lastmile_qr_scan", "ios": "https://dc.lft.to/lastmile_qr_scan"}, "is_reserved": 0, "is_disabled": 0, "type": "electric_scooter", "bike_id": "5ad233b07e6d7392393d50e16a7782ec"}, {"lon": -77.00233533333333, "lat": 38.957426, "name": "46182ce78e700541ce5767ede0146421", "fusion_lat": 0.0, "fusion_lon": 0.0, "rental_uris": {"android": "https://dc.lft.to/lastmile_qr_scan", "ios": "https://dc.lft.to/lastmile_qr_scan"}, "is_reserved": 0, "is_disabled": 0, "type": "electric_bike", "bike_id": "46182ce78e700541ce5767ede0146421"}, {"lon": -77.038587, "lat": 38.906426333333336, "name": "2ea385bd6002db97c3b8f7ec9095d79a", "fusion_lat": 0.0, "fusion_lon": 0.0, "rental_uris": {"android": "https://dc.lft.to/lastmile_qr_scan", "ios": "https://dc.lft.to/lastmile_qr_scan"}, "is_reserved": 0, "is_disabled": 0, "type": "electric_scooter", "bike_id": "2ea385bd6002db97c3b8f7ec9095d79a"}, {"lon": -76.9963345, "lat": 38.846194833333335, "name": "cd65bf4a0fcb1a65aca95a0ff185604e", "fusion_lat": 0.0, "fusion_lon": 0.0, "rental_uris": {"android": "https://dc.lft.to/lastmile_qr_scan", "ios": "https://dc.lft.to/lastmile_qr_scan"}, "is_reserved": 0, "is_disabled": 0, "type": "electric_scooter", "bike_id": "cd65bf4a0fcb1a65aca95a0ff185604e"}, {"lon": -77.04362366666666, "lat": 38.90468766666667, "name": "5abf4c3bd492185f667a05b1afc2af8b", "fusion_lat": 0.0, "fusion_lon": 0.0, "rental_uris": {"android": "https://dc.lft.to/lastmile_qr_scan", "ios": "https://dc.lft.to/lastmile_qr_scan"}, "is_reserved": 0, "is_disabled": 0, "type": "electric_scooter", "bike_id": "5abf4c3bd492185f667a05b1afc2af8b"}, {"lon": -77.01879266666667, "lat": 38.903164833333335, "name": "ec1a9e1bb61ee93ed24c0be37e4c4402", "fusion_lat": 0.0, "fusion_lon": 0.0, "rental_uris": {"android": "https://dc.lft.to/lastmile_qr_scan", "ios": "https://dc.lft.to/lastmile_qr_scan"}, "is_reserved": 0, "is_disabled": 0, "type": "electric_scooter", "bike_id": "ec1a9e1bb61ee93ed24c0be37e4c4402"}, {"lon": -77.02185683333333, "lat": 38.899225, "name": "0f4f8e74062f428a253236d95a1dda86", "fusion_lat": 0.0, "fusion_lon": 0.0, "rental_uris": {"android": "https://dc.lft.to/lastmile_qr_scan", "ios": "https://dc.lft.to/lastmile_qr_scan"}, "is_reserved": 0, "is_disabled": 0, "type": "electric_scooter", "bike_id": "0f4f8e74062f428a253236d95a1dda86"}, {"lon": -77.0277105, "lat": 38.892045833333334, "name": "73d828d8f9f1304444ba65654a7eda2a", "fusion_lat": 0.0, "fusion_lon": 0.0, "rental_uris": {"android": "https://dc.lft.to/lastmile_qr_scan", "ios": "https://dc.lft.to/lastmile_qr_scan"}, "is_reserved": 0, "is_disabled": 0, "type": "electric_scooter", "bike_id": "73d828d8f9f1304444ba65654a7eda2a"}, {"lon": -77.0228645, "lat": 38.924085166666664, "name": "8a67fc81f797cc15bb51fb3ad9d37998", "fusion_lat": 0.0, "fusion_lon": 0.0, "rental_uris": {"android": "https://dc.lft.to/lastmile_qr_scan", "ios": "https://dc.lft.to/lastmile_qr_scan"}, "is_reserved": 0, "is_disabled": 0, "type": "electric_scooter", "bike_id": "8a67fc81f797cc15bb51fb3ad9d37998"}, {"lon": -77.14126966666667, "lat": 38.8160415, "name": "d7d594d45e9fbccd89d885e66d684756", "fusion_lat": 0.0, "fusion_lon": 0.0, "rental_uris": {"android": "https://dc.lft.to/lastmile_qr_scan", "ios": "https://dc.lft.to/lastmile_qr_scan"}, "is_reserved": 0, "is_disabled": 0, "type": "electric_bike", "bike_id": "d7d594d45e9fbccd89d885e66d684756"}, {"lon": -77.0023365, "lat": 38.900556333333334, "name": "ad94e6c9c9bb45df0c42507fd5fbc2ff", "fusion_lat": 0.0, "fusion_lon": 0.0, "rental_uris": {"android": "https://dc.lft.to/lastmile_qr_scan", "ios": "https://dc.lft.to/lastmile_qr_scan"}, "is_reserved": 0, "is_disabled": 0, "type": "electric_scooter", "bike_id": "ad94e6c9c9bb45df0c42507fd5fbc2ff"}, {"lon": -77.048351, "lat": 38.900671833333334, "name": "6f6c2ae6ec9c9c76716c6991d73ce3b4", "fusion_lat": 0.0, "fusion_lon": 0.0, "rental_uris": {"android": "https://dc.lft.to/lastmile_qr_scan", "ios": "https://dc.lft.to/lastmile_qr_scan"}, "is_reserved": 0, "is_disabled": 0, "type": "electric_scooter", "bike_id": "6f6c2ae6ec9c9c76716c6991d73ce3b4"}, {"lon": -76.9375395, "lat": 38.890458333333335, "name": "744403140df8a27cd4ad39ff6dc12fa1", "fusion_lat": 0.0, "fusion_lon": 0.0, "rental_uris": {"android": "https://dc.lft.to/lastmile_qr_scan", "ios": "https://dc.lft.to/lastmile_qr_scan"}, "is_reserved": 0, "is_disabled": 0, "type": "electric_scooter", "bike_id": "744403140df8a27cd4ad39ff6dc12fa1"}, {"lon": -77.0066975, "lat": 38.874730166666666, "name": "fb8ca263ca692a3f7e36b3970afaf7b6", "fusion_lat": 0.0, "fusion_lon": 0.0, "rental_uris": {"android": "https://dc.lft.to/lastmile_qr_scan", "ios": "https://dc.lft.to/lastmile_qr_scan"}, "is_reserved": 0, "is_disabled": 0, "type": "electric_scooter", "bike_id": "fb8ca263ca692a3f7e36b3970afaf7b6"}, {"lon": -77.02216166666666, "lat": 38.9208665, "name": "fd16a1d111b260693114c40b87754d1d", "fusion_lat": 0.0, "fusion_lon": 0.0, "rental_uris": {"android": "https://dc.lft.to/lastmile_qr_scan", "ios": "https://dc.lft.to/lastmile_qr_scan"}, "is_reserved": 0, "is_disabled": 0, "type": "electric_scooter", "bike_id": "fd16a1d111b260693114c40b87754d1d"}, {"lon": -77.000419, "lat": 38.873954499999996, "name": "ba46610dc6d6fb1e3fea32a4035c7e4c", "fusion_lat": 0.0, "fusion_lon": 0.0, "rental_uris": {"android": "https://dc.lft.to/lastmile_qr_scan", "ios": "https://dc.lft.to/lastmile_qr_scan"}, "is_reserved": 0, "is_disabled": 0, "type": "electric_scooter", "bike_id": "ba46610dc6d6fb1e3fea32a4035c7e4c"}, {"lon": -77.0235575, "lat": 38.933175, "name": "ab55c0ae68ebde0cf8bd2d99ecb0034e", "fusion_lat": 0.0, "fusion_lon": 0.0, "rental_uris": {"android": "https://dc.lft.to/lastmile_qr_scan", "ios": "https://dc.lft.to/lastmile_qr_scan"}, "is_reserved": 0, "is_disabled": 0, "type": "electric_scooter", "bike_id": "ab55c0ae68ebde0cf8bd2d99ecb0034e"}, {"lon": -77.043429, "lat": 38.896667, "name": "35d89bb36ef2d88201b33c36fd061842", "fusion_lat": 0.0, "fusion_lon": 0.0, "rental_uris": {"android": "https://dc.lft.to/lastmile_qr_scan", "ios": "https://dc.lft.to/lastmile_qr_scan"}, "is_reserved": 0, "is_disabled": 0, "type": "electric_scooter", "bike_id": "35d89bb36ef2d88201b33c36fd061842"}, {"lon": -77.05178216666667, "lat": 38.924268166666664, "name": "2c00370885d8d98b03604f7f7e53db22", "fusion_lat": 0.0, "fusion_lon": 0.0, "rental_uris": {"android": "https://dc.lft.to/lastmile_qr_scan", "ios": "https://dc.lft.to/lastmile_qr_scan"}, "is_reserved": 0, "is_disabled": 0, "type": "electric_scooter", "bike_id": "2c00370885d8d98b03604f7f7e53db22"}, {"lon": -77.03654616666667, "lat": 38.936007333333336, "name": "2eba06760e129a76d2542791161a416e", "fusion_lat": 0.0, "fusion_lon": 0.0, "rental_uris": {"android": "https://dc.lft.to/lastmile_qr_scan", "ios": "https://dc.lft.to/lastmile_qr_scan"}, "is_reserved": 0, "is_disabled": 0, "type": "electric_scooter", "bike_id": "2eba06760e129a76d2542791161a416e"}, {"lon": -77.0330595, "lat": 38.89648666666667, "name": "1fbb72b062a4c0d7e70b74fcda3e0683", "fusion_lat": 0.0, "fusion_lon": 0.0, "rental_uris": {"android": "https://dc.lft.to/lastmile_qr_scan", "ios": "https://dc.lft.to/lastmile_qr_scan"}, "is_reserved": 0, "is_disabled": 0, "type": "electric_scooter", "bike_id": "1fbb72b062a4c0d7e70b74fcda3e0683"}, {"lon": -77.03842883333333, "lat": 38.912052, "name": "db6011a2f18e718e9d4db23716ea8676", "fusion_lat": 0.0, "fusion_lon": 0.0, "rental_uris": {"android": "https://dc.lft.to/lastmile_qr_scan", "ios": "https://dc.lft.to/lastmile_qr_scan"}, "is_reserved": 0, "is_disabled": 0, "type": "electric_scooter", "bike_id": "db6011a2f18e718e9d4db23716ea8676"}, {"lon": -77.00231683333334, "lat": 38.90042566666666, "name": "de5a5d56797b05fcb459fe38f0f31779", "fusion_lat": 0.0, "fusion_lon": 0.0, "rental_uris": {"android": "https://dc.lft.to/lastmile_qr_scan", "ios": "https://dc.lft.to/lastmile_qr_scan"}, "is_reserved": 0, "is_disabled": 0, "type": "electric_bike", "bike_id": "de5a5d56797b05fcb459fe38f0f31779"}, {"lon": -76.99947016666667, "lat": 38.9086675, "name": "9c3bb79bc78ecbece5bdfd78c59e5a99", "fusion_lat": 0.0, "fusion_lon": 0.0, "rental_uris": {"android": "https://dc.lft.to/lastmile_qr_scan", "ios": "https://dc.lft.to/lastmile_qr_scan"}, "is_reserved": 0, "is_disabled": 0, "type": "electric_scooter", "bike_id": "9c3bb79bc78ecbece5bdfd78c59e5a99"}, {"lon": -77.03230283333333, "lat": 38.914817, "name": "228a530d4e0b90109a5838c68a03deb2", "fusion_lat": 0.0, "fusion_lon": 0.0, "rental_uris": {"android": "https://dc.lft.to/lastmile_qr_scan", "ios": "https://dc.lft.to/lastmile_qr_scan"}, "is_reserved": 0, "is_disabled": 0, "type": "electric_scooter", "bike_id": "228a530d4e0b90109a5838c68a03deb2"}, {"lon": -77.00439633333333, "lat": 38.876666166666666, "name": "867d86e017e03e53b032a0b659c69c32", "fusion_lat": 0.0, "fusion_lon": 0.0, "rental_uris": {"android": "https://dc.lft.to/lastmile_qr_scan", "ios": "https://dc.lft.to/lastmile_qr_scan"}, "is_reserved": 0, "is_disabled": 0, "type": "electric_scooter", "bike_id": "867d86e017e03e53b032a0b659c69c32"}, {"lon": -76.98550333333333, "lat": 38.88385483333333, "name": "f0ee31f20b1ca539acd2580f92021377", "fusion_lat": 0.0, "fusion_lon": 0.0, "rental_uris": {"android": "https://dc.lft.to/lastmile_qr_scan", "ios": "https://dc.lft.to/lastmile_qr_scan"}, "is_reserved": 0, "is_disabled": 0, "type": "electric_scooter", "bike_id": "f0ee31f20b1ca539acd2580f92021377"}, {"lon": -76.99821583333333, "lat": 38.88870083333333, "name": "f7ad6c3bde3c41c25b22aad56c269009", "fusion_lat": 0.0, "fusion_lon": 0.0, "rental_uris": {"android": "https://dc.lft.to/lastmile_qr_scan", "ios": "https://dc.lft.to/lastmile_qr_scan"}, "is_reserved": 0, "is_disabled": 0, "type": "electric_scooter", "bike_id": "f7ad6c3bde3c41c25b22aad56c269009"}, {"lon": -77.0187985, "lat": 38.91187383333333, "name": "6d994f9305f92417ea5a6f6f99702ed1", "fusion_lat": 0.0, "fusion_lon": 0.0, "rental_uris": {"android": "https://dc.lft.to/lastmile_qr_scan", "ios": "https://dc.lft.to/lastmile_qr_scan"}, "is_reserved": 0, "is_disabled": 0, "type": "electric_scooter", "bike_id": "6d994f9305f92417ea5a6f6f99702ed1"}, {"lon": -77.13232216666667, "lat": 38.869728333333335, "name": "aa35a674e539427616885593fec744de", "fusion_lat": 0.0, "fusion_lon": 0.0, "rental_uris": {"android": "https://dc.lft.to/lastmile_qr_scan", "ios": "https://dc.lft.to/lastmile_qr_scan"}, "is_reserved": 0, "is_disabled": 0, "type": "electric_bike", "bike_id": "aa35a674e539427616885593fec744de"}, {"lon": -77.03661433333333, "lat": 38.92282483333334, "name": "bfabbccef7a971bec7d46ec9b8f162d9", "fusion_lat": 0.0, "fusion_lon": 0.0, "rental_uris": {"android": "https://dc.lft.to/lastmile_qr_scan", "ios": "https://dc.lft.to/lastmile_qr_scan"}, "is_reserved": 0, "is_disabled": 0, "type": "electric_scooter", "bike_id": "bfabbccef7a971bec7d46ec9b8f162d9"}, {"lon": -77.00281166666667, "lat": 38.905618833333335, "name": "98453d89ae2d7e736b6afe100a46f664", "fusion_lat": 0.0, "fusion_lon": 0.0, "rental_uris": {"android": "https://dc.lft.to/lastmile_qr_scan", "ios": "https://dc.lft.to/lastmile_qr_scan"}, "is_reserved": 0, "is_disabled": 0, "type": "electric_scooter", "bike_id": "98453d89ae2d7e736b6afe100a46f664"}, {"lon": -77.027381, "lat": 38.928519333333334, "name": "1856c97087f4a722d31a44b4c1326f10", "fusion_lat": 0.0, "fusion_lon": 0.0, "rental_uris": {"android": "https://dc.lft.to/lastmile_qr_scan", "ios": "https://dc.lft.to/lastmile_qr_scan"}, "is_reserved": 0, "is_disabled": 0, "type": "electric_scooter", "bike_id": "1856c97087f4a722d31a44b4c1326f10"}, {"lon": -77.011101, "lat": 38.9630655, "name": "0b3345db8800df5cae1b9ec84f01a545", "fusion_lat": 0.0, "fusion_lon": 0.0, "rental_uris": {"android": "https://dc.lft.to/lastmile_qr_scan", "ios": "https://dc.lft.to/lastmile_qr_scan"}, "is_reserved": 0, "is_disabled": 0, "type": "electric_bike", "bike_id": "0b3345db8800df5cae1b9ec84f01a545"}, {"lon": -77.038813, "lat": 38.91185483333334, "name": "7dfcf675ab6a47294b809062d82a38fe", "fusion_lat": 0.0, "fusion_lon": 0.0, "rental_uris": {"android": "https://dc.lft.to/lastmile_qr_scan", "ios": "https://dc.lft.to/lastmile_qr_scan"}, "is_reserved": 0, "is_disabled": 0, "type": "electric_scooter", "bike_id": "7dfcf675ab6a47294b809062d82a38fe"}, {"lon": -76.973345, "lat": 38.90482933333333, "name": "01a38a678dc16afea4f3ff0d2511d80c", "fusion_lat": 0.0, "fusion_lon": 0.0, "rental_uris": {"android": "https://dc.lft.to/lastmile_qr_scan", "ios": "https://dc.lft.to/lastmile_qr_scan"}, "is_reserved": 0, "is_disabled": 0, "type": "electric_scooter", "bike_id": "01a38a678dc16afea4f3ff0d2511d80c"}, {"lon": -77.10899116666667, "lat": 38.8304105, "name": "6df963d5e1bc0d2fee869536a7d89e08", "fusion_lat": 0.0, "fusion_lon": 0.0, "rental_uris": {"android": "https://dc.lft.to/lastmile_qr_scan", "ios": "https://dc.lft.to/lastmile_qr_scan"}, "is_reserved": 0, "is_disabled": 0, "type": "electric_bike", "bike_id": "6df963d5e1bc0d2fee869536a7d89e08"}, {"lon": -77.03201283333334, "lat": 38.89779333333333, "name": "4a0d57a5c99109aaaad3f0c5b77accf1", "fusion_lat": 0.0, "fusion_lon": 0.0, "rental_uris": {"android": "https://dc.lft.to/lastmile_qr_scan", "ios": "https://dc.lft.to/lastmile_qr_scan"}, "is_reserved": 0, "is_disabled": 0, "type": "electric_scooter", "bike_id": "4a0d57a5c99109aaaad3f0c5b77accf1"}, {"lon": -77.02580116666667, "lat": 38.89830033333333, "name": "722be38bbef37b349849a5efd6ad778e", "fusion_lat": 0.0, "fusion_lon": 0.0, "rental_uris": {"android": "https://dc.lft.to/lastmile_qr_scan", "ios": "https://dc.lft.to/lastmile_qr_scan"}, "is_reserved": 0, "is_disabled": 0, "type": "electric_scooter", "bike_id": "722be38bbef37b349849a5efd6ad778e"}, {"lon": -76.99154133333333, "lat": 38.88241816666667, "name": "80bf3e1e1ebbe713c0f5407c7f77e605", "fusion_lat": 0.0, "fusion_lon": 0.0, "rental_uris": {"android": "https://dc.lft.to/lastmile_qr_scan", "ios": "https://dc.lft.to/lastmile_qr_scan"}, "is_reserved": 0, "is_disabled": 0, "type": "electric_scooter", "bike_id": "80bf3e1e1ebbe713c0f5407c7f77e605"}, {"lon": -77.01986233333334, "lat": 38.91527383333333, "name": "cbba806018403e9cdbe8b56fa93c5670", "fusion_lat": 0.0, "fusion_lon": 0.0, "rental_uris": {"android": "https://dc.lft.to/lastmile_qr_scan", "ios": "https://dc.lft.to/lastmile_qr_scan"}, "is_reserved": 0, "is_disabled": 0, "type": "electric_scooter", "bike_id": "cbba806018403e9cdbe8b56fa93c5670"}, {"lon": -77.00136066666667, "lat": 38.904107333333336, "name": "a6cb5251d5ef6c9dc68a82a403a7edcf", "fusion_lat": 0.0, "fusion_lon": 0.0, "rental_uris": {"android": "https://dc.lft.to/lastmile_qr_scan", "ios": "https://dc.lft.to/lastmile_qr_scan"}, "is_reserved": 0, "is_disabled": 0, "type": "electric_scooter", "bike_id": "a6cb5251d5ef6c9dc68a82a403a7edcf"}, {"lon": -77.0034, "lat": 38.89527666666667, "name": "fc42e38ee6b22e65578b927f12c9d027", "fusion_lat": 0.0, "fusion_lon": 0.0, "rental_uris": {"android": "https://dc.lft.to/lastmile_qr_scan", "ios": "https://dc.lft.to/lastmile_qr_scan"}, "is_reserved": 0, "is_disabled": 0, "type": "electric_scooter", "bike_id": "fc42e38ee6b22e65578b927f12c9d027"},