{"data": {"bikes": [{"fusion_lat": 0.0, "name": "05ab183ccd34e22c5227e373a3ae2a71", "is_disabled": 0, "rental_uris": {"android": "https://dc.lft.to/lastmile_qr_scan", "ios": "https://dc.lft.to/lastmile_qr_scan"}, "fusion_lon": 0.0, "lat": 38.958844666666664, "bike_id": "05ab183ccd34e22c5227e373a3ae2a71", "type": "electric_scooter", "is_reserved": 0, "lon": -77.01168266666667}, {"fusion_lat": 0.0, "name": "3cb17a441c372a5431e6a032f069cf0d", "is_disabled": 0, "rental_uris": {"android": "https://dc.lft.to/lastmile_qr_scan", "ios": "https://dc.lft.to/lastmile_qr_scan"}, "fusion_lon": 0.0, "lat": 38.91267366666667, "bike_id": "3cb17a441c372a5431e6a032f069cf0d", "type": "electric_scooter", "is_reserved": 0, "lon": -77.01310083333334}, {"fusion_lat": 0.0, "name": "bd16cc51e239320003a88dc364b6e65e", "is_disabled": 0, "rental_uris": {"android": "https://dc.lft.to/lastmile_qr_scan", "ios": "https://dc.lft.to/lastmile_qr_scan"}, "fusion_lon": 0.0, "lat": 38.87657933333333, "bike_id": "bd16cc51e239320003a88dc364b6e65e", "type": "electric_scooter", "is_reserved": 0, "lon": -77.00920183333334}, {"fusion_lat": 0.0, "name": "4d3401c9c63381b502bdc0bcc4aae90a", "is_disabled": 0, "rental_uris": {"android": "https://dc.lft.to/lastmile_qr_scan", "ios": "https://dc.lft.to/lastmile_qr_scan"}, "fusion_lon": 0.0, "lat": 38.894861, "bike_id": "4d3401c9c63381b502bdc0bcc4aae90a", "type": "electric_scooter", "is_reserved": 0, "lon": -77.02169833333333}, {"fusion_lat": 0.0, "name": "5db25f6acfc88e424e5c98fd892bc97c", "is_disabled": 0, "rental_uris": {"android": "https://dc.lft.to/lastmile_qr_scan", "ios": "https://dc.lft.to/lastmile_qr_scan"}, "fusion_lon": 0.0, "lat": 38.882299833333335, "bike_id": "5db25f6acfc88e424e5c98fd892bc97c", "type": "electric_scooter", "is_reserved": 0, "lon": -77.02617316666667}, {"fusion_lat": 0.0, "name": "38995bb47c0bee3c9e303c0fb2bce6f5", "is_disabled": 0, "rental_uris": {"android": "https://dc.lft.to/lastmile_qr_scan", "ios": "https://dc.lft.to/lastmile_qr_scan"}, "fusion_lon": 0.0, "lat": 38.92484916666667, "bike_id": "38995bb47c0bee3c9e303c0fb2bce6f5", "type": "electric_scooter", "is_reserved": 0, "lon": -77.025284}, {"fusion_lat": 0.0, "name": "8255a91ee13b6528874cfabdc92ae288", "is_disabled": 0, "rental_uris": {"android": "https://dc.lft.to/lastmile_qr_scan", "ios": "https://dc.lft.to/lastmile_qr_scan"}, "fusion_lon": 0.0, "lat": 38.9596915, "bike_id": "8255a91ee13b6528874cfabdc92ae288", "type": "electric_bike", "is_reserved": 0, "lon": -76.98160883333334}, {"fusion_lat": 0.0, "name": "2281cfd5d17986441fb15c05240d680f", "is_disabled": 0, "rental_uris": {"android": "https://dc.lft.to/lastmile_qr_scan", "ios": "https://dc.lft.to/lastmile_qr_scan"}, "fusion_lon": 0.0, "lat": 38.90151516666667, "bike_id": "2281cfd5d17986441fb15c05240d680f", "type": "electric_scooter", "is_reserved": 0, "lon": -77.04461666666667}, {"fusion_lat": 0.0, "name": "150961a902d47c5d8dece4efccf8efbe", "is_disabled": 0, "rental_uris": {"android": "https://dc.lft.to/lastmile_qr_scan", "ios": "https://dc.lft.to/lastmile_qr_scan"}, "fusion_lon": 0.0, "lat": 38.89887, "bike_id": "150961a902d47c5d8dece4efccf8efbe", "type": "electric_scooter", "is_reserved": 0, "lon": -77.032926}, {"fusion_lat": 0.0, "name": "e88afd6c1ef5b58433decf16a78d60d4", "is_disabled": 0, "rental_uris": {"android": "https://dc.lft.to/lastmile_qr_scan", "ios": "https://dc.lft.to/lastmile_qr_scan"}, "fusion_lon": 0.0, "lat": 38.89847183333333, "bike_id": "e88afd6c1ef5b58433decf16a78d60d4", "type": "electric_scooter", "is_reserved": 0, "lon": -77.03273466666667}, {"fusion_lat": 0.0, "name": "5f672167d3635dc7c7deaeafa32f040e", "is_disabled": 0, "rental_uris": {"android": "https://dc.lft.to/lastmile_qr_scan", "ios": "https://dc.lft.to/lastmile_qr_scan"}, "fusion_lon": 0.0, "lat": 38.920862, "bike_id": "5f672167d3635dc7c7deaeafa32f040e", "type": "electric_scooter", "is_reserved": 0, "lon": -77.02724883333333}, {"fusion_lat": 0.0, "name": "f8c9e5c810d382a2b83a41d1195b4571", "is_disabled": 0, "rental_uris": {"android": "https://dc.lft.to/lastmile_qr_scan", "ios": "https://dc.lft.to/lastmile_qr_scan"}, "fusion_lon": 0.0, "lat": 38.9241805, "bike_id": "f8c9e5c810d382a2b83a41d1195b4571", "type": "electric_scooter", "is_reserved": 0, "lon": -77.01947033333333}, {"fusion_lat": 0.0, "name": "a337e196c5a8c996097d4114168b67d5", "is_disabled": 0, "rental_uris": {"android": "https://dc.lft.to/lastmile_qr_scan", "ios": "https://dc.lft.to/lastmile_qr_scan"}, "fusion_lon": 0.0, "lat": 38.95755283333333, "bike_id": "a337e196c5a8c996097d4114168b67d5", "type": "electric_bike", "is_reserved": 0, "lon": -76.98091016666666}, {"fusion_lat": 0.0, "name": "d98c9676f2b7a0aab963f0b650457d37", "is_disabled": 0, "rental_uris": {"android": "https://dc.lft.to/lastmile_qr_scan", "ios": "https://dc.lft.to/lastmile_qr_scan"}, "fusion_lon": 0.0, "lat": 38.93582116666666, "bike_id": "d98c9676f2b7a0aab963f0b650457d37", "type": "electric_scooter", "is_reserved": 0, "lon": -77.05816883333334}, {"fusion_lat": 0.0, "name": "7afbcffac8a1112d46b355be9f8ef98c", "is_disabled": 0, "rental_uris": {"android": "https://dc.lft.to/lastmile_qr_scan", "ios": "https://dc.lft.to/lastmile_qr_scan"}, "fusion_lon": 0.0, "lat": 38.900154666666666, "bike_id": "7afbcffac8a1112d46b355be9f8ef98c", "type": "electric_scooter", "is_reserved": 0, "lon": -77.04389466666667}, {"fusion_lat": 0.0, "name": "db6924fae7c0dee6a08349fe3608a614", "is_disabled": 0, "rental_uris": {"android": "https://dc.lft.to/lastmile_qr_scan", "ios": "https://dc.lft.to/lastmile_qr_scan"}, "fusion_lon": 0.0, "lat": 38.90127583333334, "bike_id": "db6924fae7c0dee6a08349fe3608a614", "type": "electric_scooter", "is_reserved": 0, "lon": -77.00319683333333}, {"fusion_lat": 0.0, "name": "aa1e9b8d36de295dccb191d7cd20cafa", "is_disabled": 0, "rental_uris": {"android": "https://dc.lft.to/lastmile_qr_scan", "ios": "https://dc.lft.to/lastmile_qr_scan"}, "fusion_lon": 0.0, "lat": 38.931985166666664, "bike_id": "aa1e9b8d36de295dccb191d7cd20cafa", "type": "electric_scooter", "is_reserved": 0, "lon": -76.982878}, {"fusion_lat": 0.0, "name": "dea8c511e30615db532024e4b70d21fc", "is_disabled": 0, "rental_uris": {"android": "https://dc.lft.to/lastmile_qr_scan", "ios": "https://dc.lft.to/lastmile_qr_scan"}, "fusion_lon": 0.0, "lat": 38.920474666666664, "bike_id": "dea8c511e30615db532024e4b70d21fc", "type": "electric_scooter", "is_reserved": 0, "lon": -77.04811716666667}, {"fusion_lat": 0.0, "name": "733ca935dc6857d8fba4df14bbd9722c", "is_disabled": 0, "rental_uris": {"android": "https://dc.lft.to/lastmile_qr_scan", "ios": "https://dc.lft.to/lastmile_qr_scan"}, "fusion_lon": 0.0, "lat": 38.92856883333333, "bike_id": "733ca935dc6857d8fba4df14bbd9722c", "type": "electric_scooter", "is_reserved": 0, "lon": -77.03101566666666}, {"fusion_lat": 0.0, "name": "1312b74508ad6e08b3ea12916462ae9b", "is_disabled": 0, "rental_uris": {"android": "https://dc.lft.to/lastmile_qr_scan", "ios": "https://dc.lft.to/lastmile_qr_scan"}, "fusion_lon": 0.0, "lat": 38.923068, "bike_id": "1312b74508ad6e08b3ea12916462ae9b", "type": "electric_scooter", "is_reserved": 0, "lon": -77.04294233333333}, {"fusion_lat": 0.0, "name": "cd187e1ec3cff342068303e37aa6bceb", "is_disabled": 0, "rental_uris": {"android": "https://dc.lft.to/lastmile_qr_scan", "ios": "https://dc.lft.to/lastmile_qr_scan"}, "fusion_lon": 0.0, "lat": 38.89064333333334, "bike_id": "cd187e1ec3cff342068303e37aa6bceb", "type": "electric_scooter", "is_reserved": 0, "lon": -76.94457916666667}, {"fusion_lat": 0.0, "name": "420a88948985f226a8af2f9ba8bf36ae", "is_disabled": 0, "rental_uris": {"android": "https://dc.lft.to/lastmile_qr_scan", "ios": "https://dc.lft.to/lastmile_qr_scan"}, "fusion_lon": 0.0, "lat": 38.895318833333334, "bike_id": "420a88948985f226a8af2f9ba8bf36ae", "type": "electric_scooter", "is_reserved": 0, "lon": -77.0118945}, {"fusion_lat": 0.0, "name": "ddb2182506c0cc9aa9ab29074c9a073b", "is_disabled": 0, "rental_uris": {"android": "https://dc.lft.to/lastmile_qr_scan", "ios": "https://dc.lft.to/lastmile_qr_scan"}, "fusion_lon": 0.0, "lat": 38.92516333333333, "bike_id": "ddb2182506c0cc9aa9ab29074c9a073b", "type": "electric_scooter", "is_reserved": 0, "lon": -76.9956185}, {"fusion_lat": 0.0, "name": "a3d94fed352a6b67821c324e994f6666", "is_disabled": 0, "rental_uris": {"android": "https://dc.lft.to/lastmile_qr_scan", "ios": "https://dc.lft.to/lastmile_qr_scan"}, "fusion_lon": 0.0, "lat": 38.9174295, "bike_id": "a3d94fed352a6b67821c324e994f6666", "type": "electric_scooter", "is_reserved": 0, "lon": -77.03854216666667}, {"fusion_lat": 0.0, "name": "59eba86a4511d4c56ebac4058567c1bb", "is_disabled": 0, "rental_uris": {"android": "https://dc.lft.to/lastmile_qr_scan", "ios": "https://dc.lft.to/lastmile_qr_scan"}, "fusion_lon": 0.0, "lat": 38.87547583333333, "bike_id": "59eba86a4511d4c56ebac4058567c1bb", "type": "electric_scooter", "is_reserved": 0, "lon": -77.0056725}, {"fusion_lat": 0.0, "name": "eb1fadf55d9ae46d6c240771f4a6759b", "is_disabled": 0, "rental_uris": {"android": "https://dc.lft.to/lastmile_qr_scan", "ios": "https://dc.lft.to/lastmile_qr_scan"}, "fusion_lon": 0.0, "lat": 38.902368833333334, "bike_id": "eb1fadf55d9ae46d6c240771f4a6759b", "type": "electric_scooter", "is_reserved": 0, "lon": -77.01746616666667}, {"fusion_lat": 0.0, "name": "f0a9c3388e0177a9c62fc6a3d3bcdce4", "is_disabled": 0, "rental_uris": {"android": "https://dc.lft.to/lastmile_qr_scan", "ios": "https://dc.lft.to/lastmile_qr_scan"}, "fusion_lon": 0.0, "lat": 38.91775833333333, "bike_id": "f0a9c3388e0177a9c62fc6a3d3bcdce4", "type": "electric_scooter", "is_reserved": 0, "lon": -77.0192085}, {"fusion_lat": 0.0, "name": "4d7aa30457e9d59cf3a8d7a8cd29081c", "is_disabled": 0, "rental_uris": {"android": "https://dc.lft.to/lastmile_qr_scan", "ios": "https://dc.lft.to/lastmile_qr_scan"}, "fusion_lon": 0.0, "lat": 38.90815816666667, "bike_id": "4d7aa30457e9d59cf3a8d7a8cd29081c", "type": "electric_scooter", "is_reserved": 0, "lon": -77.0549745}, {"fusion_lat": 0.0, "name": "c21338afdef7b0fd764260ed5c2f727c", "is_disabled": 0, "rental_uris": {"android": "https://dc.lft.to/lastmile_qr_scan", "ios": "https://dc.lft.to/lastmile_qr_scan"}, "fusion_lon": 0.0, "lat": 38.917167666666664, "bike_id": "c21338afdef7b0fd764260ed5c2f727c", "type": "electric_scooter", "is_reserved": 0, "lon": -77.0120615}, {"fusion_lat": 0.0, "name": "bf9009e2b2c6468b9a16ee2d8a327a91", "is_disabled": 0, "rental_uris": {"android": "https://dc.lft.to/lastmile_qr_scan", "ios": "https://dc.lft.to/lastmile_qr_scan"}, "fusion_lon": 0.0, "lat": 38.961166666666664, "bike_id": "bf9009e2b2c6468b9a16ee2d8a327a91", "type": "electric_scooter", "is_reserved": 0, "lon": -77.028653}, {"fusion_lat": 0.0, "name": "ccb969732145b85552ee65aed5cdc2a5", "is_disabled": 0, "rental_uris": {"android": "https://dc.lft.to/lastmile_qr_scan", "ios": "https://dc.lft.to/lastmile_qr_scan"}, "fusion_lon": 0.0, "lat": 38.9199005, "bike_id": "ccb969732145b85552ee65aed5cdc2a5", "type": "electric_scooter", "is_reserved": 0, "lon": -77.01792816666666}, {"fusion_lat": 0.0, "name": "f006860886cf0bd829a3e89b124446d2", "is_disabled": 0, "rental_uris": {"android": "https://dc.lft.to/lastmile_qr_scan", "ios": "https://dc.lft.to/lastmile_qr_scan"}, "fusion_lon": 0.0, "lat": 38.914057166666666, "bike_id": "f006860886cf0bd829a3e89b124446d2", "type": "electric_scooter", "is_reserved": 0, "lon": -77.03453716666667}, {"fusion_lat": 0.0, "name": "e9832e520939ddb0674f0fdbe7b8ceb5", "is_disabled": 0, "rental_uris": {"android": "https://dc.lft.to/lastmile_qr_scan", "ios": "https://dc.lft.to/lastmile_qr_scan"}, "fusion_lon": 0.0, "lat": 38.918692, "bike_id": "e9832e520939ddb0674f0fdbe7b8ceb5", "type": "electric_scooter", "is_reserved": 0, "lon": -77.04043566666667}, {"fusion_lat": 0.0, "name": "89af85ac116999326d6eacfc16b97b10", "is_disabled": 0, "rental_uris": {"android": "https://dc.lft.to/lastmile_qr_scan", "ios": "https://dc.lft.to/lastmile_qr_scan"}, "fusion_lon": 0.0, "lat": 38.894921833333335, "bike_id": "89af85ac116999326d6eacfc16b97b10", "type": "electric_scooter", "is_reserved": 0, "lon": -77.01505066666667}, {"fusion_lat": 0.0, "name": "f972760f4574d84fb43f48eebf7ced5b", "is_disabled": 0, "rental_uris": {"android": "https://dc.lft.to/lastmile_qr_scan", "ios": "https://dc.lft.to/lastmile_qr_scan"}, "fusion_lon": 0.0, "lat": 38.936737, "bike_id": "f972760f4574d84fb43f48eebf7ced5b", "type": "electric_scooter", "is_reserved": 0, "lon": -77.03589566666666}, {"fusion_lat": 0.0, "name": "d4868fe3f85ccf01e676210ff301c604", "is_disabled": 0, "rental_uris": {"android": "https://dc.lft.to/lastmile_qr_scan", "ios": "https://dc.lft.to/lastmile_qr_scan"}, "fusion_lon": 0.0, "lat": 38.931908166666666, "bike_id": "d4868fe3f85ccf01e676210ff301c604", "type": "electric_scooter", "is_reserved": 0, "lon": -77.04295933333333}, {"fusion_lat": 0.0, "name": "c6ed5af2b75e1025869810046986ff86", "is_disabled": 0, "rental_uris": {"android": "https://dc.lft.to/lastmile_qr_scan", "ios": "https://dc.lft.to/lastmile_qr_scan"}, "fusion_lon": 0.0, "lat": 38.947021, "bike_id": "c6ed5af2b75e1025869810046986ff86", "type": "electric_scooter", "is_reserved": 0, "lon": -77.01943966666667}, {"fusion_lat": 0.0, "name": "131fee08aee2d204cda7148a3afdea1d", "is_disabled": 0, "rental_uris": {"android": "https://dc.lft.to/lastmile_qr_scan", "ios": "https://dc.lft.to/lastmile_qr_scan"}, "fusion_lon": 0.0, "lat": 38.884602666666666, "bike_id": "131fee08aee2d204cda7148a3afdea1d", "type": "electric_scooter", "is_reserved": 0, "lon": -76.99829766666667}, {"fusion_lat": 0.0, "name": "a48c944fd08118be13c69ad73c632a42", "is_disabled": 0, "rental_uris": {"android": "https://dc.lft.to/lastmile_qr_scan", "ios": "https://dc.lft.to/lastmile_qr_scan"}, "fusion_lon": 0.0, "lat": 38.9749575, "bike_id": "a48c944fd08118be13c69ad73c632a42", "type": "electric_scooter", "is_reserved": 0, "lon": -77.01702866666666}, {"fusion_lat": 0.0, "name": "1376c0713710154916e483804cbd659d", "is_disabled": 0, "rental_uris": {"android": "https://dc.lft.to/lastmile_qr_scan", "ios": "https://dc.lft.to/lastmile_qr_scan"}, "fusion_lon": 0.0, "lat": 38.92075166666667, "bike_id": "1376c0713710154916e483804cbd659d", "type": "electric_scooter", "is_reserved": 0, "lon": -77.00453316666666}, {"fusion_lat": 0.0, "name": "121afd5afbfab4c9abf1acd87de79599", "is_disabled": 0, "rental_uris": {"android": "https://dc.lft.to/lastmile_qr_scan", "ios": "https://dc.lft.to/lastmile_qr_scan"}, "fusion_lon": 0.0, "lat": 38.951123833333334, "bike_id": "121afd5afbfab4c9abf1acd87de79599", "type": "electric_scooter", "is_reserved": 0, "lon": -77.01362133333333}, {"fusion_lat": 0.0, "name": "a8ce48a95546b0628d72842bf8a8b51b", "is_disabled": 0, "rental_uris": {"android": "https://dc.lft.to/lastmile_qr_scan", "ios": "https://dc.lft.to/lastmile_qr_scan"}, "fusion_lon": 0.0, "lat": 38.912682, "bike_id": "a8ce48a95546b0628d72842bf8a8b51b", "type": "electric_scooter", "is_reserved": 0, "lon": -77.03184983333334}, {"fusion_lat": 0.0, "name": "3a68dfef3ee2baf4e8b05e12e63e8c42", "is_disabled": 0, "rental_uris": {"android": "https://dc.lft.to/lastmile_qr_scan", "ios": "https://dc.lft.to/lastmile_qr_scan"}, "fusion_lon": 0.0, "lat": 38.91911433333333, "bike_id": "3a68dfef3ee2baf4e8b05e12e63e8c42", "type": "electric_scooter", "is_reserved": 0, "lon": -77.033086}, {"fusion_lat": 0.0, "name": "81f0436c7e57fd48346332da682df51f", "is_disabled": 0, "rental_uris": {"android": "https://dc.lft.to/lastmile_qr_scan", "ios": "https://dc.lft.to/lastmile_qr_scan"}, "fusion_lon": 0.0, "lat": 38.937861166666664, "bike_id": "81f0436c7e57fd48346332da682df51f", "type": "electric_scooter", "is_reserved": 0, "lon": -77.02453666666666}, {"fusion_lat": 0.0, "name": "62c1ed042fca4dddaa6911a252a2352d", "is_disabled": 0, "rental_uris": {"android": "https://dc.lft.to/lastmile_qr_scan", "ios": "https://dc.lft.to/lastmile_qr_scan"}, "fusion_lon": 0.0, "lat": 38.88999466666667, "bike_id": "62c1ed042fca4dddaa6911a252a2352d", "type": "electric_scooter", "is_reserved": 0, "lon": -77.0490225}, {"fusion_lat": 0.0, "name": "028d13983f94bdb681fe4a79a6605f00", "is_disabled": 0, "rental_uris": {"android": "https://dc.lft.to/lastmile_qr_scan", "ios": "https://dc.lft.to/lastmile_qr_scan"}, "fusion_lon": 0.0, "lat": 38.941637166666666, "bike_id": "028d13983f94bdb681fe4a79a6605f00", "type": "electric_scooter", "is_reserved": 0, "lon": -77.025004}, {"fusion_lat": 0.0, "name": "72374d98f6b505acd22e162d6ca78e5b", "is_disabled": 0, "rental_uris": {"android": "https://dc.lft.to/lastmile_qr_scan", "ios": "https://dc.lft.to/lastmile_qr_scan"}, "fusion_lon": 0.0, "lat": 38.909809, "bike_id": "72374d98f6b505acd22e162d6ca78e5b", "type": "electric_scooter", "is_reserved": 0, "lon": -77.04410516666667}, {"fusion_lat": 0.0, "name": "6df5ae88493b7d8a747fb239c57bfd8f", "is_disabled": 0, "rental_uris": {"android": "https://dc.lft.to/lastmile_qr_scan", "ios": "https://dc.lft.to/lastmile_qr_scan"}, "fusion_lon": 0.0, "lat": 38.89698466666667, "bike_id": "6df5ae88493b7d8a747fb239c57bfd8f", "type": "electric_scooter", "is_reserved": 0, "lon": -77.00758733333333}, {"fusion_lat": 0.0, "name": "620e44516a867f4369d047427ac17c6f", "is_disabled": 0, "rental_uris": {"android": "https://dc.lft.to/lastmile_qr_scan", "ios": "https://dc.lft.to/lastmile_qr_scan"}, "fusion_lon": 0.0, "lat": 38.9370105, "bike_id": "620e44516a867f4369d047427ac17c6f", "type": "electric_scooter", "is_reserved": 0, "lon": -77.03279866666666}, {"fusion_lat": 0.0, "name": "0b310d58cb49b02e95410998fb27c713", "is_disabled": 0, "rental_uris": {"android": "https://dc.lft.to/lastmile_qr_scan", "ios": "https://dc.lft.to/lastmile_qr_scan"}, "fusion_lon": 0.0, "lat": 38.91957216666667, "bike_id": "0b310d58cb49b02e95410998fb27c713", "type": "electric_scooter", "is_reserved": 0, "lon": -77.0177145}, {"fusion_lat": 0.0, "name": "dc0f5e2ad9462d71fec7371af0612e3f", "is_disabled": 0, "rental_uris": {"android": "https://dc.lft.to/lastmile_qr_scan", "ios": "https://dc.lft.to/lastmile_qr_scan"}, "fusion_lon": 0.0, "lat": 38.919921, "bike_id": "dc0f5e2ad9462d71fec7371af0612e3f", "type": "electric_scooter", "is_reserved": 0, "lon": -77.01770383333333}, {"fusion_lat": 0.0, "name": "2ee98c40e2896b52a4e9e58bdf496296", "is_disabled": 0, "rental_uris": {"android": "https://dc.lft.to/lastmile_qr_scan", "ios": "https://dc.lft.to/lastmile_qr_scan"}, "fusion_lon": 0.0, "lat": 38.914178, "bike_id": "2ee98c40e2896b52a4e9e58bdf496296", "type": "electric_scooter", "is_reserved": 0, "lon": -77.00939983333333}, {"fusion_lat": 0.0, "name": "aa4966fefd33296d2130699906584092", "is_disabled": 0, "rental_uris": {"android": "https://dc.lft.to/lastmile_qr_scan", "ios": "https://dc.lft.to/lastmile_qr_scan"}, "fusion_lon": 0.0, "lat": 38.9105165, "bike_id": "aa4966fefd33296d2130699906584092", "type": "electric_scooter", "is_reserved": 0, "lon": -77.03463683333334}, {"fusion_lat": 0.0, "name": "f8f8c207331d71db175097433d6a9aaf", "is_disabled": 0, "rental_uris": {"android": "https://dc.lft.to/lastmile_qr_scan", "ios": "https://dc.lft.to/lastmile_qr_scan"}, "fusion_lon": 0.0, "lat": 38.9233305, "bike_id": "f8f8c207331d71db175097433d6a9aaf", "type": "electric_scooter", "is_reserved": 0, "lon": -77.02052633333334}, {"fusion_lat": 0.0, "name": "0e72b21348026ccc37a488ebbda44f48", "is_disabled": 0, "rental_uris": {"android": "https://dc.lft.to/lastmile_qr_scan", "ios": "https://dc.lft.to/lastmile_qr_scan"}, "fusion_lon": 0.0, "lat": 38.9236545, "bike_id": "0e72b21348026ccc37a488ebbda44f48", "type": "electric_scooter", "is_reserved": 0, "lon": -77.01953483333334}, {"fusion_lat": 0.0, "name": "d322a4413a3dae88f9d63001e95a29ce", "is_disabled": 0, "rental_uris": {"android": "https://dc.lft.to/lastmile_qr_scan", "ios": "https://dc.lft.to/lastmile_qr_scan"}, "fusion_lon": 0.0, "lat": 38.88947616666667, "bike_id": "d322a4413a3dae88f9d63001e95a29ce", "type": "electric_scooter", "is_reserved": 0, "lon": -76.99161133333334}, {"fusion_lat": 0.0, "name": "f968cea01f9c287d2c504cf0fb9b25cd", "is_disabled": 0, "rental_uris": {"android": "https://dc.lft.to/lastmile_qr_scan", "ios": "https://dc.lft.to/lastmile_qr_scan"}, "fusion_lon": 0.0, "lat": 38.9286935, "bike_id": "f968cea01f9c287d2c504cf0fb9b25cd", "type": "electric_scooter", "is_reserved": 0, "lon": -77.05454116666667}, {"fusion_lat": 0.0, "name": "eee66c98278a2b03f4f1965af0eb2b94", "is_disabled": 0, "rental_uris": {"android": "https://dc.lft.to/lastmile_qr_scan", "ios": "https://dc.lft.to/lastmile_qr_scan"}, "fusion_lon": 0.0, "lat": 38.863704, "bike_id": "eee66c98278a2b03f4f1965af0eb2b94", "type": "electric_bike", "is_reserved": 0, "lon": -76.97009433333334}, {"fusion_lat": 0.0, "name": "0978d6395c6194518a437e6d5cf85cdb", "is_disabled": 0, "rental_uris": {"android": "https://dc.lft.to/lastmile_qr_scan", "ios": "https://dc.lft.to/lastmile_qr_scan"}, "fusion_lon": 0.0, "lat": 38.892355, "bike_id": "0978d6395c6194518a437e6d5cf85cdb", "type": "electric_scooter", "is_reserved": 0, "lon": -77.021078}, {"fusion_lat": 0.0, "name": "46887cd0923757922687586b8f6800ed", "is_disabled": 0, "rental_uris": {"android": "https://dc.lft.to/lastmile_qr_scan", "ios": "https://dc.lft.to/lastmile_qr_scan"}, "fusion_lon": 0.0, "lat": 38.89788466666667, "bike_id": "46887cd0923757922687586b8f6800ed", "type": "electric_scooter", "is_reserved": 0, "lon": -77.01193933333333}, {"fusion_lat": 0.0, "name": "8c4c890c4e719f2a292276bae1594916", "is_disabled": 0, "rental_uris": {"android": "https://dc.lft.to/lastmile_qr_scan", "ios": "https://dc.lft.to/lastmile_qr_scan"}, "fusion_lon": 0.0, "lat": 38.89730983333333, "bike_id": "8c4c890c4e719f2a292276bae1594916", "type": "electric_scooter", "is_reserved": 0, "lon": -77.049899}, {"fusion_lat": 0.0, "name": "e47e6facf60b1a6682f634d7ebf17927", "is_disabled": 0, "rental_uris": {"android": "https://dc.lft.to/lastmile_qr_scan", "ios": "https://dc.lft.to/lastmile_qr_scan"}, "fusion_lon": 0.0, "lat": 38.90311583333333, "bike_id": "e47e6facf60b1a6682f634d7ebf17927", "type": "electric_scooter", "is_reserved": 0, "lon": -77.0447775}, {"fusion_lat": 0.0, "name": "b8b3bb65b2752fafd81967c58c67f4ca", "is_disabled": 0, "rental_uris": {"android": "https://dc.lft.to/lastmile_qr_scan", "ios": "https://dc.lft.to/lastmile_qr_scan"}, "fusion_lon": 0.0, "lat": 38.8991035, "bike_id": "b8b3bb65b2752fafd81967c58c67f4ca", "type": "electric_scooter", "is_reserved": 0, "lon": -76.98531883333334}, {"fusion_lat": 0.0, "name": "d774bac8bf0422e27ae9966e76d826ab", "is_disabled": 0, "rental_uris": {"android": "https://dc.lft.to/lastmile_qr_scan", "ios": "https://dc.lft.to/lastmile_qr_scan"}, "fusion_lon": 0.0, "lat": 38.92893466666666, "bike_id": "d774bac8bf0422e27ae9966e76d826ab", "type": "electric_bike", "is_reserved": 0, "lon": -77.23177533333333}, {"fusion_lat": 0.0, "name": "dac0d9f62fd75162717adf91217743ed", "is_disabled": 0, "rental_uris": {"android": "https://dc.lft.to/lastmile_qr_scan", "ios": "https://dc.lft.to/lastmile_qr_scan"}, "fusion_lon": 0.0, "lat": 38.904460666666665, "bike_id": "dac0d9f62fd75162717adf91217743ed", "type": "electric_scooter", "is_reserved": 0, "lon": -77.04061583333333}, {"fusion_lat": 0.0, "name": "83ba1a194c860c6b67e48dd1ec421fe5", "is_disabled": 0, "rental_uris": {"android": "https://dc.lft.to/lastmile_qr_scan", "ios": "https://dc.lft.to/lastmile_qr_scan"}, "fusion_lon": 0.0, "lat": 38.855813, "bike_id": "83ba1a194c860c6b67e48dd1ec421fe5", "type": "electric_scooter", "is_reserved": 0, "lon": -76.96639166666667}, {"fusion_lat": 0.0, "name": "cf2906622249453c4e9cf0caf1289a5b", "is_disabled": 0, "rental_uris": {"android": "https://dc.lft.to/lastmile_qr_scan", "ios": "https://dc.lft.to/lastmile_qr_scan"}, "fusion_lon": 0.0, "lat": 38.944345166666665, "bike_id": "cf2906622249453c4e9cf0caf1289a5b", "type": "electric_scooter", "is_reserved": 0, "lon": -77.06354983333334}, {"fusion_lat": 0.0, "name": "052e75c07bf43afcb6105e601e8d4c63", "is_disabled": 0, "rental_uris": {"android": "https://dc.lft.to/lastmile_qr_scan", "ios": "https://dc.lft.to/lastmile_qr_scan"}, "fusion_lon": 0.0, "lat": 38.898282, "bike_id": "052e75c07bf43afcb6105e601e8d4c63", "type": "electric_scooter", "is_reserved": 0, "lon": -77.02854416666666}, {"fusion_lat": 0.0, "name": "920f1f7e55901aa8425b33d4f41caf65", "is_disabled": 0, "rental_uris": {"android": "https://dc.lft.to/lastmile_qr_scan", "ios": "https://dc.lft.to/lastmile_qr_scan"}, "fusion_lon": 0.0, "lat": 38.9082885, "bike_id": "920f1f7e55901aa8425b33d4f41caf65", "type": "electric_scooter", "is_reserved": 0, "lon": -77.04466616666667}, {"fusion_lat": 0.0, "name": "ba4600e4fc37a3fdc52dfab501973b5f", "is_disabled": 0, "rental_uris": {"android": "https://dc.lft.to/lastmile_qr_scan", "ios": "https://dc.lft.to/lastmile_qr_scan"}, "fusion_lon": 0.0, "lat": 38.9158155, "bike_id": "ba4600e4fc37a3fdc52dfab501973b5f", "type": "electric_scooter", "is_reserved": 0, "lon": -77.03171966666666}, {"fusion_lat": 0.0, "name": "a6b5c59105189a42b9f3652ccf31253a", "is_disabled": 0, "rental_uris": {"android": "https://dc.lft.to/lastmile_qr_scan", "ios": "https://dc.lft.to/lastmile_qr_scan"}, "fusion_lon": 0.0, "lat": 38.940985166666664, "bike_id": "a6b5c59105189a42b9f3652ccf31253a", "type": "electric_scooter", "is_reserved": 0, "lon": -77.06178066666666}, {"fusion_lat": 0.0, "name": "e3617b495df27652325e79f9c93a6b05", "is_disabled": 0, "rental_uris": {"android": "https://dc.lft.to/lastmile_qr_scan", "ios": "https://dc.lft.to/lastmile_qr_scan"}, "fusion_lon": 0.0, "lat": 38.88394733333333, "bike_id": "e3617b495df27652325e79f9c93a6b05", "type": "electric_scooter", "is_reserved": 0, "lon": -76.93047633333333}, {"fusion_lat": 0.0, "name": "1699d1b4cbadc627a2e23668e24ea7fe", "is_disabled": 0, "rental_uris": {"android": "https://dc.lft.to/lastmile_qr_scan", "ios": "https://dc.lft.to/lastmile_qr_scan"}, "fusion_lon": 0.0, "lat": 38.85766666666667, "bike_id": "1699d1b4cbadc627a2e23668e24ea7fe", "type": "electric_bike", "is_reserved": 0, "lon": -76.98763066666666}, {"fusion_lat": 0.0, "name": "4dc5e741af47ac7d43ab424eb02c8614", "is_disabled": 0, "rental_uris": {"android": "https://dc.lft.to/lastmile_qr_scan", "ios": "https://dc.lft.to/lastmile_qr_scan"}, "fusion_lon": 0.0, "lat": 38.930595833333335, "bike_id": "4dc5e741af47ac7d43ab424eb02c8614", "type": "electric_scooter", "is_reserved": 0, "lon": -77.02319316666667}, {"fusion_lat": 0.0, "name": "6a6f3b057c2d2cbc07d3508c98e351e7", "is_disabled": 0, "rental_uris": {"android": "https://dc.lft.to/lastmile_qr_scan", "ios": "https://dc.lft.to/lastmile_qr_scan"}, "fusion_lon": 0.0, "lat": 38.921742, "bike_id": "6a6f3b057c2d2cbc07d3508c98e351e7", "type": "electric_scooter", "is_reserved": 0, "lon": -77.0381745}, {"fusion_lat": 0.0, "name": "bf6161b70d1f7bb33b43e9e0b9c300d4", "is_disabled": 0, "rental_uris": {"android": "https://dc.lft.to/lastmile_qr_scan", "ios": "https://dc.lft.to/lastmile_qr_scan"}, "fusion_lon": 0.0, "lat": 38.923173166666665, "bike_id": "bf6161b70d1f7bb33b43e9e0b9c300d4", "type": "electric_scooter", "is_reserved": 0, "lon": -77.04398516666667}, {"fusion_lat": 0.0, "name": "7fa652498d806f14b1413747ca8564be", "is_disabled": 0, "rental_uris": {"android": "https://dc.lft.to/lastmile_qr_scan", "ios": "https://dc.lft.to/lastmile_qr_scan"}, "fusion_lon": 0.0, "lat": 38.914174333333335, "bike_id": "7fa652498d806f14b1413747ca8564be", "type": "electric_scooter", "is_reserved": 0, "lon": -77.031694}, {"fusion_lat": 0.0, "name": "439c12e5b3cfef746e41d719a814654c", "is_disabled": 0, "rental_uris": {"android": "https://dc.lft.to/lastmile_qr_scan", "ios": "https://dc.lft.to/lastmile_qr_scan"}, "fusion_lon": 0.0, "lat": 38.949145, "bike_id": "439c12e5b3cfef746e41d719a814654c", "type": "electric_bike", "is_reserved": 0, "lon": -76.963806}, {"fusion_lat": 0.0, "name": "fbe293c9ef0a9ea74bb8196841bf6d08", "is_disabled": 0, "rental_uris": {"android": "https://dc.lft.to/lastmile_qr_scan", "ios": "https://dc.lft.to/lastmile_qr_scan"}, "fusion_lon": 0.0, "lat": 38.8961695, "bike_id": "fbe293c9ef0a9ea74bb8196841bf6d08", "type": "electric_scooter", "is_reserved": 0, "lon": -77.0219135}, {"fusion_lat": 0.0, "name": "01460918bf729fd85e37eda066fcc13e", "is_disabled": 0, "rental_uris": {"android": "https://dc.lft.to/lastmile_qr_scan", "ios": "https://dc.lft.to/lastmile_qr_scan"}, "fusion_lon": 0.0, "lat": 38.900149, "bike_id": "01460918bf729fd85e37eda066fcc13e", "type": "electric_scooter", "is_reserved": 0, "lon": -76.9955115}, {"fusion_lat": 0.0, "name": "eb0f377027ef9caa8c4084ef90f0f0ba", "is_disabled": 0, "rental_uris": {"android": "https://dc.lft.to/lastmile_qr_scan", "ios": "https://dc.lft.to/lastmile_qr_scan"}, "fusion_lon": 0.0, "lat": 38.893977166666666, "bike_id": "eb0f377027ef9caa8c4084ef90f0f0ba", "type": "electric_scooter", "is_reserved": 0, "lon": -76.991569}, {"fusion_lat": 0.0, "name": "d7f2bfbfc92b37c0ddf5d83cb9076260", "is_disabled": 0, "rental_uris": {"android": "https://dc.lft.to/lastmile_qr_scan", "ios": "https://dc.lft.to/lastmile_qr_scan"}, "fusion_lon": 0.0, "lat": 38.873740166666664, "bike_id": "d7f2bfbfc92b37c0ddf5d83cb9076260", "type": "electric_scooter", "is_reserved": 0, "lon": -77.0001145}, {"fusion_lat": 0.0, "name": "cd09c5c90b650a6fcdd856492add31c2", "is_disabled": 0, "rental_uris": {"android": "https://dc.lft.to/lastmile_qr_scan", "ios": "https://dc.lft.to/lastmile_qr_scan"}, "fusion_lon": 0.0, "lat": 38.934871666666666, "bike_id": "cd09c5c90b650a6fcdd856492add31c2", "type": "electric_scooter", "is_reserved": 0, "lon": -77.04526716666666}, {"fusion_lat": 0.0, "name": "08d68aafc9598c56da2cd8da40121ddf", "is_disabled": 0, "rental_uris": {"android": "https://dc.lft.to/lastmile_qr_scan", "ios": "https://dc.lft.to/lastmile_qr_scan"}, "fusion_lon": 0.0, "lat": 38.95868383333333, "bike_id": "08d68aafc9598c56da2cd8da40121ddf", "type": "electric_bike", "is_reserved": 0, "lon": -77.0014185}, {"fusion_lat": 0.0, "name": "1cb22fe5cc04cdc1cf46cc747b56db48", "is_disabled": 0, "rental_uris": {"android": "https://dc.lft.to/lastmile_qr_scan", "ios": "https://dc.lft.to/lastmile_qr_scan"}, "fusion_lon": 0.0, "lat": 38.923307333333334, "bike_id": "1cb22fe5cc04cdc1cf46cc747b56db48", "type": "electric_scooter", "is_reserved": 0, "lon": -77.02049966666667}, {"fusion_lat": 0.0, "name": "ab58a04e9c336b84dd41afe041f3ba85", "is_disabled": 0, "rental_uris": {"android": "https://dc.lft.to/lastmile_qr_scan", "ios": "https://dc.lft.to/lastmile_qr_scan"}, "fusion_lon": 0.0, "lat": 38.936000666666665, "bike_id": "ab58a04e9c336b84dd41afe041f3ba85", "type": "electric_scooter", "is_reserved": 0, "lon": -77.05864466666667}, {"fusion_lat": 0.0, "name": "fde56a8cf5e79859da63bd7a3002d770", "is_disabled": 0, "rental_uris": {"android": "https://dc.lft.to/lastmile_qr_scan", "ios": "https://dc.lft.to/lastmile_qr_scan"}, "fusion_lon": 0.0, "lat": 38.91919016666667, "bike_id": "fde56a8cf5e79859da63bd7a3002d770", "type": "electric_scooter", "is_reserved": 0, "lon": -77.02196083333334}, {"fusion_lat": 0.0, "name": "0600a2af2fee8f6185cb1828c49bf0fb", "is_disabled": 0, "rental_uris": {"android": "https://dc.lft.to/lastmile_qr_scan", "ios": "https://dc.lft.to/lastmile_qr_scan"}, "fusion_lon": 0.0, "lat": 38.9022645, "bike_id": "0600a2af2fee8f6185cb1828c49bf0fb", "type": "electric_scooter", "is_reserved": 0, "lon": -77.017044}, {"fusion_lat": 0.0, "name": "46290cd9086e79e37315fc6fadf121cb", "is_disabled": 0, "rental_uris": {"android": "https://dc.lft.to/lastmile_qr_scan", "ios": "https://dc.lft.to/lastmile_qr_scan"}, "fusion_lon": 0.0, "lat": 38.893486333333335, "bike_id": "46290cd9086e79e37315fc6fadf121cb", "type": "electric_bike", "is_reserved": 0, "lon": -77.18740683333333}, {"fusion_lat": 0.0, "name": "848a2b2fff9336f2188ad6b999b52ab7", "is_disabled": 0, "rental_uris": {"android": "https://dc.lft.to/lastmile_qr_scan", "ios": "https://dc.lft.to/lastmile_qr_scan"}, "fusion_lon": 0.0, "lat": 38.928223333333335, "bike_id": "848a2b2fff9336f2188ad6b999b52ab7", "type": "electric_scooter", "is_reserved": 0, "lon": -77.05444916666667}, {"fusion_lat": 0.0, "name": "4b1c41fbc6f3163673d024f507981ecb", "is_disabled": 0, "rental_uris": {"android": "https://dc.lft.to/lastmile_qr_scan", "ios": "https://dc.lft.to/lastmile_qr_scan"}, "fusion_lon": 0.0, "lat": 38.8314485, "bike_id": "4b1c41fbc6f3163673d024f507981ecb", "type": "electric_scooter", "is_reserved": 0, "lon": -77.00841483333333}, {"fusion_lat": 0.0, "name": "d593d4d3e0942e095e79d25d2f94c1a2", "is_disabled": 0, "rental_uris": {"android": "https://dc.lft.to/lastmile_qr_scan", "ios": "https://dc.lft.to/lastmile_qr_scan"}, "fusion_lon": 0.0, "lat": 38.91519383333333, "bike_id": "d593d4d3e0942e095e79d25d2f94c1a2", "type": "electric_scooter", "is_reserved": 0, "lon": -77.07273166666667}, {"fusion_lat": 0.0, "name": "d234e8d48060d182dbc2c027c9451646", "is_disabled": 0, "rental_uris": {"android": "https://dc.lft.to/lastmile_qr_scan", "ios": "https://dc.lft.to/lastmile_qr_scan"}, "fusion_lon": 0.0, "lat": 38.898718833333334, "bike_id": "d234e8d48060d182dbc2c027c9451646", "type": "electric_scooter", "is_reserved": 0, "lon": -76.931854}, {"fusion_lat": 0.0, "name": "dd22d9c3796dd283fd98481eececf0ff", "is_disabled": 0, "rental_uris": {"android": "https://dc.lft.to/lastmile_qr_scan", "ios": "https://dc.lft.to/lastmile_qr_scan"}, "fusion_lon": 0.0, "lat": 38.88034566666666, "bike_id": "dd22d9c3796dd283fd98481eececf0ff", "type": "electric_scooter", "is_reserved": 0, "lon": -77.019889}, {"fusion_lat": 0.0, "name": "de39ffdfa156ebb7857cd840c84b0a19", "is_disabled": 0, "rental_uris": {"android": "https://dc.lft.to/lastmile_qr_scan", "ios": "https://dc.lft.to/lastmile_qr_scan"}, "fusion_lon": 0.0, "lat": 38.900336833333334, "bike_id": "de39ffdfa156ebb7857cd840c84b0a19", "type": "electric_bike", "is_reserved": 0, "lon": -76.97220533333333}, {"fusion_lat": 0.0, "name": "5f475c8850616ed00ae62c4fbe816be1", "is_disabled": 0, "rental_uris": {"android": "https://dc.lft.to/lastmile_qr_scan", "ios": "https://dc.lft.to/lastmile_qr_scan"}, "fusion_lon": 0.0, "lat": 38.93165966666667, "bike_id": "5f475c8850616ed00ae62c4fbe816be1", "type": "electric_scooter", "is_reserved": 0, "lon": -77.03783383333334}, {"fusion_lat": 0.0, "name": "136cb963028d2cdaf5c2c6f33648f1f6", "is_disabled": 0, "rental_uris": {"android": "https://dc.lft.to/lastmile_qr_scan", "ios": "https://dc.lft.to/lastmile_qr_scan"}, "fusion_lon": 0.0, "lat": 38.91435833333333, "bike_id": "136cb963028d2cdaf5c2c6f33648f1f6", "type": "electric_scooter", "is_reserved": 0, "lon": -76.99357333333333}, {"fusion_lat": 0.0, "name": "bdb58dcff7926b4240c64d339c555d3c", "is_disabled": 0, "rental_uris": {"android": "https://dc.lft.to/lastmile_qr_scan", "ios": "https://dc.lft.to/lastmile_qr_scan"}, "fusion_lon": 0.0, "lat": 38.9079965, "bike_id": "bdb58dcff7926b4240c64d339c555d3c", "type": "electric_scooter", "is_reserved": 0, "lon": -77.03859816666667}, {"fusion_lat": 0.0, "name": "79be17b3923db087689a1e8750f0186e", "is_disabled": 0, "rental_uris": {"android": "https://dc.lft.to/lastmile_qr_scan", "ios": "https://dc.lft.to/lastmile_qr_scan"}, "fusion_lon": 0.0, "lat": 38.92256183333333, "bike_id": "79be17b3923db087689a1e8750f0186e", "type": "electric_scooter", "is_reserved": 0, "lon": -77.00914583333333}, {"fusion_lat": 0.0, "name": "e76c7f9680266a18503e4057cdfea967", "is_disabled": 0, "rental_uris": {"android": "https://dc.lft.to/lastmile_qr_scan", "ios": "https://dc.lft.to/lastmile_qr_scan"}, "fusion_lon": 0.0, "lat": 38.91442983333334, "bike_id": "e76c7f9680266a18503e4057cdfea967", "type": "electric_scooter", "is_reserved": 0, "lon": -76.98822033333333}, {"fusion_lat": 0.0, "name": "d889aed489bcc13a52c5134b0bd57823", "is_disabled": 0, "rental_uris": {"android": "https://dc.lft.to/lastmile_qr_scan", "ios": "https://dc.lft.to/lastmile_qr_scan"}, "fusion_lon": 0.0, "lat": 38.83157, "bike_id": "d889aed489bcc13a52c5134b0bd57823", "type": "electric_bike", "is_reserved": 0, "lon": -76.9953945}, {"fusion_lat": 0.0, "name": "68234e4f4b0f8c11e0cbecf9dd120b59", "is_disabled": 0, "rental_uris": {"android": "https://dc.lft.to/lastmile_qr_scan", "ios": "https://dc.lft.to/lastmile_qr_scan"}, "fusion_lon": 0.0, "lat": 38.892176166666665, "bike_id": "68234e4f4b0f8c11e0cbecf9dd120b59", "type": "electric_scooter", "is_reserved": 0, "lon": -77.0201195}, {"fusion_lat": 0.0, "name": "d2fc5d11d3b7279867caac14c917db25", "is_disabled": 0, "rental_uris": {"android": "https://dc.lft.to/lastmile_qr_scan", "ios": "https://dc.lft.to/lastmile_qr_scan"}, "fusion_lon": 0.0, "lat": 38.924729666666664, "bike_id": "d2fc5d11d3b7279867caac14c917db25", "type": "electric_scooter", "is_reserved": 0, "lon": -77.02215066666666}, {"fusion_lat": 0.0, "name": "c0f3012c39c30682fcf278c3faa4fad0", "is_disabled": 0, "rental_uris": {"android": "https://dc.lft.to/lastmile_qr_scan", "ios": "https://dc.lft.to/lastmile_qr_scan"}, "fusion_lon": 0.0, "lat": 38.93862166666667, "bike_id": "c0f3012c39c30682fcf278c3faa4fad0", "type": "electric_scooter", "is_reserved": 0, "lon": -77.02553233333333}, {"fusion_lat": 0.0, "name": "c95868b8e22e2d7661b66f69d3ec9e18", "is_disabled": 0, "rental_uris": {"android": "https://dc.lft.to/lastmile_qr_scan", "ios": "https://dc.lft.to/lastmile_qr_scan"}, "fusion_lon": 0.0, "lat": 38.91101483333333, "bike_id": "c95868b8e22e2d7661b66f69d3ec9e18", "type": "electric_scooter", "is_reserved": 0, "lon": -77.002127}, {"fusion_lat": 0.0, "name": "e91fd22ee8762e6d55d74db531e68566", "is_disabled": 0, "rental_uris": {"android": "https://dc.lft.to/lastmile_qr_scan", "ios": "https://dc.lft.to/lastmile_qr_scan"}, "fusion_lon": 0.0, "lat": 38.877022833333335, "bike_id": "e91fd22ee8762e6d55d74db531e68566", "type": "electric_scooter", "is_reserved": 0, "lon": -77.00430566666667}, {"fusion_lat": 0.0, "name": "a61db7a9173bb3e81834865aa366e6fa", "is_disabled": 0, "rental_uris": {"android": "https://dc.lft.to/lastmile_qr_scan", "ios": "https://dc.lft.to/lastmile_qr_scan"}, "fusion_lon": 0.0, "lat": 38.905681333333334, "bike_id": "a61db7a9173bb3e81834865aa366e6fa", "type": "electric_scooter", "is_reserved": 0, "lon": -77.04349716666667}, {"fusion_lat": 0.0, "name": "4dd6507a409cfa16485cd69000816308", "is_disabled": 0, "rental_uris": {"android": "https://dc.lft.to/lastmile_qr_scan", "ios": "https://dc.lft.to/lastmile_qr_scan"}, "fusion_lon": 0.0, "lat": 38.9000205, "bike_id": "4dd6507a409cfa16485cd69000816308", "type": "electric_scooter", "is_reserved": 0, "lon": -77.01166}, {"fusion_lat": 0.0, "name": "5c10ccbc224500eb89db1f9aecc3efb4", "is_disabled": 0, "rental_uris": {"android": "https://dc.lft.to/lastmile_qr_scan", "ios": "https://dc.lft.to/lastmile_qr_scan"}, "fusion_lon": 0.0, "lat": 38.915277, "bike_id": "5c10ccbc224500eb89db1f9aecc3efb4", "type": "electric_scooter", "is_reserved": 0, "lon": -77.0461265}, {"fusion_lat": 0.0, "name": "58ba202b19d09c4744832ae9a4972585", "is_disabled": 0, "rental_uris": {"android": "https://dc.lft.to/lastmile_qr_scan", "ios": "https://dc.lft.to/lastmile_qr_scan"}, "fusion_lon": 0.0, "lat": 38.8832005, "bike_id": "58ba202b19d09c4744832ae9a4972585", "type": "electric_scooter", "is_reserved": 0, "lon": -77.01373383333333}, {"fusion_lat": 0.0, "name": "a1733e1177a6145fbd282e253c8354cc", "is_disabled": 0, "rental_uris": {"android": "https://dc.lft.to/lastmile_qr_scan", "ios": "https://dc.lft.to/lastmile_qr_scan"}, "fusion_lon": 0.0, "lat": 38.87618616666666, "bike_id": "a1733e1177a6145fbd282e253c8354cc", "type": "electric_scooter", "is_reserved": 0, "lon": -77.007295}, {"fusion_lat": 0.0, "name": "76edf5b10a29d8869be37bfcf1a446cb", "is_disabled": 0, "rental_uris": {"android": "https://dc.lft.to/lastmile_qr_scan", "ios": "https://dc.lft.to/lastmile_qr_scan"}, "fusion_lon": 0.0, "lat": 38.92446266666666, "bike_id": "76edf5b10a29d8869be37bfcf1a446cb", "type": "electric_scooter", "is_reserved": 0, "lon": -77.00879333333333}, {"fusion_lat": 0.0, "name": "76831b7c6076f0f80def3317eab64de0", "is_disabled": 0, "rental_uris": {"android": "https://dc.lft.to/lastmile_qr_scan", "ios": "https://dc.lft.to/lastmile_qr_scan"}, "fusion_lon": 0.0, "lat": 38.972544166666665, "bike_id": "76831b7c6076f0f80def3317eab64de0", "type": "electric_bike", "is_reserved": 0, "lon": -76.992722}, {"fusion_lat": 0.0, "name": "7b0b21b48e4048f1cf1da452bea2405a", "is_disabled": 0, "rental_uris": {"android": "https://dc.lft.to/lastmile_qr_scan", "ios": "https://dc.lft.to/lastmile_qr_scan"}, "fusion_lon": 0.0, "lat": 38.89501166666667, "bike_id": "7b0b21b48e4048f1cf1da452bea2405a", "type": "electric_scooter", "is_reserved": 0, "lon": -77.02675116666667}, {"fusion_lat": 0.0, "name": "be4bf1885ee199f2f9ae9a0427231939", "is_disabled": 0, "rental_uris": {"android": "https://dc.lft.to/lastmile_qr_scan", "ios": "https://dc.lft.to/lastmile_qr_scan"}, "fusion_lon": 0.0, "lat": 39.03423216666667, "bike_id": "be4bf1885ee199f2f9ae9a0427231939", "type": "electric_bike", "is_reserved": 0, "lon": -77.04308983333334}, {"fusion_lat": 0.0, "name": "6c332d63c51ca3c86e0aebe2871090ef", "is_disabled": 0, "rental_uris": {"android": "https://dc.lft.to/lastmile_qr_scan", "ios": "https://dc.lft.to/lastmile_qr_scan"}, "fusion_lon": 0.0, "lat": 38.90697483333334, "bike_id": "6c332d63c51ca3c86e0aebe2871090ef", "type": "electric_scooter", "is_reserved": 0, "lon": -77.06533616666667}, {"fusion_lat": 0.0, "name": "ce81fc510c8e9539e35064736382a84c", "is_disabled": 0, "rental_uris": {"android": "https://dc.lft.to/lastmile_qr_scan", "ios": "https://dc.lft.to/lastmile_qr_scan"}, "fusion_lon": 0.0, "lat": 38.89676016666667, "bike_id": "ce81fc510c8e9539e35064736382a84c", "type": "electric_scooter", "is_reserved": 0, "lon": -77.051358}, {"fusion_lat": 0.0, "name": "db79192c24e911be3dbee274e126f0e5", "is_disabled": 0, "rental_uris": {"android": "https://dc.lft.to/lastmile_qr_scan", "ios": "https://dc.lft.to/lastmile_qr_scan"}, "fusion_lon": 0.0, "lat": 38.90408083333333, "bike_id": "db79192c24e911be3dbee274e126f0e5", "type": "electric_scooter", "is_reserved": 0, "lon": -77.0428355}, {"fusion_lat": 0.0, "name": "8f752bbfc02bfc8825907590ce6ff618", "is_disabled": 0, "rental_uris": {"android": "https://dc.lft.to/lastmile_qr_scan", "ios": "https://dc.lft.to/lastmile_qr_scan"}, "fusion_lon": 0.0, "lat": 38.9232565, "bike_id": "8f752bbfc02bfc8825907590ce6ff618", "type": "electric_scooter", "is_reserved": 0, "lon": -77.029614}, {"fusion_lat": 0.0, "name": "1cf9bcdd2890c73a0026fc84a349ccd2", "is_disabled": 0, "rental_uris": {"android": "https://dc.lft.to/lastmile_qr_scan", "ios": "https://dc.lft.to/lastmile_qr_scan"}, "fusion_lon": 0.0, "lat": 38.8044395, "bike_id": "1cf9bcdd2890c73a0026fc84a349ccd2", "type": "electric_bike", "is_reserved": 0, "lon": -77.05388833333333}, {"fusion_lat": 0.0, "name": "cefcb9e37b8d70ee7ffa0d1a8d283b73", "is_disabled": 0, "rental_uris": {"android": "https://dc.lft.to/lastmile_qr_scan", "ios": "https://dc.lft.to/lastmile_qr_scan"}, "fusion_lon": 0.0, "lat": 38.926033833333335, "bike_id": "cefcb9e37b8d70ee7ffa0d1a8d283b73", "type": "electric_scooter", "is_reserved": 0, "lon": -77.02155033333334}, {"fusion_lat": 0.0, "name": "97c6c2c0c73fdac16196ddffbb83b6c3", "is_disabled": 0, "rental_uris": {"android": "https://dc.lft.to/lastmile_qr_scan", "ios": "https://dc.lft.to/lastmile_qr_scan"}, "fusion_lon": 0.0, "lat": 38.8774915, "bike_id": "97c6c2c0c73fdac16196ddffbb83b6c3", "type": "electric_scooter", "is_reserved": 0, "lon": -77.01431766666667}, {"fusion_lat": 0.0, "name": "bddfda0c1bb4c7a5be4ff314dbf34b65", "is_disabled": 0, "rental_uris": {"android": "https://dc.lft.to/lastmile_qr_scan", "ios": "https://dc.lft.to/lastmile_qr_scan"}, "fusion_lon": 0.0, "lat": 38.89826733333334, "bike_id": "bddfda0c1bb4c7a5be4ff314dbf34b65", "type": "electric_scooter", "is_reserved": 0, "lon": -76.9462965}, {"fusion_lat": 0.0, "name": "2142f5f948cd7e4dfd58c1ab81fe0e14", "is_disabled": 0, "rental_uris": {"android": "https://dc.lft.to/lastmile_qr_scan", "ios": "https://dc.lft.to/lastmile_qr_scan"}, "fusion_lon": 0.0, "lat": 38.8870655, "bike_id": "2142f5f948cd7e4dfd58c1ab81fe0e14", "type": "electric_scooter", "is_reserved": 0, "lon": -77.0025025}, {"fusion_lat": 0.0, "name": "343458ba9369468e1e98c3487de3ae45", "is_disabled": 0, "rental_uris": {"android": "https://dc.lft.to/lastmile_qr_scan", "ios": "https://dc.lft.to/lastmile_qr_scan"}, "fusion_lon": 0.0, "lat": 38.904067833333336, "bike_id": "343458ba9369468e1e98c3487de3ae45", "type": "electric_scooter", "is_reserved": 0, "lon": -76.9733275}, {"fusion_lat": 0.0, "name": "bc06ebe0b3df3f96b0fb67db637d8369", "is_disabled": 0, "rental_uris": {"android": "https://dc.lft.to/lastmile_qr_scan", "ios": "https://dc.lft.to/lastmile_qr_scan"}, "fusion_lon": 0.0, "lat": 38.900257, "bike_id": "bc06ebe0b3df3f96b0fb67db637d8369", "type": "electric_scooter", "is_reserved": 0, "lon": -77.04692233333333}, {"fusion_lat": 0.0, "name": "fe1c947b12fbc331362bbd4500e7e079", "is_disabled": 0, "rental_uris": {"android": "https://dc.lft.to/lastmile_qr_scan", "ios": "https://dc.lft.to/lastmile_qr_scan"}, "fusion_lon": 0.0, "lat": 38.879551, "bike_id": "fe1c947b12fbc331362bbd4500e7e079", "type": "electric_scooter", "is_reserved": 0, "lon": -76.990067}, {"fusion_lat": 0.0, "name": "ee3e4dd65d58af96d30aa774ab455983", "is_disabled": 0, "rental_uris": {"android": "https://dc.lft.to/lastmile_qr_scan", "ios": "https://dc.lft.to/lastmile_qr_scan"}, "fusion_lon": 0.0, "lat": 38.898543333333336, "bike_id": "ee3e4dd65d58af96d30aa774ab455983", "type": "electric_scooter", "is_reserved": 0, "lon": -77.050631}, {"fusion_lat": 0.0, "name": "19569a9476e252ae3b6974311c6b5df8", "is_disabled": 0, "rental_uris": {"android": "https://dc.lft.to/lastmile_qr_scan", "ios": "https://dc.lft.to/lastmile_qr_scan"}, "fusion_lon": 0.0, "lat": 38.916383333333336, "bike_id": "19569a9476e252ae3b6974311c6b5df8", "type": "electric_scooter", "is_reserved": 0, "lon": -77.03149466666666}, {"fusion_lat": 0.0, "name": "10f6f2dec9e52ab313cb5c94e7357421", "is_disabled": 0, "rental_uris": {"android": "https://dc.lft.to/lastmile_qr_scan", "ios": "https://dc.lft.to/lastmile_qr_scan"}, "fusion_lon": 0.0, "lat": 38.905597666666665, "bike_id": "10f6f2dec9e52ab313cb5c94e7357421", "type": "electric_scooter", "is_reserved": 0, "lon": -77.0240885}, {"fusion_lat": 0.0, "name": "baf6c597c0349b202098e4e4b53d9e14", "is_disabled": 0, "rental_uris": {"android": "https://dc.lft.to/lastmile_qr_scan", "ios": "https://dc.lft.to/lastmile_qr_scan"}, "fusion_lon": 0.0, "lat": 38.8831035, "bike_id": "baf6c597c0349b202098e4e4b53d9e14", "type": "electric_scooter", "is_reserved": 0, "lon": -77.01765316666666}, {"fusion_lat": 0.0, "name": "ea9a3a45ac9dcb460a95ca9747aaa4b9", "is_disabled": 0, "rental_uris": {"android": "https://dc.lft.to/lastmile_qr_scan", "ios": "https://dc.lft.to/lastmile_qr_scan"}, "fusion_lon": 0.0, "lat": 38.9217775, "bike_id": "ea9a3a45ac9dcb460a95ca9747aaa4b9", "type": "electric_scooter", "is_reserved": 0, "lon": -77.03818933333334}, {"fusion_lat": 0.0, "name": "bce90d0e6c4b7fae55456d8478946076", "is_disabled": 0, "rental_uris": {"android": "https://dc.lft.to/lastmile_qr_scan", "ios": "https://dc.lft.to/lastmile_qr_scan"}, "fusion_lon": 0.0, "lat": 38.897378, "bike_id": "bce90d0e6c4b7fae55456d8478946076", "type": "electric_scooter", "is_reserved": 0, "lon": -77.03221033333334}, {"fusion_lat": 0.0, "name": "5dc4011c4513d80d27c18a0fb4244cca", "is_disabled": 0, "rental_uris": {"android": "https://dc.lft.to/lastmile_qr_scan", "ios": "https://dc.lft.to/lastmile_qr_scan"}, "fusion_lon": 0.0, "lat": 38.9147045, "bike_id": "5dc4011c4513d80d27c18a0fb4244cca", "type": "electric_scooter", "is_reserved": 0, "lon": -77.04548333333334}, {"fusion_lat": 0.0, "name": "54a03b6ef6f695348957bff751ba772e", "is_disabled": 0, "rental_uris": {"android": "https://dc.lft.to/lastmile_qr_scan", "ios": "https://dc.lft.to/lastmile_qr_scan"}, "fusion_lon": 0.0, "lat": 38.903535, "bike_id": "54a03b6ef6f695348957bff751ba772e", "type": "electric_scooter", "is_reserved": 0, "lon": -76.99956733333333}, {"fusion_lat": 0.0, "name": "d0343181f4be8ac96e7911003fd7ca6a", "is_disabled": 0, "rental_uris": {"android": "https://dc.lft.to/lastmile_qr_scan", "ios": "https://dc.lft.to/lastmile_qr_scan"}, "fusion_lon": 0.0, "lat": 38.8217825, "bike_id": "d0343181f4be8ac96e7911003fd7ca6a", "type": "electric_bike", "is_reserved": 0, "lon": -76.995134}, {"fusion_lat": 0.0, "name": "37771e33812745a9d13248da5d253488", "is_disabled": 0, "rental_uris": {"android": "https://dc.lft.to/lastmile_qr_scan", "ios": "https://dc.lft.to/lastmile_qr_scan"}, "fusion_lon": 0.0, "lat": 38.91562833333333, "bike_id": "37771e33812745a9d13248da5d253488", "type": "electric_scooter", "is_reserved": 0, "lon": -77.03215366666667}, {"fusion_lat": 0.0, "name": "a6d0147fad432ba6768e24e475dd3ef9", "is_disabled": 0, "rental_uris": {"android": "https://dc.lft.to/lastmile_qr_scan", "ios": "https://dc.lft.to/lastmile_qr_scan"}, "fusion_lon": 0.0, "lat": 38.86558466666666, "bike_id": "a6d0147fad432ba6768e24e475dd3ef9", "type": "electric_scooter", "is_reserved": 0, "lon": -76.9834695}, {"fusion_lat": 0.0, "name": "e8d6b99130ed5e8d02ee243a9e6f7971", "is_disabled": 0, "rental_uris": {"android": "https://dc.lft.to/lastmile_qr_scan", "ios": "https://dc.lft.to/lastmile_qr_scan"}, "fusion_lon": 0.0, "lat": 38.899595833333336, "bike_id": "e8d6b99130ed5e8d02ee243a9e6f7971", "type": "electric_scooter", "is_reserved": 0, "lon": -77.04189233333334}, {"fusion_lat": 0.0, "name": "366bc3a7d271cd42679dc97dbe81f92a", "is_disabled": 0, "rental_uris": {"android": "https://dc.lft.to/lastmile_qr_scan", "ios": "https://dc.lft.to/lastmile_qr_scan"}, "fusion_lon": 0.0, "lat": 38.916935333333335, "bike_id": "366bc3a7d271cd42679dc97dbe81f92a", "type": "electric_scooter", "is_reserved": 0, "lon": -77.03102416666667}, {"fusion_lat": 0.0, "name": "9559a411852eadce2438facb47d4a069", "is_disabled": 0, "rental_uris": {"android": "https://dc.lft.to/lastmile_qr_scan", "ios": "https://dc.lft.to/lastmile_qr_scan"}, "fusion_lon": 0.0, "lat": 38.871346, "bike_id": "9559a411852eadce2438facb47d4a069", "type": "electric_bike", "is_reserved": 0, "lon": -77.10025833333333}, {"fusion_lat": 0.0, "name": "c4e34605ec6989204b6e9ff0de56fa06", "is_disabled": 0, "rental_uris": {"android": "https://dc.lft.to/lastmile_qr_scan", "ios": "https://dc.lft.to/lastmile_qr_scan"}, "fusion_lon": 0.0, "lat": 38.9110305, "bike_id": "c4e34605ec6989204b6e9ff0de56fa06", "type": "electric_scooter", "is_reserved": 0, "lon": -77.0250745}, {"fusion_lat": 0.0, "name": "92d7bca07f49b6b93a13b79c94c35422", "is_disabled": 0, "rental_uris": {"android": "https://dc.lft.to/lastmile_qr_scan", "ios": "https://dc.lft.to/lastmile_qr_scan"}, "fusion_lon": 0.0, "lat": 38.882594166666664, "bike_id": "92d7bca07f49b6b93a13b79c94c35422", "type": "electric_scooter", "is_reserved": 0, "lon": -76.99488683333334}, {"fusion_lat": 0.0, "name": "246ea39c55d56d83a0d1e50abbb7099a", "is_disabled": 0, "rental_uris": {"android": "https://dc.lft.to/lastmile_qr_scan", "ios": "https://dc.lft.to/lastmile_qr_scan"}, "fusion_lon": 0.0, "lat": 38.91261933333333, "bike_id": "246ea39c55d56d83a0d1e50abbb7099a", "type": "electric_scooter", "is_reserved": 0, "lon": -77.0473455}, {"fusion_lat": 0.0, "name": "74be48aba4ddfd85a8c2f4beb0ff4214", "is_disabled": 0, "rental_uris": {"android": "https://dc.lft.to/lastmile_qr_scan", "ios": "https://dc.lft.to/lastmile_qr_scan"}, "fusion_lon": 0.0, "lat": 38.87741716666667, "bike_id": "74be48aba4ddfd85a8c2f4beb0ff4214", "type": "electric_scooter", "is_reserved": 0, "lon": -77.00707466666667}, {"fusion_lat": 0.0, "name": "aad2dd08d4416176f993bfe90cbb80f0", "is_disabled": 0, "rental_uris": {"android": "https://dc.lft.to/lastmile_qr_scan", "ios": "https://dc.lft.to/lastmile_qr_scan"}, "fusion_lon": 0.0, "lat": 38.907820666666666, "bike_id": "aad2dd08d4416176f993bfe90cbb80f0", "type": "electric_scooter", "is_reserved": 0, "lon": -77.07179716666667}, {"fusion_lat": 0.0, "name": "58ad90eedbfa7db5883927b53ad41679", "is_disabled": 0, "rental_uris": {"android": "https://dc.lft.to/lastmile_qr_scan", "ios": "https://dc.lft.to/lastmile_qr_scan"}, "fusion_lon": 0.0, "lat": 38.90636883333333, "bike_id": "58ad90eedbfa7db5883927b53ad41679", "type": "electric_scooter", "is_reserved": 0, "lon": -77.07024133333333}, {"fusion_lat": 0.0, "name": "d169e5de3e5ec287dcc5dbd10f937a3c", "is_disabled": 0, "rental_uris": {"android": "https://dc.lft.to/lastmile_qr_scan", "ios": "https://dc.lft.to/lastmile_qr_scan"}, "fusion_lon": 0.0, "lat": 38.97479666666667, "bike_id": "d169e5de3e5ec287dcc5dbd10f937a3c", "type": "electric_scooter", "is_reserved": 0, "lon": -77.0146815}, {"fusion_lat": 0.0, "name": "1a7c4b94eddf3869e5d9b5371272b546", "is_disabled": 0, "rental_uris": {"android": "https://dc.lft.to/lastmile_qr_scan", "ios": "https://dc.lft.to/lastmile_qr_scan"}, "fusion_lon": 0.0, "lat": 38.94408133333334, "bike_id": "1a7c4b94eddf3869e5d9b5371272b546", "type": "electric_scooter", "is_reserved": 0, "lon": -77.03201316666667}, {"fusion_lat": 0.0, "name": "fcebc531b4f1d3b5879d996d48523988", "is_disabled": 0, "rental_uris": {"android": "https://dc.lft.to/lastmile_qr_scan", "ios": "https://dc.lft.to/lastmile_qr_scan"}, "fusion_lon": 0.0, "lat": 38.929601166666664, "bike_id": "fcebc531b4f1d3b5879d996d48523988", "type": "electric_scooter", "is_reserved": 0, "lon": -77.03098366666667}, {"fusion_lat": 0.0, "name": "9a300f6397938580414740462fb1ca40", "is_disabled": 0, "rental_uris": {"android": "https://dc.lft.to/lastmile_qr_scan", "ios": "https://dc.lft.to/lastmile_qr_scan"}, "fusion_lon": 0.0, "lat": 38.90660033333333, "bike_id": "9a300f6397938580414740462fb1ca40", "type": "electric_scooter", "is_reserved": 0, "lon": -77.04728083333333}, {"fusion_lat": 0.0, "name": "eabfcf407444eea4df48eba4e90d12c9", "is_disabled": 0, "rental_uris": {"android": "https://dc.lft.to/lastmile_qr_scan", "ios": "https://dc.lft.to/lastmile_qr_scan"}, "fusion_lon": 0.0, "lat": 38.89716166666667, "bike_id": "eabfcf407444eea4df48eba4e90d12c9", "type": "electric_scooter", "is_reserved": 0, "lon": -77.00803883333333}, {"fusion_lat": 0.0, "name": "614fbeddc155d2ce0af161b70381f318", "is_disabled": 0, "rental_uris": {"android": "https://dc.lft.to/lastmile_qr_scan", "ios": "https://dc.lft.to/lastmile_qr_scan"}, "fusion_lon": 0.0, "lat": 38.8789835, "bike_id": "614fbeddc155d2ce0af161b70381f318", "type": "electric_scooter", "is_reserved": 0, "lon": -77.01364016666666}, {"fusion_lat": 0.0, "name": "d3c9ff08c320b97008bbbcf2e9d763b8", "is_disabled": 0, "rental_uris": {"android": "https://dc.lft.to/lastmile_qr_scan", "ios": "https://dc.lft.to/lastmile_qr_scan"}, "fusion_lon": 0.0, "lat": 38.892820666666665, "bike_id": "d3c9ff08c320b97008bbbcf2e9d763b8", "type": "electric_scooter", "is_reserved": 0, "lon": -76.983042}, {"fusion_lat": 0.0, "name": "00f337e08ffaa57cd2eb2a2a46a3ac16", "is_disabled": 0, "rental_uris": {"android": "https://dc.lft.to/lastmile_qr_scan", "ios": "https://dc.lft.to/lastmile_qr_scan"}, "fusion_lon": 0.0, "lat": 38.90833283333333, "bike_id": "00f337e08ffaa57cd2eb2a2a46a3ac16", "type": "electric_scooter", "is_reserved": 0, "lon": -77.04462266666667}, {"fusion_lat": 0.0, "name": "3bb47bdd872e414aed86400e55c7860f", "is_disabled": 0, "rental_uris": {"android": "https://dc.lft.to/lastmile_qr_scan", "ios": "https://dc.lft.to/lastmile_qr_scan"}, "fusion_lon": 0.0, "lat": 38.91358733333333, "bike_id": "3bb47bdd872e414aed86400e55c7860f", "type": "electric_scooter", "is_reserved": 0, "lon": -77.032215}, {"fusion_lat": 0.0, "name": "1bd335e62ea3533866f68220f0f81ce5", "is_disabled": 0, "rental_uris": {"android": "https://dc.lft.to/lastmile_qr_scan", "ios": "https://dc.lft.to/lastmile_qr_scan"}, "fusion_lon": 0.0, "lat": 38.86162433333333, "bike_id": "1bd335e62ea3533866f68220f0f81ce5", "type": "electric_scooter", "is_reserved": 0, "lon": -76.98371033333333}, {"fusion_lat": 0.0, "name": "b6a093b0f4236807702234e7ba6ba4af", "is_disabled": 0, "rental_uris": {"android": "https://dc.lft.to/lastmile_qr_scan", "ios": "https://dc.lft.to/lastmile_qr_scan"}, "fusion_lon": 0.0, "lat": 38.90831166666667, "bike_id": "b6a093b0f4236807702234e7ba6ba4af", "type": "electric_scooter", "is_reserved": 0, "lon": -76.98264166666667}, {"fusion_lat": 0.0, "name": "bc5f76f5464c2b82feab5c0eb31e911a", "is_disabled": 0, "rental_uris": {"android": "https://dc.lft.to/lastmile_qr_scan", "ios": "https://dc.lft.to/lastmile_qr_scan"}, "fusion_lon": 0.0, "lat": 38.917257666666664, "bike_id": "bc5f76f5464c2b82feab5c0eb31e911a", "type": "electric_scooter", "is_reserved": 0, "lon": -77.04161866666666}, {"fusion_lat": 0.0, "name": "eb5494e37435787be99f77faf4c512cb", "is_disabled": 0, "rental_uris": {"android": "https://dc.lft.to/lastmile_qr_scan", "ios": "https://dc.lft.to/lastmile_qr_scan"}, "fusion_lon": 0.0, "lat": 38.921541500000004, "bike_id": "eb5494e37435787be99f77faf4c512cb", "type": "electric_scooter", "is_reserved": 0, "lon": -77.020246}, {"fusion_lat": 0.0, "name": "1191ee8d3ad2f769e94faef68af9f191", "is_disabled": 0, "rental_uris": {"android": "https://dc.lft.to/lastmile_qr_scan", "ios": "https://dc.lft.to/lastmile_qr_scan"}, "fusion_lon": 0.0, "lat": 38.89949383333333, "bike_id": "1191ee8d3ad2f769e94faef68af9f191", "type": "electric_scooter", "is_reserved": 0, "lon": -77.04674433333334}, {"fusion_lat": 0.0, "name": "695bbfd38bd2a79793fd0ba7e535b22c", "is_disabled": 0, "rental_uris": {"android": "https://dc.lft.to/lastmile_qr_scan", "ios": "https://dc.lft.to/lastmile_qr_scan"}, "fusion_lon": 0.0, "lat": 38.92041966666667, "bike_id": "695bbfd38bd2a79793fd0ba7e535b22c", "type": "electric_scooter", "is_reserved": 0, "lon": -77.03145416666666}, {"fusion_lat": 0.0, "name": "2375d801a82df1c678e0f493ae3d0326", "is_disabled": 0, "rental_uris": {"android": "https://dc.lft.to/lastmile_qr_scan", "ios": "https://dc.lft.to/lastmile_qr_scan"}, "fusion_lon": 0.0, "lat": 38.912971666666664, "bike_id": "2375d801a82df1c678e0f493ae3d0326", "type": "electric_scooter", "is_reserved": 0, "lon": -77.048736}, {"fusion_lat": 0.0, "name": "5580267447f33db9afc4ceebd4898a16", "is_disabled": 0, "rental_uris": {"android": "https://dc.lft.to/lastmile_qr_scan", "ios": "https://dc.lft.to/lastmile_qr_scan"}, "fusion_lon": 0.0, "lat": 38.906809, "bike_id": "5580267447f33db9afc4ceebd4898a16", "type": "electric_scooter", "is_reserved": 0, "lon": -77.04165916666666}, {"fusion_lat": 0.0, "name": "26d72919e14b6c5ba6f2424175dea901", "is_disabled": 0, "rental_uris": {"android": "https://dc.lft.to/lastmile_qr_scan", "ios": "https://dc.lft.to/lastmile_qr_scan"}, "fusion_lon": 0.0, "lat": 38.896001, "bike_id": "26d72919e14b6c5ba6f2424175dea901", "type": "electric_scooter", "is_reserved": 0, "lon": -77.02583266666667}, {"fusion_lat": 0.0, "name": "ab32e9ffe048a22475aa2cc9118da4df", "is_disabled": 0, "rental_uris": {"android": "https://dc.lft.to/lastmile_qr_scan", "ios": "https://dc.lft.to/lastmile_qr_scan"}, "fusion_lon": 0.0, "lat": 38.9039635, "bike_id": "ab32e9ffe048a22475aa2cc9118da4df", "type": "electric_scooter", "is_reserved": 0, "lon": -76.98464566666667}, {"fusion_lat": 0.0, "name": "503191d7a5e13f7993a29caa61fc050d", "is_disabled": 0, "rental_uris": {"android": "https://dc.lft.to/lastmile_qr_scan", "ios": "https://dc.lft.to/lastmile_qr_scan"}, "fusion_lon": 0.0, "lat": 38.89866416666667, "bike_id": "503191d7a5e13f7993a29caa61fc050d", "type": "electric_scooter", "is_reserved": 0, "lon": -77.02177916666666}, {"fusion_lat": 0.0, "name": "26877f3d6346362d8e56dc8d8f487a5e", "is_disabled": 0, "rental_uris": {"android": "https://dc.lft.to/lastmile_qr_scan", "ios": "https://dc.lft.to/lastmile_qr_scan"}, "fusion_lon": 0.0, "lat": 38.91287966666667, "bike_id": "26877f3d6346362d8e56dc8d8f487a5e", "type": "electric_scooter", "is_reserved": 0, "lon": -77.0474805}, {"fusion_lat": 0.0, "name": "f57935403547b43126cc27ea0087bfea", "is_disabled": 0, "rental_uris": {"android": "https://dc.lft.to/lastmile_qr_scan", "ios": "https://dc.lft.to/lastmile_qr_scan"}, "fusion_lon": 0.0, "lat": 38.95791716666667, "bike_id": "f57935403547b43126cc27ea0087bfea", "type": "electric_bike", "is_reserved": 0, "lon": -76.99970066666667}, {"fusion_lat": 0.0, "name": "030f2d63cc8196f8fac71902d6f063eb", "is_disabled": 0, "rental_uris": {"android": "https://dc.lft.to/lastmile_qr_scan", "ios": "https://dc.lft.to/lastmile_qr_scan"}, "fusion_lon": 0.0, "lat": 38.92974366666667, "bike_id": "030f2d63cc8196f8fac71902d6f063eb", "type": "electric_scooter", "is_reserved": 0, "lon": -77.02824483333333}, {"fusion_lat": 0.0, "name": "bae1e76956187ac89b31b1771c234830", "is_disabled": 0, "rental_uris": {"android": "https://dc.lft.to/lastmile_qr_scan", "ios": "https://dc.lft.to/lastmile_qr_scan"}, "fusion_lon": 0.0, "lat": 38.896028333333334, "bike_id": "bae1e76956187ac89b31b1771c234830", "type": "electric_scooter", "is_reserved": 0, "lon": -77.044858}, {"fusion_lat": 0.0, "name": "447a2b026c635db1a0898ab88adb27c1", "is_disabled": 0, "rental_uris": {"android": "https://dc.lft.to/lastmile_qr_scan", "ios": "https://dc.lft.to/lastmile_qr_scan"}, "fusion_lon": 0.0, "lat": 38.994239666666665, "bike_id": "447a2b026c635db1a0898ab88adb27c1", "type": "electric_bike", "is_reserved": 0, "lon": -77.03111233333334}, {"fusion_lat": 0.0, "name": "a2ce8cc668f0cf9c349084e1e18618dc", "is_disabled": 0, "rental_uris": {"android": "https://dc.lft.to/lastmile_qr_scan", "ios": "https://dc.lft.to/lastmile_qr_scan"}, "fusion_lon": 0.0, "lat": 38.928825833333335, "bike_id": "a2ce8cc668f0cf9c349084e1e18618dc", "type": "electric_scooter", "is_reserved": 0, "lon": -77.03296383333333}, {"fusion_lat": 0.0, "name": "dfbd100ad03e77684a39936b989a2707", "is_disabled": 0, "rental_uris": {"android": "https://dc.lft.to/lastmile_qr_scan", "ios": "https://dc.lft.to/lastmile_qr_scan"}, "fusion_lon": 0.0, "lat": 38.85778116666667, "bike_id": "dfbd100ad03e77684a39936b989a2707", "type": "electric_scooter", "is_reserved": 0, "lon": -76.9730005}, {"fusion_lat": 0.0, "name": "1bffc937f983406d84d9a4ad4615e263", "is_disabled": 0, "rental_uris": {"android": "https://dc.lft.to/lastmile_qr_scan", "ios": "https://dc.lft.to/lastmile_qr_scan"}, "fusion_lon": 0.0, "lat": 38.94594983333333, "bike_id": "1bffc937f983406d84d9a4ad4615e263", "type": "electric_scooter", "is_reserved": 0, "lon": -77.0297805}, {"fusion_lat": 0.0, "name": "d52af6c36fee4585052c4cb88e33552a", "is_disabled": 0, "rental_uris": {"android": "https://dc.lft.to/lastmile_qr_scan", "ios": "https://dc.lft.to/lastmile_qr_scan"}, "fusion_lon": 0.0, "lat": 38.903651333333336, "bike_id": "d52af6c36fee4585052c4cb88e33552a", "type": "electric_scooter", "is_reserved": 0, "lon": -77.061284}, {"fusion_lat": 0.0, "name": "ffa35438203bed6797d2b6b9ed3f681b", "is_disabled": 0, "rental_uris": {"android": "https://dc.lft.to/lastmile_qr_scan", "ios": "https://dc.lft.to/lastmile_qr_scan"}, "fusion_lon": 0.0, "lat": 38.845045, "bike_id": "ffa35438203bed6797d2b6b9ed3f681b", "type": "electric_bike", "is_reserved": 0, "lon": -76.99354616666666}, {"fusion_lat": 0.0, "name": "9258ceef907afc9efada4f09938ee024", "is_disabled": 0, "rental_uris": {"android": "https://dc.lft.to/lastmile_qr_scan", "ios": "https://dc.lft.to/lastmile_qr_scan"}, "fusion_lon": 0.0, "lat": 38.92077316666666, "bike_id": "9258ceef907afc9efada4f09938ee024", "type": "electric_scooter", "is_reserved": 0, "lon": -77.025064}, {"fusion_lat": 0.0, "name": "8914b2252dfa36c5faa5ef668d1a3a49", "is_disabled": 0, "rental_uris": {"android": "https://dc.lft.to/lastmile_qr_scan", "ios": "https://dc.lft.to/lastmile_qr_scan"}, "fusion_lon": 0.0, "lat": 38.91174616666667, "bike_id": "8914b2252dfa36c5faa5ef668d1a3a49", "type": "electric_scooter", "is_reserved": 0, "lon": -77.03956133333334}, {"fusion_lat": 0.0, "name": "eced1cc43cb82a86ea75f43c122b4678", "is_disabled": 0, "rental_uris": {"android": "https://dc.lft.to/lastmile_qr_scan", "ios": "https://dc.lft.to/lastmile_qr_scan"}, "fusion_lon": 0.0, "lat": 38.9253095, "bike_id": "eced1cc43cb82a86ea75f43c122b4678", "type": "electric_scooter", "is_reserved": 0, "lon": -77.0557315}, {"fusion_lat": 0.0, "name": "7a885ff9d6d0870c9745041113637fa9", "is_disabled": 0, "rental_uris": {"android": "https://dc.lft.to/lastmile_qr_scan", "ios": "https://dc.lft.to/lastmile_qr_scan"}, "fusion_lon": 0.0, "lat": 38.886805, "bike_id": "7a885ff9d6d0870c9745041113637fa9", "type": "electric_bike", "is_reserved": 0, "lon": -77.16235016666667}, {"fusion_lat": 0.0, "name": "ce39f3bc0bbd847a124841099e96bad6", "is_disabled": 0, "rental_uris": {"android": "https://dc.lft.to/lastmile_qr_scan", "ios": "https://dc.lft.to/lastmile_qr_scan"}, "fusion_lon": 0.0, "lat": 38.8845745, "bike_id": "ce39f3bc0bbd847a124841099e96bad6", "type": "electric_scooter", "is_reserved": 0, "lon": -76.92620316666667}, {"fusion_lat": 0.0, "name": "5491a0fa148d708630e37ba979e09ad7", "is_disabled": 0, "rental_uris": {"android": "https://dc.lft.to/lastmile_qr_scan", "ios": "https://dc.lft.to/lastmile_qr_scan"}, "fusion_lon": 0.0, "lat": 38.91324383333333, "bike_id": "5491a0fa148d708630e37ba979e09ad7", "type": "electric_scooter", "is_reserved": 0, "lon": -77.0318875}, {"fusion_lat": 0.0, "name": "eb54563b93a8661f7609f9f71c57f9c4", "is_disabled": 0, "rental_uris": {"android": "https://dc.lft.to/lastmile_qr_scan", "ios": "https://dc.lft.to/lastmile_qr_scan"}, "fusion_lon": 0.0, "lat": 38.907978, "bike_id": "eb54563b93a8661f7609f9f71c57f9c4", "type": "electric_scooter", "is_reserved": 0, "lon": -76.996999}, {"fusion_lat": 0.0, "name": "b57b5a06f1d97e28f0295d45ec965d08", "is_disabled": 0, "rental_uris": {"android": "https://dc.lft.to/lastmile_qr_scan", "ios": "https://dc.lft.to/lastmile_qr_scan"}, "fusion_lon": 0.0, "lat": 38.881412833333336, "bike_id": "b57b5a06f1d97e28f0295d45ec965d08", "type": "electric_scooter", "is_reserved": 0, "lon": -77.0270815}, {"fusion_lat": 0.0, "name": "c113aaadff3ef2c788e2797bfdf890bc", "is_disabled": 0, "rental_uris": {"android": "https://dc.lft.to/lastmile_qr_scan", "ios": "https://dc.lft.to/lastmile_qr_scan"}, "fusion_lon": 0.0, "lat": 38.91546666666667, "bike_id": "c113aaadff3ef2c788e2797bfdf890bc", "type": "electric_scooter", "is_reserved": 0, "lon": -77.04176233333334}, {"fusion_lat": 0.0, "name": "eaceb61ea77bd3857fac85826a76fcbc", "is_disabled": 0, "rental_uris": {"android": "https://dc.lft.to/lastmile_qr_scan", "ios": "https://dc.lft.to/lastmile_qr_scan"}, "fusion_lon": 0.0, "lat": 38.91483, "bike_id": "eaceb61ea77bd3857fac85826a76fcbc", "type": "electric_scooter", "is_reserved": 0, "lon": -77.04135383333333}, {"fusion_lat": 0.0, "name": "334fa9ddceff368eb1c449147912b69f", "is_disabled": 0, "rental_uris": {"android": "https://dc.lft.to/lastmile_qr_scan", "ios": "https://dc.lft.to/lastmile_qr_scan"}, "fusion_lon": 0.0, "lat": 38.91555266666667, "bike_id": "334fa9ddceff368eb1c449147912b69f", "type": "electric_scooter", "is_reserved": 0, "lon": -77.02047816666666}, {"fusion_lat": 0.0, "name": "a087cff35cb0b436b651008a58b2eaa9", "is_disabled": 0, "rental_uris": {"android": "https://dc.lft.to/lastmile_qr_scan", "ios": "https://dc.lft.to/lastmile_qr_scan"}, "fusion_lon": 0.0, "lat": 38.9170275, "bike_id": "a087cff35cb0b436b651008a58b2eaa9", "type": "electric_scooter", "is_reserved": 0, "lon": -77.026879}, {"fusion_lat": 0.0, "name": "608b1ea67c247fec1678665da29bfa88", "is_disabled": 0, "rental_uris": {"android": "https://dc.lft.to/lastmile_qr_scan", "ios": "https://dc.lft.to/lastmile_qr_scan"}, "fusion_lon": 0.0, "lat": 38.90260166666667, "bike_id": "608b1ea67c247fec1678665da29bfa88", "type": "electric_scooter", "is_reserved": 0, "lon": -76.97461066666666}, {"fusion_lat": 0.0, "name": "d222a3a356a15de41ae6faf05e5e052b", "is_disabled": 0, "rental_uris": {"android": "https://dc.lft.to/lastmile_qr_scan", "ios": "https://dc.lft.to/lastmile_qr_scan"}, "fusion_lon": 0.0, "lat": 38.904075666666664, "bike_id": "d222a3a356a15de41ae6faf05e5e052b", "type": "electric_scooter", "is_reserved": 0, "lon": -76.97328816666666}, {"fusion_lat": 0.0, "name": "b78d542a08d0bccd4f18f71785bf4a3f", "is_disabled": 0, "rental_uris": {"android": "https://dc.lft.to/lastmile_qr_scan", "ios": "https://dc.lft.to/lastmile_qr_scan"}, "fusion_lon": 0.0, "lat": 38.89247983333333, "bike_id": "b78d542a08d0bccd4f18f71785bf4a3f", "type": "electric_scooter", "is_reserved": 0, "lon": -77.0465415}, {"fusion_lat": 0.0, "name": "796ea0093bab9ba694f1db477b6aeaf5", "is_disabled": 0, "rental_uris": {"android": "https://dc.lft.to/lastmile_qr_scan", "ios": "https://dc.lft.to/lastmile_qr_scan"}, "fusion_lon": 0.0, "lat": 38.897499, "bike_id": "796ea0093bab9ba694f1db477b6aeaf5", "type": "electric_scooter", "is_reserved": 0, "lon": -77.02465566666666}, {"fusion_lat": 0.0, "name": "23ef98ab170412b994a4b6baf8f65d3e", "is_disabled": 0, "rental_uris": {"android": "https://dc.lft.to/lastmile_qr_scan", "ios": "https://dc.lft.to/lastmile_qr_scan"}, "fusion_lon": 0.0, "lat": 38.89968783333333, "bike_id": "23ef98ab170412b994a4b6baf8f65d3e", "type": "electric_scooter", "is_reserved": 0, "lon": -77.048618}, {"fusion_lat": 0.0, "name": "d1f67dfb368b611842a052adef7f52b5", "is_disabled": 0, "rental_uris": {"android": "https://dc.lft.to/lastmile_qr_scan", "ios": "https://dc.lft.to/lastmile_qr_scan"}, "fusion_lon": 0.0, "lat": 38.893989, "bike_id": "d1f67dfb368b611842a052adef7f52b5", "type": "electric_scooter", "is_reserved": 0, "lon": -76.99487183333333}, {"fusion_lat": 0.0, "name": "41806345be6aa9c75f91d3a4d7001950", "is_disabled": 0, "rental_uris": {"android": "https://dc.lft.to/lastmile_qr_scan", "ios": "https://dc.lft.to/lastmile_qr_scan"}, "fusion_lon": 0.0, "lat": 38.941934, "bike_id": "41806345be6aa9c75f91d3a4d7001950", "type": "electric_scooter", "is_reserved": 0, "lon": -77.02588083333333}, {"fusion_lat": 0.0, "name": "a30133b16f83e9aea10bff4ebc1b2d6f", "is_disabled": 0, "rental_uris": {"android": "https://dc.lft.to/lastmile_qr_scan", "ios": "https://dc.lft.to/lastmile_qr_scan"}, "fusion_lon": 0.0, "lat": 38.9006395, "bike_id": "a30133b16f83e9aea10bff4ebc1b2d6f", "type": "electric_scooter", "is_reserved": 0, "lon": -77.02270833333333}, {"fusion_lat": 0.0, "name": "85fc57d938e874aa01066e2bf7652382", "is_disabled": 0, "rental_uris": {"android": "https://dc.lft.to/lastmile_qr_scan", "ios": "https://dc.lft.to/lastmile_qr_scan"}, "fusion_lon": 0.0, "lat": 38.922968833333336, "bike_id": "85fc57d938e874aa01066e2bf7652382", "type": "electric_scooter", "is_reserved": 0, "lon": -77.041713}, {"fusion_lat": 0.0, "name": "24a067af3f091f28593639bb11d7cd4a", "is_disabled": 0, "rental_uris": {"android": "https://dc.lft.to/lastmile_qr_scan", "ios": "https://dc.lft.to/lastmile_qr_scan"}, "fusion_lon": 0.0, "lat": 38.88741533333334, "bike_id": "24a067af3f091f28593639bb11d7cd4a", "type": "electric_scooter", "is_reserved": 0, "lon": -76.98360583333333}, {"fusion_lat": 0.0, "name": "9b9afa2be5c1559c80dde4f7cb24d3ae", "is_disabled": 0, "rental_uris": {"android": "https://dc.lft.to/lastmile_qr_scan", "ios": "https://dc.lft.to/lastmile_qr_scan"}, "fusion_lon": 0.0, "lat": 38.9611165, "bike_id": "9b9afa2be5c1559c80dde4f7cb24d3ae", "type": "electric_scooter", "is_reserved": 0, "lon": -77.08490633333334}, {"fusion_lat": 0.0, "name": "6f6a019339c76691c9cc727bfab98e4d", "is_disabled": 0, "rental_uris": {"android": "https://dc.lft.to/lastmile_qr_scan", "ios": "https://dc.lft.to/lastmile_qr_scan"}, "fusion_lon": 0.0, "lat": 38.928272166666666, "bike_id": "6f6a019339c76691c9cc727bfab98e4d", "type": "electric_scooter", "is_reserved": 0, "lon": -77.01405133333333}, {"fusion_lat": 0.0, "name": "a026f5faa3bc49b2b903d219470a4e98", "is_disabled": 0, "rental_uris": {"android": "https://dc.lft.to/lastmile_qr_scan", "ios": "https://dc.lft.to/lastmile_qr_scan"}, "fusion_lon": 0.0, "lat": 38.922192, "bike_id": "a026f5faa3bc49b2b903d219470a4e98", "type": "electric_bike", "is_reserved": 0, "lon": -77.20139}, {"fusion_lat": 0.0, "name": "a4e9a1d3b56893f65971a846dab8fd6d", "is_disabled": 0, "rental_uris": {"android": "https://dc.lft.to/lastmile_qr_scan", "ios": "https://dc.lft.to/lastmile_qr_scan"}, "fusion_lon": 0.0, "lat": 38.928274333333334, "bike_id": "a4e9a1d3b56893f65971a846dab8fd6d", "type": "electric_scooter", "is_reserved": 0, "lon": -77.05437566666667}, {"fusion_lat": 0.0, "name": "aba2da6e8288c90d04bbbf928b2d1a52", "is_disabled": 0, "rental_uris": {"android": "https://dc.lft.to/lastmile_qr_scan", "ios": "https://dc.lft.to/lastmile_qr_scan"}, "fusion_lon": 0.0, "lat": 38.95749566666667, "bike_id": "aba2da6e8288c90d04bbbf928b2d1a52", "type": "electric_bike", "is_reserved": 0, "lon": -77.02177166666667}, {"fusion_lat": 0.0, "name": "7a742cc9968863fb03b3aa44000a6fda", "is_disabled": 0, "rental_uris": {"android": "https://dc.lft.to/lastmile_qr_scan", "ios": "https://dc.lft.to/lastmile_qr_scan"}, "fusion_lon": 0.0, "lat": 38.9266565, "bike_id": "7a742cc9968863fb03b3aa44000a6fda", "type": "electric_bike", "is_reserved": 0, "lon": -77.09848116666667}, {"fusion_lat": 0.0, "name": "c983bc6a863084bc38213205c7bca5d5", "is_disabled": 0, "rental_uris": {"android": "https://dc.lft.to/lastmile_qr_scan", "ios": "https://dc.lft.to/lastmile_qr_scan"}, "fusion_lon": 0.0, "lat": 38.894435333333334, "bike_id": "c983bc6a863084bc38213205c7bca5d5", "type": "electric_scooter", "is_reserved": 0, "lon": -77.02635866666667}, {"fusion_lat": 0.0, "name": "3b2162c3388ae883fc95f6f7f3515b3d", "is_disabled": 0, "rental_uris": {"android": "https://dc.lft.to/lastmile_qr_scan", "ios": "https://dc.lft.to/lastmile_qr_scan"}, "fusion_lon": 0.0, "lat": 38.914079666666666, "bike_id": "3b2162c3388ae883fc95f6f7f3515b3d", "type": "electric_scooter", "is_reserved": 0, "lon": -77.03998383333334}, {"fusion_lat": 0.0, "name": "45c50abbf9df89bfff4270e6e8b1b7ee", "is_disabled": 0, "rental_uris": {"android": "https://dc.lft.to/lastmile_qr_scan", "ios": "https://dc.lft.to/lastmile_qr_scan"}, "fusion_lon": 0.0, "lat": 38.915713333333336, "bike_id": "45c50abbf9df89bfff4270e6e8b1b7ee", "type": "electric_scooter", "is_reserved": 0, "lon": -77.0314185}, {"fusion_lat": 0.0, "name": "427b367145cdc80f209e3c3cc2753c76", "is_disabled": 0, "rental_uris": {"android": "https://dc.lft.to/lastmile_qr_scan", "ios": "https://dc.lft.to/lastmile_qr_scan"}, "fusion_lon": 0.0, "lat": 38.88311683333333, "bike_id": "427b367145cdc80f209e3c3cc2753c76", "type": "electric_scooter", "is_reserved": 0, "lon": -76.99161133333334}, {"fusion_lat": 0.0, "name": "bc46a1c41548f6db3097b9b17d13a7b4", "is_disabled": 0, "rental_uris": {"android": "https://dc.lft.to/lastmile_qr_scan", "ios": "https://dc.lft.to/lastmile_qr_scan"}, "fusion_lon": 0.0, "lat": 38.91268933333333, "bike_id": "bc46a1c41548f6db3097b9b17d13a7b4", "type": "electric_scooter", "is_reserved": 0, "lon": -77.03849483333333}, {"fusion_lat": 0.0, "name": "dc508623cc0dfc513333739d7976765c", "is_disabled": 0, "rental_uris": {"android": "https://dc.lft.to/lastmile_qr_scan", "ios": "https://dc.lft.to/lastmile_qr_scan"}, "fusion_lon": 0.0, "lat": 38.911100166666664, "bike_id": "dc508623cc0dfc513333739d7976765c", "type": "electric_scooter", "is_reserved": 0, "lon": -77.01147233333333}, {"fusion_lat": 0.0, "name": "bda53be9cb97f59924c35a19cb52eac9", "is_disabled": 0, "rental_uris": {"android": "https://dc.lft.to/lastmile_qr_scan", "ios": "https://dc.lft.to/lastmile_qr_scan"}, "fusion_lon": 0.0, "lat": 38.89740416666667, "bike_id": "bda53be9cb97f59924c35a19cb52eac9", "type": "electric_scooter", "is_reserved": 0, "lon": -77.02003466666666}, {"fusion_lat": 0.0, "name": "aeab2292dceff0579e9aa875a1095930", "is_disabled": 0, "rental_uris": {"android": "https://dc.lft.to/lastmile_qr_scan", "ios": "https://dc.lft.to/lastmile_qr_scan"}, "fusion_lon": 0.0, "lat": 38.957421833333335, "bike_id": "aeab2292dceff0579e9aa875a1095930", "type": "electric_bike", "is_reserved": 0, "lon": -76.97255916666667}, {"fusion_lat": 0.0, "name": "fd6c7b3567e5db68370e1a04ee9e9056", "is_disabled": 0, "rental_uris": {"android": "https://dc.lft.to/lastmile_qr_scan", "ios": "https://dc.lft.to/lastmile_qr_scan"}, "fusion_lon": 0.0, "lat": 38.91319766666667, "bike_id": "fd6c7b3567e5db68370e1a04ee9e9056", "type": "electric_scooter", "is_reserved": 0, "lon": -77.029521}, {"fusion_lat": 0.0, "name": "4e4d9f124df2cdaf9c98f1d320cdaea7", "is_disabled": 0, "rental_uris": {"android": "https://dc.lft.to/lastmile_qr_scan", "ios": "https://dc.lft.to/lastmile_qr_scan"}, "fusion_lon": 0.0, "lat": 38.922252, "bike_id": "4e4d9f124df2cdaf9c98f1d320cdaea7", "type": "electric_scooter", "is_reserved": 0, "lon": -76.99354433333333}, {"fusion_lat": 0.0, "name": "d2c3b06ee05028c3586e8f2f0949c2a9", "is_disabled": 0, "rental_uris": {"android": "https://dc.lft.to/lastmile_qr_scan", "ios": "https://dc.lft.to/lastmile_qr_scan"}, "fusion_lon": 0.0, "lat": 38.916953, "bike_id": "d2c3b06ee05028c3586e8f2f0949c2a9", "type": "electric_scooter", "is_reserved": 0, "lon": -77.0263225}, {"fusion_lat": 0.0, "name": "96e7ced75c329639ba393b68fb7b423e", "is_disabled": 0, "rental_uris": {"android": "https://dc.lft.to/lastmile_qr_scan", "ios": "https://dc.lft.to/lastmile_qr_scan"}, "fusion_lon": 0.0, "lat": 38.92083233333334, "bike_id": "96e7ced75c329639ba393b68fb7b423e", "type": "electric_scooter", "is_reserved": 0, "lon": -77.07367433333333}, {"fusion_lat": 0.0, "name": "629a5fc8e22d25d2ebe402d1e0ab5ca7", "is_disabled": 0, "rental_uris": {"android": "https://dc.lft.to/lastmile_qr_scan", "ios": "https://dc.lft.to/lastmile_qr_scan"}, "fusion_lon": 0.0, "lat": 38.95632916666667, "bike_id": "629a5fc8e22d25d2ebe402d1e0ab5ca7", "type": "electric_scooter", "is_reserved": 0, "lon": -77.03305666666667}, {"fusion_lat": 0.0, "name": "3d592eb84630347bca28e113cd342405", "is_disabled": 0, "rental_uris": {"android": "https://dc.lft.to/lastmile_qr_scan", "ios": "https://dc.lft.to/lastmile_qr_scan"}, "fusion_lon": 0.0, "lat": 38.958715833333336, "bike_id": "3d592eb84630347bca28e113cd342405", "type": "electric_bike", "is_reserved": 0, "lon": -76.97054383333334}, {"fusion_lat": 0.0, "name": "87f6917ddaece1fbe9689153e78ac42c", "is_disabled": 0, "rental_uris": {"android": "https://dc.lft.to/lastmile_qr_scan", "ios": "https://dc.lft.to/lastmile_qr_scan"}, "fusion_lon": 0.0, "lat": 38.950628333333334, "bike_id": "87f6917ddaece1fbe9689153e78ac42c", "type": "electric_bike", "is_reserved": 0, "lon": -77.07226066666666}, {"fusion_lat": 0.0, "name": "0c7d4f6c75e8c7558d6e96e5631915e8", "is_disabled": 0, "rental_uris": {"android": "https://dc.lft.to/lastmile_qr_scan", "ios": "https://dc.lft.to/lastmile_qr_scan"}, "fusion_lon": 0.0, "lat": 38.874024, "bike_id": "0c7d4f6c75e8c7558d6e96e5631915e8", "type": "electric_scooter", "is_reserved": 0, "lon": -77.000695}, {"fusion_lat": 0.0, "name": "e2d01df73bf05a7926bed1aba54af087", "is_disabled": 0, "rental_uris": {"android": "https://dc.lft.to/lastmile_qr_scan", "ios": "https://dc.lft.to/lastmile_qr_scan"}, "fusion_lon": 0.0, "lat": 38.94530966666667, "bike_id": "e2d01df73bf05a7926bed1aba54af087", "type": "electric_scooter", "is_reserved": 0, "lon": -77.02527816666667}, {"fusion_lat": 0.0, "name": "2220e2d37fecee2f84ebe5941a388a29", "is_disabled": 0, "rental_uris": {"android": "https://dc.lft.to/lastmile_qr_scan", "ios": "https://dc.lft.to/lastmile_qr_scan"}, "fusion_lon": 0.0, "lat": 38.865816333333335, "bike_id": "2220e2d37fecee2f84ebe5941a388a29", "type": "electric_scooter", "is_reserved": 0, "lon": -76.989269}, {"fusion_lat": 0.0, "name": "eafcfce6ed51ae95f755bca3b06af0dd", "is_disabled": 0, "rental_uris": {"android": "https://dc.lft.to/lastmile_qr_scan", "ios": "https://dc.lft.to/lastmile_qr_scan"}, "fusion_lon": 0.0, "lat": 38.89946966666667, "bike_id": "eafcfce6ed51ae95f755bca3b06af0dd", "type": "electric_scooter", "is_reserved": 0, "lon": -77.01596833333333}, {"fusion_lat": 0.0, "name": "8b2139a544cc278c47e4fdcb9ccf82b5", "is_disabled": 0, "rental_uris": {"android": "https://dc.lft.to/lastmile_qr_scan", "ios": "https://dc.lft.to/lastmile_qr_scan"}, "fusion_lon": 0.0, "lat": 38.88301666666667, "bike_id": "8b2139a544cc278c47e4fdcb9ccf82b5", "type": "electric_scooter", "is_reserved": 0, "lon": -76.94858583333334}, {"fusion_lat": 0.0, "name": "14eaecf7dac09d0f376d3621bcba8dc3", "is_disabled": 0, "rental_uris": {"android": "https://dc.lft.to/lastmile_qr_scan", "ios": "https://dc.lft.to/lastmile_qr_scan"}, "fusion_lon": 0.0, "lat": 38.884275333333335, "bike_id": "14eaecf7dac09d0f376d3621bcba8dc3", "type": "electric_scooter", "is_reserved": 0, "lon": -76.98573683333333}, {"fusion_lat": 0.0, "name": "43ca5eb936dc42da40f7c69efff2c779", "is_disabled": 0, "rental_uris": {"android": "https://dc.lft.to/lastmile_qr_scan", "ios": "https://dc.lft.to/lastmile_qr_scan"}, "fusion_lon": 0.0, "lat": 38.89233516666667, "bike_id": "43ca5eb936dc42da40f7c69efff2c779", "type": "electric_scooter", "is_reserved": 0, "lon": -77.04162633333334}, {"fusion_lat": 0.0, "name": "38fd48e9353c0c53e30f29ac55b8c86a", "is_disabled": 0, "rental_uris": {"android": "https://dc.lft.to/lastmile_qr_scan", "ios": "https://dc.lft.to/lastmile_qr_scan"}, "fusion_lon": 0.0, "lat": 38.900096166666664, "bike_id": "38fd48e9353c0c53e30f29ac55b8c86a", "type": "electric_scooter", "is_reserved": 0, "lon": -76.9990235}, {"fusion_lat": 0.0, "name": "1e48c87487cc68bb5978435082d0998b", "is_disabled": 0, "rental_uris": {"android": "https://dc.lft.to/lastmile_qr_scan", "ios": "https://dc.lft.to/lastmile_qr_scan"}, "fusion_lon": 0.0, "lat": 39.07049033333333, "bike_id": "1e48c87487cc68bb5978435082d0998b", "type": "electric_bike", "is_reserved": 0, "lon": -77.11486033333334}, {"fusion_lat": 0.0, "name": "dad2259c19cc3378d19b6ce7b2c1c41f", "is_disabled": 0, "rental_uris": {"android": "https://dc.lft.to/lastmile_qr_scan", "ios": "https://dc.lft.to/lastmile_qr_scan"}, "fusion_lon": 0.0, "lat": 38.8990585, "bike_id": "dad2259c19cc3378d19b6ce7b2c1c41f", "type": "electric_scooter", "is_reserved": 0, "lon": -76.92741116666667}, {"fusion_lat": 0.0, "name": "4512cb60757545d73ca1c1271e4e8127", "is_disabled": 0, "rental_uris": {"android": "https://dc.lft.to/lastmile_qr_scan", "ios": "https://dc.lft.to/lastmile_qr_scan"}, "fusion_lon": 0.0, "lat": 38.89617166666667, "bike_id": "4512cb60757545d73ca1c1271e4e8127", "type": "electric_scooter", "is_reserved": 0, "lon": -77.026108}, {"fusion_lat": 0.0, "name": "c8ccc33ac581cd15e504f6036576f1e2", "is_disabled": 0, "rental_uris": {"android": "https://dc.lft.to/lastmile_qr_scan", "ios": "https://dc.lft.to/lastmile_qr_scan"}, "fusion_lon": 0.0, "lat": 38.9239465, "bike_id": "c8ccc33ac581cd15e504f6036576f1e2", "type": "electric_scooter", "is_reserved": 0, "lon": -77.04302216666666}, {"fusion_lat": 0.0, "name": "ff2b890f946a204b01218c47854e7dcd", "is_disabled": 0, "rental_uris": {"android": "https://dc.lft.to/lastmile_qr_scan", "ios": "https://dc.lft.to/lastmile_qr_scan"}, "fusion_lon": 0.0, "lat": 38.89221033333333, "bike_id": "ff2b890f946a204b01218c47854e7dcd", "type": "electric_scooter", "is_reserved": 0, "lon": -77.04514583333334}, {"fusion_lat": 0.0, "name": "af680a67511d544d3b01307adecb5a6c", "is_disabled": 0, "rental_uris": {"android": "https://dc.lft.to/lastmile_qr_scan", "ios": "https://dc.lft.to/lastmile_qr_scan"}, "fusion_lon": 0.0, "lat": 38.89742833333333, "bike_id": "af680a67511d544d3b01307adecb5a6c", "type": "electric_scooter", "is_reserved": 0, "lon": -77.04366216666666}, {"fusion_lat": 0.0, "name": "f5f4a3ec05b3e87f0a79d35dc6d5a0ab", "is_disabled": 0, "rental_uris": {"android": "https://dc.lft.to/lastmile_qr_scan", "ios": "https://dc.lft.to/lastmile_qr_scan"}, "fusion_lon": 0.0, "lat": 38.955925, "bike_id": "f5f4a3ec05b3e87f0a79d35dc6d5a0ab", "type": "electric_bike", "is_reserved": 0, "lon": -76.9953405}, {"fusion_lat": 0.0, "name": "b5991a17c347fc2ffd1d151af0eaf6c9", "is_disabled": 0, "rental_uris": {"android": "https://dc.lft.to/lastmile_qr_scan", "ios": "https://dc.lft.to/lastmile_qr_scan"}, "fusion_lon": 0.0, "lat": 38.8999015, "bike_id": "b5991a17c347fc2ffd1d151af0eaf6c9", "type": "electric_scooter", "is_reserved": 0, "lon": -76.99932033333333}, {"fusion_lat": 0.0, "name": "af7568a1f1b39eae8d33bd16b1b008b7", "is_disabled": 0, "rental_uris": {"android": "https://dc.lft.to/lastmile_qr_scan", "ios": "https://dc.lft.to/lastmile_qr_scan"}, "fusion_lon": 0.0, "lat": 38.898449666666664, "bike_id": "af7568a1f1b39eae8d33bd16b1b008b7", "type": "electric_scooter", "is_reserved": 0, "lon": -77.0318125}, {"fusion_lat": 0.0, "name": "53023de2cf27a429b044969f69e308c0", "is_disabled": 0, "rental_uris": {"android": "https://dc.lft.to/lastmile_qr_scan", "ios": "https://dc.lft.to/lastmile_qr_scan"}, "fusion_lon": 0.0, "lat": 38.84126333333333, "bike_id": "53023de2cf27a429b044969f69e308c0", "type": "electric_bike", "is_reserved": 0, "lon": -77.06309883333333}, {"fusion_lat": 0.0, "name": "8e98ec0d021854978fe903ca2bde845d", "is_disabled": 0, "rental_uris": {"android": "https://dc.lft.to/lastmile_qr_scan", "ios": "https://dc.lft.to/lastmile_qr_scan"}, "fusion_lon": 0.0, "lat": 38.94288783333333, "bike_id": "8e98ec0d021854978fe903ca2bde845d", "type": "electric_scooter", "is_reserved": 0, "lon": -77.02170083333333}, {"fusion_lat": 0.0, "name": "ed81b12327764287bd10ff3a61df70fd", "is_disabled": 0, "rental_uris": {"android": "https://dc.lft.to/lastmile_qr_scan", "ios": "https://dc.lft.to/lastmile_qr_scan"}, "fusion_lon": 0.0, "lat": 38.893535666666665, "bike_id": "ed81b12327764287bd10ff3a61df70fd", "type": "electric_scooter", "is_reserved": 0, "lon": -77.0034165}, {"fusion_lat": 0.0, "name": "b5d493b1f05f6e8a1eb46f158bdc855c", "is_disabled": 0, "rental_uris": {"android": "https://dc.lft.to/lastmile_qr_scan", "ios": "https://dc.lft.to/lastmile_qr_scan"}, "fusion_lon": 0.0, "lat": 38.914195, "bike_id": "b5d493b1f05f6e8a1eb46f158bdc855c", "type": "electric_scooter", "is_reserved": 0, "lon": -77.03167466666666}, {"fusion_lat": 0.0, "name": "40938af653b87265092859c72662f490", "is_disabled": 0, "rental_uris": {"android": "https://dc.lft.to/lastmile_qr_scan", "ios": "https://dc.lft.to/lastmile_qr_scan"}, "fusion_lon": 0.0, "lat": 38.931201, "bike_id": "40938af653b87265092859c72662f490", "type": "electric_scooter", "is_reserved": 0, "lon": -76.984434}, {"fusion_lat": 0.0, "name": "fc8bd3047cda4bc3c28168383f017f57", "is_disabled": 0, "rental_uris": {"android": "https://dc.lft.to/lastmile_qr_scan", "ios": "https://dc.lft.to/lastmile_qr_scan"}, "fusion_lon": 0.0, "lat": 38.90564216666667, "bike_id": "fc8bd3047cda4bc3c28168383f017f57", "type": "electric_scooter", "is_reserved": 0, "lon": -77.00596033333333}, {"fusion_lat": 0.0, "name": "28c091d1805c780dcff13d4240a8bb91", "is_disabled": 0, "rental_uris": {"android": "https://dc.lft.to/lastmile_qr_scan", "ios": "https://dc.lft.to/lastmile_qr_scan"}, "fusion_lon": 0.0, "lat": 38.899605, "bike_id": "28c091d1805c780dcff13d4240a8bb91", "type": "electric_scooter", "is_reserved": 0, "lon": -76.98163}, {"fusion_lat": 0.0, "name": "4a4e2ed332c62a8926721fe485eb17f9", "is_disabled": 0, "rental_uris": {"android": "https://dc.lft.to/lastmile_qr_scan", "ios": "https://dc.lft.to/lastmile_qr_scan"}, "fusion_lon": 0.0, "lat": 38.846090333333336, "bike_id": "4a4e2ed332c62a8926721fe485eb17f9", "type": "electric_bike", "is_reserved": 0, "lon": -76.969036}, {"fusion_lat": 0.0, "name": "6b46292ca7b09681d8786853396db0d1", "is_disabled": 0, "rental_uris": {"android": "https://dc.lft.to/lastmile_qr_scan", "ios": "https://dc.lft.to/lastmile_qr_scan"}, "fusion_lon": 0.0, "lat": 38.90982233333333, "bike_id": "6b46292ca7b09681d8786853396db0d1", "type": "electric_scooter", "is_reserved": 0, "lon": -77.02814883333333}, {"fusion_lat": 0.0, "name": "f2876316758db56acc76bc61f236392e", "is_disabled": 0, "rental_uris": {"android": "https://dc.lft.to/lastmile_qr_scan", "ios": "https://dc.lft.to/lastmile_qr_scan"}, "fusion_lon": 0.0, "lat": 38.9149035, "bike_id": "f2876316758db56acc76bc61f236392e", "type": "electric_bike", "is_reserved": 0, "lon": -77.01009566666667}, {"fusion_lat": 0.0, "name": "795e353d6d3c23c5895028b72f5fdd65", "is_disabled": 0, "rental_uris": {"android": "https://dc.lft.to/lastmile_qr_scan", "ios": "https://dc.lft.to/lastmile_qr_scan"}, "fusion_lon": 0.0, "lat": 38.91702216666667, "bike_id": "795e353d6d3c23c5895028b72f5fdd65", "type": "electric_scooter", "is_reserved": 0, "lon": -77.040445}, {"fusion_lat": 0.0, "name": "460581e811d84e0f5cc7805466f4ffbd", "is_disabled": 0, "rental_uris": {"android": "https://dc.lft.to/lastmile_qr_scan", "ios": "https://dc.lft.to/lastmile_qr_scan"}, "fusion_lon": 0.0, "lat": 38.918833, "bike_id": "460581e811d84e0f5cc7805466f4ffbd", "type": "electric_scooter", "is_reserved": 0, "lon": -77.02967816666667}, {"fusion_lat": 0.0, "name": "743dd95139bb828f97ec46750936b8c9", "is_disabled": 0, "rental_uris": {"android": "https://dc.lft.to/lastmile_qr_scan", "ios": "https://dc.lft.to/lastmile_qr_scan"}, "fusion_lon": 0.0, "lat": 38.922685, "bike_id": "743dd95139bb828f97ec46750936b8c9", "type": "electric_scooter", "is_reserved": 0, "lon": -77.02968033333333}, {"fusion_lat": 0.0, "name": "7f99322bf389e33edd96bdfb188c7660", "is_disabled": 0, "rental_uris": {"android": "https://dc.lft.to/lastmile_qr_scan", "ios": "https://dc.lft.to/lastmile_qr_scan"}, "fusion_lon": 0.0, "lat": 38.874901666666666, "bike_id": "7f99322bf389e33edd96bdfb188c7660", "type": "electric_bike", "is_reserved": 0, "lon": -77.211238}, {"fusion_lat": 0.0, "name": "99525a7508e5758443d51da4e28d7009", "is_disabled": 0, "rental_uris": {"android": "https://dc.lft.to/lastmile_qr_scan", "ios": "https://dc.lft.to/lastmile_qr_scan"}, "fusion_lon": 0.0, "lat": 38.912619, "bike_id": "99525a7508e5758443d51da4e28d7009", "type": "electric_scooter", "is_reserved": 0, "lon": -77.03142866666667}, {"fusion_lat": 0.0, "name": "0d9da0a731a76e3169b8b7d708329e9e", "is_disabled": 0, "rental_uris": {"android": "https://dc.lft.to/lastmile_qr_scan", "ios": "https://dc.lft.to/lastmile_qr_scan"}, "fusion_lon": 0.0, "lat": 38.90426033333333, "bike_id": "0d9da0a731a76e3169b8b7d708329e9e", "type": "electric_scooter", "is_reserved": 0, "lon": -77.03104933333333}, {"fusion_lat": 0.0, "name": "a16cecd16e341a6843f7bb4fc18c4805", "is_disabled": 0, "rental_uris": {"android": "https://dc.lft.to/lastmile_qr_scan", "ios": "https://dc.lft.to/lastmile_qr_scan"}, "fusion_lon": 0.0, "lat": 38.94832683333333, "bike_id": "a16cecd16e341a6843f7bb4fc18c4805", "type": "electric_scooter", "is_reserved": 0, "lon": -77.08001933333334}, {"fusion_lat": 0.0, "name": "6ca0c0b52a2b7894a2f46ed7ea48ef66", "is_disabled": 0, "rental_uris": {"android": "https://dc.lft.to/lastmile_qr_scan", "ios": "https://dc.lft.to/lastmile_qr_scan"}, "fusion_lon": 0.0, "lat": 38.94618466666667, "bike_id": "6ca0c0b52a2b7894a2f46ed7ea48ef66", "type": "electric_scooter", "is_reserved": 0, "lon": -77.08020916666666}, {"fusion_lat": 0.0, "name": "f5b076b8acd089ec304d7dc969657dba", "is_disabled": 0, "rental_uris": {"android": "https://dc.lft.to/lastmile_qr_scan", "ios": "https://dc.lft.to/lastmile_qr_scan"}, "fusion_lon": 0.0, "lat": 38.896075, "bike_id": "f5b076b8acd089ec304d7dc969657dba", "type": "electric_bike", "is_reserved": 0, "lon": -76.90740833333334}, {"fusion_lat": 0.0, "name": "748a71577b4633da9d70c13534a94081", "is_disabled": 0, "rental_uris": {"android": "https://dc.lft.to/lastmile_qr_scan", "ios": "https://dc.lft.to/lastmile_qr_scan"}, "fusion_lon": 0.0, "lat": 38.92130816666667, "bike_id": "748a71577b4633da9d70c13534a94081", "type": "electric_scooter", "is_reserved": 0, "lon": -77.02521633333333}, {"fusion_lat": 0.0, "name": "120ec32ae6025968429449e7ca9e4191", "is_disabled": 0, "rental_uris": {"android": "https://dc.lft.to/lastmile_qr_scan", "ios": "https://dc.lft.to/lastmile_qr_scan"}, "fusion_lon": 0.0, "lat": 38.85605016666667, "bike_id": "120ec32ae6025968429449e7ca9e4191", "type": "electric_scooter", "is_reserved": 0, "lon": -76.97271}, {"fusion_lat": 0.0, "name": "ea0cc2f749030941877ccb474817f09d", "is_disabled": 0, "rental_uris": {"android": "https://dc.lft.to/lastmile_qr_scan", "ios": "https://dc.lft.to/lastmile_qr_scan"}, "fusion_lon": 0.0, "lat": 38.88155033333334, "bike_id": "ea0cc2f749030941877ccb474817f09d", "type": "electric_scooter", "is_reserved": 0, "lon": -77.02665066666667}, {"fusion_lat": 0.0, "name": "849ab9a31d74aa6565c02391019ef265", "is_disabled": 0, "rental_uris": {"android": "https://dc.lft.to/lastmile_qr_scan", "ios": "https://dc.lft.to/lastmile_qr_scan"}, "fusion_lon": 0.0, "lat": 38.89248933333333, "bike_id": "849ab9a31d74aa6565c02391019ef265", "type": "electric_scooter", "is_reserved": 0, "lon": -77.04651983333333}, {"fusion_lat": 0.0, "name": "3d0fc328624f7f0bb9dfce07fe81cb19", "is_disabled": 0, "rental_uris": {"android": "https://dc.lft.to/lastmile_qr_scan", "ios": "https://dc.lft.to/lastmile_qr_scan"}, "fusion_lon": 0.0, "lat": 38.892352833333334, "bike_id": "3d0fc328624f7f0bb9dfce07fe81cb19", "type": "electric_scooter", "is_reserved": 0, "lon": -77.04875133333333}, {"fusion_lat": 0.0, "name": "39770a6de7933a3f96f42d040bed1c87", "is_disabled": 0, "rental_uris": {"android": "https://dc.lft.to/lastmile_qr_scan", "ios": "https://dc.lft.to/lastmile_qr_scan"}, "fusion_lon": 0.0, "lat": 38.923528833333336, "bike_id": "39770a6de7933a3f96f42d040bed1c87", "type": "electric_scooter", "is_reserved": 0, "lon": -77.03478766666667}, {"fusion_lat": 0.0, "name": "2d08c10b5f933ffc376329613f34a93e", "is_disabled": 0, "rental_uris": {"android": "https://dc.lft.to/lastmile_qr_scan", "ios": "https://dc.lft.to/lastmile_qr_scan"}, "fusion_lon": 0.0, "lat": 38.9223425, "bike_id": "2d08c10b5f933ffc376329613f34a93e", "type": "electric_scooter", "is_reserved": 0, "lon": -77.04248633333333}, {"fusion_lat": 0.0, "name": "26e9e04298b9bd964387fb52a4c079bc", "is_disabled": 0, "rental_uris": {"android": "https://dc.lft.to/lastmile_qr_scan", "ios": "https://dc.lft.to/lastmile_qr_scan"}, "fusion_lon": 0.0, "lat": 38.835499166666665, "bike_id": "26e9e04298b9bd964387fb52a4c079bc", "type": "electric_bike", "is_reserved": 0, "lon": -76.98725883333333}, {"fusion_lat": 0.0, "name": "9a080f08f24f35a4f3f49c5d0acdffe4", "is_disabled": 0, "rental_uris": {"android": "https://dc.lft.to/lastmile_qr_scan", "ios": "https://dc.lft.to/lastmile_qr_scan"}, "fusion_lon": 0.0, "lat": 38.892322, "bike_id": "9a080f08f24f35a4f3f49c5d0acdffe4", "type": "electric_scooter", "is_reserved": 0, "lon": -77.030963}, {"fusion_lat": 0.0, "name": "94f5ff2560a50c9dd0228897d2467392", "is_disabled": 0, "rental_uris": {"android": "https://dc.lft.to/lastmile_qr_scan", "ios": "https://dc.lft.to/lastmile_qr_scan"}, "fusion_lon": 0.0, "lat": 38.93426066666667, "bike_id": "94f5ff2560a50c9dd0228897d2467392", "type": "electric_scooter", "is_reserved": 0, "lon": -77.04001166666667}, {"fusion_lat": 0.0, "name": "6a527906e6c3e558a47a447f9567b8c5", "is_disabled": 0, "rental_uris": {"android": "https://dc.lft.to/lastmile_qr_scan", "ios": "https://dc.lft.to/lastmile_qr_scan"}, "fusion_lon": 0.0, "lat": 38.9540325, "bike_id": "6a527906e6c3e558a47a447f9567b8c5", "type": "electric_scooter", "is_reserved": 0, "lon": -77.02747733333334}, {"fusion_lat": 0.0, "name": "0320e75ecdf084919ddce306c4f5c150", "is_disabled": 0, "rental_uris": {"android": "https://dc.lft.to/lastmile_qr_scan", "ios": "https://dc.lft.to/lastmile_qr_scan"}, "fusion_lon": 0.0, "lat": 38.900619166666665, "bike_id": "0320e75ecdf084919ddce306c4f5c150", "type": "electric_scooter", "is_reserved": 0, "lon": -76.9339185}, {"fusion_lat": 0.0, "name": "e60616f9521e35e2567cbad068f4bda7", "is_disabled": 0, "rental_uris": {"android": "https://dc.lft.to/lastmile_qr_scan", "ios": "https://dc.lft.to/lastmile_qr_scan"}, "fusion_lon": 0.0, "lat": 38.9209565, "bike_id": "e60616f9521e35e2567cbad068f4bda7", "type": "electric_scooter", "is_reserved": 0, "lon": -77.031731}, {"fusion_lat": 0.0, "name": "689158669ca6dddb94de249f46c4aa43", "is_disabled": 0, "rental_uris": {"android": "https://dc.lft.to/lastmile_qr_scan", "ios": "https://dc.lft.to/lastmile_qr_scan"}, "fusion_lon": 0.0, "lat": 38.993810333333336, "bike_id": "689158669ca6dddb94de249f46c4aa43", "type": "electric_bike", "is_reserved": 0, "lon": -77.03146716666667}, {"fusion_lat": 0.0, "name": "3e3d9395c063b7f4f537d7b192eaaf84", "is_disabled": 0, "rental_uris": {"android": "https://dc.lft.to/lastmile_qr_scan", "ios": "https://dc.lft.to/lastmile_qr_scan"}, "fusion_lon": 0.0, "lat": 38.899733, "bike_id": "3e3d9395c063b7f4f537d7b192eaaf84", "type": "electric_scooter", "is_reserved": 0, "lon": -77.041751}, {"fusion_lat": 0.0, "name": "d8f27a51d12b7a2aed9aa353682d1326", "is_disabled": 0, "rental_uris": {"android": "https://dc.lft.to/lastmile_qr_scan", "ios": "https://dc.lft.to/lastmile_qr_scan"}, "fusion_lon": 0.0, "lat": 38.913477666666665, "bike_id": "d8f27a51d12b7a2aed9aa353682d1326", "type": "electric_scooter", "is_reserved": 0, "lon": -77.03183616666666}, {"fusion_lat": 0.0, "name": "5414961f2e7a89a68166468132487b80", "is_disabled": 0, "rental_uris": {"android": "https://dc.lft.to/lastmile_qr_scan", "ios": "https://dc.lft.to/lastmile_qr_scan"}, "fusion_lon": 0.0, "lat": 38.876857333333334, "bike_id": "5414961f2e7a89a68166468132487b80", "type": "electric_scooter", "is_reserved": 0, "lon": -77.0175095}, {"fusion_lat": 0.0, "name": "c27e771b72626e8a02e056114562330f", "is_disabled": 0, "rental_uris": {"android": "https://dc.lft.to/lastmile_qr_scan", "ios": "https://dc.lft.to/lastmile_qr_scan"}, "fusion_lon": 0.0, "lat": 38.8863665, "bike_id": "c27e771b72626e8a02e056114562330f", "type": "electric_scooter", "is_reserved": 0, "lon": -77.01569883333333}, {"fusion_lat": 0.0, "name": "e994824f8e2543201fb82aa38c03cab2", "is_disabled": 0, "rental_uris": {"android": "https://dc.lft.to/lastmile_qr_scan", "ios": "https://dc.lft.to/lastmile_qr_scan"}, "fusion_lon": 0.0, "lat": 38.9218765, "bike_id": "e994824f8e2543201fb82aa38c03cab2", "type": "electric_scooter", "is_reserved": 0, "lon": -77.0296315}, {"fusion_lat": 0.0, "name": "d8be495b824ccfcb2355513b7818ee3a", "is_disabled": 0, "rental_uris": {"android": "https://dc.lft.to/lastmile_qr_scan", "ios": "https://dc.lft.to/lastmile_qr_scan"}, "fusion_lon": 0.0, "lat": 38.8922395, "bike_id": "d8be495b824ccfcb2355513b7818ee3a", "type": "electric_scooter", "is_reserved": 0, "lon": -77.03341916666666}, {"fusion_lat": 0.0, "name": "256599c16cd608ef7eb03a3b4aee8ee3", "is_disabled": 0, "rental_uris": {"android": "https://dc.lft.to/lastmile_qr_scan", "ios": "https://dc.lft.to/lastmile_qr_scan"}, "fusion_lon": 0.0, "lat": 38.939691, "bike_id": "256599c16cd608ef7eb03a3b4aee8ee3", "type": "electric_scooter", "is_reserved": 0, "lon": -77.03255533333333}, {"fusion_lat": 0.0, "name": "8dbf2443f6a8ebfbc42b3092a1c4a763", "is_disabled": 0, "rental_uris": {"android": "https://dc.lft.to/lastmile_qr_scan", "ios": "https://dc.lft.to/lastmile_qr_scan"}, "fusion_lon": 0.0, "lat": 38.906173, "bike_id": "8dbf2443f6a8ebfbc42b3092a1c4a763", "type": "electric_scooter", "is_reserved": 0, "lon": -77.050511}, {"fusion_lat": 0.0, "name": "0358db592be7e522307737ef1e839e42", "is_disabled": 0, "rental_uris": {"android": "https://dc.lft.to/lastmile_qr_scan", "ios": "https://dc.lft.to/lastmile_qr_scan"}, "fusion_lon": 0.0, "lat": 38.911525833333336, "bike_id": "0358db592be7e522307737ef1e839e42", "type": "electric_scooter", "is_reserved": 0, "lon": -77.023803}, {"fusion_lat": 0.0, "name": "7f16697435bbd03681f1884e96615f56", "is_disabled": 0, "rental_uris": {"android": "https://dc.lft.to/lastmile_qr_scan", "ios": "https://dc.lft.to/lastmile_qr_scan"}, "fusion_lon": 0.0, "lat": 38.922487, "bike_id": "7f16697435bbd03681f1884e96615f56", "type": "electric_scooter", "is_reserved": 0, "lon": -76.98404783333334}, {"fusion_lat": 0.0, "name": "3d3b0065fd16f2bd1b5a5bdc59cc42d6", "is_disabled": 0, "rental_uris": {"android": "https://dc.lft.to/lastmile_qr_scan", "ios": "https://dc.lft.to/lastmile_qr_scan"}, "fusion_lon": 0.0, "lat": 38.91656433333333, "bike_id": "3d3b0065fd16f2bd1b5a5bdc59cc42d6", "type": "electric_scooter", "is_reserved": 0, "lon": -77.02228266666667}, {"fusion_lat": 0.0, "name": "4961460999b3a840b25165cc46583675", "is_disabled": 0, "rental_uris": {"android": "https://dc.lft.to/lastmile_qr_scan", "ios": "https://dc.lft.to/lastmile_qr_scan"}, "fusion_lon": 0.0, "lat": 38.898618, "bike_id": "4961460999b3a840b25165cc46583675", "type": "electric_scooter", "is_reserved": 0, "lon": -76.94640383333333}, {"fusion_lat": 0.0, "name": "bf05ca14cb34270b74a48e2f794d528f", "is_disabled": 0, "rental_uris": {"android": "https://dc.lft.to/lastmile_qr_scan", "ios": "https://dc.lft.to/lastmile_qr_scan"},