{"data": {"bikes": [{"lat": 38.917581, "is_disabled": 0, "type": "electric_scooter", "lon": -77.01161833333333, "bike_id": "c586cd3efc4ea37c030739d41e372c03", "fusion_lat": 0.0, "name": "c586cd3efc4ea37c030739d41e372c03", "is_reserved": 0, "rental_uris": {"android": "https://dc.lft.to/lastmile_qr_scan", "ios": "https://dc.lft.to/lastmile_qr_scan"}, "fusion_lon": 0.0}, {"lat": 38.901379166666665, "is_disabled": 0, "type": "electric_scooter", "lon": -77.03274416666666, "bike_id": "043c489516f4341ab4c8b26423b6cdeb", "fusion_lat": 0.0, "name": "043c489516f4341ab4c8b26423b6cdeb", "is_reserved": 0, "rental_uris": {"android": "https://dc.lft.to/lastmile_qr_scan", "ios": "https://dc.lft.to/lastmile_qr_scan"}, "fusion_lon": 0.0}, {"lat": 38.907404, "is_disabled": 0, "type": "electric_scooter", "lon": -77.02994983333333, "bike_id": "557a83b3b1e1dbca04f31bde73160a55", "fusion_lat": 0.0, "name": "557a83b3b1e1dbca04f31bde73160a55", "is_reserved": 0, "rental_uris": {"android": "https://dc.lft.to/lastmile_qr_scan", "ios": "https://dc.lft.to/lastmile_qr_scan"}, "fusion_lon": 0.0}, {"lat": 38.90729283333334, "is_disabled": 0, "type": "electric_bike", "lon": -77.01070733333333, "bike_id": "53dd7fac2e3a67bb7805f44bb21066b9", "fusion_lat": 0.0, "name": "53dd7fac2e3a67bb7805f44bb21066b9", "is_reserved": 0, "rental_uris": {"android": "https://dc.lft.to/lastmile_qr_scan", "ios": "https://dc.lft.to/lastmile_qr_scan"}, "fusion_lon": 0.0}, {"lat": 38.861012, "is_disabled": 0, "type": "electric_scooter", "lon": -76.98890283333333, "bike_id": "8080ff53accbbff6831701a766f6fd8c", "fusion_lat": 0.0, "name": "8080ff53accbbff6831701a766f6fd8c", "is_reserved": 0, "rental_uris": {"android": "https://dc.lft.to/lastmile_qr_scan", "ios": "https://dc.lft.to/lastmile_qr_scan"}, "fusion_lon": 0.0}, {"lat": 38.96612983333333, "is_disabled": 0, "type": "electric_scooter", "lon": -77.0205645, "bike_id": "062f6a1b0c833a553587cb6c85a446ef", "fusion_lat": 0.0, "name": "062f6a1b0c833a553587cb6c85a446ef", "is_reserved": 0, "rental_uris": {"android": "https://dc.lft.to/lastmile_qr_scan", "ios": "https://dc.lft.to/lastmile_qr_scan"}, "fusion_lon": 0.0}, {"lat": 38.8961995, "is_disabled": 0, "type": "electric_scooter", "lon": -77.0316535, "bike_id": "b4f8433e988ecfa0ae140b1da3ad581f", "fusion_lat": 0.0, "name": "b4f8433e988ecfa0ae140b1da3ad581f", "is_reserved": 0, "rental_uris": {"android": "https://dc.lft.to/lastmile_qr_scan", "ios": "https://dc.lft.to/lastmile_qr_scan"}, "fusion_lon": 0.0}, {"lat": 38.9050405, "is_disabled": 0, "type": "electric_scooter", "lon": -77.02933933333334, "bike_id": "022c89e36376b5ad3f6bd21d403f9a83", "fusion_lat": 0.0, "name": "022c89e36376b5ad3f6bd21d403f9a83", "is_reserved": 0, "rental_uris": {"android": "https://dc.lft.to/lastmile_qr_scan", "ios": "https://dc.lft.to/lastmile_qr_scan"}, "fusion_lon": 0.0}, {"lat": 38.8962275, "is_disabled": 0, "type": "electric_scooter", "lon": -77.0316585, "bike_id": "6254d7435dade18319d4738d5354c801", "fusion_lat": 0.0, "name": "6254d7435dade18319d4738d5354c801", "is_reserved": 0, "rental_uris": {"android": "https://dc.lft.to/lastmile_qr_scan", "ios": "https://dc.lft.to/lastmile_qr_scan"}, "fusion_lon": 0.0}, {"lat": 38.920798, "is_disabled": 0, "type": "electric_scooter", "lon": -77.025007, "bike_id": "d230779497b6f97b410b6e10c9eeb837", "fusion_lat": 0.0, "name": "d230779497b6f97b410b6e10c9eeb837", "is_reserved": 0, "rental_uris": {"android": "https://dc.lft.to/lastmile_qr_scan", "ios": "https://dc.lft.to/lastmile_qr_scan"}, "fusion_lon": 0.0}, {"lat": 38.91770266666666, "is_disabled": 0, "type": "electric_scooter", "lon": -77.0474555, "bike_id": "e70f4fc774231accf689b85ff944f299", "fusion_lat": 0.0, "name": "e70f4fc774231accf689b85ff944f299", "is_reserved": 0, "rental_uris": {"android": "https://dc.lft.to/lastmile_qr_scan", "ios": "https://dc.lft.to/lastmile_qr_scan"}, "fusion_lon": 0.0}, {"lat": 38.92854333333333, "is_disabled": 0, "type": "electric_bike", "lon": -77.2221295, "bike_id": "9ba00054beb4f276752f5d442f486f6a", "fusion_lat": 0.0, "name": "9ba00054beb4f276752f5d442f486f6a", "is_reserved": 0, "rental_uris": {"android": "https://dc.lft.to/lastmile_qr_scan", "ios": "https://dc.lft.to/lastmile_qr_scan"}, "fusion_lon": 0.0}, {"lat": 38.90962416666667, "is_disabled": 0, "type": "electric_scooter", "lon": -77.034278, "bike_id": "9edeb21eb09fba919a52d4be5b9232f0", "fusion_lat": 0.0, "name": "9edeb21eb09fba919a52d4be5b9232f0", "is_reserved": 0, "rental_uris": {"android": "https://dc.lft.to/lastmile_qr_scan", "ios": "https://dc.lft.to/lastmile_qr_scan"}, "fusion_lon": 0.0}, {"lat": 38.924792333333336, "is_disabled": 0, "type": "electric_bike", "lon": -76.99026966666666, "bike_id": "8749d556ec102379064afc9c60e0e258", "fusion_lat": 0.0, "name": "8749d556ec102379064afc9c60e0e258", "is_reserved": 0, "rental_uris": {"android": "https://dc.lft.to/lastmile_qr_scan", "ios": "https://dc.lft.to/lastmile_qr_scan"}, "fusion_lon": 0.0}, {"lat": 38.928882333333334, "is_disabled": 0, "type": "electric_bike", "lon": -77.03298466666666, "bike_id": "37b51132c0d3b6b4b8f91cc097f0de74", "fusion_lat": 0.0, "name": "37b51132c0d3b6b4b8f91cc097f0de74", "is_reserved": 0, "rental_uris": {"android": "https://dc.lft.to/lastmile_qr_scan", "ios": "https://dc.lft.to/lastmile_qr_scan"}, "fusion_lon": 0.0}, {"lat": 38.88123916666667, "is_disabled": 0, "type": "electric_bike", "lon": -77.01674033333333, "bike_id": "bf74995229271810e824f6797e7d1d11", "fusion_lat": 0.0, "name": "bf74995229271810e824f6797e7d1d11", "is_reserved": 0, "rental_uris": {"android": "https://dc.lft.to/lastmile_qr_scan", "ios": "https://dc.lft.to/lastmile_qr_scan"}, "fusion_lon": 0.0}, {"lat": 38.91817616666667, "is_disabled": 0, "type": "electric_scooter", "lon": -77.04176966666667, "bike_id": "5fb3ddbe9624a26d1a3003ec7e51d9ad", "fusion_lat": 0.0, "name": "5fb3ddbe9624a26d1a3003ec7e51d9ad", "is_reserved": 0, "rental_uris": {"android": "https://dc.lft.to/lastmile_qr_scan", "ios": "https://dc.lft.to/lastmile_qr_scan"}, "fusion_lon": 0.0}, {"lat": 39.088586166666666, "is_disabled": 0, "type": "electric_bike", "lon": -77.17834333333333, "bike_id": "1725e6f55acad9d879af42231e0922c5", "fusion_lat": 0.0, "name": "1725e6f55acad9d879af42231e0922c5", "is_reserved": 0, "rental_uris": {"android": "https://dc.lft.to/lastmile_qr_scan", "ios": "https://dc.lft.to/lastmile_qr_scan"}, "fusion_lon": 0.0}, {"lat": 38.8723915, "is_disabled": 0, "type": "electric_bike", "lon": -77.011891, "bike_id": "20fd50e64ce64e89a2b0c7918ae41449", "fusion_lat": 0.0, "name": "20fd50e64ce64e89a2b0c7918ae41449", "is_reserved": 0, "rental_uris": {"android": "https://dc.lft.to/lastmile_qr_scan", "ios": "https://dc.lft.to/lastmile_qr_scan"}, "fusion_lon": 0.0}, {"lat": 38.907648333333334, "is_disabled": 0, "type": "electric_bike", "lon": -77.07001333333334, "bike_id": "3cf905df091e12b3b092833df30dfa99", "fusion_lat": 0.0, "name": "3cf905df091e12b3b092833df30dfa99", "is_reserved": 0, "rental_uris": {"android": "https://dc.lft.to/lastmile_qr_scan", "ios": "https://dc.lft.to/lastmile_qr_scan"}, "fusion_lon": 0.0}, {"lat": 38.920835833333335, "is_disabled": 0, "type": "electric_scooter", "lon": -77.02517616666667, "bike_id": "e3dfc674e459ea773d2c1ad5e2b5564e", "fusion_lat": 0.0, "name": "e3dfc674e459ea773d2c1ad5e2b5564e", "is_reserved": 0, "rental_uris": {"android": "https://dc.lft.to/lastmile_qr_scan", "ios": "https://dc.lft.to/lastmile_qr_scan"}, "fusion_lon": 0.0}, {"lat": 38.892832, "is_disabled": 0, "type": "electric_scooter", "lon": -77.05041216666666, "bike_id": "62e8fda5a109f8cd4d9610972581ea06", "fusion_lat": 0.0, "name": "62e8fda5a109f8cd4d9610972581ea06", "is_reserved": 0, "rental_uris": {"android": "https://dc.lft.to/lastmile_qr_scan", "ios": "https://dc.lft.to/lastmile_qr_scan"}, "fusion_lon": 0.0}, {"lat": 38.915659, "is_disabled": 0, "type": "electric_scooter", "lon": -77.03151533333333, "bike_id": "f7a005cd891c791c6a8886dcafa003b3", "fusion_lat": 0.0, "name": "f7a005cd891c791c6a8886dcafa003b3", "is_reserved": 0, "rental_uris": {"android": "https://dc.lft.to/lastmile_qr_scan", "ios": "https://dc.lft.to/lastmile_qr_scan"}, "fusion_lon": 0.0}, {"lat": 38.902023666666665, "is_disabled": 0, "type": "electric_scooter", "lon": -77.02190816666666, "bike_id": "e9e7e5b20b74f99b86c28e2fb5a77cf6", "fusion_lat": 0.0, "name": "e9e7e5b20b74f99b86c28e2fb5a77cf6", "is_reserved": 0, "rental_uris": {"android": "https://dc.lft.to/lastmile_qr_scan", "ios": "https://dc.lft.to/lastmile_qr_scan"}, "fusion_lon": 0.0}, {"lat": 38.9224235, "is_disabled": 0, "type": "electric_scooter", "lon": -77.02189066666666, "bike_id": "2c6e1cc14cd9521b8e916fe48e536a21", "fusion_lat": 0.0, "name": "2c6e1cc14cd9521b8e916fe48e536a21", "is_reserved": 0, "rental_uris": {"android": "https://dc.lft.to/lastmile_qr_scan", "ios": "https://dc.lft.to/lastmile_qr_scan"}, "fusion_lon": 0.0}, {"lat": 39.034289333333334, "is_disabled": 0, "type": "electric_bike", "lon": -77.04264383333333, "bike_id": "66954b1d68691c55aea8248ff8e0a12a", "fusion_lat": 0.0, "name": "66954b1d68691c55aea8248ff8e0a12a", "is_reserved": 0, "rental_uris": {"android": "https://dc.lft.to/lastmile_qr_scan", "ios": "https://dc.lft.to/lastmile_qr_scan"}, "fusion_lon": 0.0}, {"lat": 38.922367666666666, "is_disabled": 0, "type": "electric_scooter", "lon": -77.04246233333333, "bike_id": "3be6e0f62b924fe25f43086d233d9430", "fusion_lat": 0.0, "name": "3be6e0f62b924fe25f43086d233d9430", "is_reserved": 0, "rental_uris": {"android": "https://dc.lft.to/lastmile_qr_scan", "ios": "https://dc.lft.to/lastmile_qr_scan"}, "fusion_lon": 0.0}, {"lat": 38.902405333333334, "is_disabled": 0, "type": "electric_scooter", "lon": -77.00203733333333, "bike_id": "eddf668fc0dc99505a7ce10b30b5b00d", "fusion_lat": 0.0, "name": "eddf668fc0dc99505a7ce10b30b5b00d", "is_reserved": 0, "rental_uris": {"android": "https://dc.lft.to/lastmile_qr_scan", "ios": "https://dc.lft.to/lastmile_qr_scan"}, "fusion_lon": 0.0}, {"lat": 38.9320225, "is_disabled": 0, "type": "electric_scooter", "lon": -77.044274, "bike_id": "570499af8b96c2172dbed4e9fabbaf5a", "fusion_lat": 0.0, "name": "570499af8b96c2172dbed4e9fabbaf5a", "is_reserved": 0, "rental_uris": {"android": "https://dc.lft.to/lastmile_qr_scan", "ios": "https://dc.lft.to/lastmile_qr_scan"}, "fusion_lon": 0.0}, {"lat": 38.91707066666667, "is_disabled": 0, "type": "electric_scooter", "lon": -77.02943966666666, "bike_id": "6b0d3ef2b7bd1b98dbc9dd4c2e299847", "fusion_lat": 0.0, "name": "6b0d3ef2b7bd1b98dbc9dd4c2e299847", "is_reserved": 0, "rental_uris": {"android": "https://dc.lft.to/lastmile_qr_scan", "ios": "https://dc.lft.to/lastmile_qr_scan"}, "fusion_lon": 0.0}, {"lat": 38.933049833333335, "is_disabled": 0, "type": "electric_scooter", "lon": -77.03588133333334, "bike_id": "cd040c74b9166cc41b3558527709cd0d", "fusion_lat": 0.0, "name": "cd040c74b9166cc41b3558527709cd0d", "is_reserved": 0, "rental_uris": {"android": "https://dc.lft.to/lastmile_qr_scan", "ios": "https://dc.lft.to/lastmile_qr_scan"}, "fusion_lon": 0.0}, {"lat": 38.922092166666665, "is_disabled": 0, "type": "electric_bike", "lon": -76.98792433333334, "bike_id": "0c116e3f8b304d6a87e2739c6abf708d", "fusion_lat": 0.0, "name": "0c116e3f8b304d6a87e2739c6abf708d", "is_reserved": 0, "rental_uris": {"android": "https://dc.lft.to/lastmile_qr_scan", "ios": "https://dc.lft.to/lastmile_qr_scan"}, "fusion_lon": 0.0}, {"lat": 38.87631583333334, "is_disabled": 0, "type": "electric_scooter", "lon": -76.965283, "bike_id": "9180f6f5a10ffd1ca0e7e86f07e5d279", "fusion_lat": 0.0, "name": "9180f6f5a10ffd1ca0e7e86f07e5d279", "is_reserved": 0, "rental_uris": {"android": "https://dc.lft.to/lastmile_qr_scan", "ios": "https://dc.lft.to/lastmile_qr_scan"}, "fusion_lon": 0.0}, {"lat": 38.89762566666667, "is_disabled": 0, "type": "electric_scooter", "lon": -77.05496133333334, "bike_id": "751310549a77bb0fe955dcf9041ae287", "fusion_lat": 0.0, "name": "751310549a77bb0fe955dcf9041ae287", "is_reserved": 0, "rental_uris": {"android": "https://dc.lft.to/lastmile_qr_scan", "ios": "https://dc.lft.to/lastmile_qr_scan"}, "fusion_lon": 0.0}, {"lat": 38.9249585, "is_disabled": 0, "type": "electric_scooter", "lon": -77.05225216666666, "bike_id": "724186dedd3e7621fc2bbeb70c27f15f", "fusion_lat": 0.0, "name": "724186dedd3e7621fc2bbeb70c27f15f", "is_reserved": 0, "rental_uris": {"android": "https://dc.lft.to/lastmile_qr_scan", "ios": "https://dc.lft.to/lastmile_qr_scan"}, "fusion_lon": 0.0}, {"lat": 38.9211805, "is_disabled": 0, "type": "electric_scooter", "lon": -77.04160533333334, "bike_id": "b692becf995152a7acd5aafccf4c3e6d", "fusion_lat": 0.0, "name": "b692becf995152a7acd5aafccf4c3e6d", "is_reserved": 0, "rental_uris": {"android": "https://dc.lft.to/lastmile_qr_scan", "ios": "https://dc.lft.to/lastmile_qr_scan"}, "fusion_lon": 0.0}, {"lat": 38.91820933333333, "is_disabled": 0, "type": "electric_scooter", "lon": -77.03167766666667, "bike_id": "d1b3b337ba620737afd0f32fab23d7f8", "fusion_lat": 0.0, "name": "d1b3b337ba620737afd0f32fab23d7f8", "is_reserved": 0, "rental_uris": {"android": "https://dc.lft.to/lastmile_qr_scan", "ios": "https://dc.lft.to/lastmile_qr_scan"}, "fusion_lon": 0.0}, {"lat": 38.908488166666665, "is_disabled": 0, "type": "electric_scooter", "lon": -77.02065983333334, "bike_id": "77774f5e028af6348ad8ddf0608f3a72", "fusion_lat": 0.0, "name": "77774f5e028af6348ad8ddf0608f3a72", "is_reserved": 0, "rental_uris": {"android": "https://dc.lft.to/lastmile_qr_scan", "ios": "https://dc.lft.to/lastmile_qr_scan"}, "fusion_lon": 0.0}, {"lat": 38.930799, "is_disabled": 0, "type": "electric_scooter", "lon": -77.03388416666667, "bike_id": "90ec6e23a56e10954400eb207b458d99", "fusion_lat": 0.0, "name": "90ec6e23a56e10954400eb207b458d99", "is_reserved": 0, "rental_uris": {"android": "https://dc.lft.to/lastmile_qr_scan", "ios": "https://dc.lft.to/lastmile_qr_scan"}, "fusion_lon": 0.0}, {"lat": 38.9022905, "is_disabled": 0, "type": "electric_scooter", "lon": -77.06052516666666, "bike_id": "31f3804e4fa2f2c3b50d2d7c15776403", "fusion_lat": 0.0, "name": "31f3804e4fa2f2c3b50d2d7c15776403", "is_reserved": 0, "rental_uris": {"android": "https://dc.lft.to/lastmile_qr_scan", "ios": "https://dc.lft.to/lastmile_qr_scan"}, "fusion_lon": 0.0}, {"lat": 38.92453533333333, "is_disabled": 0, "type": "electric_scooter", "lon": -77.042011, "bike_id": "d6797ea7b220988eff6d3a1385b45108", "fusion_lat": 0.0, "name": "d6797ea7b220988eff6d3a1385b45108", "is_reserved": 0, "rental_uris": {"android": "https://dc.lft.to/lastmile_qr_scan", "ios": "https://dc.lft.to/lastmile_qr_scan"}, "fusion_lon": 0.0}, {"lat": 38.920054, "is_disabled": 0, "type": "electric_scooter", "lon": -77.032365, "bike_id": "9629338b4c8a158a378a1666e0971223", "fusion_lat": 0.0, "name": "9629338b4c8a158a378a1666e0971223", "is_reserved": 0, "rental_uris": {"android": "https://dc.lft.to/lastmile_qr_scan", "ios": "https://dc.lft.to/lastmile_qr_scan"}, "fusion_lon": 0.0}, {"lat": 38.884511833333335, "is_disabled": 0, "type": "electric_scooter", "lon": -76.9509825, "bike_id": "c01ca2fc4342d5395fea3fbd999011d7", "fusion_lat": 0.0, "name": "c01ca2fc4342d5395fea3fbd999011d7", "is_reserved": 0, "rental_uris": {"android": "https://dc.lft.to/lastmile_qr_scan", "ios": "https://dc.lft.to/lastmile_qr_scan"}, "fusion_lon": 0.0}, {"lat": 38.9446505, "is_disabled": 0, "type": "electric_scooter", "lon": -77.06035266666666, "bike_id": "e6fa116a5f9199972d473543570b51fd", "fusion_lat": 0.0, "name": "e6fa116a5f9199972d473543570b51fd", "is_reserved": 0, "rental_uris": {"android": "https://dc.lft.to/lastmile_qr_scan", "ios": "https://dc.lft.to/lastmile_qr_scan"}, "fusion_lon": 0.0}, {"lat": 38.8968355, "is_disabled": 0, "type": "electric_scooter", "lon": -76.93607566666667, "bike_id": "5fb38277a8b635edf0c5aa52f3a26972", "fusion_lat": 0.0, "name": "5fb38277a8b635edf0c5aa52f3a26972", "is_reserved": 0, "rental_uris": {"android": "https://dc.lft.to/lastmile_qr_scan", "ios": "https://dc.lft.to/lastmile_qr_scan"}, "fusion_lon": 0.0}, {"lat": 38.917468, "is_disabled": 0, "type": "electric_scooter", "lon": -77.0318465, "bike_id": "39911111a567862d4b7bfe0426eeb5f6", "fusion_lat": 0.0, "name": "39911111a567862d4b7bfe0426eeb5f6", "is_reserved": 0, "rental_uris": {"android": "https://dc.lft.to/lastmile_qr_scan", "ios": "https://dc.lft.to/lastmile_qr_scan"}, "fusion_lon": 0.0}, {"lat": 38.94822033333333, "is_disabled": 0, "type": "electric_scooter", "lon": -76.99902783333333, "bike_id": "ddd38faa06bf71506069da63c449b9f2", "fusion_lat": 0.0, "name": "ddd38faa06bf71506069da63c449b9f2", "is_reserved": 0, "rental_uris": {"android": "https://dc.lft.to/lastmile_qr_scan", "ios": "https://dc.lft.to/lastmile_qr_scan"}, "fusion_lon": 0.0}, {"lat": 38.914327166666666, "is_disabled": 0, "type": "electric_scooter", "lon": -77.02350433333334, "bike_id": "374775156b8515ab85fc77c0e6663100", "fusion_lat": 0.0, "name": "374775156b8515ab85fc77c0e6663100", "is_reserved": 0, "rental_uris": {"android": "https://dc.lft.to/lastmile_qr_scan", "ios": "https://dc.lft.to/lastmile_qr_scan"}, "fusion_lon": 0.0}, {"lat": 38.91107, "is_disabled": 0, "type": "electric_scooter", "lon": -77.048402, "bike_id": "33baf1bfdfb9be16f1394ed7b676e592", "fusion_lat": 0.0, "name": "33baf1bfdfb9be16f1394ed7b676e592", "is_reserved": 0, "rental_uris": {"android": "https://dc.lft.to/lastmile_qr_scan", "ios": "https://dc.lft.to/lastmile_qr_scan"}, "fusion_lon": 0.0}, {"lat": 38.90570233333333, "is_disabled": 0, "type": "electric_scooter", "lon": -77.02180516666667, "bike_id": "df888ffb1958cef4039bfd793a95d36d", "fusion_lat": 0.0, "name": "df888ffb1958cef4039bfd793a95d36d", "is_reserved": 0, "rental_uris": {"android": "https://dc.lft.to/lastmile_qr_scan", "ios": "https://dc.lft.to/lastmile_qr_scan"}, "fusion_lon": 0.0}, {"lat": 38.917065, "is_disabled": 0, "type": "electric_scooter", "lon": -77.04042733333333, "bike_id": "c3dac998c3061d694b9625ecae38cbcd", "fusion_lat": 0.0, "name": "c3dac998c3061d694b9625ecae38cbcd", "is_reserved": 0, "rental_uris": {"android": "https://dc.lft.to/lastmile_qr_scan", "ios": "https://dc.lft.to/lastmile_qr_scan"}, "fusion_lon": 0.0}, {"lat": 38.90740133333333, "is_disabled": 0, "type": "electric_scooter", "lon": -77.034476, "bike_id": "7eac53e57f2d645ad7d5bdbf7c622a9b", "fusion_lat": 0.0, "name": "7eac53e57f2d645ad7d5bdbf7c622a9b", "is_reserved": 0, "rental_uris": {"android": "https://dc.lft.to/lastmile_qr_scan", "ios": "https://dc.lft.to/lastmile_qr_scan"}, "fusion_lon": 0.0}, {"lat": 38.91038733333333, "is_disabled": 0, "type": "electric_scooter", "lon": -77.03873366666667, "bike_id": "edd1d1c25efee911098427e69a12eaa5", "fusion_lat": 0.0, "name": "edd1d1c25efee911098427e69a12eaa5", "is_reserved": 0, "rental_uris": {"android": "https://dc.lft.to/lastmile_qr_scan", "ios": "https://dc.lft.to/lastmile_qr_scan"}, "fusion_lon": 0.0}, {"lat": 38.88741866666667, "is_disabled": 0, "type": "electric_scooter", "lon": -77.022076, "bike_id": "d44e9865e4313cf49a2ecffdcec66e33", "fusion_lat": 0.0, "name": "d44e9865e4313cf49a2ecffdcec66e33", "is_reserved": 0, "rental_uris": {"android": "https://dc.lft.to/lastmile_qr_scan", "ios": "https://dc.lft.to/lastmile_qr_scan"}, "fusion_lon": 0.0}, {"lat": 38.91776516666667, "is_disabled": 0, "type": "electric_scooter", "lon": -77.02308066666667, "bike_id": "094e41201aa8adcbebbdb066a6f02f0e", "fusion_lat": 0.0, "name": "094e41201aa8adcbebbdb066a6f02f0e", "is_reserved": 0, "rental_uris": {"android": "https://dc.lft.to/lastmile_qr_scan", "ios": "https://dc.lft.to/lastmile_qr_scan"}, "fusion_lon": 0.0}, {"lat": 38.896065166666666, "is_disabled": 0, "type": "electric_scooter", "lon": -77.05468516666667, "bike_id": "c5657def4736fda6e53c147e1749aff2", "fusion_lat": 0.0, "name": "c5657def4736fda6e53c147e1749aff2", "is_reserved": 0, "rental_uris": {"android": "https://dc.lft.to/lastmile_qr_scan", "ios": "https://dc.lft.to/lastmile_qr_scan"}, "fusion_lon": 0.0}, {"lat": 38.899455333333336, "is_disabled": 0, "type": "electric_scooter", "lon": -77.02578916666667, "bike_id": "ac07361801f09deb343319587a725f1e", "fusion_lat": 0.0, "name": "ac07361801f09deb343319587a725f1e", "is_reserved": 0, "rental_uris": {"android": "https://dc.lft.to/lastmile_qr_scan", "ios": "https://dc.lft.to/lastmile_qr_scan"}, "fusion_lon": 0.0}, {"lat": 38.917992166666664, "is_disabled": 0, "type": "electric_scooter", "lon": -77.03451433333333, "bike_id": "9345dad16d1efed5a7148a3d25190111", "fusion_lat": 0.0, "name": "9345dad16d1efed5a7148a3d25190111", "is_reserved": 0, "rental_uris": {"android": "https://dc.lft.to/lastmile_qr_scan", "ios": "https://dc.lft.to/lastmile_qr_scan"}, "fusion_lon": 0.0}, {"lat": 38.92880983333333, "is_disabled": 0, "type": "electric_scooter", "lon": -77.03294833333334, "bike_id": "e2ca5b60d1193c27118ff48689e9dc40", "fusion_lat": 0.0, "name": "e2ca5b60d1193c27118ff48689e9dc40", "is_reserved": 0, "rental_uris": {"android": "https://dc.lft.to/lastmile_qr_scan", "ios": "https://dc.lft.to/lastmile_qr_scan"}, "fusion_lon": 0.0}, {"lat": 38.90272266666667, "is_disabled": 0, "type": "electric_scooter", "lon": -77.06232416666667, "bike_id": "2805b0b155708fba9a9ce78bc5018ac3", "fusion_lat": 0.0, "name": "2805b0b155708fba9a9ce78bc5018ac3", "is_reserved": 0, "rental_uris": {"android": "https://dc.lft.to/lastmile_qr_scan", "ios": "https://dc.lft.to/lastmile_qr_scan"}, "fusion_lon": 0.0}, {"lat": 38.962296333333335, "is_disabled": 0, "type": "electric_bike", "lon": -77.02633933333334, "bike_id": "5b8eb858a0c9f8a8a1f83d7b90f24722", "fusion_lat": 0.0, "name": "5b8eb858a0c9f8a8a1f83d7b90f24722", "is_reserved": 0, "rental_uris": {"android": "https://dc.lft.to/lastmile_qr_scan", "ios": "https://dc.lft.to/lastmile_qr_scan"}, "fusion_lon": 0.0}, {"lat": 38.9041425, "is_disabled": 0, "type": "electric_scooter", "lon": -77.0254535, "bike_id": "5065a9630fa2868dab4f46c84b129e27", "fusion_lat": 0.0, "name": "5065a9630fa2868dab4f46c84b129e27", "is_reserved": 0, "rental_uris": {"android": "https://dc.lft.to/lastmile_qr_scan", "ios": "https://dc.lft.to/lastmile_qr_scan"}, "fusion_lon": 0.0}, {"lat": 38.905742333333336, "is_disabled": 0, "type": "electric_scooter", "lon": -77.046673, "bike_id": "081e8cc5d94a3c0896d2d9bd5e0cb3a4", "fusion_lat": 0.0, "name": "081e8cc5d94a3c0896d2d9bd5e0cb3a4", "is_reserved": 0, "rental_uris": {"android": "https://dc.lft.to/lastmile_qr_scan", "ios": "https://dc.lft.to/lastmile_qr_scan"}, "fusion_lon": 0.0}, {"lat": 38.933394666666665, "is_disabled": 0, "type": "electric_bike", "lon": -77.04229016666666, "bike_id": "6806ba31b3042e459fb279dc6d2d2bde", "fusion_lat": 0.0, "name": "6806ba31b3042e459fb279dc6d2d2bde", "is_reserved": 0, "rental_uris": {"android": "https://dc.lft.to/lastmile_qr_scan", "ios": "https://dc.lft.to/lastmile_qr_scan"}, "fusion_lon": 0.0}, {"lat": 38.91373816666667, "is_disabled": 0, "type": "electric_scooter", "lon": -77.02000033333333, "bike_id": "1788aed41dd22d36002f078e62617c97", "fusion_lat": 0.0, "name": "1788aed41dd22d36002f078e62617c97", "is_reserved": 0, "rental_uris": {"android": "https://dc.lft.to/lastmile_qr_scan", "ios": "https://dc.lft.to/lastmile_qr_scan"}, "fusion_lon": 0.0}, {"lat": 38.9482445, "is_disabled": 0, "type": "electric_scooter", "lon": -76.99906416666667, "bike_id": "d6e4ba9ef02a5f6645a0fd778b356f94", "fusion_lat": 0.0, "name": "d6e4ba9ef02a5f6645a0fd778b356f94", "is_reserved": 0, "rental_uris": {"android": "https://dc.lft.to/lastmile_qr_scan", "ios": "https://dc.lft.to/lastmile_qr_scan"}, "fusion_lon": 0.0}, {"lat": 38.917032166666665, "is_disabled": 0, "type": "electric_scooter", "lon": -77.0323185, "bike_id": "92d717affe7f2be89082da878da5bb98", "fusion_lat": 0.0, "name": "92d717affe7f2be89082da878da5bb98", "is_reserved": 0, "rental_uris": {"android": "https://dc.lft.to/lastmile_qr_scan", "ios": "https://dc.lft.to/lastmile_qr_scan"}, "fusion_lon": 0.0}, {"lat": 38.8973605, "is_disabled": 0, "type": "electric_scooter", "lon": -77.0216965, "bike_id": "31f9e4d7ada5a5444d25129b9caf9595", "fusion_lat": 0.0, "name": "31f9e4d7ada5a5444d25129b9caf9595", "is_reserved": 0, "rental_uris": {"android": "https://dc.lft.to/lastmile_qr_scan", "ios": "https://dc.lft.to/lastmile_qr_scan"}, "fusion_lon": 0.0}, {"lat": 38.920370166666665, "is_disabled": 0, "type": "electric_scooter", "lon": -77.0418065, "bike_id": "455ab5e9d6ce96bcd573970d0773f06a", "fusion_lat": 0.0, "name": "455ab5e9d6ce96bcd573970d0773f06a", "is_reserved": 0, "rental_uris": {"android": "https://dc.lft.to/lastmile_qr_scan", "ios": "https://dc.lft.to/lastmile_qr_scan"}, "fusion_lon": 0.0}, {"lat": 38.92334133333333, "is_disabled": 0, "type": "electric_bike", "lon": -77.03900483333334, "bike_id": "28ee1c22ef2adf39d5fed829ee411cb1", "fusion_lat": 0.0, "name": "28ee1c22ef2adf39d5fed829ee411cb1", "is_reserved": 0, "rental_uris": {"android": "https://dc.lft.to/lastmile_qr_scan", "ios": "https://dc.lft.to/lastmile_qr_scan"}, "fusion_lon": 0.0}, {"lat": 38.91415633333333, "is_disabled": 0, "type": "electric_scooter", "lon": -77.02213833333333, "bike_id": "e6df11571bdd9c772cc3ddcfe9e71fa0", "fusion_lat": 0.0, "name": "e6df11571bdd9c772cc3ddcfe9e71fa0", "is_reserved": 0, "rental_uris": {"android": "https://dc.lft.to/lastmile_qr_scan", "ios": "https://dc.lft.to/lastmile_qr_scan"}, "fusion_lon": 0.0}, {"lat": 38.876568, "is_disabled": 0, "type": "electric_scooter", "lon": -77.00418783333333, "bike_id": "43cd3672bef07bc6728c5eca74f35533", "fusion_lat": 0.0, "name": "43cd3672bef07bc6728c5eca74f35533", "is_reserved": 0, "rental_uris": {"android": "https://dc.lft.to/lastmile_qr_scan", "ios": "https://dc.lft.to/lastmile_qr_scan"}, "fusion_lon": 0.0}, {"lat": 38.8819685, "is_disabled": 0, "type": "electric_scooter", "lon": -76.99618383333333, "bike_id": "1f6192b8342e09c49c61790348216e2f", "fusion_lat": 0.0, "name": "1f6192b8342e09c49c61790348216e2f", "is_reserved": 0, "rental_uris": {"android": "https://dc.lft.to/lastmile_qr_scan", "ios": "https://dc.lft.to/lastmile_qr_scan"}, "fusion_lon": 0.0}, {"lat": 38.87064633333333, "is_disabled": 0, "type": "electric_scooter", "lon": -77.00839783333333, "bike_id": "2084e8fc2f973c9125126ec74ee83837", "fusion_lat": 0.0, "name": "2084e8fc2f973c9125126ec74ee83837", "is_reserved": 0, "rental_uris": {"android": "https://dc.lft.to/lastmile_qr_scan", "ios": "https://dc.lft.to/lastmile_qr_scan"}, "fusion_lon": 0.0}, {"lat": 38.93098883333333, "is_disabled": 0, "type": "electric_scooter", "lon": -77.030661, "bike_id": "d0b5bbdfe9352a67512f92cd4a99f0be", "fusion_lat": 0.0, "name": "d0b5bbdfe9352a67512f92cd4a99f0be", "is_reserved": 0, "rental_uris": {"android": "https://dc.lft.to/lastmile_qr_scan", "ios": "https://dc.lft.to/lastmile_qr_scan"}, "fusion_lon": 0.0}, {"lat": 38.917337833333335, "is_disabled": 0, "type": "electric_scooter", "lon": -77.0366435, "bike_id": "3d8906473fa49379e35d6efff57b6f0b", "fusion_lat": 0.0, "name": "3d8906473fa49379e35d6efff57b6f0b", "is_reserved": 0, "rental_uris": {"android": "https://dc.lft.to/lastmile_qr_scan", "ios": "https://dc.lft.to/lastmile_qr_scan"}, "fusion_lon": 0.0}, {"lat": 38.927111, "is_disabled": 0, "type": "electric_scooter", "lon": -77.0208865, "bike_id": "c9cd4465dde04582f385eb450397f694", "fusion_lat": 0.0, "name": "c9cd4465dde04582f385eb450397f694", "is_reserved": 0, "rental_uris": {"android": "https://dc.lft.to/lastmile_qr_scan", "ios": "https://dc.lft.to/lastmile_qr_scan"}, "fusion_lon": 0.0}, {"lat": 38.908156, "is_disabled": 0, "type": "electric_scooter", "lon": -77.03447583333333, "bike_id": "8c59f7c38a8aecc0a3daac4fd88c84e8", "fusion_lat": 0.0, "name": "8c59f7c38a8aecc0a3daac4fd88c84e8", "is_reserved": 0, "rental_uris": {"android": "https://dc.lft.to/lastmile_qr_scan", "ios": "https://dc.lft.to/lastmile_qr_scan"}, "fusion_lon": 0.0}, {"lat": 38.89499816666667, "is_disabled": 0, "type": "electric_scooter", "lon": -77.00325316666667, "bike_id": "641e07d9ec5faf109fa89c3461a4ca43", "fusion_lat": 0.0, "name": "641e07d9ec5faf109fa89c3461a4ca43", "is_reserved": 0, "rental_uris": {"android": "https://dc.lft.to/lastmile_qr_scan", "ios": "https://dc.lft.to/lastmile_qr_scan"}, "fusion_lon": 0.0}, {"lat": 38.917963666666665, "is_disabled": 0, "type": "electric_scooter", "lon": -77.02293933333333, "bike_id": "db0dc4ac5b52602d9caafa858a284803", "fusion_lat": 0.0, "name": "db0dc4ac5b52602d9caafa858a284803", "is_reserved": 0, "rental_uris": {"android": "https://dc.lft.to/lastmile_qr_scan", "ios": "https://dc.lft.to/lastmile_qr_scan"}, "fusion_lon": 0.0}, {"lat": 39.0001105, "is_disabled": 0, "type": "electric_bike", "lon": -76.9108355, "bike_id": "5f6ec13c46ef81af00807c156e843d36", "fusion_lat": 0.0, "name": "5f6ec13c46ef81af00807c156e843d36", "is_reserved": 0, "rental_uris": {"android": "https://dc.lft.to/lastmile_qr_scan", "ios": "https://dc.lft.to/lastmile_qr_scan"}, "fusion_lon": 0.0}, {"lat": 38.8638835, "is_disabled": 0, "type": "electric_bike", "lon": -76.98992166666666, "bike_id": "1f69e4a9093e12e0bc64b19f1594ec7b", "fusion_lat": 0.0, "name": "1f69e4a9093e12e0bc64b19f1594ec7b", "is_reserved": 0, "rental_uris": {"android": "https://dc.lft.to/lastmile_qr_scan", "ios": "https://dc.lft.to/lastmile_qr_scan"}, "fusion_lon": 0.0}, {"lat": 38.934669166666666, "is_disabled": 0, "type": "electric_scooter", "lon": -77.0619255, "bike_id": "feffffb8d302479cbe57b0d7da43fc4c", "fusion_lat": 0.0, "name": "feffffb8d302479cbe57b0d7da43fc4c", "is_reserved": 0, "rental_uris": {"android": "https://dc.lft.to/lastmile_qr_scan", "ios": "https://dc.lft.to/lastmile_qr_scan"}, "fusion_lon": 0.0}, {"lat": 38.91119716666667, "is_disabled": 0, "type": "electric_scooter", "lon": -77.032992, "bike_id": "e6978b50c1a41ba2cc9db6aecb4da218", "fusion_lat": 0.0, "name": "e6978b50c1a41ba2cc9db6aecb4da218", "is_reserved": 0, "rental_uris": {"android": "https://dc.lft.to/lastmile_qr_scan", "ios": "https://dc.lft.to/lastmile_qr_scan"}, "fusion_lon": 0.0}, {"lat": 38.88756383333333, "is_disabled": 0, "type": "electric_scooter", "lon": -77.0323305, "bike_id": "dfeb208c80743505aa0444b4cccfc71c", "fusion_lat": 0.0, "name": "dfeb208c80743505aa0444b4cccfc71c", "is_reserved": 0, "rental_uris": {"android": "https://dc.lft.to/lastmile_qr_scan", "ios": "https://dc.lft.to/lastmile_qr_scan"}, "fusion_lon": 0.0}, {"lat": 38.9535875, "is_disabled": 0, "type": "electric_bike", "lon": -76.980932, "bike_id": "9151bb624dbff82a44b49c0189060e0f", "fusion_lat": 0.0, "name": "9151bb624dbff82a44b49c0189060e0f", "is_reserved": 0, "rental_uris": {"android": "https://dc.lft.to/lastmile_qr_scan", "ios": "https://dc.lft.to/lastmile_qr_scan"}, "fusion_lon": 0.0}, {"lat": 38.8656205, "is_disabled": 0, "type": "electric_scooter", "lon": -76.97409683333333, "bike_id": "80c85fdd4fb029cfc8e4a2de58886f35", "fusion_lat": 0.0, "name": "80c85fdd4fb029cfc8e4a2de58886f35", "is_reserved": 0, "rental_uris": {"android": "https://dc.lft.to/lastmile_qr_scan", "ios": "https://dc.lft.to/lastmile_qr_scan"}, "fusion_lon": 0.0}, {"lat": 38.897564833333334, "is_disabled": 0, "type": "electric_scooter", "lon": -77.02679183333333, "bike_id": "5bdc81a121863bc4f3f97b45f0636755", "fusion_lat": 0.0, "name": "5bdc81a121863bc4f3f97b45f0636755", "is_reserved": 0, "rental_uris": {"android": "https://dc.lft.to/lastmile_qr_scan", "ios": "https://dc.lft.to/lastmile_qr_scan"}, "fusion_lon": 0.0}, {"lat": 38.91100316666667, "is_disabled": 0, "type": "electric_scooter", "lon": -77.03181583333334, "bike_id": "c095b1ef2694360bed81d35d35ee0e03", "fusion_lat": 0.0, "name": "c095b1ef2694360bed81d35d35ee0e03", "is_reserved": 0, "rental_uris": {"android": "https://dc.lft.to/lastmile_qr_scan", "ios": "https://dc.lft.to/lastmile_qr_scan"}, "fusion_lon": 0.0}, {"lat": 38.9417365, "is_disabled": 0, "type": "electric_scooter", "lon": -77.04137066666667, "bike_id": "d16ffb59ac746a1f473357e23ea97819", "fusion_lat": 0.0, "name": "d16ffb59ac746a1f473357e23ea97819", "is_reserved": 0, "rental_uris": {"android": "https://dc.lft.to/lastmile_qr_scan", "ios": "https://dc.lft.to/lastmile_qr_scan"}, "fusion_lon": 0.0}, {"lat": 38.9178465, "is_disabled": 0, "type": "electric_scooter", "lon": -77.022995, "bike_id": "30d2ece97a4281093fdada7de4d152bb", "fusion_lat": 0.0, "name": "30d2ece97a4281093fdada7de4d152bb", "is_reserved": 0, "rental_uris": {"android": "https://dc.lft.to/lastmile_qr_scan", "ios": "https://dc.lft.to/lastmile_qr_scan"}, "fusion_lon": 0.0}, {"lat": 38.89224766666667, "is_disabled": 0, "type": "electric_scooter", "lon": -77.0277955, "bike_id": "51ee3c03f2a65aec6700a2b6435e8353", "fusion_lat": 0.0, "name": "51ee3c03f2a65aec6700a2b6435e8353", "is_reserved": 0, "rental_uris": {"android": "https://dc.lft.to/lastmile_qr_scan", "ios": "https://dc.lft.to/lastmile_qr_scan"}, "fusion_lon": 0.0}, {"lat": 38.929050333333336, "is_disabled": 0, "type": "electric_scooter", "lon": -77.03734683333333, "bike_id": "7750fd307a1ea0fba90d531a0dd1c116", "fusion_lat": 0.0, "name": "7750fd307a1ea0fba90d531a0dd1c116", "is_reserved": 0, "rental_uris": {"android": "https://dc.lft.to/lastmile_qr_scan", "ios": "https://dc.lft.to/lastmile_qr_scan"}, "fusion_lon": 0.0}, {"lat": 38.91320616666667, "is_disabled": 0, "type": "electric_scooter", "lon": -77.04004283333333, "bike_id": "74119c6381fcfbf8657c6dcabb4f18c2", "fusion_lat": 0.0, "name": "74119c6381fcfbf8657c6dcabb4f18c2", "is_reserved": 0, "rental_uris": {"android": "https://dc.lft.to/lastmile_qr_scan", "ios": "https://dc.lft.to/lastmile_qr_scan"}, "fusion_lon": 0.0}, {"lat": 38.923646166666664, "is_disabled": 0, "type": "electric_scooter", "lon": -77.05050733333333, "bike_id": "9b4ab45aac5285c378f890f43b0b29a7", "fusion_lat": 0.0, "name": "9b4ab45aac5285c378f890f43b0b29a7", "is_reserved": 0, "rental_uris": {"android": "https://dc.lft.to/lastmile_qr_scan", "ios": "https://dc.lft.to/lastmile_qr_scan"}, "fusion_lon": 0.0}, {"lat": 38.922759, "is_disabled": 0, "type": "electric_scooter", "lon": -77.0447465, "bike_id": "0a2a39d8a3b7092819d9b7d6dc7b295a", "fusion_lat": 0.0, "name": "0a2a39d8a3b7092819d9b7d6dc7b295a", "is_reserved": 0, "rental_uris": {"android": "https://dc.lft.to/lastmile_qr_scan", "ios": "https://dc.lft.to/lastmile_qr_scan"}, "fusion_lon": 0.0}, {"lat": 38.9065515, "is_disabled": 0, "type": "electric_scooter", "lon": -77.07421916666667, "bike_id": "baadcd0a191b8a046002f90e09a1c1aa", "fusion_lat": 0.0, "name": "baadcd0a191b8a046002f90e09a1c1aa", "is_reserved": 0, "rental_uris": {"android": "https://dc.lft.to/lastmile_qr_scan", "ios": "https://dc.lft.to/lastmile_qr_scan"}, "fusion_lon": 0.0}, {"lat": 38.914292, "is_disabled": 0, "type": "electric_scooter", "lon": -77.03185633333334, "bike_id": "732bb091fc894398da8b31d3b0e291b9", "fusion_lat": 0.0, "name": "732bb091fc894398da8b31d3b0e291b9", "is_reserved": 0, "rental_uris": {"android": "https://dc.lft.to/lastmile_qr_scan", "ios": "https://dc.lft.to/lastmile_qr_scan"}, "fusion_lon": 0.0}, {"lat": 38.923865666666664, "is_disabled": 0, "type": "electric_scooter", "lon": -77.03538566666667, "bike_id": "d49f7b3dffa9d59ec9a4b9361a67e398", "fusion_lat": 0.0, "name": "d49f7b3dffa9d59ec9a4b9361a67e398", "is_reserved": 0, "rental_uris": {"android": "https://dc.lft.to/lastmile_qr_scan", "ios": "https://dc.lft.to/lastmile_qr_scan"}, "fusion_lon": 0.0}, {"lat": 38.905387, "is_disabled": 0, "type": "electric_scooter", "lon": -77.0514285, "bike_id": "68357fb2781af9cad81def2bcc40d6b8", "fusion_lat": 0.0, "name": "68357fb2781af9cad81def2bcc40d6b8", "is_reserved": 0, "rental_uris": {"android": "https://dc.lft.to/lastmile_qr_scan", "ios": "https://dc.lft.to/lastmile_qr_scan"}, "fusion_lon": 0.0}, {"lat": 38.858098166666664, "is_disabled": 0, "type": "electric_scooter", "lon": -76.9872605, "bike_id": "5117fd2b4ce8c5f228827e7bd3ccd4e2", "fusion_lat": 0.0, "name": "5117fd2b4ce8c5f228827e7bd3ccd4e2", "is_reserved": 0, "rental_uris": {"android": "https://dc.lft.to/lastmile_qr_scan", "ios": "https://dc.lft.to/lastmile_qr_scan"}, "fusion_lon": 0.0}, {"lat": 38.88036133333333, "is_disabled": 0, "type": "electric_scooter", "lon": -77.00371616666666, "bike_id": "0f02768618e2890de4d9c701b2d95a64", "fusion_lat": 0.0, "name": "0f02768618e2890de4d9c701b2d95a64", "is_reserved": 0, "rental_uris": {"android": "https://dc.lft.to/lastmile_qr_scan", "ios": "https://dc.lft.to/lastmile_qr_scan"}, "fusion_lon": 0.0}, {"lat": 38.9181825, "is_disabled": 0, "type": "electric_scooter", "lon": -77.0248835, "bike_id": "e8898c7060b1d5a252723abe7cf4e318", "fusion_lat": 0.0, "name": "e8898c7060b1d5a252723abe7cf4e318", "is_reserved": 0, "rental_uris": {"android": "https://dc.lft.to/lastmile_qr_scan", "ios": "https://dc.lft.to/lastmile_qr_scan"}, "fusion_lon": 0.0}, {"lat": 38.90941266666667, "is_disabled": 0, "type": "electric_bike", "lon": -77.04873766666667, "bike_id": "044a77f314389f23169b436b640ae149", "fusion_lat": 0.0, "name": "044a77f314389f23169b436b640ae149", "is_reserved": 0, "rental_uris": {"android": "https://dc.lft.to/lastmile_qr_scan", "ios": "https://dc.lft.to/lastmile_qr_scan"}, "fusion_lon": 0.0}, {"lat": 38.92155666666667, "is_disabled": 0, "type": "electric_scooter", "lon": -77.03516583333334, "bike_id": "9ffc4b1fed537ecd8a93f304a0a7cdbe", "fusion_lat": 0.0, "name": "9ffc4b1fed537ecd8a93f304a0a7cdbe", "is_reserved": 0, "rental_uris": {"android": "https://dc.lft.to/lastmile_qr_scan", "ios": "https://dc.lft.to/lastmile_qr_scan"}, "fusion_lon": 0.0}, {"lat": 38.892255166666665, "is_disabled": 0, "type": "electric_scooter", "lon": -76.93301033333333, "bike_id": "94fa920cd0719934fad96a2c2d8096dd", "fusion_lat": 0.0, "name": "94fa920cd0719934fad96a2c2d8096dd", "is_reserved": 0, "rental_uris": {"android": "https://dc.lft.to/lastmile_qr_scan", "ios": "https://dc.lft.to/lastmile_qr_scan"}, "fusion_lon": 0.0}, {"lat": 38.9009485, "is_disabled": 0, "type": "electric_scooter", "lon": -77.0559535, "bike_id": "b1f4046022d17b072a997e5de4200633", "fusion_lat": 0.0, "name": "b1f4046022d17b072a997e5de4200633", "is_reserved": 0, "rental_uris": {"android": "https://dc.lft.to/lastmile_qr_scan", "ios": "https://dc.lft.to/lastmile_qr_scan"}, "fusion_lon": 0.0}, {"lat": 38.91362383333333, "is_disabled": 0, "type": "electric_scooter", "lon": -77.03364166666667, "bike_id": "99ac30c1bb8ec19b2d0645ab84ecd0ee", "fusion_lat": 0.0, "name": "99ac30c1bb8ec19b2d0645ab84ecd0ee", "is_reserved": 0, "rental_uris": {"android": "https://dc.lft.to/lastmile_qr_scan", "ios": "https://dc.lft.to/lastmile_qr_scan"}, "fusion_lon": 0.0}, {"lat": 38.91747466666666, "is_disabled": 0, "type": "electric_scooter", "lon": -77.03598433333333, "bike_id": "fd21adebac946aaa27c669a878b60be8", "fusion_lat": 0.0, "name": "fd21adebac946aaa27c669a878b60be8", "is_reserved": 0, "rental_uris": {"android": "https://dc.lft.to/lastmile_qr_scan", "ios": "https://dc.lft.to/lastmile_qr_scan"}, "fusion_lon": 0.0}, {"lat": 38.892232166666666, "is_disabled": 0, "type": "electric_scooter", "lon": -77.0221365, "bike_id": "eb20b19dbae95f7a656fb8bca8727cae", "fusion_lat": 0.0, "name": "eb20b19dbae95f7a656fb8bca8727cae", "is_reserved": 0, "rental_uris": {"android": "https://dc.lft.to/lastmile_qr_scan", "ios": "https://dc.lft.to/lastmile_qr_scan"}, "fusion_lon": 0.0}, {"lat": 38.916022, "is_disabled": 0, "type": "electric_scooter", "lon": -77.03206516666667, "bike_id": "816115f58822370f0c4e272ff7a073c2", "fusion_lat": 0.0, "name": "816115f58822370f0c4e272ff7a073c2", "is_reserved": 0, "rental_uris": {"android": "https://dc.lft.to/lastmile_qr_scan", "ios": "https://dc.lft.to/lastmile_qr_scan"}, "fusion_lon": 0.0}, {"lat": 38.915716333333336, "is_disabled": 0, "type": "electric_scooter", "lon": -77.02288083333333, "bike_id": "37bab70992f128ef25cd8f541c700a1b", "fusion_lat": 0.0, "name": "37bab70992f128ef25cd8f541c700a1b", "is_reserved": 0, "rental_uris": {"android": "https://dc.lft.to/lastmile_qr_scan", "ios": "https://dc.lft.to/lastmile_qr_scan"}, "fusion_lon": 0.0}, {"lat": 38.90492416666667, "is_disabled": 0, "type": "electric_scooter", "lon": -77.04860966666666, "bike_id": "a4a793a6b5d4a538371601255b361044", "fusion_lat": 0.0, "name": "a4a793a6b5d4a538371601255b361044", "is_reserved": 0, "rental_uris": {"android": "https://dc.lft.to/lastmile_qr_scan", "ios": "https://dc.lft.to/lastmile_qr_scan"}, "fusion_lon": 0.0}, {"lat": 38.92764566666666, "is_disabled": 0, "type": "electric_bike", "lon": -77.06876333333334, "bike_id": "e591292a320f4babcb8c3108e51af019", "fusion_lat": 0.0, "name": "e591292a320f4babcb8c3108e51af019", "is_reserved": 0, "rental_uris": {"android": "https://dc.lft.to/lastmile_qr_scan", "ios": "https://dc.lft.to/lastmile_qr_scan"}, "fusion_lon": 0.0}, {"lat": 38.90228, "is_disabled": 0, "type": "electric_scooter", "lon": -77.05908583333333, "bike_id": "adc7d5d5e099f0556d11f49153f56690", "fusion_lat": 0.0, "name": "adc7d5d5e099f0556d11f49153f56690", "is_reserved": 0, "rental_uris": {"android": "https://dc.lft.to/lastmile_qr_scan", "ios": "https://dc.lft.to/lastmile_qr_scan"}, "fusion_lon": 0.0}, {"lat": 38.86511466666666, "is_disabled": 0, "type": "electric_scooter", "lon": -76.99004833333333, "bike_id": "0f2d138f7e922625bf7bc710789c081a", "fusion_lat": 0.0, "name": "0f2d138f7e922625bf7bc710789c081a", "is_reserved": 0, "rental_uris": {"android": "https://dc.lft.to/lastmile_qr_scan", "ios": "https://dc.lft.to/lastmile_qr_scan"}, "fusion_lon": 0.0}, {"lat": 38.941754, "is_disabled": 0, "type": "electric_scooter", "lon": -77.0250125, "bike_id": "b972bc4665afcfafd27b66f46f7ecca8", "fusion_lat": 0.0, "name": "b972bc4665afcfafd27b66f46f7ecca8", "is_reserved": 0, "rental_uris": {"android": "https://dc.lft.to/lastmile_qr_scan", "ios": "https://dc.lft.to/lastmile_qr_scan"}, "fusion_lon": 0.0}, {"lat": 38.900075666666666, "is_disabled": 0, "type": "electric_scooter", "lon": -77.006729, "bike_id": "654c871405d595173318a8704e380ff9", "fusion_lat": 0.0, "name": "654c871405d595173318a8704e380ff9", "is_reserved": 0, "rental_uris": {"android": "https://dc.lft.to/lastmile_qr_scan", "ios": "https://dc.lft.to/lastmile_qr_scan"}, "fusion_lon": 0.0}, {"lat": 38.900396666666666, "is_disabled": 0, "type": "electric_scooter", "lon": -77.03325883333333, "bike_id": "8d59318631b066422c615ee2891f7eda", "fusion_lat": 0.0, "name": "8d59318631b066422c615ee2891f7eda", "is_reserved": 0, "rental_uris": {"android": "https://dc.lft.to/lastmile_qr_scan", "ios": "https://dc.lft.to/lastmile_qr_scan"}, "fusion_lon": 0.0}, {"lat": 38.90766283333333, "is_disabled": 0, "type": "electric_scooter", "lon": -77.03851733333333, "bike_id": "4ba5dc50d5f51c85e6caad4780523630", "fusion_lat": 0.0, "name": "4ba5dc50d5f51c85e6caad4780523630", "is_reserved": 0, "rental_uris": {"android": "https://dc.lft.to/lastmile_qr_scan", "ios": "https://dc.lft.to/lastmile_qr_scan"}, "fusion_lon": 0.0}, {"lat": 38.91917433333333, "is_disabled": 0, "type": "electric_scooter", "lon": -77.0339735, "bike_id": "0e69a171962f00128b8deb4669195f96", "fusion_lat": 0.0, "name": "0e69a171962f00128b8deb4669195f96", "is_reserved": 0, "rental_uris": {"android": "https://dc.lft.to/lastmile_qr_scan", "ios": "https://dc.lft.to/lastmile_qr_scan"}, "fusion_lon": 0.0}, {"lat": 38.986479333333335, "is_disabled": 0, "type": "electric_bike", "lon": -77.05643166666667, "bike_id": "16100a5c6df0790e4691555c365382ee", "fusion_lat": 0.0, "name": "16100a5c6df0790e4691555c365382ee", "is_reserved": 0, "rental_uris": {"android": "https://dc.lft.to/lastmile_qr_scan", "ios": "https://dc.lft.to/lastmile_qr_scan"}, "fusion_lon": 0.0}, {"lat": 38.9136105, "is_disabled": 0, "type": "electric_scooter", "lon": -77.04585366666667, "bike_id": "de92703ceaef7a4b80d5b7d344ef943c", "fusion_lat": 0.0, "name": "de92703ceaef7a4b80d5b7d344ef943c", "is_reserved": 0, "rental_uris": {"android": "https://dc.lft.to/lastmile_qr_scan", "ios": "https://dc.lft.to/lastmile_qr_scan"}, "fusion_lon": 0.0}, {"lat": 38.921896833333335, "is_disabled": 0, "type": "electric_scooter", "lon": -77.0398105, "bike_id": "b074e99ea58553e6a1255994b7469e22", "fusion_lat": 0.0, "name": "b074e99ea58553e6a1255994b7469e22", "is_reserved": 0, "rental_uris": {"android": "https://dc.lft.to/lastmile_qr_scan", "ios": "https://dc.lft.to/lastmile_qr_scan"}, "fusion_lon": 0.0}, {"lat": 38.8442955, "is_disabled": 0, "type": "electric_scooter", "lon": -76.997786, "bike_id": "de5e5f3787529475e4882bd07a6364ee", "fusion_lat": 0.0, "name": "de5e5f3787529475e4882bd07a6364ee", "is_reserved": 0, "rental_uris": {"android": "https://dc.lft.to/lastmile_qr_scan", "ios": "https://dc.lft.to/lastmile_qr_scan"}, "fusion_lon": 0.0}, {"lat": 38.905764166666664, "is_disabled": 0, "type": "electric_scooter", "lon": -77.04343466666667, "bike_id": "bdf4998ccecdd622fd3d22fcd5e3e042", "fusion_lat": 0.0, "name": "bdf4998ccecdd622fd3d22fcd5e3e042", "is_reserved": 0, "rental_uris": {"android": "https://dc.lft.to/lastmile_qr_scan", "ios": "https://dc.lft.to/lastmile_qr_scan"}, "fusion_lon": 0.0}, {"lat": 38.827864, "is_disabled": 0, "type": "electric_bike", "lon": -77.00918483333334, "bike_id": "2caf6953aca7f60b6dc8f14067c526ff", "fusion_lat": 0.0, "name": "2caf6953aca7f60b6dc8f14067c526ff", "is_reserved": 0, "rental_uris": {"android": "https://dc.lft.to/lastmile_qr_scan", "ios": "https://dc.lft.to/lastmile_qr_scan"}, "fusion_lon": 0.0}, {"lat": 38.91474183333333, "is_disabled": 0, "type": "electric_scooter", "lon": -77.00346933333333, "bike_id": "b1b721dc8d8fb38dc3f8e386fe17d055", "fusion_lat": 0.0, "name": "b1b721dc8d8fb38dc3f8e386fe17d055", "is_reserved": 0, "rental_uris": {"android": "https://dc.lft.to/lastmile_qr_scan", "ios": "https://dc.lft.to/lastmile_qr_scan"}, "fusion_lon": 0.0}, {"lat": 38.92486183333333, "is_disabled": 0, "type": "electric_scooter", "lon": -77.02832316666667, "bike_id": "58ff4ebfb9eabbe0c751598b15dd06c6", "fusion_lat": 0.0, "name": "58ff4ebfb9eabbe0c751598b15dd06c6", "is_reserved": 0, "rental_uris": {"android": "https://dc.lft.to/lastmile_qr_scan", "ios": "https://dc.lft.to/lastmile_qr_scan"}, "fusion_lon": 0.0}, {"lat": 38.907750166666666, "is_disabled": 0, "type": "electric_scooter", "lon": -77.0386175, "bike_id": "19948babb8b345858145af8d657bd476", "fusion_lat": 0.0, "name": "19948babb8b345858145af8d657bd476", "is_reserved": 0, "rental_uris": {"android": "https://dc.lft.to/lastmile_qr_scan", "ios": "https://dc.lft.to/lastmile_qr_scan"}, "fusion_lon": 0.0}, {"lat": 38.890067333333334, "is_disabled": 0, "type": "electric_scooter", "lon": -76.93743133333334, "bike_id": "865469e3711514668733afd200674031", "fusion_lat": 0.0, "name": "865469e3711514668733afd200674031", "is_reserved": 0, "rental_uris": {"android": "https://dc.lft.to/lastmile_qr_scan", "ios": "https://dc.lft.to/lastmile_qr_scan"}, "fusion_lon": 0.0}, {"lat": 38.9004505, "is_disabled": 0, "type": "electric_scooter", "lon": -76.995066, "bike_id": "58af9fe868d8f85a1e2b5e68a22e8b07", "fusion_lat": 0.0, "name": "58af9fe868d8f85a1e2b5e68a22e8b07", "is_reserved": 0, "rental_uris": {"android": "https://dc.lft.to/lastmile_qr_scan", "ios": "https://dc.lft.to/lastmile_qr_scan"}, "fusion_lon": 0.0}, {"lat": 38.8768765, "is_disabled": 0, "type": "electric_bike", "lon": -77.0176135, "bike_id": "de586d3ce8331d98b358389f2a4d784d", "fusion_lat": 0.0, "name": "de586d3ce8331d98b358389f2a4d784d", "is_reserved": 0, "rental_uris": {"android": "https://dc.lft.to/lastmile_qr_scan", "ios": "https://dc.lft.to/lastmile_qr_scan"}, "fusion_lon": 0.0}, {"lat": 38.909871, "is_disabled": 0, "type": "electric_scooter", "lon": -76.9846815, "bike_id": "f8a84c92254d8984213c55e2f5c9f9ca", "fusion_lat": 0.0, "name": "f8a84c92254d8984213c55e2f5c9f9ca", "is_reserved": 0, "rental_uris": {"android": "https://dc.lft.to/lastmile_qr_scan", "ios": "https://dc.lft.to/lastmile_qr_scan"}, "fusion_lon": 0.0}, {"lat": 38.90851, "is_disabled": 0, "type": "electric_scooter", "lon": -76.99964216666666, "bike_id": "0c3ca059e3448dfda4acad1615aca895", "fusion_lat": 0.0, "name": "0c3ca059e3448dfda4acad1615aca895", "is_reserved": 0, "rental_uris": {"android": "https://dc.lft.to/lastmile_qr_scan", "ios": "https://dc.lft.to/lastmile_qr_scan"}, "fusion_lon": 0.0}, {"lat": 38.839851333333336, "is_disabled": 0, "type": "electric_bike", "lon": -77.00577033333333, "bike_id": "4f1a5aef3609d0083c1782bc77711361", "fusion_lat": 0.0, "name": "4f1a5aef3609d0083c1782bc77711361", "is_reserved": 0, "rental_uris": {"android": "https://dc.lft.to/lastmile_qr_scan", "ios": "https://dc.lft.to/lastmile_qr_scan"}, "fusion_lon": 0.0}, {"lat": 38.92045483333333, "is_disabled": 0, "type": "electric_scooter", "lon": -77.034058, "bike_id": "4f34a47cdb1f4b1af28cf17ea0008c56", "fusion_lat": 0.0, "name": "4f34a47cdb1f4b1af28cf17ea0008c56", "is_reserved": 0, "rental_uris": {"android": "https://dc.lft.to/lastmile_qr_scan", "ios": "https://dc.lft.to/lastmile_qr_scan"}, "fusion_lon": 0.0}, {"lat": 38.9240105, "is_disabled": 0, "type": "electric_scooter", "lon": -77.05255416666667, "bike_id": "ee173aa2be67b681c2f727ed0c570929", "fusion_lat": 0.0, "name": "ee173aa2be67b681c2f727ed0c570929", "is_reserved": 0, "rental_uris": {"android": "https://dc.lft.to/lastmile_qr_scan", "ios": "https://dc.lft.to/lastmile_qr_scan"}, "fusion_lon": 0.0}, {"lat": 38.908272, "is_disabled": 0, "type": "electric_scooter", "lon": -77.01793133333334, "bike_id": "c5b90b2819663491fd6fb8d79a6ecc7b", "fusion_lat": 0.0, "name": "c5b90b2819663491fd6fb8d79a6ecc7b", "is_reserved": 0, "rental_uris": {"android": "https://dc.lft.to/lastmile_qr_scan", "ios": "https://dc.lft.to/lastmile_qr_scan"}, "fusion_lon": 0.0}, {"lat": 38.918160666666665, "is_disabled": 0, "type": "electric_scooter", "lon": -77.03172283333333, "bike_id": "d5069e26e86e8340ebf145eec8a9e90c", "fusion_lat": 0.0, "name": "d5069e26e86e8340ebf145eec8a9e90c", "is_reserved": 0, "rental_uris": {"android": "https://dc.lft.to/lastmile_qr_scan", "ios": "https://dc.lft.to/lastmile_qr_scan"}, "fusion_lon": 0.0}, {"lat": 38.915605166666666, "is_disabled": 0, "type": "electric_scooter", "lon": -77.0205045, "bike_id": "7106ae96e11e15c1fdcd4060377154c6", "fusion_lat": 0.0, "name": "7106ae96e11e15c1fdcd4060377154c6", "is_reserved": 0, "rental_uris": {"android": "https://dc.lft.to/lastmile_qr_scan", "ios": "https://dc.lft.to/lastmile_qr_scan"}, "fusion_lon": 0.0}, {"lat": 38.836809, "is_disabled": 0, "type": "electric_scooter", "lon": -77.0057555, "bike_id": "a135e4abb2049cf3d9fa7a85a4b65c0a", "fusion_lat": 0.0, "name": "a135e4abb2049cf3d9fa7a85a4b65c0a", "is_reserved": 0, "rental_uris": {"android": "https://dc.lft.to/lastmile_qr_scan", "ios": "https://dc.lft.to/lastmile_qr_scan"}, "fusion_lon": 0.0}, {"lat": 38.912567333333335, "is_disabled": 0, "type": "electric_scooter", "lon": -77.02211366666667, "bike_id": "e2211a2c073c8491a29e3d8763ffb0f6", "fusion_lat": 0.0, "name": "e2211a2c073c8491a29e3d8763ffb0f6", "is_reserved": 0, "rental_uris": {"android": "https://dc.lft.to/lastmile_qr_scan", "ios": "https://dc.lft.to/lastmile_qr_scan"}, "fusion_lon": 0.0}, {"lat": 38.900680333333334, "is_disabled": 0, "type": "electric_scooter", "lon": -77.00200916666667, "bike_id": "e95474e9e3542dfce61dd583f3a80eb1", "fusion_lat": 0.0, "name": "e95474e9e3542dfce61dd583f3a80eb1", "is_reserved": 0, "rental_uris": {"android": "https://dc.lft.to/lastmile_qr_scan", "ios": "https://dc.lft.to/lastmile_qr_scan"}, "fusion_lon": 0.0}, {"lat": 38.923630333333335, "is_disabled": 0, "type": "electric_scooter", "lon": -77.05132883333333, "bike_id": "cebb5f53fc305e2dd577cc33b4c30282", "fusion_lat": 0.0, "name": "cebb5f53fc305e2dd577cc33b4c30282", "is_reserved": 0, "rental_uris": {"android": "https://dc.lft.to/lastmile_qr_scan", "ios": "https://dc.lft.to/lastmile_qr_scan"}, "fusion_lon": 0.0}, {"lat": 38.905766666666665, "is_disabled": 0, "type": "electric_scooter", "lon": -77.02987633333333, "bike_id": "a547d68bf2e36ac8760822a3401a0865", "fusion_lat": 0.0, "name": "a547d68bf2e36ac8760822a3401a0865", "is_reserved": 0, "rental_uris": {"android": "https://dc.lft.to/lastmile_qr_scan", "ios": "https://dc.lft.to/lastmile_qr_scan"}, "fusion_lon": 0.0}, {"lat": 38.91057566666667, "is_disabled": 0, "type": "electric_scooter", "lon": -77.05580533333334, "bike_id": "789095a8ea8163aa50fe7179200e300c", "fusion_lat": 0.0, "name": "789095a8ea8163aa50fe7179200e300c", "is_reserved": 0, "rental_uris": {"android": "https://dc.lft.to/lastmile_qr_scan", "ios": "https://dc.lft.to/lastmile_qr_scan"}, "fusion_lon": 0.0}, {"lat": 38.901043666666666, "is_disabled": 0, "type": "electric_scooter", "lon": -76.98482366666667, "bike_id": "3418d1aad8270caa4b2e30b6a6e30126", "fusion_lat": 0.0, "name": "3418d1aad8270caa4b2e30b6a6e30126", "is_reserved": 0, "rental_uris": {"android": "https://dc.lft.to/lastmile_qr_scan", "ios": "https://dc.lft.to/lastmile_qr_scan"}, "fusion_lon": 0.0}, {"lat": 38.9086325, "is_disabled": 0, "type": "electric_scooter", "lon": -77.045912, "bike_id": "fd320c91a8e1a8e7924e14e269799428", "fusion_lat": 0.0, "name": "fd320c91a8e1a8e7924e14e269799428", "is_reserved": 0, "rental_uris": {"android": "https://dc.lft.to/lastmile_qr_scan", "ios": "https://dc.lft.to/lastmile_qr_scan"}, "fusion_lon": 0.0}, {"lat": 38.90613333333334, "is_disabled": 0, "type": "electric_scooter", "lon": -76.9898635, "bike_id": "9dca8b4e363bfdef1fb7d983d214578e", "fusion_lat": 0.0, "name": "9dca8b4e363bfdef1fb7d983d214578e", "is_reserved": 0, "rental_uris": {"android": "https://dc.lft.to/lastmile_qr_scan", "ios": "https://dc.lft.to/lastmile_qr_scan"}, "fusion_lon": 0.0}, {"lat": 38.909048, "is_disabled": 0, "type": "electric_scooter", "lon": -77.04410366666667, "bike_id": "41aa2187eeea8e38d7aaa4ea766785bf", "fusion_lat": 0.0, "name": "41aa2187eeea8e38d7aaa4ea766785bf", "is_reserved": 0, "rental_uris": {"android": "https://dc.lft.to/lastmile_qr_scan", "ios": "https://dc.lft.to/lastmile_qr_scan"}, "fusion_lon": 0.0}, {"lat": 38.877239, "is_disabled": 0, "type": "electric_scooter", "lon": -77.01767033333333, "bike_id": "bd98ed1565e681441c435b976498ff13", "fusion_lat": 0.0, "name": "bd98ed1565e681441c435b976498ff13", "is_reserved": 0, "rental_uris": {"android": "https://dc.lft.to/lastmile_qr_scan", "ios": "https://dc.lft.to/lastmile_qr_scan"}, "fusion_lon": 0.0}, {"lat": 38.91747266666667, "is_disabled": 0, "type": "electric_scooter", "lon": -77.02292916666667, "bike_id": "4fbd71d30b4490afdc9235ef4b4fbfa6", "fusion_lat": 0.0, "name": "4fbd71d30b4490afdc9235ef4b4fbfa6", "is_reserved": 0, "rental_uris": {"android": "https://dc.lft.to/lastmile_qr_scan", "ios": "https://dc.lft.to/lastmile_qr_scan"}, "fusion_lon": 0.0}, {"lat": 38.90532683333333, "is_disabled": 0, "type": "electric_scooter", "lon": -77.06245083333333, "bike_id": "4eb3013402b03bcd13c1ae3234e76402", "fusion_lat": 0.0, "name": "4eb3013402b03bcd13c1ae3234e76402", "is_reserved": 0, "rental_uris": {"android": "https://dc.lft.to/lastmile_qr_scan", "ios": "https://dc.lft.to/lastmile_qr_scan"}, "fusion_lon": 0.0}, {"lat": 38.912562333333334, "is_disabled": 0, "type": "electric_scooter", "lon": -77.02537, "bike_id": "183b17ec96be49703e7495ceb67694cd", "fusion_lat": 0.0, "name": "183b17ec96be49703e7495ceb67694cd", "is_reserved": 0, "rental_uris": {"android": "https://dc.lft.to/lastmile_qr_scan", "ios": "https://dc.lft.to/lastmile_qr_scan"}, "fusion_lon": 0.0}, {"lat": 38.924052833333334, "is_disabled": 0, "type": "electric_scooter", "lon": -77.027441, "bike_id": "d85e285741a3309f055a8b2e91168144", "fusion_lat": 0.0, "name": "d85e285741a3309f055a8b2e91168144", "is_reserved": 0, "rental_uris": {"android": "https://dc.lft.to/lastmile_qr_scan", "ios": "https://dc.lft.to/lastmile_qr_scan"}, "fusion_lon": 0.0}, {"lat": 38.86996833333333, "is_disabled": 0, "type": "electric_bike", "lon": -77.06572033333333, "bike_id": "8b64f09a748d561601ea48fe61af6fb5", "fusion_lat": 0.0, "name": "8b64f09a748d561601ea48fe61af6fb5", "is_reserved": 0, "rental_uris": {"android": "https://dc.lft.to/lastmile_qr_scan", "ios": "https://dc.lft.to/lastmile_qr_scan"}, "fusion_lon": 0.0}, {"lat": 38.90378616666667, "is_disabled": 0, "type": "electric_scooter", "lon": -77.0428795, "bike_id": "1cd49b99ec8a5d571c96f8a740a47228", "fusion_lat": 0.0, "name": "1cd49b99ec8a5d571c96f8a740a47228", "is_reserved": 0, "rental_uris": {"android": "https://dc.lft.to/lastmile_qr_scan", "ios": "https://dc.lft.to/lastmile_qr_scan"}, "fusion_lon": 0.0}, {"lat": 38.8940605, "is_disabled": 0, "type": "electric_scooter", "lon": -76.98671566666667, "bike_id": "ad4f9f582f3c1255b6d113b3cea25ff1", "fusion_lat": 0.0, "name": "ad4f9f582f3c1255b6d113b3cea25ff1", "is_reserved": 0, "rental_uris": {"android": "https://dc.lft.to/lastmile_qr_scan", "ios": "https://dc.lft.to/lastmile_qr_scan"}, "fusion_lon": 0.0}, {"lat": 38.934485333333335, "is_disabled": 0, "type": "electric_scooter", "lon": -77.0307465, "bike_id": "8f3f5623b7ab96ed39205cf3ac7db391", "fusion_lat": 0.0, "name": "8f3f5623b7ab96ed39205cf3ac7db391", "is_reserved": 0, "rental_uris": {"android": "https://dc.lft.to/lastmile_qr_scan", "ios": "https://dc.lft.to/lastmile_qr_scan"}, "fusion_lon": 0.0}, {"lat": 38.949217, "is_disabled": 0, "type": "electric_bike", "lon": -77.00796333333334, "bike_id": "d68b23b4a85fa028c222c98b5490f7a6", "fusion_lat": 0.0, "name": "d68b23b4a85fa028c222c98b5490f7a6", "is_reserved": 0, "rental_uris": {"android": "https://dc.lft.to/lastmile_qr_scan", "ios": "https://dc.lft.to/lastmile_qr_scan"}, "fusion_lon": 0.0}, {"lat": 38.9236935, "is_disabled": 0, "type": "electric_scooter", "lon": -77.05053733333334, "bike_id": "f9220447f503df5767fb6df4f70d5d44", "fusion_lat": 0.0, "name": "f9220447f503df5767fb6df4f70d5d44", "is_reserved": 0, "rental_uris": {"android": "https://dc.lft.to/lastmile_qr_scan", "ios": "https://dc.lft.to/lastmile_qr_scan"}, "fusion_lon": 0.0}, {"lat": 38.905563666666666, "is_disabled": 0, "type": "electric_scooter", "lon": -77.03402466666667, "bike_id": "e964f4ffbb64227daafe90027117fe85", "fusion_lat": 0.0, "name": "e964f4ffbb64227daafe90027117fe85", "is_reserved": 0, "rental_uris": {"android": "https://dc.lft.to/lastmile_qr_scan", "ios": "https://dc.lft.to/lastmile_qr_scan"}, "fusion_lon": 0.0}, {"lat": 38.9173345, "is_disabled": 0, "type": "electric_scooter", "lon": -77.03641366666666, "bike_id": "2cb1ea9d7bca109a48b0795e6a6833e2", "fusion_lat": 0.0, "name": "2cb1ea9d7bca109a48b0795e6a6833e2", "is_reserved": 0, "rental_uris": {"android": "https://dc.lft.to/lastmile_qr_scan", "ios": "https://dc.lft.to/lastmile_qr_scan"}, "fusion_lon": 0.0}, {"lat": 39.05203866666667, "is_disabled": 0, "type": "electric_bike", "lon": -77.10908633333334, "bike_id": "040933956bfb3edb1c1036ab2c7179b7", "fusion_lat": 0.0, "name": "040933956bfb3edb1c1036ab2c7179b7", "is_reserved": 0, "rental_uris": {"android": "https://dc.lft.to/lastmile_qr_scan", "ios": "https://dc.lft.to/lastmile_qr_scan"}, "fusion_lon": 0.0}, {"lat": 38.90614516666667, "is_disabled": 0, "type": "electric_scooter", "lon": -77.01879283333334, "bike_id": "4e2b370d78ae1b00de85eaef881383f9", "fusion_lat": 0.0, "name": "4e2b370d78ae1b00de85eaef881383f9", "is_reserved": 0, "rental_uris": {"android": "https://dc.lft.to/lastmile_qr_scan", "ios": "https://dc.lft.to/lastmile_qr_scan"}, "fusion_lon": 0.0}, {"lat": 38.859088, "is_disabled": 0, "type": "electric_scooter", "lon": -76.99152633333334, "bike_id": "338d762096a1a409284908ea82bedbed", "fusion_lat": 0.0, "name": "338d762096a1a409284908ea82bedbed", "is_reserved": 0, "rental_uris": {"android": "https://dc.lft.to/lastmile_qr_scan", "ios": "https://dc.lft.to/lastmile_qr_scan"}, "fusion_lon": 0.0}, {"lat": 38.9193705, "is_disabled": 0, "type": "electric_scooter", "lon": -77.02420016666666, "bike_id": "4d39dd628a018715c892eea3027bc337", "fusion_lat": 0.0, "name": "4d39dd628a018715c892eea3027bc337", "is_reserved": 0, "rental_uris": {"android": "https://dc.lft.to/lastmile_qr_scan", "ios": "https://dc.lft.to/lastmile_qr_scan"}, "fusion_lon": 0.0}, {"lat": 38.938921, "is_disabled": 0, "type": "electric_bike", "lon": -76.995047, "bike_id": "47710c13a6b4ab747a23bddf79231ff7", "fusion_lat": 0.0, "name": "47710c13a6b4ab747a23bddf79231ff7", "is_reserved": 0, "rental_uris": {"android": "https://dc.lft.to/lastmile_qr_scan", "ios": "https://dc.lft.to/lastmile_qr_scan"}, "fusion_lon": 0.0}, {"lat": 38.902181, "is_disabled": 0, "type": "electric_scooter", "lon": -77.02379416666666, "bike_id": "2d47ccc7fd73697e9b47b458b55f873a", "fusion_lat": 0.0, "name": "2d47ccc7fd73697e9b47b458b55f873a", "is_reserved": 0, "rental_uris": {"android": "https://dc.lft.to/lastmile_qr_scan", "ios": "https://dc.lft.to/lastmile_qr_scan"}, "fusion_lon": 0.0}, {"lat": 38.89909083333333, "is_disabled": 0, "type": "electric_scooter", "lon": -76.93349116666667, "bike_id": "e9cd105e5f07b014e7b235decda6bd45", "fusion_lat": 0.0, "name": "e9cd105e5f07b014e7b235decda6bd45", "is_reserved": 0, "rental_uris": {"android": "https://dc.lft.to/lastmile_qr_scan", "ios": "https://dc.lft.to/lastmile_qr_scan"}, "fusion_lon": 0.0}, {"lat": 38.9527775, "is_disabled": 0, "type": "electric_scooter", "lon": -77.0684975, "bike_id": "9a34dcf75999b01c0f81275bbe31067f", "fusion_lat": 0.0, "name": "9a34dcf75999b01c0f81275bbe31067f", "is_reserved": 0, "rental_uris": {"android": "https://dc.lft.to/lastmile_qr_scan", "ios": "https://dc.lft.to/lastmile_qr_scan"}, "fusion_lon": 0.0}, {"lat": 38.86650433333333, "is_disabled": 0, "type": "electric_scooter", "lon": -76.98887666666667, "bike_id": "79b58899c7a40d9fbd167090be6cf50b", "fusion_lat": 0.0, "name": "79b58899c7a40d9fbd167090be6cf50b", "is_reserved": 0, "rental_uris": {"android": "https://dc.lft.to/lastmile_qr_scan", "ios": "https://dc.lft.to/lastmile_qr_scan"}, "fusion_lon": 0.0}, {"lat": 38.91557383333333, "is_disabled": 0, "type": "electric_scooter", "lon": -77.05329733333333, "bike_id": "57dda33af524a5936cf6a19cc9273adf", "fusion_lat": 0.0, "name": "57dda33af524a5936cf6a19cc9273adf", "is_reserved": 0, "rental_uris": {"android": "https://dc.lft.to/lastmile_qr_scan", "ios": "https://dc.lft.to/lastmile_qr_scan"}, "fusion_lon": 0.0}, {"lat": 38.93329283333333, "is_disabled": 0, "type": "electric_scooter", "lon": -77.043704, "bike_id": "5eed57227419d3ff65a4f95389de4b66", "fusion_lat": 0.0, "name": "5eed57227419d3ff65a4f95389de4b66", "is_reserved": 0, "rental_uris": {"android": "https://dc.lft.to/lastmile_qr_scan", "ios": "https://dc.lft.to/lastmile_qr_scan"}, "fusion_lon": 0.0}, {"lat": 38.902465, "is_disabled": 0, "type": "electric_scooter", "lon": -77.06055533333334, "bike_id": "8b8f5b3cdb3c71b45a122d0788576008", "fusion_lat": 0.0, "name": "8b8f5b3cdb3c71b45a122d0788576008", "is_reserved": 0, "rental_uris": {"android": "https://dc.lft.to/lastmile_qr_scan", "ios": "https://dc.lft.to/lastmile_qr_scan"}, "fusion_lon": 0.0}, {"lat": 38.92491033333334, "is_disabled": 0, "type": "electric_scooter", "lon": -77.0575725, "bike_id": "667eba476d27d61dfe34cc2334af9cf4", "fusion_lat": 0.0, "name": "667eba476d27d61dfe34cc2334af9cf4", "is_reserved": 0, "rental_uris": {"android": "https://dc.lft.to/lastmile_qr_scan", "ios": "https://dc.lft.to/lastmile_qr_scan"}, "fusion_lon": 0.0}, {"lat": 38.91944016666667, "is_disabled": 0, "type": "electric_scooter", "lon": -76.98076783333333, "bike_id": "c5abc9bfdfdb1ccfebd0e8fe21beda9e", "fusion_lat": 0.0, "name": "c5abc9bfdfdb1ccfebd0e8fe21beda9e", "is_reserved": 0, "rental_uris": {"android": "https://dc.lft.to/lastmile_qr_scan", "ios": "https://dc.lft.to/lastmile_qr_scan"}, "fusion_lon": 0.0}, {"lat": 38.892203, "is_disabled": 0, "type": "electric_scooter", "lon": -77.04363833333333, "bike_id": "6dbcaad2770a15e7e0f0ef46072ec7e9", "fusion_lat": 0.0, "name": "6dbcaad2770a15e7e0f0ef46072ec7e9", "is_reserved": 0, "rental_uris": {"android": "https://dc.lft.to/lastmile_qr_scan", "ios": "https://dc.lft.to/lastmile_qr_scan"}, "fusion_lon": 0.0}, {"lat": 38.88526566666667, "is_disabled": 0, "type": "electric_scooter", "lon": -77.01134683333333, "bike_id": "6a3fa286cd870eabeebaecc79ac58527", "fusion_lat": 0.0, "name": "6a3fa286cd870eabeebaecc79ac58527", "is_reserved": 0, "rental_uris": {"android": "https://dc.lft.to/lastmile_qr_scan", "ios": "https://dc.lft.to/lastmile_qr_scan"}, "fusion_lon": 0.0}, {"lat": 38.93607333333333, "is_disabled": 0, "type": "electric_scooter", "lon": -77.0585595, "bike_id": "8445f376665cf209e0c98d3e16b92af3", "fusion_lat": 0.0, "name": "8445f376665cf209e0c98d3e16b92af3", "is_reserved": 0, "rental_uris": {"android": "https://dc.lft.to/lastmile_qr_scan", "ios": "https://dc.lft.to/lastmile_qr_scan"}, "fusion_lon": 0.0}, {"lat": 38.928770166666666, "is_disabled": 0, "type": "electric_scooter", "lon": -77.03714983333333, "bike_id": "01f1af4f8252c7956068055ce67bdcc9", "fusion_lat": 0.0, "name": "01f1af4f8252c7956068055ce67bdcc9", "is_reserved": 0, "rental_uris": {"android": "https://dc.lft.to/lastmile_qr_scan", "ios": "https://dc.lft.to/lastmile_qr_scan"}, "fusion_lon": 0.0}, {"lat": 38.932991333333334, "is_disabled": 0, "type": "electric_scooter", "lon": -77.045345, "bike_id": "aff6a6ddc446d4ddc6cf88e3c7ae546e", "fusion_lat": 0.0, "name": "aff6a6ddc446d4ddc6cf88e3c7ae546e", "is_reserved": 0, "rental_uris": {"android": "https://dc.lft.to/lastmile_qr_scan", "ios": "https://dc.lft.to/lastmile_qr_scan"}, "fusion_lon": 0.0}, {"lat": 38.914652833333335, "is_disabled": 0, "type": "electric_scooter", "lon": -77.01432833333334, "bike_id": "4ce16969ec081e76366c6031cdcdce69", "fusion_lat": 0.0, "name": "4ce16969ec081e76366c6031cdcdce69", "is_reserved": 0, "rental_uris": {"android": "https://dc.lft.to/lastmile_qr_scan", "ios": "https://dc.lft.to/lastmile_qr_scan"}, "fusion_lon": 0.0}, {"lat": 38.900398, "is_disabled": 0, "type": "electric_scooter", "lon": -77.03319316666666, "bike_id": "9c442b1e42fcd4d41a8603452ecd8d06", "fusion_lat": 0.0, "name": "9c442b1e42fcd4d41a8603452ecd8d06", "is_reserved": 0, "rental_uris": {"android": "https://dc.lft.to/lastmile_qr_scan", "ios": "https://dc.lft.to/lastmile_qr_scan"}, "fusion_lon": 0.0}, {"lat": 38.914555166666666, "is_disabled": 0, "type": "electric_bike", "lon": -76.97271966666666, "bike_id": "58377399f678d5023e026d94b27b38df", "fusion_lat": 0.0, "name": "58377399f678d5023e026d94b27b38df", "is_reserved": 0, "rental_uris": {"android": "https://dc.lft.to/lastmile_qr_scan", "ios": "https://dc.lft.to/lastmile_qr_scan"}, "fusion_lon": 0.0}, {"lat": 38.902624833333334, "is_disabled": 0, "type": "electric_scooter", "lon": -77.01774616666667, "bike_id": "80806236d2277e0771d718ddc9a46eb7", "fusion_lat": 0.0, "name": "80806236d2277e0771d718ddc9a46eb7", "is_reserved": 0, "rental_uris": {"android": "https://dc.lft.to/lastmile_qr_scan", "ios": "https://dc.lft.to/lastmile_qr_scan"}, "fusion_lon": 0.0}, {"lat": 38.882001333333335, "is_disabled": 0, "type": "electric_scooter", "lon": -76.98927783333333, "bike_id": "ad8c42d12ea81104243970312c0cbd68", "fusion_lat": 0.0, "name": "ad8c42d12ea81104243970312c0cbd68", "is_reserved": 0, "rental_uris": {"android": "https://dc.lft.to/lastmile_qr_scan", "ios": "https://dc.lft.to/lastmile_qr_scan"}, "fusion_lon": 0.0}, {"lat": 38.870786333333335, "is_disabled": 0, "type": "electric_bike", "lon": -76.9783845, "bike_id": "d14cdaeb58c515256d5ca07ce26e04c8", "fusion_lat": 0.0, "name": "d14cdaeb58c515256d5ca07ce26e04c8", "is_reserved": 0, "rental_uris": {"android": "https://dc.lft.to/lastmile_qr_scan", "ios": "https://dc.lft.to/lastmile_qr_scan"}, "fusion_lon": 0.0}, {"lat": 38.87857066666667, "is_disabled": 0, "type": "electric_scooter", "lon": -77.01767933333333, "bike_id": "57ac1a26ef6f5b19bf00067a25ac6db8", "fusion_lat": 0.0, "name": "57ac1a26ef6f5b19bf00067a25ac6db8", "is_reserved": 0, "rental_uris": {"android": "https://dc.lft.to/lastmile_qr_scan", "ios": "https://dc.lft.to/lastmile_qr_scan"}, "fusion_lon": 0.0}, {"lat": 38.89223333333333, "is_disabled": 0, "type": "electric_scooter", "lon": -77.02211483333333, "bike_id": "5125f80aa7683339d492742e711b5d73", "fusion_lat": 0.0, "name": "5125f80aa7683339d492742e711b5d73", "is_reserved": 0, "rental_uris": {"android": "https://dc.lft.to/lastmile_qr_scan", "ios": "https://dc.lft.to/lastmile_qr_scan"}, "fusion_lon": 0.0}, {"lat": 38.89036633333333, "is_disabled": 0, "type": "electric_scooter", "lon": -76.937576, "bike_id": "319cc5ba844c7312244c7b1a3b345fbe", "fusion_lat": 0.0, "name": "319cc5ba844c7312244c7b1a3b345fbe", "is_reserved": 0, "rental_uris": {"android": "https://dc.lft.to/lastmile_qr_scan", "ios": "https://dc.lft.to/lastmile_qr_scan"}, "fusion_lon": 0.0}, {"lat": 38.931228, "is_disabled": 0, "type": "electric_bike", "lon": -77.02704683333333, "bike_id": "62581acc915efa903591851f2ee040eb", "fusion_lat": 0.0, "name": "62581acc915efa903591851f2ee040eb", "is_reserved": 0, "rental_uris": {"android": "https://dc.lft.to/lastmile_qr_scan", "ios": "https://dc.lft.to/lastmile_qr_scan"}, "fusion_lon": 0.0}, {"lat": 38.890879, "is_disabled": 0, "type": "electric_scooter", "lon": -76.95266633333334, "bike_id": "1b62cbc5a3642579dae4679fcf434994", "fusion_lat": 0.0, "name": "1b62cbc5a3642579dae4679fcf434994", "is_reserved": 0, "rental_uris": {"android": "https://dc.lft.to/lastmile_qr_scan", "ios": "https://dc.lft.to/lastmile_qr_scan"}, "fusion_lon": 0.0}, {"lat": 38.892208333333336, "is_disabled": 0, "type": "electric_scooter", "lon": -77.03218133333333, "bike_id": "6e5481e29e7221b30c8ed7f93efd37a4", "fusion_lat": 0.0, "name": "6e5481e29e7221b30c8ed7f93efd37a4", "is_reserved": 0, "rental_uris": {"android": "https://dc.lft.to/lastmile_qr_scan", "ios": "https://dc.lft.to/lastmile_qr_scan"}, "fusion_lon": 0.0}, {"lat": 38.9111275, "is_disabled": 0, "type": "electric_scooter", "lon": -77.037264, "bike_id": "9d3df91c628ae58cb695182d16459e86", "fusion_lat": 0.0, "name": "9d3df91c628ae58cb695182d16459e86", "is_reserved": 0, "rental_uris": {"android": "https://dc.lft.to/lastmile_qr_scan", "ios": "https://dc.lft.to/lastmile_qr_scan"}, "fusion_lon": 0.0}, {"lat": 38.906313833333336, "is_disabled": 0, "type": "electric_scooter", "lon": -77.03150033333333, "bike_id": "4fc100cbd4445a1a30611a68b182226e", "fusion_lat": 0.0, "name": "4fc100cbd4445a1a30611a68b182226e", "is_reserved": 0, "rental_uris": {"android": "https://dc.lft.to/lastmile_qr_scan", "ios": "https://dc.lft.to/lastmile_qr_scan"}, "fusion_lon": 0.0}, {"lat": 38.916436166666664, "is_disabled": 0, "type": "electric_scooter", "lon": -77.0224695, "bike_id": "7ad027ce3ab89595db3b2c2f4ad46e14", "fusion_lat": 0.0, "name": "7ad027ce3ab89595db3b2c2f4ad46e14", "is_reserved": 0, "rental_uris": {"android": "https://dc.lft.to/lastmile_qr_scan", "ios": "https://dc.lft.to/lastmile_qr_scan"}, "fusion_lon": 0.0}, {"lat": 38.9215185, "is_disabled": 0, "type": "electric_scooter", "lon": -77.044877, "bike_id": "4d45a8e8743efc023e043a47f362ad87", "fusion_lat": 0.0, "name": "4d45a8e8743efc023e043a47f362ad87", "is_reserved": 0, "rental_uris": {"android": "https://dc.lft.to/lastmile_qr_scan", "ios": "https://dc.lft.to/lastmile_qr_scan"}, "fusion_lon": 0.0}, {"lat": 38.918187333333336, "is_disabled": 0, "type": "electric_scooter", "lon": -77.041732, "bike_id": "33e16a2fcc0a7e28b760bcb2759b4711", "fusion_lat": 0.0, "name": "33e16a2fcc0a7e28b760bcb2759b4711", "is_reserved": 0, "rental_uris": {"android": "https://dc.lft.to/lastmile_qr_scan", "ios": "https://dc.lft.to/lastmile_qr_scan"}, "fusion_lon": 0.0}, {"lat": 38.999962333333336, "is_disabled": 0, "type": "electric_bike", "lon": -76.9249795, "bike_id": "fe61cda3b1235d0bb92d76bef1c7bacb", "fusion_lat": 0.0, "name": "fe61cda3b1235d0bb92d76bef1c7bacb", "is_reserved": 0, "rental_uris": {"android": "https://dc.lft.to/lastmile_qr_scan", "ios": "https://dc.lft.to/lastmile_qr_scan"}, "fusion_lon": 0.0}, {"lat": 38.9248795, "is_disabled": 0, "type": "electric_scooter", "lon": -77.07326316666666, "bike_id": "3900b1e5ecb6dde8500505ddde1a7026", "fusion_lat": 0.0, "name": "3900b1e5ecb6dde8500505ddde1a7026", "is_reserved": 0, "rental_uris": {"android": "https://dc.lft.to/lastmile_qr_scan", "ios": "https://dc.lft.to/lastmile_qr_scan"}, "fusion_lon": 0.0}, {"lat": 38.88078383333333, "is_disabled": 0, "type": "electric_scooter", "lon": -77.00601333333333, "bike_id": "a35c88961fd7df0a6fa6467536da3c42", "fusion_lat": 0.0, "name": "a35c88961fd7df0a6fa6467536da3c42", "is_reserved": 0, "rental_uris": {"android": "https://dc.lft.to/lastmile_qr_scan", "ios": "https://dc.lft.to/lastmile_qr_scan"}, "fusion_lon": 0.0}, {"lat": 38.9171475, "is_disabled": 0, "type": "electric_scooter", "lon": -77.03249666666666, "bike_id": "482ec50a611f6752b568a7cf20942939", "fusion_lat": 0.0, "name": "482ec50a611f6752b568a7cf20942939", "is_reserved": 0, "rental_uris": {"android": "https://dc.lft.to/lastmile_qr_scan", "ios": "https://dc.lft.to/lastmile_qr_scan"}, "fusion_lon": 0.0}, {"lat": 38.9946025, "is_disabled": 0, "type": "electric_bike", "lon": -77.03207, "bike_id": "bb61155230c1ffcc7dcfd6ef6d10ddef", "fusion_lat": 0.0, "name": "bb61155230c1ffcc7dcfd6ef6d10ddef", "is_reserved": 0, "rental_uris": {"android": "https://dc.lft.to/lastmile_qr_scan", "ios": "https://dc.lft.to/lastmile_qr_scan"}, "fusion_lon": 0.0}, {"lat": 38.92468183333333, "is_disabled": 0, "type": "electric_scooter", "lon": -77.05235216666667, "bike_id": "d8dc644f3656e7beb50b967330861340", "fusion_lat": 0.0, "name": "d8dc644f3656e7beb50b967330861340", "is_reserved": 0, "rental_uris": {"android": "https://dc.lft.to/lastmile_qr_scan", "ios": "https://dc.lft.to/lastmile_qr_scan"}, "fusion_lon": 0.0}, {"lat": 38.884931333333334, "is_disabled": 0, "type": "electric_scooter", "lon": -77.007089, "bike_id": "ea839447882ce9bcf70f491cbf845cb4", "fusion_lat": 0.0, "name": "ea839447882ce9bcf70f491cbf845cb4", "is_reserved": 0, "rental_uris": {"android": "https://dc.lft.to/lastmile_qr_scan", "ios": "https://dc.lft.to/lastmile_qr_scan"}, "fusion_lon": 0.0}, {"lat": 38.90941633333333, "is_disabled": 0, "type": "electric_scooter", "lon": -77.04474716666667, "bike_id": "161090a53c0f73d3450b1e4f8cd7c990", "fusion_lat": 0.0, "name": "161090a53c0f73d3450b1e4f8cd7c990", "is_reserved": 0, "rental_uris": {"android": "https://dc.lft.to/lastmile_qr_scan", "ios": "https://dc.lft.to/lastmile_qr_scan"}, "fusion_lon": 0.0}, {"lat": 38.928589, "is_disabled": 0, "type": "electric_scooter", "lon": -77.03100266666667, "bike_id": "365396e7fc839f12fd4eb8cd2d4c247b", "fusion_lat": 0.0, "name": "365396e7fc839f12fd4eb8cd2d4c247b", "is_reserved": 0, "rental_uris": {"android": "https://dc.lft.to/lastmile_qr_scan", "ios": "https://dc.lft.to/lastmile_qr_scan"}, "fusion_lon": 0.0}, {"lat": 38.923815833333336, "is_disabled": 0, "type": "electric_scooter", "lon": -77.02739183333334, "bike_id": "8b8395051471f386999f33e01390ef89", "fusion_lat": 0.0, "name": "8b8395051471f386999f33e01390ef89", "is_reserved": 0, "rental_uris": {"android": "https://dc.lft.to/lastmile_qr_scan", "ios": "https://dc.lft.to/lastmile_qr_scan"}, "fusion_lon": 0.0}, {"lat": 38.84289833333333, "is_disabled": 0, "type": "electric_scooter", "lon": -76.99945833333334, "bike_id": "1b58f871647a74b5124efd8e38894d9d", "fusion_lat": 0.0, "name": "1b58f871647a74b5124efd8e38894d9d", "is_reserved": 0, "rental_uris": {"android": "https://dc.lft.to/lastmile_qr_scan", "ios": "https://dc.lft.to/lastmile_qr_scan"}, "fusion_lon": 0.0}, {"lat": 38.930212166666664, "is_disabled": 0, "type": "electric_scooter", "lon": -77.02330183333333, "bike_id": "8f304cdf464169c295509198bbf6b0a7", "fusion_lat": 0.0, "name": "8f304cdf464169c295509198bbf6b0a7", "is_reserved": 0, "rental_uris": {"android": "https://dc.lft.to/lastmile_qr_scan", "ios": "https://dc.lft.to/lastmile_qr_scan"}, "fusion_lon": 0.0}, {"lat": 38.906796666666665, "is_disabled": 0, "type": "electric_scooter", "lon": -77.03634583333333, "bike_id": "a74b3476fdaf594dfc29ac696234ce56", "fusion_lat": 0.0, "name": "a74b3476fdaf594dfc29ac696234ce56", "is_reserved": 0, "rental_uris": {"android": "https://dc.lft.to/lastmile_qr_scan", "ios": "https://dc.lft.to/lastmile_qr_scan"}, "fusion_lon": 0.0}, {"lat": 38.907751166666664, "is_disabled": 0, "type": "electric_scooter", "lon": -77.0385625, "bike_id": "ce4ba0afd0ce88a56ba1cd3a7a3a13a2", "fusion_lat": 0.0, "name": "ce4ba0afd0ce88a56ba1cd3a7a3a13a2", "is_reserved": 0, "rental_uris": {"android": "https://dc.lft.to/lastmile_qr_scan", "ios": "https://dc.lft.to/lastmile_qr_scan"}, "fusion_lon": 0.0}, {"lat": 38.84505716666666, "is_disabled": 0, "type": "electric_bike", "lon": -76.9935465, "bike_id": "1d92c5fc45bfa9bceec5bf0dd71cf193", "fusion_lat": 0.0, "name": "1d92c5fc45bfa9bceec5bf0dd71cf193", "is_reserved": 0, "rental_uris": {"android": "https://dc.lft.to/lastmile_qr_scan", "ios": "https://dc.lft.to/lastmile_qr_scan"}, "fusion_lon": 0.0}, {"lat": 38.9128145, "is_disabled": 0, "type": "electric_scooter", "lon": -77.04507683333334, "bike_id": "303d4ce091fa3e8d15eaafa2a3211d70", "fusion_lat": 0.0, "name": "303d4ce091fa3e8d15eaafa2a3211d70", "is_reserved": 0, "rental_uris": {"android": "https://dc.lft.to/lastmile_qr_scan", "ios": "https://dc.lft.to/lastmile_qr_scan"}, "fusion_lon": 0.0}, {"lat": 38.89656333333333, "is_disabled": 0, "type": "electric_scooter", "lon": -77.00517833333333, "bike_id": "d1acedd40a374cbf8264863893d60e61", "fusion_lat": 0.0, "name": "d1acedd40a374cbf8264863893d60e61", "is_reserved": 0, "rental_uris": {"android": "https://dc.lft.to/lastmile_qr_scan", "ios": "https://dc.lft.to/lastmile_qr_scan"}, "fusion_lon": 0.0}, {"lat": 38.92827483333333, "is_disabled": 0, "type": "electric_scooter", "lon": -77.05435983333334, "bike_id": "d9b1e8ad16f5a1012c18f7c09aeee4b7", "fusion_lat": 0.0, "name": "d9b1e8ad16f5a1012c18f7c09aeee4b7", "is_reserved": 0, "rental_uris": {"android": "https://dc.lft.to/lastmile_qr_scan", "ios": "https://dc.lft.to/lastmile_qr_scan"}, "fusion_lon": 0.0}, {"lat": 38.90585016666667, "is_disabled": 0, "type": "electric_scooter", "lon": -76.98620116666666, "bike_id": "ad0ba2de72adb96c23ca40b0b293143e", "fusion_lat": 0.0, "name": "ad0ba2de72adb96c23ca40b0b293143e", "is_reserved": 0, "rental_uris": {"android": "https://dc.lft.to/lastmile_qr_scan", "ios": "https://dc.lft.to/lastmile_qr_scan"}, "fusion_lon": 0.0}, {"lat": 38.912657333333335, "is_disabled": 0, "type": "electric_scooter", "lon": -77.02256883333334, "bike_id": "d84540964cbbd6953d8f4cbebd0974cb", "fusion_lat": 0.0, "name": "d84540964cbbd6953d8f4cbebd0974cb", "is_reserved": 0, "rental_uris": {"android": "https://dc.lft.to/lastmile_qr_scan", "ios": "https://dc.lft.to/lastmile_qr_scan"}, "fusion_lon": 0.0}, {"lat": 38.90720966666667, "is_disabled": 0, "type": "electric_scooter", "lon": -77.048221, "bike_id": "ecb0658f96a9643f77a33a3d667e18bc", "fusion_lat": 0.0, "name": "ecb0658f96a9643f77a33a3d667e18bc", "is_reserved": 0, "rental_uris": {"android": "https://dc.lft.to/lastmile_qr_scan", "ios": "https://dc.lft.to/lastmile_qr_scan"}, "fusion_lon": 0.0}, {"lat": 38.867113833333335, "is_disabled": 0, "type": "electric_scooter", "lon": -76.9872805, "bike_id": "754ff7d31fbe313ce9bb3de637ebbdbe", "fusion_lat": 0.0, "name": "754ff7d31fbe313ce9bb3de637ebbdbe", "is_reserved": 0, "rental_uris": {"android": "https://dc.lft.to/lastmile_qr_scan", "ios": "https://dc.lft.to/lastmile_qr_scan"}, "fusion_lon": 0.0}, {"lat": 38.901460166666666, "is_disabled": 0, "type": "electric_scooter", "lon": -77.04191883333333, "bike_id": "ae3ad016c801517ff5f3a5a200262232", "fusion_lat": 0.0, "name": "ae3ad016c801517ff5f3a5a200262232", "is_reserved": 0, "rental_uris": {"android": "https://dc.lft.to/lastmile_qr_scan", "ios": "https://dc.lft.to/lastmile_qr_scan"}, "fusion_lon": 0.0}, {"lat": 38.908648, "is_disabled": 0, "type": "electric_bike", "lon": -76.94011816666666, "bike_id": "5806a8a2cfdf25b425bbc00b30cb0ab0", "fusion_lat": 0.0, "name": "5806a8a2cfdf25b425bbc00b30cb0ab0", "is_reserved": 0, "rental_uris": {"android": "https://dc.lft.to/lastmile_qr_scan", "ios": "https://dc.lft.to/lastmile_qr_scan"}, "fusion_lon": 0.0}, {"lat": 38.940814333333336, "is_disabled": 0, "type": "electric_scooter", "lon": -77.02393266666667, "bike_id": "b33ec72dd64349ca9f8b47c2867acf6c", "fusion_lat": 0.0, "name": "b33ec72dd64349ca9f8b47c2867acf6c", "is_reserved": 0, "rental_uris": {"android": "https://dc.lft.to/lastmile_qr_scan", "ios": "https://dc.lft.to/lastmile_qr_scan"}, "fusion_lon": 0.0}, {"lat": 38.93362583333333, "is_disabled": 0, "type": "electric_scooter", "lon": -77.07348683333333, "bike_id": "4425dc4b709a407440a3e48dbe5fa733", "fusion_lat": 0.0, "name": "4425dc4b709a407440a3e48dbe5fa733", "is_reserved": 0, "rental_uris": {"android": "https://dc.lft.to/lastmile_qr_scan", "ios": "https://dc.lft.to/lastmile_qr_scan"}, "fusion_lon": 0.0}, {"lat": 38.9590165, "is_disabled": 0, "type": "electric_bike", "lon": -76.92494616666667, "bike_id": "26797ad39f7668ec1a697042c6a9620d", "fusion_lat": 0.0, "name": "26797ad39f7668ec1a697042c6a9620d", "is_reserved": 0, "rental_uris": {"android": "https://dc.lft.to/lastmile_qr_scan", "ios": "https://dc.lft.to/lastmile_qr_scan"}, "fusion_lon": 0.0}, {"lat": 38.907864333333336, "is_disabled": 0, "type": "electric_scooter", "lon": -77.03996833333333, "bike_id": "7162059ddf4ff4b569440ec39ad4fe57", "fusion_lat": 0.0, "name": "7162059ddf4ff4b569440ec39ad4fe57", "is_reserved": 0, "rental_uris": {"android": "https://dc.lft.to/lastmile_qr_scan", "ios": "https://dc.lft.to/lastmile_qr_scan"}, "fusion_lon": 0.0}, {"lat": 38.917125, "is_disabled": 0, "type": "electric_scooter", "lon": -77.03570916666666, "bike_id": "4fc7e8c89810fc7e2f4ffa2fa6309e05", "fusion_lat": 0.0, "name": "4fc7e8c89810fc7e2f4ffa2fa6309e05", "is_reserved": 0, "rental_uris": {"android": "https://dc.lft.to/lastmile_qr_scan", "ios": "https://dc.lft.to/lastmile_qr_scan"}, "fusion_lon": 0.0}, {"lat": 38.9118805, "is_disabled": 0, "type": "electric_scooter", "lon": -77.04330083333333, "bike_id": "31749fe9073ff89c5533b96b55720783", "fusion_lat": 0.0, "name": "31749fe9073ff89c5533b96b55720783", "is_reserved": 0, "rental_uris": {"android": "https://dc.lft.to/lastmile_qr_scan", "ios": "https://dc.lft.to/lastmile_qr_scan"}, "fusion_lon": 0.0}, {"lat": 38.85307783333333, "is_disabled": 0, "type": "electric_bike", "lon": -77.13128916666666, "bike_id": "8fdf305435a877763d432bdb3d1d0239", "fusion_lat": 0.0, "name": "8fdf305435a877763d432bdb3d1d0239", "is_reserved": 0, "rental_uris": {"android": "https://dc.lft.to/lastmile_qr_scan", "ios": "https://dc.lft.to/lastmile_qr_scan"}, "fusion_lon": 0.0}, {"lat": 38.91349833333334, "is_disabled": 0, "type": "electric_scooter", "lon": -77.03184083333333, "bike_id": "1b1b1136b0353e41b586bb9e3f4720a7", "fusion_lat": 0.0, "name": "1b1b1136b0353e41b586bb9e3f4720a7", "is_reserved": 0, "rental_uris": {"android": "https://dc.lft.to/lastmile_qr_scan", "ios": "https://dc.lft.to/lastmile_qr_scan"}, "fusion_lon": 0.0}, {"lat": 38.930148, "is_disabled": 0, "type": "electric_scooter", "lon": -77.020849, "bike_id": "b3e7a2b2bc0d819b5cc55dc9b4df18bf", "fusion_lat": 0.0, "name": "b3e7a2b2bc0d819b5cc55dc9b4df18bf", "is_reserved": 0, "rental_uris": {"android": "https://dc.lft.to/lastmile_qr_scan", "ios": "https://dc.lft.to/lastmile_qr_scan"}, "fusion_lon": 0.0}, {"lat": 38.92076433333333, "is_disabled": 0, "type": "electric_scooter", "lon": -77.01436216666667, "bike_id": "66b556d6751722d5c0ab9b60093dac85", "fusion_lat": 0.0, "name": "66b556d6751722d5c0ab9b60093dac85", "is_reserved": 0, "rental_uris": {"android": "https://dc.lft.to/lastmile_qr_scan", "ios": "https://dc.lft.to/lastmile_qr_scan"}, "fusion_lon": 0.0}, {"lat": 38.92293033333333, "is_disabled": 0, "type": "electric_scooter", "lon": -77.03660566666667, "bike_id": "55c1b4b1f15c29f1ff71af47d0c15da1", "fusion_lat": 0.0, "name": "55c1b4b1f15c29f1ff71af47d0c15da1", "is_reserved": 0, "rental_uris": {"android": "https://dc.lft.to/lastmile_qr_scan", "ios": "https://dc.lft.to/lastmile_qr_scan"}, "fusion_lon": 0.0}, {"lat": 38.91000183333333, "is_disabled": 0, "type": "electric_scooter", "lon": -77.040077, "bike_id": "be392d2e91ced84e8a7923add8f3542e", "fusion_lat": 0.0, "name": "be392d2e91ced84e8a7923add8f3542e", "is_reserved": 0, "rental_uris": {"android": "https://dc.lft.to/lastmile_qr_scan", "ios": "https://dc.lft.to/lastmile_qr_scan"}, "fusion_lon": 0.0}, {"lat": 38.92117566666667, "is_disabled": 0, "type": "electric_bike", "lon": -76.98579366666667, "bike_id": "0e3dc0bc8395d6c63c86d7b5903376fa", "fusion_lat": 0.0, "name": "0e3dc0bc8395d6c63c86d7b5903376fa", "is_reserved": 0, "rental_uris": {"android": "https://dc.lft.to/lastmile_qr_scan", "ios": "https://dc.lft.to/lastmile_qr_scan"}, "fusion_lon": 0.0}, {"lat": 38.914229666666664, "is_disabled": 0, "type": "electric_scooter", "lon": -77.03184366666666, "bike_id": "22513c4f3159e605fae6a28ed91fd299", "fusion_lat": 0.0, "name": "22513c4f3159e605fae6a28ed91fd299", "is_reserved": 0, "rental_uris": {"android": "https://dc.lft.to/lastmile_qr_scan", "ios": "https://dc.lft.to/lastmile_qr_scan"}, "fusion_lon": 0.0}, {"lat": 38.89249783333333, "is_disabled": 0, "type": "electric_scooter", "lon": -77.03955283333333, "bike_id": "5c8a1fba8dbc334801963dfa19bf326a", "fusion_lat": 0.0, "name": "5c8a1fba8dbc334801963dfa19bf326a", "is_reserved": 0, "rental_uris": {"android": "https://dc.lft.to/lastmile_qr_scan", "ios": "https://dc.lft.to/lastmile_qr_scan"}, "fusion_lon": 0.0}, {"lat": 38.902941166666665, "is_disabled": 0, "type": "electric_scooter", "lon": -77.06352583333333, "bike_id": "45cfddf1122d86732291833f214db343", "fusion_lat": 0.0, "name": "45cfddf1122d86732291833f214db343", "is_reserved": 0, "rental_uris": {"android": "https://dc.lft.to/lastmile_qr_scan", "ios": "https://dc.lft.to/lastmile_qr_scan"}, "fusion_lon": 0.0}, {"lat": 38.93102433333333, "is_disabled": 0, "type": "electric_scooter", "lon": -77.0340165, "bike_id": "271fdebf00f16527e72b341315abfd71", "fusion_lat": 0.0, "name": "271fdebf00f16527e72b341315abfd71", "is_reserved": 0, "rental_uris": {"android": "https://dc.lft.to/lastmile_qr_scan", "ios": "https://dc.lft.to/lastmile_qr_scan"}, "fusion_lon": 0.0}, {"lat": 38.89225183333333, "is_disabled": 0, "type": "electric_scooter", "lon": -77.04859366666666, "bike_id": "5f4ab57d7007d48c0224f2409059f0a4", "fusion_lat": 0.0, "name": "5f4ab57d7007d48c0224f2409059f0a4", "is_reserved": 0, "rental_uris": {"android": "https://dc.lft.to/lastmile_qr_scan", "ios": "https://dc.lft.to/lastmile_qr_scan"}, "fusion_lon": 0.0}, {"lat": 38.916647, "is_disabled": 0, "type": "electric_scooter", "lon": -77.02278966666667, "bike_id": "647401886ad766814fc14f8278151761", "fusion_lat": 0.0, "name": "647401886ad766814fc14f8278151761", "is_reserved": 0, "rental_uris": {"android": "https://dc.lft.to/lastmile_qr_scan", "ios": "https://dc.lft.to/lastmile_qr_scan"}, "fusion_lon": 0.0}, {"lat": 38.95062733333334, "is_disabled": 0, "type": "electric_bike", "lon": -77.00728916666667, "bike_id": "dac4a62a34629ebd154bd03c42b2036c", "fusion_lat": 0.0, "name": "dac4a62a34629ebd154bd03c42b2036c", "is_reserved": 0, "rental_uris": {"android": "https://dc.lft.to/lastmile_qr_scan", "ios": "https://dc.lft.to/lastmile_qr_scan"}, "fusion_lon": 0.0}, {"lat": 38.899026666666664, "is_disabled": 0, "type": "electric_scooter", "lon": -76.93350266666667, "bike_id": "4768f50beaffa406cf2f0d0804e0df13", "fusion_lat": 0.0, "name": "4768f50beaffa406cf2f0d0804e0df13", "is_reserved": 0, "rental_uris": {"android": "https://dc.lft.to/lastmile_qr_scan", "ios": "https://dc.lft.to/lastmile_qr_scan"}, "fusion_lon": 0.0}, {"lat": 38.923700333333336, "is_disabled": 0, "type": "electric_scooter", "lon": -77.05054683333333, "bike_id": "a21328c9555c9cbdc65f10a62ea61ba9", "fusion_lat": 0.0, "name": "a21328c9555c9cbdc65f10a62ea61ba9", "is_reserved": 0, "rental_uris": {"android": "https://dc.lft.to/lastmile_qr_scan", "ios": "https://dc.lft.to/lastmile_qr_scan"}, "fusion_lon": 0.0}, {"lat": 38.95077916666666, "is_disabled": 0, "type": "electric_bike", "lon": -77.01197283333333, "bike_id": "78fec909c0850441223a37a5c76a0e92", "fusion_lat": 0.0, "name": "78fec909c0850441223a37a5c76a0e92", "is_reserved": 0, "rental_uris": {"android": "https://dc.lft.to/lastmile_qr_scan", "ios": "https://dc.lft.to/lastmile_qr_scan"}, "fusion_lon": 0.0}, {"lat": 38.918172, "is_disabled": 0, "type": "electric_scooter", "lon": -77.03665416666666, "bike_id": "7de4295e1cdcca90848cfb95de7ba889", "fusion_lat": 0.0, "name": "7de4295e1cdcca90848cfb95de7ba889", "is_reserved": 0, "rental_uris": {"android": "https://dc.lft.to/lastmile_qr_scan", "ios": "https://dc.lft.to/lastmile_qr_scan"}, "fusion_lon": 0.0}, {"lat": 38.902468, "is_disabled": 0, "type": "electric_scooter", "lon": -77.062604, "bike_id": "d99ebd42c57e39ea1fa07ad9df75c432", "fusion_lat": 0.0, "name": "d99ebd42c57e39ea1fa07ad9df75c432", "is_reserved": 0, "rental_uris": {"android": "https://dc.lft.to/lastmile_qr_scan", "ios": "https://dc.lft.to/lastmile_qr_scan"}, "fusion_lon": 0.0}, {"lat": 38.88268466666667, "is_disabled": 0, "type": "electric_bike", "lon": -76.93240466666667, "bike_id": "57e89bc8e4abc80af44592e707c1cb63", "fusion_lat": 0.0, "name": "57e89bc8e4abc80af44592e707c1cb63", "is_reserved": 0, "rental_uris": {"android": "https://dc.lft.to/lastmile_qr_scan", "ios": "https://dc.lft.to/lastmile_qr_scan"}, "fusion_lon": 0.0}, {"lat": 38.93582133333334, "is_disabled": 0, "type": "electric_scooter", "lon": -77.03754166666667, "bike_id": "5d4d8333487d4a5d1556a51960f5cef2", "fusion_lat": 0.0, "name": "5d4d8333487d4a5d1556a51960f5cef2", "is_reserved": 0, "rental_uris": {"android": "https://dc.lft.to/lastmile_qr_scan", "ios": "https://dc.lft.to/lastmile_qr_scan"}, "fusion_lon": 0.0}, {"lat": 38.91116516666666, "is_disabled": 0, "type": "electric_scooter", "lon": -77.03866666666667, "bike_id": "fb922c4d7da0c1b6739c1221c9112739", "fusion_lat": 0.0, "name": "fb922c4d7da0c1b6739c1221c9112739", "is_reserved": 0, "rental_uris": {"android": "https://dc.lft.to/lastmile_qr_scan", "ios": "https://dc.lft.to/lastmile_qr_scan"}, "fusion_lon": 0.0}, {"lat": 38.89838966666667, "is_disabled": 0, "type": "electric_scooter", "lon": -77.02947433333334, "bike_id": "f08a2ff2c1f02242499a264b4aae44f8", "fusion_lat": 0.0, "name": "f08a2ff2c1f02242499a264b4aae44f8", "is_reserved": 0, "rental_uris": {"android": "https://dc.lft.to/lastmile_qr_scan", "ios": "https://dc.lft.to/lastmile_qr_scan"}, "fusion_lon": 0.0}, {"lat": 38.90623333333333, "is_disabled": 0, "type": "electric_scooter", "lon": -77.02184816666667, "bike_id": "3f7ab927d56ca33f2f09d4942f9d6254", "fusion_lat": 0.0, "name": "3f7ab927d56ca33f2f09d4942f9d6254", "is_reserved": 0, "rental_uris": {"android": "https://dc.lft.to/lastmile_qr_scan", "ios": "https://dc.lft.to/lastmile_qr_scan"}, "fusion_lon": 0.0}, {"lat": 38.894245166666664, "is_disabled": 0, "type": "electric_scooter", "lon": -77.02091183333333, "bike_id": "b980ba8cce906e4139bb6f0d59726ddd", "fusion_lat": 0.0, "name": "b980ba8cce906e4139bb6f0d59726ddd", "is_reserved": 0, "rental_uris": {"android": "https://dc.lft.to/lastmile_qr_scan", "ios": "https://dc.lft.to/lastmile_qr_scan"}, "fusion_lon": 0.0}, {"lat": 38.915555499999996, "is_disabled": 0, "type": "electric_scooter", "lon": -77.04182016666667, "bike_id": "c57939ff81eef588fb48d527bf2f3d54", "fusion_lat": 0.0, "name": "c57939ff81eef588fb48d527bf2f3d54", "is_reserved": 0, "rental_uris": {"android": "https://dc.lft.to/lastmile_qr_scan", "ios": "https://dc.lft.to/lastmile_qr_scan"}, "fusion_lon": 0.0}, {"lat": 38.9073215, "is_disabled": 0, "type": "electric_scooter", "lon": -77.003286, "bike_id": "f6b44ee5ebd448f9b37ba9ef4ad5d0ab", "fusion_lat": 0.0, "name": "f6b44ee5ebd448f9b37ba9ef4ad5d0ab", "is_reserved": 0, "rental_uris": {"android": "https://dc.lft.to/lastmile_qr_scan", "ios": "https://dc.lft.to/lastmile_qr_scan"}, "fusion_lon": 0.0}, {"lat": 38.928282, "is_disabled": 0, "type": "electric_scooter", "lon": -77.05434116666666, "bike_id": "022df55e4854f7ea7b3e7d7ec316e328", "fusion_lat": 0.0, "name": "022df55e4854f7ea7b3e7d7ec316e328", "is_reserved": 0, "rental_uris": {"android": "https://dc.lft.to/lastmile_qr_scan", "ios": "https://dc.lft.to/lastmile_qr_scan"}, "fusion_lon": 0.0}, {"lat": 38.917210833333336, "is_disabled": 0, "type": "electric_scooter", "lon": -77.02410216666667, "bike_id": "82f0eb50f206b0281f452a4b9c0d3ccf", "fusion_lat": 0.0, "name": "82f0eb50f206b0281f452a4b9c0d3ccf", "is_reserved": 0, "rental_uris": {"android": "https://dc.lft.to/lastmile_qr_scan", "ios": "https://dc.lft.to/lastmile_qr_scan"}, "fusion_lon": 0.0}, {"lat": 38.9028105, "is_disabled": 0, "type": "electric_scooter", "lon": -77.0404565, "bike_id": "b2a5102f4d3eafac733d66c5eacb3531", "fusion_lat": 0.0, "name": "b2a5102f4d3eafac733d66c5eacb3531", "is_reserved": 0, "rental_uris": {"android": "https://dc.lft.to/lastmile_qr_scan", "ios": "https://dc.lft.to/lastmile_qr_scan"}, "fusion_lon": 0.0}, {"lat": 38.86622633333333, "is_disabled": 0, "type": "electric_scooter", "lon": -76.98663333333333, "bike_id": "41608b873ddbb590237a0f9e02ddaa02", "fusion_lat": 0.0, "name": "41608b873ddbb590237a0f9e02ddaa02", "is_reserved": 0, "rental_uris": {"android": "https://dc.lft.to/lastmile_qr_scan", "ios": "https://dc.lft.to/lastmile_qr_scan"}, "fusion_lon": 0.0}, {"lat": 38.9333445, "is_disabled": 0, "type": "electric_bike", "lon": -77.03989766666666, "bike_id": "cc194bd61a3c68de3d491d2c6a9b68fe", "fusion_lat": 0.0, "name": "cc194bd61a3c68de3d491d2c6a9b68fe", "is_reserved": 0, "rental_uris": {"android": "https://dc.lft.to/lastmile_qr_scan", "ios": "https://dc.lft.to/lastmile_qr_scan"}, "fusion_lon": 0.0}, {"lat": 38.93606283333333, "is_disabled": 0, "type": "electric_scooter", "lon": -77.058584, "bike_id": "f8397eeb652d854f8458c117146ec366", "fusion_lat": 0.0, "name": "f8397eeb652d854f8458c117146ec366", "is_reserved": 0, "rental_uris": {"android": "https://dc.lft.to/lastmile_qr_scan", "ios": "https://dc.lft.to/lastmile_qr_scan"}, "fusion_lon": 0.0}, {"lat": 38.9207505, "is_disabled": 0, "type": "electric_scooter", "lon": -77.023936, "bike_id": "418855b38a3869e6817028c62a76b228", "fusion_lat": 0.0, "name": "418855b38a3869e6817028c62a76b228", "is_reserved": 0, "rental_uris": {"android": "https://dc.lft.to/lastmile_qr_scan", "ios": "https://dc.lft.to/lastmile_qr_scan"}, "fusion_lon": 0.0}, {"lat": 38.92357066666667, "is_disabled": 0, "type": "electric_scooter", "lon": -77.05022883333334, "bike_id": "843faf8e7bf9ce26fb95af8415657b2d", "fusion_lat": 0.0, "name": "843faf8e7bf9ce26fb95af8415657b2d", "is_reserved": 0, "rental_uris": {"android": "https://dc.lft.to/lastmile_qr_scan", "ios": "https://dc.lft.to/lastmile_qr_scan"}, "fusion_lon": 0.0}, {"lat": 38.96207666666667, "is_disabled": 0, "type": "electric_bike", "lon": -77.035128, "bike_id": "eeef0ea25e357fe240c76cb98a6bc81a", "fusion_lat": 0.0, "name": "eeef0ea25e357fe240c76cb98a6bc81a", "is_reserved": 0, "rental_uris": {"android": "https://dc.lft.to/lastmile_qr_scan", "ios": "https://dc.lft.to/lastmile_qr_scan"}, "fusion_lon": 0.0}, {"lat": 38.8134445, "is_disabled": 0, "type": "electric_bike", "lon": -77.04926683333333, "bike_id": "a9233db588ee3567728de95140fbd409", "fusion_lat": 0.0, "name": "a9233db588ee3567728de95140fbd409", "is_reserved": 0, "rental_uris": {"android": "https://dc.lft.to/lastmile_qr_scan", "ios": "https://dc.lft.to/lastmile_qr_scan"}, "fusion_lon": 0.0}, {"lat": 38.92624, "is_disabled": 0, "type": "electric_scooter", "lon": -77.03781766666667, "bike_id": "cf50c9f2b1a9effa329940bcf12dbc39", "fusion_lat": 0.0, "name": "cf50c9f2b1a9effa329940bcf12dbc39", "is_reserved": 0, "rental_uris": {"android": "https://dc.lft.to/lastmile_qr_scan", "ios": "https://dc.lft.to/lastmile_qr_scan"}, "fusion_lon": 0.0}, {"lat": 38.908901, "is_disabled": 0, "type": "electric_bike", "lon": -77.032028, "bike_id": "22b0e226a0b3d41685ae42cdc119eb56", "fusion_lat": 0.0, "name": "22b0e226a0b3d41685ae42cdc119eb56", "is_reserved": 0, "rental_uris": {"android": "https://dc.lft.to/lastmile_qr_scan", "ios": "https://dc.lft.to/lastmile_qr_scan"}, "fusion_lon": 0.0}, {"lat": 38.907293833333334, "is_disabled": 0, "type": "electric_scooter", "lon": -77.011351, "bike_id": "9c2aff9894fa833eee24703ebf0b59c9", "fusion_lat": 0.0, "name": "9c2aff9894fa833eee24703ebf0b59c9", "is_reserved": 0, "rental_uris": {"android": "https://dc.lft.to/lastmile_qr_scan", "ios": "https://dc.lft.to/lastmile_qr_scan"}, "fusion_lon": 0.0}, {"lat": 38.91122083333333, "is_disabled": 0, "type": "electric_scooter", "lon": -77.038189, "bike_id": "6927ecdb7fcc9f96633067d66d15162a", "fusion_lat": 0.0, "name": "6927ecdb7fcc9f96633067d66d15162a", "is_reserved": 0, "rental_uris": {"android": "https://dc.lft.to/lastmile_qr_scan", "ios": "https://dc.lft.to/lastmile_qr_scan"}, "fusion_lon": 0.0}, {"lat": 38.902676666666665, "is_disabled": 0, "type": "electric_scooter", "lon": -77.01773383333334, "bike_id": "3f185fbcf4828cd7e703c2eb9c050732", "fusion_lat": 0.0, "name": "3f185fbcf4828cd7e703c2eb9c050732", "is_reserved": 0, "rental_uris": {"android": "https://dc.lft.to/lastmile_qr_scan", "ios": "https://dc.lft.to/lastmile_qr_scan"}, "fusion_lon": 0.0}, {"lat": 38.90218766666667, "is_disabled": 0, "type": "electric_scooter", "lon": -77.02293316666666, "bike_id": "af588352f20da976ccf5297f317cd70c", "fusion_lat": 0.0, "name": "af588352f20da976ccf5297f317cd70c", "is_reserved": 0, "rental_uris": {"android": "https://dc.lft.to/lastmile_qr_scan", "ios": "https://dc.lft.to/lastmile_qr_scan"}, "fusion_lon": 0.0}, {"lat": 38.904314666666664, "is_disabled": 0, "type": "electric_scooter", "lon": -77.00213433333333, "bike_id": "2fbac72039b424803e21f3f1c44f510a", "fusion_lat": 0.0, "name": "2fbac72039b424803e21f3f1c44f510a", "is_reserved": 0, "rental_uris": {"android": "https://dc.lft.to/lastmile_qr_scan", "ios": "https://dc.lft.to/lastmile_qr_scan"}, "fusion_lon": 0.0}, {"lat": 38.907323, "is_disabled": 0, "type": "electric_scooter", "lon": -77.0298575, "bike_id": "63daacc9a4d4103986843724c08b464e", "fusion_lat": 0.0, "name": "63daacc9a4d4103986843724c08b464e", "is_reserved": 0, "rental_uris": {"android": "https://dc.lft.to/lastmile_qr_scan", "ios": "https://dc.lft.to/lastmile_qr_scan"}, "fusion_lon": 0.0}, {"lat": 38.9411735, "is_disabled": 0, "type": "electric_scooter", "lon": -77.00041616666667, "bike_id": "ea682250a49451e274d9f8d632d4ba3f", "fusion_lat": 0.0, "name": "ea682250a49451e274d9f8d632d4ba3f", "is_reserved": 0, "rental_uris": {"android": "https://dc.lft.to/lastmile_qr_scan", "ios": "https://dc.lft.to/lastmile_qr_scan"}, "fusion_lon": 0.0}, {"lat": 38.90198383333333, "is_disabled": 0, "type": "electric_scooter", "lon": -77.03668983333333, "bike_id": "8cdf4e2b3129b6a55d9a6c7f3226ca47", "fusion_lat": 0.0, "name": "8cdf4e2b3129b6a55d9a6c7f3226ca47", "is_reserved": 0, "rental_uris": {"android": "https://dc.lft.to/lastmile_qr_scan", "ios": "https://dc.lft.to/lastmile_qr_scan"}, "fusion_lon": 0.0}, {"lat": 38.913605833333335, "is_disabled": 0, "type": "electric_scooter", "lon": -77.0416125, "bike_id": "f7ec9447866f17e1fb73c05326242d7a", "fusion_lat": 0.0, "name": "f7ec9447866f17e1fb73c05326242d7a", "is_reserved": 0, "rental_uris": {"android": "https://dc.lft.to/lastmile_qr_scan", "ios": "https://dc.lft.to/lastmile_qr_scan"}, "fusion_lon": 0.0}, {"lat": 38.9016755, "is_disabled": 0, "type": "electric_scooter", "lon": -77.02013933333333, "bike_id": "a3d3319f051338b55986f9d1f3d6b877", "fusion_lat": 0.0, "name": "a3d3319f051338b55986f9d1f3d6b877", "is_reserved": 0, "rental_uris": {"android": "https://dc.lft.to/lastmile_qr_scan", "ios": "https://dc.lft.to/lastmile_qr_scan"}, "fusion_lon": 0.0}, {"lat": 38.90778, "is_disabled": 0, "type": "electric_scooter", "lon": -77.0423525, "bike_id": "f90168193c7dce3262fbc17735b2eb05", "fusion_lat": 0.0, "name": "f90168193c7dce3262fbc17735b2eb05", "is_reserved": 0, "rental_uris": {"android": "https://dc.lft.to/lastmile_qr_scan", "ios": "https://dc.lft.to/lastmile_qr_scan"}, "fusion_lon": 0.0}, {"lat": 38.8984605, "is_disabled": 0, "type": "electric_scooter", "lon": -76.94634916666666, "bike_id": "204ecd5583f7e513abf0050ba7246628", "fusion_lat": 0.0, "name": "204ecd5583f7e513abf0050ba7246628", "is_reserved": 0, "rental_uris": {"android": "https://dc.lft.to/lastmile_qr_scan", "ios": "https://dc.lft.to/lastmile_qr_scan"}, "fusion_lon": 0.0}, {"lat": 38.86907766666667, "is_disabled": 0, "type": "electric_bike", "lon": -77.131825, "bike_id": "f30b22eca97de60d643ab7c6346cac58", "fusion_lat": 0.0, "name": "f30b22eca97de60d643ab7c6346cac58", "is_reserved": 0, "rental_uris": {"android": "https://dc.lft.to/lastmile_qr_scan", "ios": "https://dc.lft.to/lastmile_qr_scan"}, "fusion_lon": 0.0},