{"data": {"bikes": [{"rental_uris": {"ios": "https://dc.lft.to/lastmile_qr_scan", "android": "https://dc.lft.to/lastmile_qr_scan"}, "type": "electric_scooter", "name": "ff577bb9d93b140bedb562d40e8c0004", "is_reserved": 0, "lon": -77.01098983333333, "is_disabled": 0, "fusion_lat": 0.0, "lat": 38.88538366666667, "bike_id": "ff577bb9d93b140bedb562d40e8c0004", "fusion_lon": 0.0}, {"rental_uris": {"ios": "https://dc.lft.to/lastmile_qr_scan", "android": "https://dc.lft.to/lastmile_qr_scan"}, "type": "electric_scooter", "name": "740b32c5543de49309271f64a168d13b", "is_reserved": 0, "lon": -77.01604366666666, "is_disabled": 0, "fusion_lat": 0.0, "lat": 38.910749833333334, "bike_id": "740b32c5543de49309271f64a168d13b", "fusion_lon": 0.0}, {"rental_uris": {"ios": "https://dc.lft.to/lastmile_qr_scan", "android": "https://dc.lft.to/lastmile_qr_scan"}, "type": "electric_bike", "name": "7b1bb56073f61f4b4232cea7985ced6b", "is_reserved": 0, "lon": -76.9609935, "is_disabled": 0, "fusion_lat": 0.0, "lat": 38.94961716666667, "bike_id": "7b1bb56073f61f4b4232cea7985ced6b", "fusion_lon": 0.0}, {"rental_uris": {"ios": "https://dc.lft.to/lastmile_qr_scan", "android": "https://dc.lft.to/lastmile_qr_scan"}, "type": "electric_scooter", "name": "a993985b0a51b4cbe343702a234ffb37", "is_reserved": 0, "lon": -77.0296085, "is_disabled": 0, "fusion_lat": 0.0, "lat": 38.917198, "bike_id": "a993985b0a51b4cbe343702a234ffb37", "fusion_lon": 0.0}, {"rental_uris": {"ios": "https://dc.lft.to/lastmile_qr_scan", "android": "https://dc.lft.to/lastmile_qr_scan"}, "type": "electric_scooter", "name": "b2568552ff512faa01b87c168715a755", "is_reserved": 0, "lon": -77.01211766666667, "is_disabled": 0, "fusion_lat": 0.0, "lat": 38.91599333333333, "bike_id": "b2568552ff512faa01b87c168715a755", "fusion_lon": 0.0}, {"rental_uris": {"ios": "https://dc.lft.to/lastmile_qr_scan", "android": "https://dc.lft.to/lastmile_qr_scan"}, "type": "electric_bike", "name": "25e4bbbfeade24914db66d102ae17717", "is_reserved": 0, "lon": -76.98138433333334, "is_disabled": 0, "fusion_lat": 0.0, "lat": 38.93489866666667, "bike_id": "25e4bbbfeade24914db66d102ae17717", "fusion_lon": 0.0}, {"rental_uris": {"ios": "https://dc.lft.to/lastmile_qr_scan", "android": "https://dc.lft.to/lastmile_qr_scan"}, "type": "electric_scooter", "name": "96ff98d302232e42b02a04e5435877bc", "is_reserved": 0, "lon": -76.986084, "is_disabled": 0, "fusion_lat": 0.0, "lat": 38.8828845, "bike_id": "96ff98d302232e42b02a04e5435877bc", "fusion_lon": 0.0}, {"rental_uris": {"ios": "https://dc.lft.to/lastmile_qr_scan", "android": "https://dc.lft.to/lastmile_qr_scan"}, "type": "electric_scooter", "name": "acf23c25356edc29ee18f2f4cf55054f", "is_reserved": 0, "lon": -77.04536083333333, "is_disabled": 0, "fusion_lat": 0.0, "lat": 38.90062433333333, "bike_id": "acf23c25356edc29ee18f2f4cf55054f", "fusion_lon": 0.0}, {"rental_uris": {"ios": "https://dc.lft.to/lastmile_qr_scan", "android": "https://dc.lft.to/lastmile_qr_scan"}, "type": "electric_scooter", "name": "b698681c1d42576d2026c086898b5b31", "is_reserved": 0, "lon": -77.03180716666667, "is_disabled": 0, "fusion_lat": 0.0, "lat": 38.904891, "bike_id": "b698681c1d42576d2026c086898b5b31", "fusion_lon": 0.0}, {"rental_uris": {"ios": "https://dc.lft.to/lastmile_qr_scan", "android": "https://dc.lft.to/lastmile_qr_scan"}, "type": "electric_scooter", "name": "d198651beccc6c5cd46c66eb276303cc", "is_reserved": 0, "lon": -77.03144683333333, "is_disabled": 0, "fusion_lat": 0.0, "lat": 38.8874955, "bike_id": "d198651beccc6c5cd46c66eb276303cc", "fusion_lon": 0.0}, {"rental_uris": {"ios": "https://dc.lft.to/lastmile_qr_scan", "android": "https://dc.lft.to/lastmile_qr_scan"}, "type": "electric_scooter", "name": "e67b962988567780c7bd9954092d1361", "is_reserved": 0, "lon": -77.0354085, "is_disabled": 0, "fusion_lat": 0.0, "lat": 38.923509833333334, "bike_id": "e67b962988567780c7bd9954092d1361", "fusion_lon": 0.0}, {"rental_uris": {"ios": "https://dc.lft.to/lastmile_qr_scan", "android": "https://dc.lft.to/lastmile_qr_scan"}, "type": "electric_scooter", "name": "74df3f2da7f02e9b2b47a46d23e26152", "is_reserved": 0, "lon": -77.04022833333333, "is_disabled": 0, "fusion_lat": 0.0, "lat": 38.898284333333336, "bike_id": "74df3f2da7f02e9b2b47a46d23e26152", "fusion_lon": 0.0}, {"rental_uris": {"ios": "https://dc.lft.to/lastmile_qr_scan", "android": "https://dc.lft.to/lastmile_qr_scan"}, "type": "electric_scooter", "name": "0fa32758d467e94478a3b2e303d54fce", "is_reserved": 0, "lon": -77.06978683333334, "is_disabled": 0, "fusion_lat": 0.0, "lat": 38.952293833333336, "bike_id": "0fa32758d467e94478a3b2e303d54fce", "fusion_lon": 0.0}, {"rental_uris": {"ios": "https://dc.lft.to/lastmile_qr_scan", "android": "https://dc.lft.to/lastmile_qr_scan"}, "type": "electric_scooter", "name": "ce027851749b6a70488aa42e1bfc6325", "is_reserved": 0, "lon": -77.0273855, "is_disabled": 0, "fusion_lat": 0.0, "lat": 38.923786166666666, "bike_id": "ce027851749b6a70488aa42e1bfc6325", "fusion_lon": 0.0}, {"rental_uris": {"ios": "https://dc.lft.to/lastmile_qr_scan", "android": "https://dc.lft.to/lastmile_qr_scan"}, "type": "electric_scooter", "name": "5371b21c7bd9e2a61be6b9b9066a8b29", "is_reserved": 0, "lon": -77.024062, "is_disabled": 0, "fusion_lat": 0.0, "lat": 38.897175833333336, "bike_id": "5371b21c7bd9e2a61be6b9b9066a8b29", "fusion_lon": 0.0}, {"rental_uris": {"ios": "https://dc.lft.to/lastmile_qr_scan", "android": "https://dc.lft.to/lastmile_qr_scan"}, "type": "electric_scooter", "name": "d73d4b830da7db6fe2b93bc5eeea6db3", "is_reserved": 0, "lon": -77.04077133333334, "is_disabled": 0, "fusion_lat": 0.0, "lat": 38.920268166666666, "bike_id": "d73d4b830da7db6fe2b93bc5eeea6db3", "fusion_lon": 0.0}, {"rental_uris": {"ios": "https://dc.lft.to/lastmile_qr_scan", "android": "https://dc.lft.to/lastmile_qr_scan"}, "type": "electric_scooter", "name": "06cfde42a1f2ccfecce286e50096d2e0", "is_reserved": 0, "lon": -77.03160083333333, "is_disabled": 0, "fusion_lat": 0.0, "lat": 38.90592483333333, "bike_id": "06cfde42a1f2ccfecce286e50096d2e0", "fusion_lon": 0.0}, {"rental_uris": {"ios": "https://dc.lft.to/lastmile_qr_scan", "android": "https://dc.lft.to/lastmile_qr_scan"}, "type": "electric_scooter", "name": "cbdeadef2dc7ef1c185ac25df9b43528", "is_reserved": 0, "lon": -77.038513, "is_disabled": 0, "fusion_lat": 0.0, "lat": 38.91165983333333, "bike_id": "cbdeadef2dc7ef1c185ac25df9b43528", "fusion_lon": 0.0}, {"rental_uris": {"ios": "https://dc.lft.to/lastmile_qr_scan", "android": "https://dc.lft.to/lastmile_qr_scan"}, "type": "electric_scooter", "name": "bb8b037c51a828083b6be5a006dc4405", "is_reserved": 0, "lon": -76.932633, "is_disabled": 0, "fusion_lat": 0.0, "lat": 38.8874205, "bike_id": "bb8b037c51a828083b6be5a006dc4405", "fusion_lon": 0.0}, {"rental_uris": {"ios": "https://dc.lft.to/lastmile_qr_scan", "android": "https://dc.lft.to/lastmile_qr_scan"}, "type": "electric_scooter", "name": "cdcbcec246fe34665faf8bfa106648e7", "is_reserved": 0, "lon": -77.04048216666666, "is_disabled": 0, "fusion_lat": 0.0, "lat": 38.917861, "bike_id": "cdcbcec246fe34665faf8bfa106648e7", "fusion_lon": 0.0}, {"rental_uris": {"ios": "https://dc.lft.to/lastmile_qr_scan", "android": "https://dc.lft.to/lastmile_qr_scan"}, "type": "electric_scooter", "name": "6f97011a9b067844daa1e4bc7b0820f7", "is_reserved": 0, "lon": -77.023036, "is_disabled": 0, "fusion_lat": 0.0, "lat": 38.90907166666667, "bike_id": "6f97011a9b067844daa1e4bc7b0820f7", "fusion_lon": 0.0}, {"rental_uris": {"ios": "https://dc.lft.to/lastmile_qr_scan", "android": "https://dc.lft.to/lastmile_qr_scan"}, "type": "electric_scooter", "name": "99a48d0e6139efb0ff92fd0d6c0104a8", "is_reserved": 0, "lon": -77.040079, "is_disabled": 0, "fusion_lat": 0.0, "lat": 38.92222433333333, "bike_id": "99a48d0e6139efb0ff92fd0d6c0104a8", "fusion_lon": 0.0}, {"rental_uris": {"ios": "https://dc.lft.to/lastmile_qr_scan", "android": "https://dc.lft.to/lastmile_qr_scan"}, "type": "electric_scooter", "name": "45e19eb02d288eaf77f21f7b5fb560d1", "is_reserved": 0, "lon": -77.00895766666666, "is_disabled": 0, "fusion_lat": 0.0, "lat": 38.89594916666667, "bike_id": "45e19eb02d288eaf77f21f7b5fb560d1", "fusion_lon": 0.0}, {"rental_uris": {"ios": "https://dc.lft.to/lastmile_qr_scan", "android": "https://dc.lft.to/lastmile_qr_scan"}, "type": "electric_scooter", "name": "e5cf0dc990b1ab11f969e97b64ec6ad3", "is_reserved": 0, "lon": -76.946612, "is_disabled": 0, "fusion_lat": 0.0, "lat": 38.898688666666665, "bike_id": "e5cf0dc990b1ab11f969e97b64ec6ad3", "fusion_lon": 0.0}, {"rental_uris": {"ios": "https://dc.lft.to/lastmile_qr_scan", "android": "https://dc.lft.to/lastmile_qr_scan"}, "type": "electric_bike", "name": "ef30c20b932b24afadd5478f9f00e82c", "is_reserved": 0, "lon": -77.036368, "is_disabled": 0, "fusion_lat": 0.0, "lat": 38.937593, "bike_id": "ef30c20b932b24afadd5478f9f00e82c", "fusion_lon": 0.0}, {"rental_uris": {"ios": "https://dc.lft.to/lastmile_qr_scan", "android": "https://dc.lft.to/lastmile_qr_scan"}, "type": "electric_scooter", "name": "8ce85c29fef18cbf26c49def97aa2f44", "is_reserved": 0, "lon": -77.03202683333333, "is_disabled": 0, "fusion_lat": 0.0, "lat": 38.9094475, "bike_id": "8ce85c29fef18cbf26c49def97aa2f44", "fusion_lon": 0.0}, {"rental_uris": {"ios": "https://dc.lft.to/lastmile_qr_scan", "android": "https://dc.lft.to/lastmile_qr_scan"}, "type": "electric_scooter", "name": "e2841668ffcaddc9a6446e9fcdd6778a", "is_reserved": 0, "lon": -77.04907266666666, "is_disabled": 0, "fusion_lat": 0.0, "lat": 38.888366500000004, "bike_id": "e2841668ffcaddc9a6446e9fcdd6778a", "fusion_lon": 0.0}, {"rental_uris": {"ios": "https://dc.lft.to/lastmile_qr_scan", "android": "https://dc.lft.to/lastmile_qr_scan"}, "type": "electric_scooter", "name": "5367275375a5b333c9bca2320caf38e5", "is_reserved": 0, "lon": -77.0147735, "is_disabled": 0, "fusion_lat": 0.0, "lat": 38.926683833333335, "bike_id": "5367275375a5b333c9bca2320caf38e5", "fusion_lon": 0.0}, {"rental_uris": {"ios": "https://dc.lft.to/lastmile_qr_scan", "android": "https://dc.lft.to/lastmile_qr_scan"}, "type": "electric_scooter", "name": "5838e9d8643ce11c2838019075f01a74", "is_reserved": 0, "lon": -77.00335783333334, "is_disabled": 0, "fusion_lat": 0.0, "lat": 38.91336483333333, "bike_id": "5838e9d8643ce11c2838019075f01a74", "fusion_lon": 0.0}, {"rental_uris": {"ios": "https://dc.lft.to/lastmile_qr_scan", "android": "https://dc.lft.to/lastmile_qr_scan"}, "type": "electric_bike", "name": "5936c391f9f2f5a878c2043fd524b827", "is_reserved": 0, "lon": -77.09031733333333, "is_disabled": 0, "fusion_lat": 0.0, "lat": 38.880925833333336, "bike_id": "5936c391f9f2f5a878c2043fd524b827", "fusion_lon": 0.0}, {"rental_uris": {"ios": "https://dc.lft.to/lastmile_qr_scan", "android": "https://dc.lft.to/lastmile_qr_scan"}, "type": "electric_scooter", "name": "f6b4a4c1896cfc5be3f5cbc6139bbd28", "is_reserved": 0, "lon": -77.03181916666666, "is_disabled": 0, "fusion_lat": 0.0, "lat": 38.9210585, "bike_id": "f6b4a4c1896cfc5be3f5cbc6139bbd28", "fusion_lon": 0.0}, {"rental_uris": {"ios": "https://dc.lft.to/lastmile_qr_scan", "android": "https://dc.lft.to/lastmile_qr_scan"}, "type": "electric_scooter", "name": "966166a3493cbaa2cb23efd4172d73b9", "is_reserved": 0, "lon": -77.0021165, "is_disabled": 0, "fusion_lat": 0.0, "lat": 38.91460566666667, "bike_id": "966166a3493cbaa2cb23efd4172d73b9", "fusion_lon": 0.0}, {"rental_uris": {"ios": "https://dc.lft.to/lastmile_qr_scan", "android": "https://dc.lft.to/lastmile_qr_scan"}, "type": "electric_scooter", "name": "eb91848c1e1998c4e0eaa4d2a4b2dedd", "is_reserved": 0, "lon": -76.99410816666666, "is_disabled": 0, "fusion_lat": 0.0, "lat": 38.877871, "bike_id": "eb91848c1e1998c4e0eaa4d2a4b2dedd", "fusion_lon": 0.0}, {"rental_uris": {"ios": "https://dc.lft.to/lastmile_qr_scan", "android": "https://dc.lft.to/lastmile_qr_scan"}, "type": "electric_scooter", "name": "45fdf632abba181802c1ac54908e031e", "is_reserved": 0, "lon": -77.03657266666667, "is_disabled": 0, "fusion_lat": 0.0, "lat": 38.921166666666664, "bike_id": "45fdf632abba181802c1ac54908e031e", "fusion_lon": 0.0}, {"rental_uris": {"ios": "https://dc.lft.to/lastmile_qr_scan", "android": "https://dc.lft.to/lastmile_qr_scan"}, "type": "electric_scooter", "name": "ad0746af25c1c0741e1dfcafdd77d3de", "is_reserved": 0, "lon": -77.04666016666667, "is_disabled": 0, "fusion_lat": 0.0, "lat": 38.89741716666666, "bike_id": "ad0746af25c1c0741e1dfcafdd77d3de", "fusion_lon": 0.0}, {"rental_uris": {"ios": "https://dc.lft.to/lastmile_qr_scan", "android": "https://dc.lft.to/lastmile_qr_scan"}, "type": "electric_scooter", "name": "dcc22e7a1c4ef88fb8f9ea42ebb5a70e", "is_reserved": 0, "lon": -76.97715933333333, "is_disabled": 0, "fusion_lat": 0.0, "lat": 38.8882355, "bike_id": "dcc22e7a1c4ef88fb8f9ea42ebb5a70e", "fusion_lon": 0.0}, {"rental_uris": {"ios": "https://dc.lft.to/lastmile_qr_scan", "android": "https://dc.lft.to/lastmile_qr_scan"}, "type": "electric_scooter", "name": "f088a5dca0ad17db610a4b9c295e54f4", "is_reserved": 0, "lon": -77.03476116666667, "is_disabled": 0, "fusion_lat": 0.0, "lat": 38.920402833333334, "bike_id": "f088a5dca0ad17db610a4b9c295e54f4", "fusion_lon": 0.0}, {"rental_uris": {"ios": "https://dc.lft.to/lastmile_qr_scan", "android": "https://dc.lft.to/lastmile_qr_scan"}, "type": "electric_scooter", "name": "929d3003377db94edabff40a6c1c2a37", "is_reserved": 0, "lon": -76.9983905, "is_disabled": 0, "fusion_lat": 0.0, "lat": 38.90299133333333, "bike_id": "929d3003377db94edabff40a6c1c2a37", "fusion_lon": 0.0}, {"rental_uris": {"ios": "https://dc.lft.to/lastmile_qr_scan", "android": "https://dc.lft.to/lastmile_qr_scan"}, "type": "electric_scooter", "name": "9675eb39e521d6bd6e29f26172215564", "is_reserved": 0, "lon": -77.03438716666666, "is_disabled": 0, "fusion_lat": 0.0, "lat": 38.911113, "bike_id": "9675eb39e521d6bd6e29f26172215564", "fusion_lon": 0.0}, {"rental_uris": {"ios": "https://dc.lft.to/lastmile_qr_scan", "android": "https://dc.lft.to/lastmile_qr_scan"}, "type": "electric_bike", "name": "4aae9f840aede12d274c3660350c7320", "is_reserved": 0, "lon": -76.90297833333334, "is_disabled": 0, "fusion_lat": 0.0, "lat": 39.002919, "bike_id": "4aae9f840aede12d274c3660350c7320", "fusion_lon": 0.0}, {"rental_uris": {"ios": "https://dc.lft.to/lastmile_qr_scan", "android": "https://dc.lft.to/lastmile_qr_scan"}, "type": "electric_scooter", "name": "0a59384e4fc2a88a51be9fe37275dc2c", "is_reserved": 0, "lon": -77.03637, "is_disabled": 0, "fusion_lat": 0.0, "lat": 38.933672333333334, "bike_id": "0a59384e4fc2a88a51be9fe37275dc2c", "fusion_lon": 0.0}, {"rental_uris": {"ios": "https://dc.lft.to/lastmile_qr_scan", "android": "https://dc.lft.to/lastmile_qr_scan"}, "type": "electric_scooter", "name": "be64a68d03feefd402dfcca5dea9a1de", "is_reserved": 0, "lon": -77.019983, "is_disabled": 0, "fusion_lat": 0.0, "lat": 38.8996675, "bike_id": "be64a68d03feefd402dfcca5dea9a1de", "fusion_lon": 0.0}, {"rental_uris": {"ios": "https://dc.lft.to/lastmile_qr_scan", "android": "https://dc.lft.to/lastmile_qr_scan"}, "type": "electric_bike", "name": "a458d31adc4a733d566998f3bef0df8f", "is_reserved": 0, "lon": -76.96887133333334, "is_disabled": 0, "fusion_lat": 0.0, "lat": 38.869791166666666, "bike_id": "a458d31adc4a733d566998f3bef0df8f", "fusion_lon": 0.0}, {"rental_uris": {"ios": "https://dc.lft.to/lastmile_qr_scan", "android": "https://dc.lft.to/lastmile_qr_scan"}, "type": "electric_scooter", "name": "0fd3ebc093d838d11c4b02cd54209349", "is_reserved": 0, "lon": -77.0092895, "is_disabled": 0, "fusion_lat": 0.0, "lat": 38.874469, "bike_id": "0fd3ebc093d838d11c4b02cd54209349", "fusion_lon": 0.0}, {"rental_uris": {"ios": "https://dc.lft.to/lastmile_qr_scan", "android": "https://dc.lft.to/lastmile_qr_scan"}, "type": "electric_scooter", "name": "795fce694994ee8bd331733c369ab73d", "is_reserved": 0, "lon": -77.0270305, "is_disabled": 0, "fusion_lat": 0.0, "lat": 38.90898166666667, "bike_id": "795fce694994ee8bd331733c369ab73d", "fusion_lon": 0.0}, {"rental_uris": {"ios": "https://dc.lft.to/lastmile_qr_scan", "android": "https://dc.lft.to/lastmile_qr_scan"}, "type": "electric_scooter", "name": "467c7a49a3d5e0c539778a80c1a43ab5", "is_reserved": 0, "lon": -77.03555933333334, "is_disabled": 0, "fusion_lat": 0.0, "lat": 38.92738816666667, "bike_id": "467c7a49a3d5e0c539778a80c1a43ab5", "fusion_lon": 0.0}, {"rental_uris": {"ios": "https://dc.lft.to/lastmile_qr_scan", "android": "https://dc.lft.to/lastmile_qr_scan"}, "type": "electric_scooter", "name": "70ec148e018f4b43d00104da1decb638", "is_reserved": 0, "lon": -77.04955566666666, "is_disabled": 0, "fusion_lat": 0.0, "lat": 38.903003166666664, "bike_id": "70ec148e018f4b43d00104da1decb638", "fusion_lon": 0.0}, {"rental_uris": {"ios": "https://dc.lft.to/lastmile_qr_scan", "android": "https://dc.lft.to/lastmile_qr_scan"}, "type": "electric_scooter", "name": "f58f48dc3a6b30e96d6fc9da607134e8", "is_reserved": 0, "lon": -76.99143966666666, "is_disabled": 0, "fusion_lat": 0.0, "lat": 38.873356333333334, "bike_id": "f58f48dc3a6b30e96d6fc9da607134e8", "fusion_lon": 0.0}, {"rental_uris": {"ios": "https://dc.lft.to/lastmile_qr_scan", "android": "https://dc.lft.to/lastmile_qr_scan"}, "type": "electric_scooter", "name": "9c91242c208cb4c2a5e0e937bf21e9fd", "is_reserved": 0, "lon": -77.01375166666666, "is_disabled": 0, "fusion_lat": 0.0, "lat": 38.91269883333333, "bike_id": "9c91242c208cb4c2a5e0e937bf21e9fd", "fusion_lon": 0.0}, {"rental_uris": {"ios": "https://dc.lft.to/lastmile_qr_scan", "android": "https://dc.lft.to/lastmile_qr_scan"}, "type": "electric_bike", "name": "ffdec16bc4b97de4fd7a28d60f81f38f", "is_reserved": 0, "lon": -77.128878, "is_disabled": 0, "fusion_lat": 0.0, "lat": 38.906020166666664, "bike_id": "ffdec16bc4b97de4fd7a28d60f81f38f", "fusion_lon": 0.0}, {"rental_uris": {"ios": "https://dc.lft.to/lastmile_qr_scan", "android": "https://dc.lft.to/lastmile_qr_scan"}, "type": "electric_scooter", "name": "ba7446523f3b8041942c37726f1bbace", "is_reserved": 0, "lon": -77.03999616666667, "is_disabled": 0, "fusion_lat": 0.0, "lat": 38.934235666666666, "bike_id": "ba7446523f3b8041942c37726f1bbace", "fusion_lon": 0.0}, {"rental_uris": {"ios": "https://dc.lft.to/lastmile_qr_scan", "android": "https://dc.lft.to/lastmile_qr_scan"}, "type": "electric_scooter", "name": "1412f28f5f5077334944e74dc3507374", "is_reserved": 0, "lon": -77.00729333333334, "is_disabled": 0, "fusion_lat": 0.0, "lat": 38.905485166666665, "bike_id": "1412f28f5f5077334944e74dc3507374", "fusion_lon": 0.0}, {"rental_uris": {"ios": "https://dc.lft.to/lastmile_qr_scan", "android": "https://dc.lft.to/lastmile_qr_scan"}, "type": "electric_scooter", "name": "a8cf7b9e668db6e9de00c5a44bbb2184", "is_reserved": 0, "lon": -76.996307, "is_disabled": 0, "fusion_lat": 0.0, "lat": 38.8773385, "bike_id": "a8cf7b9e668db6e9de00c5a44bbb2184", "fusion_lon": 0.0}, {"rental_uris": {"ios": "https://dc.lft.to/lastmile_qr_scan", "android": "https://dc.lft.to/lastmile_qr_scan"}, "type": "electric_scooter", "name": "9752bdcb1a7785bbd97146590b3a0245", "is_reserved": 0, "lon": -77.05561566666667, "is_disabled": 0, "fusion_lat": 0.0, "lat": 38.8997805, "bike_id": "9752bdcb1a7785bbd97146590b3a0245", "fusion_lon": 0.0}, {"rental_uris": {"ios": "https://dc.lft.to/lastmile_qr_scan", "android": "https://dc.lft.to/lastmile_qr_scan"}, "type": "electric_scooter", "name": "2ed468c0b438d4c23653339b07ca00d1", "is_reserved": 0, "lon": -77.02835816666666, "is_disabled": 0, "fusion_lat": 0.0, "lat": 38.88730783333333, "bike_id": "2ed468c0b438d4c23653339b07ca00d1", "fusion_lon": 0.0}, {"rental_uris": {"ios": "https://dc.lft.to/lastmile_qr_scan", "android": "https://dc.lft.to/lastmile_qr_scan"}, "type": "electric_scooter", "name": "2800f60e65374d29c7a7a237fc780995", "is_reserved": 0, "lon": -77.06563983333334, "is_disabled": 0, "fusion_lat": 0.0, "lat": 38.883368833333336, "bike_id": "2800f60e65374d29c7a7a237fc780995", "fusion_lon": 0.0}, {"rental_uris": {"ios": "https://dc.lft.to/lastmile_qr_scan", "android": "https://dc.lft.to/lastmile_qr_scan"}, "type": "electric_scooter", "name": "24e7676b853bee972186619aa75ddf26", "is_reserved": 0, "lon": -77.02942033333333, "is_disabled": 0, "fusion_lat": 0.0, "lat": 38.916731666666664, "bike_id": "24e7676b853bee972186619aa75ddf26", "fusion_lon": 0.0}, {"rental_uris": {"ios": "https://dc.lft.to/lastmile_qr_scan", "android": "https://dc.lft.to/lastmile_qr_scan"}, "type": "electric_scooter", "name": "a7390cff6f6eb190f907ee2eb180abf8", "is_reserved": 0, "lon": -76.99627766666667, "is_disabled": 0, "fusion_lat": 0.0, "lat": 38.8773435, "bike_id": "a7390cff6f6eb190f907ee2eb180abf8", "fusion_lon": 0.0}, {"rental_uris": {"ios": "https://dc.lft.to/lastmile_qr_scan", "android": "https://dc.lft.to/lastmile_qr_scan"}, "type": "electric_scooter", "name": "c8cca0d952eef53284a84c10cccfa4e1", "is_reserved": 0, "lon": -77.03134816666666, "is_disabled": 0, "fusion_lat": 0.0, "lat": 38.92370416666667, "bike_id": "c8cca0d952eef53284a84c10cccfa4e1", "fusion_lon": 0.0}, {"rental_uris": {"ios": "https://dc.lft.to/lastmile_qr_scan", "android": "https://dc.lft.to/lastmile_qr_scan"}, "type": "electric_bike", "name": "6552ba09e0a6ccdf599b083c419704ba", "is_reserved": 0, "lon": -77.05271733333333, "is_disabled": 0, "fusion_lat": 0.0, "lat": 38.94088983333333, "bike_id": "6552ba09e0a6ccdf599b083c419704ba", "fusion_lon": 0.0}, {"rental_uris": {"ios": "https://dc.lft.to/lastmile_qr_scan", "android": "https://dc.lft.to/lastmile_qr_scan"}, "type": "electric_scooter", "name": "3006f9b3bf78f5b6361bab1a832aa945", "is_reserved": 0, "lon": -77.03346566666667, "is_disabled": 0, "fusion_lat": 0.0, "lat": 38.8979255, "bike_id": "3006f9b3bf78f5b6361bab1a832aa945", "fusion_lon": 0.0}, {"rental_uris": {"ios": "https://dc.lft.to/lastmile_qr_scan", "android": "https://dc.lft.to/lastmile_qr_scan"}, "type": "electric_scooter", "name": "b31872d80e5ed6548ee380278cc75c57", "is_reserved": 0, "lon": -77.04909516666666, "is_disabled": 0, "fusion_lat": 0.0, "lat": 38.897250666666665, "bike_id": "b31872d80e5ed6548ee380278cc75c57", "fusion_lon": 0.0}, {"rental_uris": {"ios": "https://dc.lft.to/lastmile_qr_scan", "android": "https://dc.lft.to/lastmile_qr_scan"}, "type": "electric_scooter", "name": "d714707937f09cc349fbdf35a02d61cf", "is_reserved": 0, "lon": -77.03910266666666, "is_disabled": 0, "fusion_lat": 0.0, "lat": 38.9247085, "bike_id": "d714707937f09cc349fbdf35a02d61cf", "fusion_lon": 0.0}, {"rental_uris": {"ios": "https://dc.lft.to/lastmile_qr_scan", "android": "https://dc.lft.to/lastmile_qr_scan"}, "type": "electric_scooter", "name": "5e7d51a47fb4423e25e52d76a5cb73ee", "is_reserved": 0, "lon": -76.9950775, "is_disabled": 0, "fusion_lat": 0.0, "lat": 38.88109266666667, "bike_id": "5e7d51a47fb4423e25e52d76a5cb73ee", "fusion_lon": 0.0}, {"rental_uris": {"ios": "https://dc.lft.to/lastmile_qr_scan", "android": "https://dc.lft.to/lastmile_qr_scan"}, "type": "electric_bike", "name": "9ab2d349fe9fb3df24e3bc27f765f4c9", "is_reserved": 0, "lon": -77.02086616666666, "is_disabled": 0, "fusion_lat": 0.0, "lat": 38.95845333333333, "bike_id": "9ab2d349fe9fb3df24e3bc27f765f4c9", "fusion_lon": 0.0}, {"rental_uris": {"ios": "https://dc.lft.to/lastmile_qr_scan", "android": "https://dc.lft.to/lastmile_qr_scan"}, "type": "electric_scooter", "name": "cc2056f72152b832a2d2b6dbf3d9c90b", "is_reserved": 0, "lon": -77.01756183333333, "is_disabled": 0, "fusion_lat": 0.0, "lat": 38.87686883333333, "bike_id": "cc2056f72152b832a2d2b6dbf3d9c90b", "fusion_lon": 0.0}, {"rental_uris": {"ios": "https://dc.lft.to/lastmile_qr_scan", "android": "https://dc.lft.to/lastmile_qr_scan"}, "type": "electric_scooter", "name": "8fe3be9b703cd0e7cf7be2d2dee5ef8b", "is_reserved": 0, "lon": -77.04781883333334, "is_disabled": 0, "fusion_lat": 0.0, "lat": 38.90859733333333, "bike_id": "8fe3be9b703cd0e7cf7be2d2dee5ef8b", "fusion_lon": 0.0}, {"rental_uris": {"ios": "https://dc.lft.to/lastmile_qr_scan", "android": "https://dc.lft.to/lastmile_qr_scan"}, "type": "electric_scooter", "name": "f537aafa23bae6eacaeb7d1ee7368396", "is_reserved": 0, "lon": -77.02748566666666, "is_disabled": 0, "fusion_lat": 0.0, "lat": 38.9577275, "bike_id": "f537aafa23bae6eacaeb7d1ee7368396", "fusion_lon": 0.0}, {"rental_uris": {"ios": "https://dc.lft.to/lastmile_qr_scan", "android": "https://dc.lft.to/lastmile_qr_scan"}, "type": "electric_scooter", "name": "9fd0fa11b03dde91c7617b04b0d4d99b", "is_reserved": 0, "lon": -77.04060933333334, "is_disabled": 0, "fusion_lat": 0.0, "lat": 38.91765516666667, "bike_id": "9fd0fa11b03dde91c7617b04b0d4d99b", "fusion_lon": 0.0}, {"rental_uris": {"ios": "https://dc.lft.to/lastmile_qr_scan", "android": "https://dc.lft.to/lastmile_qr_scan"}, "type": "electric_scooter", "name": "345d87f97240abfa97c9fe42de678ad2", "is_reserved": 0, "lon": -77.03623383333333, "is_disabled": 0, "fusion_lat": 0.0, "lat": 38.903755833333335, "bike_id": "345d87f97240abfa97c9fe42de678ad2", "fusion_lon": 0.0}, {"rental_uris": {"ios": "https://dc.lft.to/lastmile_qr_scan", "android": "https://dc.lft.to/lastmile_qr_scan"}, "type": "electric_scooter", "name": "2d177d5c1b431d13f15844908e363e7c", "is_reserved": 0, "lon": -76.98542983333333, "is_disabled": 0, "fusion_lat": 0.0, "lat": 38.912931, "bike_id": "2d177d5c1b431d13f15844908e363e7c", "fusion_lon": 0.0}, {"rental_uris": {"ios": "https://dc.lft.to/lastmile_qr_scan", "android": "https://dc.lft.to/lastmile_qr_scan"}, "type": "electric_scooter", "name": "eb9276f0e4537f9f13390e0a4d940ab7", "is_reserved": 0, "lon": -77.022068, "is_disabled": 0, "fusion_lat": 0.0, "lat": 38.91095266666667, "bike_id": "eb9276f0e4537f9f13390e0a4d940ab7", "fusion_lon": 0.0}, {"rental_uris": {"ios": "https://dc.lft.to/lastmile_qr_scan", "android": "https://dc.lft.to/lastmile_qr_scan"}, "type": "electric_scooter", "name": "0be355063d49c5c6aa1707e085a821be", "is_reserved": 0, "lon": -76.92628, "is_disabled": 0, "fusion_lat": 0.0, "lat": 38.883713, "bike_id": "0be355063d49c5c6aa1707e085a821be", "fusion_lon": 0.0}, {"rental_uris": {"ios": "https://dc.lft.to/lastmile_qr_scan", "android": "https://dc.lft.to/lastmile_qr_scan"}, "type": "electric_bike", "name": "4de4df3050a7be20c53cc24dab53a348", "is_reserved": 0, "lon": -77.12737566666667, "is_disabled": 0, "fusion_lat": 0.0, "lat": 38.8956335, "bike_id": "4de4df3050a7be20c53cc24dab53a348", "fusion_lon": 0.0}, {"rental_uris": {"ios": "https://dc.lft.to/lastmile_qr_scan", "android": "https://dc.lft.to/lastmile_qr_scan"}, "type": "electric_scooter", "name": "8dd083782301994dff3239715a218147", "is_reserved": 0, "lon": -77.052191, "is_disabled": 0, "fusion_lat": 0.0, "lat": 38.88908983333334, "bike_id": "8dd083782301994dff3239715a218147", "fusion_lon": 0.0}, {"rental_uris": {"ios": "https://dc.lft.to/lastmile_qr_scan", "android": "https://dc.lft.to/lastmile_qr_scan"}, "type": "electric_scooter", "name": "a861032efbd76f7ae0887333e7b54493", "is_reserved": 0, "lon": -77.02382783333333, "is_disabled": 0, "fusion_lat": 0.0, "lat": 38.89195433333333, "bike_id": "a861032efbd76f7ae0887333e7b54493", "fusion_lon": 0.0}, {"rental_uris": {"ios": "https://dc.lft.to/lastmile_qr_scan", "android": "https://dc.lft.to/lastmile_qr_scan"}, "type": "electric_scooter", "name": "ac1140214775e407645af1531d6a783e", "is_reserved": 0, "lon": -77.01161833333333, "is_disabled": 0, "fusion_lat": 0.0, "lat": 38.8965435, "bike_id": "ac1140214775e407645af1531d6a783e", "fusion_lon": 0.0}, {"rental_uris": {"ios": "https://dc.lft.to/lastmile_qr_scan", "android": "https://dc.lft.to/lastmile_qr_scan"}, "type": "electric_scooter", "name": "94cfb2d27fa306abce44235f686bf597", "is_reserved": 0, "lon": -76.93184966666666, "is_disabled": 0, "fusion_lat": 0.0, "lat": 38.89872883333334, "bike_id": "94cfb2d27fa306abce44235f686bf597", "fusion_lon": 0.0}, {"rental_uris": {"ios": "https://dc.lft.to/lastmile_qr_scan", "android": "https://dc.lft.to/lastmile_qr_scan"}, "type": "electric_bike", "name": "e3f2d27fc26d3ce0d802c664a73c8faf", "is_reserved": 0, "lon": -77.05046966666667, "is_disabled": 0, "fusion_lat": 0.0, "lat": 38.92409116666666, "bike_id": "e3f2d27fc26d3ce0d802c664a73c8faf", "fusion_lon": 0.0}, {"rental_uris": {"ios": "https://dc.lft.to/lastmile_qr_scan", "android": "https://dc.lft.to/lastmile_qr_scan"}, "type": "electric_bike", "name": "ffc4e279f8a08fcfe48303ffecbb6381", "is_reserved": 0, "lon": -77.096254, "is_disabled": 0, "fusion_lat": 0.0, "lat": 38.95243283333333, "bike_id": "ffc4e279f8a08fcfe48303ffecbb6381", "fusion_lon": 0.0}, {"rental_uris": {"ios": "https://dc.lft.to/lastmile_qr_scan", "android": "https://dc.lft.to/lastmile_qr_scan"}, "type": "electric_bike", "name": "7a5955d78b03f82ff946dc8ec37c5df3", "is_reserved": 0, "lon": -77.03880866666667, "is_disabled": 0, "fusion_lat": 0.0, "lat": 39.02622216666666, "bike_id": "7a5955d78b03f82ff946dc8ec37c5df3", "fusion_lon": 0.0}, {"rental_uris": {"ios": "https://dc.lft.to/lastmile_qr_scan", "android": "https://dc.lft.to/lastmile_qr_scan"}, "type": "electric_scooter", "name": "1b2720583bb4b2ac4fb4bce84df27ddb", "is_reserved": 0, "lon": -77.00545416666667, "is_disabled": 0, "fusion_lat": 0.0, "lat": 38.918156333333336, "bike_id": "1b2720583bb4b2ac4fb4bce84df27ddb", "fusion_lon": 0.0}, {"rental_uris": {"ios": "https://dc.lft.to/lastmile_qr_scan", "android": "https://dc.lft.to/lastmile_qr_scan"}, "type": "electric_scooter", "name": "541d2162ddbe26e743af93c072069bdd", "is_reserved": 0, "lon": -77.00064266666666, "is_disabled": 0, "fusion_lat": 0.0, "lat": 38.87352966666667, "bike_id": "541d2162ddbe26e743af93c072069bdd", "fusion_lon": 0.0}, {"rental_uris": {"ios": "https://dc.lft.to/lastmile_qr_scan", "android": "https://dc.lft.to/lastmile_qr_scan"}, "type": "electric_scooter", "name": "7c7ffb88f190117e4c2828810344ab44", "is_reserved": 0, "lon": -77.00343466666666, "is_disabled": 0, "fusion_lat": 0.0, "lat": 38.90367066666666, "bike_id": "7c7ffb88f190117e4c2828810344ab44", "fusion_lon": 0.0}, {"rental_uris": {"ios": "https://dc.lft.to/lastmile_qr_scan", "android": "https://dc.lft.to/lastmile_qr_scan"}, "type": "electric_scooter", "name": "aedbc3e1135cb7cb35a7b8706c4e7ac3", "is_reserved": 0, "lon": -77.00041433333334, "is_disabled": 0, "fusion_lat": 0.0, "lat": 38.900117333333334, "bike_id": "aedbc3e1135cb7cb35a7b8706c4e7ac3", "fusion_lon": 0.0}, {"rental_uris": {"ios": "https://dc.lft.to/lastmile_qr_scan", "android": "https://dc.lft.to/lastmile_qr_scan"}, "type": "electric_scooter", "name": "f12e2605b20590cef43179c0bbc4c8a9", "is_reserved": 0, "lon": -76.98370833333334, "is_disabled": 0, "fusion_lat": 0.0, "lat": 38.89260816666667, "bike_id": "f12e2605b20590cef43179c0bbc4c8a9", "fusion_lon": 0.0}, {"rental_uris": {"ios": "https://dc.lft.to/lastmile_qr_scan", "android": "https://dc.lft.to/lastmile_qr_scan"}, "type": "electric_scooter", "name": "039b1a0ff0e2b1c6bbed323915052049", "is_reserved": 0, "lon": -77.040561, "is_disabled": 0, "fusion_lat": 0.0, "lat": 38.904857, "bike_id": "039b1a0ff0e2b1c6bbed323915052049", "fusion_lon": 0.0}, {"rental_uris": {"ios": "https://dc.lft.to/lastmile_qr_scan", "android": "https://dc.lft.to/lastmile_qr_scan"}, "type": "electric_scooter", "name": "87c9dd47240f493e69ccf3cab769c0c7", "is_reserved": 0, "lon": -77.02353600000001, "is_disabled": 0, "fusion_lat": 0.0, "lat": 38.94197783333333, "bike_id": "87c9dd47240f493e69ccf3cab769c0c7", "fusion_lon": 0.0}, {"rental_uris": {"ios": "https://dc.lft.to/lastmile_qr_scan", "android": "https://dc.lft.to/lastmile_qr_scan"}, "type": "electric_scooter", "name": "a9e7847747669db5f8a8bf0a1d11d88a", "is_reserved": 0, "lon": -76.92895383333334, "is_disabled": 0, "fusion_lat": 0.0, "lat": 38.879389833333335, "bike_id": "a9e7847747669db5f8a8bf0a1d11d88a", "fusion_lon": 0.0}, {"rental_uris": {"ios": "https://dc.lft.to/lastmile_qr_scan", "android": "https://dc.lft.to/lastmile_qr_scan"}, "type": "electric_scooter", "name": "225dd31cbfc1a9f70a4bb43b5352a682", "is_reserved": 0, "lon": -76.984892, "is_disabled": 0, "fusion_lat": 0.0, "lat": 38.903611166666664, "bike_id": "225dd31cbfc1a9f70a4bb43b5352a682", "fusion_lon": 0.0}, {"rental_uris": {"ios": "https://dc.lft.to/lastmile_qr_scan", "android": "https://dc.lft.to/lastmile_qr_scan"}, "type": "electric_bike", "name": "f46892b7788ccef79293fa709f6fc189", "is_reserved": 0, "lon": -76.96058916666667, "is_disabled": 0, "fusion_lat": 0.0, "lat": 38.8840245, "bike_id": "f46892b7788ccef79293fa709f6fc189", "fusion_lon": 0.0}, {"rental_uris": {"ios": "https://dc.lft.to/lastmile_qr_scan", "android": "https://dc.lft.to/lastmile_qr_scan"}, "type": "electric_scooter", "name": "4237783a9c85f1c6d0d23d767d1008a9", "is_reserved": 0, "lon": -77.023856, "is_disabled": 0, "fusion_lat": 0.0, "lat": 38.9057365, "bike_id": "4237783a9c85f1c6d0d23d767d1008a9", "fusion_lon": 0.0}, {"rental_uris": {"ios": "https://dc.lft.to/lastmile_qr_scan", "android": "https://dc.lft.to/lastmile_qr_scan"}, "type": "electric_bike", "name": "2ce458110eea98f3b00b294095c98b59", "is_reserved": 0, "lon": -77.02870316666667, "is_disabled": 0, "fusion_lat": 0.0, "lat": 38.929591333333335, "bike_id": "2ce458110eea98f3b00b294095c98b59", "fusion_lon": 0.0}, {"rental_uris": {"ios": "https://dc.lft.to/lastmile_qr_scan", "android": "https://dc.lft.to/lastmile_qr_scan"}, "type": "electric_scooter", "name": "563d98b52a68ecd2cc44fc1c54d06b42", "is_reserved": 0, "lon": -77.0160665, "is_disabled": 0, "fusion_lat": 0.0, "lat": 38.909569, "bike_id": "563d98b52a68ecd2cc44fc1c54d06b42", "fusion_lon": 0.0}, {"rental_uris": {"ios": "https://dc.lft.to/lastmile_qr_scan", "android": "https://dc.lft.to/lastmile_qr_scan"}, "type": "electric_scooter", "name": "a9cdaf174f0d484ea9af340961a94f73", "is_reserved": 0, "lon": -77.00605216666666, "is_disabled": 0, "fusion_lat": 0.0, "lat": 38.9066685, "bike_id": "a9cdaf174f0d484ea9af340961a94f73", "fusion_lon": 0.0}, {"rental_uris": {"ios": "https://dc.lft.to/lastmile_qr_scan", "android": "https://dc.lft.to/lastmile_qr_scan"}, "type": "electric_scooter", "name": "82bd2376d4c2bcdcde9b1e8f4912782b", "is_reserved": 0, "lon": -77.0172945, "is_disabled": 0, "fusion_lat": 0.0, "lat": 38.9026115, "bike_id": "82bd2376d4c2bcdcde9b1e8f4912782b", "fusion_lon": 0.0}, {"rental_uris": {"ios": "https://dc.lft.to/lastmile_qr_scan", "android": "https://dc.lft.to/lastmile_qr_scan"}, "type": "electric_scooter", "name": "a55ed67df60b510720034ffe67e0eeb7", "is_reserved": 0, "lon": -77.03856733333333, "is_disabled": 0, "fusion_lat": 0.0, "lat": 38.924703, "bike_id": "a55ed67df60b510720034ffe67e0eeb7", "fusion_lon": 0.0}, {"rental_uris": {"ios": "https://dc.lft.to/lastmile_qr_scan", "android": "https://dc.lft.to/lastmile_qr_scan"}, "type": "electric_scooter", "name": "b90570014824bb8248c644c47b777e2f", "is_reserved": 0, "lon": -77.04073283333334, "is_disabled": 0, "fusion_lat": 0.0, "lat": 38.91595, "bike_id": "b90570014824bb8248c644c47b777e2f", "fusion_lon": 0.0}, {"rental_uris": {"ios": "https://dc.lft.to/lastmile_qr_scan", "android": "https://dc.lft.to/lastmile_qr_scan"}, "type": "electric_scooter", "name": "5b9bd6ad17ccb2e0f87fe1ebdeb5a451", "is_reserved": 0, "lon": -77.0450395, "is_disabled": 0, "fusion_lat": 0.0, "lat": 38.89224133333333, "bike_id": "5b9bd6ad17ccb2e0f87fe1ebdeb5a451", "fusion_lon": 0.0}, {"rental_uris": {"ios": "https://dc.lft.to/lastmile_qr_scan", "android": "https://dc.lft.to/lastmile_qr_scan"}, "type": "electric_scooter", "name": "82eb3a5a72a8f466dc7ebdf7f898727e", "is_reserved": 0, "lon": -77.03286516666667, "is_disabled": 0, "fusion_lat": 0.0, "lat": 38.930496, "bike_id": "82eb3a5a72a8f466dc7ebdf7f898727e", "fusion_lon": 0.0}, {"rental_uris": {"ios": "https://dc.lft.to/lastmile_qr_scan", "android": "https://dc.lft.to/lastmile_qr_scan"}, "type": "electric_bike", "name": "dd60243f8bafd3390521854dad7d6ba9", "is_reserved": 0, "lon": -76.97700866666666, "is_disabled": 0, "fusion_lat": 0.0, "lat": 38.822056333333336, "bike_id": "dd60243f8bafd3390521854dad7d6ba9", "fusion_lon": 0.0}, {"rental_uris": {"ios": "https://dc.lft.to/lastmile_qr_scan", "android": "https://dc.lft.to/lastmile_qr_scan"}, "type": "electric_bike", "name": "6bda79b59d349bdb450e462db4fce98e", "is_reserved": 0, "lon": -77.08317833333334, "is_disabled": 0, "fusion_lat": 0.0, "lat": 38.85443216666667, "bike_id": "6bda79b59d349bdb450e462db4fce98e", "fusion_lon": 0.0}, {"rental_uris": {"ios": "https://dc.lft.to/lastmile_qr_scan", "android": "https://dc.lft.to/lastmile_qr_scan"}, "type": "electric_scooter", "name": "c8d6cd3c8c0e258230cbe5e4d5507c89", "is_reserved": 0, "lon": -76.937425, "is_disabled": 0, "fusion_lat": 0.0, "lat": 38.8900335, "bike_id": "c8d6cd3c8c0e258230cbe5e4d5507c89", "fusion_lon": 0.0}, {"rental_uris": {"ios": "https://dc.lft.to/lastmile_qr_scan", "android": "https://dc.lft.to/lastmile_qr_scan"}, "type": "electric_scooter", "name": "a60b2b89d6bb46eade030d90199c8af5", "is_reserved": 0, "lon": -76.98834183333334, "is_disabled": 0, "fusion_lat": 0.0, "lat": 38.900392833333335, "bike_id": "a60b2b89d6bb46eade030d90199c8af5", "fusion_lon": 0.0}, {"rental_uris": {"ios": "https://dc.lft.to/lastmile_qr_scan", "android": "https://dc.lft.to/lastmile_qr_scan"}, "type": "electric_scooter", "name": "321fd15d5bee0f62a1d4a2e429edfc99", "is_reserved": 0, "lon": -77.0173165, "is_disabled": 0, "fusion_lat": 0.0, "lat": 38.9007675, "bike_id": "321fd15d5bee0f62a1d4a2e429edfc99", "fusion_lon": 0.0}, {"rental_uris": {"ios": "https://dc.lft.to/lastmile_qr_scan", "android": "https://dc.lft.to/lastmile_qr_scan"}, "type": "electric_scooter", "name": "5a73c453caa6554f9c05236905684d89", "is_reserved": 0, "lon": -76.99729083333334, "is_disabled": 0, "fusion_lat": 0.0, "lat": 38.92050066666667, "bike_id": "5a73c453caa6554f9c05236905684d89", "fusion_lon": 0.0}, {"rental_uris": {"ios": "https://dc.lft.to/lastmile_qr_scan", "android": "https://dc.lft.to/lastmile_qr_scan"}, "type": "electric_bike", "name": "4144fbc911a64c7f8e683074aced50c8", "is_reserved": 0, "lon": -76.91721283333334, "is_disabled": 0, "fusion_lat": 0.0, "lat": 38.8802635, "bike_id": "4144fbc911a64c7f8e683074aced50c8", "fusion_lon": 0.0}, {"rental_uris": {"ios": "https://dc.lft.to/lastmile_qr_scan", "android": "https://dc.lft.to/lastmile_qr_scan"}, "type": "electric_scooter", "name": "992d12906255e3fa8c89883319e7168a", "is_reserved": 0, "lon": -77.0468885, "is_disabled": 0, "fusion_lat": 0.0, "lat": 38.89740883333333, "bike_id": "992d12906255e3fa8c89883319e7168a", "fusion_lon": 0.0}, {"rental_uris": {"ios": "https://dc.lft.to/lastmile_qr_scan", "android": "https://dc.lft.to/lastmile_qr_scan"}, "type": "electric_scooter", "name": "eadb48f26488f3434b506054c3f99dc2", "is_reserved": 0, "lon": -77.0218205, "is_disabled": 0, "fusion_lat": 0.0, "lat": 38.916462, "bike_id": "eadb48f26488f3434b506054c3f99dc2", "fusion_lon": 0.0}, {"rental_uris": {"ios": "https://dc.lft.to/lastmile_qr_scan", "android": "https://dc.lft.to/lastmile_qr_scan"}, "type": "electric_scooter", "name": "36816025eaa034180d9961f361b3d53f", "is_reserved": 0, "lon": -76.99032966666667, "is_disabled": 0, "fusion_lat": 0.0, "lat": 38.88878583333333, "bike_id": "36816025eaa034180d9961f361b3d53f", "fusion_lon": 0.0}, {"rental_uris": {"ios": "https://dc.lft.to/lastmile_qr_scan", "android": "https://dc.lft.to/lastmile_qr_scan"}, "type": "electric_scooter", "name": "cbe9b59ca7083a152534a563344861d1", "is_reserved": 0, "lon": -77.0354395, "is_disabled": 0, "fusion_lat": 0.0, "lat": 38.92648466666667, "bike_id": "cbe9b59ca7083a152534a563344861d1", "fusion_lon": 0.0}, {"rental_uris": {"ios": "https://dc.lft.to/lastmile_qr_scan", "android": "https://dc.lft.to/lastmile_qr_scan"}, "type": "electric_scooter", "name": "5f64adf3e982a93e819f7d594d057b1d", "is_reserved": 0, "lon": -77.01700933333333, "is_disabled": 0, "fusion_lat": 0.0, "lat": 38.91384433333333, "bike_id": "5f64adf3e982a93e819f7d594d057b1d", "fusion_lon": 0.0}, {"rental_uris": {"ios": "https://dc.lft.to/lastmile_qr_scan", "android": "https://dc.lft.to/lastmile_qr_scan"}, "type": "electric_scooter", "name": "c4a20ce8c58f46487796189df4db4a61", "is_reserved": 0, "lon": -77.034844, "is_disabled": 0, "fusion_lat": 0.0, "lat": 38.9004345, "bike_id": "c4a20ce8c58f46487796189df4db4a61", "fusion_lon": 0.0}, {"rental_uris": {"ios": "https://dc.lft.to/lastmile_qr_scan", "android": "https://dc.lft.to/lastmile_qr_scan"}, "type": "electric_bike", "name": "8d313ff69132ec5624445f043de277ad", "is_reserved": 0, "lon": -77.001533, "is_disabled": 0, "fusion_lat": 0.0, "lat": 38.941583666666666, "bike_id": "8d313ff69132ec5624445f043de277ad", "fusion_lon": 0.0}, {"rental_uris": {"ios": "https://dc.lft.to/lastmile_qr_scan", "android": "https://dc.lft.to/lastmile_qr_scan"}, "type": "electric_scooter", "name": "e20b57afb217a89d9ee60abc14525cd4", "is_reserved": 0, "lon": -77.011094, "is_disabled": 0, "fusion_lat": 0.0, "lat": 38.909659, "bike_id": "e20b57afb217a89d9ee60abc14525cd4", "fusion_lon": 0.0}, {"rental_uris": {"ios": "https://dc.lft.to/lastmile_qr_scan", "android": "https://dc.lft.to/lastmile_qr_scan"}, "type": "electric_scooter", "name": "a670eac24aac75fc1d67ccc7b502e177", "is_reserved": 0, "lon": -77.04361233333333, "is_disabled": 0, "fusion_lat": 0.0, "lat": 38.8922285, "bike_id": "a670eac24aac75fc1d67ccc7b502e177", "fusion_lon": 0.0}, {"rental_uris": {"ios": "https://dc.lft.to/lastmile_qr_scan", "android": "https://dc.lft.to/lastmile_qr_scan"}, "type": "electric_scooter", "name": "c3c299f326d42b13685c22accebb85cf", "is_reserved": 0, "lon": -77.04805966666666, "is_disabled": 0, "fusion_lat": 0.0, "lat": 38.899509, "bike_id": "c3c299f326d42b13685c22accebb85cf", "fusion_lon": 0.0}, {"rental_uris": {"ios": "https://dc.lft.to/lastmile_qr_scan", "android": "https://dc.lft.to/lastmile_qr_scan"}, "type": "electric_scooter", "name": "378057fafd9e39f5b2430bfe75d9a9de", "is_reserved": 0, "lon": -77.02474166666667, "is_disabled": 0, "fusion_lat": 0.0, "lat": 38.918108833333335, "bike_id": "378057fafd9e39f5b2430bfe75d9a9de", "fusion_lon": 0.0}, {"rental_uris": {"ios": "https://dc.lft.to/lastmile_qr_scan", "android": "https://dc.lft.to/lastmile_qr_scan"}, "type": "electric_scooter", "name": "0b3db3e9df13f7d44354e0e1bc6ab9fa", "is_reserved": 0, "lon": -77.03276016666666, "is_disabled": 0, "fusion_lat": 0.0, "lat": 38.91986383333333, "bike_id": "0b3db3e9df13f7d44354e0e1bc6ab9fa", "fusion_lon": 0.0}, {"rental_uris": {"ios": "https://dc.lft.to/lastmile_qr_scan", "android": "https://dc.lft.to/lastmile_qr_scan"}, "type": "electric_scooter", "name": "da0af6ee03a36d68bfb704e61db6f4a9", "is_reserved": 0, "lon": -77.04058516666667, "is_disabled": 0, "fusion_lat": 0.0, "lat": 38.917675333333335, "bike_id": "da0af6ee03a36d68bfb704e61db6f4a9", "fusion_lon": 0.0}, {"rental_uris": {"ios": "https://dc.lft.to/lastmile_qr_scan", "android": "https://dc.lft.to/lastmile_qr_scan"}, "type": "electric_scooter", "name": "2692fe385084e65929c8cb08f579da84", "is_reserved": 0, "lon": -77.01377116666667, "is_disabled": 0, "fusion_lat": 0.0, "lat": 38.89913716666667, "bike_id": "2692fe385084e65929c8cb08f579da84", "fusion_lon": 0.0}, {"rental_uris": {"ios": "https://dc.lft.to/lastmile_qr_scan", "android": "https://dc.lft.to/lastmile_qr_scan"}, "type": "electric_scooter", "name": "f2fc2d357bf585264513a02900597b5c", "is_reserved": 0, "lon": -77.048115, "is_disabled": 0, "fusion_lat": 0.0, "lat": 38.92035416666667, "bike_id": "f2fc2d357bf585264513a02900597b5c", "fusion_lon": 0.0}, {"rental_uris": {"ios": "https://dc.lft.to/lastmile_qr_scan", "android": "https://dc.lft.to/lastmile_qr_scan"}, "type": "electric_scooter", "name": "94c9521987050d224540d7a01f7dde78", "is_reserved": 0, "lon": -77.03417133333333, "is_disabled": 0, "fusion_lat": 0.0, "lat": 38.909705, "bike_id": "94c9521987050d224540d7a01f7dde78", "fusion_lon": 0.0}, {"rental_uris": {"ios": "https://dc.lft.to/lastmile_qr_scan", "android": "https://dc.lft.to/lastmile_qr_scan"}, "type": "electric_scooter", "name": "3fd3f4129a7f7ebd8f324dfbce8c7875", "is_reserved": 0, "lon": -77.03158583333334, "is_disabled": 0, "fusion_lat": 0.0, "lat": 38.959316, "bike_id": "3fd3f4129a7f7ebd8f324dfbce8c7875", "fusion_lon": 0.0}, {"rental_uris": {"ios": "https://dc.lft.to/lastmile_qr_scan", "android": "https://dc.lft.to/lastmile_qr_scan"}, "type": "electric_bike", "name": "8370b9687bd862dc1c7d292ce2ad74c2", "is_reserved": 0, "lon": -76.9863575, "is_disabled": 0, "fusion_lat": 0.0, "lat": 38.93681333333333, "bike_id": "8370b9687bd862dc1c7d292ce2ad74c2", "fusion_lon": 0.0}, {"rental_uris": {"ios": "https://dc.lft.to/lastmile_qr_scan", "android": "https://dc.lft.to/lastmile_qr_scan"}, "type": "electric_scooter", "name": "4e889ef670cac7d1fef0684161264cf7", "is_reserved": 0, "lon": -77.03381833333333, "is_disabled": 0, "fusion_lat": 0.0, "lat": 38.899656666666665, "bike_id": "4e889ef670cac7d1fef0684161264cf7", "fusion_lon": 0.0}, {"rental_uris": {"ios": "https://dc.lft.to/lastmile_qr_scan", "android": "https://dc.lft.to/lastmile_qr_scan"}, "type": "electric_scooter", "name": "7a759ce4bbacf71fb50966b6716ee89f", "is_reserved": 0, "lon": -77.0318965, "is_disabled": 0, "fusion_lat": 0.0, "lat": 38.89906283333333, "bike_id": "7a759ce4bbacf71fb50966b6716ee89f", "fusion_lon": 0.0}, {"rental_uris": {"ios": "https://dc.lft.to/lastmile_qr_scan", "android": "https://dc.lft.to/lastmile_qr_scan"}, "type": "electric_scooter", "name": "8caa137eec3c77fb16b7cd6a8f369c90", "is_reserved": 0, "lon": -77.0297345, "is_disabled": 0, "fusion_lat": 0.0, "lat": 38.911599, "bike_id": "8caa137eec3c77fb16b7cd6a8f369c90", "fusion_lon": 0.0}, {"rental_uris": {"ios": "https://dc.lft.to/lastmile_qr_scan", "android": "https://dc.lft.to/lastmile_qr_scan"}, "type": "electric_scooter", "name": "6e47fe7c9b73bf8bf4ba2133ab10f94d", "is_reserved": 0, "lon": -76.98336683333333, "is_disabled": 0, "fusion_lat": 0.0, "lat": 38.90085633333333, "bike_id": "6e47fe7c9b73bf8bf4ba2133ab10f94d", "fusion_lon": 0.0}, {"rental_uris": {"ios": "https://dc.lft.to/lastmile_qr_scan", "android": "https://dc.lft.to/lastmile_qr_scan"}, "type": "electric_scooter", "name": "48e83d7af60b6727b7b7c3c7cb025b70", "is_reserved": 0, "lon": -76.99711366666666, "is_disabled": 0, "fusion_lat": 0.0, "lat": 38.908195166666665, "bike_id": "48e83d7af60b6727b7b7c3c7cb025b70", "fusion_lon": 0.0}, {"rental_uris": {"ios": "https://dc.lft.to/lastmile_qr_scan", "android": "https://dc.lft.to/lastmile_qr_scan"}, "type": "electric_scooter", "name": "65a334c7cf62861b82f54318b1240562", "is_reserved": 0, "lon": -77.0200895, "is_disabled": 0, "fusion_lat": 0.0, "lat": 38.8990665, "bike_id": "65a334c7cf62861b82f54318b1240562", "fusion_lon": 0.0}, {"rental_uris": {"ios": "https://dc.lft.to/lastmile_qr_scan", "android": "https://dc.lft.to/lastmile_qr_scan"}, "type": "electric_scooter", "name": "7f91df513392cee3fda4f645f4ac962c", "is_reserved": 0, "lon": -77.06133333333334, "is_disabled": 0, "fusion_lat": 0.0, "lat": 38.943088333333336, "bike_id": "7f91df513392cee3fda4f645f4ac962c", "fusion_lon": 0.0}, {"rental_uris": {"ios": "https://dc.lft.to/lastmile_qr_scan", "android": "https://dc.lft.to/lastmile_qr_scan"}, "type": "electric_scooter", "name": "f72de68a1aa899606c8aa07d0551c4eb", "is_reserved": 0, "lon": -77.01921066666667, "is_disabled": 0, "fusion_lat": 0.0, "lat": 38.928715333333336, "bike_id": "f72de68a1aa899606c8aa07d0551c4eb", "fusion_lon": 0.0}, {"rental_uris": {"ios": "https://dc.lft.to/lastmile_qr_scan", "android": "https://dc.lft.to/lastmile_qr_scan"}, "type": "electric_scooter", "name": "882861001908758e3ca705718340d2c3", "is_reserved": 0, "lon": -76.99034883333333, "is_disabled": 0, "fusion_lat": 0.0, "lat": 38.891334666666665, "bike_id": "882861001908758e3ca705718340d2c3", "fusion_lon": 0.0}, {"rental_uris": {"ios": "https://dc.lft.to/lastmile_qr_scan", "android": "https://dc.lft.to/lastmile_qr_scan"}, "type": "electric_scooter", "name": "6adcb84ed737e5f113ecf717fecdc5d7", "is_reserved": 0, "lon": -77.00481083333334, "is_disabled": 0, "fusion_lat": 0.0, "lat": 38.874574, "bike_id": "6adcb84ed737e5f113ecf717fecdc5d7", "fusion_lon": 0.0}, {"rental_uris": {"ios": "https://dc.lft.to/lastmile_qr_scan", "android": "https://dc.lft.to/lastmile_qr_scan"}, "type": "electric_bike", "name": "2822b6633b8cf97c4647d5dacd114448", "is_reserved": 0, "lon": -77.0242025, "is_disabled": 0, "fusion_lat": 0.0, "lat": 38.94905216666667, "bike_id": "2822b6633b8cf97c4647d5dacd114448", "fusion_lon": 0.0}, {"rental_uris": {"ios": "https://dc.lft.to/lastmile_qr_scan", "android": "https://dc.lft.to/lastmile_qr_scan"}, "type": "electric_scooter", "name": "edc9a2c4d88490033f976df5dbadc9c8", "is_reserved": 0, "lon": -77.03674866666667, "is_disabled": 0, "fusion_lat": 0.0, "lat": 38.93924066666666, "bike_id": "edc9a2c4d88490033f976df5dbadc9c8", "fusion_lon": 0.0}, {"rental_uris": {"ios": "https://dc.lft.to/lastmile_qr_scan", "android": "https://dc.lft.to/lastmile_qr_scan"}, "type": "electric_scooter", "name": "8749d4c2d03fa3ab05209180ecb7cddc", "is_reserved": 0, "lon": -77.00755616666666, "is_disabled": 0, "fusion_lat": 0.0, "lat": 38.9049625, "bike_id": "8749d4c2d03fa3ab05209180ecb7cddc", "fusion_lon": 0.0}, {"rental_uris": {"ios": "https://dc.lft.to/lastmile_qr_scan", "android": "https://dc.lft.to/lastmile_qr_scan"}, "type": "electric_bike", "name": "57557be6e16830212e5604cbe5f5bac8", "is_reserved": 0, "lon": -76.9806015, "is_disabled": 0, "fusion_lat": 0.0, "lat": 38.972499666666664, "bike_id": "57557be6e16830212e5604cbe5f5bac8", "fusion_lon": 0.0}, {"rental_uris": {"ios": "https://dc.lft.to/lastmile_qr_scan", "android": "https://dc.lft.to/lastmile_qr_scan"}, "type": "electric_scooter", "name": "ba5a97790dac95ef29af2149fe7cbdb6", "is_reserved": 0, "lon": -77.0397715, "is_disabled": 0, "fusion_lat": 0.0, "lat": 38.89221333333333, "bike_id": "ba5a97790dac95ef29af2149fe7cbdb6", "fusion_lon": 0.0}, {"rental_uris": {"ios": "https://dc.lft.to/lastmile_qr_scan", "android": "https://dc.lft.to/lastmile_qr_scan"}, "type": "electric_scooter", "name": "f3390ab9bbf0417f52501617a83926a4", "is_reserved": 0, "lon": -77.03989683333333, "is_disabled": 0, "fusion_lat": 0.0, "lat": 38.933987333333334, "bike_id": "f3390ab9bbf0417f52501617a83926a4", "fusion_lon": 0.0}, {"rental_uris": {"ios": "https://dc.lft.to/lastmile_qr_scan", "android": "https://dc.lft.to/lastmile_qr_scan"}, "type": "electric_scooter", "name": "dced3bd3d3db1d161e867574084a6e56", "is_reserved": 0, "lon": -77.0517085, "is_disabled": 0, "fusion_lat": 0.0, "lat": 38.9233855, "bike_id": "dced3bd3d3db1d161e867574084a6e56", "fusion_lon": 0.0}, {"rental_uris": {"ios": "https://dc.lft.to/lastmile_qr_scan", "android": "https://dc.lft.to/lastmile_qr_scan"}, "type": "electric_bike", "name": "4811bd89dfd1aefd50737fd7f523c75b", "is_reserved": 0, "lon": -77.234106, "is_disabled": 0, "fusion_lat": 0.0, "lat": 38.875774166666666, "bike_id": "4811bd89dfd1aefd50737fd7f523c75b", "fusion_lon": 0.0}, {"rental_uris": {"ios": "https://dc.lft.to/lastmile_qr_scan", "android": "https://dc.lft.to/lastmile_qr_scan"}, "type": "electric_scooter", "name": "3f727527d36178bcdf14769ebc2af01b", "is_reserved": 0, "lon": -77.0684365, "is_disabled": 0, "fusion_lat": 0.0, "lat": 38.917262, "bike_id": "3f727527d36178bcdf14769ebc2af01b", "fusion_lon": 0.0}, {"rental_uris": {"ios": "https://dc.lft.to/lastmile_qr_scan", "android": "https://dc.lft.to/lastmile_qr_scan"}, "type": "electric_scooter", "name": "93d8bff4a4a7597e3ec91129d4212354", "is_reserved": 0, "lon": -77.03108366666666, "is_disabled": 0, "fusion_lat": 0.0, "lat": 38.924768, "bike_id": "93d8bff4a4a7597e3ec91129d4212354", "fusion_lon": 0.0}, {"rental_uris": {"ios": "https://dc.lft.to/lastmile_qr_scan", "android": "https://dc.lft.to/lastmile_qr_scan"}, "type": "electric_bike", "name": "7e9f8bc85f8959ea35e88272cdc7e679", "is_reserved": 0, "lon": -77.02817483333334, "is_disabled": 0, "fusion_lat": 0.0, "lat": 38.89744183333333, "bike_id": "7e9f8bc85f8959ea35e88272cdc7e679", "fusion_lon": 0.0}, {"rental_uris": {"ios": "https://dc.lft.to/lastmile_qr_scan", "android": "https://dc.lft.to/lastmile_qr_scan"}, "type": "electric_scooter", "name": "040fe8c71a0b3aceeadc82a741d9f840", "is_reserved": 0, "lon": -77.023132, "is_disabled": 0, "fusion_lat": 0.0, "lat": 38.927159, "bike_id": "040fe8c71a0b3aceeadc82a741d9f840", "fusion_lon": 0.0}, {"rental_uris": {"ios": "https://dc.lft.to/lastmile_qr_scan", "android": "https://dc.lft.to/lastmile_qr_scan"}, "type": "electric_scooter", "name": "c0b1331b7d5110b0d3bf552a829be8cd", "is_reserved": 0, "lon": -77.0305995, "is_disabled": 0, "fusion_lat": 0.0, "lat": 38.919251333333335, "bike_id": "c0b1331b7d5110b0d3bf552a829be8cd", "fusion_lon": 0.0}, {"rental_uris": {"ios": "https://dc.lft.to/lastmile_qr_scan", "android": "https://dc.lft.to/lastmile_qr_scan"}, "type": "electric_scooter", "name": "3b003f99d3f9e3d8c04a796eadfc64f3", "is_reserved": 0, "lon": -76.97630816666667, "is_disabled": 0, "fusion_lat": 0.0, "lat": 38.90568616666667, "bike_id": "3b003f99d3f9e3d8c04a796eadfc64f3", "fusion_lon": 0.0}, {"rental_uris": {"ios": "https://dc.lft.to/lastmile_qr_scan", "android": "https://dc.lft.to/lastmile_qr_scan"}, "type": "electric_scooter", "name": "faaa6295e874cd542b6ab35520974972", "is_reserved": 0, "lon": -77.074052, "is_disabled": 0, "fusion_lat": 0.0, "lat": 38.96210283333333, "bike_id": "faaa6295e874cd542b6ab35520974972", "fusion_lon": 0.0}, {"rental_uris": {"ios": "https://dc.lft.to/lastmile_qr_scan", "android": "https://dc.lft.to/lastmile_qr_scan"}, "type": "electric_scooter", "name": "0a7c3f94215241b273baf12bc744f8dc", "is_reserved": 0, "lon": -77.07343933333334, "is_disabled": 0, "fusion_lat": 0.0, "lat": 38.943234833333335, "bike_id": "0a7c3f94215241b273baf12bc744f8dc", "fusion_lon": 0.0}, {"rental_uris": {"ios": "https://dc.lft.to/lastmile_qr_scan", "android": "https://dc.lft.to/lastmile_qr_scan"}, "type": "electric_scooter", "name": "f1da5afb1fca16e8b0f95174ae9388c8", "is_reserved": 0, "lon": -76.99872683333334, "is_disabled": 0, "fusion_lat": 0.0, "lat": 38.9002155, "bike_id": "f1da5afb1fca16e8b0f95174ae9388c8", "fusion_lon": 0.0}, {"rental_uris": {"ios": "https://dc.lft.to/lastmile_qr_scan", "android": "https://dc.lft.to/lastmile_qr_scan"}, "type": "electric_scooter", "name": "c645d8ba2fffd979022c43e8e9df794e", "is_reserved": 0, "lon": -77.01678183333334, "is_disabled": 0, "fusion_lat": 0.0, "lat": 38.91263583333333, "bike_id": "c645d8ba2fffd979022c43e8e9df794e", "fusion_lon": 0.0}, {"rental_uris": {"ios": "https://dc.lft.to/lastmile_qr_scan", "android": "https://dc.lft.to/lastmile_qr_scan"}, "type": "electric_scooter", "name": "4048a5ad057a63cfcd2cc890464245a3", "is_reserved": 0, "lon": -77.04228533333334, "is_disabled": 0, "fusion_lat": 0.0, "lat": 38.906435333333334, "bike_id": "4048a5ad057a63cfcd2cc890464245a3", "fusion_lon": 0.0}, {"rental_uris": {"ios": "https://dc.lft.to/lastmile_qr_scan", "android": "https://dc.lft.to/lastmile_qr_scan"}, "type": "electric_scooter", "name": "9c40cc0baa3eb742d29deaff79c5ffcb", "is_reserved": 0, "lon": -77.02821933333334, "is_disabled": 0, "fusion_lat": 0.0, "lat": 38.89732083333333, "bike_id": "9c40cc0baa3eb742d29deaff79c5ffcb", "fusion_lon": 0.0}, {"rental_uris": {"ios": "https://dc.lft.to/lastmile_qr_scan", "android": "https://dc.lft.to/lastmile_qr_scan"}, "type": "electric_scooter", "name": "46660158e0becddb4cf7780d11945492", "is_reserved": 0, "lon": -76.98355116666667, "is_disabled": 0, "fusion_lat": 0.0, "lat": 38.912546, "bike_id": "46660158e0becddb4cf7780d11945492", "fusion_lon": 0.0}, {"rental_uris": {"ios": "https://dc.lft.to/lastmile_qr_scan", "android": "https://dc.lft.to/lastmile_qr_scan"}, "type": "electric_scooter", "name": "3675ad89d11fda6afcdc9c68deb4b900", "is_reserved": 0, "lon": -77.03867566666666, "is_disabled": 0, "fusion_lat": 0.0, "lat": 38.9215055, "bike_id": "3675ad89d11fda6afcdc9c68deb4b900", "fusion_lon": 0.0}, {"rental_uris": {"ios": "https://dc.lft.to/lastmile_qr_scan", "android": "https://dc.lft.to/lastmile_qr_scan"}, "type": "electric_scooter", "name": "36e53e888ed86d9eec7dc1e540d82ecc", "is_reserved": 0, "lon": -77.0287745, "is_disabled": 0, "fusion_lat": 0.0, "lat": 38.92014566666667, "bike_id": "36e53e888ed86d9eec7dc1e540d82ecc", "fusion_lon": 0.0}, {"rental_uris": {"ios": "https://dc.lft.to/lastmile_qr_scan", "android": "https://dc.lft.to/lastmile_qr_scan"}, "type": "electric_scooter", "name": "391aa2be069b7839faf1d9348fda70dd", "is_reserved": 0, "lon": -77.03351716666667, "is_disabled": 0, "fusion_lat": 0.0, "lat": 38.892516, "bike_id": "391aa2be069b7839faf1d9348fda70dd", "fusion_lon": 0.0}, {"rental_uris": {"ios": "https://dc.lft.to/lastmile_qr_scan", "android": "https://dc.lft.to/lastmile_qr_scan"}, "type": "electric_scooter", "name": "4c2d3842241c1991e78b70cff5be9e66", "is_reserved": 0, "lon": -77.03026133333333, "is_disabled": 0, "fusion_lat": 0.0, "lat": 38.9223765, "bike_id": "4c2d3842241c1991e78b70cff5be9e66", "fusion_lon": 0.0}, {"rental_uris": {"ios": "https://dc.lft.to/lastmile_qr_scan", "android": "https://dc.lft.to/lastmile_qr_scan"}, "type": "electric_bike", "name": "706efcc72fbdca37efcb8786438c7bcd", "is_reserved": 0, "lon": -77.01231683333333, "is_disabled": 0, "fusion_lat": 0.0, "lat": 38.950805833333334, "bike_id": "706efcc72fbdca37efcb8786438c7bcd", "fusion_lon": 0.0}, {"rental_uris": {"ios": "https://dc.lft.to/lastmile_qr_scan", "android": "https://dc.lft.to/lastmile_qr_scan"}, "type": "electric_scooter", "name": "5a1f46401dab545a383c274eabd49dde", "is_reserved": 0, "lon": -77.02755583333334, "is_disabled": 0, "fusion_lat": 0.0, "lat": 38.90102233333333, "bike_id": "5a1f46401dab545a383c274eabd49dde", "fusion_lon": 0.0}, {"rental_uris": {"ios": "https://dc.lft.to/lastmile_qr_scan", "android": "https://dc.lft.to/lastmile_qr_scan"}, "type": "electric_scooter", "name": "0c7f7cf16f480859d2f7589e5d0dee8f", "is_reserved": 0, "lon": -77.0237825, "is_disabled": 0, "fusion_lat": 0.0, "lat": 38.9324915, "bike_id": "0c7f7cf16f480859d2f7589e5d0dee8f", "fusion_lon": 0.0}, {"rental_uris": {"ios": "https://dc.lft.to/lastmile_qr_scan", "android": "https://dc.lft.to/lastmile_qr_scan"}, "type": "electric_scooter", "name": "feb439d6facb1ddbc1d4b532a8cc3011", "is_reserved": 0, "lon": -77.0386145, "is_disabled": 0, "fusion_lat": 0.0, "lat": 38.91106833333333, "bike_id": "feb439d6facb1ddbc1d4b532a8cc3011", "fusion_lon": 0.0}, {"rental_uris": {"ios": "https://dc.lft.to/lastmile_qr_scan", "android": "https://dc.lft.to/lastmile_qr_scan"}, "type": "electric_scooter", "name": "9a82d16904b9db43887a5fd48aede31a", "is_reserved": 0, "lon": -77.01992233333333, "is_disabled": 0, "fusion_lat": 0.0, "lat": 38.900431166666664, "bike_id": "9a82d16904b9db43887a5fd48aede31a", "fusion_lon": 0.0}, {"rental_uris": {"ios": "https://dc.lft.to/lastmile_qr_scan", "android": "https://dc.lft.to/lastmile_qr_scan"}, "type": "electric_scooter", "name": "554ca5364c276611bdab9bed639be099", "is_reserved": 0, "lon": -77.04122216666667, "is_disabled": 0, "fusion_lat": 0.0, "lat": 38.9310035, "bike_id": "554ca5364c276611bdab9bed639be099", "fusion_lon": 0.0}, {"rental_uris": {"ios": "https://dc.lft.to/lastmile_qr_scan", "android": "https://dc.lft.to/lastmile_qr_scan"}, "type": "electric_scooter", "name": "2659230d0cb2261672e46fb4b8afaf3d", "is_reserved": 0, "lon": -76.98637516666666, "is_disabled": 0, "fusion_lat": 0.0, "lat": 38.8551225, "bike_id": "2659230d0cb2261672e46fb4b8afaf3d", "fusion_lon": 0.0}, {"rental_uris": {"ios": "https://dc.lft.to/lastmile_qr_scan", "android": "https://dc.lft.to/lastmile_qr_scan"}, "type": "electric_scooter", "name": "e468d8d1bc279b596a2551f4543ef3d3", "is_reserved": 0, "lon": -77.03162366666666, "is_disabled": 0, "fusion_lat": 0.0, "lat": 38.899674833333336, "bike_id": "e468d8d1bc279b596a2551f4543ef3d3", "fusion_lon": 0.0}, {"rental_uris": {"ios": "https://dc.lft.to/lastmile_qr_scan", "android": "https://dc.lft.to/lastmile_qr_scan"}, "type": "electric_scooter", "name": "95ef44c49f00b90795ad6a61b8af0431", "is_reserved": 0, "lon": -77.04340016666667, "is_disabled": 0, "fusion_lat": 0.0, "lat": 38.90772783333333, "bike_id": "95ef44c49f00b90795ad6a61b8af0431", "fusion_lon": 0.0}, {"rental_uris": {"ios": "https://dc.lft.to/lastmile_qr_scan", "android": "https://dc.lft.to/lastmile_qr_scan"}, "type": "electric_bike", "name": "bac8e14316b2b10e08993e7d172df297", "is_reserved": 0, "lon": -76.99727066666667, "is_disabled": 0, "fusion_lat": 0.0, "lat": 38.9984325, "bike_id": "bac8e14316b2b10e08993e7d172df297", "fusion_lon": 0.0}, {"rental_uris": {"ios": "https://dc.lft.to/lastmile_qr_scan", "android": "https://dc.lft.to/lastmile_qr_scan"}, "type": "electric_scooter", "name": "291af3be8464613cb82fddd385f026e3", "is_reserved": 0, "lon": -77.03258716666667, "is_disabled": 0, "fusion_lat": 0.0, "lat": 38.90447416666667, "bike_id": "291af3be8464613cb82fddd385f026e3", "fusion_lon": 0.0}, {"rental_uris": {"ios": "https://dc.lft.to/lastmile_qr_scan", "android": "https://dc.lft.to/lastmile_qr_scan"}, "type": "electric_scooter", "name": "160542eb7c650f761b699a13d151000f", "is_reserved": 0, "lon": -77.04754533333333, "is_disabled": 0, "fusion_lat": 0.0, "lat": 38.895888166666666, "bike_id": "160542eb7c650f761b699a13d151000f", "fusion_lon": 0.0}, {"rental_uris": {"ios": "https://dc.lft.to/lastmile_qr_scan", "android": "https://dc.lft.to/lastmile_qr_scan"}, "type": "electric_scooter", "name": "73ddb37f54d293d5d43cf0ca20e05814", "is_reserved": 0, "lon": -77.06865566666667, "is_disabled": 0, "fusion_lat": 0.0, "lat": 38.9528045, "bike_id": "73ddb37f54d293d5d43cf0ca20e05814", "fusion_lon": 0.0}, {"rental_uris": {"ios": "https://dc.lft.to/lastmile_qr_scan", "android": "https://dc.lft.to/lastmile_qr_scan"}, "type": "electric_scooter", "name": "995e78860a26d6b3c08a4f5acd56ab02", "is_reserved": 0, "lon": -77.066093, "is_disabled": 0, "fusion_lat": 0.0, "lat": 38.9110975, "bike_id": "995e78860a26d6b3c08a4f5acd56ab02", "fusion_lon": 0.0}, {"rental_uris": {"ios": "https://dc.lft.to/lastmile_qr_scan", "android": "https://dc.lft.to/lastmile_qr_scan"}, "type": "electric_scooter", "name": "13b3599c8e25f7c0255e67b4a45853f5", "is_reserved": 0, "lon": -77.036649, "is_disabled": 0, "fusion_lat": 0.0, "lat": 38.92099533333333, "bike_id": "13b3599c8e25f7c0255e67b4a45853f5", "fusion_lon": 0.0}, {"rental_uris": {"ios": "https://dc.lft.to/lastmile_qr_scan", "android": "https://dc.lft.to/lastmile_qr_scan"}, "type": "electric_scooter", "name": "c8e53d49defbc2ae578992b495f588bd", "is_reserved": 0, "lon": -77.05036383333334, "is_disabled": 0, "fusion_lat": 0.0, "lat": 38.92364766666667, "bike_id": "c8e53d49defbc2ae578992b495f588bd", "fusion_lon": 0.0}, {"rental_uris": {"ios": "https://dc.lft.to/lastmile_qr_scan", "android": "https://dc.lft.to/lastmile_qr_scan"}, "type": "electric_scooter", "name": "35181bbea2ebb7ae89ac0a4c4693877f", "is_reserved": 0, "lon": -77.05597066666667, "is_disabled": 0, "fusion_lat": 0.0, "lat": 38.89422533333333, "bike_id": "35181bbea2ebb7ae89ac0a4c4693877f", "fusion_lon": 0.0}, {"rental_uris": {"ios": "https://dc.lft.to/lastmile_qr_scan", "android": "https://dc.lft.to/lastmile_qr_scan"}, "type": "electric_scooter", "name": "e95786979a26f3d85a61bf7c13b5b75d", "is_reserved": 0, "lon": -77.02148816666667, "is_disabled": 0, "fusion_lat": 0.0, "lat": 38.91323666666667, "bike_id": "e95786979a26f3d85a61bf7c13b5b75d", "fusion_lon": 0.0}, {"rental_uris": {"ios": "https://dc.lft.to/lastmile_qr_scan", "android": "https://dc.lft.to/lastmile_qr_scan"}, "type": "electric_scooter", "name": "26b92f57b8ea0825225a5fde6cdf3e83", "is_reserved": 0, "lon": -77.01340666666667, "is_disabled": 0, "fusion_lat": 0.0, "lat": 38.881220166666665, "bike_id": "26b92f57b8ea0825225a5fde6cdf3e83", "fusion_lon": 0.0}, {"rental_uris": {"ios": "https://dc.lft.to/lastmile_qr_scan", "android": "https://dc.lft.to/lastmile_qr_scan"}, "type": "electric_scooter", "name": "ccadddfb90e3ef4652501db51cd7fb38", "is_reserved": 0, "lon": -77.014085, "is_disabled": 0, "fusion_lat": 0.0, "lat": 38.92833666666667, "bike_id": "ccadddfb90e3ef4652501db51cd7fb38", "fusion_lon": 0.0}, {"rental_uris": {"ios": "https://dc.lft.to/lastmile_qr_scan", "android": "https://dc.lft.to/lastmile_qr_scan"}, "type": "electric_scooter", "name": "42ed5818ae4ed2d03d1973f9ed05051b", "is_reserved": 0, "lon": -77.02042233333333, "is_disabled": 0, "fusion_lat": 0.0, "lat": 38.8986985, "bike_id": "42ed5818ae4ed2d03d1973f9ed05051b", "fusion_lon": 0.0}, {"rental_uris": {"ios": "https://dc.lft.to/lastmile_qr_scan", "android": "https://dc.lft.to/lastmile_qr_scan"}, "type": "electric_scooter", "name": "6c52b7592789e596aede6e9e201bdfb0", "is_reserved": 0, "lon": -76.96538066666666, "is_disabled": 0, "fusion_lat": 0.0, "lat": 38.9183685, "bike_id": "6c52b7592789e596aede6e9e201bdfb0", "fusion_lon": 0.0}, {"rental_uris": {"ios": "https://dc.lft.to/lastmile_qr_scan", "android": "https://dc.lft.to/lastmile_qr_scan"}, "type": "electric_scooter", "name": "371dc2cc6a2cfd2444115181cdfc1752", "is_reserved": 0, "lon": -77.03774266666667, "is_disabled": 0, "fusion_lat": 0.0, "lat": 38.9072545, "bike_id": "371dc2cc6a2cfd2444115181cdfc1752", "fusion_lon": 0.0}, {"rental_uris": {"ios": "https://dc.lft.to/lastmile_qr_scan", "android": "https://dc.lft.to/lastmile_qr_scan"}, "type": "electric_scooter", "name": "33b85bd78c646d3bb2d23ca46e9b2233", "is_reserved": 0, "lon": -77.03292933333333, "is_disabled": 0, "fusion_lat": 0.0, "lat": 38.924591, "bike_id": "33b85bd78c646d3bb2d23ca46e9b2233", "fusion_lon": 0.0}, {"rental_uris": {"ios": "https://dc.lft.to/lastmile_qr_scan", "android": "https://dc.lft.to/lastmile_qr_scan"}, "type": "electric_bike", "name": "c7f9a7adabb3be1a9946bc0de3222961", "is_reserved": 0, "lon": -77.0534475, "is_disabled": 0, "fusion_lat": 0.0, "lat": 38.834484, "bike_id": "c7f9a7adabb3be1a9946bc0de3222961", "fusion_lon": 0.0}, {"rental_uris": {"ios": "https://dc.lft.to/lastmile_qr_scan", "android": "https://dc.lft.to/lastmile_qr_scan"}, "type": "electric_scooter", "name": "7e10d9ba151fdb5ae63a6d90b6f17959", "is_reserved": 0, "lon": -77.03552233333333, "is_disabled": 0, "fusion_lat": 0.0, "lat": 38.917135333333334, "bike_id": "7e10d9ba151fdb5ae63a6d90b6f17959", "fusion_lon": 0.0}, {"rental_uris": {"ios": "https://dc.lft.to/lastmile_qr_scan", "android": "https://dc.lft.to/lastmile_qr_scan"}, "type": "electric_scooter", "name": "949a3b8a1315badb81bd51de65397517", "is_reserved": 0, "lon": -77.02256783333333, "is_disabled": 0, "fusion_lat": 0.0, "lat": 38.893655333333335, "bike_id": "949a3b8a1315badb81bd51de65397517", "fusion_lon": 0.0}, {"rental_uris": {"ios": "https://dc.lft.to/lastmile_qr_scan", "android": "https://dc.lft.to/lastmile_qr_scan"}, "type": "electric_bike", "name": "af8f28c262f005dddf7bcac5c0564ef3", "is_reserved": 0, "lon": -77.08316466666666, "is_disabled": 0, "fusion_lat": 0.0, "lat": 38.93346016666667, "bike_id": "af8f28c262f005dddf7bcac5c0564ef3", "fusion_lon": 0.0}, {"rental_uris": {"ios": "https://dc.lft.to/lastmile_qr_scan", "android": "https://dc.lft.to/lastmile_qr_scan"}, "type": "electric_scooter", "name": "5687fb1e1bc7c287d0d7f31bc6657d06", "is_reserved": 0, "lon": -77.04060016666666, "is_disabled": 0, "fusion_lat": 0.0, "lat": 38.918605166666666, "bike_id": "5687fb1e1bc7c287d0d7f31bc6657d06", "fusion_lon": 0.0}, {"rental_uris": {"ios": "https://dc.lft.to/lastmile_qr_scan", "android": "https://dc.lft.to/lastmile_qr_scan"}, "type": "electric_bike", "name": "a3f595c8c33d4b199a44b56419a70738", "is_reserved": 0, "lon": -76.9074065, "is_disabled": 0, "fusion_lat": 0.0, "lat": 38.89618016666667, "bike_id": "a3f595c8c33d4b199a44b56419a70738", "fusion_lon": 0.0}, {"rental_uris": {"ios": "https://dc.lft.to/lastmile_qr_scan", "android": "https://dc.lft.to/lastmile_qr_scan"}, "type": "electric_bike", "name": "42230fa8040f7ef2e05f6b09081b5dfa", "is_reserved": 0, "lon": -76.9954065, "is_disabled": 0, "fusion_lat": 0.0, "lat": 38.862149, "bike_id": "42230fa8040f7ef2e05f6b09081b5dfa", "fusion_lon": 0.0}, {"rental_uris": {"ios": "https://dc.lft.to/lastmile_qr_scan", "android": "https://dc.lft.to/lastmile_qr_scan"}, "type": "electric_scooter", "name": "43548b45b8598af2c3d20b9741cef771", "is_reserved": 0, "lon": -77.0302005, "is_disabled": 0, "fusion_lat": 0.0, "lat": 38.87845183333334, "bike_id": "43548b45b8598af2c3d20b9741cef771", "fusion_lon": 0.0}, {"rental_uris": {"ios": "https://dc.lft.to/lastmile_qr_scan", "android": "https://dc.lft.to/lastmile_qr_scan"}, "type": "electric_scooter", "name": "24df7b4799a389dcc5a018ea7550c452", "is_reserved": 0, "lon": -77.02985316666667, "is_disabled": 0, "fusion_lat": 0.0, "lat": 38.89734116666666, "bike_id": "24df7b4799a389dcc5a018ea7550c452", "fusion_lon": 0.0}, {"rental_uris": {"ios": "https://dc.lft.to/lastmile_qr_scan", "android": "https://dc.lft.to/lastmile_qr_scan"}, "type": "electric_scooter", "name": "51df30f4c02c7db2cc466f22573f854e", "is_reserved": 0, "lon": -77.03165233333333, "is_disabled": 0, "fusion_lat": 0.0, "lat": 38.91564566666667, "bike_id": "51df30f4c02c7db2cc466f22573f854e", "fusion_lon": 0.0}, {"rental_uris": {"ios": "https://dc.lft.to/lastmile_qr_scan", "android": "https://dc.lft.to/lastmile_qr_scan"}, "type": "electric_scooter", "name": "99c2579b86f61735781f17f7b4d2be07", "is_reserved": 0, "lon": -77.00733316666667, "is_disabled": 0, "fusion_lat": 0.0, "lat": 38.898938666666666, "bike_id": "99c2579b86f61735781f17f7b4d2be07", "fusion_lon": 0.0}, {"rental_uris": {"ios": "https://dc.lft.to/lastmile_qr_scan", "android": "https://dc.lft.to/lastmile_qr_scan"}, "type": "electric_scooter", "name": "13b31dbc015efe5b45d4032fc2398ff1", "is_reserved": 0, "lon": -77.05764083333334, "is_disabled": 0, "fusion_lat": 0.0, "lat": 38.924924, "bike_id": "13b31dbc015efe5b45d4032fc2398ff1", "fusion_lon": 0.0}, {"rental_uris": {"ios": "https://dc.lft.to/lastmile_qr_scan", "android": "https://dc.lft.to/lastmile_qr_scan"}, "type": "electric_scooter", "name": "90d28775c9500afff88ff8657a7a3302", "is_reserved": 0, "lon": -77.04350133333334, "is_disabled": 0, "fusion_lat": 0.0, "lat": 38.906247, "bike_id": "90d28775c9500afff88ff8657a7a3302", "fusion_lon": 0.0}, {"rental_uris": {"ios": "https://dc.lft.to/lastmile_qr_scan", "android": "https://dc.lft.to/lastmile_qr_scan"}, "type": "electric_scooter", "name": "b2fe82555f8ffb8dd3e745dcb755cc42", "is_reserved": 0, "lon": -77.01100883333334, "is_disabled": 0, "fusion_lat": 0.0, "lat": 38.8955595, "bike_id": "b2fe82555f8ffb8dd3e745dcb755cc42", "fusion_lon": 0.0}, {"rental_uris": {"ios": "https://dc.lft.to/lastmile_qr_scan", "android": "https://dc.lft.to/lastmile_qr_scan"}, "type": "electric_bike", "name": "b91c0a8cfe06b2d5ccc9fe2b1e3a227d", "is_reserved": 0, "lon": -77.012005, "is_disabled": 0, "fusion_lat": 0.0, "lat": 38.950683166666664, "bike_id": "b91c0a8cfe06b2d5ccc9fe2b1e3a227d", "fusion_lon": 0.0}, {"rental_uris": {"ios": "https://dc.lft.to/lastmile_qr_scan", "android": "https://dc.lft.to/lastmile_qr_scan"}, "type": "electric_scooter", "name": "93e024915dbc3dd9801c60a6a45a820a", "is_reserved": 0, "lon": -77.010952, "is_disabled": 0, "fusion_lat": 0.0, "lat": 38.90723166666667, "bike_id": "93e024915dbc3dd9801c60a6a45a820a", "fusion_lon": 0.0}, {"rental_uris": {"ios": "https://dc.lft.to/lastmile_qr_scan", "android": "https://dc.lft.to/lastmile_qr_scan"}, "type": "electric_scooter", "name": "18a643c4467efd23fc06d39759efd008", "is_reserved": 0, "lon": -77.03860733333333, "is_disabled": 0, "fusion_lat": 0.0, "lat": 38.9254005, "bike_id": "18a643c4467efd23fc06d39759efd008", "fusion_lon": 0.0}, {"rental_uris": {"ios": "https://dc.lft.to/lastmile_qr_scan", "android": "https://dc.lft.to/lastmile_qr_scan"}, "type": "electric_bike", "name": "b6da93add75844aff97fd4ec60766e3e", "is_reserved": 0, "lon": -76.98767266666667, "is_disabled": 0, "fusion_lat": 0.0, "lat": 38.857676, "bike_id": "b6da93add75844aff97fd4ec60766e3e", "fusion_lon": 0.0}, {"rental_uris": {"ios": "https://dc.lft.to/lastmile_qr_scan", "android": "https://dc.lft.to/lastmile_qr_scan"}, "type": "electric_scooter", "name": "747d22d6d66ab7af81c46ba59d8152f8", "is_reserved": 0, "lon": -77.04476666666666, "is_disabled": 0, "fusion_lat": 0.0, "lat": 38.900133333333336, "bike_id": "747d22d6d66ab7af81c46ba59d8152f8", "fusion_lon": 0.0}, {"rental_uris": {"ios": "https://dc.lft.to/lastmile_qr_scan", "android": "https://dc.lft.to/lastmile_qr_scan"}, "type": "electric_scooter", "name": "062038da268417ddfd6098ee2c5a292d", "is_reserved": 0, "lon": -77.0198095, "is_disabled": 0, "fusion_lat": 0.0, "lat": 38.887208333333334, "bike_id": "062038da268417ddfd6098ee2c5a292d", "fusion_lon": 0.0}, {"rental_uris": {"ios": "https://dc.lft.to/lastmile_qr_scan", "android": "https://dc.lft.to/lastmile_qr_scan"}, "type": "electric_scooter", "name": "16cafaa3f9911892ac135d98948fdf13", "is_reserved": 0, "lon": -77.02698816666667, "is_disabled": 0, "fusion_lat": 0.0, "lat": 38.895721333333334, "bike_id": "16cafaa3f9911892ac135d98948fdf13", "fusion_lon": 0.0}, {"rental_uris": {"ios": "https://dc.lft.to/lastmile_qr_scan", "android": "https://dc.lft.to/lastmile_qr_scan"}, "type": "electric_scooter", "name": "6932e06d401506cd5c81854f8d627cd1", "is_reserved": 0, "lon": -76.98375883333334, "is_disabled": 0, "fusion_lat": 0.0, "lat": 38.899707, "bike_id": "6932e06d401506cd5c81854f8d627cd1", "fusion_lon": 0.0}, {"rental_uris": {"ios": "https://dc.lft.to/lastmile_qr_scan", "android": "https://dc.lft.to/lastmile_qr_scan"}, "type": "electric_scooter", "name": "ff2ea1ef58d7fcac70354b2fc0c592c8", "is_reserved": 0, "lon": -77.03431333333333, "is_disabled": 0, "fusion_lat": 0.0, "lat": 38.908447333333335, "bike_id": "ff2ea1ef58d7fcac70354b2fc0c592c8", "fusion_lon": 0.0}, {"rental_uris": {"ios": "https://dc.lft.to/lastmile_qr_scan", "android": "https://dc.lft.to/lastmile_qr_scan"}, "type": "electric_scooter", "name": "c5d0234db36127cae7bd24eaf07d1f97", "is_reserved": 0, "lon": -77.04454016666666, "is_disabled": 0, "fusion_lat": 0.0, "lat": 38.924642166666665, "bike_id": "c5d0234db36127cae7bd24eaf07d1f97", "fusion_lon": 0.0}, {"rental_uris": {"ios": "https://dc.lft.to/lastmile_qr_scan", "android": "https://dc.lft.to/lastmile_qr_scan"}, "type": "electric_scooter", "name": "37fc690230de7aef80bd98f382a261e9", "is_reserved": 0, "lon": -76.997406, "is_disabled": 0, "fusion_lat": 0.0, "lat": 38.901234, "bike_id": "37fc690230de7aef80bd98f382a261e9", "fusion_lon": 0.0}, {"rental_uris": {"ios": "https://dc.lft.to/lastmile_qr_scan", "android": "https://dc.lft.to/lastmile_qr_scan"}, "type": "electric_scooter", "name": "821549b2e60eeedfe79234bb5e75e67f", "is_reserved": 0, "lon": -77.031619, "is_disabled": 0, "fusion_lat": 0.0, "lat": 38.89439866666667, "bike_id": "821549b2e60eeedfe79234bb5e75e67f", "fusion_lon": 0.0}, {"rental_uris": {"ios": "https://dc.lft.to/lastmile_qr_scan", "android": "https://dc.lft.to/lastmile_qr_scan"}, "type": "electric_scooter", "name": "e59585f27a50f2f96366a216b43b2f74", "is_reserved": 0, "lon": -77.02380816666667, "is_disabled": 0, "fusion_lat": 0.0, "lat": 38.9200815, "bike_id": "e59585f27a50f2f96366a216b43b2f74", "fusion_lon": 0.0}, {"rental_uris": {"ios": "https://dc.lft.to/lastmile_qr_scan", "android": "https://dc.lft.to/lastmile_qr_scan"}, "type": "electric_scooter", "name": "62145955aec2c7f47924fc78f6ebd2cb", "is_reserved": 0, "lon": -76.98357733333333, "is_disabled": 0, "fusion_lat": 0.0, "lat": 38.88746116666667, "bike_id": "62145955aec2c7f47924fc78f6ebd2cb", "fusion_lon": 0.0}, {"rental_uris": {"ios": "https://dc.lft.to/lastmile_qr_scan", "android": "https://dc.lft.to/lastmile_qr_scan"}, "type": "electric_scooter", "name": "03cebe12956840c59d14ad52c8369706", "is_reserved": 0, "lon": -77.04866083333333, "is_disabled": 0, "fusion_lat": 0.0, "lat": 38.9109675, "bike_id": "03cebe12956840c59d14ad52c8369706", "fusion_lon": 0.0}, {"rental_uris": {"ios": "https://dc.lft.to/lastmile_qr_scan", "android": "https://dc.lft.to/lastmile_qr_scan"}, "type": "electric_scooter", "name": "c06de8b6956dc2086bb291c3dfe8cfd8", "is_reserved": 0, "lon": -77.02707666666667, "is_disabled": 0, "fusion_lat": 0.0, "lat": 38.918172166666665, "bike_id": "c06de8b6956dc2086bb291c3dfe8cfd8", "fusion_lon": 0.0}, {"rental_uris": {"ios": "https://dc.lft.to/lastmile_qr_scan", "android": "https://dc.lft.to/lastmile_qr_scan"}, "type": "electric_scooter", "name": "683eb6fd914ff009ac3680de795d258a", "is_reserved": 0, "lon": -77.03649566666667, "is_disabled": 0, "fusion_lat": 0.0, "lat": 38.915651, "bike_id": "683eb6fd914ff009ac3680de795d258a", "fusion_lon": 0.0}, {"rental_uris": {"ios": "https://dc.lft.to/lastmile_qr_scan", "android": "https://dc.lft.to/lastmile_qr_scan"}, "type": "electric_bike", "name": "bace57ebcdd56273d268a1a7a46e37c9", "is_reserved": 0, "lon": -76.98687383333333, "is_disabled": 0, "fusion_lat": 0.0, "lat": 38.944735, "bike_id": "bace57ebcdd56273d268a1a7a46e37c9", "fusion_lon": 0.0}, {"rental_uris": {"ios": "https://dc.lft.to/lastmile_qr_scan", "android": "https://dc.lft.to/lastmile_qr_scan"}, "type": "electric_scooter", "name": "5c22ad0230fa34f4e6f57620e278b188", "is_reserved": 0, "lon": -77.02705033333334, "is_disabled": 0, "fusion_lat": 0.0, "lat": 38.905359, "bike_id": "5c22ad0230fa34f4e6f57620e278b188", "fusion_lon": 0.0}, {"rental_uris": {"ios": "https://dc.lft.to/lastmile_qr_scan", "android": "https://dc.lft.to/lastmile_qr_scan"}, "type": "electric_scooter", "name": "6f68f6666e0d7ce32836db2a859d92bb", "is_reserved": 0, "lon": -77.02349483333333, "is_disabled": 0, "fusion_lat": 0.0, "lat": 38.927078, "bike_id": "6f68f6666e0d7ce32836db2a859d92bb", "fusion_lon": 0.0}, {"rental_uris": {"ios": "https://dc.lft.to/lastmile_qr_scan", "android": "https://dc.lft.to/lastmile_qr_scan"}, "type": "electric_scooter", "name": "46b4b1412097e4e335232f8f2005c9f2", "is_reserved": 0, "lon": -76.99912183333333, "is_disabled": 0, "fusion_lat": 0.0, "lat": 38.93742983333333, "bike_id": "46b4b1412097e4e335232f8f2005c9f2", "fusion_lon": 0.0}, {"rental_uris": {"ios": "https://dc.lft.to/lastmile_qr_scan", "android": "https://dc.lft.to/lastmile_qr_scan"}, "type": "electric_scooter", "name": "dae9d9c30df654dfe6c1a51a46edcd1e", "is_reserved": 0, "lon": -76.99707316666667, "is_disabled": 0, "fusion_lat": 0.0, "lat": 38.8876195, "bike_id": "dae9d9c30df654dfe6c1a51a46edcd1e", "fusion_lon": 0.0}, {"rental_uris": {"ios": "https://dc.lft.to/lastmile_qr_scan", "android": "https://dc.lft.to/lastmile_qr_scan"}, "type": "electric_scooter", "name": "c01398caaa4c2aa0f6d59b2669757d9d", "is_reserved": 0, "lon": -77.00256533333334, "is_disabled": 0, "fusion_lat": 0.0, "lat": 38.894728666666666, "bike_id": "c01398caaa4c2aa0f6d59b2669757d9d", "fusion_lon": 0.0}, {"rental_uris": {"ios": "https://dc.lft.to/lastmile_qr_scan", "android": "https://dc.lft.to/lastmile_qr_scan"}, "type": "electric_scooter", "name": "3ac4bd81cd5d1006ebd80e0af3aaa81d", "is_reserved": 0, "lon": -77.01986633333334, "is_disabled": 0, "fusion_lat": 0.0, "lat": 38.89958216666667, "bike_id": "3ac4bd81cd5d1006ebd80e0af3aaa81d", "fusion_lon": 0.0}, {"rental_uris": {"ios": "https://dc.lft.to/lastmile_qr_scan", "android": "https://dc.lft.to/lastmile_qr_scan"}, "type": "electric_scooter", "name": "d4de26abb407e008dd4b6f4174c08dd6", "is_reserved": 0, "lon": -77.036245, "is_disabled": 0, "fusion_lat": 0.0, "lat": 38.903634833333335, "bike_id": "d4de26abb407e008dd4b6f4174c08dd6", "fusion_lon": 0.0}, {"rental_uris": {"ios": "https://dc.lft.to/lastmile_qr_scan", "android": "https://dc.lft.to/lastmile_qr_scan"}, "type": "electric_scooter", "name": "8febcd589f151969c27529afecfa5854", "is_reserved": 0, "lon": -76.983719, "is_disabled": 0, "fusion_lat": 0.0, "lat": 38.8926285, "bike_id": "8febcd589f151969c27529afecfa5854", "fusion_lon": 0.0}, {"rental_uris": {"ios": "https://dc.lft.to/lastmile_qr_scan", "android": "https://dc.lft.to/lastmile_qr_scan"}, "type": "electric_scooter", "name": "761e7c353818fb2363f86bbc6692389c", "is_reserved": 0, "lon": -77.03454883333333, "is_disabled": 0, "fusion_lat": 0.0, "lat": 38.908274666666664, "bike_id": "761e7c353818fb2363f86bbc6692389c", "fusion_lon": 0.0}, {"rental_uris": {"ios": "https://dc.lft.to/lastmile_qr_scan", "android": "https://dc.lft.to/lastmile_qr_scan"}, "type": "electric_scooter", "name": "4d1835f66004bc11ae7d9365e7ab4370", "is_reserved": 0, "lon": -77.02600633333333, "is_disabled": 0, "fusion_lat": 0.0, "lat": 38.90811766666667, "bike_id": "4d1835f66004bc11ae7d9365e7ab4370", "fusion_lon": 0.0}, {"rental_uris": {"ios": "https://dc.lft.to/lastmile_qr_scan", "android": "https://dc.lft.to/lastmile_qr_scan"}, "type": "electric_scooter", "name": "39deea842e9e8607da176afb5abbc93d", "is_reserved": 0, "lon": -77.07448983333333, "is_disabled": 0, "fusion_lat": 0.0, "lat": 38.93776966666667, "bike_id": "39deea842e9e8607da176afb5abbc93d", "fusion_lon": 0.0}, {"rental_uris": {"ios": "https://dc.lft.to/lastmile_qr_scan", "android": "https://dc.lft.to/lastmile_qr_scan"}, "type": "electric_scooter", "name": "fbe5e27c914422d46eac69d5bf5dca7d", "is_reserved": 0, "lon": -77.02910266666666, "is_disabled": 0, "fusion_lat": 0.0, "lat": 38.952978333333334, "bike_id": "fbe5e27c914422d46eac69d5bf5dca7d", "fusion_lon": 0.0}, {"rental_uris": {"ios": "https://dc.lft.to/lastmile_qr_scan", "android": "https://dc.lft.to/lastmile_qr_scan"}, "type": "electric_bike", "name": "f2535191a091b3e7315c48059ba6826a", "is_reserved": 0, "lon": -76.94224833333334, "is_disabled": 0, "fusion_lat": 0.0, "lat": 38.890474833333336, "bike_id": "f2535191a091b3e7315c48059ba6826a", "fusion_lon": 0.0}, {"rental_uris": {"ios": "https://dc.lft.to/lastmile_qr_scan", "android": "https://dc.lft.to/lastmile_qr_scan"}, "type": "electric_scooter", "name": "bf9bb0b5b4c1bf2e905c4a9d427189aa", "is_reserved": 0, "lon": -77.02079383333333, "is_disabled": 0, "fusion_lat": 0.0, "lat": 38.88188816666667, "bike_id": "bf9bb0b5b4c1bf2e905c4a9d427189aa", "fusion_lon": 0.0}, {"rental_uris": {"ios": "https://dc.lft.to/lastmile_qr_scan", "android": "https://dc.lft.to/lastmile_qr_scan"}, "type": "electric_scooter", "name": "62e1a69f9241a5e11b50cbd4752740e6", "is_reserved": 0, "lon": -77.04216183333334, "is_disabled": 0, "fusion_lat": 0.0, "lat": 38.92109333333333, "bike_id": "62e1a69f9241a5e11b50cbd4752740e6", "fusion_lon": 0.0}, {"rental_uris": {"ios": "https://dc.lft.to/lastmile_qr_scan", "android": "https://dc.lft.to/lastmile_qr_scan"}, "type": "electric_scooter", "name": "37d9382af68af9430b87efa15915a78e", "is_reserved": 0, "lon": -77.017642, "is_disabled": 0, "fusion_lat": 0.0, "lat": 38.87684633333333, "bike_id": "37d9382af68af9430b87efa15915a78e", "fusion_lon": 0.0}, {"rental_uris": {"ios": "https://dc.lft.to/lastmile_qr_scan", "android": "https://dc.lft.to/lastmile_qr_scan"}, "type": "electric_scooter", "name": "d6623ae342674d860f8d15acca18d566", "is_reserved": 0, "lon": -77.041808, "is_disabled": 0, "fusion_lat": 0.0, "lat": 38.92046833333333, "bike_id": "d6623ae342674d860f8d15acca18d566", "fusion_lon": 0.0}, {"rental_uris": {"ios": "https://dc.lft.to/lastmile_qr_scan", "android": "https://dc.lft.to/lastmile_qr_scan"}, "type": "electric_bike", "name": "f33747ef6a56b4a7bbf5c1f313c089c9", "is_reserved": 0, "lon": -77.066951, "is_disabled": 0, "fusion_lat": 0.0, "lat": 38.831675833333335, "bike_id": "f33747ef6a56b4a7bbf5c1f313c089c9", "fusion_lon": 0.0}, {"rental_uris": {"ios": "https://dc.lft.to/lastmile_qr_scan", "android": "https://dc.lft.to/lastmile_qr_scan"}, "type": "electric_scooter", "name": "d4fb6f048f24a0dd530989167693ef65", "is_reserved": 0, "lon": -77.0721355, "is_disabled": 0, "fusion_lat": 0.0, "lat": 38.898985833333334, "bike_id": "d4fb6f048f24a0dd530989167693ef65", "fusion_lon": 0.0}, {"rental_uris": {"ios": "https://dc.lft.to/lastmile_qr_scan", "android": "https://dc.lft.to/lastmile_qr_scan"}, "type": "electric_scooter", "name": "6ecc8e8bcf17dd5c043c648d172d0ffd", "is_reserved": 0, "lon": -77.03485383333333, "is_disabled": 0, "fusion_lat": 0.0, "lat": 38.920526333333335, "bike_id": "6ecc8e8bcf17dd5c043c648d172d0ffd", "fusion_lon": 0.0}, {"rental_uris": {"ios": "https://dc.lft.to/lastmile_qr_scan", "android": "https://dc.lft.to/lastmile_qr_scan"}, "type": "electric_scooter", "name": "ce8475c73fba3a8a88c76bbe1ea4c5d0", "is_reserved": 0, "lon": -77.04123833333334, "is_disabled": 0, "fusion_lat": 0.0, "lat": 38.91040866666667, "bike_id": "ce8475c73fba3a8a88c76bbe1ea4c5d0", "fusion_lon": 0.0}, {"rental_uris": {"ios": "https://dc.lft.to/lastmile_qr_scan", "android": "https://dc.lft.to/lastmile_qr_scan"}, "type": "electric_scooter", "name": "b6f4e808bab42dbf8967a70fc38a7ba0", "is_reserved": 0, "lon": -76.9977295, "is_disabled": 0, "fusion_lat": 0.0, "lat": 38.922875833333336, "bike_id": "b6f4e808bab42dbf8967a70fc38a7ba0", "fusion_lon": 0.0}, {"rental_uris": {"ios": "https://dc.lft.to/lastmile_qr_scan", "android": "https://dc.lft.to/lastmile_qr_scan"}, "type": "electric_scooter", "name": "d553ccc2ce5404f2b9cacd8e16e49fa4", "is_reserved": 0, "lon": -77.03835416666666, "is_disabled": 0, "fusion_lat": 0.0, "lat": 38.9099105, "bike_id": "d553ccc2ce5404f2b9cacd8e16e49fa4", "fusion_lon": 0.0}, {"rental_uris": {"ios": "https://dc.lft.to/lastmile_qr_scan", "android": "https://dc.lft.to/lastmile_qr_scan"}, "type": "electric_scooter", "name": "f90de1a8bccac1a1e622b15f12044a24", "is_reserved": 0, "lon": -76.97036016666667, "is_disabled": 0, "fusion_lat": 0.0, "lat": 38.873157666666664, "bike_id": "f90de1a8bccac1a1e622b15f12044a24", "fusion_lon": 0.0}, {"rental_uris": {"ios": "https://dc.lft.to/lastmile_qr_scan", "android": "https://dc.lft.to/lastmile_qr_scan"}, "type": "electric_scooter", "name": "a5c3c16a157a3835ebeeef43e8c0a558", "is_reserved": 0, "lon": -77.00760566666666, "is_disabled": 0, "fusion_lat": 0.0, "lat": 38.910203833333334, "bike_id": "a5c3c16a157a3835ebeeef43e8c0a558", "fusion_lon": 0.0}, {"rental_uris": {"ios": "https://dc.lft.to/lastmile_qr_scan", "android": "https://dc.lft.to/lastmile_qr_scan"}, "type": "electric_scooter", "name": "7ba78fa0ebf19fea79857e615b919804", "is_reserved": 0, "lon": -77.02782433333333, "is_disabled": 0, "fusion_lat": 0.0, "lat": 38.95613566666667, "bike_id": "7ba78fa0ebf19fea79857e615b919804", "fusion_lon": 0.0}, {"rental_uris": {"ios": "https://dc.lft.to/lastmile_qr_scan", "android": "https://dc.lft.to/lastmile_qr_scan"}, "type": "electric_scooter", "name": "71f42f9ab27c9983afab688670ab6105", "is_reserved": 0, "lon": -76.93741316666667, "is_disabled": 0, "fusion_lat": 0.0, "lat": 38.890028, "bike_id": "71f42f9ab27c9983afab688670ab6105", "fusion_lon": 0.0}, {"rental_uris": {"ios": "https://dc.lft.to/lastmile_qr_scan", "android": "https://dc.lft.to/lastmile_qr_scan"}, "type": "electric_scooter", "name": "2004e53f500767792929e5d3f9e1703b", "is_reserved": 0, "lon": -77.02808916666666, "is_disabled": 0, "fusion_lat": 0.0, "lat": 38.930795333333336, "bike_id": "2004e53f500767792929e5d3f9e1703b", "fusion_lon": 0.0}, {"rental_uris": {"ios": "https://dc.lft.to/lastmile_qr_scan", "android": "https://dc.lft.to/lastmile_qr_scan"}, "type": "electric_bike", "name": "1544ef708230f88eabc256d179cc0553", "is_reserved": 0, "lon": -77.04293866666667, "is_disabled": 0, "fusion_lat": 0.0, "lat": 39.03422466666667, "bike_id": "1544ef708230f88eabc256d179cc0553", "fusion_lon": 0.0}, {"rental_uris": {"ios": "https://dc.lft.to/lastmile_qr_scan", "android": "https://dc.lft.to/lastmile_qr_scan"}, "type": "electric_scooter", "name": "bdf8953d9430844037a34171c94ce477", "is_reserved": 0, "lon": -77.038351, "is_disabled": 0, "fusion_lat": 0.0, "lat": 38.911881, "bike_id": "bdf8953d9430844037a34171c94ce477", "fusion_lon": 0.0}, {"rental_uris": {"ios": "https://dc.lft.to/lastmile_qr_scan", "android": "https://dc.lft.to/lastmile_qr_scan"}, "type": "electric_scooter", "name": "413de618eb195d26b6cd1d43edda771e", "is_reserved": 0, "lon": -77.03449883333333, "is_disabled": 0, "fusion_lat": 0.0, "lat": 38.9107285, "bike_id": "413de618eb195d26b6cd1d43edda771e", "fusion_lon": 0.0}, {"rental_uris": {"ios": "https://dc.lft.to/lastmile_qr_scan", "android": "https://dc.lft.to/lastmile_qr_scan"}, "type": "electric_bike", "name": "fea89031d9992cd92693498913e38ccd", "is_reserved": 0, "lon": -77.11352166666667, "is_disabled": 0, "fusion_lat": 0.0, "lat": 38.84196516666667, "bike_id": "fea89031d9992cd92693498913e38ccd", "fusion_lon": 0.0}, {"rental_uris": {"ios": "https://dc.lft.to/lastmile_qr_scan", "android": "https://dc.lft.to/lastmile_qr_scan"}, "type": "electric_scooter", "name": "5fa2cc4e814d3e54751ad139e5dd993f", "is_reserved": 0, "lon": -76.97355816666666, "is_disabled": 0, "fusion_lat": 0.0, "lat": 38.8497775, "bike_id": "5fa2cc4e814d3e54751ad139e5dd993f", "fusion_lon": 0.0}, {"rental_uris": {"ios": "https://dc.lft.to/lastmile_qr_scan", "android": "https://dc.lft.to/lastmile_qr_scan"}, "type": "electric_scooter", "name": "d266fabee4985a54f0dd20bf17f9126e", "is_reserved": 0, "lon": -77.03597616666667, "is_disabled": 0, "fusion_lat": 0.0, "lat": 38.9169445, "bike_id": "d266fabee4985a54f0dd20bf17f9126e", "fusion_lon": 0.0}, {"rental_uris": {"ios": "https://dc.lft.to/lastmile_qr_scan", "android": "https://dc.lft.to/lastmile_qr_scan"}, "type": "electric_scooter", "name": "198a9528dd9f4fc79e053bb90949b2b5", "is_reserved": 0, "lon": -76.996834, "is_disabled": 0, "fusion_lat": 0.0, "lat": 38.899958833333336, "bike_id": "198a9528dd9f4fc79e053bb90949b2b5", "fusion_lon": 0.0}, {"rental_uris": {"ios": "https://dc.lft.to/lastmile_qr_scan", "android": "https://dc.lft.to/lastmile_qr_scan"}, "type": "electric_scooter", "name": "c40fb58d831affa5ffdb8ba0c42c5dc0", "is_reserved": 0, "lon": -77.03548616666667, "is_disabled": 0, "fusion_lat": 0.0, "lat": 38.908655333333336, "bike_id": "c40fb58d831affa5ffdb8ba0c42c5dc0", "fusion_lon": 0.0}, {"rental_uris": {"ios": "https://dc.lft.to/lastmile_qr_scan", "android": "https://dc.lft.to/lastmile_qr_scan"}, "type": "electric_scooter", "name": "dfb093cc0ef4eb48ccc3ec5e8c3fe5b3", "is_reserved": 0, "lon": -76.99348133333334, "is_disabled": 0, "fusion_lat": 0.0, "lat": 38.876898833333335, "bike_id": "dfb093cc0ef4eb48ccc3ec5e8c3fe5b3", "fusion_lon": 0.0}, {"rental_uris": {"ios": "https://dc.lft.to/lastmile_qr_scan", "android": "https://dc.lft.to/lastmile_qr_scan"}, "type": "electric_scooter", "name": "fb697c9daf489a8947ec4f7accd86109", "is_reserved": 0, "lon": -77.01889783333333, "is_disabled": 0, "fusion_lat": 0.0, "lat": 38.91317516666667, "bike_id": "fb697c9daf489a8947ec4f7accd86109", "fusion_lon": 0.0}, {"rental_uris": {"ios": "https://dc.lft.to/lastmile_qr_scan", "android": "https://dc.lft.to/lastmile_qr_scan"}, "type": "electric_scooter", "name": "bd16814e2ff9b2c29db8809782da91f4", "is_reserved": 0, "lon": -77.07450133333333, "is_disabled": 0, "fusion_lat": 0.0, "lat": 38.937817, "bike_id": "bd16814e2ff9b2c29db8809782da91f4", "fusion_lon": 0.0}, {"rental_uris": {"ios": "https://dc.lft.to/lastmile_qr_scan", "android": "https://dc.lft.to/lastmile_qr_scan"}, "type": "electric_scooter", "name": "0dad78b2eeed8bbc8e688c206d629d01", "is_reserved": 0, "lon": -77.01760316666666, "is_disabled": 0, "fusion_lat": 0.0, "lat": 38.8768755, "bike_id": "0dad78b2eeed8bbc8e688c206d629d01", "fusion_lon": 0.0}, {"rental_uris": {"ios": "https://dc.lft.to/lastmile_qr_scan", "android": "https://dc.lft.to/lastmile_qr_scan"}, "type": "electric_scooter", "name": "d3a6011448c297621c227b64eb466b87", "is_reserved": 0, "lon": -77.005442, "is_disabled": 0, "fusion_lat": 0.0, "lat": 38.87924833333334, "bike_id": "d3a6011448c297621c227b64eb466b87", "fusion_lon": 0.0}, {"rental_uris": {"ios": "https://dc.lft.to/lastmile_qr_scan", "android": "https://dc.lft.to/lastmile_qr_scan"}, "type": "electric_scooter", "name": "e5a593586bf5aae2db4552e8f2106a6d", "is_reserved": 0, "lon": -76.947158, "is_disabled": 0, "fusion_lat": 0.0, "lat": 38.890847, "bike_id": "e5a593586bf5aae2db4552e8f2106a6d", "fusion_lon": 0.0}, {"rental_uris": {"ios": "https://dc.lft.to/lastmile_qr_scan", "android": "https://dc.lft.to/lastmile_qr_scan"}, "type": "electric_scooter", "name": "06c4144a5410c80645c51935a260c18e", "is_reserved": 0, "lon": -76.98355933333333, "is_disabled": 0, "fusion_lat": 0.0, "lat": 38.88732483333333, "bike_id": "06c4144a5410c80645c51935a260c18e", "fusion_lon": 0.0}, {"rental_uris": {"ios": "https://dc.lft.to/lastmile_qr_scan", "android": "https://dc.lft.to/lastmile_qr_scan"}, "type": "electric_bike", "name": "fb11ba2140a042b2be52423de351c702", "is_reserved": 0, "lon": -77.08196116666667, "is_disabled": 0, "fusion_lat": 0.0, "lat": 38.922102333333335, "bike_id": "fb11ba2140a042b2be52423de351c702", "fusion_lon": 0.0}, {"rental_uris": {"ios": "https://dc.lft.to/lastmile_qr_scan", "android": "https://dc.lft.to/lastmile_qr_scan"}, "type": "electric_scooter", "name": "71120564f6701bd46e205b1e7a763385", "is_reserved": 0, "lon": -77.00245616666666, "is_disabled": 0, "fusion_lat": 0.0, "lat": 38.907963333333335, "bike_id": "71120564f6701bd46e205b1e7a763385", "fusion_lon": 0.0}, {"rental_uris": {"ios": "https://dc.lft.to/lastmile_qr_scan", "android": "https://dc.lft.to/lastmile_qr_scan"}, "type": "electric_bike", "name": "9f56cb8fad51a24c438316f9f4ca4b3f", "is_reserved": 0, "lon": -76.957445, "is_disabled": 0, "fusion_lat": 0.0, "lat": 38.888520666666665, "bike_id": "9f56cb8fad51a24c438316f9f4ca4b3f", "fusion_lon": 0.0}, {"rental_uris": {"ios": "https://dc.lft.to/lastmile_qr_scan", "android": "https://dc.lft.to/lastmile_qr_scan"}, "type": "electric_scooter", "name": "0fda95f0ccdb4f6f704611083401b649", "is_reserved": 0, "lon": -77.00516583333334, "is_disabled": 0, "fusion_lat": 0.0, "lat": 38.8967545, "bike_id": "0fda95f0ccdb4f6f704611083401b649", "fusion_lon": 0.0}, {"rental_uris": {"ios": "https://dc.lft.to/lastmile_qr_scan", "android": "https://dc.lft.to/lastmile_qr_scan"}, "type": "electric_scooter", "name": "2818513540a7cc56af2aea4ce5137d7b", "is_reserved": 0, "lon": -77.03065216666667, "is_disabled": 0, "fusion_lat": 0.0, "lat": 38.89729766666667, "bike_id": "2818513540a7cc56af2aea4ce5137d7b", "fusion_lon": 0.0}, {"rental_uris": {"ios": "https://dc.lft.to/lastmile_qr_scan", "android": "https://dc.lft.to/lastmile_qr_scan"}, "type": "electric_scooter", "name": "99776f8009f3067b31f4fd28b57686b4", "is_reserved": 0, "lon": -77.04357866666666, "is_disabled": 0, "fusion_lat": 0.0, "lat": 38.901327, "bike_id": "99776f8009f3067b31f4fd28b57686b4", "fusion_lon": 0.0}, {"rental_uris": {"ios": "https://dc.lft.to/lastmile_qr_scan", "android": "https://dc.lft.to/lastmile_qr_scan"}, "type": "electric_bike", "name": "4e43b1921cf6d342dc27ded26af1365e", "is_reserved": 0, "lon": -77.08973766666666, "is_disabled": 0, "fusion_lat": 0.0, "lat": 38.84104983333334, "bike_id": "4e43b1921cf6d342dc27ded26af1365e", "fusion_lon": 0.0}, {"rental_uris": {"ios": "https://dc.lft.to/lastmile_qr_scan", "android": "https://dc.lft.to/lastmile_qr_scan"}, "type": "electric_scooter", "name": "8677a95bb84a8026806d31177805eaea", "is_reserved": 0, "lon": -77.03832766666666, "is_disabled": 0, "fusion_lat": 0.0, "lat": 38.910048833333335, "bike_id": "8677a95bb84a8026806d31177805eaea", "fusion_lon": 0.0}, {"rental_uris": {"ios": "https://dc.lft.to/lastmile_qr_scan", "android": "https://dc.lft.to/lastmile_qr_scan"}, "type": "electric_scooter", "name": "5b31ffcb1c6643994607079bab5e29f5", "is_reserved": 0, "lon": -77.02848733333333, "is_disabled": 0, "fusion_lat": 0.0, "lat": 38.90449316666667, "bike_id": "5b31ffcb1c6643994607079bab5e29f5", "fusion_lon": 0.0}, {"rental_uris": {"ios": "https://dc.lft.to/lastmile_qr_scan", "android": "https://dc.lft.to/lastmile_qr_scan"}, "type": "electric_scooter", "name": "f46f745b5daf7d04b167804716aef7d9", "is_reserved": 0, "lon": -77.041675, "is_disabled": 0, "fusion_lat": 0.0, "lat": 38.90609033333333, "bike_id": "f46f745b5daf7d04b167804716aef7d9", "fusion_lon": 0.0}, {"rental_uris": {"ios": "https://dc.lft.to/lastmile_qr_scan", "android": "https://dc.lft.to/lastmile_qr_scan"}, "type": "electric_scooter", "name": "735cc9db23ec37519bf8427bacf8d2a3", "is_reserved": 0, "lon": -77.025548, "is_disabled": 0, "fusion_lat": 0.0, "lat": 38.91549833333333, "bike_id": "735cc9db23ec37519bf8427bacf8d2a3", "fusion_lon": 0.0}, {"rental_uris": {"ios": "https://dc.lft.to/lastmile_qr_scan", "android": "https://dc.lft.to/lastmile_qr_scan"}, "type": "electric_scooter", "name": "3e769d71a2bf0d7d37377af7e7885d0f", "is_reserved": 0, "lon": -77.03228766666666, "is_disabled": 0, "fusion_lat": 0.0, "lat": 38.91704, "bike_id": "3e769d71a2bf0d7d37377af7e7885d0f", "fusion_lon": 0.0}, {"rental_uris": {"ios": "https://dc.lft.to/lastmile_qr_scan", "android": "https://dc.lft.to/lastmile_qr_scan"}, "type": "electric_scooter", "name": "f81075cf9bb995abe8a3d8eb5f6500d6", "is_reserved": 0, "lon": -77.029679, "is_disabled": 0, "fusion_lat": 0.0, "lat": 38.916742, "bike_id": "f81075cf9bb995abe8a3d8eb5f6500d6", "fusion_lon": 0.0}, {"rental_uris": {"ios": "https://dc.lft.to/lastmile_qr_scan", "android": "https://dc.lft.to/lastmile_qr_scan"}, "type": "electric_scooter", "name": "1e1cf5ffe88420d067873ffaccf46752", "is_reserved": 0, "lon": -77.04189333333333, "is_disabled": 0, "fusion_lat": 0.0, "lat": 38.920551, "bike_id": "1e1cf5ffe88420d067873ffaccf46752", "fusion_lon": 0.0}, {"rental_uris": {"ios": "https://dc.lft.to/lastmile_qr_scan", "android": "https://dc.lft.to/lastmile_qr_scan"}, "type": "electric_scooter", "name": "94f0952a42ca81104bfca39d973b218b", "is_reserved": 0, "lon": -76.99477633333333, "is_disabled": 0, "fusion_lat": 0.0, "lat": 38.89991883333333, "bike_id": "94f0952a42ca81104bfca39d973b218b", "fusion_lon": 0.0}, {"rental_uris": {"ios": "https://dc.lft.to/lastmile_qr_scan", "android": "https://dc.lft.to/lastmile_qr_scan"}, "type": "electric_scooter", "name": "2c06101dddb23bb28ca570a8538392da", "is_reserved": 0, "lon": -76.94664033333333, "is_disabled": 0, "fusion_lat": 0.0, "lat": 38.898694, "bike_id": "2c06101dddb23bb28ca570a8538392da", "fusion_lon": 0.0}, {"rental_uris": {"ios": "https://dc.lft.to/lastmile_qr_scan", "android": "https://dc.lft.to/lastmile_qr_scan"}, "type": "electric_scooter", "name": "f77788f11f742b25cac598f3de382463", "is_reserved": 0, "lon": -77.0318555, "is_disabled": 0, "fusion_lat": 0.0, "lat": 38.913939666666664, "bike_id": "f77788f11f742b25cac598f3de382463", "fusion_lon": 0.0}, {"rental_uris": {"ios": "https://dc.lft.to/lastmile_qr_scan", "android": "https://dc.lft.to/lastmile_qr_scan"}, "type": "electric_scooter", "name": "9662a1d9df43678b8798e289c6fc7038", "is_reserved": 0, "lon": -77.0487595, "is_disabled": 0, "fusion_lat": 0.0, "lat": 38.9090625, "bike_id": "9662a1d9df43678b8798e289c6fc7038", "fusion_lon": 0.0}, {"rental_uris": {"ios": "https://dc.lft.to/lastmile_qr_scan", "android": "https://dc.lft.to/lastmile_qr_scan"}, "type": "electric_scooter", "name": "12b3a7f6a3d591a5ec5916d21d862b1b", "is_reserved": 0, "lon": -76.99895033333334, "is_disabled": 0, "fusion_lat": 0.0, "lat": 38.95290083333333, "bike_id": "12b3a7f6a3d591a5ec5916d21d862b1b", "fusion_lon": 0.0}, {"rental_uris": {"ios": "https://dc.lft.to/lastmile_qr_scan", "android": "https://dc.lft.to/lastmile_qr_scan"}, "type": "electric_scooter", "name": "aaeef9b75c15a7b1f01fb31f7bd11a3a", "is_reserved": 0, "lon": -77.04609116666667, "is_disabled": 0, "fusion_lat": 0.0, "lat": 38.90978333333334, "bike_id": "aaeef9b75c15a7b1f01fb31f7bd11a3a", "fusion_lon": 0.0}, {"rental_uris": {"ios": "https://dc.lft.to/lastmile_qr_scan", "android": "https://dc.lft.to/lastmile_qr_scan"}, "type": "electric_scooter", "name": "c11d94788214a4fed0ca2449d1551882", "is_reserved": 0, "lon": -77.023695, "is_disabled": 0, "fusion_lat": 0.0, "lat": 38.90216433333333, "bike_id": "c11d94788214a4fed0ca2449d1551882", "fusion_lon": 0.0}, {"rental_uris": {"ios": "https://dc.lft.to/lastmile_qr_scan", "android": "https://dc.lft.to/lastmile_qr_scan"}, "type": "electric_bike", "name": "55971862b2e3e58182ce23c160ee9f64", "is_reserved": 0, "lon": -76.99278116666666, "is_disabled": 0, "fusion_lat": 0.0, "lat": 38.972569666666665, "bike_id": "55971862b2e3e58182ce23c160ee9f64", "fusion_lon": 0.0}, {"rental_uris": {"ios": "https://dc.lft.to/lastmile_qr_scan", "android": "https://dc.lft.to/lastmile_qr_scan"}, "type": "electric_scooter", "name": "189250b96a71ce0e8d1be6a4188bf6f5", "is_reserved": 0, "lon": -77.02864733333334, "is_disabled": 0, "fusion_lat": 0.0, "lat": 38.913632666666665, "bike_id": "189250b96a71ce0e8d1be6a4188bf6f5", "fusion_lon": 0.0}, {"rental_uris": {"ios": "https://dc.lft.to/lastmile_qr_scan", "android": "https://dc.lft.to/lastmile_qr_scan"},