{"data": {"bikes": [{"name": "10548a7804aab9d51c6579c08cc35e6b", "fusion_lat": 0.0, "type": "electric_scooter", "lat": 38.89607433333333, "is_reserved": 0, "is_disabled": 0, "fusion_lon": 0.0, "bike_id": "10548a7804aab9d51c6579c08cc35e6b", "lon": -77.04679983333334, "rental_uris": {"ios": "https://dc.lft.to/lastmile_qr_scan", "android": "https://dc.lft.to/lastmile_qr_scan"}}, {"name": "1b1364b37021329902dd5561c25df116", "fusion_lat": 0.0, "type": "electric_scooter", "lat": 38.902248166666666, "is_reserved": 0, "is_disabled": 0, "fusion_lon": 0.0, "bike_id": "1b1364b37021329902dd5561c25df116", "lon": -77.046011, "rental_uris": {"ios": "https://dc.lft.to/lastmile_qr_scan", "android": "https://dc.lft.to/lastmile_qr_scan"}}, {"name": "c02666337ec315bea6fb80fd881add87", "fusion_lat": 0.0, "type": "electric_scooter", "lat": 38.92528016666667, "is_reserved": 0, "is_disabled": 0, "fusion_lon": 0.0, "bike_id": "c02666337ec315bea6fb80fd881add87", "lon": -77.03220333333333, "rental_uris": {"ios": "https://dc.lft.to/lastmile_qr_scan", "android": "https://dc.lft.to/lastmile_qr_scan"}}, {"name": "2ebf91505f9c74662a5791eb05618c26", "fusion_lat": 0.0, "type": "electric_scooter", "lat": 38.936897, "is_reserved": 0, "is_disabled": 0, "fusion_lon": 0.0, "bike_id": "2ebf91505f9c74662a5791eb05618c26", "lon": -77.03279616666667, "rental_uris": {"ios": "https://dc.lft.to/lastmile_qr_scan", "android": "https://dc.lft.to/lastmile_qr_scan"}}, {"name": "5469fe150c990f68b99a9ab002d76b5f", "fusion_lat": 0.0, "type": "electric_scooter", "lat": 38.896555, "is_reserved": 0, "is_disabled": 0, "fusion_lon": 0.0, "bike_id": "5469fe150c990f68b99a9ab002d76b5f", "lon": -77.050384, "rental_uris": {"ios": "https://dc.lft.to/lastmile_qr_scan", "android": "https://dc.lft.to/lastmile_qr_scan"}}, {"name": "4aca00108c247a691fa2f758ce3a721a", "fusion_lat": 0.0, "type": "electric_scooter", "lat": 38.98495883333333, "is_reserved": 0, "is_disabled": 0, "fusion_lon": 0.0, "bike_id": "4aca00108c247a691fa2f758ce3a721a", "lon": -77.02645983333333, "rental_uris": {"ios": "https://dc.lft.to/lastmile_qr_scan", "android": "https://dc.lft.to/lastmile_qr_scan"}}, {"name": "de225ae87e76e2158028a4e471704a2f", "fusion_lat": 0.0, "type": "electric_bike", "lat": 38.850640166666665, "is_reserved": 0, "is_disabled": 0, "fusion_lon": 0.0, "bike_id": "de225ae87e76e2158028a4e471704a2f", "lon": -76.973316, "rental_uris": {"ios": "https://dc.lft.to/lastmile_qr_scan", "android": "https://dc.lft.to/lastmile_qr_scan"}}, {"name": "8b174f13280971d732d3fe4d939b68a0", "fusion_lat": 0.0, "type": "electric_scooter", "lat": 38.907607666666664, "is_reserved": 0, "is_disabled": 0, "fusion_lon": 0.0, "bike_id": "8b174f13280971d732d3fe4d939b68a0", "lon": -77.035852, "rental_uris": {"ios": "https://dc.lft.to/lastmile_qr_scan", "android": "https://dc.lft.to/lastmile_qr_scan"}}, {"name": "6154ec49cfeec471c90610217c98668c", "fusion_lat": 0.0, "type": "electric_scooter", "lat": 38.92018016666667, "is_reserved": 0, "is_disabled": 0, "fusion_lon": 0.0, "bike_id": "6154ec49cfeec471c90610217c98668c", "lon": -77.0347245, "rental_uris": {"ios": "https://dc.lft.to/lastmile_qr_scan", "android": "https://dc.lft.to/lastmile_qr_scan"}}, {"name": "48d51467d99e6c44d36ea19b0ad35de4", "fusion_lat": 0.0, "type": "electric_scooter", "lat": 38.96173266666667, "is_reserved": 0, "is_disabled": 0, "fusion_lon": 0.0, "bike_id": "48d51467d99e6c44d36ea19b0ad35de4", "lon": -77.03226016666666, "rental_uris": {"ios": "https://dc.lft.to/lastmile_qr_scan", "android": "https://dc.lft.to/lastmile_qr_scan"}}, {"name": "da3bea872174ae8227f1b1779f57ce53", "fusion_lat": 0.0, "type": "electric_scooter", "lat": 38.9072085, "is_reserved": 0, "is_disabled": 0, "fusion_lon": 0.0, "bike_id": "da3bea872174ae8227f1b1779f57ce53", "lon": -77.03202616666667, "rental_uris": {"ios": "https://dc.lft.to/lastmile_qr_scan", "android": "https://dc.lft.to/lastmile_qr_scan"}}, {"name": "cdf1c667f54777a36cc5e1bb4dd1c0f9", "fusion_lat": 0.0, "type": "electric_scooter", "lat": 38.9015425, "is_reserved": 0, "is_disabled": 0, "fusion_lon": 0.0, "bike_id": "cdf1c667f54777a36cc5e1bb4dd1c0f9", "lon": -77.05397033333334, "rental_uris": {"ios": "https://dc.lft.to/lastmile_qr_scan", "android": "https://dc.lft.to/lastmile_qr_scan"}}, {"name": "6df75839dee18f9eaea64631cbe18149", "fusion_lat": 0.0, "type": "electric_bike", "lat": 39.06130366666667, "is_reserved": 0, "is_disabled": 0, "fusion_lon": 0.0, "bike_id": "6df75839dee18f9eaea64631cbe18149", "lon": -77.05064166666666, "rental_uris": {"ios": "https://dc.lft.to/lastmile_qr_scan", "android": "https://dc.lft.to/lastmile_qr_scan"}}, {"name": "68afc81e0fd70200d4a1432f8e72ab75", "fusion_lat": 0.0, "type": "electric_scooter", "lat": 38.905340333333335, "is_reserved": 0, "is_disabled": 0, "fusion_lon": 0.0, "bike_id": "68afc81e0fd70200d4a1432f8e72ab75", "lon": -77.06269033333334, "rental_uris": {"ios": "https://dc.lft.to/lastmile_qr_scan", "android": "https://dc.lft.to/lastmile_qr_scan"}}, {"name": "8aa83efd33f023f76a9e36e3f4bd1cb4", "fusion_lat": 0.0, "type": "electric_scooter", "lat": 38.9388785, "is_reserved": 0, "is_disabled": 0, "fusion_lon": 0.0, "bike_id": "8aa83efd33f023f76a9e36e3f4bd1cb4", "lon": -77.03259583333333, "rental_uris": {"ios": "https://dc.lft.to/lastmile_qr_scan", "android": "https://dc.lft.to/lastmile_qr_scan"}}, {"name": "56b2eebd485c5f7101d64c088b1b9865", "fusion_lat": 0.0, "type": "electric_scooter", "lat": 38.9180625, "is_reserved": 0, "is_disabled": 0, "fusion_lon": 0.0, "bike_id": "56b2eebd485c5f7101d64c088b1b9865", "lon": -77.0101415, "rental_uris": {"ios": "https://dc.lft.to/lastmile_qr_scan", "android": "https://dc.lft.to/lastmile_qr_scan"}}, {"name": "1b5a16d36362a5cab685fd5b394cbf18", "fusion_lat": 0.0, "type": "electric_scooter", "lat": 38.93902966666667, "is_reserved": 0, "is_disabled": 0, "fusion_lon": 0.0, "bike_id": "1b5a16d36362a5cab685fd5b394cbf18", "lon": -77.06042116666667, "rental_uris": {"ios": "https://dc.lft.to/lastmile_qr_scan", "android": "https://dc.lft.to/lastmile_qr_scan"}}, {"name": "2cb0eacf1caff4d38d2550a0baa9a39a", "fusion_lat": 0.0, "type": "electric_scooter", "lat": 38.910071, "is_reserved": 0, "is_disabled": 0, "fusion_lon": 0.0, "bike_id": "2cb0eacf1caff4d38d2550a0baa9a39a", "lon": -76.996822, "rental_uris": {"ios": "https://dc.lft.to/lastmile_qr_scan", "android": "https://dc.lft.to/lastmile_qr_scan"}}, {"name": "f7f766572413eca3450e7a6979cd9ff5", "fusion_lat": 0.0, "type": "electric_scooter", "lat": 38.93706266666667, "is_reserved": 0, "is_disabled": 0, "fusion_lon": 0.0, "bike_id": "f7f766572413eca3450e7a6979cd9ff5", "lon": -77.06101083333333, "rental_uris": {"ios": "https://dc.lft.to/lastmile_qr_scan", "android": "https://dc.lft.to/lastmile_qr_scan"}}, {"name": "0b4e86020dc4747c4dc648784dcc01ab", "fusion_lat": 0.0, "type": "electric_scooter", "lat": 38.900347333333336, "is_reserved": 0, "is_disabled": 0, "fusion_lon": 0.0, "bike_id": "0b4e86020dc4747c4dc648784dcc01ab", "lon": -77.04854366666666, "rental_uris": {"ios": "https://dc.lft.to/lastmile_qr_scan", "android": "https://dc.lft.to/lastmile_qr_scan"}}, {"name": "92b263e4c12bbea334c8f0eb2a508cc3", "fusion_lat": 0.0, "type": "electric_scooter", "lat": 38.93429916666667, "is_reserved": 0, "is_disabled": 0, "fusion_lon": 0.0, "bike_id": "92b263e4c12bbea334c8f0eb2a508cc3", "lon": -77.02724883333333, "rental_uris": {"ios": "https://dc.lft.to/lastmile_qr_scan", "android": "https://dc.lft.to/lastmile_qr_scan"}}, {"name": "c7555b78325a67c4eb98e4e3181a233c", "fusion_lat": 0.0, "type": "electric_bike", "lat": 38.88407466666666, "is_reserved": 0, "is_disabled": 0, "fusion_lon": 0.0, "bike_id": "c7555b78325a67c4eb98e4e3181a233c", "lon": -76.9605495, "rental_uris": {"ios": "https://dc.lft.to/lastmile_qr_scan", "android": "https://dc.lft.to/lastmile_qr_scan"}}, {"name": "fb7a8cdbb62ebedcd961a5a056b662d9", "fusion_lat": 0.0, "type": "electric_scooter", "lat": 38.900317333333334, "is_reserved": 0, "is_disabled": 0, "fusion_lon": 0.0, "bike_id": "fb7a8cdbb62ebedcd961a5a056b662d9", "lon": -76.98837883333333, "rental_uris": {"ios": "https://dc.lft.to/lastmile_qr_scan", "android": "https://dc.lft.to/lastmile_qr_scan"}}, {"name": "9b8eaf76d470e98e2f729c729ab93641", "fusion_lat": 0.0, "type": "electric_scooter", "lat": 38.86243533333333, "is_reserved": 0, "is_disabled": 0, "fusion_lon": 0.0, "bike_id": "9b8eaf76d470e98e2f729c729ab93641", "lon": -76.99493633333333, "rental_uris": {"ios": "https://dc.lft.to/lastmile_qr_scan", "android": "https://dc.lft.to/lastmile_qr_scan"}}, {"name": "e6eafe10e4b58e1addb4e23682a9216a", "fusion_lat": 0.0, "type": "electric_scooter", "lat": 38.898445333333335, "is_reserved": 0, "is_disabled": 0, "fusion_lon": 0.0, "bike_id": "e6eafe10e4b58e1addb4e23682a9216a", "lon": -77.03324933333333, "rental_uris": {"ios": "https://dc.lft.to/lastmile_qr_scan", "android": "https://dc.lft.to/lastmile_qr_scan"}}, {"name": "062dc4f0c8853374dbd4c42a40f01e77", "fusion_lat": 0.0, "type": "electric_bike", "lat": 38.88592283333333, "is_reserved": 0, "is_disabled": 0, "fusion_lon": 0.0, "bike_id": "062dc4f0c8853374dbd4c42a40f01e77", "lon": -77.00063616666667, "rental_uris": {"ios": "https://dc.lft.to/lastmile_qr_scan", "android": "https://dc.lft.to/lastmile_qr_scan"}}, {"name": "c9cdcc0514f9c816279acf146a4d7112", "fusion_lat": 0.0, "type": "electric_scooter", "lat": 38.90500466666667, "is_reserved": 0, "is_disabled": 0, "fusion_lon": 0.0, "bike_id": "c9cdcc0514f9c816279acf146a4d7112", "lon": -77.06938116666667, "rental_uris": {"ios": "https://dc.lft.to/lastmile_qr_scan", "android": "https://dc.lft.to/lastmile_qr_scan"}}, {"name": "c9d8c5a8a3e194c022cc8a2b4b565e50", "fusion_lat": 0.0, "type": "electric_scooter", "lat": 38.93110816666667, "is_reserved": 0, "is_disabled": 0, "fusion_lon": 0.0, "bike_id": "c9d8c5a8a3e194c022cc8a2b4b565e50", "lon": -77.0384125, "rental_uris": {"ios": "https://dc.lft.to/lastmile_qr_scan", "android": "https://dc.lft.to/lastmile_qr_scan"}}, {"name": "af01e5d87813fd5e05650f1bbb401f0b", "fusion_lat": 0.0, "type": "electric_scooter", "lat": 38.905134833333335, "is_reserved": 0, "is_disabled": 0, "fusion_lon": 0.0, "bike_id": "af01e5d87813fd5e05650f1bbb401f0b", "lon": -77.02958783333334, "rental_uris": {"ios": "https://dc.lft.to/lastmile_qr_scan", "android": "https://dc.lft.to/lastmile_qr_scan"}}, {"name": "722660fe8a53852bbe42424420a23f2f", "fusion_lat": 0.0, "type": "electric_scooter", "lat": 38.91104283333333, "is_reserved": 0, "is_disabled": 0, "fusion_lon": 0.0, "bike_id": "722660fe8a53852bbe42424420a23f2f", "lon": -77.01059966666666, "rental_uris": {"ios": "https://dc.lft.to/lastmile_qr_scan", "android": "https://dc.lft.to/lastmile_qr_scan"}}, {"name": "2c23ff68457573df0077bd0914599432", "fusion_lat": 0.0, "type": "electric_scooter", "lat": 38.917799333333335, "is_reserved": 0, "is_disabled": 0, "fusion_lon": 0.0, "bike_id": "2c23ff68457573df0077bd0914599432", "lon": -77.02340733333334, "rental_uris": {"ios": "https://dc.lft.to/lastmile_qr_scan", "android": "https://dc.lft.to/lastmile_qr_scan"}}, {"name": "5a1b5dd0788268984be17e2ef6d3e4da", "fusion_lat": 0.0, "type": "electric_scooter", "lat": 38.939369166666665, "is_reserved": 0, "is_disabled": 0, "fusion_lon": 0.0, "bike_id": "5a1b5dd0788268984be17e2ef6d3e4da", "lon": -77.03615916666666, "rental_uris": {"ios": "https://dc.lft.to/lastmile_qr_scan", "android": "https://dc.lft.to/lastmile_qr_scan"}}, {"name": "301c0a409313793d76f2f6b0ec46031c", "fusion_lat": 0.0, "type": "electric_scooter", "lat": 38.911908833333335, "is_reserved": 0, "is_disabled": 0, "fusion_lon": 0.0, "bike_id": "301c0a409313793d76f2f6b0ec46031c", "lon": -77.007284, "rental_uris": {"ios": "https://dc.lft.to/lastmile_qr_scan", "android": "https://dc.lft.to/lastmile_qr_scan"}}, {"name": "13b30aff0236466aaed2de6563531b71", "fusion_lat": 0.0, "type": "electric_bike", "lat": 38.935450333333335, "is_reserved": 0, "is_disabled": 0, "fusion_lon": 0.0, "bike_id": "13b30aff0236466aaed2de6563531b71", "lon": -77.08240566666667, "rental_uris": {"ios": "https://dc.lft.to/lastmile_qr_scan", "android": "https://dc.lft.to/lastmile_qr_scan"}}, {"name": "77958e69f90ffe963f6ae93db5214148", "fusion_lat": 0.0, "type": "electric_scooter", "lat": 38.910440666666666, "is_reserved": 0, "is_disabled": 0, "fusion_lon": 0.0, "bike_id": "77958e69f90ffe963f6ae93db5214148", "lon": -77.04129666666667, "rental_uris": {"ios": "https://dc.lft.to/lastmile_qr_scan", "android": "https://dc.lft.to/lastmile_qr_scan"}}, {"name": "4f549e84fb4e1d7564990cfbc070cf6d", "fusion_lat": 0.0, "type": "electric_scooter", "lat": 38.90682183333333, "is_reserved": 0, "is_disabled": 0, "fusion_lon": 0.0, "bike_id": "4f549e84fb4e1d7564990cfbc070cf6d", "lon": -76.98000616666667, "rental_uris": {"ios": "https://dc.lft.to/lastmile_qr_scan", "android": "https://dc.lft.to/lastmile_qr_scan"}}, {"name": "a9eb3cad80fea8665495c36a37511e3c", "fusion_lat": 0.0, "type": "electric_scooter", "lat": 38.91153966666667, "is_reserved": 0, "is_disabled": 0, "fusion_lon": 0.0, "bike_id": "a9eb3cad80fea8665495c36a37511e3c", "lon": -77.0199115, "rental_uris": {"ios": "https://dc.lft.to/lastmile_qr_scan", "android": "https://dc.lft.to/lastmile_qr_scan"}}, {"name": "caefe526c001afe762ef734901ec5376", "fusion_lat": 0.0, "type": "electric_scooter", "lat": 38.92240616666667, "is_reserved": 0, "is_disabled": 0, "fusion_lon": 0.0, "bike_id": "caefe526c001afe762ef734901ec5376", "lon": -77.07310766666667, "rental_uris": {"ios": "https://dc.lft.to/lastmile_qr_scan", "android": "https://dc.lft.to/lastmile_qr_scan"}}, {"name": "1bb19044fe0295602e6abbc2ec0b6fac", "fusion_lat": 0.0, "type": "electric_scooter", "lat": 38.927294833333335, "is_reserved": 0, "is_disabled": 0, "fusion_lon": 0.0, "bike_id": "1bb19044fe0295602e6abbc2ec0b6fac", "lon": -77.035242, "rental_uris": {"ios": "https://dc.lft.to/lastmile_qr_scan", "android": "https://dc.lft.to/lastmile_qr_scan"}}, {"name": "bf3dba438fe98bcb8d1d243385b73d15", "fusion_lat": 0.0, "type": "electric_scooter", "lat": 38.8976915, "is_reserved": 0, "is_disabled": 0, "fusion_lon": 0.0, "bike_id": "bf3dba438fe98bcb8d1d243385b73d15", "lon": -77.05158833333333, "rental_uris": {"ios": "https://dc.lft.to/lastmile_qr_scan", "android": "https://dc.lft.to/lastmile_qr_scan"}}, {"name": "6e2e3e7365fae78f26fd7ccf562f1327", "fusion_lat": 0.0, "type": "electric_scooter", "lat": 38.9132985, "is_reserved": 0, "is_disabled": 0, "fusion_lon": 0.0, "bike_id": "6e2e3e7365fae78f26fd7ccf562f1327", "lon": -77.03186233333334, "rental_uris": {"ios": "https://dc.lft.to/lastmile_qr_scan", "android": "https://dc.lft.to/lastmile_qr_scan"}}, {"name": "73acb973b90db4db0a0075c784858937", "fusion_lat": 0.0, "type": "electric_scooter", "lat": 38.917161, "is_reserved": 0, "is_disabled": 0, "fusion_lon": 0.0, "bike_id": "73acb973b90db4db0a0075c784858937", "lon": -77.02897316666666, "rental_uris": {"ios": "https://dc.lft.to/lastmile_qr_scan", "android": "https://dc.lft.to/lastmile_qr_scan"}}, {"name": "74ced753a73abdb72dd6977ddc4f52a9", "fusion_lat": 0.0, "type": "electric_scooter", "lat": 38.90262333333333, "is_reserved": 0, "is_disabled": 0, "fusion_lon": 0.0, "bike_id": "74ced753a73abdb72dd6977ddc4f52a9", "lon": -77.017488, "rental_uris": {"ios": "https://dc.lft.to/lastmile_qr_scan", "android": "https://dc.lft.to/lastmile_qr_scan"}}, {"name": "4bd8a5f4ca8366611b2e6518891a0e9f", "fusion_lat": 0.0, "type": "electric_scooter", "lat": 38.87836266666667, "is_reserved": 0, "is_disabled": 0, "fusion_lon": 0.0, "bike_id": "4bd8a5f4ca8366611b2e6518891a0e9f", "lon": -77.00035433333333, "rental_uris": {"ios": "https://dc.lft.to/lastmile_qr_scan", "android": "https://dc.lft.to/lastmile_qr_scan"}}, {"name": "966f27cc19a755638969e91aeabe0bdd", "fusion_lat": 0.0, "type": "electric_scooter", "lat": 38.920901, "is_reserved": 0, "is_disabled": 0, "fusion_lon": 0.0, "bike_id": "966f27cc19a755638969e91aeabe0bdd", "lon": -77.07562416666667, "rental_uris": {"ios": "https://dc.lft.to/lastmile_qr_scan", "android": "https://dc.lft.to/lastmile_qr_scan"}}, {"name": "13a61aced1324257a82f0810380e5042", "fusion_lat": 0.0, "type": "electric_scooter", "lat": 38.901388833333336, "is_reserved": 0, "is_disabled": 0, "fusion_lon": 0.0, "bike_id": "13a61aced1324257a82f0810380e5042", "lon": -77.0321675, "rental_uris": {"ios": "https://dc.lft.to/lastmile_qr_scan", "android": "https://dc.lft.to/lastmile_qr_scan"}}, {"name": "f90a1e006a6f1f7a1b4c28d25b963c33", "fusion_lat": 0.0, "type": "electric_scooter", "lat": 38.91139183333333, "is_reserved": 0, "is_disabled": 0, "fusion_lon": 0.0, "bike_id": "f90a1e006a6f1f7a1b4c28d25b963c33", "lon": -77.01682216666667, "rental_uris": {"ios": "https://dc.lft.to/lastmile_qr_scan", "android": "https://dc.lft.to/lastmile_qr_scan"}}, {"name": "a49c3cda0576bd1a459dd66e7ebd7a0b", "fusion_lat": 0.0, "type": "electric_scooter", "lat": 38.88409383333333, "is_reserved": 0, "is_disabled": 0, "fusion_lon": 0.0, "bike_id": "a49c3cda0576bd1a459dd66e7ebd7a0b", "lon": -77.0174805, "rental_uris": {"ios": "https://dc.lft.to/lastmile_qr_scan", "android": "https://dc.lft.to/lastmile_qr_scan"}}, {"name": "6f1fe927547f9aa948f79977760a8573", "fusion_lat": 0.0, "type": "electric_scooter", "lat": 38.92940883333333, "is_reserved": 0, "is_disabled": 0, "fusion_lon": 0.0, "bike_id": "6f1fe927547f9aa948f79977760a8573", "lon": -77.03678083333334, "rental_uris": {"ios": "https://dc.lft.to/lastmile_qr_scan", "android": "https://dc.lft.to/lastmile_qr_scan"}}, {"name": "bb50c3d4953a73fce9787c6d87a324e8", "fusion_lat": 0.0, "type": "electric_scooter", "lat": 38.90273533333333, "is_reserved": 0, "is_disabled": 0, "fusion_lon": 0.0, "bike_id": "bb50c3d4953a73fce9787c6d87a324e8", "lon": -77.00216766666667, "rental_uris": {"ios": "https://dc.lft.to/lastmile_qr_scan", "android": "https://dc.lft.to/lastmile_qr_scan"}}, {"name": "6489838a95691d23113c8fd1ea19d117", "fusion_lat": 0.0, "type": "electric_scooter", "lat": 38.903533, "is_reserved": 0, "is_disabled": 0, "fusion_lon": 0.0, "bike_id": "6489838a95691d23113c8fd1ea19d117", "lon": -77.05343883333333, "rental_uris": {"ios": "https://dc.lft.to/lastmile_qr_scan", "android": "https://dc.lft.to/lastmile_qr_scan"}}, {"name": "749ee861c7a6073efee90ade0591c19d", "fusion_lat": 0.0, "type": "electric_bike", "lat": 38.88082716666667, "is_reserved": 0, "is_disabled": 0, "fusion_lon": 0.0, "bike_id": "749ee861c7a6073efee90ade0591c19d", "lon": -76.98530483333333, "rental_uris": {"ios": "https://dc.lft.to/lastmile_qr_scan", "android": "https://dc.lft.to/lastmile_qr_scan"}}, {"name": "cb58856faa3bdbc2cf47e2ab03d8fa8f", "fusion_lat": 0.0, "type": "electric_bike", "lat": 39.03861166666667, "is_reserved": 0, "is_disabled": 0, "fusion_lon": 0.0, "bike_id": "cb58856faa3bdbc2cf47e2ab03d8fa8f", "lon": -76.99024116666666, "rental_uris": {"ios": "https://dc.lft.to/lastmile_qr_scan", "android": "https://dc.lft.to/lastmile_qr_scan"}}, {"name": "96ca566b2ada7b90e9390431aeb2a993", "fusion_lat": 0.0, "type": "electric_scooter", "lat": 38.90951316666667, "is_reserved": 0, "is_disabled": 0, "fusion_lon": 0.0, "bike_id": "96ca566b2ada7b90e9390431aeb2a993", "lon": -77.02762416666667, "rental_uris": {"ios": "https://dc.lft.to/lastmile_qr_scan", "android": "https://dc.lft.to/lastmile_qr_scan"}}, {"name": "4fc335be0471bda70969d66729f9b066", "fusion_lat": 0.0, "type": "electric_scooter", "lat": 38.92142116666667, "is_reserved": 0, "is_disabled": 0, "fusion_lon": 0.0, "bike_id": "4fc335be0471bda70969d66729f9b066", "lon": -77.03509233333334, "rental_uris": {"ios": "https://dc.lft.to/lastmile_qr_scan", "android": "https://dc.lft.to/lastmile_qr_scan"}}, {"name": "208f32da6643d31842f16e406103a707", "fusion_lat": 0.0, "type": "electric_scooter", "lat": 38.905745, "is_reserved": 0, "is_disabled": 0, "fusion_lon": 0.0, "bike_id": "208f32da6643d31842f16e406103a707", "lon": -77.02599583333334, "rental_uris": {"ios": "https://dc.lft.to/lastmile_qr_scan", "android": "https://dc.lft.to/lastmile_qr_scan"}}, {"name": "044b991a36befc31c9aadcc0e8856932", "fusion_lat": 0.0, "type": "electric_scooter", "lat": 38.89607683333333, "is_reserved": 0, "is_disabled": 0, "fusion_lon": 0.0, "bike_id": "044b991a36befc31c9aadcc0e8856932", "lon": -77.04682216666667, "rental_uris": {"ios": "https://dc.lft.to/lastmile_qr_scan", "android": "https://dc.lft.to/lastmile_qr_scan"}}, {"name": "c808af2e5699e46eb422f5c65f9270c2", "fusion_lat": 0.0, "type": "electric_scooter", "lat": 38.900758833333335, "is_reserved": 0, "is_disabled": 0, "fusion_lon": 0.0, "bike_id": "c808af2e5699e46eb422f5c65f9270c2", "lon": -77.05198283333333, "rental_uris": {"ios": "https://dc.lft.to/lastmile_qr_scan", "android": "https://dc.lft.to/lastmile_qr_scan"}}, {"name": "888da954f5aaf611d82cc70736f9d3d7", "fusion_lat": 0.0, "type": "electric_scooter", "lat": 38.917731333333336, "is_reserved": 0, "is_disabled": 0, "fusion_lon": 0.0, "bike_id": "888da954f5aaf611d82cc70736f9d3d7", "lon": -77.029496, "rental_uris": {"ios": "https://dc.lft.to/lastmile_qr_scan", "android": "https://dc.lft.to/lastmile_qr_scan"}}, {"name": "39517e1dc1d60de29b9ca1cca50d4010", "fusion_lat": 0.0, "type": "electric_bike", "lat": 38.968369, "is_reserved": 0, "is_disabled": 0, "fusion_lon": 0.0, "bike_id": "39517e1dc1d60de29b9ca1cca50d4010", "lon": -77.033315, "rental_uris": {"ios": "https://dc.lft.to/lastmile_qr_scan", "android": "https://dc.lft.to/lastmile_qr_scan"}}, {"name": "398fbbc5a057d83125bcad0446d50db3", "fusion_lat": 0.0, "type": "electric_scooter", "lat": 38.8749555, "is_reserved": 0, "is_disabled": 0, "fusion_lon": 0.0, "bike_id": "398fbbc5a057d83125bcad0446d50db3", "lon": -77.00175533333334, "rental_uris": {"ios": "https://dc.lft.to/lastmile_qr_scan", "android": "https://dc.lft.to/lastmile_qr_scan"}}, {"name": "01a7a00f52276d4f29863ac087b818a5", "fusion_lat": 0.0, "type": "electric_scooter", "lat": 38.932063166666666, "is_reserved": 0, "is_disabled": 0, "fusion_lon": 0.0, "bike_id": "01a7a00f52276d4f29863ac087b818a5", "lon": -77.027262, "rental_uris": {"ios": "https://dc.lft.to/lastmile_qr_scan", "android": "https://dc.lft.to/lastmile_qr_scan"}}, {"name": "e2081ae6607d513a7c8e09a446279731", "fusion_lat": 0.0, "type": "electric_scooter", "lat": 38.912274833333335, "is_reserved": 0, "is_disabled": 0, "fusion_lon": 0.0, "bike_id": "e2081ae6607d513a7c8e09a446279731", "lon": -77.04459133333333, "rental_uris": {"ios": "https://dc.lft.to/lastmile_qr_scan", "android": "https://dc.lft.to/lastmile_qr_scan"}}, {"name": "84ce291261ba4fc0b3165bb093981e7a", "fusion_lat": 0.0, "type": "electric_scooter", "lat": 38.899088166666665, "is_reserved": 0, "is_disabled": 0, "fusion_lon": 0.0, "bike_id": "84ce291261ba4fc0b3165bb093981e7a", "lon": -77.0392145, "rental_uris": {"ios": "https://dc.lft.to/lastmile_qr_scan", "android": "https://dc.lft.to/lastmile_qr_scan"}}, {"name": "5d2a84b6cc7481199558b46e8d76ce24", "fusion_lat": 0.0, "type": "electric_scooter", "lat": 38.89531233333334, "is_reserved": 0, "is_disabled": 0, "fusion_lon": 0.0, "bike_id": "5d2a84b6cc7481199558b46e8d76ce24", "lon": -77.01079216666666, "rental_uris": {"ios": "https://dc.lft.to/lastmile_qr_scan", "android": "https://dc.lft.to/lastmile_qr_scan"}}, {"name": "22cd9d05509c7e63a6c6e0b71660138a", "fusion_lat": 0.0, "type": "electric_scooter", "lat": 38.89955466666667, "is_reserved": 0, "is_disabled": 0, "fusion_lon": 0.0, "bike_id": "22cd9d05509c7e63a6c6e0b71660138a", "lon": -77.03111566666666, "rental_uris": {"ios": "https://dc.lft.to/lastmile_qr_scan", "android": "https://dc.lft.to/lastmile_qr_scan"}}, {"name": "6c838535b8acb7497873a10704dc9cfe", "fusion_lat": 0.0, "type": "electric_scooter", "lat": 38.9306515, "is_reserved": 0, "is_disabled": 0, "fusion_lon": 0.0, "bike_id": "6c838535b8acb7497873a10704dc9cfe", "lon": -77.03959, "rental_uris": {"ios": "https://dc.lft.to/lastmile_qr_scan", "android": "https://dc.lft.to/lastmile_qr_scan"}}, {"name": "f563a6c6233b7d5436411bce884a567e", "fusion_lat": 0.0, "type": "electric_scooter", "lat": 38.9030135, "is_reserved": 0, "is_disabled": 0, "fusion_lon": 0.0, "bike_id": "f563a6c6233b7d5436411bce884a567e", "lon": -77.0417195, "rental_uris": {"ios": "https://dc.lft.to/lastmile_qr_scan", "android": "https://dc.lft.to/lastmile_qr_scan"}}, {"name": "b0ee57550c1ab4b04d0b2d0814fdebd2", "fusion_lat": 0.0, "type": "electric_scooter", "lat": 38.91333383333333, "is_reserved": 0, "is_disabled": 0, "fusion_lon": 0.0, "bike_id": "b0ee57550c1ab4b04d0b2d0814fdebd2", "lon": -77.03121533333334, "rental_uris": {"ios": "https://dc.lft.to/lastmile_qr_scan", "android": "https://dc.lft.to/lastmile_qr_scan"}}, {"name": "c411eb5b4e73905d95fc830f2199cf13", "fusion_lat": 0.0, "type": "electric_scooter", "lat": 38.897159333333335, "is_reserved": 0, "is_disabled": 0, "fusion_lon": 0.0, "bike_id": "c411eb5b4e73905d95fc830f2199cf13", "lon": -77.02048933333333, "rental_uris": {"ios": "https://dc.lft.to/lastmile_qr_scan", "android": "https://dc.lft.to/lastmile_qr_scan"}}, {"name": "69c7dd5b31ae40d552f2cb7a176fccb0", "fusion_lat": 0.0, "type": "electric_scooter", "lat": 38.898807166666664, "is_reserved": 0, "is_disabled": 0, "fusion_lon": 0.0, "bike_id": "69c7dd5b31ae40d552f2cb7a176fccb0", "lon": -76.93176366666667, "rental_uris": {"ios": "https://dc.lft.to/lastmile_qr_scan", "android": "https://dc.lft.to/lastmile_qr_scan"}}, {"name": "567e0136ef78fcdec5fbea925b731197", "fusion_lat": 0.0, "type": "electric_bike", "lat": 38.856342, "is_reserved": 0, "is_disabled": 0, "fusion_lon": 0.0, "bike_id": "567e0136ef78fcdec5fbea925b731197", "lon": -77.1125205, "rental_uris": {"ios": "https://dc.lft.to/lastmile_qr_scan", "android": "https://dc.lft.to/lastmile_qr_scan"}}, {"name": "f576b6aca73a52374809c1425b866bf0", "fusion_lat": 0.0, "type": "electric_scooter", "lat": 38.85805583333333, "is_reserved": 0, "is_disabled": 0, "fusion_lon": 0.0, "bike_id": "f576b6aca73a52374809c1425b866bf0", "lon": -76.98649616666667, "rental_uris": {"ios": "https://dc.lft.to/lastmile_qr_scan", "android": "https://dc.lft.to/lastmile_qr_scan"}}, {"name": "4cf3fe29c0ad7b152ad6f6febf67e71d", "fusion_lat": 0.0, "type": "electric_scooter", "lat": 38.899357, "is_reserved": 0, "is_disabled": 0, "fusion_lon": 0.0, "bike_id": "4cf3fe29c0ad7b152ad6f6febf67e71d", "lon": -77.02808516666667, "rental_uris": {"ios": "https://dc.lft.to/lastmile_qr_scan", "android": "https://dc.lft.to/lastmile_qr_scan"}}, {"name": "045aae53000dbfedd13ad1f86fa09aab", "fusion_lat": 0.0, "type": "electric_scooter", "lat": 38.9038705, "is_reserved": 0, "is_disabled": 0, "fusion_lon": 0.0, "bike_id": "045aae53000dbfedd13ad1f86fa09aab", "lon": -77.01757316666666, "rental_uris": {"ios": "https://dc.lft.to/lastmile_qr_scan", "android": "https://dc.lft.to/lastmile_qr_scan"}}, {"name": "c18a94e338b467cb76e781f4fd8517ce", "fusion_lat": 0.0, "type": "electric_scooter", "lat": 38.91254766666667, "is_reserved": 0, "is_disabled": 0, "fusion_lon": 0.0, "bike_id": "c18a94e338b467cb76e781f4fd8517ce", "lon": -77.00929516666666, "rental_uris": {"ios": "https://dc.lft.to/lastmile_qr_scan", "android": "https://dc.lft.to/lastmile_qr_scan"}}, {"name": "889506563e80ae58554477938ba59b4e", "fusion_lat": 0.0, "type": "electric_scooter", "lat": 38.92093916666666, "is_reserved": 0, "is_disabled": 0, "fusion_lon": 0.0, "bike_id": "889506563e80ae58554477938ba59b4e", "lon": -77.04207166666667, "rental_uris": {"ios": "https://dc.lft.to/lastmile_qr_scan", "android": "https://dc.lft.to/lastmile_qr_scan"}}, {"name": "75324ba865f40d21ad2eb1320aac6e12", "fusion_lat": 0.0, "type": "electric_bike", "lat": 38.93539833333333, "is_reserved": 0, "is_disabled": 0, "fusion_lon": 0.0, "bike_id": "75324ba865f40d21ad2eb1320aac6e12", "lon": -77.05821016666667, "rental_uris": {"ios": "https://dc.lft.to/lastmile_qr_scan", "android": "https://dc.lft.to/lastmile_qr_scan"}}, {"name": "2bded30c774ee1d26fee23deb73a1c8e", "fusion_lat": 0.0, "type": "electric_scooter", "lat": 38.901354833333336, "is_reserved": 0, "is_disabled": 0, "fusion_lon": 0.0, "bike_id": "2bded30c774ee1d26fee23deb73a1c8e", "lon": -76.99119383333333, "rental_uris": {"ios": "https://dc.lft.to/lastmile_qr_scan", "android": "https://dc.lft.to/lastmile_qr_scan"}}, {"name": "7bc93f8f0b691e85bc59a5779493a7ff", "fusion_lat": 0.0, "type": "electric_scooter", "lat": 38.938923, "is_reserved": 0, "is_disabled": 0, "fusion_lon": 0.0, "bike_id": "7bc93f8f0b691e85bc59a5779493a7ff", "lon": -77.0248135, "rental_uris": {"ios": "https://dc.lft.to/lastmile_qr_scan", "android": "https://dc.lft.to/lastmile_qr_scan"}}, {"name": "3bd242b27e7b9d9ac1b6df5a04e32020", "fusion_lat": 0.0, "type": "electric_scooter", "lat": 38.916894, "is_reserved": 0, "is_disabled": 0, "fusion_lon": 0.0, "bike_id": "3bd242b27e7b9d9ac1b6df5a04e32020", "lon": -77.03499, "rental_uris": {"ios": "https://dc.lft.to/lastmile_qr_scan", "android": "https://dc.lft.to/lastmile_qr_scan"}}, {"name": "a656956f0b56c4af05828395243c05ca", "fusion_lat": 0.0, "type": "electric_scooter", "lat": 38.939007833333335, "is_reserved": 0, "is_disabled": 0, "fusion_lon": 0.0, "bike_id": "a656956f0b56c4af05828395243c05ca", "lon": -77.03257733333334, "rental_uris": {"ios": "https://dc.lft.to/lastmile_qr_scan", "android": "https://dc.lft.to/lastmile_qr_scan"}}, {"name": "68e3186fb21b478e04c1ef0a1194f0e3", "fusion_lat": 0.0, "type": "electric_scooter", "lat": 38.90321016666667, "is_reserved": 0, "is_disabled": 0, "fusion_lon": 0.0, "bike_id": "68e3186fb21b478e04c1ef0a1194f0e3", "lon": -77.05329583333334, "rental_uris": {"ios": "https://dc.lft.to/lastmile_qr_scan", "android": "https://dc.lft.to/lastmile_qr_scan"}}, {"name": "70d38350b9fde96483293552875b1467", "fusion_lat": 0.0, "type": "electric_scooter", "lat": 38.8850805, "is_reserved": 0, "is_disabled": 0, "fusion_lon": 0.0, "bike_id": "70d38350b9fde96483293552875b1467", "lon": -76.978773, "rental_uris": {"ios": "https://dc.lft.to/lastmile_qr_scan", "android": "https://dc.lft.to/lastmile_qr_scan"}}, {"name": "597b2a940cb537362564ed31c2a614e8", "fusion_lat": 0.0, "type": "electric_scooter", "lat": 38.910432166666666, "is_reserved": 0, "is_disabled": 0, "fusion_lon": 0.0, "bike_id": "597b2a940cb537362564ed31c2a614e8", "lon": -77.0281285, "rental_uris": {"ios": "https://dc.lft.to/lastmile_qr_scan", "android": "https://dc.lft.to/lastmile_qr_scan"}}, {"name": "df4199fab6e3742b60448ba5bfa7de58", "fusion_lat": 0.0, "type": "electric_scooter", "lat": 38.894446333333335, "is_reserved": 0, "is_disabled": 0, "fusion_lon": 0.0, "bike_id": "df4199fab6e3742b60448ba5bfa7de58", "lon": -77.01097666666666, "rental_uris": {"ios": "https://dc.lft.to/lastmile_qr_scan", "android": "https://dc.lft.to/lastmile_qr_scan"}}, {"name": "85fb1fb36a50ad9cef3c96cd3ddb5b1b", "fusion_lat": 0.0, "type": "electric_scooter", "lat": 38.90279016666667, "is_reserved": 0, "is_disabled": 0, "fusion_lon": 0.0, "bike_id": "85fb1fb36a50ad9cef3c96cd3ddb5b1b", "lon": -77.04063466666666, "rental_uris": {"ios": "https://dc.lft.to/lastmile_qr_scan", "android": "https://dc.lft.to/lastmile_qr_scan"}}, {"name": "e83c3217bd2a146d7c7dc6e6ac2c3f65", "fusion_lat": 0.0, "type": "electric_scooter", "lat": 38.907021666666665, "is_reserved": 0, "is_disabled": 0, "fusion_lon": 0.0, "bike_id": "e83c3217bd2a146d7c7dc6e6ac2c3f65", "lon": -76.98698949999999, "rental_uris": {"ios": "https://dc.lft.to/lastmile_qr_scan", "android": "https://dc.lft.to/lastmile_qr_scan"}}, {"name": "d2bab7a2b9ca69d92b76c3f5362921d3", "fusion_lat": 0.0, "type": "electric_scooter", "lat": 38.8948575, "is_reserved": 0, "is_disabled": 0, "fusion_lon": 0.0, "bike_id": "d2bab7a2b9ca69d92b76c3f5362921d3", "lon": -77.010151, "rental_uris": {"ios": "https://dc.lft.to/lastmile_qr_scan", "android": "https://dc.lft.to/lastmile_qr_scan"}}, {"name": "6d9c4181b16b5a0a054e86539180e044", "fusion_lat": 0.0, "type": "electric_bike", "lat": 38.81937516666667, "is_reserved": 0, "is_disabled": 0, "fusion_lon": 0.0, "bike_id": "6d9c4181b16b5a0a054e86539180e044", "lon": -77.002055, "rental_uris": {"ios": "https://dc.lft.to/lastmile_qr_scan", "android": "https://dc.lft.to/lastmile_qr_scan"}}, {"name": "7ef2a7d7669dac531fe678c327e26fd9", "fusion_lat": 0.0, "type": "electric_bike", "lat": 38.9653755, "is_reserved": 0, "is_disabled": 0, "fusion_lon": 0.0, "bike_id": "7ef2a7d7669dac531fe678c327e26fd9", "lon": -77.03518166666667, "rental_uris": {"ios": "https://dc.lft.to/lastmile_qr_scan", "android": "https://dc.lft.to/lastmile_qr_scan"}}, {"name": "5c279ac1274decde0f793bd7b8078392", "fusion_lat": 0.0, "type": "electric_scooter", "lat": 38.91565383333333, "is_reserved": 0, "is_disabled": 0, "fusion_lon": 0.0, "bike_id": "5c279ac1274decde0f793bd7b8078392", "lon": -77.04279066666666, "rental_uris": {"ios": "https://dc.lft.to/lastmile_qr_scan", "android": "https://dc.lft.to/lastmile_qr_scan"}}, {"name": "a07a87040cbf46e1ce653fadd238d9df", "fusion_lat": 0.0, "type": "electric_bike", "lat": 38.8804135, "is_reserved": 0, "is_disabled": 0, "fusion_lon": 0.0, "bike_id": "a07a87040cbf46e1ce653fadd238d9df", "lon": -77.01319566666666, "rental_uris": {"ios": "https://dc.lft.to/lastmile_qr_scan", "android": "https://dc.lft.to/lastmile_qr_scan"}}, {"name": "8a1ad0fbbfa860369c906cba53000149", "fusion_lat": 0.0, "type": "electric_bike", "lat": 38.988180666666665, "is_reserved": 0, "is_disabled": 0, "fusion_lon": 0.0, "bike_id": "8a1ad0fbbfa860369c906cba53000149", "lon": -77.02649, "rental_uris": {"ios": "https://dc.lft.to/lastmile_qr_scan", "android": "https://dc.lft.to/lastmile_qr_scan"}}, {"name": "d8f085d91b559424eaa2205062e6c099", "fusion_lat": 0.0, "type": "electric_scooter", "lat": 38.919391, "is_reserved": 0, "is_disabled": 0, "fusion_lon": 0.0, "bike_id": "d8f085d91b559424eaa2205062e6c099", "lon": -77.02360966666667, "rental_uris": {"ios": "https://dc.lft.to/lastmile_qr_scan", "android": "https://dc.lft.to/lastmile_qr_scan"}}, {"name": "17438f955d999d6010a9e3281c5243fc", "fusion_lat": 0.0, "type": "electric_scooter", "lat": 38.907131, "is_reserved": 0, "is_disabled": 0, "fusion_lon": 0.0, "bike_id": "17438f955d999d6010a9e3281c5243fc", "lon": -77.03450583333333, "rental_uris": {"ios": "https://dc.lft.to/lastmile_qr_scan", "android": "https://dc.lft.to/lastmile_qr_scan"}}, {"name": "83be72c7c6cd5a792c0519f8f74b4c85", "fusion_lat": 0.0, "type": "electric_scooter", "lat": 38.934005666666664, "is_reserved": 0, "is_disabled": 0, "fusion_lon": 0.0, "bike_id": "83be72c7c6cd5a792c0519f8f74b4c85", "lon": -77.027299, "rental_uris": {"ios": "https://dc.lft.to/lastmile_qr_scan", "android": "https://dc.lft.to/lastmile_qr_scan"}}, {"name": "7258cba5cbecaaa374cedbcef6c7c976", "fusion_lat": 0.0, "type": "electric_scooter", "lat": 38.880394833333334, "is_reserved": 0, "is_disabled": 0, "fusion_lon": 0.0, "bike_id": "7258cba5cbecaaa374cedbcef6c7c976", "lon": -76.92719816666667, "rental_uris": {"ios": "https://dc.lft.to/lastmile_qr_scan", "android": "https://dc.lft.to/lastmile_qr_scan"}}, {"name": "5be6ca77baad8358354fd15153bac424", "fusion_lat": 0.0, "type": "electric_scooter", "lat": 38.906215833333334, "is_reserved": 0, "is_disabled": 0, "fusion_lon": 0.0, "bike_id": "5be6ca77baad8358354fd15153bac424", "lon": -77.0343655, "rental_uris": {"ios": "https://dc.lft.to/lastmile_qr_scan", "android": "https://dc.lft.to/lastmile_qr_scan"}}, {"name": "d99f18739ed25b7cbc6f0e937c205ca1", "fusion_lat": 0.0, "type": "electric_scooter", "lat": 38.90411916666667, "is_reserved": 0, "is_disabled": 0, "fusion_lon": 0.0, "bike_id": "d99f18739ed25b7cbc6f0e937c205ca1", "lon": -77.00133283333334, "rental_uris": {"ios": "https://dc.lft.to/lastmile_qr_scan", "android": "https://dc.lft.to/lastmile_qr_scan"}}, {"name": "6519f19613be7068e774ab44703df206", "fusion_lat": 0.0, "type": "electric_bike", "lat": 38.852288, "is_reserved": 0, "is_disabled": 0, "fusion_lon": 0.0, "bike_id": "6519f19613be7068e774ab44703df206", "lon": -77.10335783333333, "rental_uris": {"ios": "https://dc.lft.to/lastmile_qr_scan", "android": "https://dc.lft.to/lastmile_qr_scan"}}, {"name": "dc9e852b9da0f6e34033fcb5b1fc8a7c", "fusion_lat": 0.0, "type": "electric_scooter", "lat": 38.96228033333333, "is_reserved": 0, "is_disabled": 0, "fusion_lon": 0.0, "bike_id": "dc9e852b9da0f6e34033fcb5b1fc8a7c", "lon": -77.02970683333334, "rental_uris": {"ios": "https://dc.lft.to/lastmile_qr_scan", "android": "https://dc.lft.to/lastmile_qr_scan"}}, {"name": "19a74a6e38e8785fe9a3fe8b2a72e1ed", "fusion_lat": 0.0, "type": "electric_bike", "lat": 38.853225333333334, "is_reserved": 0, "is_disabled": 0, "fusion_lon": 0.0, "bike_id": "19a74a6e38e8785fe9a3fe8b2a72e1ed", "lon": -76.9801435, "rental_uris": {"ios": "https://dc.lft.to/lastmile_qr_scan", "android": "https://dc.lft.to/lastmile_qr_scan"}}, {"name": "7046547c91e9e9b2494e5ae838eb401c", "fusion_lat": 0.0, "type": "electric_scooter", "lat": 38.90029533333333, "is_reserved": 0, "is_disabled": 0, "fusion_lon": 0.0, "bike_id": "7046547c91e9e9b2494e5ae838eb401c", "lon": -76.9986195, "rental_uris": {"ios": "https://dc.lft.to/lastmile_qr_scan", "android": "https://dc.lft.to/lastmile_qr_scan"}}, {"name": "d19f7fb6e0a4ad6c738eb95dae18d901", "fusion_lat": 0.0, "type": "electric_scooter", "lat": 38.93671616666666, "is_reserved": 0, "is_disabled": 0, "fusion_lon": 0.0, "bike_id": "d19f7fb6e0a4ad6c738eb95dae18d901", "lon": -77.03633566666667, "rental_uris": {"ios": "https://dc.lft.to/lastmile_qr_scan", "android": "https://dc.lft.to/lastmile_qr_scan"}}, {"name": "f896ad4aaea79ee11eb2a353ac196aa1", "fusion_lat": 0.0, "type": "electric_scooter", "lat": 38.90511266666667, "is_reserved": 0, "is_disabled": 0, "fusion_lon": 0.0, "bike_id": "f896ad4aaea79ee11eb2a353ac196aa1", "lon": -77.06881583333333, "rental_uris": {"ios": "https://dc.lft.to/lastmile_qr_scan", "android": "https://dc.lft.to/lastmile_qr_scan"}}, {"name": "4f7f4c3887e7110f0f007979e9b972dc", "fusion_lat": 0.0, "type": "electric_scooter", "lat": 38.93109416666667, "is_reserved": 0, "is_disabled": 0, "fusion_lon": 0.0, "bike_id": "4f7f4c3887e7110f0f007979e9b972dc", "lon": -77.0351125, "rental_uris": {"ios": "https://dc.lft.to/lastmile_qr_scan", "android": "https://dc.lft.to/lastmile_qr_scan"}}, {"name": "43bac791bfb21faabd2eadd1c4f8e88f", "fusion_lat": 0.0, "type": "electric_scooter", "lat": 38.865542166666664, "is_reserved": 0, "is_disabled": 0, "fusion_lon": 0.0, "bike_id": "43bac791bfb21faabd2eadd1c4f8e88f", "lon": -76.95991383333333, "rental_uris": {"ios": "https://dc.lft.to/lastmile_qr_scan", "android": "https://dc.lft.to/lastmile_qr_scan"}}, {"name": "0b900a7871e2dfccc25c7ecfbf18e202", "fusion_lat": 0.0, "type": "electric_scooter", "lat": 38.927748666666666, "is_reserved": 0, "is_disabled": 0, "fusion_lon": 0.0, "bike_id": "0b900a7871e2dfccc25c7ecfbf18e202", "lon": -77.02794233333333, "rental_uris": {"ios": "https://dc.lft.to/lastmile_qr_scan", "android": "https://dc.lft.to/lastmile_qr_scan"}}, {"name": "44c5bc41b2e7d8f9b87be87a0f2fffec", "fusion_lat": 0.0, "type": "electric_scooter", "lat": 38.908905, "is_reserved": 0, "is_disabled": 0, "fusion_lon": 0.0, "bike_id": "44c5bc41b2e7d8f9b87be87a0f2fffec", "lon": -77.04927266666667, "rental_uris": {"ios": "https://dc.lft.to/lastmile_qr_scan", "android": "https://dc.lft.to/lastmile_qr_scan"}}, {"name": "6a1c01c30a839769ff84d5148a4a6ca3", "fusion_lat": 0.0, "type": "electric_scooter", "lat": 38.92706866666666, "is_reserved": 0, "is_disabled": 0, "fusion_lon": 0.0, "bike_id": "6a1c01c30a839769ff84d5148a4a6ca3", "lon": -77.03729966666667, "rental_uris": {"ios": "https://dc.lft.to/lastmile_qr_scan", "android": "https://dc.lft.to/lastmile_qr_scan"}}, {"name": "6e9aa9d4eb791bdc990c9c663035c43a", "fusion_lat": 0.0, "type": "electric_scooter", "lat": 38.91122416666666, "is_reserved": 0, "is_disabled": 0, "fusion_lon": 0.0, "bike_id": "6e9aa9d4eb791bdc990c9c663035c43a", "lon": -77.047781, "rental_uris": {"ios": "https://dc.lft.to/lastmile_qr_scan", "android": "https://dc.lft.to/lastmile_qr_scan"}}, {"name": "316770e0d2f6183156c2be115103e329", "fusion_lat": 0.0, "type": "electric_bike", "lat": 38.94970883333333, "is_reserved": 0, "is_disabled": 0, "fusion_lon": 0.0, "bike_id": "316770e0d2f6183156c2be115103e329", "lon": -76.97284466666666, "rental_uris": {"ios": "https://dc.lft.to/lastmile_qr_scan", "android": "https://dc.lft.to/lastmile_qr_scan"}}, {"name": "9df81b810dfa1ef1c116120a758bb749", "fusion_lat": 0.0, "type": "electric_scooter", "lat": 38.932551833333335, "is_reserved": 0, "is_disabled": 0, "fusion_lon": 0.0, "bike_id": "9df81b810dfa1ef1c116120a758bb749", "lon": -77.04010366666667, "rental_uris": {"ios": "https://dc.lft.to/lastmile_qr_scan", "android": "https://dc.lft.to/lastmile_qr_scan"}}, {"name": "51bbf49249a3e3edde41d239185373b8", "fusion_lat": 0.0, "type": "electric_scooter", "lat": 38.90962316666667, "is_reserved": 0, "is_disabled": 0, "fusion_lon": 0.0, "bike_id": "51bbf49249a3e3edde41d239185373b8", "lon": -77.04061766666666, "rental_uris": {"ios": "https://dc.lft.to/lastmile_qr_scan", "android": "https://dc.lft.to/lastmile_qr_scan"}}, {"name": "648cb2c5fd9c671db1599819e4f2b380", "fusion_lat": 0.0, "type": "electric_scooter", "lat": 38.91349266666667, "is_reserved": 0, "is_disabled": 0, "fusion_lon": 0.0, "bike_id": "648cb2c5fd9c671db1599819e4f2b380", "lon": -77.00344583333333, "rental_uris": {"ios": "https://dc.lft.to/lastmile_qr_scan", "android": "https://dc.lft.to/lastmile_qr_scan"}}, {"name": "5e6c9f97f5b8af3584b16bd19d77913f", "fusion_lat": 0.0, "type": "electric_scooter", "lat": 38.900095, "is_reserved": 0, "is_disabled": 0, "fusion_lon": 0.0, "bike_id": "5e6c9f97f5b8af3584b16bd19d77913f", "lon": -77.011083, "rental_uris": {"ios": "https://dc.lft.to/lastmile_qr_scan", "android": "https://dc.lft.to/lastmile_qr_scan"}}, {"name": "393ccccfac070b8060b46b85b8e72211", "fusion_lat": 0.0, "type": "electric_scooter", "lat": 38.90002333333333, "is_reserved": 0, "is_disabled": 0, "fusion_lon": 0.0, "bike_id": "393ccccfac070b8060b46b85b8e72211", "lon": -76.9969155, "rental_uris": {"ios": "https://dc.lft.to/lastmile_qr_scan", "android": "https://dc.lft.to/lastmile_qr_scan"}}, {"name": "333def3dcdb3901a415a002f329ab608", "fusion_lat": 0.0, "type": "electric_bike", "lat": 38.87548866666667, "is_reserved": 0, "is_disabled": 0, "fusion_lon": 0.0, "bike_id": "333def3dcdb3901a415a002f329ab608", "lon": -76.96753966666667, "rental_uris": {"ios": "https://dc.lft.to/lastmile_qr_scan", "android": "https://dc.lft.to/lastmile_qr_scan"}}, {"name": "8be6a79dffb19f826a8108902cc041b0", "fusion_lat": 0.0, "type": "electric_scooter", "lat": 38.92973466666667, "is_reserved": 0, "is_disabled": 0, "fusion_lon": 0.0, "bike_id": "8be6a79dffb19f826a8108902cc041b0", "lon": -77.01960966666667, "rental_uris": {"ios": "https://dc.lft.to/lastmile_qr_scan", "android": "https://dc.lft.to/lastmile_qr_scan"}}, {"name": "eb1d37144aff2e378aed7e3a6e5e8a3f", "fusion_lat": 0.0, "type": "electric_scooter", "lat": 38.90254783333334, "is_reserved": 0, "is_disabled": 0, "fusion_lon": 0.0, "bike_id": "eb1d37144aff2e378aed7e3a6e5e8a3f", "lon": -77.0179685, "rental_uris": {"ios": "https://dc.lft.to/lastmile_qr_scan", "android": "https://dc.lft.to/lastmile_qr_scan"}}, {"name": "b0d786b00d93700b744af1a3927a53c3", "fusion_lat": 0.0, "type": "electric_scooter", "lat": 38.89849066666667, "is_reserved": 0, "is_disabled": 0, "fusion_lon": 0.0, "bike_id": "b0d786b00d93700b744af1a3927a53c3", "lon": -77.03320833333333, "rental_uris": {"ios": "https://dc.lft.to/lastmile_qr_scan", "android": "https://dc.lft.to/lastmile_qr_scan"}}, {"name": "97c3da26b6da7cc34344f597128192a0", "fusion_lat": 0.0, "type": "electric_scooter", "lat": 38.905415, "is_reserved": 0, "is_disabled": 0, "fusion_lon": 0.0, "bike_id": "97c3da26b6da7cc34344f597128192a0", "lon": -77.04744066666666, "rental_uris": {"ios": "https://dc.lft.to/lastmile_qr_scan", "android": "https://dc.lft.to/lastmile_qr_scan"}}, {"name": "6a95bdbe8b8596842a19db4ce1d33df1", "fusion_lat": 0.0, "type": "electric_scooter", "lat": 38.8764795, "is_reserved": 0, "is_disabled": 0, "fusion_lon": 0.0, "bike_id": "6a95bdbe8b8596842a19db4ce1d33df1", "lon": -76.96506033333333, "rental_uris": {"ios": "https://dc.lft.to/lastmile_qr_scan", "android": "https://dc.lft.to/lastmile_qr_scan"}}, {"name": "fdbb5b4b0e967aebce4c825f0099f80a", "fusion_lat": 0.0, "type": "electric_scooter", "lat": 38.934942666666664, "is_reserved": 0, "is_disabled": 0, "fusion_lon": 0.0, "bike_id": "fdbb5b4b0e967aebce4c825f0099f80a", "lon": -77.0253655, "rental_uris": {"ios": "https://dc.lft.to/lastmile_qr_scan", "android": "https://dc.lft.to/lastmile_qr_scan"}}, {"name": "add1045b5572286c95a23c6f9b6e0be7", "fusion_lat": 0.0, "type": "electric_scooter", "lat": 38.89900883333333, "is_reserved": 0, "is_disabled": 0, "fusion_lon": 0.0, "bike_id": "add1045b5572286c95a23c6f9b6e0be7", "lon": -77.02165866666667, "rental_uris": {"ios": "https://dc.lft.to/lastmile_qr_scan", "android": "https://dc.lft.to/lastmile_qr_scan"}}, {"name": "d7951088f6faa900b01093cbf5bb871c", "fusion_lat": 0.0, "type": "electric_scooter", "lat": 38.904939666666664, "is_reserved": 0, "is_disabled": 0, "fusion_lon": 0.0, "bike_id": "d7951088f6faa900b01093cbf5bb871c", "lon": -77.04641066666667, "rental_uris": {"ios": "https://dc.lft.to/lastmile_qr_scan", "android": "https://dc.lft.to/lastmile_qr_scan"}}, {"name": "46efd2e698c97bd802afbf29adc95f99", "fusion_lat": 0.0, "type": "electric_scooter", "lat": 38.92112816666667, "is_reserved": 0, "is_disabled": 0, "fusion_lon": 0.0, "bike_id": "46efd2e698c97bd802afbf29adc95f99", "lon": -77.04385733333334, "rental_uris": {"ios": "https://dc.lft.to/lastmile_qr_scan", "android": "https://dc.lft.to/lastmile_qr_scan"}}, {"name": "60da7dd22a3334957b8bc65a8f65dea7", "fusion_lat": 0.0, "type": "electric_scooter", "lat": 38.93520633333333, "is_reserved": 0, "is_disabled": 0, "fusion_lon": 0.0, "bike_id": "60da7dd22a3334957b8bc65a8f65dea7", "lon": -77.03263916666667, "rental_uris": {"ios": "https://dc.lft.to/lastmile_qr_scan", "android": "https://dc.lft.to/lastmile_qr_scan"}}, {"name": "ab4bbfae9a5da0dcb620f705d835d0e7", "fusion_lat": 0.0, "type": "electric_scooter", "lat": 38.9097075, "is_reserved": 0, "is_disabled": 0, "fusion_lon": 0.0, "bike_id": "ab4bbfae9a5da0dcb620f705d835d0e7", "lon": -77.04665283333334, "rental_uris": {"ios": "https://dc.lft.to/lastmile_qr_scan", "android": "https://dc.lft.to/lastmile_qr_scan"}}, {"name": "f97393653ba84245c3c3c5bce60d1ae2", "fusion_lat": 0.0, "type": "electric_scooter", "lat": 38.920123333333336, "is_reserved": 0, "is_disabled": 0, "fusion_lon": 0.0, "bike_id": "f97393653ba84245c3c3c5bce60d1ae2", "lon": -77.03184416666667, "rental_uris": {"ios": "https://dc.lft.to/lastmile_qr_scan", "android": "https://dc.lft.to/lastmile_qr_scan"}}, {"name": "1af580795fb359bd73cdb32a4c7e2e03", "fusion_lat": 0.0, "type": "electric_scooter", "lat": 38.88219633333333, "is_reserved": 0, "is_disabled": 0, "fusion_lon": 0.0, "bike_id": "1af580795fb359bd73cdb32a4c7e2e03", "lon": -76.94178, "rental_uris": {"ios": "https://dc.lft.to/lastmile_qr_scan", "android": "https://dc.lft.to/lastmile_qr_scan"}}, {"name": "aa8bee60e5ea35d02bf20750d7517e31", "fusion_lat": 0.0, "type": "electric_scooter", "lat": 38.92136683333333, "is_reserved": 0, "is_disabled": 0, "fusion_lon": 0.0, "bike_id": "aa8bee60e5ea35d02bf20750d7517e31", "lon": -77.04572516666667, "rental_uris": {"ios": "https://dc.lft.to/lastmile_qr_scan", "android": "https://dc.lft.to/lastmile_qr_scan"}}, {"name": "484801f69b0029c7c4e919ebf4397435", "fusion_lat": 0.0, "type": "electric_scooter", "lat": 38.873548, "is_reserved": 0, "is_disabled": 0, "fusion_lon": 0.0, "bike_id": "484801f69b0029c7c4e919ebf4397435", "lon": -77.00091683333333, "rental_uris": {"ios": "https://dc.lft.to/lastmile_qr_scan", "android": "https://dc.lft.to/lastmile_qr_scan"}}, {"name": "12aa4dd32023eba02a261b91c95be867", "fusion_lat": 0.0, "type": "electric_scooter", "lat": 38.9209775, "is_reserved": 0, "is_disabled": 0, "fusion_lon": 0.0, "bike_id": "12aa4dd32023eba02a261b91c95be867", "lon": -77.05469716666667, "rental_uris": {"ios": "https://dc.lft.to/lastmile_qr_scan", "android": "https://dc.lft.to/lastmile_qr_scan"}}, {"name": "99cfb7727afdd538b35159dc699e7b88", "fusion_lat": 0.0, "type": "electric_scooter", "lat": 38.900484, "is_reserved": 0, "is_disabled": 0, "fusion_lon": 0.0, "bike_id": "99cfb7727afdd538b35159dc699e7b88", "lon": -76.9914375, "rental_uris": {"ios": "https://dc.lft.to/lastmile_qr_scan", "android": "https://dc.lft.to/lastmile_qr_scan"}}, {"name": "2dc64a162dd4f6fd8c252cf3f4bb0eca", "fusion_lat": 0.0, "type": "electric_scooter", "lat": 38.92376066666667, "is_reserved": 0, "is_disabled": 0, "fusion_lon": 0.0, "bike_id": "2dc64a162dd4f6fd8c252cf3f4bb0eca", "lon": -77.040989, "rental_uris": {"ios": "https://dc.lft.to/lastmile_qr_scan", "android": "https://dc.lft.to/lastmile_qr_scan"}}, {"name": "f066460c2449de3dd8a4ca62b29ff55a", "fusion_lat": 0.0, "type": "electric_scooter", "lat": 38.862556166666664, "is_reserved": 0, "is_disabled": 0, "fusion_lon": 0.0, "bike_id": "f066460c2449de3dd8a4ca62b29ff55a", "lon": -76.987118, "rental_uris": {"ios": "https://dc.lft.to/lastmile_qr_scan", "android": "https://dc.lft.to/lastmile_qr_scan"}}, {"name": "6790d140f38dffb8fef9021a6474ebc1", "fusion_lat": 0.0, "type": "electric_scooter", "lat": 38.918366166666665, "is_reserved": 0, "is_disabled": 0, "fusion_lon": 0.0, "bike_id": "6790d140f38dffb8fef9021a6474ebc1", "lon": -77.02291966666667, "rental_uris": {"ios": "https://dc.lft.to/lastmile_qr_scan", "android": "https://dc.lft.to/lastmile_qr_scan"}}, {"name": "2a397ee09860080f2a8f0428adfcf09a", "fusion_lat": 0.0, "type": "electric_scooter", "lat": 38.88995366666666, "is_reserved": 0, "is_disabled": 0, "fusion_lon": 0.0, "bike_id": "2a397ee09860080f2a8f0428adfcf09a", "lon": -76.95417466666666, "rental_uris": {"ios": "https://dc.lft.to/lastmile_qr_scan", "android": "https://dc.lft.to/lastmile_qr_scan"}}, {"name": "a62d147e40d25b44721b38de9ab05b32", "fusion_lat": 0.0, "type": "electric_bike", "lat": 38.854933333333335, "is_reserved": 0, "is_disabled": 0, "fusion_lon": 0.0, "bike_id": "a62d147e40d25b44721b38de9ab05b32", "lon": -77.11525116666667, "rental_uris": {"ios": "https://dc.lft.to/lastmile_qr_scan", "android": "https://dc.lft.to/lastmile_qr_scan"}}, {"name": "d512b9069b9b985f1604208bb7ca8a81", "fusion_lat": 0.0, "type": "electric_scooter", "lat": 38.876734166666665, "is_reserved": 0, "is_disabled": 0, "fusion_lon": 0.0, "bike_id": "d512b9069b9b985f1604208bb7ca8a81", "lon": -77.00733916666667, "rental_uris": {"ios": "https://dc.lft.to/lastmile_qr_scan", "android": "https://dc.lft.to/lastmile_qr_scan"}}, {"name": "c5641937aab53062040159ac5709343e", "fusion_lat": 0.0, "type": "electric_scooter", "lat": 38.90457116666666, "is_reserved": 0, "is_disabled": 0, "fusion_lon": 0.0, "bike_id": "c5641937aab53062040159ac5709343e", "lon": -76.985266, "rental_uris": {"ios": "https://dc.lft.to/lastmile_qr_scan", "android": "https://dc.lft.to/lastmile_qr_scan"}}, {"name": "9d0b788ca60670c62422c3ef3b7395e1", "fusion_lat": 0.0, "type": "electric_scooter", "lat": 38.91561383333333, "is_reserved": 0, "is_disabled": 0, "fusion_lon": 0.0, "bike_id": "9d0b788ca60670c62422c3ef3b7395e1", "lon": -77.03167566666667, "rental_uris": {"ios": "https://dc.lft.to/lastmile_qr_scan", "android": "https://dc.lft.to/lastmile_qr_scan"}}, {"name": "d722b796a5581ef50a7b83501019e765", "fusion_lat": 0.0, "type": "electric_scooter", "lat": 38.92181133333333, "is_reserved": 0, "is_disabled": 0, "fusion_lon": 0.0, "bike_id": "d722b796a5581ef50a7b83501019e765", "lon": -77.02412883333334, "rental_uris": {"ios": "https://dc.lft.to/lastmile_qr_scan", "android": "https://dc.lft.to/lastmile_qr_scan"}}, {"name": "00c72b09842617fc4edc64b358f80c99", "fusion_lat": 0.0, "type": "electric_scooter", "lat": 38.941723, "is_reserved": 0, "is_disabled": 0, "fusion_lon": 0.0, "bike_id": "00c72b09842617fc4edc64b358f80c99", "lon": -77.02509883333333, "rental_uris": {"ios": "https://dc.lft.to/lastmile_qr_scan", "android": "https://dc.lft.to/lastmile_qr_scan"}}, {"name": "7060ac7da331091b2c407d6273a402b1", "fusion_lat": 0.0, "type": "electric_scooter", "lat": 38.90849716666666, "is_reserved": 0, "is_disabled": 0, "fusion_lon": 0.0, "bike_id": "7060ac7da331091b2c407d6273a402b1", "lon": -77.02087033333333, "rental_uris": {"ios": "https://dc.lft.to/lastmile_qr_scan", "android": "https://dc.lft.to/lastmile_qr_scan"}}, {"name": "b823c8cb51dee25f2e058cc4a16372d8", "fusion_lat": 0.0, "type": "electric_scooter", "lat": 38.8972575, "is_reserved": 0, "is_disabled": 0, "fusion_lon": 0.0, "bike_id": "b823c8cb51dee25f2e058cc4a16372d8", "lon": -77.00211, "rental_uris": {"ios": "https://dc.lft.to/lastmile_qr_scan", "android": "https://dc.lft.to/lastmile_qr_scan"}}, {"name": "40737e6988f983255b9d8ee91c71da88", "fusion_lat": 0.0, "type": "electric_scooter", "lat": 38.899135666666666, "is_reserved": 0, "is_disabled": 0, "fusion_lon": 0.0, "bike_id": "40737e6988f983255b9d8ee91c71da88", "lon": -77.07096933333334, "rental_uris": {"ios": "https://dc.lft.to/lastmile_qr_scan", "android": "https://dc.lft.to/lastmile_qr_scan"}}, {"name": "c64a0ab6b4bf87b6d289f15442627d93", "fusion_lat": 0.0, "type": "electric_scooter", "lat": 38.906315166666666, "is_reserved": 0, "is_disabled": 0, "fusion_lon": 0.0, "bike_id": "c64a0ab6b4bf87b6d289f15442627d93", "lon": -77.05141933333333, "rental_uris": {"ios": "https://dc.lft.to/lastmile_qr_scan", "android": "https://dc.lft.to/lastmile_qr_scan"}}, {"name": "32786ebd2505151d4c1d03b54079c056", "fusion_lat": 0.0, "type": "electric_scooter", "lat": 38.8952775, "is_reserved": 0, "is_disabled": 0, "fusion_lon": 0.0, "bike_id": "32786ebd2505151d4c1d03b54079c056", "lon": -76.94923766666666, "rental_uris": {"ios": "https://dc.lft.to/lastmile_qr_scan", "android": "https://dc.lft.to/lastmile_qr_scan"}}, {"name": "c3f86867f207833af3c7b2cd05bdc3b0", "fusion_lat": 0.0, "type": "electric_scooter", "lat": 38.916790166666665, "is_reserved": 0, "is_disabled": 0, "fusion_lon": 0.0, "bike_id": "c3f86867f207833af3c7b2cd05bdc3b0", "lon": -77.02952833333333, "rental_uris": {"ios": "https://dc.lft.to/lastmile_qr_scan", "android": "https://dc.lft.to/lastmile_qr_scan"}}, {"name": "0b3bfba43a927114ea161d5686b092a7", "fusion_lat": 0.0, "type": "electric_scooter", "lat": 38.8962275, "is_reserved": 0, "is_disabled": 0, "fusion_lon": 0.0, "bike_id": "0b3bfba43a927114ea161d5686b092a7", "lon": -77.02379283333333, "rental_uris": {"ios": "https://dc.lft.to/lastmile_qr_scan", "android": "https://dc.lft.to/lastmile_qr_scan"}}, {"name": "6cc9f2cd5f20aa9431a551a4e4646f1d", "fusion_lat": 0.0, "type": "electric_scooter", "lat": 38.896071166666665, "is_reserved": 0, "is_disabled": 0, "fusion_lon": 0.0, "bike_id": "6cc9f2cd5f20aa9431a551a4e4646f1d", "lon": -77.0411535, "rental_uris": {"ios": "https://dc.lft.to/lastmile_qr_scan", "android": "https://dc.lft.to/lastmile_qr_scan"}}, {"name": "c0e641326a879adf48d602a794482f00", "fusion_lat": 0.0, "type": "electric_scooter", "lat": 38.87647783333333, "is_reserved": 0, "is_disabled": 0, "fusion_lon": 0.0, "bike_id": "c0e641326a879adf48d602a794482f00", "lon": -76.96505916666666, "rental_uris": {"ios": "https://dc.lft.to/lastmile_qr_scan", "android": "https://dc.lft.to/lastmile_qr_scan"}}, {"name": "cbe93f3b02a63ffe77e98735b00647bd", "fusion_lat": 0.0, "type": "electric_scooter", "lat": 38.884331833333334, "is_reserved": 0, "is_disabled": 0, "fusion_lon": 0.0, "bike_id": "cbe93f3b02a63ffe77e98735b00647bd", "lon": -76.95756466666667, "rental_uris": {"ios": "https://dc.lft.to/lastmile_qr_scan", "android": "https://dc.lft.to/lastmile_qr_scan"}}, {"name": "28af8702f757ee893d41d8df2b9a9d06", "fusion_lat": 0.0, "type": "electric_scooter", "lat": 38.916742, "is_reserved": 0, "is_disabled": 0, "fusion_lon": 0.0, "bike_id": "28af8702f757ee893d41d8df2b9a9d06", "lon": -77.03174666666666, "rental_uris": {"ios": "https://dc.lft.to/lastmile_qr_scan", "android": "https://dc.lft.to/lastmile_qr_scan"}}, {"name": "0b10f6601129a8089426648e41770a88", "fusion_lat": 0.0, "type": "electric_bike", "lat": 38.895613166666664, "is_reserved": 0, "is_disabled": 0, "fusion_lon": 0.0, "bike_id": "0b10f6601129a8089426648e41770a88", "lon": -77.12731516666666, "rental_uris": {"ios": "https://dc.lft.to/lastmile_qr_scan", "android": "https://dc.lft.to/lastmile_qr_scan"}}, {"name": "17701be9b208dfebbc8e255bc868ccf9", "fusion_lat": 0.0, "type": "electric_bike", "lat": 39.1056435, "is_reserved": 0, "is_disabled": 0, "fusion_lon": 0.0, "bike_id": "17701be9b208dfebbc8e255bc868ccf9", "lon": -77.15265783333334, "rental_uris": {"ios": "https://dc.lft.to/lastmile_qr_scan", "android": "https://dc.lft.to/lastmile_qr_scan"}}, {"name": "a7dcb5dd94c84adb2b79b8467a08fc35", "fusion_lat": 0.0, "type": "electric_bike", "lat": 38.922988, "is_reserved": 0, "is_disabled": 0, "fusion_lon": 0.0, "bike_id": "a7dcb5dd94c84adb2b79b8467a08fc35", "lon": -76.9937765, "rental_uris": {"ios": "https://dc.lft.to/lastmile_qr_scan", "android": "https://dc.lft.to/lastmile_qr_scan"}}, {"name": "b7eb805e7e012d7751fef04840fe222b", "fusion_lat": 0.0, "type": "electric_bike", "lat": 38.81053133333333, "is_reserved": 0, "is_disabled": 0, "fusion_lon": 0.0, "bike_id": "b7eb805e7e012d7751fef04840fe222b", "lon": -77.0851315, "rental_uris": {"ios": "https://dc.lft.to/lastmile_qr_scan", "android": "https://dc.lft.to/lastmile_qr_scan"}}, {"name": "ebb01b3ab08a883a9012da6d6a23a662", "fusion_lat": 0.0, "type": "electric_scooter", "lat": 38.895765, "is_reserved": 0, "is_disabled": 0, "fusion_lon": 0.0, "bike_id": "ebb01b3ab08a883a9012da6d6a23a662", "lon": -76.9818095, "rental_uris": {"ios": "https://dc.lft.to/lastmile_qr_scan", "android": "https://dc.lft.to/lastmile_qr_scan"}}, {"name": "5ae6b92523d11bab0c8e4ec4e2e407d2", "fusion_lat": 0.0, "type": "electric_scooter", "lat": 38.937538333333336, "is_reserved": 0, "is_disabled": 0, "fusion_lon": 0.0, "bike_id": "5ae6b92523d11bab0c8e4ec4e2e407d2", "lon": -77.02489433333334, "rental_uris": {"ios": "https://dc.lft.to/lastmile_qr_scan", "android": "https://dc.lft.to/lastmile_qr_scan"}}, {"name": "28ae0d7019e0ba8419c1a1941846dd9d", "fusion_lat": 0.0, "type": "electric_scooter", "lat": 38.89231066666667, "is_reserved": 0, "is_disabled": 0, "fusion_lon": 0.0, "bike_id": "28ae0d7019e0ba8419c1a1941846dd9d", "lon": -77.0500125, "rental_uris": {"ios": "https://dc.lft.to/lastmile_qr_scan", "android": "https://dc.lft.to/lastmile_qr_scan"}}, {"name": "dd5fb93860c4a2fb56bbe314e1b6eedd", "fusion_lat": 0.0, "type": "electric_scooter", "lat": 38.912537, "is_reserved": 0, "is_disabled": 0, "fusion_lon": 0.0, "bike_id": "dd5fb93860c4a2fb56bbe314e1b6eedd", "lon": -77.00772266666667, "rental_uris": {"ios": "https://dc.lft.to/lastmile_qr_scan", "android": "https://dc.lft.to/lastmile_qr_scan"}}, {"name": "9dbbcb487b7fa4102bb4914df933b39d", "fusion_lat": 0.0, "type": "electric_scooter", "lat": 38.92053633333333, "is_reserved": 0, "is_disabled": 0, "fusion_lon": 0.0, "bike_id": "9dbbcb487b7fa4102bb4914df933b39d", "lon": -77.02424933333333, "rental_uris": {"ios": "https://dc.lft.to/lastmile_qr_scan", "android": "https://dc.lft.to/lastmile_qr_scan"}}, {"name": "3c63de8d668ea6350ab83503ee5380cb", "fusion_lat": 0.0, "type": "electric_bike", "lat": 38.854477, "is_reserved": 0, "is_disabled": 0, "fusion_lon": 0.0, "bike_id": "3c63de8d668ea6350ab83503ee5380cb", "lon": -76.90979916666667, "rental_uris": {"ios": "https://dc.lft.to/lastmile_qr_scan", "android": "https://dc.lft.to/lastmile_qr_scan"}}, {"name": "c842110dd7a169b4b5d45e168a2ee511", "fusion_lat": 0.0, "type": "electric_scooter", "lat": 38.92122, "is_reserved": 0, "is_disabled": 0, "fusion_lon": 0.0, "bike_id": "c842110dd7a169b4b5d45e168a2ee511", "lon": -77.01304616666667, "rental_uris": {"ios": "https://dc.lft.to/lastmile_qr_scan", "android": "https://dc.lft.to/lastmile_qr_scan"}}, {"name": "f3dd05e606107d7f146e2005aa564153", "fusion_lat": 0.0, "type": "electric_scooter", "lat": 38.939271, "is_reserved": 0, "is_disabled": 0, "fusion_lon": 0.0, "bike_id": "f3dd05e606107d7f146e2005aa564153", "lon": -77.03682033333334, "rental_uris": {"ios": "https://dc.lft.to/lastmile_qr_scan", "android": "https://dc.lft.to/lastmile_qr_scan"}}, {"name": "9285aa7b036be68a67817a38657e4fe6", "fusion_lat": 0.0, "type": "electric_scooter", "lat": 38.900758833333335, "is_reserved": 0, "is_disabled": 0, "fusion_lon": 0.0, "bike_id": "9285aa7b036be68a67817a38657e4fe6", "lon": -77.05196933333333, "rental_uris": {"ios": "https://dc.lft.to/lastmile_qr_scan", "android": "https://dc.lft.to/lastmile_qr_scan"}}, {"name": "5ae7bb1517729929347398dbd895f952", "fusion_lat": 0.0, "type": "electric_scooter", "lat": 38.895259333333335, "is_reserved": 0, "is_disabled": 0, "fusion_lon": 0.0, "bike_id": "5ae7bb1517729929347398dbd895f952", "lon": -76.94885916666667, "rental_uris": {"ios": "https://dc.lft.to/lastmile_qr_scan", "android": "https://dc.lft.to/lastmile_qr_scan"}}, {"name": "cacab7e7f85821fbdde844e6b11741a8", "fusion_lat": 0.0, "type": "electric_scooter", "lat": 38.90958233333333, "is_reserved": 0, "is_disabled": 0, "fusion_lon": 0.0, "bike_id": "cacab7e7f85821fbdde844e6b11741a8", "lon": -77.03167233333333, "rental_uris": {"ios": "https://dc.lft.to/lastmile_qr_scan", "android": "https://dc.lft.to/lastmile_qr_scan"}}, {"name": "d3cb434d534fb4107bdfa34a02d94ed8", "fusion_lat": 0.0, "type": "electric_scooter", "lat": 38.909585666666665, "is_reserved": 0, "is_disabled": 0, "fusion_lon": 0.0, "bike_id": "d3cb434d534fb4107bdfa34a02d94ed8", "lon": -77.02382466666667, "rental_uris": {"ios": "https://dc.lft.to/lastmile_qr_scan", "android": "https://dc.lft.to/lastmile_qr_scan"}}, {"name": "b2e872de19cf94c769b6a72126d527e1", "fusion_lat": 0.0, "type": "electric_scooter", "lat": 38.95274933333334, "is_reserved": 0, "is_disabled": 0, "fusion_lon": 0.0, "bike_id": "b2e872de19cf94c769b6a72126d527e1", "lon": -77.07148583333333, "rental_uris": {"ios": "https://dc.lft.to/lastmile_qr_scan", "android": "https://dc.lft.to/lastmile_qr_scan"}}, {"name": "c4f685018b7589b108d62ff71815fac9", "fusion_lat": 0.0, "type": "electric_scooter", "lat": 38.916932, "is_reserved": 0, "is_disabled": 0, "fusion_lon": 0.0, "bike_id": "c4f685018b7589b108d62ff71815fac9", "lon": -77.031443, "rental_uris": {"ios": "https://dc.lft.to/lastmile_qr_scan", "android": "https://dc.lft.to/lastmile_qr_scan"}}, {"name": "ca11f7f05a8ef7115ff5e6208332e9ed", "fusion_lat": 0.0, "type": "electric_bike", "lat": 38.802251166666665, "is_reserved": 0, "is_disabled": 0, "fusion_lon": 0.0, "bike_id": "ca11f7f05a8ef7115ff5e6208332e9ed", "lon": -77.07913133333334, "rental_uris": {"ios": "https://dc.lft.to/lastmile_qr_scan", "android": "https://dc.lft.to/lastmile_qr_scan"}}, {"name": "a08c5f32b9f1aaee9412b45c5cd4353a", "fusion_lat": 0.0, "type": "electric_scooter", "lat": 38.91577, "is_reserved": 0, "is_disabled": 0, "fusion_lon": 0.0, "bike_id": "a08c5f32b9f1aaee9412b45c5cd4353a", "lon": -77.0466665, "rental_uris": {"ios": "https://dc.lft.to/lastmile_qr_scan", "android": "https://dc.lft.to/lastmile_qr_scan"}}, {"name": "f4757f750379e54d438e6e2c825ca67b", "fusion_lat": 0.0, "type": "electric_scooter", "lat": 38.90613483333333, "is_reserved": 0, "is_disabled": 0, "fusion_lon": 0.0, "bike_id": "f4757f750379e54d438e6e2c825ca67b", "lon": -77.02408416666667, "rental_uris": {"ios": "https://dc.lft.to/lastmile_qr_scan", "android": "https://dc.lft.to/lastmile_qr_scan"}}, {"name": "ccc934dd669ce7d5dc2fbf6be4e3910a", "fusion_lat": 0.0, "type": "electric_scooter", "lat": 38.90352516666667, "is_reserved": 0, "is_disabled": 0, "fusion_lon": 0.0, "bike_id": "ccc934dd669ce7d5dc2fbf6be4e3910a", "lon": -77.01109083333333, "rental_uris": {"ios": "https://dc.lft.to/lastmile_qr_scan", "android": "https://dc.lft.to/lastmile_qr_scan"}}, {"name": "6dc02534abe95c59f40882e2b790a9c6", "fusion_lat": 0.0, "type": "electric_bike", "lat": 38.935663166666664, "is_reserved": 0, "is_disabled": 0, "fusion_lon": 0.0, "bike_id": "6dc02534abe95c59f40882e2b790a9c6", "lon": -77.104408, "rental_uris": {"ios": "https://dc.lft.to/lastmile_qr_scan", "android": "https://dc.lft.to/lastmile_qr_scan"}}, {"name": "40afa7b549e3d3c3198b2633402a87cc", "fusion_lat": 0.0, "type": "electric_scooter", "lat": 38.90267583333333, "is_reserved": 0, "is_disabled": 0, "fusion_lon": 0.0, "bike_id": "40afa7b549e3d3c3198b2633402a87cc", "lon": -76.99855733333334, "rental_uris": {"ios": "https://dc.lft.to/lastmile_qr_scan", "android": "https://dc.lft.to/lastmile_qr_scan"}}, {"name": "2f3ead3ad32bf7eed44ee745f9b8c2cb", "fusion_lat": 0.0, "type": "electric_scooter", "lat": 38.895255, "is_reserved": 0, "is_disabled": 0, "fusion_lon": 0.0, "bike_id": "2f3ead3ad32bf7eed44ee745f9b8c2cb", "lon": -77.04288633333333, "rental_uris": {"ios": "https://dc.lft.to/lastmile_qr_scan", "android": "https://dc.lft.to/lastmile_qr_scan"}}, {"name": "f8cee81472aa35bcbbb15dc92b2e2fdf", "fusion_lat": 0.0, "type": "electric_scooter", "lat": 38.91127783333334, "is_reserved": 0, "is_disabled": 0, "fusion_lon": 0.0, "bike_id": "f8cee81472aa35bcbbb15dc92b2e2fdf", "lon": -77.0220195, "rental_uris": {"ios": "https://dc.lft.to/lastmile_qr_scan", "android": "https://dc.lft.to/lastmile_qr_scan"}}, {"name": "4e446541ece956feda7fc59885e82972", "fusion_lat": 0.0, "type": "electric_scooter", "lat": 38.91870083333333, "is_reserved": 0, "is_disabled": 0, "fusion_lon": 0.0, "bike_id": "4e446541ece956feda7fc59885e82972", "lon": -77.03664016666667, "rental_uris": {"ios": "https://dc.lft.to/lastmile_qr_scan", "android": "https://dc.lft.to/lastmile_qr_scan"}}, {"name": "59499eb93293f926a481278dea3b6f0e", "fusion_lat": 0.0, "type": "electric_scooter", "lat": 38.901540833333335, "is_reserved": 0, "is_disabled": 0, "fusion_lon": 0.0, "bike_id": "59499eb93293f926a481278dea3b6f0e", "lon": -76.930602, "rental_uris": {"ios": "https://dc.lft.to/lastmile_qr_scan", "android": "https://dc.lft.to/lastmile_qr_scan"}}, {"name": "e902ff55598750de00810ae761879030", "fusion_lat": 0.0, "type": "electric_scooter", "lat": 38.886534166666664, "is_reserved": 0, "is_disabled": 0, "fusion_lon": 0.0, "bike_id": "e902ff55598750de00810ae761879030", "lon": -77.013696, "rental_uris": {"ios": "https://dc.lft.to/lastmile_qr_scan", "android": "https://dc.lft.to/lastmile_qr_scan"}}, {"name": "afa87e19950f195478399ed41470b8df", "fusion_lat": 0.0, "type": "electric_bike", "lat": 38.906832666666666, "is_reserved": 0, "is_disabled": 0, "fusion_lon": 0.0, "bike_id": "afa87e19950f195478399ed41470b8df", "lon": -76.95184933333333, "rental_uris": {"ios": "https://dc.lft.to/lastmile_qr_scan", "android": "https://dc.lft.to/lastmile_qr_scan"}}, {"name": "dc70bd503eac035124be39ed28677068", "fusion_lat": 0.0, "type": "electric_scooter", "lat": 38.876268333333336, "is_reserved": 0, "is_disabled": 0, "fusion_lon": 0.0, "bike_id": "dc70bd503eac035124be39ed28677068", "lon": -76.96519866666667, "rental_uris": {"ios": "https://dc.lft.to/lastmile_qr_scan", "android": "https://dc.lft.to/lastmile_qr_scan"}}, {"name": "b5fe19db6f8b09d9443483f5e61f3bb8", "fusion_lat": 0.0, "type": "electric_scooter", "lat": 38.941771333333335, "is_reserved": 0, "is_disabled": 0, "fusion_lon": 0.0, "bike_id": "b5fe19db6f8b09d9443483f5e61f3bb8", "lon": -77.04134783333333, "rental_uris": {"ios": "https://dc.lft.to/lastmile_qr_scan", "android": "https://dc.lft.to/lastmile_qr_scan"}}, {"name": "54f5696d9fae5eb9fe8db755b5fdfd75", "fusion_lat": 0.0, "type": "electric_scooter", "lat": 38.91489166666667, "is_reserved": 0, "is_disabled": 0, "fusion_lon": 0.0, "bike_id": "54f5696d9fae5eb9fe8db755b5fdfd75", "lon": -77.0326125, "rental_uris": {"ios": "https://dc.lft.to/lastmile_qr_scan", "android": "https://dc.lft.to/lastmile_qr_scan"}}, {"name": "51eb75958defaf3504257be4ecde3709", "fusion_lat": 0.0, "type": "electric_scooter", "lat": 38.903526166666666, "is_reserved": 0, "is_disabled": 0, "fusion_lon": 0.0, "bike_id": "51eb75958defaf3504257be4ecde3709", "lon": -77.01108616666667, "rental_uris": {"ios": "https://dc.lft.to/lastmile_qr_scan", "android": "https://dc.lft.to/lastmile_qr_scan"}}, {"name": "6b780cbee9b40992fb1f867d200ad702", "fusion_lat": 0.0, "type": "electric_scooter", "lat": 38.90050683333333, "is_reserved": 0, "is_disabled": 0, "fusion_lon": 0.0, "bike_id": "6b780cbee9b40992fb1f867d200ad702", "lon": -76.9475365, "rental_uris": {"ios": "https://dc.lft.to/lastmile_qr_scan", "android": "https://dc.lft.to/lastmile_qr_scan"}}, {"name": "ede05b4bce9ae82e92cc4521f2c90e60", "fusion_lat": 0.0, "type": "electric_scooter", "lat": 38.91987483333333, "is_reserved": 0, "is_disabled": 0, "fusion_lon": 0.0, "bike_id": "ede05b4bce9ae82e92cc4521f2c90e60", "lon": -77.03329583333333, "rental_uris": {"ios": "https://dc.lft.to/lastmile_qr_scan", "android": "https://dc.lft.to/lastmile_qr_scan"}}, {"name": "0d4f4704692cb6e9f087b4676245655e", "fusion_lat": 0.0, "type": "electric_scooter", "lat": 38.918407333333334, "is_reserved": 0, "is_disabled": 0, "fusion_lon": 0.0, "bike_id": "0d4f4704692cb6e9f087b4676245655e", "lon": -77.026049, "rental_uris": {"ios": "https://dc.lft.to/lastmile_qr_scan", "android": "https://dc.lft.to/lastmile_qr_scan"}}, {"name": "a4dcedf8e2539769667d7388ba584dbe", "fusion_lat": 0.0, "type": "electric_bike", "lat": 38.8638845, "is_reserved": 0, "is_disabled": 0, "fusion_lon": 0.0, "bike_id": "a4dcedf8e2539769667d7388ba584dbe", "lon": -76.98991083333334, "rental_uris": {"ios": "https://dc.lft.to/lastmile_qr_scan", "android": "https://dc.lft.to/lastmile_qr_scan"}}, {"name": "261b4d6e3ee6234a0eaa7bda687f53f8", "fusion_lat": 0.0, "type": "electric_scooter", "lat": 38.8841465, "is_reserved": 0, "is_disabled": 0, "fusion_lon": 0.0, "bike_id": "261b4d6e3ee6234a0eaa7bda687f53f8", "lon": -77.01959283333333, "rental_uris": {"ios": "https://dc.lft.to/lastmile_qr_scan", "android": "https://dc.lft.to/lastmile_qr_scan"}}, {"name": "0008fc9816d54cd40b1a7bbcc6501613", "fusion_lat": 0.0, "type": "electric_scooter", "lat": 38.90553383333334, "is_reserved": 0, "is_disabled": 0, "fusion_lon": 0.0, "bike_id": "0008fc9816d54cd40b1a7bbcc6501613", "lon": -77.04512516666666, "rental_uris": {"ios": "https://dc.lft.to/lastmile_qr_scan", "android": "https://dc.lft.to/lastmile_qr_scan"}}, {"name": "1e62d08bb5d1b8f951ce27c4d1650cbc", "fusion_lat": 0.0, "type": "electric_scooter", "lat": 38.921457333333336, "is_reserved": 0, "is_disabled": 0, "fusion_lon": 0.0, "bike_id": "1e62d08bb5d1b8f951ce27c4d1650cbc", "lon": -77.03375383333334, "rental_uris": {"ios": "https://dc.lft.to/lastmile_qr_scan", "android": "https://dc.lft.to/lastmile_qr_scan"}}, {"name": "c9f4d873a7d0df2bee6a1d01acdfa7a8", "fusion_lat": 0.0, "type": "electric_bike", "lat": 38.94904, "is_reserved": 0, "is_disabled": 0, "fusion_lon": 0.0, "bike_id": "c9f4d873a7d0df2bee6a1d01acdfa7a8", "lon": -76.963693, "rental_uris": {"ios": "https://dc.lft.to/lastmile_qr_scan", "android": "https://dc.lft.to/lastmile_qr_scan"}}, {"name": "5dcad7a30a32249f94249ffa97ff9460", "fusion_lat": 0.0, "type": "electric_scooter", "lat": 38.9561465, "is_reserved": 0, "is_disabled": 0, "fusion_lon": 0.0, "bike_id": "5dcad7a30a32249f94249ffa97ff9460", "lon": -77.07713616666666, "rental_uris": {"ios": "https://dc.lft.to/lastmile_qr_scan", "android": "https://dc.lft.to/lastmile_qr_scan"}}, {"name": "834f082a4424f02353e9ea023e828ddd", "fusion_lat": 0.0, "type": "electric_scooter", "lat": 38.938689333333336, "is_reserved": 0, "is_disabled": 0, "fusion_lon": 0.0, "bike_id": "834f082a4424f02353e9ea023e828ddd", "lon": -77.02672066666666, "rental_uris": {"ios": "https://dc.lft.to/lastmile_qr_scan", "android": "https://dc.lft.to/lastmile_qr_scan"}}, {"name": "ac0cb908e41527fd8df3fa46d2bb14b4", "fusion_lat": 0.0, "type": "electric_scooter", "lat": 38.920171833333335, "is_reserved": 0, "is_disabled": 0, "fusion_lon": 0.0, "bike_id": "ac0cb908e41527fd8df3fa46d2bb14b4", "lon": -77.0317735, "rental_uris": {"ios": "https://dc.lft.to/lastmile_qr_scan", "android": "https://dc.lft.to/lastmile_qr_scan"}}, {"name": "82ac49182a1add85d161b70c0276559a", "fusion_lat": 0.0, "type": "electric_scooter", "lat": 38.865387, "is_reserved": 0, "is_disabled": 0, "fusion_lon": 0.0, "bike_id": "82ac49182a1add85d161b70c0276559a", "lon": -76.98707416666667, "rental_uris": {"ios": "https://dc.lft.to/lastmile_qr_scan", "android": "https://dc.lft.to/lastmile_qr_scan"}}, {"name": "9b22f2e8316a9bb53293cb28a28712e1", "fusion_lat": 0.0, "type": "electric_scooter", "lat": 38.919149, "is_reserved": 0, "is_disabled": 0, "fusion_lon": 0.0, "bike_id": "9b22f2e8316a9bb53293cb28a28712e1", "lon": -77.02499233333333, "rental_uris": {"ios": "https://dc.lft.to/lastmile_qr_scan", "android": "https://dc.lft.to/lastmile_qr_scan"}}, {"name": "0370c6a40824d1f38e49551031b0a736", "fusion_lat": 0.0, "type": "electric_scooter", "lat": 38.90027883333333, "is_reserved": 0, "is_disabled": 0, "fusion_lon": 0.0, "bike_id": "0370c6a40824d1f38e49551031b0a736", "lon": -76.99862283333333, "rental_uris": {"ios": "https://dc.lft.to/lastmile_qr_scan", "android": "https://dc.lft.to/lastmile_qr_scan"}}, {"name": "efc7e93b98ffd9ac6641f2df39ea4ae8", "fusion_lat": 0.0, "type": "electric_scooter", "lat": 38.911787833333335, "is_reserved": 0, "is_disabled": 0, "fusion_lon": 0.0, "bike_id": "efc7e93b98ffd9ac6641f2df39ea4ae8", "lon": -77.03207166666667, "rental_uris": {"ios": "https://dc.lft.to/lastmile_qr_scan", "android": "https://dc.lft.to/lastmile_qr_scan"}}, {"name": "dafb0e4c4b39f2883ff594e23b6fc145", "fusion_lat": 0.0, "type": "electric_scooter", "lat": 38.9290385, "is_reserved": 0, "is_disabled": 0, "fusion_lon": 0.0, "bike_id": "dafb0e4c4b39f2883ff594e23b6fc145", "lon": -77.00525566666667, "rental_uris": {"ios": "https://dc.lft.to/lastmile_qr_scan", "android": "https://dc.lft.to/lastmile_qr_scan"}}, {"name": "43a2b333fb519b20ac584f6bc8277fb5", "fusion_lat": 0.0, "type": "electric_scooter", "lat": 38.915457, "is_reserved": 0, "is_disabled": 0, "fusion_lon": 0.0, "bike_id": "43a2b333fb519b20ac584f6bc8277fb5", "lon": -77.03853966666667, "rental_uris": {"ios": "https://dc.lft.to/lastmile_qr_scan", "android": "https://dc.lft.to/lastmile_qr_scan"}}, {"name": "3f8ce35402d3fa5b4aa2e70a11eaec22", "fusion_lat": 0.0, "type": "electric_scooter", "lat": 38.91195733333333, "is_reserved": 0, "is_disabled": 0, "fusion_lon": 0.0, "bike_id": "3f8ce35402d3fa5b4aa2e70a11eaec22", "lon": -77.03443616666667, "rental_uris": {"ios": "https://dc.lft.to/lastmile_qr_scan", "android": "https://dc.lft.to/lastmile_qr_scan"}}, {"name": "0d0b4c4100709ead691ff4abf66cb80b", "fusion_lat": 0.0, "type": "electric_scooter", "lat": 38.902456666666666, "is_reserved": 0, "is_disabled": 0, "fusion_lon": 0.0, "bike_id": "0d0b4c4100709ead691ff4abf66cb80b", "lon": -77.02994616666666, "rental_uris": {"ios": "https://dc.lft.to/lastmile_qr_scan", "android": "https://dc.lft.to/lastmile_qr_scan"}}, {"name": "5220bd68c734d026f2508a056e2e9ed3", "fusion_lat": 0.0, "type": "electric_scooter", "lat": 38.91812783333334, "is_reserved": 0, "is_disabled": 0, "fusion_lon": 0.0, "bike_id": "5220bd68c734d026f2508a056e2e9ed3", "lon": -77.0356445, "rental_uris": {"ios": "https://dc.lft.to/lastmile_qr_scan", "android": "https://dc.lft.to/lastmile_qr_scan"}}, {"name": "16880503f798fca59d82ee0b2c10b60e", "fusion_lat": 0.0, "type": "electric_scooter", "lat": 38.900398, "is_reserved": 0, "is_disabled": 0, "fusion_lon": 0.0, "bike_id": "16880503f798fca59d82ee0b2c10b60e", "lon": -77.01186716666666, "rental_uris": {"ios": "https://dc.lft.to/lastmile_qr_scan", "android": "https://dc.lft.to/lastmile_qr_scan"}}, {"name": "69ffabdae45cb2725f74b5dd0c7cd71f", "fusion_lat": 0.0, "type": "electric_scooter", "lat": 38.876494, "is_reserved": 0, "is_disabled": 0, "fusion_lon": 0.0, "bike_id": "69ffabdae45cb2725f74b5dd0c7cd71f", "lon": -77.00837566666667, "rental_uris": {"ios": "https://dc.lft.to/lastmile_qr_scan", "android": "https://dc.lft.to/lastmile_qr_scan"}}, {"name": "84a5dac4801ebe3d8147bf20de20ddad", "fusion_lat": 0.0, "type": "electric_scooter", "lat": 38.961765666666665, "is_reserved": 0, "is_disabled": 0, "fusion_lon": 0.0, "bike_id": "84a5dac4801ebe3d8147bf20de20ddad", "lon": -77.03227716666666, "rental_uris": {"ios": "https://dc.lft.to/lastmile_qr_scan", "android": "https://dc.lft.to/lastmile_qr_scan"}}, {"name": "922cf4f05935b67f64c1335922235b3d", "fusion_lat": 0.0, "type": "electric_bike", "lat": 38.8616215, "is_reserved": 0, "is_disabled": 0, "fusion_lon": 0.0, "bike_id": "922cf4f05935b67f64c1335922235b3d", "lon": -77.13095166666666, "rental_uris": {"ios": "https://dc.lft.to/lastmile_qr_scan", "android": "https://dc.lft.to/lastmile_qr_scan"}}, {"name": "1d24bd910abb8c6bf70d1916707ea40d", "fusion_lat": 0.0, "type": "electric_bike", "lat": 38.96760783333333, "is_reserved": 0, "is_disabled": 0, "fusion_lon": 0.0, "bike_id": "1d24bd910abb8c6bf70d1916707ea40d", "lon": -77.09158, "rental_uris": {"ios": "https://dc.lft.to/lastmile_qr_scan", "android": "https://dc.lft.to/lastmile_qr_scan"}}, {"name": "311622c211ad38f9008a3f0fa7642d18", "fusion_lat": 0.0, "type": "electric_scooter", "lat": 38.905580666666665, "is_reserved": 0, "is_disabled": 0, "fusion_lon": 0.0, "bike_id": "311622c211ad38f9008a3f0fa7642d18", "lon": -77.0181455, "rental_uris": {"ios": "https://dc.lft.to/lastmile_qr_scan", "android": "https://dc.lft.to/lastmile_qr_scan"}}, {"name": "19fc09c2167e37289aa7f32638e662dd", "fusion_lat": 0.0, "type": "electric_scooter", "lat": 38.883605833333334, "is_reserved": 0, "is_disabled": 0, "fusion_lon": 0.0, "bike_id": "19fc09c2167e37289aa7f32638e662dd", "lon": -77.023329, "rental_uris": {"ios": "https://dc.lft.to/lastmile_qr_scan", "android": "https://dc.lft.to/lastmile_qr_scan"}}, {"name": "c67cfc47ba5d5445d76a25f472baaf7e", "fusion_lat": 0.0, "type": "electric_scooter", "lat": 38.90961, "is_reserved": 0, "is_disabled": 0, "fusion_lon": 0.0, "bike_id": "c67cfc47ba5d5445d76a25f472baaf7e", "lon": -77.02745466666667, "rental_uris": {"ios": "https://dc.lft.to/lastmile_qr_scan", "android": "https://dc.lft.to/lastmile_qr_scan"}}, {"name": "33051a8638317df410ef185bfadc5949", "fusion_lat": 0.0, "type": "electric_scooter", "lat": 38.90236566666667, "is_reserved": 0, "is_disabled": 0, "fusion_lon": 0.0, "bike_id": "33051a8638317df410ef185bfadc5949", "lon": -76.974115, "rental_uris": {"ios": "https://dc.lft.to/lastmile_qr_scan", "android": "https://dc.lft.to/lastmile_qr_scan"}}, {"name": "d9ac39329ce5185aa023f2c439961ed7", "fusion_lat": 0.0, "type": "electric_scooter", "lat": 38.90133483333334, "is_reserved": 0, "is_disabled": 0, "fusion_lon": 0.0, "bike_id": "d9ac39329ce5185aa023f2c439961ed7", "lon": -77.0394355, "rental_uris": {"ios": "https://dc.lft.to/lastmile_qr_scan", "android": "https://dc.lft.to/lastmile_qr_scan"}}, {"name": "303ffb01b45f70d6060e2115543dcd2c", "fusion_lat": 0.0, "type": "electric_scooter", "lat": 38.92182916666667, "is_reserved": 0, "is_disabled": 0, "fusion_lon": 0.0, "bike_id": "303ffb01b45f70d6060e2115543dcd2c", "lon": -77.02661233333333, "rental_uris": {"ios": "https://dc.lft.to/lastmile_qr_scan", "android": "https://dc.lft.to/lastmile_qr_scan"}}, {"name": "11e718b3ee64bd6723d89a5136438cdf", "fusion_lat": 0.0, "type": "electric_scooter", "lat": 38.91740633333333, "is_reserved": 0, "is_disabled": 0, "fusion_lon": 0.0, "bike_id": "11e718b3ee64bd6723d89a5136438cdf", "lon": -77.0364125, "rental_uris": {"ios": "https://dc.lft.to/lastmile_qr_scan", "android": "https://dc.lft.to/lastmile_qr_scan"}}, {"name": "fcf38f66c9539fb1595b9d255bf0a931", "fusion_lat": 0.0, "type": "electric_scooter", "lat": 38.914053833333334, "is_reserved": 0, "is_disabled": 0, "fusion_lon": 0.0, "bike_id": "fcf38f66c9539fb1595b9d255bf0a931", "lon": -77.0080495, "rental_uris": {"ios": "https://dc.lft.to/lastmile_qr_scan", "android": "https://dc.lft.to/lastmile_qr_scan"}}, {"name": "eabd5c71002b08910b83121eaa845747", "fusion_lat": 0.0, "type": "electric_scooter", "lat": 38.913338833333334, "is_reserved": 0, "is_disabled": 0, "fusion_lon": 0.0, "bike_id": "eabd5c71002b08910b83121eaa845747", "lon": -77.0022755, "rental_uris": {"ios": "https://dc.lft.to/lastmile_qr_scan", "android": "https://dc.lft.to/lastmile_qr_scan"}}, {"name": "71f1e237b015d500027a4f06bf157631", "fusion_lat": 0.0, "type": "electric_scooter", "lat": 38.917648, "is_reserved": 0, "is_disabled": 0, "fusion_lon": 0.0, "bike_id": "71f1e237b015d500027a4f06bf157631", "lon": -77.023149, "rental_uris": {"ios": "https://dc.lft.to/lastmile_qr_scan", "android": "https://dc.lft.to/lastmile_qr_scan"}}, {"name": "15de441c5fea4c43ff82be41f6f78864", "fusion_lat": 0.0, "type": "electric_scooter", "lat": 38.921594999999996, "is_reserved": 0, "is_disabled": 0, "fusion_lon": 0.0, "bike_id": "15de441c5fea4c43ff82be41f6f78864", "lon": -77.03437566666666, "rental_uris": {"ios": "https://dc.lft.to/lastmile_qr_scan", "android": "https://dc.lft.to/lastmile_qr_scan"}}, {"name": "e5e3cb082f41ca189f56090712886848", "fusion_lat": 0.0, "type": "electric_scooter", "lat": 38.88051433333333, "is_reserved": 0, "is_disabled": 0, "fusion_lon": 0.0, "bike_id": "e5e3cb082f41ca189f56090712886848", "lon": -77.01323383333333, "rental_uris": {"ios": "https://dc.lft.to/lastmile_qr_scan", "android": "https://dc.lft.to/lastmile_qr_scan"}}, {"name": "74229220b6b36fdb53c1d0aabe16c2ee", "fusion_lat": 0.0, "type": "electric_scooter", "lat": 38.90031333333334, "is_reserved": 0, "is_disabled": 0, "fusion_lon": 0.0, "bike_id": "74229220b6b36fdb53c1d0aabe16c2ee", "lon": -77.03978883333333, "rental_uris": {"ios": "https://dc.lft.to/lastmile_qr_scan", "android": "https://dc.lft.to/lastmile_qr_scan"}}, {"name": "7598b9c3e6fec9ce44540b9ec2a2b0e7", "fusion_lat": 0.0, "type": "electric_scooter", "lat": 38.911953, "is_reserved": 0, "is_disabled": 0, "fusion_lon": 0.0, "bike_id": "7598b9c3e6fec9ce44540b9ec2a2b0e7", "lon": -77.04511916666667, "rental_uris": {"ios": "https://dc.lft.to/lastmile_qr_scan", "android": "https://dc.lft.to/lastmile_qr_scan"}}, {"name": "364f0e6780eaba9efe390654a3ba754f", "fusion_lat": 0.0, "type": "electric_scooter", "lat": 38.9064455, "is_reserved": 0, "is_disabled": 0, "fusion_lon": 0.0, "bike_id": "364f0e6780eaba9efe390654a3ba754f", "lon": -77.05328266666666, "rental_uris": {"ios": "https://dc.lft.to/lastmile_qr_scan", "android": "https://dc.lft.to/lastmile_qr_scan"}}, {"name": "7c30c5f1f32b1c0da5d53e0259fb15cb", "fusion_lat": 0.0, "type": "electric_scooter", "lat": 38.9161315, "is_reserved": 0, "is_disabled": 0, "fusion_lon": 0.0, "bike_id": "7c30c5f1f32b1c0da5d53e0259fb15cb", "lon": -77.0364305, "rental_uris": {"ios": "https://dc.lft.to/lastmile_qr_scan", "android": "https://dc.lft.to/lastmile_qr_scan"}}, {"name": "92eacd48149e14fea1774bae9a8cdeef", "fusion_lat": 0.0, "type": "electric_scooter", "lat": 38.89903533333333, "is_reserved": 0, "is_disabled": 0, "fusion_lon": 0.0, "bike_id": "92eacd48149e14fea1774bae9a8cdeef", "lon": -77.039288, "rental_uris": {"ios": "https://dc.lft.to/lastmile_qr_scan", "android": "https://dc.lft.to/lastmile_qr_scan"}}, {"name": "ebc558ad17bcfd331feac2bddfb65cb5", "fusion_lat": 0.0, "type": "electric_scooter", "lat": 38.91930283333333, "is_reserved": 0, "is_disabled": 0, "fusion_lon": 0.0, "bike_id": "ebc558ad17bcfd331feac2bddfb65cb5", "lon": -77.03190383333333, "rental_uris": {"ios": "https://dc.lft.to/lastmile_qr_scan", "android": "https://dc.lft.to/lastmile_qr_scan"}}, {"name": "82548529e76fd3db5d27a0de42e5a2f6", "fusion_lat": 0.0, "type": "electric_scooter", "lat": 38.895475, "is_reserved": 0, "is_disabled": 0, "fusion_lon": 0.0, "bike_id": "82548529e76fd3db5d27a0de42e5a2f6", "lon": -77.02922766666667, "rental_uris": {"ios": "https://dc.lft.to/lastmile_qr_scan", "android": "https://dc.lft.to/lastmile_qr_scan"}}, {"name": "4dda1598d6567e0d9ebffb08bfaf530b", "fusion_lat": 0.0, "type": "electric_scooter", "lat": 38.88731166666667, "is_reserved": 0, "is_disabled": 0, "fusion_lon": 0.0, "bike_id": "4dda1598d6567e0d9ebffb08bfaf530b", "lon": -77.01765866666666, "rental_uris": {"ios": "https://dc.lft.to/lastmile_qr_scan", "android": "https://dc.lft.to/lastmile_qr_scan"}}, {"name": "8cd48f8df1123549a46bca9a34ac2e8a", "fusion_lat": 0.0, "type": "electric_scooter", "lat": 38.92070783333333, "is_reserved": 0, "is_disabled": 0, "fusion_lon": 0.0, "bike_id": "8cd48f8df1123549a46bca9a34ac2e8a", "lon": -76.99859333333333, "rental_uris": {"ios": "https://dc.lft.to/lastmile_qr_scan", "android": "https://dc.lft.to/lastmile_qr_scan"}}, {"name": "3439bed79112aa2807183dc80043e957", "fusion_lat": 0.0, "type": "electric_bike", "lat": 38.946257, "is_reserved": 0, "is_disabled": 0, "fusion_lon": 0.0, "bike_id": "3439bed79112aa2807183dc80043e957", "lon": -76.946289, "rental_uris": {"ios": "https://dc.lft.to/lastmile_qr_scan", "android": "https://dc.lft.to/lastmile_qr_scan"}}, {"name": "61ec546b863519ae369c0acc5ed8bc7e", "fusion_lat": 0.0, "type": "electric_scooter", "lat": 38.8985295, "is_reserved": 0, "is_disabled": 0, "fusion_lon": 0.0, "bike_id": "61ec546b863519ae369c0acc5ed8bc7e", "lon": -77.01998766666667, "rental_uris": {"ios": "https://dc.lft.to/lastmile_qr_scan", "android": "https://dc.lft.to/lastmile_qr_scan"}}, {"name": "69394de5fa7d2a51b34946ddb2e36835", "fusion_lat": 0.0, "type": "electric_scooter", "lat": 38.93018683333333, "is_reserved": 0, "is_disabled": 0, "fusion_lon": 0.0, "bike_id": "69394de5fa7d2a51b34946ddb2e36835", "lon": -77.03789466666667, "rental_uris": {"ios": "https://dc.lft.to/lastmile_qr_scan", "android": "https://dc.lft.to/lastmile_qr_scan"}}, {"name": "d37b8aae5324e16aa06d211aa80e7efb", "fusion_lat": 0.0, "type": "electric_scooter", "lat": 38.93527783333333, "is_reserved": 0, "is_disabled": 0, "fusion_lon": 0.0, "bike_id": "d37b8aae5324e16aa06d211aa80e7efb", "lon": -77.032682, "rental_uris": {"ios": "https://dc.lft.to/lastmile_qr_scan", "android": "https://dc.lft.to/lastmile_qr_scan"}}, {"name": "3216bfb811d1ea8f603dc6c0e4ccc9d8", "fusion_lat": 0.0, "type": "electric_scooter", "lat": 38.85867533333333, "is_reserved": 0, "is_disabled": 0, "fusion_lon": 0.0, "bike_id": "3216bfb811d1ea8f603dc6c0e4ccc9d8", "lon": -76.990368, "rental_uris": {"ios": "https://dc.lft.to/lastmile_qr_scan", "android": "https://dc.lft.to/lastmile_qr_scan"}}, {"name": "34ce075673a8e4e622d97e15970ad19c", "fusion_lat": 0.0, "type": "electric_scooter", "lat": 38.92580516666666, "is_reserved": 0, "is_disabled": 0, "fusion_lon": 0.0, "bike_id": "34ce075673a8e4e622d97e15970ad19c", "lon": -77.02608166666667, "rental_uris": {"ios": "https://dc.lft.to/lastmile_qr_scan", "android": "https://dc.lft.to/lastmile_qr_scan"}}, {"name": "26b0887c6e6fa9c6636031dfb8724b39", "fusion_lat": 0.0, "type": "electric_scooter", "lat": 38.9656215, "is_reserved": 0, "is_disabled": 0, "fusion_lon": 0.0, "bike_id": "26b0887c6e6fa9c6636031dfb8724b39", "lon": -77.01624616666666, "rental_uris": {"ios": "https://dc.lft.to/lastmile_qr_scan", "android": "https://dc.lft.to/lastmile_qr_scan"}}, {"name": "4c67aec46466a98a973d4bcc96463557", "fusion_lat": 0.0, "type": "electric_scooter", "lat": 38.9096835, "is_reserved": 0, "is_disabled": 0, "fusion_lon": 0.0, "bike_id": "4c67aec46466a98a973d4bcc96463557", "lon": -77.01713616666666, "rental_uris": {"ios": "https://dc.lft.to/lastmile_qr_scan", "android": "https://dc.lft.to/lastmile_qr_scan"}}, {"name": "ac7c509e28dd95064e7263205c696bbb", "fusion_lat": 0.0, "type": "electric_scooter", "lat": 38.9057415, "is_reserved": 0, "is_disabled": 0, "fusion_lon": 0.0, "bike_id": "ac7c509e28dd95064e7263205c696bbb", "lon": -77.048648, "rental_uris": {"ios": "https://dc.lft.to/lastmile_qr_scan", "android": "https://dc.lft.to/lastmile_qr_scan"}}, {"name": "ff25f2f515945d3f5591078531c8327d", "fusion_lat": 0.0, "type": "electric_bike", "lat": 38.913132833333336, "is_reserved": 0, "is_disabled": 0, "fusion_lon": 0.0, "bike_id": "ff25f2f515945d3f5591078531c8327d", "lon": -76.97609016666667, "rental_uris": {"ios": "https://dc.lft.to/lastmile_qr_scan", "android": "https://dc.lft.to/lastmile_qr_scan"}}, {"name": "d01e13678c719a7659721c2b922f8625", "fusion_lat": 0.0, "type": "electric_scooter", "lat": 38.93873283333333, "is_reserved": 0, "is_disabled": 0, "fusion_lon": 0.0, "bike_id": "d01e13678c719a7659721c2b922f8625", "lon": -77.03255166666666, "rental_uris": {"ios": "https://dc.lft.to/lastmile_qr_scan", "android": "https://dc.lft.to/lastmile_qr_scan"}}, {"name": "7d7e9ea3176ccc40d5e842e921738644", "fusion_lat": 0.0, "type": "electric_scooter", "lat": 38.86267733333333, "is_reserved": 0, "is_disabled": 0, "fusion_lon": 0.0, "bike_id": "7d7e9ea3176ccc40d5e842e921738644", "lon": -76.98717383333333, "rental_uris": {"ios": "https://dc.lft.to/lastmile_qr_scan", "android": "https://dc.lft.to/lastmile_qr_scan"}}, {"name": "ab7161312be4692ebce1866aa2c3213a", "fusion_lat": 0.0, "type": "electric_scooter", "lat": 38.933898166666665, "is_reserved": 0, "is_disabled": 0, "fusion_lon": 0.0, "bike_id": "ab7161312be4692ebce1866aa2c3213a", "lon": -77.07383016666667, "rental_uris": {"ios": "https://dc.lft.to/lastmile_qr_scan", "android": "https://dc.lft.to/lastmile_qr_scan"}}, {"name": "a8ffbdf867f9c6ea2ee61a486839b6d8", "fusion_lat": 0.0, "type": "electric_scooter", "lat": 38.916982, "is_reserved": 0, "is_disabled": 0, "fusion_lon": 0.0, "bike_id": "a8ffbdf867f9c6ea2ee61a486839b6d8", "lon": -77.02897633333333, "rental_uris": {"ios": "https://dc.lft.to/lastmile_qr_scan", "android": "https://dc.lft.to/lastmile_qr_scan"}}, {"name": "7be7a4956af8bbef8a2528fe7a1b1ae0", "fusion_lat": 0.0, "type": "electric_scooter", "lat": 38.894886, "is_reserved": 0, "is_disabled": 0, "fusion_lon": 0.0, "bike_id": "7be7a4956af8bbef8a2528fe7a1b1ae0", "lon": -77.0101905, "rental_uris": {"ios": "https://dc.lft.to/lastmile_qr_scan", "android": "https://dc.lft.to/lastmile_qr_scan"}}, {"name": "f3184093fd0ec11c17f592f0ec16c5e2", "fusion_lat": 0.0, "type": "electric_bike", "lat": 38.8442965, "is_reserved": 0, "is_disabled": 0, "fusion_lon": 0.0, "bike_id": "f3184093fd0ec11c17f592f0ec16c5e2", "lon": -77.11260633333333, "rental_uris": {"ios": "https://dc.lft.to/lastmile_qr_scan", "android": "https://dc.lft.to/lastmile_qr_scan"}}, {"name": "38aa3ff1ff101651c5555b5a8cef8ef7", "fusion_lat": 0.0, "type": "electric_scooter", "lat": 38.9044655, "is_reserved": 0, "is_disabled": 0, "fusion_lon": 0.0, "bike_id": "38aa3ff1ff101651c5555b5a8cef8ef7", "lon": -77.03124866666667, "rental_uris": {"ios": "https://dc.lft.to/lastmile_qr_scan", "android": "https://dc.lft.to/lastmile_qr_scan"}}, {"name": "a333b577d963ba8424fe1bc9fa6a4165", "fusion_lat": 0.0, "type": "electric_bike", "lat": 38.8861535, "is_reserved": 0, "is_disabled": 0, "fusion_lon": 0.0, "bike_id": "a333b577d963ba8424fe1bc9fa6a4165", "lon": -77.10753816666667, "rental_uris": {"ios": "https://dc.lft.to/lastmile_qr_scan", "android": "https://dc.lft.to/lastmile_qr_scan"}}, {"name": "6ab2ae559e5b40b3137972fc7e6e9601", "fusion_lat": 0.0, "type": "electric_bike", "lat": 39.0534545, "is_reserved": 0, "is_disabled": 0, "fusion_lon": 0.0, "bike_id": "6ab2ae559e5b40b3137972fc7e6e9601", "lon": -77.13595383333333, "rental_uris": {"ios": "https://dc.lft.to/lastmile_qr_scan", "android": "https://dc.lft.to/lastmile_qr_scan"}}, {"name": "cbc746e313cd524c62a9b69531b8d2d3", "fusion_lat": 0.0, "type": "electric_scooter", "lat": 38.91711466666667, "is_reserved": 0, "is_disabled": 0, "fusion_lon": 0.0, "bike_id": "cbc746e313cd524c62a9b69531b8d2d3", "lon": -77.03865933333333, "rental_uris": {"ios": "https://dc.lft.to/lastmile_qr_scan", "android": "https://dc.lft.to/lastmile_qr_scan"}}, {"name": "e45b4776f4f51189b5a17ff23c23f1bc", "fusion_lat": 0.0, "type": "electric_scooter", "lat": 38.90842116666666, "is_reserved": 0, "is_disabled": 0, "fusion_lon": 0.0, "bike_id": "e45b4776f4f51189b5a17ff23c23f1bc", "lon": -77.026002, "rental_uris": {"ios": "https://dc.lft.to/lastmile_qr_scan", "android": "https://dc.lft.to/lastmile_qr_scan"}}, {"name": "cfdd215b1ecb2a1878a0693b9afa395b", "fusion_lat": 0.0, "type": "electric_bike", "lat": 39.09459183333333, "is_reserved": 0, "is_disabled": 0, "fusion_lon": 0.0, "bike_id": "cfdd215b1ecb2a1878a0693b9afa395b", "lon": -77.149931, "rental_uris": {"ios": "https://dc.lft.to/lastmile_qr_scan", "android": "https://dc.lft.to/lastmile_qr_scan"}}, {"name": "da6ffd946b73beea4b5d7d7bdd447533", "fusion_lat": 0.0, "type": "electric_scooter", "lat": 38.91640233333333, "is_reserved": 0, "is_disabled": 0, "fusion_lon": 0.0, "bike_id": "da6ffd946b73beea4b5d7d7bdd447533", "lon": -77.0481785, "rental_uris": {"ios": "https://dc.lft.to/lastmile_qr_scan", "android": "https://dc.lft.to/lastmile_qr_scan"}}, {"name": "b5ce82af81137d1a0d2b6666212b4484", "fusion_lat": 0.0, "type": "electric_scooter", "lat": 38.87916516666667, "is_reserved": 0, "is_disabled": 0, "fusion_lon": 0.0, "bike_id": "b5ce82af81137d1a0d2b6666212b4484", "lon": -77.02105866666666, "rental_uris": {"ios": "https://dc.lft.to/lastmile_qr_scan", "android": "https://dc.lft.to/lastmile_qr_scan"}}, {"name": "3fa43470218d13a8234694e98ad43de2", "fusion_lat": 0.0, "type": "electric_scooter", "lat": 38.927242666666665, "is_reserved": 0, "is_disabled": 0, "fusion_lon": 0.0, "bike_id": "3fa43470218d13a8234694e98ad43de2", "lon": -77.00561866666666, "rental_uris": {"ios": "https://dc.lft.to/lastmile_qr_scan", "android": "https://dc.lft.to/lastmile_qr_scan"}}, {"name": "ee292dfb6c39f75d612ef94dac52b80b", "fusion_lat": 0.0, "type": "electric_bike", "lat": 38.8752595, "is_reserved": 0, "is_disabled": 0, "fusion_lon": 0.0, "bike_id": "ee292dfb6c39f75d612ef94dac52b80b", "lon": -77.199044, "rental_uris": {"ios": "https://dc.lft.to/lastmile_qr_scan", "android": "https://dc.lft.to/lastmile_qr_scan"}}, {"name": "dfd086a85a1f5deafad5f9ff5f7aeeee", "fusion_lat": 0.0, "type": "electric_scooter", "lat": 38.900658666666665, "is_reserved": 0, "is_disabled": 0, "fusion_lon": 0.0, "bike_id": "dfd086a85a1f5deafad5f9ff5f7aeeee", "lon": -77.0487965, "rental_uris": {"ios": "https://dc.lft.to/lastmile_qr_scan", "android": "https://dc.lft.to/lastmile_qr_scan"}}, {"name": "1064c83a8fe8b47147774ef1c0c585ff", "fusion_lat": 0.0, "type": "electric_scooter", "lat": 38.915627, "is_reserved": 0, "is_disabled": 0, "fusion_lon": 0.0, "bike_id": "1064c83a8fe8b47147774ef1c0c585ff", "lon": -77.0316675, "rental_uris": {"ios": "https://dc.lft.to/lastmile_qr_scan", "android": "https://dc.lft.to/lastmile_qr_scan"}}, {"name": "e71fd4442902c73cebad42c45f238b9a", "fusion_lat": 0.0, "type": "electric_bike", "lat": 38.85789833333333, "is_reserved": 0, "is_disabled": 0, "fusion_lon": 0.0, "bike_id": "e71fd4442902c73cebad42c45f238b9a", "lon": -77.09964366666667, "rental_uris": {"ios": "https://dc.lft.to/lastmile_qr_scan", "android": "https://dc.lft.to/lastmile_qr_scan"}}, {"name": "40fc3588b0c5e355dac8978a67814d61", "fusion_lat": 0.0, "type": "electric_scooter", "lat": 38.899134833333335, "is_reserved": 0, "is_disabled": 0, "fusion_lon": 0.0, "bike_id": "40fc3588b0c5e355dac8978a67814d61", "lon": -76.93371483333334, "rental_uris": {"ios": "https://dc.lft.to/lastmile_qr_scan", "android": "https://dc.lft.to/lastmile_qr_scan"}}, {"name": "e614f1a55a3ac1540e6bd55d53f1a6dd", "fusion_lat": 0.0, "type": "electric_scooter", "lat": 38.91814766666667, "is_reserved": 0, "is_disabled": 0, "fusion_lon": 0.0, "bike_id": "e614f1a55a3ac1540e6bd55d53f1a6dd", "lon": -77.02797983333333, "rental_uris": {"ios": "https://dc.lft.to/lastmile_qr_scan", "android": "https://dc.lft.to/lastmile_qr_scan"}}, {"name": "8ba0a1a3424716dab2b8eb06931394f6", "fusion_lat": 0.0, "type": "electric_scooter", "lat": 38.876348666666665, "is_reserved": 0, "is_disabled": 0, "fusion_lon": 0.0, "bike_id": "8ba0a1a3424716dab2b8eb06931394f6", "lon": -77.007578, "rental_uris": {"ios": "https://dc.lft.to/lastmile_qr_scan", "android": "https://dc.lft.to/lastmile_qr_scan"}}, {"name": "4d7338477b7d9933b5c2c47432257dad", "fusion_lat": 0.0, "type": "electric_scooter", "lat": 38.884566666666665, "is_reserved": 0, "is_disabled": 0, "fusion_lon": 0.0, "bike_id": "4d7338477b7d9933b5c2c47432257dad", "lon": -76.92470166666666, "rental_uris": {"ios": "https://dc.lft.to/lastmile_qr_scan", "android": "https://dc.lft.to/lastmile_qr_scan"}}, {"name": "feabf3e469f516646831c64462a73854", "fusion_lat": 0.0, "type": "electric_scooter", "lat": 38.9039285, "is_reserved": 0, "is_disabled": 0, "fusion_lon": 0.0, "bike_id": "feabf3e469f516646831c64462a73854", "lon": -76.99001116666666, "rental_uris": {"ios": "https://dc.lft.to/lastmile_qr_scan", "android": "https://dc.lft.to/lastmile_qr_scan"}}, {"name": "0a677d80fda7d9d56cb9fae11ab8fe15", "fusion_lat": 0.0, "type": "electric_scooter", "lat": 38.92180233333333, "is_reserved": 0, "is_disabled": 0, "fusion_lon": 0.0, "bike_id": "0a677d80fda7d9d56cb9fae11ab8fe15", "lon": -77.02415233333333, "rental_uris": {"ios": "https://dc.lft.to/lastmile_qr_scan", "android": "https://dc.lft.to/lastmile_qr_scan"}}, {"name": "bd027c1536939969820787163b668ee9", "fusion_lat": 0.0, "type": "electric_scooter", "lat": 38.874716166666666, "is_reserved": 0, "is_disabled": 0, "fusion_lon": 0.0, "bike_id": "bd027c1536939969820787163b668ee9", "lon": -77.01053666666667, "rental_uris": {"ios": "https://dc.lft.to/lastmile_qr_scan", "android": "https://dc.lft.to/lastmile_qr_scan"}}, {"name": "22d8a8243087e6d99864550cd4d9fc62", "fusion_lat": 0.0, "type": "electric_scooter", "lat": 38.92360466666667, "is_reserved": 0, "is_disabled": 0, "fusion_lon": 0.0, "bike_id": "22d8a8243087e6d99864550cd4d9fc62", "lon": -77.050575, "rental_uris": {"ios": "https://dc.lft.to/lastmile_qr_scan", "android": "https://dc.lft.to/lastmile_qr_scan"}}, {"name": "146d32ac62dcd3d7b8361defc8b950c3", "fusion_lat": 0.0, "type": "electric_scooter", "lat": 38.91543033333333, "is_reserved": 0, "is_disabled": 0, "fusion_lon": 0.0, "bike_id": "146d32ac62dcd3d7b8361defc8b950c3", "lon": -77.03855916666667, "rental_uris": {"ios": "https://dc.lft.to/lastmile_qr_scan", "android": "https://dc.lft.to/lastmile_qr_scan"}}, {"name": "4851df0aacdff35ad8e96430259d9d6f", "fusion_lat": 0.0, "type": "electric_bike", "lat": 38.896480833333335, "is_reserved": 0, "is_disabled": 0, "fusion_lon": 0.0, "bike_id": "4851df0aacdff35ad8e96430259d9d6f", "lon": -77.10450433333334, "rental_uris": {"ios": "https://dc.lft.to/lastmile_qr_scan", "android": "https://dc.lft.to/lastmile_qr_scan"}}, {"name": "ec6da6bca6086b6da5b27668f3a8891d", "fusion_lat": 0.0, "type": "electric_scooter", "lat": 38.89598816666667, "is_reserved": 0, "is_disabled": 0, "fusion_lon": 0.0, "bike_id": "ec6da6bca6086b6da5b27668f3a8891d", "lon": -76.94869183333333, "rental_uris": {"ios": "https://dc.lft.to/lastmile_qr_scan", "android": "https://dc.lft.to/lastmile_qr_scan"}}, {"name": "ccce63058a80e12629b0cf354ef20d01", "fusion_lat": 0.0, "type": "electric_scooter", "lat": 38.91688716666667, "is_reserved": 0, "is_disabled": 0, "fusion_lon": 0.0, "bike_id": "ccce63058a80e12629b0cf354ef20d01", "lon": -77.0392975, "rental_uris": {"ios": "https://dc.lft.to/lastmile_qr_scan", "android": "https://dc.lft.to/lastmile_qr_scan"}}, {"name": "1afd34294ac7b97aec4e62be44f692f4", "fusion_lat": 0.0, "type": "electric_scooter", "lat": 38.91877, "is_reserved": 0, "is_disabled": 0, "fusion_lon": 0.0, "bike_id": "1afd34294ac7b97aec4e62be44f692f4", "lon": -77.035015, "rental_uris": {"ios": "https://dc.lft.to/lastmile_qr_scan", "android": "https://dc.lft.to/lastmile_qr_scan"}}, {"name": "e036ec480ecaf01eb45048db50dbda92", "fusion_lat": 0.0, "type": "electric_scooter", "lat": 38.91412583333333, "is_reserved": 0, "is_disabled": 0, "fusion_lon": 0.0, "bike_id": "e036ec480ecaf01eb45048db50dbda92", "lon": -77.00973683333333, "rental_uris": {"ios": "https://dc.lft.to/lastmile_qr_scan", "android": "https://dc.lft.to/lastmile_qr_scan"}}, {"name": "23f6fa061aa11085fe04c7f557444569", "fusion_lat": 0.0, "type": "electric_bike", "lat": 38.868695, "is_reserved": 0, "is_disabled": 0, "fusion_lon": 0.0, "bike_id": "23f6fa061aa11085fe04c7f557444569", "lon": -76.916646, "rental_uris": {"ios": "https://dc.lft.to/lastmile_qr_scan", "android": "https://dc.lft.to/lastmile_qr_scan"}}, {"name": "59091cece8fce2c35a83559d9ad32edb", "fusion_lat": 0.0, "type": "electric_scooter", "lat": 38.90555116666667, "is_reserved": 0, "is_disabled": 0, "fusion_lon": 0.0, "bike_id": "59091cece8fce2c35a83559d9ad32edb", "lon": -77.00521166666667, "rental_uris": {"ios": "https://dc.lft.to/lastmile_qr_scan", "android": "https://dc.lft.to/lastmile_qr_scan"}},