{"data": {"bikes": [{"is_disabled": 0, "rental_uris": {"android": "https://dc.lft.to/lastmile_qr_scan", "ios": "https://dc.lft.to/lastmile_qr_scan"}, "is_reserved": 0, "name": "15478abae19b2a0548d4eeacca7a39b8", "lon": -77.12585266666666, "type": "electric_bike", "bike_id": "15478abae19b2a0548d4eeacca7a39b8", "fusion_lon": 0.0, "lat": 38.85149066666666, "fusion_lat": 0.0}, {"is_disabled": 0, "rental_uris": {"android": "https://dc.lft.to/lastmile_qr_scan", "ios": "https://dc.lft.to/lastmile_qr_scan"}, "is_reserved": 0, "name": "866c8be2800ae20996339ef502cba794", "lon": -76.93230216666667, "type": "electric_bike", "bike_id": "866c8be2800ae20996339ef502cba794", "fusion_lon": 0.0, "lat": 38.865934, "fusion_lat": 0.0}, {"is_disabled": 0, "rental_uris": {"android": "https://dc.lft.to/lastmile_qr_scan", "ios": "https://dc.lft.to/lastmile_qr_scan"}, "is_reserved": 0, "name": "da82920fca173fd3908ce17defa51363", "lon": -77.03194216666667, "type": "electric_scooter", "bike_id": "da82920fca173fd3908ce17defa51363", "fusion_lon": 0.0, "lat": 38.917771, "fusion_lat": 0.0}, {"is_disabled": 0, "rental_uris": {"android": "https://dc.lft.to/lastmile_qr_scan", "ios": "https://dc.lft.to/lastmile_qr_scan"}, "is_reserved": 0, "name": "cf1aa47d4637fb215c899a20b0d07cc6", "lon": -77.04728133333333, "type": "electric_scooter", "bike_id": "cf1aa47d4637fb215c899a20b0d07cc6", "fusion_lon": 0.0, "lat": 38.90602166666667, "fusion_lat": 0.0}, {"is_disabled": 0, "rental_uris": {"android": "https://dc.lft.to/lastmile_qr_scan", "ios": "https://dc.lft.to/lastmile_qr_scan"}, "is_reserved": 0, "name": "8a25b0bfc0557f601e949a2de90f71de", "lon": -77.0400925, "type": "electric_scooter", "bike_id": "8a25b0bfc0557f601e949a2de90f71de", "fusion_lon": 0.0, "lat": 38.917974, "fusion_lat": 0.0}, {"is_disabled": 0, "rental_uris": {"android": "https://dc.lft.to/lastmile_qr_scan", "ios": "https://dc.lft.to/lastmile_qr_scan"}, "is_reserved": 0, "name": "0b8bb2c320cd862ec128758a527b8b92", "lon": -77.02010333333334, "type": "electric_scooter", "bike_id": "0b8bb2c320cd862ec128758a527b8b92", "fusion_lon": 0.0, "lat": 38.897295166666666, "fusion_lat": 0.0}, {"is_disabled": 0, "rental_uris": {"android": "https://dc.lft.to/lastmile_qr_scan", "ios": "https://dc.lft.to/lastmile_qr_scan"}, "is_reserved": 0, "name": "ad5a1ecd63f87f9640bd7b250bebf588", "lon": -77.006789, "type": "electric_bike", "bike_id": "ad5a1ecd63f87f9640bd7b250bebf588", "fusion_lon": 0.0, "lat": 38.94496133333333, "fusion_lat": 0.0}, {"is_disabled": 0, "rental_uris": {"android": "https://dc.lft.to/lastmile_qr_scan", "ios": "https://dc.lft.to/lastmile_qr_scan"}, "is_reserved": 0, "name": "f4846b218a5847a70b962efb26fa6ec6", "lon": -76.9405865, "type": "electric_scooter", "bike_id": "f4846b218a5847a70b962efb26fa6ec6", "fusion_lon": 0.0, "lat": 38.89041783333333, "fusion_lat": 0.0}, {"is_disabled": 0, "rental_uris": {"android": "https://dc.lft.to/lastmile_qr_scan", "ios": "https://dc.lft.to/lastmile_qr_scan"}, "is_reserved": 0, "name": "89545a4efa049fd41cc249b94b0083e2", "lon": -77.03787833333334, "type": "electric_scooter", "bike_id": "89545a4efa049fd41cc249b94b0083e2", "fusion_lon": 0.0, "lat": 38.930224, "fusion_lat": 0.0}, {"is_disabled": 0, "rental_uris": {"android": "https://dc.lft.to/lastmile_qr_scan", "ios": "https://dc.lft.to/lastmile_qr_scan"}, "is_reserved": 0, "name": "18891d5295f0a349006d19ec09b54233", "lon": -76.9761275, "type": "electric_scooter", "bike_id": "18891d5295f0a349006d19ec09b54233", "fusion_lon": 0.0, "lat": 38.93142116666667, "fusion_lat": 0.0}, {"is_disabled": 0, "rental_uris": {"android": "https://dc.lft.to/lastmile_qr_scan", "ios": "https://dc.lft.to/lastmile_qr_scan"}, "is_reserved": 0, "name": "41d083d7f8b4a0e13af08a94f2bd6da1", "lon": -77.037213, "type": "electric_scooter", "bike_id": "41d083d7f8b4a0e13af08a94f2bd6da1", "fusion_lon": 0.0, "lat": 38.91117116666667, "fusion_lat": 0.0}, {"is_disabled": 0, "rental_uris": {"android": "https://dc.lft.to/lastmile_qr_scan", "ios": "https://dc.lft.to/lastmile_qr_scan"}, "is_reserved": 0, "name": "2f2532ec1548715310dd5f5f5166589c", "lon": -76.98771666666667, "type": "electric_scooter", "bike_id": "2f2532ec1548715310dd5f5f5166589c", "fusion_lon": 0.0, "lat": 38.91171533333333, "fusion_lat": 0.0}, {"is_disabled": 0, "rental_uris": {"android": "https://dc.lft.to/lastmile_qr_scan", "ios": "https://dc.lft.to/lastmile_qr_scan"}, "is_reserved": 0, "name": "f1ecae4b78a5aba455205f6ac84a674c", "lon": -77.0386, "type": "electric_scooter", "bike_id": "f1ecae4b78a5aba455205f6ac84a674c", "fusion_lon": 0.0, "lat": 38.90785016666667, "fusion_lat": 0.0}, {"is_disabled": 0, "rental_uris": {"android": "https://dc.lft.to/lastmile_qr_scan", "ios": "https://dc.lft.to/lastmile_qr_scan"}, "is_reserved": 0, "name": "ea6a0322576739b7516308d4d7cbf268", "lon": -77.03049783333333, "type": "electric_scooter", "bike_id": "ea6a0322576739b7516308d4d7cbf268", "fusion_lon": 0.0, "lat": 38.934572833333334, "fusion_lat": 0.0}, {"is_disabled": 0, "rental_uris": {"android": "https://dc.lft.to/lastmile_qr_scan", "ios": "https://dc.lft.to/lastmile_qr_scan"}, "is_reserved": 0, "name": "fe28b149a16629363e0331dc9256f74a", "lon": -77.0019665, "type": "electric_scooter", "bike_id": "fe28b149a16629363e0331dc9256f74a", "fusion_lon": 0.0, "lat": 38.902434, "fusion_lat": 0.0}, {"is_disabled": 0, "rental_uris": {"android": "https://dc.lft.to/lastmile_qr_scan", "ios": "https://dc.lft.to/lastmile_qr_scan"}, "is_reserved": 0, "name": "c5db9753be505a8d20b85fe4dabb9f10", "lon": -77.0471625, "type": "electric_scooter", "bike_id": "c5db9753be505a8d20b85fe4dabb9f10", "fusion_lon": 0.0, "lat": 38.8972485, "fusion_lat": 0.0}, {"is_disabled": 0, "rental_uris": {"android": "https://dc.lft.to/lastmile_qr_scan", "ios": "https://dc.lft.to/lastmile_qr_scan"}, "is_reserved": 0, "name": "e630fc34de93c72051a925a15ece3ea3", "lon": -77.03738583333333, "type": "electric_scooter", "bike_id": "e630fc34de93c72051a925a15ece3ea3", "fusion_lon": 0.0, "lat": 38.911878333333334, "fusion_lat": 0.0}, {"is_disabled": 0, "rental_uris": {"android": "https://dc.lft.to/lastmile_qr_scan", "ios": "https://dc.lft.to/lastmile_qr_scan"}, "is_reserved": 0, "name": "fb35afe1e30ba1c1a8416c0bfa0cb7a4", "lon": -76.9827145, "type": "electric_scooter", "bike_id": "fb35afe1e30ba1c1a8416c0bfa0cb7a4", "fusion_lon": 0.0, "lat": 38.88539183333334, "fusion_lat": 0.0}, {"is_disabled": 0, "rental_uris": {"android": "https://dc.lft.to/lastmile_qr_scan", "ios": "https://dc.lft.to/lastmile_qr_scan"}, "is_reserved": 0, "name": "4cfb4f9df8cad246ce4a24cf544b3ac0", "lon": -77.01827983333334, "type": "electric_scooter", "bike_id": "4cfb4f9df8cad246ce4a24cf544b3ac0", "fusion_lon": 0.0, "lat": 38.921981333333335, "fusion_lat": 0.0}, {"is_disabled": 0, "rental_uris": {"android": "https://dc.lft.to/lastmile_qr_scan", "ios": "https://dc.lft.to/lastmile_qr_scan"}, "is_reserved": 0, "name": "c778b42540354516fc540cd3a1c204fd", "lon": -77.0342085, "type": "electric_scooter", "bike_id": "c778b42540354516fc540cd3a1c204fd", "fusion_lon": 0.0, "lat": 38.93544633333333, "fusion_lat": 0.0}, {"is_disabled": 0, "rental_uris": {"android": "https://dc.lft.to/lastmile_qr_scan", "ios": "https://dc.lft.to/lastmile_qr_scan"}, "is_reserved": 0, "name": "38f9d4b9f4d0ec31f7de750361014064", "lon": -77.02729266666667, "type": "electric_scooter", "bike_id": "38f9d4b9f4d0ec31f7de750361014064", "fusion_lon": 0.0, "lat": 38.940878, "fusion_lat": 0.0}, {"is_disabled": 0, "rental_uris": {"android": "https://dc.lft.to/lastmile_qr_scan", "ios": "https://dc.lft.to/lastmile_qr_scan"}, "is_reserved": 0, "name": "22cc12f78d0e6fcba334082878c78a57", "lon": -76.99514883333333, "type": "electric_scooter", "bike_id": "22cc12f78d0e6fcba334082878c78a57", "fusion_lon": 0.0, "lat": 38.8948585, "fusion_lat": 0.0}, {"is_disabled": 0, "rental_uris": {"android": "https://dc.lft.to/lastmile_qr_scan", "ios": "https://dc.lft.to/lastmile_qr_scan"}, "is_reserved": 0, "name": "49d69da7f2fd08ba64033b42ca43e8cc", "lon": -76.946216, "type": "electric_bike", "bike_id": "49d69da7f2fd08ba64033b42ca43e8cc", "fusion_lon": 0.0, "lat": 38.83236333333333, "fusion_lat": 0.0}, {"is_disabled": 0, "rental_uris": {"android": "https://dc.lft.to/lastmile_qr_scan", "ios": "https://dc.lft.to/lastmile_qr_scan"}, "is_reserved": 0, "name": "05b343952f6272cf6d2d3ecd356d948d", "lon": -76.997005, "type": "electric_scooter", "bike_id": "05b343952f6272cf6d2d3ecd356d948d", "fusion_lon": 0.0, "lat": 38.8386985, "fusion_lat": 0.0}, {"is_disabled": 0, "rental_uris": {"android": "https://dc.lft.to/lastmile_qr_scan", "ios": "https://dc.lft.to/lastmile_qr_scan"}, "is_reserved": 0, "name": "49b4fb935bfc6a49689257a5d910b530", "lon": -77.03175733333333, "type": "electric_scooter", "bike_id": "49b4fb935bfc6a49689257a5d910b530", "fusion_lon": 0.0, "lat": 38.91925333333333, "fusion_lat": 0.0}, {"is_disabled": 0, "rental_uris": {"android": "https://dc.lft.to/lastmile_qr_scan", "ios": "https://dc.lft.to/lastmile_qr_scan"}, "is_reserved": 0, "name": "8ff6e76a2ddb0571c570cbe40a2a3280", "lon": -77.04587766666667, "type": "electric_scooter", "bike_id": "8ff6e76a2ddb0571c570cbe40a2a3280", "fusion_lon": 0.0, "lat": 38.902674166666664, "fusion_lat": 0.0}, {"is_disabled": 0, "rental_uris": {"android": "https://dc.lft.to/lastmile_qr_scan", "ios": "https://dc.lft.to/lastmile_qr_scan"}, "is_reserved": 0, "name": "069814fbfffda4471d2b172e5c8091ef", "lon": -77.04656216666666, "type": "electric_scooter", "bike_id": "069814fbfffda4471d2b172e5c8091ef", "fusion_lon": 0.0, "lat": 38.89297633333334, "fusion_lat": 0.0}, {"is_disabled": 0, "rental_uris": {"android": "https://dc.lft.to/lastmile_qr_scan", "ios": "https://dc.lft.to/lastmile_qr_scan"}, "is_reserved": 0, "name": "8134cde5af7801841397a8c7ba1e5361", "lon": -77.035031, "type": "electric_scooter", "bike_id": "8134cde5af7801841397a8c7ba1e5361", "fusion_lon": 0.0, "lat": 38.932703333333336, "fusion_lat": 0.0}, {"is_disabled": 0, "rental_uris": {"android": "https://dc.lft.to/lastmile_qr_scan", "ios": "https://dc.lft.to/lastmile_qr_scan"}, "is_reserved": 0, "name": "a535d2d9c4d73c87eb53d08e5c455dcd", "lon": -76.9868055, "type": "electric_scooter", "bike_id": "a535d2d9c4d73c87eb53d08e5c455dcd", "fusion_lon": 0.0, "lat": 38.858182, "fusion_lat": 0.0}, {"is_disabled": 0, "rental_uris": {"android": "https://dc.lft.to/lastmile_qr_scan", "ios": "https://dc.lft.to/lastmile_qr_scan"}, "is_reserved": 0, "name": "81e364a6dcd8d33ef3e66db9b6ce1b0a", "lon": -77.038969, "type": "electric_scooter", "bike_id": "81e364a6dcd8d33ef3e66db9b6ce1b0a", "fusion_lon": 0.0, "lat": 38.921500333333334, "fusion_lat": 0.0}, {"is_disabled": 0, "rental_uris": {"android": "https://dc.lft.to/lastmile_qr_scan", "ios": "https://dc.lft.to/lastmile_qr_scan"}, "is_reserved": 0, "name": "def76ef5ef879e1f76ace7832961cb59", "lon": -77.0322625, "type": "electric_scooter", "bike_id": "def76ef5ef879e1f76ace7832961cb59", "fusion_lon": 0.0, "lat": 38.90964566666667, "fusion_lat": 0.0}, {"is_disabled": 0, "rental_uris": {"android": "https://dc.lft.to/lastmile_qr_scan", "ios": "https://dc.lft.to/lastmile_qr_scan"}, "is_reserved": 0, "name": "0da997692b595a39dea304dda6daa1dc", "lon": -77.0916015, "type": "electric_bike", "bike_id": "0da997692b595a39dea304dda6daa1dc", "fusion_lon": 0.0, "lat": 38.967636666666664, "fusion_lat": 0.0}, {"is_disabled": 0, "rental_uris": {"android": "https://dc.lft.to/lastmile_qr_scan", "ios": "https://dc.lft.to/lastmile_qr_scan"}, "is_reserved": 0, "name": "09890a5c2aaac3a7175adb5a05919a7c", "lon": -77.03184283333333, "type": "electric_scooter", "bike_id": "09890a5c2aaac3a7175adb5a05919a7c", "fusion_lon": 0.0, "lat": 38.914023, "fusion_lat": 0.0}, {"is_disabled": 0, "rental_uris": {"android": "https://dc.lft.to/lastmile_qr_scan", "ios": "https://dc.lft.to/lastmile_qr_scan"}, "is_reserved": 0, "name": "8f7a132d0148f8d41f70459ba98b21c8", "lon": -77.0318245, "type": "electric_scooter", "bike_id": "8f7a132d0148f8d41f70459ba98b21c8", "fusion_lon": 0.0, "lat": 38.91575316666667, "fusion_lat": 0.0}, {"is_disabled": 0, "rental_uris": {"android": "https://dc.lft.to/lastmile_qr_scan", "ios": "https://dc.lft.to/lastmile_qr_scan"}, "is_reserved": 0, "name": "61cabfafbc19f0255a8efaec3d7ed710", "lon": -77.0417, "type": "electric_scooter", "bike_id": "61cabfafbc19f0255a8efaec3d7ed710", "fusion_lon": 0.0, "lat": 38.915507, "fusion_lat": 0.0}, {"is_disabled": 0, "rental_uris": {"android": "https://dc.lft.to/lastmile_qr_scan", "ios": "https://dc.lft.to/lastmile_qr_scan"}, "is_reserved": 0, "name": "8eba9de0ac097a1bd9c43989c22a8e03", "lon": -77.00338016666667, "type": "electric_scooter", "bike_id": "8eba9de0ac097a1bd9c43989c22a8e03", "fusion_lon": 0.0, "lat": 38.889887, "fusion_lat": 0.0}, {"is_disabled": 0, "rental_uris": {"android": "https://dc.lft.to/lastmile_qr_scan", "ios": "https://dc.lft.to/lastmile_qr_scan"}, "is_reserved": 0, "name": "4d6f0a31027cf5744d5b4823de631497", "lon": -77.0374215, "type": "electric_scooter", "bike_id": "4d6f0a31027cf5744d5b4823de631497", "fusion_lon": 0.0, "lat": 38.906952833333335, "fusion_lat": 0.0}, {"is_disabled": 0, "rental_uris": {"android": "https://dc.lft.to/lastmile_qr_scan", "ios": "https://dc.lft.to/lastmile_qr_scan"}, "is_reserved": 0, "name": "0b6f9a45867e2415b13867f437401f06", "lon": -76.97505916666667, "type": "electric_bike", "bike_id": "0b6f9a45867e2415b13867f437401f06", "fusion_lon": 0.0, "lat": 38.91935733333333, "fusion_lat": 0.0}, {"is_disabled": 0, "rental_uris": {"android": "https://dc.lft.to/lastmile_qr_scan", "ios": "https://dc.lft.to/lastmile_qr_scan"}, "is_reserved": 0, "name": "e5fd6882f3bcb9e55de5b2cec03e0766", "lon": -77.00942, "type": "electric_scooter", "bike_id": "e5fd6882f3bcb9e55de5b2cec03e0766", "fusion_lon": 0.0, "lat": 38.894972833333334, "fusion_lat": 0.0}, {"is_disabled": 0, "rental_uris": {"android": "https://dc.lft.to/lastmile_qr_scan", "ios": "https://dc.lft.to/lastmile_qr_scan"}, "is_reserved": 0, "name": "f7107aec0940eb3e08d87c5b649ef143", "lon": -77.0428415, "type": "electric_scooter", "bike_id": "f7107aec0940eb3e08d87c5b649ef143", "fusion_lon": 0.0, "lat": 38.91696816666666, "fusion_lat": 0.0}, {"is_disabled": 0, "rental_uris": {"android": "https://dc.lft.to/lastmile_qr_scan", "ios": "https://dc.lft.to/lastmile_qr_scan"}, "is_reserved": 0, "name": "31434885fc4f29e6004993a469bcf083", "lon": -76.948228, "type": "electric_scooter", "bike_id": "31434885fc4f29e6004993a469bcf083", "fusion_lon": 0.0, "lat": 38.885192833333335, "fusion_lat": 0.0}, {"is_disabled": 0, "rental_uris": {"android": "https://dc.lft.to/lastmile_qr_scan", "ios": "https://dc.lft.to/lastmile_qr_scan"}, "is_reserved": 0, "name": "546cd5b2c95b6f3927e12ae2f7e072bc", "lon": -76.97905016666667, "type": "electric_scooter", "bike_id": "546cd5b2c95b6f3927e12ae2f7e072bc", "fusion_lon": 0.0, "lat": 38.90428516666667, "fusion_lat": 0.0}, {"is_disabled": 0, "rental_uris": {"android": "https://dc.lft.to/lastmile_qr_scan", "ios": "https://dc.lft.to/lastmile_qr_scan"}, "is_reserved": 0, "name": "ac504a5009fa41c04eb8401e5699a422", "lon": -77.02761516666666, "type": "electric_scooter", "bike_id": "ac504a5009fa41c04eb8401e5699a422", "fusion_lon": 0.0, "lat": 38.94301083333333, "fusion_lat": 0.0}, {"is_disabled": 0, "rental_uris": {"android": "https://dc.lft.to/lastmile_qr_scan", "ios": "https://dc.lft.to/lastmile_qr_scan"}, "is_reserved": 0, "name": "1c9372e6e044d02d9a6f06a6d3847282", "lon": -77.04155033333333, "type": "electric_scooter", "bike_id": "1c9372e6e044d02d9a6f06a6d3847282", "fusion_lon": 0.0, "lat": 38.917960666666666, "fusion_lat": 0.0}, {"is_disabled": 0, "rental_uris": {"android": "https://dc.lft.to/lastmile_qr_scan", "ios": "https://dc.lft.to/lastmile_qr_scan"}, "is_reserved": 0, "name": "211b38cc79c88c57ffec961fc7f53087", "lon": -77.023348, "type": "electric_scooter", "bike_id": "211b38cc79c88c57ffec961fc7f53087", "fusion_lon": 0.0, "lat": 38.9223105, "fusion_lat": 0.0}, {"is_disabled": 0, "rental_uris": {"android": "https://dc.lft.to/lastmile_qr_scan", "ios": "https://dc.lft.to/lastmile_qr_scan"}, "is_reserved": 0, "name": "377f0bade5dfb5e5786f901b46313456", "lon": -77.00226083333334, "type": "electric_scooter", "bike_id": "377f0bade5dfb5e5786f901b46313456", "fusion_lon": 0.0, "lat": 38.91343083333334, "fusion_lat": 0.0}, {"is_disabled": 0, "rental_uris": {"android": "https://dc.lft.to/lastmile_qr_scan", "ios": "https://dc.lft.to/lastmile_qr_scan"}, "is_reserved": 0, "name": "159a77d3c24fc6609926825f90ab5084", "lon": -77.03851883333333, "type": "electric_scooter", "bike_id": "159a77d3c24fc6609926825f90ab5084", "fusion_lon": 0.0, "lat": 38.92645516666666, "fusion_lat": 0.0}, {"is_disabled": 0, "rental_uris": {"android": "https://dc.lft.to/lastmile_qr_scan", "ios": "https://dc.lft.to/lastmile_qr_scan"}, "is_reserved": 0, "name": "0b4fb560c9b344964d8fc79a9e6e99c4", "lon": -76.990365, "type": "electric_scooter", "bike_id": "0b4fb560c9b344964d8fc79a9e6e99c4", "fusion_lon": 0.0, "lat": 38.8987825, "fusion_lat": 0.0}, {"is_disabled": 0, "rental_uris": {"android": "https://dc.lft.to/lastmile_qr_scan", "ios": "https://dc.lft.to/lastmile_qr_scan"}, "is_reserved": 0, "name": "a48fbbcbb0cc4191cbbf4ad57c267347", "lon": -77.08434933333334, "type": "electric_bike", "bike_id": "a48fbbcbb0cc4191cbbf4ad57c267347", "fusion_lon": 0.0, "lat": 38.81022933333333, "fusion_lat": 0.0}, {"is_disabled": 0, "rental_uris": {"android": "https://dc.lft.to/lastmile_qr_scan", "ios": "https://dc.lft.to/lastmile_qr_scan"}, "is_reserved": 0, "name": "544115fa7d229e919eb7c3fa3f0f8390", "lon": -77.05498516666667, "type": "electric_scooter", "bike_id": "544115fa7d229e919eb7c3fa3f0f8390", "fusion_lon": 0.0, "lat": 38.90005716666667, "fusion_lat": 0.0}, {"is_disabled": 0, "rental_uris": {"android": "https://dc.lft.to/lastmile_qr_scan", "ios": "https://dc.lft.to/lastmile_qr_scan"}, "is_reserved": 0, "name": "db3fd77a449f152079450ed39fc63027", "lon": -77.0235525, "type": "electric_scooter", "bike_id": "db3fd77a449f152079450ed39fc63027", "fusion_lon": 0.0, "lat": 38.931503666666664, "fusion_lat": 0.0}, {"is_disabled": 0, "rental_uris": {"android": "https://dc.lft.to/lastmile_qr_scan", "ios": "https://dc.lft.to/lastmile_qr_scan"}, "is_reserved": 0, "name": "eda83b328aeef18a58a38968affb5aa9", "lon": -76.97328033333334, "type": "electric_bike", "bike_id": "eda83b328aeef18a58a38968affb5aa9", "fusion_lon": 0.0, "lat": 38.850669333333336, "fusion_lat": 0.0}, {"is_disabled": 0, "rental_uris": {"android": "https://dc.lft.to/lastmile_qr_scan", "ios": "https://dc.lft.to/lastmile_qr_scan"}, "is_reserved": 0, "name": "571dbdbba6693c9b8ef840f0c9248690", "lon": -77.0128695, "type": "electric_scooter", "bike_id": "571dbdbba6693c9b8ef840f0c9248690", "fusion_lon": 0.0, "lat": 38.92023483333333, "fusion_lat": 0.0}, {"is_disabled": 0, "rental_uris": {"android": "https://dc.lft.to/lastmile_qr_scan", "ios": "https://dc.lft.to/lastmile_qr_scan"}, "is_reserved": 0, "name": "2f844d1fade92d45879e9ad642f781f3", "lon": -77.02479783333334, "type": "electric_scooter", "bike_id": "2f844d1fade92d45879e9ad642f781f3", "fusion_lon": 0.0, "lat": 38.916099333333335, "fusion_lat": 0.0}, {"is_disabled": 0, "rental_uris": {"android": "https://dc.lft.to/lastmile_qr_scan", "ios": "https://dc.lft.to/lastmile_qr_scan"}, "is_reserved": 0, "name": "f6699c1c61d5711efbf6356ae9bd3df8", "lon": -77.04352716666666, "type": "electric_scooter", "bike_id": "f6699c1c61d5711efbf6356ae9bd3df8", "fusion_lon": 0.0, "lat": 38.90513283333333, "fusion_lat": 0.0}, {"is_disabled": 0, "rental_uris": {"android": "https://dc.lft.to/lastmile_qr_scan", "ios": "https://dc.lft.to/lastmile_qr_scan"}, "is_reserved": 0, "name": "ed5a6a90f507157ca21c443c0ffccee8", "lon": -77.036102, "type": "electric_scooter", "bike_id": "ed5a6a90f507157ca21c443c0ffccee8", "fusion_lon": 0.0, "lat": 38.931480666666666, "fusion_lat": 0.0}, {"is_disabled": 0, "rental_uris": {"android": "https://dc.lft.to/lastmile_qr_scan", "ios": "https://dc.lft.to/lastmile_qr_scan"}, "is_reserved": 0, "name": "bc8b4c1e4ac5a36018b8037959389593", "lon": -77.0351765, "type": "electric_scooter", "bike_id": "bc8b4c1e4ac5a36018b8037959389593", "fusion_lon": 0.0, "lat": 38.922579166666665, "fusion_lat": 0.0}, {"is_disabled": 0, "rental_uris": {"android": "https://dc.lft.to/lastmile_qr_scan", "ios": "https://dc.lft.to/lastmile_qr_scan"}, "is_reserved": 0, "name": "6c96f6f9a24723cb39ff36ffc7315b3a", "lon": -77.03910366666666, "type": "electric_scooter", "bike_id": "6c96f6f9a24723cb39ff36ffc7315b3a", "fusion_lon": 0.0, "lat": 38.89966166666667, "fusion_lat": 0.0}, {"is_disabled": 0, "rental_uris": {"android": "https://dc.lft.to/lastmile_qr_scan", "ios": "https://dc.lft.to/lastmile_qr_scan"}, "is_reserved": 0, "name": "c755cff0dbab6c2ee8f22e9000f13d59", "lon": -77.0291865, "type": "electric_scooter", "bike_id": "c755cff0dbab6c2ee8f22e9000f13d59", "fusion_lon": 0.0, "lat": 38.91031366666667, "fusion_lat": 0.0}, {"is_disabled": 0, "rental_uris": {"android": "https://dc.lft.to/lastmile_qr_scan", "ios": "https://dc.lft.to/lastmile_qr_scan"}, "is_reserved": 0, "name": "28c5183b15674aec35740870fd508030", "lon": -77.04457033333334, "type": "electric_scooter", "bike_id": "28c5183b15674aec35740870fd508030", "fusion_lon": 0.0, "lat": 38.91861466666667, "fusion_lat": 0.0}, {"is_disabled": 0, "rental_uris": {"android": "https://dc.lft.to/lastmile_qr_scan", "ios": "https://dc.lft.to/lastmile_qr_scan"}, "is_reserved": 0, "name": "4ace74a9d672fd13ac3a9e1d5566c185", "lon": -77.0008415, "type": "electric_scooter", "bike_id": "4ace74a9d672fd13ac3a9e1d5566c185", "fusion_lon": 0.0, "lat": 38.925562166666666, "fusion_lat": 0.0}, {"is_disabled": 0, "rental_uris": {"android": "https://dc.lft.to/lastmile_qr_scan", "ios": "https://dc.lft.to/lastmile_qr_scan"}, "is_reserved": 0, "name": "9230df57c269c7af2bebb043c6adc8d7", "lon": -77.04154716666666, "type": "electric_scooter", "bike_id": "9230df57c269c7af2bebb043c6adc8d7", "fusion_lon": 0.0, "lat": 38.918027, "fusion_lat": 0.0}, {"is_disabled": 0, "rental_uris": {"android": "https://dc.lft.to/lastmile_qr_scan", "ios": "https://dc.lft.to/lastmile_qr_scan"}, "is_reserved": 0, "name": "d4c8e6c53cdb71105c3025d3907a4a4f", "lon": -77.0510125, "type": "electric_scooter", "bike_id": "d4c8e6c53cdb71105c3025d3907a4a4f", "fusion_lon": 0.0, "lat": 38.92344166666667, "fusion_lat": 0.0}, {"is_disabled": 0, "rental_uris": {"android": "https://dc.lft.to/lastmile_qr_scan", "ios": "https://dc.lft.to/lastmile_qr_scan"}, "is_reserved": 0, "name": "41f27d22f986b14182855cfe2124822b", "lon": -77.02386983333334, "type": "electric_scooter", "bike_id": "41f27d22f986b14182855cfe2124822b", "fusion_lon": 0.0, "lat": 38.90709833333333, "fusion_lat": 0.0}, {"is_disabled": 0, "rental_uris": {"android": "https://dc.lft.to/lastmile_qr_scan", "ios": "https://dc.lft.to/lastmile_qr_scan"}, "is_reserved": 0, "name": "03c9dc2a7156b829289efce3b83785f3", "lon": -77.0384875, "type": "electric_scooter", "bike_id": "03c9dc2a7156b829289efce3b83785f3", "fusion_lon": 0.0, "lat": 38.90930266666667, "fusion_lat": 0.0}, {"is_disabled": 0, "rental_uris": {"android": "https://dc.lft.to/lastmile_qr_scan", "ios": "https://dc.lft.to/lastmile_qr_scan"}, "is_reserved": 0, "name": "54e9342e86b335a3e9ca0054aecfbfeb", "lon": -77.04013266666666, "type": "electric_scooter", "bike_id": "54e9342e86b335a3e9ca0054aecfbfeb", "fusion_lon": 0.0, "lat": 38.92206383333333, "fusion_lat": 0.0}, {"is_disabled": 0, "rental_uris": {"android": "https://dc.lft.to/lastmile_qr_scan", "ios": "https://dc.lft.to/lastmile_qr_scan"}, "is_reserved": 0, "name": "372240ab56abb2c38ff138c5e1c6eb4d", "lon": -76.99847583333333, "type": "electric_scooter", "bike_id": "372240ab56abb2c38ff138c5e1c6eb4d", "fusion_lon": 0.0, "lat": 38.900274, "fusion_lat": 0.0}, {"is_disabled": 0, "rental_uris": {"android": "https://dc.lft.to/lastmile_qr_scan", "ios": "https://dc.lft.to/lastmile_qr_scan"}, "is_reserved": 0, "name": "eed00d450d2fd8548b943337e7a306c0", "lon": -77.03864783333333, "type": "electric_scooter", "bike_id": "eed00d450d2fd8548b943337e7a306c0", "fusion_lon": 0.0, "lat": 38.90976166666667, "fusion_lat": 0.0}, {"is_disabled": 0, "rental_uris": {"android": "https://dc.lft.to/lastmile_qr_scan", "ios": "https://dc.lft.to/lastmile_qr_scan"}, "is_reserved": 0, "name": "288d5ac8ae232dbc57e46665ccf0a3dd", "lon": -76.99048183333333, "type": "electric_scooter", "bike_id": "288d5ac8ae232dbc57e46665ccf0a3dd", "fusion_lon": 0.0, "lat": 38.85897033333333, "fusion_lat": 0.0}, {"is_disabled": 0, "rental_uris": {"android": "https://dc.lft.to/lastmile_qr_scan", "ios": "https://dc.lft.to/lastmile_qr_scan"}, "is_reserved": 0, "name": "9b2d8f058a29bc571d36ffce2d0764c8", "lon": -76.98309133333333, "type": "electric_scooter", "bike_id": "9b2d8f058a29bc571d36ffce2d0764c8", "fusion_lon": 0.0, "lat": 38.868942833333335, "fusion_lat": 0.0}, {"is_disabled": 0, "rental_uris": {"android": "https://dc.lft.to/lastmile_qr_scan", "ios": "https://dc.lft.to/lastmile_qr_scan"}, "is_reserved": 0, "name": "0ebabb4cda84bbc6d4928c5ffb1fbc02", "lon": -77.01219333333333, "type": "electric_scooter", "bike_id": "0ebabb4cda84bbc6d4928c5ffb1fbc02", "fusion_lon": 0.0, "lat": 38.9003495, "fusion_lat": 0.0}, {"is_disabled": 0, "rental_uris": {"android": "https://dc.lft.to/lastmile_qr_scan", "ios": "https://dc.lft.to/lastmile_qr_scan"}, "is_reserved": 0, "name": "f1d8e4403d6193647688d030058273c8", "lon": -77.02675316666667, "type": "electric_scooter", "bike_id": "f1d8e4403d6193647688d030058273c8", "fusion_lon": 0.0, "lat": 38.91264433333333, "fusion_lat": 0.0}, {"is_disabled": 0, "rental_uris": {"android": "https://dc.lft.to/lastmile_qr_scan", "ios": "https://dc.lft.to/lastmile_qr_scan"}, "is_reserved": 0, "name": "cce32b192534c0f3310c72984f9de4d8", "lon": -76.9546175, "type": "electric_bike", "bike_id": "cce32b192534c0f3310c72984f9de4d8", "fusion_lon": 0.0, "lat": 38.935666833333336, "fusion_lat": 0.0}, {"is_disabled": 0, "rental_uris": {"android": "https://dc.lft.to/lastmile_qr_scan", "ios": "https://dc.lft.to/lastmile_qr_scan"}, "is_reserved": 0, "name": "d18f5333d8eeacab210a30445bc5a21c", "lon": -77.03481216666667, "type": "electric_scooter", "bike_id": "d18f5333d8eeacab210a30445bc5a21c", "fusion_lon": 0.0, "lat": 38.907957, "fusion_lat": 0.0}, {"is_disabled": 0, "rental_uris": {"android": "https://dc.lft.to/lastmile_qr_scan", "ios": "https://dc.lft.to/lastmile_qr_scan"}, "is_reserved": 0, "name": "3d9dbe124bc071252751ef5cd0a703fc", "lon": -77.03459816666667, "type": "electric_scooter", "bike_id": "3d9dbe124bc071252751ef5cd0a703fc", "fusion_lon": 0.0, "lat": 38.91665833333333, "fusion_lat": 0.0}, {"is_disabled": 0, "rental_uris": {"android": "https://dc.lft.to/lastmile_qr_scan", "ios": "https://dc.lft.to/lastmile_qr_scan"}, "is_reserved": 0, "name": "0f19131201b8a8c8d01fa53d04271c09", "lon": -77.344112, "type": "electric_bike", "bike_id": "0f19131201b8a8c8d01fa53d04271c09", "fusion_lon": 0.0, "lat": 38.94599266666667, "fusion_lat": 0.0}, {"is_disabled": 0, "rental_uris": {"android": "https://dc.lft.to/lastmile_qr_scan", "ios": "https://dc.lft.to/lastmile_qr_scan"}, "is_reserved": 0, "name": "ab607b78361bfca81341fe5579582bc7", "lon": -77.14325433333333, "type": "electric_bike", "bike_id": "ab607b78361bfca81341fe5579582bc7", "fusion_lon": 0.0, "lat": 39.05462683333333, "fusion_lat": 0.0}, {"is_disabled": 0, "rental_uris": {"android": "https://dc.lft.to/lastmile_qr_scan", "ios": "https://dc.lft.to/lastmile_qr_scan"}, "is_reserved": 0, "name": "b72d188fd5e06a3c324adcc4608b4bcb", "lon": -76.94894883333333, "type": "electric_scooter", "bike_id": "b72d188fd5e06a3c324adcc4608b4bcb", "fusion_lon": 0.0, "lat": 38.8953495, "fusion_lat": 0.0}, {"is_disabled": 0, "rental_uris": {"android": "https://dc.lft.to/lastmile_qr_scan", "ios": "https://dc.lft.to/lastmile_qr_scan"}, "is_reserved": 0, "name": "bb4c82089d5171c6e93d7beb25717fd6", "lon": -77.0292985, "type": "electric_scooter", "bike_id": "bb4c82089d5171c6e93d7beb25717fd6", "fusion_lon": 0.0, "lat": 38.89878, "fusion_lat": 0.0}, {"is_disabled": 0, "rental_uris": {"android": "https://dc.lft.to/lastmile_qr_scan", "ios": "https://dc.lft.to/lastmile_qr_scan"}, "is_reserved": 0, "name": "b4fdc0c662ff8030c1cec236896b150c", "lon": -77.061856, "type": "electric_scooter", "bike_id": "b4fdc0c662ff8030c1cec236896b150c", "fusion_lon": 0.0, "lat": 38.930162833333334, "fusion_lat": 0.0}, {"is_disabled": 0, "rental_uris": {"android": "https://dc.lft.to/lastmile_qr_scan", "ios": "https://dc.lft.to/lastmile_qr_scan"}, "is_reserved": 0, "name": "19d71e18ab2b523e9bf71f37b9a8e595", "lon": -77.0382795, "type": "electric_scooter", "bike_id": "19d71e18ab2b523e9bf71f37b9a8e595", "fusion_lon": 0.0, "lat": 38.91109866666667, "fusion_lat": 0.0}, {"is_disabled": 0, "rental_uris": {"android": "https://dc.lft.to/lastmile_qr_scan", "ios": "https://dc.lft.to/lastmile_qr_scan"}, "is_reserved": 0, "name": "565411507a2560b36241fbfab535f13d", "lon": -77.03175166666666, "type": "electric_scooter", "bike_id": "565411507a2560b36241fbfab535f13d", "fusion_lon": 0.0, "lat": 38.91903716666667, "fusion_lat": 0.0}, {"is_disabled": 0, "rental_uris": {"android": "https://dc.lft.to/lastmile_qr_scan", "ios": "https://dc.lft.to/lastmile_qr_scan"}, "is_reserved": 0, "name": "630e68c8cc5d7a062a038f6362856218", "lon": -77.01213183333333, "type": "electric_scooter", "bike_id": "630e68c8cc5d7a062a038f6362856218", "fusion_lon": 0.0, "lat": 38.91500516666667, "fusion_lat": 0.0}, {"is_disabled": 0, "rental_uris": {"android": "https://dc.lft.to/lastmile_qr_scan", "ios": "https://dc.lft.to/lastmile_qr_scan"}, "is_reserved": 0, "name": "fdfe427906461a526b08a9bdc9ee1e4a", "lon": -76.98875483333333, "type": "electric_scooter", "bike_id": "fdfe427906461a526b08a9bdc9ee1e4a", "fusion_lon": 0.0, "lat": 38.866715166666665, "fusion_lat": 0.0}, {"is_disabled": 0, "rental_uris": {"android": "https://dc.lft.to/lastmile_qr_scan", "ios": "https://dc.lft.to/lastmile_qr_scan"}, "is_reserved": 0, "name": "d173d783de009ecd4e4ccdc356102559", "lon": -77.01163866666667, "type": "electric_scooter", "bike_id": "d173d783de009ecd4e4ccdc356102559", "fusion_lon": 0.0, "lat": 38.8680755, "fusion_lat": 0.0}, {"is_disabled": 0, "rental_uris": {"android": "https://dc.lft.to/lastmile_qr_scan", "ios": "https://dc.lft.to/lastmile_qr_scan"}, "is_reserved": 0, "name": "5a6a03f58b3be8da94aee3636c3e5012", "lon": -77.0724745, "type": "electric_scooter", "bike_id": "5a6a03f58b3be8da94aee3636c3e5012", "fusion_lon": 0.0, "lat": 38.907868, "fusion_lat": 0.0}, {"is_disabled": 0, "rental_uris": {"android": "https://dc.lft.to/lastmile_qr_scan", "ios": "https://dc.lft.to/lastmile_qr_scan"}, "is_reserved": 0, "name": "800b67898c716a845939cd9f50bfc4d4", "lon": -77.00084416666667, "type": "electric_scooter", "bike_id": "800b67898c716a845939cd9f50bfc4d4", "fusion_lon": 0.0, "lat": 38.894048, "fusion_lat": 0.0}, {"is_disabled": 0, "rental_uris": {"android": "https://dc.lft.to/lastmile_qr_scan", "ios": "https://dc.lft.to/lastmile_qr_scan"}, "is_reserved": 0, "name": "ee326823754a1bdb23b818a541d195ae", "lon": -77.01385, "type": "electric_scooter", "bike_id": "ee326823754a1bdb23b818a541d195ae", "fusion_lon": 0.0, "lat": 38.910076, "fusion_lat": 0.0}, {"is_disabled": 0, "rental_uris": {"android": "https://dc.lft.to/lastmile_qr_scan", "ios": "https://dc.lft.to/lastmile_qr_scan"}, "is_reserved": 0, "name": "30552ffdc5c930c02e1fee4e04cd4422", "lon": -77.03367816666666, "type": "electric_scooter", "bike_id": "30552ffdc5c930c02e1fee4e04cd4422", "fusion_lon": 0.0, "lat": 38.9171435, "fusion_lat": 0.0}, {"is_disabled": 0, "rental_uris": {"android": "https://dc.lft.to/lastmile_qr_scan", "ios": "https://dc.lft.to/lastmile_qr_scan"}, "is_reserved": 0, "name": "f659b33d37530b61c627c47a71f63ecb", "lon": -77.03447266666667, "type": "electric_scooter", "bike_id": "f659b33d37530b61c627c47a71f63ecb", "fusion_lon": 0.0, "lat": 38.9056925, "fusion_lat": 0.0}, {"is_disabled": 0, "rental_uris": {"android": "https://dc.lft.to/lastmile_qr_scan", "ios": "https://dc.lft.to/lastmile_qr_scan"}, "is_reserved": 0, "name": "1a541a46d7722b13533630588ce1876f", "lon": -77.01438733333333, "type": "electric_scooter", "bike_id": "1a541a46d7722b13533630588ce1876f", "fusion_lon": 0.0, "lat": 38.877785, "fusion_lat": 0.0}, {"is_disabled": 0, "rental_uris": {"android": "https://dc.lft.to/lastmile_qr_scan", "ios": "https://dc.lft.to/lastmile_qr_scan"}, "is_reserved": 0, "name": "df96b3000ac9b948f2ef41bb79a4585f", "lon": -77.0498355, "type": "electric_scooter", "bike_id": "df96b3000ac9b948f2ef41bb79a4585f", "fusion_lon": 0.0, "lat": 38.901169333333335, "fusion_lat": 0.0}, {"is_disabled": 0, "rental_uris": {"android": "https://dc.lft.to/lastmile_qr_scan", "ios": "https://dc.lft.to/lastmile_qr_scan"}, "is_reserved": 0, "name": "2752c654a2d37ede1708dd75ccc6d530", "lon": -77.03658966666667, "type": "electric_scooter", "bike_id": "2752c654a2d37ede1708dd75ccc6d530", "fusion_lon": 0.0, "lat": 38.917314166666664, "fusion_lat": 0.0}, {"is_disabled": 0, "rental_uris": {"android": "https://dc.lft.to/lastmile_qr_scan", "ios": "https://dc.lft.to/lastmile_qr_scan"}, "is_reserved": 0, "name": "d9ad57c547a122e0a68a245620fa7d89", "lon": -77.02151483333333, "type": "electric_scooter", "bike_id": "d9ad57c547a122e0a68a245620fa7d89", "fusion_lon": 0.0, "lat": 38.92602083333333, "fusion_lat": 0.0}, {"is_disabled": 0, "rental_uris": {"android": "https://dc.lft.to/lastmile_qr_scan", "ios": "https://dc.lft.to/lastmile_qr_scan"}, "is_reserved": 0, "name": "73687ff582afb415eb4dbf57819ddb41", "lon": -77.005162, "type": "electric_scooter", "bike_id": "73687ff582afb415eb4dbf57819ddb41", "fusion_lon": 0.0, "lat": 38.848799666666665, "fusion_lat": 0.0}, {"is_disabled": 0, "rental_uris": {"android": "https://dc.lft.to/lastmile_qr_scan", "ios": "https://dc.lft.to/lastmile_qr_scan"}, "is_reserved": 0, "name": "34d57385779183701cde85e3dae01a77", "lon": -77.028049, "type": "electric_scooter", "bike_id": "34d57385779183701cde85e3dae01a77", "fusion_lon": 0.0, "lat": 38.93082283333333, "fusion_lat": 0.0}, {"is_disabled": 0, "rental_uris": {"android": "https://dc.lft.to/lastmile_qr_scan", "ios": "https://dc.lft.to/lastmile_qr_scan"}, "is_reserved": 0, "name": "b7fd23e13e5f9445e9f0493475b17a80", "lon": -77.03790566666666, "type": "electric_scooter", "bike_id": "b7fd23e13e5f9445e9f0493475b17a80", "fusion_lon": 0.0, "lat": 38.93596483333334, "fusion_lat": 0.0}, {"is_disabled": 0, "rental_uris": {"android": "https://dc.lft.to/lastmile_qr_scan", "ios": "https://dc.lft.to/lastmile_qr_scan"}, "is_reserved": 0, "name": "28bfd18cd3a79b50d76f09412fde7b7f", "lon": -77.06098833333333, "type": "electric_scooter", "bike_id": "28bfd18cd3a79b50d76f09412fde7b7f", "fusion_lon": 0.0, "lat": 38.937085, "fusion_lat": 0.0}, {"is_disabled": 0, "rental_uris": {"android": "https://dc.lft.to/lastmile_qr_scan", "ios": "https://dc.lft.to/lastmile_qr_scan"}, "is_reserved": 0, "name": "53ad7324989408d315db140cffb5a8cc", "lon": -77.01852316666667, "type": "electric_scooter", "bike_id": "53ad7324989408d315db140cffb5a8cc", "fusion_lon": 0.0, "lat": 38.973691, "fusion_lat": 0.0}, {"is_disabled": 0, "rental_uris": {"android": "https://dc.lft.to/lastmile_qr_scan", "ios": "https://dc.lft.to/lastmile_qr_scan"}, "is_reserved": 0, "name": "c64d14f7ac5ccbfafa5bf1c5f8287c19", "lon": -76.9123585, "type": "electric_scooter", "bike_id": "c64d14f7ac5ccbfafa5bf1c5f8287c19", "fusion_lon": 0.0, "lat": 38.8939125, "fusion_lat": 0.0}, {"is_disabled": 0, "rental_uris": {"android": "https://dc.lft.to/lastmile_qr_scan", "ios": "https://dc.lft.to/lastmile_qr_scan"}, "is_reserved": 0, "name": "b3ec6a0d00b646a6f30b9c62e5ecfe34", "lon": -77.00498016666667, "type": "electric_scooter", "bike_id": "b3ec6a0d00b646a6f30b9c62e5ecfe34", "fusion_lon": 0.0, "lat": 38.90558033333333, "fusion_lat": 0.0}, {"is_disabled": 0, "rental_uris": {"android": "https://dc.lft.to/lastmile_qr_scan", "ios": "https://dc.lft.to/lastmile_qr_scan"}, "is_reserved": 0, "name": "2f60dae36407393b41268f1f3f0fb926", "lon": -77.03429683333333, "type": "electric_scooter", "bike_id": "2f60dae36407393b41268f1f3f0fb926", "fusion_lon": 0.0, "lat": 38.907746833333334, "fusion_lat": 0.0}, {"is_disabled": 0, "rental_uris": {"android": "https://dc.lft.to/lastmile_qr_scan", "ios": "https://dc.lft.to/lastmile_qr_scan"}, "is_reserved": 0, "name": "9549acf98bdd7f2541b96a650140e71f", "lon": -77.01794233333334, "type": "electric_scooter", "bike_id": "9549acf98bdd7f2541b96a650140e71f", "fusion_lon": 0.0, "lat": 38.92104, "fusion_lat": 0.0}, {"is_disabled": 0, "rental_uris": {"android": "https://dc.lft.to/lastmile_qr_scan", "ios": "https://dc.lft.to/lastmile_qr_scan"}, "is_reserved": 0, "name": "0322651673161540561f92c0d96b1b24", "lon": -76.98810316666666, "type": "electric_scooter", "bike_id": "0322651673161540561f92c0d96b1b24", "fusion_lon": 0.0, "lat": 38.908213333333336, "fusion_lat": 0.0}, {"is_disabled": 0, "rental_uris": {"android": "https://dc.lft.to/lastmile_qr_scan", "ios": "https://dc.lft.to/lastmile_qr_scan"}, "is_reserved": 0, "name": "9c4881e531c3caca22b82d7188cbb9c0", "lon": -77.037399, "type": "electric_scooter", "bike_id": "9c4881e531c3caca22b82d7188cbb9c0", "fusion_lon": 0.0, "lat": 38.91191283333333, "fusion_lat": 0.0}, {"is_disabled": 0, "rental_uris": {"android": "https://dc.lft.to/lastmile_qr_scan", "ios": "https://dc.lft.to/lastmile_qr_scan"}, "is_reserved": 0, "name": "e448915017ff31b6818baa08ac9788bd", "lon": -77.02700783333333, "type": "electric_scooter", "bike_id": "e448915017ff31b6818baa08ac9788bd", "fusion_lon": 0.0, "lat": 38.89971166666667, "fusion_lat": 0.0}, {"is_disabled": 0, "rental_uris": {"android": "https://dc.lft.to/lastmile_qr_scan", "ios": "https://dc.lft.to/lastmile_qr_scan"}, "is_reserved": 0, "name": "b6006267bf2d592c3e6673527db33f1d", "lon": -77.016381, "type": "electric_scooter", "bike_id": "b6006267bf2d592c3e6673527db33f1d", "fusion_lon": 0.0, "lat": 38.88310416666667, "fusion_lat": 0.0}, {"is_disabled": 0, "rental_uris": {"android": "https://dc.lft.to/lastmile_qr_scan", "ios": "https://dc.lft.to/lastmile_qr_scan"}, "is_reserved": 0, "name": "b62c14eeca11f84b8a05371a91b60be8", "lon": -76.99850383333333, "type": "electric_scooter", "bike_id": "b62c14eeca11f84b8a05371a91b60be8", "fusion_lon": 0.0, "lat": 38.90022916666667, "fusion_lat": 0.0}, {"is_disabled": 0, "rental_uris": {"android": "https://dc.lft.to/lastmile_qr_scan", "ios": "https://dc.lft.to/lastmile_qr_scan"}, "is_reserved": 0, "name": "832adece48ef145b26a3c8cad34903f2", "lon": -77.032032, "type": "electric_scooter", "bike_id": "832adece48ef145b26a3c8cad34903f2", "fusion_lon": 0.0, "lat": 38.9199625, "fusion_lat": 0.0}, {"is_disabled": 0, "rental_uris": {"android": "https://dc.lft.to/lastmile_qr_scan", "ios": "https://dc.lft.to/lastmile_qr_scan"}, "is_reserved": 0, "name": "e78017ec0cf0f79639d2cd4377ed919d", "lon": -77.00764916666667, "type": "electric_scooter", "bike_id": "e78017ec0cf0f79639d2cd4377ed919d", "fusion_lon": 0.0, "lat": 38.871138333333334, "fusion_lat": 0.0}, {"is_disabled": 0, "rental_uris": {"android": "https://dc.lft.to/lastmile_qr_scan", "ios": "https://dc.lft.to/lastmile_qr_scan"}, "is_reserved": 0, "name": "0a749596b3912352016aa2093db336ee", "lon": -76.99534466666667, "type": "electric_scooter", "bike_id": "0a749596b3912352016aa2093db336ee", "fusion_lon": 0.0, "lat": 38.862542166666664, "fusion_lat": 0.0}, {"is_disabled": 0, "rental_uris": {"android": "https://dc.lft.to/lastmile_qr_scan", "ios": "https://dc.lft.to/lastmile_qr_scan"}, "is_reserved": 0, "name": "7733681591eacf40b5c4005f1d1a79e4", "lon": -77.0509685, "type": "electric_scooter", "bike_id": "7733681591eacf40b5c4005f1d1a79e4", "fusion_lon": 0.0, "lat": 38.923453, "fusion_lat": 0.0}, {"is_disabled": 0, "rental_uris": {"android": "https://dc.lft.to/lastmile_qr_scan", "ios": "https://dc.lft.to/lastmile_qr_scan"}, "is_reserved": 0, "name": "2c49356d73a4573f19b35cdfc7b85afa", "lon": -76.948863, "type": "electric_scooter", "bike_id": "2c49356d73a4573f19b35cdfc7b85afa", "fusion_lon": 0.0, "lat": 38.89531066666667, "fusion_lat": 0.0}, {"is_disabled": 0, "rental_uris": {"android": "https://dc.lft.to/lastmile_qr_scan", "ios": "https://dc.lft.to/lastmile_qr_scan"}, "is_reserved": 0, "name": "7e747f9692a53f7a29bdee8bcd033aa1", "lon": -76.91594283333333, "type": "electric_bike", "bike_id": "7e747f9692a53f7a29bdee8bcd033aa1", "fusion_lon": 0.0, "lat": 38.88013766666667, "fusion_lat": 0.0}, {"is_disabled": 0, "rental_uris": {"android": "https://dc.lft.to/lastmile_qr_scan", "ios": "https://dc.lft.to/lastmile_qr_scan"}, "is_reserved": 0, "name": "ae1cd4dbdb3558859cc2ce24dca4b106", "lon": -76.9833715, "type": "electric_scooter", "bike_id": "ae1cd4dbdb3558859cc2ce24dca4b106", "fusion_lon": 0.0, "lat": 38.912693833333336, "fusion_lat": 0.0}, {"is_disabled": 0, "rental_uris": {"android": "https://dc.lft.to/lastmile_qr_scan", "ios": "https://dc.lft.to/lastmile_qr_scan"}, "is_reserved": 0, "name": "1f18ea08d23cc2da4a109de01598f51d", "lon": -77.0193865, "type": "electric_scooter", "bike_id": "1f18ea08d23cc2da4a109de01598f51d", "fusion_lon": 0.0, "lat": 38.947061, "fusion_lat": 0.0}, {"is_disabled": 0, "rental_uris": {"android": "https://dc.lft.to/lastmile_qr_scan", "ios": "https://dc.lft.to/lastmile_qr_scan"}, "is_reserved": 0, "name": "d07a307d38dd069ba08837f3b6226c0b", "lon": -77.03443366666667, "type": "electric_scooter", "bike_id": "d07a307d38dd069ba08837f3b6226c0b", "fusion_lon": 0.0, "lat": 38.91497533333333, "fusion_lat": 0.0}, {"is_disabled": 0, "rental_uris": {"android": "https://dc.lft.to/lastmile_qr_scan", "ios": "https://dc.lft.to/lastmile_qr_scan"}, "is_reserved": 0, "name": "10d844e9bbf364408971d0a27a88cd9f", "lon": -77.04024766666667, "type": "electric_scooter", "bike_id": "10d844e9bbf364408971d0a27a88cd9f", "fusion_lon": 0.0, "lat": 38.92417716666667, "fusion_lat": 0.0}, {"is_disabled": 0, "rental_uris": {"android": "https://dc.lft.to/lastmile_qr_scan", "ios": "https://dc.lft.to/lastmile_qr_scan"}, "is_reserved": 0, "name": "9c76c675506738702409fc4011e77a4b", "lon": -76.97900266666667, "type": "electric_bike", "bike_id": "9c76c675506738702409fc4011e77a4b", "fusion_lon": 0.0, "lat": 38.854979166666666, "fusion_lat": 0.0}, {"is_disabled": 0, "rental_uris": {"android": "https://dc.lft.to/lastmile_qr_scan", "ios": "https://dc.lft.to/lastmile_qr_scan"}, "is_reserved": 0, "name": "0a6e2e74d5b8687037515ebc8a0ddefb", "lon": -77.03651916666666, "type": "electric_scooter", "bike_id": "0a6e2e74d5b8687037515ebc8a0ddefb", "fusion_lon": 0.0, "lat": 38.902789166666665, "fusion_lat": 0.0}, {"is_disabled": 0, "rental_uris": {"android": "https://dc.lft.to/lastmile_qr_scan", "ios": "https://dc.lft.to/lastmile_qr_scan"}, "is_reserved": 0, "name": "e94dee8f904cd062570ad37f25411e8c", "lon": -77.00330433333333, "type": "electric_scooter", "bike_id": "e94dee8f904cd062570ad37f25411e8c", "fusion_lon": 0.0, "lat": 38.88317166666667, "fusion_lat": 0.0}, {"is_disabled": 0, "rental_uris": {"android": "https://dc.lft.to/lastmile_qr_scan", "ios": "https://dc.lft.to/lastmile_qr_scan"}, "is_reserved": 0, "name": "ab3a621b0137cf06eeb3bc8450b0838e", "lon": -76.90816733333334, "type": "electric_bike", "bike_id": "ab3a621b0137cf06eeb3bc8450b0838e", "fusion_lon": 0.0, "lat": 38.99459016666667, "fusion_lat": 0.0}, {"is_disabled": 0, "rental_uris": {"android": "https://dc.lft.to/lastmile_qr_scan", "ios": "https://dc.lft.to/lastmile_qr_scan"}, "is_reserved": 0, "name": "4f556d8c866e0ce1dc1b446698ad40d1", "lon": -77.01757266666667, "type": "electric_scooter", "bike_id": "4f556d8c866e0ce1dc1b446698ad40d1", "fusion_lon": 0.0, "lat": 38.90265566666667, "fusion_lat": 0.0}, {"is_disabled": 0, "rental_uris": {"android": "https://dc.lft.to/lastmile_qr_scan", "ios": "https://dc.lft.to/lastmile_qr_scan"}, "is_reserved": 0, "name": "5b5ec4664ce3510afbf6a7c13ee2743a", "lon": -77.0139415, "type": "electric_scooter", "bike_id": "5b5ec4664ce3510afbf6a7c13ee2743a", "fusion_lon": 0.0, "lat": 38.8803245, "fusion_lat": 0.0}, {"is_disabled": 0, "rental_uris": {"android": "https://dc.lft.to/lastmile_qr_scan", "ios": "https://dc.lft.to/lastmile_qr_scan"}, "is_reserved": 0, "name": "25a853d25653bd00fb860d3c3927a68f", "lon": -76.98660866666667, "type": "electric_scooter", "bike_id": "25a853d25653bd00fb860d3c3927a68f", "fusion_lon": 0.0, "lat": 38.901531166666665, "fusion_lat": 0.0}, {"is_disabled": 0, "rental_uris": {"android": "https://dc.lft.to/lastmile_qr_scan", "ios": "https://dc.lft.to/lastmile_qr_scan"}, "is_reserved": 0, "name": "dd3ee9dbf1884c312721ddfd0bf8e2e1", "lon": -77.10681433333333, "type": "electric_bike", "bike_id": "dd3ee9dbf1884c312721ddfd0bf8e2e1", "fusion_lon": 0.0, "lat": 38.93585083333333, "fusion_lat": 0.0}, {"is_disabled": 0, "rental_uris": {"android": "https://dc.lft.to/lastmile_qr_scan", "ios": "https://dc.lft.to/lastmile_qr_scan"}, "is_reserved": 0, "name": "14f740c09c4e0f7bdf4e2e3b0789f909", "lon": -77.027141, "type": "electric_scooter", "bike_id": "14f740c09c4e0f7bdf4e2e3b0789f909", "fusion_lon": 0.0, "lat": 38.90595583333333, "fusion_lat": 0.0}, {"is_disabled": 0, "rental_uris": {"android": "https://dc.lft.to/lastmile_qr_scan", "ios": "https://dc.lft.to/lastmile_qr_scan"}, "is_reserved": 0, "name": "2978826d01a1cd2a8b22b47ec14e23e5", "lon": -77.00598483333333, "type": "electric_scooter", "bike_id": "2978826d01a1cd2a8b22b47ec14e23e5", "fusion_lon": 0.0, "lat": 38.90579366666667, "fusion_lat": 0.0}, {"is_disabled": 0, "rental_uris": {"android": "https://dc.lft.to/lastmile_qr_scan", "ios": "https://dc.lft.to/lastmile_qr_scan"}, "is_reserved": 0, "name": "675b35b174aa987d223f261adb3fee32", "lon": -77.020107, "type": "electric_scooter", "bike_id": "675b35b174aa987d223f261adb3fee32", "fusion_lon": 0.0, "lat": 38.892686166666664, "fusion_lat": 0.0}, {"is_disabled": 0, "rental_uris": {"android": "https://dc.lft.to/lastmile_qr_scan", "ios": "https://dc.lft.to/lastmile_qr_scan"}, "is_reserved": 0, "name": "8b764cfb66b3a0818f963b54e6ba1e64", "lon": -77.00587316666666, "type": "electric_scooter", "bike_id": "8b764cfb66b3a0818f963b54e6ba1e64", "fusion_lon": 0.0, "lat": 38.91179733333333, "fusion_lat": 0.0}, {"is_disabled": 0, "rental_uris": {"android": "https://dc.lft.to/lastmile_qr_scan", "ios": "https://dc.lft.to/lastmile_qr_scan"}, "is_reserved": 0, "name": "14ad75b6c508e2a697802b7a859c924c", "lon": -77.01948833333333, "type": "electric_scooter", "bike_id": "14ad75b6c508e2a697802b7a859c924c", "fusion_lon": 0.0, "lat": 38.922536666666666, "fusion_lat": 0.0}, {"is_disabled": 0, "rental_uris": {"android": "https://dc.lft.to/lastmile_qr_scan", "ios": "https://dc.lft.to/lastmile_qr_scan"}, "is_reserved": 0, "name": "4a8a05f270a81b0e15db6d6bb3d1ba27", "lon": -77.03499016666666, "type": "electric_scooter", "bike_id": "4a8a05f270a81b0e15db6d6bb3d1ba27", "fusion_lon": 0.0, "lat": 38.9169135, "fusion_lat": 0.0}, {"is_disabled": 0, "rental_uris": {"android": "https://dc.lft.to/lastmile_qr_scan", "ios": "https://dc.lft.to/lastmile_qr_scan"}, "is_reserved": 0, "name": "28dbe3c044a8c38b0a3b5ba7d4d13a89", "lon": -76.98760916666667, "type": "electric_bike", "bike_id": "28dbe3c044a8c38b0a3b5ba7d4d13a89", "fusion_lon": 0.0, "lat": 38.85784666666667, "fusion_lat": 0.0}, {"is_disabled": 0, "rental_uris": {"android": "https://dc.lft.to/lastmile_qr_scan", "ios": "https://dc.lft.to/lastmile_qr_scan"}, "is_reserved": 0, "name": "29b27798cfa052564a2fc0c0d9ab36bc", "lon": -76.98363916666666, "type": "electric_scooter", "bike_id": "29b27798cfa052564a2fc0c0d9ab36bc", "fusion_lon": 0.0, "lat": 38.895332833333335, "fusion_lat": 0.0}, {"is_disabled": 0, "rental_uris": {"android": "https://dc.lft.to/lastmile_qr_scan", "ios": "https://dc.lft.to/lastmile_qr_scan"}, "is_reserved": 0, "name": "b93d2f6e6ea68cfae19d4fb86f8ae5f2", "lon": -76.98809966666667, "type": "electric_scooter", "bike_id": "b93d2f6e6ea68cfae19d4fb86f8ae5f2", "fusion_lon": 0.0, "lat": 38.9000975, "fusion_lat": 0.0}, {"is_disabled": 0, "rental_uris": {"android": "https://dc.lft.to/lastmile_qr_scan", "ios": "https://dc.lft.to/lastmile_qr_scan"}, "is_reserved": 0, "name": "b4c41ecf0b8cfa211ac7cd044ae4a4c3", "lon": -77.03201466666667, "type": "electric_scooter", "bike_id": "b4c41ecf0b8cfa211ac7cd044ae4a4c3", "fusion_lon": 0.0, "lat": 38.93973283333333, "fusion_lat": 0.0}, {"is_disabled": 0, "rental_uris": {"android": "https://dc.lft.to/lastmile_qr_scan", "ios": "https://dc.lft.to/lastmile_qr_scan"}, "is_reserved": 0, "name": "7c70b12331a16842859f61a3f94dde85", "lon": -77.03097366666667, "type": "electric_scooter", "bike_id": "7c70b12331a16842859f61a3f94dde85", "fusion_lon": 0.0, "lat": 38.925737, "fusion_lat": 0.0}, {"is_disabled": 0, "rental_uris": {"android": "https://dc.lft.to/lastmile_qr_scan", "ios": "https://dc.lft.to/lastmile_qr_scan"}, "is_reserved": 0, "name": "34f0d9b8d9780e9afd00edb11d5815fa", "lon": -77.044436, "type": "electric_scooter", "bike_id": "34f0d9b8d9780e9afd00edb11d5815fa", "fusion_lon": 0.0, "lat": 38.91259616666667, "fusion_lat": 0.0}, {"is_disabled": 0, "rental_uris": {"android": "https://dc.lft.to/lastmile_qr_scan", "ios": "https://dc.lft.to/lastmile_qr_scan"}, "is_reserved": 0, "name": "ef4aa5b3871ea07bbc6da8654ed49f7f", "lon": -77.03313, "type": "electric_scooter", "bike_id": "ef4aa5b3871ea07bbc6da8654ed49f7f", "fusion_lon": 0.0, "lat": 38.91416666666667, "fusion_lat": 0.0}, {"is_disabled": 0, "rental_uris": {"android": "https://dc.lft.to/lastmile_qr_scan", "ios": "https://dc.lft.to/lastmile_qr_scan"}, "is_reserved": 0, "name": "e6c0f476b35564ad2456e2e71f55afd1", "lon": -77.00710683333334, "type": "electric_scooter", "bike_id": "e6c0f476b35564ad2456e2e71f55afd1", "fusion_lon": 0.0, "lat": 38.88491416666667, "fusion_lat": 0.0}, {"is_disabled": 0, "rental_uris": {"android": "https://dc.lft.to/lastmile_qr_scan", "ios": "https://dc.lft.to/lastmile_qr_scan"}, "is_reserved": 0, "name": "952ffd5556335de2db8f14bab5ddcff1", "lon": -77.0149185, "type": "electric_scooter", "bike_id": "952ffd5556335de2db8f14bab5ddcff1", "fusion_lon": 0.0, "lat": 38.95649433333333, "fusion_lat": 0.0}, {"is_disabled": 0, "rental_uris": {"android": "https://dc.lft.to/lastmile_qr_scan", "ios": "https://dc.lft.to/lastmile_qr_scan"}, "is_reserved": 0, "name": "7760aa1970da8db8cfa34476fef504f1", "lon": -76.9335395, "type": "electric_scooter", "bike_id": "7760aa1970da8db8cfa34476fef504f1", "fusion_lon": 0.0, "lat": 38.89903116666667, "fusion_lat": 0.0}, {"is_disabled": 0, "rental_uris": {"android": "https://dc.lft.to/lastmile_qr_scan", "ios": "https://dc.lft.to/lastmile_qr_scan"}, "is_reserved": 0, "name": "6b1fb0cf2d76c1e5335d65da035a001f", "lon": -76.98376216666666, "type": "electric_scooter", "bike_id": "6b1fb0cf2d76c1e5335d65da035a001f", "fusion_lon": 0.0, "lat": 38.844523, "fusion_lat": 0.0}, {"is_disabled": 0, "rental_uris": {"android": "https://dc.lft.to/lastmile_qr_scan", "ios": "https://dc.lft.to/lastmile_qr_scan"}, "is_reserved": 0, "name": "34bfce139326f39a571e1e672d2d3646", "lon": -77.0077685, "type": "electric_bike", "bike_id": "34bfce139326f39a571e1e672d2d3646", "fusion_lon": 0.0, "lat": 38.98127383333333, "fusion_lat": 0.0}, {"is_disabled": 0, "rental_uris": {"android": "https://dc.lft.to/lastmile_qr_scan", "ios": "https://dc.lft.to/lastmile_qr_scan"}, "is_reserved": 0, "name": "76f10fe66a7f31c86dc529865bb4644d", "lon": -77.01631466666667, "type": "electric_scooter", "bike_id": "76f10fe66a7f31c86dc529865bb4644d", "fusion_lon": 0.0, "lat": 38.928888, "fusion_lat": 0.0}, {"is_disabled": 0, "rental_uris": {"android": "https://dc.lft.to/lastmile_qr_scan", "ios": "https://dc.lft.to/lastmile_qr_scan"}, "is_reserved": 0, "name": "d3cf43656570ed01604dbe9a8caba120", "lon": -76.948615, "type": "electric_bike", "bike_id": "d3cf43656570ed01604dbe9a8caba120", "fusion_lon": 0.0, "lat": 38.88967616666667, "fusion_lat": 0.0}, {"is_disabled": 0, "rental_uris": {"android": "https://dc.lft.to/lastmile_qr_scan", "ios": "https://dc.lft.to/lastmile_qr_scan"}, "is_reserved": 0, "name": "84ad90951a7d66e092634722d16ab9b7", "lon": -77.0147875, "type": "electric_scooter", "bike_id": "84ad90951a7d66e092634722d16ab9b7", "fusion_lon": 0.0, "lat": 38.87630333333333, "fusion_lat": 0.0}, {"is_disabled": 0, "rental_uris": {"android": "https://dc.lft.to/lastmile_qr_scan", "ios": "https://dc.lft.to/lastmile_qr_scan"}, "is_reserved": 0, "name": "0a1e38e527487dddac1d435c9cd6ca73", "lon": -77.02961166666667, "type": "electric_scooter", "bike_id": "0a1e38e527487dddac1d435c9cd6ca73", "fusion_lon": 0.0, "lat": 38.92464416666667, "fusion_lat": 0.0}, {"is_disabled": 0, "rental_uris": {"android": "https://dc.lft.to/lastmile_qr_scan", "ios": "https://dc.lft.to/lastmile_qr_scan"}, "is_reserved": 0, "name": "b8e22aa38612926979744f493eef7b2b", "lon": -77.10701383333334, "type": "electric_bike", "bike_id": "b8e22aa38612926979744f493eef7b2b", "fusion_lon": 0.0, "lat": 38.85534916666667, "fusion_lat": 0.0}, {"is_disabled": 0, "rental_uris": {"android": "https://dc.lft.to/lastmile_qr_scan", "ios": "https://dc.lft.to/lastmile_qr_scan"}, "is_reserved": 0, "name": "7190be57ad90b409bf29432f27fdd62c", "lon": -77.013193, "type": "electric_scooter", "bike_id": "7190be57ad90b409bf29432f27fdd62c", "fusion_lon": 0.0, "lat": 38.9014365, "fusion_lat": 0.0}, {"is_disabled": 0, "rental_uris": {"android": "https://dc.lft.to/lastmile_qr_scan", "ios": "https://dc.lft.to/lastmile_qr_scan"}, "is_reserved": 0, "name": "6139e8db50022359e732839cf256b9c3", "lon": -76.87773466666667, "type": "electric_bike", "bike_id": "6139e8db50022359e732839cf256b9c3", "fusion_lon": 0.0, "lat": 38.992261666666664, "fusion_lat": 0.0}, {"is_disabled": 0, "rental_uris": {"android": "https://dc.lft.to/lastmile_qr_scan", "ios": "https://dc.lft.to/lastmile_qr_scan"}, "is_reserved": 0, "name": "b00daa7d2f2d49071fcd0557ff3603d4", "lon": -77.03992216666667, "type": "electric_scooter", "bike_id": "b00daa7d2f2d49071fcd0557ff3603d4", "fusion_lon": 0.0, "lat": 38.91413466666667, "fusion_lat": 0.0}, {"is_disabled": 0, "rental_uris": {"android": "https://dc.lft.to/lastmile_qr_scan", "ios": "https://dc.lft.to/lastmile_qr_scan"}, "is_reserved": 0, "name": "42fc6590223cba163ec8668c12339410", "lon": -76.998322, "type": "electric_bike", "bike_id": "42fc6590223cba163ec8668c12339410", "fusion_lon": 0.0, "lat": 38.8999995, "fusion_lat": 0.0}, {"is_disabled": 0, "rental_uris": {"android": "https://dc.lft.to/lastmile_qr_scan", "ios": "https://dc.lft.to/lastmile_qr_scan"}, "is_reserved": 0, "name": "07defcc5502860ca3ed00531b97be672", "lon": -77.02413583333333, "type": "electric_scooter", "bike_id": "07defcc5502860ca3ed00531b97be672", "fusion_lon": 0.0, "lat": 38.89255083333333, "fusion_lat": 0.0}, {"is_disabled": 0, "rental_uris": {"android": "https://dc.lft.to/lastmile_qr_scan", "ios": "https://dc.lft.to/lastmile_qr_scan"}, "is_reserved": 0, "name": "f5d5c21f92c56b278d2c7f4fdd6fd8e3", "lon": -76.963861, "type": "electric_bike", "bike_id": "f5d5c21f92c56b278d2c7f4fdd6fd8e3", "fusion_lon": 0.0, "lat": 38.9758305, "fusion_lat": 0.0}, {"is_disabled": 0, "rental_uris": {"android": "https://dc.lft.to/lastmile_qr_scan", "ios": "https://dc.lft.to/lastmile_qr_scan"}, "is_reserved": 0, "name": "2cc46bf0f340e2a64aabc3911f6615fc", "lon": -77.02933666666667, "type": "electric_scooter", "bike_id": "2cc46bf0f340e2a64aabc3911f6615fc", "fusion_lon": 0.0, "lat": 38.90437933333333, "fusion_lat": 0.0}, {"is_disabled": 0, "rental_uris": {"android": "https://dc.lft.to/lastmile_qr_scan", "ios": "https://dc.lft.to/lastmile_qr_scan"}, "is_reserved": 0, "name": "cbc7e8cf39f213c70e21055c5a14de76", "lon": -77.04368783333334, "type": "electric_scooter", "bike_id": "cbc7e8cf39f213c70e21055c5a14de76", "fusion_lon": 0.0, "lat": 38.910549833333334, "fusion_lat": 0.0}, {"is_disabled": 0, "rental_uris": {"android": "https://dc.lft.to/lastmile_qr_scan", "ios": "https://dc.lft.to/lastmile_qr_scan"}, "is_reserved": 0, "name": "63c908f08c561cc3749b15f8ba9a0bf4", "lon": -77.0379085, "type": "electric_scooter", "bike_id": "63c908f08c561cc3749b15f8ba9a0bf4", "fusion_lon": 0.0, "lat": 38.930245666666664, "fusion_lat": 0.0}, {"is_disabled": 0, "rental_uris": {"android": "https://dc.lft.to/lastmile_qr_scan", "ios": "https://dc.lft.to/lastmile_qr_scan"}, "is_reserved": 0, "name": "4f5d9043584d9bdaba715583e57b4896", "lon": -77.0250985, "type": "electric_scooter", "bike_id": "4f5d9043584d9bdaba715583e57b4896", "fusion_lon": 0.0, "lat": 38.920772166666666, "fusion_lat": 0.0}, {"is_disabled": 0, "rental_uris": {"android": "https://dc.lft.to/lastmile_qr_scan", "ios": "https://dc.lft.to/lastmile_qr_scan"}, "is_reserved": 0, "name": "a4471b0953e84aa21e23ab8b5b94c9fb", "lon": -77.03263366666667, "type": "electric_scooter", "bike_id": "a4471b0953e84aa21e23ab8b5b94c9fb", "fusion_lon": 0.0, "lat": 38.93332266666667, "fusion_lat": 0.0}, {"is_disabled": 0, "rental_uris": {"android": "https://dc.lft.to/lastmile_qr_scan", "ios": "https://dc.lft.to/lastmile_qr_scan"}, "is_reserved": 0, "name": "71f21054502628d8dab7ac710fbd3934", "lon": -77.06006816666667, "type": "electric_scooter", "bike_id": "71f21054502628d8dab7ac710fbd3934", "fusion_lon": 0.0, "lat": 38.905263, "fusion_lat": 0.0}, {"is_disabled": 0, "rental_uris": {"android": "https://dc.lft.to/lastmile_qr_scan", "ios": "https://dc.lft.to/lastmile_qr_scan"}, "is_reserved": 0, "name": "e76ad61027f9f606b9db51656a4dad51", "lon": -76.99197983333333, "type": "electric_scooter", "bike_id": "e76ad61027f9f606b9db51656a4dad51", "fusion_lon": 0.0, "lat": 38.8896075, "fusion_lat": 0.0}, {"is_disabled": 0, "rental_uris": {"android": "https://dc.lft.to/lastmile_qr_scan", "ios": "https://dc.lft.to/lastmile_qr_scan"}, "is_reserved": 0, "name": "16e58bedaa1f213df67fd1767e464d77", "lon": -76.94716333333334, "type": "electric_scooter", "bike_id": "16e58bedaa1f213df67fd1767e464d77", "fusion_lon": 0.0, "lat": 38.897059166666665, "fusion_lat": 0.0}, {"is_disabled": 0, "rental_uris": {"android": "https://dc.lft.to/lastmile_qr_scan", "ios": "https://dc.lft.to/lastmile_qr_scan"}, "is_reserved": 0, "name": "3ecc231c4b4e00c1cb41f16d113dae7d", "lon": -77.02779083333333, "type": "electric_scooter", "bike_id": "3ecc231c4b4e00c1cb41f16d113dae7d", "fusion_lon": 0.0, "lat": 38.927675, "fusion_lat": 0.0}, {"is_disabled": 0, "rental_uris": {"android": "https://dc.lft.to/lastmile_qr_scan", "ios": "https://dc.lft.to/lastmile_qr_scan"}, "is_reserved": 0, "name": "79e34743f458ab7d1cbfa85c629d003a", "lon": -77.0164485, "type": "electric_scooter", "bike_id": "79e34743f458ab7d1cbfa85c629d003a", "fusion_lon": 0.0, "lat": 38.87638616666667, "fusion_lat": 0.0}, {"is_disabled": 0, "rental_uris": {"android": "https://dc.lft.to/lastmile_qr_scan", "ios": "https://dc.lft.to/lastmile_qr_scan"}, "is_reserved": 0, "name": "62abec975b14805bda4246d7562708a1", "lon": -77.03391866666666, "type": "electric_scooter", "bike_id": "62abec975b14805bda4246d7562708a1", "fusion_lon": 0.0, "lat": 38.91915866666667, "fusion_lat": 0.0}, {"is_disabled": 0, "rental_uris": {"android": "https://dc.lft.to/lastmile_qr_scan", "ios": "https://dc.lft.to/lastmile_qr_scan"}, "is_reserved": 0, "name": "79fc6f63b088ccf815f4142874c4cab0", "lon": -77.00565133333333, "type": "electric_scooter", "bike_id": "79fc6f63b088ccf815f4142874c4cab0", "fusion_lon": 0.0, "lat": 38.885070666666664, "fusion_lat": 0.0}, {"is_disabled": 0, "rental_uris": {"android": "https://dc.lft.to/lastmile_qr_scan", "ios": "https://dc.lft.to/lastmile_qr_scan"}, "is_reserved": 0, "name": "6a9f9d6fcbc9f56215731a1866bb7891", "lon": -77.02508683333333, "type": "electric_scooter", "bike_id": "6a9f9d6fcbc9f56215731a1866bb7891", "fusion_lon": 0.0, "lat": 38.92077666666667, "fusion_lat": 0.0}, {"is_disabled": 0, "rental_uris": {"android": "https://dc.lft.to/lastmile_qr_scan", "ios": "https://dc.lft.to/lastmile_qr_scan"}, "is_reserved": 0, "name": "e34c26d56711c9abfb35b990e2498fa3", "lon": -77.0346265, "type": "electric_scooter", "bike_id": "e34c26d56711c9abfb35b990e2498fa3", "fusion_lon": 0.0, "lat": 38.9216045, "fusion_lat": 0.0}, {"is_disabled": 0, "rental_uris": {"android": "https://dc.lft.to/lastmile_qr_scan", "ios": "https://dc.lft.to/lastmile_qr_scan"}, "is_reserved": 0, "name": "9027fc167ab8329544973a1e3ae4abf4", "lon": -77.03389383333334, "type": "electric_scooter", "bike_id": "9027fc167ab8329544973a1e3ae4abf4", "fusion_lon": 0.0, "lat": 38.9216285, "fusion_lat": 0.0}, {"is_disabled": 0, "rental_uris": {"android": "https://dc.lft.to/lastmile_qr_scan", "ios": "https://dc.lft.to/lastmile_qr_scan"}, "is_reserved": 0, "name": "e56f94bf8db26e2d582c2cfd904b4972", "lon": -77.0304725, "type": "electric_scooter", "bike_id": "e56f94bf8db26e2d582c2cfd904b4972", "fusion_lon": 0.0, "lat": 38.96419383333333, "fusion_lat": 0.0}, {"is_disabled": 0, "rental_uris": {"android": "https://dc.lft.to/lastmile_qr_scan", "ios": "https://dc.lft.to/lastmile_qr_scan"}, "is_reserved": 0, "name": "f689c463de5c787fd4058526db573c22", "lon": -77.03149666666667, "type": "electric_scooter", "bike_id": "f689c463de5c787fd4058526db573c22", "fusion_lon": 0.0, "lat": 38.901197833333335, "fusion_lat": 0.0}, {"is_disabled": 0, "rental_uris": {"android": "https://dc.lft.to/lastmile_qr_scan", "ios": "https://dc.lft.to/lastmile_qr_scan"}, "is_reserved": 0, "name": "238f124375c2cba7b08d22fb1525d8f0", "lon": -77.02606166666666, "type": "electric_scooter", "bike_id": "238f124375c2cba7b08d22fb1525d8f0", "fusion_lon": 0.0, "lat": 38.924415833333335, "fusion_lat": 0.0}, {"is_disabled": 0, "rental_uris": {"android": "https://dc.lft.to/lastmile_qr_scan", "ios": "https://dc.lft.to/lastmile_qr_scan"}, "is_reserved": 0, "name": "5b10b0a237dacda466ba65a3acd1f9e9", "lon": -77.028454, "type": "electric_bike", "bike_id": "5b10b0a237dacda466ba65a3acd1f9e9", "fusion_lon": 0.0, "lat": 38.91362733333333, "fusion_lat": 0.0}, {"is_disabled": 0, "rental_uris": {"android": "https://dc.lft.to/lastmile_qr_scan", "ios": "https://dc.lft.to/lastmile_qr_scan"}, "is_reserved": 0, "name": "41c6d80eb7d5a89eccabf254c2691368", "lon": -77.02370633333334, "type": "electric_scooter", "bike_id": "41c6d80eb7d5a89eccabf254c2691368", "fusion_lon": 0.0, "lat": 38.9020135, "fusion_lat": 0.0}, {"is_disabled": 0, "rental_uris": {"android": "https://dc.lft.to/lastmile_qr_scan", "ios": "https://dc.lft.to/lastmile_qr_scan"}, "is_reserved": 0, "name": "a25ce6f252f39e5fe1dce3193db9b624", "lon": -77.04267866666666, "type": "electric_scooter", "bike_id": "a25ce6f252f39e5fe1dce3193db9b624", "fusion_lon": 0.0, "lat": 38.92238283333333, "fusion_lat": 0.0}, {"is_disabled": 0, "rental_uris": {"android": "https://dc.lft.to/lastmile_qr_scan", "ios": "https://dc.lft.to/lastmile_qr_scan"}, "is_reserved": 0, "name": "db2afadaafb8de13c9ff1edb3d3d7ff7", "lon": -77.05121416666667, "type": "electric_scooter", "bike_id": "db2afadaafb8de13c9ff1edb3d3d7ff7", "fusion_lon": 0.0, "lat": 38.90138016666667, "fusion_lat": 0.0}, {"is_disabled": 0, "rental_uris": {"android": "https://dc.lft.to/lastmile_qr_scan", "ios": "https://dc.lft.to/lastmile_qr_scan"}, "is_reserved": 0, "name": "03ca0e109f96d499b2e50d4ba964b346", "lon": -77.0077305, "type": "electric_scooter", "bike_id": "03ca0e109f96d499b2e50d4ba964b346", "fusion_lon": 0.0, "lat": 38.90745116666667, "fusion_lat": 0.0}, {"is_disabled": 0, "rental_uris": {"android": "https://dc.lft.to/lastmile_qr_scan", "ios": "https://dc.lft.to/lastmile_qr_scan"}, "is_reserved": 0, "name": "89017cec61eb0bd35f8f05b2c885d70a", "lon": -77.051183, "type": "electric_scooter", "bike_id": "89017cec61eb0bd35f8f05b2c885d70a", "fusion_lon": 0.0, "lat": 38.902233833333334, "fusion_lat": 0.0}, {"is_disabled": 0, "rental_uris": {"android": "https://dc.lft.to/lastmile_qr_scan", "ios": "https://dc.lft.to/lastmile_qr_scan"}, "is_reserved": 0, "name": "f6bce395cbf5f27ab13d95be7fda9a17", "lon": -76.96522616666667, "type": "electric_scooter", "bike_id": "f6bce395cbf5f27ab13d95be7fda9a17", "fusion_lon": 0.0, "lat": 38.8762985, "fusion_lat": 0.0}, {"is_disabled": 0, "rental_uris": {"android": "https://dc.lft.to/lastmile_qr_scan", "ios": "https://dc.lft.to/lastmile_qr_scan"}, "is_reserved": 0, "name": "69926b911f2bdbdf7c77de152f2d19be", "lon": -77.02152833333334, "type": "electric_scooter", "bike_id": "69926b911f2bdbdf7c77de152f2d19be", "fusion_lon": 0.0, "lat": 38.8791765, "fusion_lat": 0.0}, {"is_disabled": 0, "rental_uris": {"android": "https://dc.lft.to/lastmile_qr_scan", "ios": "https://dc.lft.to/lastmile_qr_scan"}, "is_reserved": 0, "name": "2e1b06b2b44dec26e8a9adf9bb98d5ac", "lon": -77.03633166666667, "type": "electric_scooter", "bike_id": "2e1b06b2b44dec26e8a9adf9bb98d5ac", "fusion_lon": 0.0, "lat": 38.9162765, "fusion_lat": 0.0}, {"is_disabled": 0, "rental_uris": {"android": "https://dc.lft.to/lastmile_qr_scan", "ios": "https://dc.lft.to/lastmile_qr_scan"}, "is_reserved": 0, "name": "9b015b0203151869d74884f68d060c81", "lon": -77.03717633333333, "type": "electric_scooter", "bike_id": "9b015b0203151869d74884f68d060c81", "fusion_lon": 0.0, "lat": 38.92655883333333, "fusion_lat": 0.0}, {"is_disabled": 0, "rental_uris": {"android": "https://dc.lft.to/lastmile_qr_scan", "ios": "https://dc.lft.to/lastmile_qr_scan"}, "is_reserved": 0, "name": "f981abab296a4550d41f9b6ea2a008a2", "lon": -76.990014, "type": "electric_scooter", "bike_id": "f981abab296a4550d41f9b6ea2a008a2", "fusion_lon": 0.0, "lat": 38.86510633333333, "fusion_lat": 0.0}, {"is_disabled": 0, "rental_uris": {"android": "https://dc.lft.to/lastmile_qr_scan", "ios": "https://dc.lft.to/lastmile_qr_scan"}, "is_reserved": 0, "name": "17f4011f0b40637862d655542e5ef129", "lon": -76.9499565, "type": "electric_scooter", "bike_id": "17f4011f0b40637862d655542e5ef129", "fusion_lon": 0.0, "lat": 38.89395583333334, "fusion_lat": 0.0}, {"is_disabled": 0, "rental_uris": {"android": "https://dc.lft.to/lastmile_qr_scan", "ios": "https://dc.lft.to/lastmile_qr_scan"}, "is_reserved": 0, "name": "ae6890bda15c96515f5bcaec1b8f351d", "lon": -76.99082333333334, "type": "electric_scooter", "bike_id": "ae6890bda15c96515f5bcaec1b8f351d", "fusion_lon": 0.0, "lat": 38.860545, "fusion_lat": 0.0}, {"is_disabled": 0, "rental_uris": {"android": "https://dc.lft.to/lastmile_qr_scan", "ios": "https://dc.lft.to/lastmile_qr_scan"}, "is_reserved": 0, "name": "7a3472b4d46474af6d7086e322ebe6c3", "lon": -77.04153066666667, "type": "electric_scooter", "bike_id": "7a3472b4d46474af6d7086e322ebe6c3", "fusion_lon": 0.0, "lat": 38.90811583333333, "fusion_lat": 0.0}, {"is_disabled": 0, "rental_uris": {"android": "https://dc.lft.to/lastmile_qr_scan", "ios": "https://dc.lft.to/lastmile_qr_scan"}, "is_reserved": 0, "name": "b7a0abd73339d79b232ab0d47c7e36de", "lon": -77.03518566666666, "type": "electric_scooter", "bike_id": "b7a0abd73339d79b232ab0d47c7e36de", "fusion_lon": 0.0, "lat": 38.922375833333334, "fusion_lat": 0.0}, {"is_disabled": 0, "rental_uris": {"android": "https://dc.lft.to/lastmile_qr_scan", "ios": "https://dc.lft.to/lastmile_qr_scan"}, "is_reserved": 0, "name": "e220ecc73f668b4bd16d8579f492d8f2", "lon": -76.99551416666667, "type": "electric_scooter", "bike_id": "e220ecc73f668b4bd16d8579f492d8f2", "fusion_lon": 0.0, "lat": 38.92046116666667, "fusion_lat": 0.0}, {"is_disabled": 0, "rental_uris": {"android": "https://dc.lft.to/lastmile_qr_scan", "ios": "https://dc.lft.to/lastmile_qr_scan"}, "is_reserved": 0, "name": "ce7b0d07a92ff8bc8669b564e280f704", "lon": -77.03655816666667, "type": "electric_scooter", "bike_id": "ce7b0d07a92ff8bc8669b564e280f704", "fusion_lon": 0.0, "lat": 38.9171575, "fusion_lat": 0.0}, {"is_disabled": 0, "rental_uris": {"android": "https://dc.lft.to/lastmile_qr_scan", "ios": "https://dc.lft.to/lastmile_qr_scan"}, "is_reserved": 0, "name": "1db129f753259319401f6d8daa36f959", "lon": -76.98811133333334, "type": "electric_scooter", "bike_id": "1db129f753259319401f6d8daa36f959", "fusion_lon": 0.0, "lat": 38.900114333333335, "fusion_lat": 0.0}, {"is_disabled": 0, "rental_uris": {"android": "https://dc.lft.to/lastmile_qr_scan", "ios": "https://dc.lft.to/lastmile_qr_scan"}, "is_reserved": 0, "name": "6eaf13fb8d41d37779a0a4d8b8da6dc7", "lon": -77.05402366666667, "type": "electric_scooter", "bike_id": "6eaf13fb8d41d37779a0a4d8b8da6dc7", "fusion_lon": 0.0, "lat": 38.90497416666667, "fusion_lat": 0.0}, {"is_disabled": 0, "rental_uris": {"android": "https://dc.lft.to/lastmile_qr_scan", "ios": "https://dc.lft.to/lastmile_qr_scan"}, "is_reserved": 0, "name": "4e022968983e29bddc7368f8c8b229f0", "lon": -77.03468016666666, "type": "electric_scooter", "bike_id": "4e022968983e29bddc7368f8c8b229f0", "fusion_lon": 0.0, "lat": 38.9072735, "fusion_lat": 0.0}, {"is_disabled": 0, "rental_uris": {"android": "https://dc.lft.to/lastmile_qr_scan", "ios": "https://dc.lft.to/lastmile_qr_scan"}, "is_reserved": 0, "name": "33d502a5f0380d46bfb3d0973ec62d2b", "lon": -77.01218133333333, "type": "electric_scooter", "bike_id": "33d502a5f0380d46bfb3d0973ec62d2b", "fusion_lon": 0.0, "lat": 38.914973, "fusion_lat": 0.0}, {"is_disabled": 0, "rental_uris": {"android": "https://dc.lft.to/lastmile_qr_scan", "ios": "https://dc.lft.to/lastmile_qr_scan"}, "is_reserved": 0, "name": "70993e9999ed7053ada1d4469efee30e", "lon": -77.03200833333334, "type": "electric_scooter", "bike_id": "70993e9999ed7053ada1d4469efee30e", "fusion_lon": 0.0, "lat": 38.90737, "fusion_lat": 0.0}, {"is_disabled": 0, "rental_uris": {"android": "https://dc.lft.to/lastmile_qr_scan", "ios": "https://dc.lft.to/lastmile_qr_scan"}, "is_reserved": 0, "name": "c870fb147e27fb14caa56b7d8632912d", "lon": -76.97359183333333, "type": "electric_bike", "bike_id": "c870fb147e27fb14caa56b7d8632912d", "fusion_lon": 0.0, "lat": 38.865542, "fusion_lat": 0.0}, {"is_disabled": 0, "rental_uris": {"android": "https://dc.lft.to/lastmile_qr_scan", "ios": "https://dc.lft.to/lastmile_qr_scan"}, "is_reserved": 0, "name": "3f55c06f68abc6183d8db3efd4a3f3a5", "lon": -77.04192983333333, "type": "electric_scooter", "bike_id": "3f55c06f68abc6183d8db3efd4a3f3a5", "fusion_lon": 0.0, "lat": 38.903771, "fusion_lat": 0.0}, {"is_disabled": 0, "rental_uris": {"android": "https://dc.lft.to/lastmile_qr_scan", "ios": "https://dc.lft.to/lastmile_qr_scan"}, "is_reserved": 0, "name": "add57d12b9142b77f96ee227ef32b4be", "lon": -77.054203, "type": "electric_scooter", "bike_id": "add57d12b9142b77f96ee227ef32b4be", "fusion_lon": 0.0, "lat": 38.928234833333335, "fusion_lat": 0.0}, {"is_disabled": 0, "rental_uris": {"android": "https://dc.lft.to/lastmile_qr_scan", "ios": "https://dc.lft.to/lastmile_qr_scan"}, "is_reserved": 0, "name": "227e3244637cf2a8dfddf05eb097a63d", "lon": -77.04551433333333, "type": "electric_bike", "bike_id": "227e3244637cf2a8dfddf05eb097a63d", "fusion_lon": 0.0, "lat": 38.91934283333333, "fusion_lat": 0.0}, {"is_disabled": 0, "rental_uris": {"android": "https://dc.lft.to/lastmile_qr_scan", "ios": "https://dc.lft.to/lastmile_qr_scan"}, "is_reserved": 0, "name": "0745d73e2e2576909e81b59fe43a78de", "lon": -76.99392416666667, "type": "electric_scooter", "bike_id": "0745d73e2e2576909e81b59fe43a78de", "fusion_lon": 0.0, "lat": 38.921753, "fusion_lat": 0.0}, {"is_disabled": 0, "rental_uris": {"android": "https://dc.lft.to/lastmile_qr_scan", "ios": "https://dc.lft.to/lastmile_qr_scan"}, "is_reserved": 0, "name": "5727e82fe67278244567093d4f39e681", "lon": -77.02745083333333, "type": "electric_scooter", "bike_id": "5727e82fe67278244567093d4f39e681", "fusion_lon": 0.0, "lat": 38.93580683333333, "fusion_lat": 0.0}, {"is_disabled": 0, "rental_uris": {"android": "https://dc.lft.to/lastmile_qr_scan", "ios": "https://dc.lft.to/lastmile_qr_scan"}, "is_reserved": 0, "name": "c3017bc2509711a8ca5411e64f3818f5", "lon": -77.05264916666667, "type": "electric_scooter", "bike_id": "c3017bc2509711a8ca5411e64f3818f5", "fusion_lon": 0.0, "lat": 38.92237683333333, "fusion_lat": 0.0}, {"is_disabled": 0, "rental_uris": {"android": "https://dc.lft.to/lastmile_qr_scan", "ios": "https://dc.lft.to/lastmile_qr_scan"}, "is_reserved": 0, "name": "e3af49bbac116ec11a12a3ff859d2800", "lon": -77.03440466666666, "type": "electric_scooter", "bike_id": "e3af49bbac116ec11a12a3ff859d2800", "fusion_lon": 0.0, "lat": 38.933667666666665, "fusion_lat": 0.0}, {"is_disabled": 0, "rental_uris": {"android": "https://dc.lft.to/lastmile_qr_scan", "ios": "https://dc.lft.to/lastmile_qr_scan"}, "is_reserved": 0, "name": "89c0fc2f2f083ab73d586bb2ab847b9c", "lon": -77.0416755, "type": "electric_scooter", "bike_id": "89c0fc2f2f083ab73d586bb2ab847b9c", "fusion_lon": 0.0, "lat": 38.89906666666667, "fusion_lat": 0.0}, {"is_disabled": 0, "rental_uris": {"android": "https://dc.lft.to/lastmile_qr_scan", "ios": "https://dc.lft.to/lastmile_qr_scan"}, "is_reserved": 0, "name": "1c96bd9f3b5e30ff22705d46401b823d", "lon": -77.038719, "type": "electric_scooter", "bike_id": "1c96bd9f3b5e30ff22705d46401b823d", "fusion_lon": 0.0, "lat": 38.915649, "fusion_lat": 0.0}, {"is_disabled": 0, "rental_uris": {"android": "https://dc.lft.to/lastmile_qr_scan", "ios": "https://dc.lft.to/lastmile_qr_scan"}, "is_reserved": 0, "name": "9b893d860e43d6b0012957a43f0acf4a", "lon": -77.03652, "type": "electric_scooter", "bike_id": "9b893d860e43d6b0012957a43f0acf4a", "fusion_lon": 0.0, "lat": 38.92281583333333, "fusion_lat": 0.0}, {"is_disabled": 0, "rental_uris": {"android": "https://dc.lft.to/lastmile_qr_scan", "ios": "https://dc.lft.to/lastmile_qr_scan"}, "is_reserved": 0, "name": "df57459d5a63522f7a1e8259762c5500", "lon": -76.98727133333334, "type": "electric_scooter", "bike_id": "df57459d5a63522f7a1e8259762c5500", "fusion_lon": 0.0, "lat": 38.86719983333333, "fusion_lat": 0.0}, {"is_disabled": 0, "rental_uris": {"android": "https://dc.lft.to/lastmile_qr_scan", "ios": "https://dc.lft.to/lastmile_qr_scan"}, "is_reserved": 0, "name": "4954108dfbf78d6a98af74453b9aa002", "lon": -77.00597633333334, "type": "electric_bike", "bike_id": "4954108dfbf78d6a98af74453b9aa002", "fusion_lon": 0.0, "lat": 38.8980965, "fusion_lat": 0.0}, {"is_disabled": 0, "rental_uris": {"android": "https://dc.lft.to/lastmile_qr_scan", "ios": "https://dc.lft.to/lastmile_qr_scan"}, "is_reserved": 0, "name": "d69640f0f7642410940b88119e16700d", "lon": -77.05518183333334, "type": "electric_bike", "bike_id": "d69640f0f7642410940b88119e16700d", "fusion_lon": 0.0, "lat": 38.910569333333335, "fusion_lat": 0.0}, {"is_disabled": 0, "rental_uris": {"android": "https://dc.lft.to/lastmile_qr_scan", "ios": "https://dc.lft.to/lastmile_qr_scan"}, "is_reserved": 0, "name": "75bebc2459f9568b3a2ebaffd1f47c3f", "lon": -76.93743816666667, "type": "electric_scooter", "bike_id": "75bebc2459f9568b3a2ebaffd1f47c3f", "fusion_lon": 0.0, "lat": 38.890153833333336, "fusion_lat": 0.0}, {"is_disabled": 0, "rental_uris": {"android": "https://dc.lft.to/lastmile_qr_scan", "ios": "https://dc.lft.to/lastmile_qr_scan"}, "is_reserved": 0, "name": "fc11fec66d09f5ac6d3d47fe8a6be85e", "lon": -77.01733816666666, "type": "electric_scooter", "bike_id": "fc11fec66d09f5ac6d3d47fe8a6be85e", "fusion_lon": 0.0, "lat": 38.883923333333335, "fusion_lat": 0.0}, {"is_disabled": 0, "rental_uris": {"android": "https://dc.lft.to/lastmile_qr_scan", "ios": "https://dc.lft.to/lastmile_qr_scan"}, "is_reserved": 0, "name": "0b8cb3c7d4265916bfcc4fbdbefdc315", "lon": -77.04204566666667, "type": "electric_scooter", "bike_id": "0b8cb3c7d4265916bfcc4fbdbefdc315", "fusion_lon": 0.0, "lat": 38.911223166666666, "fusion_lat": 0.0}, {"is_disabled": 0, "rental_uris": {"android": "https://dc.lft.to/lastmile_qr_scan", "ios": "https://dc.lft.to/lastmile_qr_scan"}, "is_reserved": 0, "name": "d72055fdb9d7cfce8c6ac4a36ad54884", "lon": -77.019638, "type": "electric_scooter", "bike_id": "d72055fdb9d7cfce8c6ac4a36ad54884", "fusion_lon": 0.0, "lat": 38.88384966666667, "fusion_lat": 0.0}, {"is_disabled": 0, "rental_uris": {"android": "https://dc.lft.to/lastmile_qr_scan", "ios": "https://dc.lft.to/lastmile_qr_scan"}, "is_reserved": 0, "name": "3e86ee1e94b0a7bab383694e51a24b02", "lon": -77.01365216666666, "type": "electric_scooter", "bike_id": "3e86ee1e94b0a7bab383694e51a24b02", "fusion_lon": 0.0, "lat": 38.928924, "fusion_lat": 0.0}, {"is_disabled": 0, "rental_uris": {"android": "https://dc.lft.to/lastmile_qr_scan", "ios": "https://dc.lft.to/lastmile_qr_scan"}, "is_reserved": 0, "name": "b6e5b379c852d044e6d17c5fd68f8e2b", "lon": -77.04411216666666, "type": "electric_bike", "bike_id": "b6e5b379c852d044e6d17c5fd68f8e2b", "fusion_lon": 0.0, "lat": 39.052115, "fusion_lat": 0.0}, {"is_disabled": 0, "rental_uris": {"android": "https://dc.lft.to/lastmile_qr_scan", "ios": "https://dc.lft.to/lastmile_qr_scan"}, "is_reserved": 0, "name": "e93b5efddb08039edee570ea8b5023b5", "lon": -77.03835316666667, "type": "electric_scooter", "bike_id": "e93b5efddb08039edee570ea8b5023b5", "fusion_lon": 0.0, "lat": 38.916582166666664, "fusion_lat": 0.0}, {"is_disabled": 0, "rental_uris": {"android": "https://dc.lft.to/lastmile_qr_scan", "ios": "https://dc.lft.to/lastmile_qr_scan"}, "is_reserved": 0, "name": "4e0e3bbb1243a818adc770ebfc69affe", "lon": -77.0442735, "type": "electric_scooter", "bike_id": "4e0e3bbb1243a818adc770ebfc69affe", "fusion_lon": 0.0, "lat": 38.91261266666667, "fusion_lat": 0.0}, {"is_disabled": 0, "rental_uris": {"android": "https://dc.lft.to/lastmile_qr_scan", "ios": "https://dc.lft.to/lastmile_qr_scan"}, "is_reserved": 0, "name": "86929ca6fd58186fd71f5b1d4096fc8d", "lon": -77.03253733333334, "type": "electric_scooter", "bike_id": "86929ca6fd58186fd71f5b1d4096fc8d", "fusion_lon": 0.0, "lat": 38.91114916666667, "fusion_lat": 0.0}, {"is_disabled": 0, "rental_uris": {"android": "https://dc.lft.to/lastmile_qr_scan", "ios": "https://dc.lft.to/lastmile_qr_scan"}, "is_reserved": 0, "name": "ea0bf52a47171d3a10f0eb9a023de10e", "lon": -77.01531116666666, "type": "electric_scooter", "bike_id": "ea0bf52a47171d3a10f0eb9a023de10e", "fusion_lon": 0.0, "lat": 38.88740333333333, "fusion_lat": 0.0}, {"is_disabled": 0, "rental_uris": {"android": "https://dc.lft.to/lastmile_qr_scan", "ios": "https://dc.lft.to/lastmile_qr_scan"}, "is_reserved": 0, "name": "6b4e4bb00e2efae012da574d57a333cb", "lon": -77.07273833333333, "type": "electric_scooter", "bike_id": "6b4e4bb00e2efae012da574d57a333cb", "fusion_lon": 0.0, "lat": 38.93470533333333, "fusion_lat": 0.0}, {"is_disabled": 0, "rental_uris": {"android": "https://dc.lft.to/lastmile_qr_scan", "ios": "https://dc.lft.to/lastmile_qr_scan"}, "is_reserved": 0, "name": "5edf62b9be5ccfeefcd6ebe3309bf6d9", "lon": -77.01415833333333, "type": "electric_scooter", "bike_id": "5edf62b9be5ccfeefcd6ebe3309bf6d9", "fusion_lon": 0.0, "lat": 38.91399466666667, "fusion_lat": 0.0}, {"is_disabled": 0, "rental_uris": {"android": "https://dc.lft.to/lastmile_qr_scan", "ios": "https://dc.lft.to/lastmile_qr_scan"}, "is_reserved": 0, "name": "c2b4c1176ce86ae58de7f4353664c569", "lon": -77.0382825, "type": "electric_scooter", "bike_id": "c2b4c1176ce86ae58de7f4353664c569", "fusion_lon": 0.0, "lat": 38.91110116666667, "fusion_lat": 0.0}, {"is_disabled": 0, "rental_uris": {"android": "https://dc.lft.to/lastmile_qr_scan", "ios": "https://dc.lft.to/lastmile_qr_scan"}, "is_reserved": 0, "name": "b30882cb7daedc102d0d20795659cca2", "lon": -76.9054, "type": "electric_bike", "bike_id": "b30882cb7daedc102d0d20795659cca2", "fusion_lon": 0.0, "lat": 38.89733833333333, "fusion_lat": 0.0}, {"is_disabled": 0, "rental_uris": {"android": "https://dc.lft.to/lastmile_qr_scan", "ios": "https://dc.lft.to/lastmile_qr_scan"}, "is_reserved": 0, "name": "f8c7c47a1cbedcd6311777dd83cb0233", "lon": -77.0421235, "type": "electric_scooter", "bike_id": "f8c7c47a1cbedcd6311777dd83cb0233", "fusion_lon": 0.0, "lat": 38.914121333333334, "fusion_lat": 0.0}, {"is_disabled": 0, "rental_uris": {"android": "https://dc.lft.to/lastmile_qr_scan", "ios": "https://dc.lft.to/lastmile_qr_scan"}, "is_reserved": 0, "name": "fbd836015e68f4956d0236d3b63829ed", "lon": -77.0136865, "type": "electric_scooter", "bike_id": "fbd836015e68f4956d0236d3b63829ed", "fusion_lon": 0.0, "lat": 38.88640933333333, "fusion_lat": 0.0}, {"is_disabled": 0, "rental_uris": {"android": "https://dc.lft.to/lastmile_qr_scan", "ios": "https://dc.lft.to/lastmile_qr_scan"}, "is_reserved": 0, "name": "94d10f78a1867f4f6e828d6be6c89cde", "lon": -77.04992266666666, "type": "electric_scooter", "bike_id": "94d10f78a1867f4f6e828d6be6c89cde", "fusion_lon": 0.0, "lat": 38.905150666666664, "fusion_lat": 0.0}, {"is_disabled": 0, "rental_uris": {"android": "https://dc.lft.to/lastmile_qr_scan", "ios": "https://dc.lft.to/lastmile_qr_scan"}, "is_reserved": 0, "name": "7e6ebf89e306348845a2c665fe98748a", "lon": -77.003422, "type": "electric_scooter", "bike_id": "7e6ebf89e306348845a2c665fe98748a", "fusion_lon": 0.0, "lat": 38.886763333333334, "fusion_lat": 0.0}, {"is_disabled": 0, "rental_uris": {"android": "https://dc.lft.to/lastmile_qr_scan", "ios": "https://dc.lft.to/lastmile_qr_scan"}, "is_reserved": 0, "name": "e305455a6bf96f707f7b4965490ff881", "lon": -77.0292315, "type": "electric_scooter", "bike_id": "e305455a6bf96f707f7b4965490ff881", "fusion_lon": 0.0, "lat": 38.8981155, "fusion_lat": 0.0}, {"is_disabled": 0, "rental_uris": {"android": "https://dc.lft.to/lastmile_qr_scan", "ios": "https://dc.lft.to/lastmile_qr_scan"}, "is_reserved": 0, "name": "bcd3b95575bdc8cb15db0d25ef5ad451", "lon": -76.93145416666667, "type": "electric_scooter", "bike_id": "bcd3b95575bdc8cb15db0d25ef5ad451", "fusion_lon": 0.0, "lat": 38.898495833333335, "fusion_lat": 0.0}, {"is_disabled": 0, "rental_uris": {"android": "https://dc.lft.to/lastmile_qr_scan", "ios": "https://dc.lft.to/lastmile_qr_scan"}, "is_reserved": 0, "name": "13efd9df6609b29bb33e810151a6e62d", "lon": -76.9871195, "type": "electric_scooter", "bike_id": "13efd9df6609b29bb33e810151a6e62d", "fusion_lon": 0.0, "lat": 38.866989, "fusion_lat": 0.0}, {"is_disabled": 0, "rental_uris": {"android": "https://dc.lft.to/lastmile_qr_scan", "ios": "https://dc.lft.to/lastmile_qr_scan"}, "is_reserved": 0, "name": "44b23503e8d985ce7cc147ed9c321ab2", "lon": -77.02211116666666, "type": "electric_scooter", "bike_id": "44b23503e8d985ce7cc147ed9c321ab2", "fusion_lon": 0.0, "lat": 38.887405, "fusion_lat": 0.0}, {"is_disabled": 0, "rental_uris": {"android": "https://dc.lft.to/lastmile_qr_scan", "ios": "https://dc.lft.to/lastmile_qr_scan"}, "is_reserved": 0, "name": "a9012088fcdf4a644c95d5b544f64545", "lon": -77.02504, "type": "electric_scooter", "bike_id": "a9012088fcdf4a644c95d5b544f64545", "fusion_lon": 0.0, "lat": 38.9388075, "fusion_lat": 0.0}, {"is_disabled": 0, "rental_uris": {"android": "https://dc.lft.to/lastmile_qr_scan", "ios": "https://dc.lft.to/lastmile_qr_scan"}, "is_reserved": 0, "name": "de90e20b81d59ad2a49f4d06173e0f17", "lon": -77.022341, "type": "electric_scooter", "bike_id": "de90e20b81d59ad2a49f4d06173e0f17", "fusion_lon": 0.0, "lat": 38.916526, "fusion_lat": 0.0}, {"is_disabled": 0, "rental_uris": {"android": "https://dc.lft.to/lastmile_qr_scan", "ios": "https://dc.lft.to/lastmile_qr_scan"}, "is_reserved": 0, "name": "93efcd39f6df1d8aab1d5bffd7486a3c", "lon": -77.041443, "type": "electric_scooter", "bike_id": "93efcd39f6df1d8aab1d5bffd7486a3c", "fusion_lon": 0.0, "lat": 38.92240966666667, "fusion_lat": 0.0}, {"is_disabled": 0, "rental_uris": {"android": "https://dc.lft.to/lastmile_qr_scan", "ios": "https://dc.lft.to/lastmile_qr_scan"}, "is_reserved": 0, "name": "829bc7894d9a9bccdc948fb2f25ff5df", "lon": -76.98726166666667, "type": "electric_scooter", "bike_id": "829bc7894d9a9bccdc948fb2f25ff5df", "fusion_lon": 0.0, "lat": 38.86715233333334, "fusion_lat": 0.0}, {"is_disabled": 0, "rental_uris": {"android": "https://dc.lft.to/lastmile_qr_scan", "ios": "https://dc.lft.to/lastmile_qr_scan"}, "is_reserved": 0, "name": "9339d6af07dbae29a2a634628265779b", "lon": -76.9835235, "type": "electric_scooter", "bike_id": "9339d6af07dbae29a2a634628265779b", "fusion_lon": 0.0, "lat": 38.891759, "fusion_lat": 0.0}, {"is_disabled": 0, "rental_uris": {"android": "https://dc.lft.to/lastmile_qr_scan", "ios": "https://dc.lft.to/lastmile_qr_scan"}, "is_reserved": 0, "name": "dab004805c04c31eae82c401a31f6451", "lon": -77.0316165, "type": "electric_scooter", "bike_id": "dab004805c04c31eae82c401a31f6451", "fusion_lon": 0.0, "lat": 38.9032115, "fusion_lat": 0.0}, {"is_disabled": 0, "rental_uris": {"android": "https://dc.lft.to/lastmile_qr_scan", "ios": "https://dc.lft.to/lastmile_qr_scan"}, "is_reserved": 0, "name": "fa684420503500adbb5c90b751cca60a", "lon": -77.0399905, "type": "electric_scooter", "bike_id": "fa684420503500adbb5c90b751cca60a", "fusion_lon": 0.0, "lat": 38.918112, "fusion_lat": 0.0}, {"is_disabled": 0, "rental_uris": {"android": "https://dc.lft.to/lastmile_qr_scan", "ios": "https://dc.lft.to/lastmile_qr_scan"}, "is_reserved": 0, "name": "121828ca9e74aef36da19e393711d43d", "lon": -77.03660383333333, "type": "electric_scooter", "bike_id": "121828ca9e74aef36da19e393711d43d", "fusion_lon": 0.0, "lat": 38.93587216666667, "fusion_lat": 0.0}, {"is_disabled": 0, "rental_uris": {"android": "https://dc.lft.to/lastmile_qr_scan", "ios": "https://dc.lft.to/lastmile_qr_scan"}, "is_reserved": 0, "name": "ddda6ecbb7b0c9971673eabc50aa4a70", "lon": -77.066616, "type": "electric_scooter", "bike_id": "ddda6ecbb7b0c9971673eabc50aa4a70", "fusion_lon": 0.0, "lat": 38.949609333333335, "fusion_lat": 0.0}, {"is_disabled": 0, "rental_uris": {"android": "https://dc.lft.to/lastmile_qr_scan", "ios": "https://dc.lft.to/lastmile_qr_scan"}, "is_reserved": 0, "name": "1b7d41db56cae9a2522e8f3bc26d5af4", "lon": -77.04037733333334, "type": "electric_scooter", "bike_id": "1b7d41db56cae9a2522e8f3bc26d5af4", "fusion_lon": 0.0, "lat": 38.909754, "fusion_lat": 0.0}, {"is_disabled": 0, "rental_uris": {"android": "https://dc.lft.to/lastmile_qr_scan", "ios": "https://dc.lft.to/lastmile_qr_scan"}, "is_reserved": 0, "name": "e8de1149a52816c6a5af4f7cb0ed11c5", "lon": -77.04171683333334, "type": "electric_scooter", "bike_id": "e8de1149a52816c6a5af4f7cb0ed11c5", "fusion_lon": 0.0, "lat": 38.91628766666667, "fusion_lat": 0.0}, {"is_disabled": 0, "rental_uris": {"android": "https://dc.lft.to/lastmile_qr_scan", "ios": "https://dc.lft.to/lastmile_qr_scan"}, "is_reserved": 0, "name": "831b064b95783f11b64dbd7d224f8520", "lon": -77.02687066666667, "type": "electric_scooter", "bike_id": "831b064b95783f11b64dbd7d224f8520", "fusion_lon": 0.0, "lat": 38.9087325, "fusion_lat": 0.0}, {"is_disabled": 0, "rental_uris": {"android": "https://dc.lft.to/lastmile_qr_scan", "ios": "https://dc.lft.to/lastmile_qr_scan"}, "is_reserved": 0, "name": "1689df292c23513d8b594b5324831f80", "lon": -77.04168616666666, "type": "electric_scooter", "bike_id": "1689df292c23513d8b594b5324831f80", "fusion_lon": 0.0, "lat": 38.91311316666667, "fusion_lat": 0.0}, {"is_disabled": 0, "rental_uris": {"android": "https://dc.lft.to/lastmile_qr_scan", "ios": "https://dc.lft.to/lastmile_qr_scan"}, "is_reserved": 0, "name": "e83fb0c57ab1e23a0fb4383638aea700", "lon": -76.9743765, "type": "electric_scooter", "bike_id": "e83fb0c57ab1e23a0fb4383638aea700", "fusion_lon": 0.0, "lat": 38.86498116666667, "fusion_lat": 0.0}, {"is_disabled": 0, "rental_uris": {"android": "https://dc.lft.to/lastmile_qr_scan", "ios": "https://dc.lft.to/lastmile_qr_scan"}, "is_reserved": 0, "name": "ee3f8be21cd7cb04f11337152368aed1", "lon": -77.06764216666667, "type": "electric_scooter", "bike_id": "ee3f8be21cd7cb04f11337152368aed1", "fusion_lon": 0.0, "lat": 38.9498205, "fusion_lat": 0.0}, {"is_disabled": 0, "rental_uris": {"android": "https://dc.lft.to/lastmile_qr_scan", "ios": "https://dc.lft.to/lastmile_qr_scan"}, "is_reserved": 0, "name": "696eae33040babb1bea7087f26f2dd64", "lon": -77.0287495, "type": "electric_bike", "bike_id": "696eae33040babb1bea7087f26f2dd64", "fusion_lon": 0.0, "lat": 38.998826, "fusion_lat": 0.0}, {"is_disabled": 0, "rental_uris": {"android": "https://dc.lft.to/lastmile_qr_scan", "ios": "https://dc.lft.to/lastmile_qr_scan"}, "is_reserved": 0, "name": "d0ab87155e8748ee4e9b11fea7cdbc38", "lon": -77.02221366666667, "type": "electric_scooter", "bike_id": "d0ab87155e8748ee4e9b11fea7cdbc38", "fusion_lon": 0.0, "lat": 38.91568316666667, "fusion_lat": 0.0}, {"is_disabled": 0, "rental_uris": {"android": "https://dc.lft.to/lastmile_qr_scan", "ios": "https://dc.lft.to/lastmile_qr_scan"}, "is_reserved": 0, "name": "20ff400ddf2018f4c6204f6ab174feee", "lon": -77.05727033333334, "type": "electric_scooter", "bike_id": "20ff400ddf2018f4c6204f6ab174feee", "fusion_lon": 0.0, "lat": 38.93371583333333, "fusion_lat": 0.0}, {"is_disabled": 0, "rental_uris": {"android": "https://dc.lft.to/lastmile_qr_scan", "ios": "https://dc.lft.to/lastmile_qr_scan"}, "is_reserved": 0, "name": "0f928e8be105180ceb5672ad693ad615", "lon": -76.97214983333333, "type": "electric_bike", "bike_id": "0f928e8be105180ceb5672ad693ad615", "fusion_lon": 0.0, "lat": 38.84483516666667, "fusion_lat": 0.0}, {"is_disabled": 0, "rental_uris": {"android": "https://dc.lft.to/lastmile_qr_scan", "ios": "https://dc.lft.to/lastmile_qr_scan"}, "is_reserved": 0, "name": "848b6e9a41273e3fe6f7e3f62bd7a272", "lon": -77.04730916666666, "type": "electric_scooter", "bike_id": "848b6e9a41273e3fe6f7e3f62bd7a272", "fusion_lon": 0.0, "lat": 38.898404666666664, "fusion_lat": 0.0}, {"is_disabled": 0, "rental_uris": {"android": "https://dc.lft.to/lastmile_qr_scan", "ios": "https://dc.lft.to/lastmile_qr_scan"}, "is_reserved": 0, "name": "2c43e0fe443334065542611065447160", "lon": -77.04013416666666, "type": "electric_bike", "bike_id": "2c43e0fe443334065542611065447160", "fusion_lon": 0.0, "lat": 38.900996666666664, "fusion_lat": 0.0}, {"is_disabled": 0, "rental_uris": {"android": "https://dc.lft.to/lastmile_qr_scan", "ios": "https://dc.lft.to/lastmile_qr_scan"}, "is_reserved": 0, "name": "7c82b054eb3750bf2453e0331c7b38ef", "lon": -77.01768666666666, "type": "electric_scooter", "bike_id": "7c82b054eb3750bf2453e0331c7b38ef", "fusion_lon": 0.0, "lat": 38.921010333333335, "fusion_lat": 0.0}, {"is_disabled": 0, "rental_uris": {"android": "https://dc.lft.to/lastmile_qr_scan", "ios": "https://dc.lft.to/lastmile_qr_scan"}, "is_reserved": 0, "name": "e40d98bdd5be12d6df5829077590c5e3", "lon": -77.04639716666667, "type": "electric_scooter", "bike_id": "e40d98bdd5be12d6df5829077590c5e3", "fusion_lon": 0.0, "lat": 38.905504, "fusion_lat": 0.0}, {"is_disabled": 0, "rental_uris": {"android": "https://dc.lft.to/lastmile_qr_scan", "ios": "https://dc.lft.to/lastmile_qr_scan"}, "is_reserved": 0, "name": "69eaeec6db57d99ac0e2381545006b2b", "lon": -77.10435666666666, "type": "electric_bike", "bike_id": "69eaeec6db57d99ac0e2381545006b2b", "fusion_lon": 0.0, "lat": 39.0286495, "fusion_lat": 0.0}, {"is_disabled": 0, "rental_uris": {"android": "https://dc.lft.to/lastmile_qr_scan", "ios": "https://dc.lft.to/lastmile_qr_scan"}, "is_reserved": 0, "name": "b617d8d80e93d402cae335c05c76be20", "lon": -77.03073533333334, "type": "electric_scooter", "bike_id": "b617d8d80e93d402cae335c05c76be20", "fusion_lon": 0.0, "lat": 38.899791, "fusion_lat": 0.0}, {"is_disabled": 0, "rental_uris": {"android": "https://dc.lft.to/lastmile_qr_scan", "ios": "https://dc.lft.to/lastmile_qr_scan"}, "is_reserved": 0, "name": "d9e83faa86e1814420bd12b550c45627", "lon": -77.00864316666667, "type": "electric_scooter", "bike_id": "d9e83faa86e1814420bd12b550c45627", "fusion_lon": 0.0, "lat": 38.9065795, "fusion_lat": 0.0}, {"is_disabled": 0, "rental_uris": {"android": "https://dc.lft.to/lastmile_qr_scan", "ios": "https://dc.lft.to/lastmile_qr_scan"}, "is_reserved": 0, "name": "16b3f3a87b05e47c0bb7398b1d7e94f4", "lon": -77.037638, "type": "electric_scooter", "bike_id": "16b3f3a87b05e47c0bb7398b1d7e94f4", "fusion_lon": 0.0, "lat": 38.916897, "fusion_lat": 0.0}, {"is_disabled": 0, "rental_uris": {"android": "https://dc.lft.to/lastmile_qr_scan", "ios": "https://dc.lft.to/lastmile_qr_scan"}, "is_reserved": 0, "name": "d8b8c48054774a4782ba9c8f57efd56c", "lon": -76.9482355, "type": "electric_scooter", "bike_id": "d8b8c48054774a4782ba9c8f57efd56c", "fusion_lon": 0.0, "lat": 38.88516083333333, "fusion_lat": 0.0}, {"is_disabled": 0, "rental_uris": {"android": "https://dc.lft.to/lastmile_qr_scan", "ios": "https://dc.lft.to/lastmile_qr_scan"}, "is_reserved": 0, "name": "9e2e1d7d5ec5f51c3ddb11e26dbb1ea2", "lon": -76.97875633333334, "type": "electric_scooter", "bike_id": "9e2e1d7d5ec5f51c3ddb11e26dbb1ea2", "fusion_lon": 0.0, "lat": 38.927211666666665, "fusion_lat": 0.0}, {"is_disabled": 0, "rental_uris": {"android": "https://dc.lft.to/lastmile_qr_scan", "ios": "https://dc.lft.to/lastmile_qr_scan"}, "is_reserved": 0, "name": "3a20a2dfd212d81c97183b40f095eebe", "lon": -77.01226083333333, "type": "electric_scooter", "bike_id": "3a20a2dfd212d81c97183b40f095eebe", "fusion_lon": 0.0, "lat": 38.88582133333333, "fusion_lat": 0.0}, {"is_disabled": 0, "rental_uris": {"android": "https://dc.lft.to/lastmile_qr_scan", "ios": "https://dc.lft.to/lastmile_qr_scan"}, "is_reserved": 0, "name": "d1c4abf5fc5474cd0279e739e3b5ef28", "lon": -77.029478, "type": "electric_scooter", "bike_id": "d1c4abf5fc5474cd0279e739e3b5ef28", "fusion_lon": 0.0, "lat": 38.916842, "fusion_lat": 0.0}, {"is_disabled": 0, "rental_uris": {"android": "https://dc.lft.to/lastmile_qr_scan", "ios": "https://dc.lft.to/lastmile_qr_scan"}, "is_reserved": 0, "name": "52b838cae9359bc704ac48505267bd83", "lon": -77.0332325, "type": "electric_scooter", "bike_id": "52b838cae9359bc704ac48505267bd83", "fusion_lon": 0.0, "lat": 38.898312833333335, "fusion_lat": 0.0}, {"is_disabled": 0, "rental_uris": {"android": "https://dc.lft.to/lastmile_qr_scan", "ios": "https://dc.lft.to/lastmile_qr_scan"}, "is_reserved": 0, "name": "9761dab63e1014957a853a983d53ae03", "lon": -77.02294483333333, "type": "electric_scooter", "bike_id": "9761dab63e1014957a853a983d53ae03", "fusion_lon": 0.0, "lat": 38.9161095, "fusion_lat": 0.0}, {"is_disabled": 0, "rental_uris": {"android": "https://dc.lft.to/lastmile_qr_scan", "ios": "https://dc.lft.to/lastmile_qr_scan"}, "is_reserved": 0, "name": "7de3a30b9797848b4d568deec888d22b", "lon": -76.97513066666667, "type": "electric_bike", "bike_id": "7de3a30b9797848b4d568deec888d22b", "fusion_lon": 0.0, "lat": 38.903069, "fusion_lat": 0.0}, {"is_disabled": 0, "rental_uris": {"android": "https://dc.lft.to/lastmile_qr_scan", "ios": "https://dc.lft.to/lastmile_qr_scan"}, "is_reserved": 0, "name": "049df33b7100a4012ee8f01233f64760", "lon": -77.02358916666667, "type": "electric_scooter", "bike_id": "049df33b7100a4012ee8f01233f64760", "fusion_lon": 0.0, "lat": 38.915958833333335, "fusion_lat": 0.0}, {"is_disabled": 0, "rental_uris": {"android": "https://dc.lft.to/lastmile_qr_scan", "ios": "https://dc.lft.to/lastmile_qr_scan"}, "is_reserved": 0, "name": "74b65d53aab441dd6d112b845d6f78bd", "lon": -77.04555966666666, "type": "electric_scooter", "bike_id": "74b65d53aab441dd6d112b845d6f78bd", "fusion_lon": 0.0, "lat": 38.917793, "fusion_lat": 0.0}, {"is_disabled": 0, "rental_uris": {"android": "https://dc.lft.to/lastmile_qr_scan", "ios": "https://dc.lft.to/lastmile_qr_scan"}, "is_reserved": 0, "name": "490d10198fbf06c0b19b8d29e6425107", "lon": -77.05438566666666, "type": "electric_scooter", "bike_id": "490d10198fbf06c0b19b8d29e6425107", "fusion_lon": 0.0, "lat": 38.89603866666667, "fusion_lat": 0.0}, {"is_disabled": 0, "rental_uris": {"android": "https://dc.lft.to/lastmile_qr_scan", "ios": "https://dc.lft.to/lastmile_qr_scan"}, "is_reserved": 0, "name": "882e1484529780e8e9115299a74b8978", "lon": -77.04174483333334, "type": "electric_scooter", "bike_id": "882e1484529780e8e9115299a74b8978", "fusion_lon": 0.0, "lat": 38.914037, "fusion_lat": 0.0}, {"is_disabled": 0, "rental_uris": {"android": "https://dc.lft.to/lastmile_qr_scan", "ios": "https://dc.lft.to/lastmile_qr_scan"}, "is_reserved": 0, "name": "684bf88212c4eee931fb3c504dbc3351", "lon": -77.0385305, "type": "electric_scooter", "bike_id": "684bf88212c4eee931fb3c504dbc3351", "fusion_lon": 0.0, "lat": 38.9038885, "fusion_lat": 0.0}, {"is_disabled": 0, "rental_uris": {"android": "https://dc.lft.to/lastmile_qr_scan", "ios": "https://dc.lft.to/lastmile_qr_scan"}, "is_reserved": 0, "name": "d0dba567ea2baa36f8ec381714f063af", "lon": -77.10651133333333, "type": "electric_bike", "bike_id": "d0dba567ea2baa36f8ec381714f063af", "fusion_lon": 0.0, "lat": 39.030013333333336, "fusion_lat": 0.0}, {"is_disabled": 0, "rental_uris": {"android": "https://dc.lft.to/lastmile_qr_scan", "ios": "https://dc.lft.to/lastmile_qr_scan"}, "is_reserved": 0, "name": "84653be0f4fdbed3c7233c58d7d83e7b", "lon": -77.03351583333334, "type": "electric_scooter", "bike_id": "84653be0f4fdbed3c7233c58d7d83e7b", "fusion_lon": 0.0, "lat": 38.922359666666665, "fusion_lat": 0.0}, {"is_disabled": 0, "rental_uris": {"android": "https://dc.lft.to/lastmile_qr_scan", "ios": "https://dc.lft.to/lastmile_qr_scan"}, "is_reserved": 0, "name": "0fc178a760a11912445e71fffdd9daea", "lon": -77.03438716666666, "type": "electric_scooter", "bike_id": "0fc178a760a11912445e71fffdd9daea", "fusion_lon": 0.0, "lat": 38.90581916666667, "fusion_lat": 0.0}, {"is_disabled": 0, "rental_uris": {"android": "https://dc.lft.to/lastmile_qr_scan", "ios": "https://dc.lft.to/lastmile_qr_scan"}, "is_reserved": 0, "name": "498e8b767c5620e297377b69d0d07a2d", "lon": -77.01757683333334, "type": "electric_scooter", "bike_id": "498e8b767c5620e297377b69d0d07a2d", "fusion_lon": 0.0, "lat": 38.902794666666665, "fusion_lat": 0.0}, {"is_disabled": 0, "rental_uris": {"android": "https://dc.lft.to/lastmile_qr_scan", "ios": "https://dc.lft.to/lastmile_qr_scan"}, "is_reserved": 0, "name": "2036552dd3b96b281ee38befcff916ef", "lon": -77.07269133333334, "type": "electric_scooter", "bike_id": "2036552dd3b96b281ee38befcff916ef", "fusion_lon": 0.0, "lat": 38.93472666666667, "fusion_lat": 0.0}, {"is_disabled": 0, "rental_uris": {"android": "https://dc.lft.to/lastmile_qr_scan", "ios": "https://dc.lft.to/lastmile_qr_scan"}, "is_reserved": 0, "name": "c687c7503399ce2978a359fc4b938a17", "lon": -77.01698216666666, "type": "electric_scooter", "bike_id": "c687c7503399ce2978a359fc4b938a17", "fusion_lon": 0.0, "lat": 38.9749945, "fusion_lat": 0.0}, {"is_disabled": 0, "rental_uris": {"android": "https://dc.lft.to/lastmile_qr_scan", "ios": "https://dc.lft.to/lastmile_qr_scan"}, "is_reserved": 0, "name": "02fa56e49e0fdbc4a364aed23de1026c", "lon": -77.04005516666666, "type": "electric_scooter", "bike_id": "02fa56e49e0fdbc4a364aed23de1026c", "fusion_lon": 0.0, "lat": 38.91796733333334, "fusion_lat": 0.0}, {"is_disabled": 0, "rental_uris": {"android": "https://dc.lft.to/lastmile_qr_scan", "ios": "https://dc.lft.to/lastmile_qr_scan"}, "is_reserved": 0, "name": "b30f26e311141a85500683df9033b070", "lon": -77.02742633333334, "type": "electric_scooter", "bike_id": "b30f26e311141a85500683df9033b070", "fusion_lon": 0.0, "lat": 38.943090833333336, "fusion_lat": 0.0}, {"is_disabled": 0, "rental_uris": {"android": "https://dc.lft.to/lastmile_qr_scan", "ios": "https://dc.lft.to/lastmile_qr_scan"}, "is_reserved": 0, "name": "8fe6f3653235839e4d3bd8eb758516cc", "lon": -76.98781266666667, "type": "electric_scooter", "bike_id": "8fe6f3653235839e4d3bd8eb758516cc", "fusion_lon": 0.0, "lat": 38.844688833333336, "fusion_lat": 0.0}, {"is_disabled": 0, "rental_uris": {"android": "https://dc.lft.to/lastmile_qr_scan", "ios": "https://dc.lft.to/lastmile_qr_scan"}, "is_reserved": 0, "name": "199f9521e4a4708ab2df708bc65bbcce", "lon": -77.04700716666666, "type": "electric_scooter", "bike_id": "199f9521e4a4708ab2df708bc65bbcce", "fusion_lon": 0.0, "lat": 38.89734833333333, "fusion_lat": 0.0}, {"is_disabled": 0, "rental_uris": {"android": "https://dc.lft.to/lastmile_qr_scan", "ios": "https://dc.lft.to/lastmile_qr_scan"}, "is_reserved": 0, "name": "e47cf73347d09a62e93e8ba284a1ef8b", "lon": -77.03029033333334, "type": "electric_scooter", "bike_id": "e47cf73347d09a62e93e8ba284a1ef8b", "fusion_lon": 0.0, "lat": 38.93113133333333, "fusion_lat": 0.0}, {"is_disabled": 0, "rental_uris": {"android": "https://dc.lft.to/lastmile_qr_scan", "ios": "https://dc.lft.to/lastmile_qr_scan"}, "is_reserved": 0, "name": "117bc00ad1fbbfdc0f47e2da6e0478f7", "lon": -76.980611, "type": "electric_scooter", "bike_id": "117bc00ad1fbbfdc0f47e2da6e0478f7", "fusion_lon": 0.0, "lat": 38.91678, "fusion_lat": 0.0}, {"is_disabled": 0, "rental_uris": {"android": "https://dc.lft.to/lastmile_qr_scan", "ios": "https://dc.lft.to/lastmile_qr_scan"},