{"data": {"bikes": [{"rental_uris": {"ios": "https://dc.lft.to/lastmile_qr_scan", "android": "https://dc.lft.to/lastmile_qr_scan"}, "fusion_lon": 0.0, "type": "electric_scooter", "is_reserved": 0, "lon": -77.00371733333333, "is_disabled": 0, "fusion_lat": 0.0, "bike_id": "64eacd6d3a57e7fff313b83004caf144", "name": "64eacd6d3a57e7fff313b83004caf144", "lat": 38.898985}, {"rental_uris": {"ios": "https://dc.lft.to/lastmile_qr_scan", "android": "https://dc.lft.to/lastmile_qr_scan"}, "fusion_lon": 0.0, "type": "electric_scooter", "is_reserved": 0, "lon": -76.97495916666666, "is_disabled": 0, "fusion_lat": 0.0, "bike_id": "837bdec77ef8503a240d4f2c13070019", "name": "837bdec77ef8503a240d4f2c13070019", "lat": 38.90340483333333}, {"rental_uris": {"ios": "https://dc.lft.to/lastmile_qr_scan", "android": "https://dc.lft.to/lastmile_qr_scan"}, "fusion_lon": 0.0, "type": "electric_bike", "is_reserved": 0, "lon": -76.984214, "is_disabled": 0, "fusion_lat": 0.0, "bike_id": "878ebe9842730390f696b659a6d3daa5", "name": "878ebe9842730390f696b659a6d3daa5", "lat": 38.97408816666667}, {"rental_uris": {"ios": "https://dc.lft.to/lastmile_qr_scan", "android": "https://dc.lft.to/lastmile_qr_scan"}, "fusion_lon": 0.0, "type": "electric_scooter", "is_reserved": 0, "lon": -77.02102783333333, "is_disabled": 0, "fusion_lat": 0.0, "bike_id": "acb1f5aa89f77b90ff5f10725ecd6ec0", "name": "acb1f5aa89f77b90ff5f10725ecd6ec0", "lat": 38.9215515}, {"rental_uris": {"ios": "https://dc.lft.to/lastmile_qr_scan", "android": "https://dc.lft.to/lastmile_qr_scan"}, "fusion_lon": 0.0, "type": "electric_scooter", "is_reserved": 0, "lon": -77.02204366666666, "is_disabled": 0, "fusion_lat": 0.0, "bike_id": "ac6e2cd875599e2d18fb0f66a5e2f1d5", "name": "ac6e2cd875599e2d18fb0f66a5e2f1d5", "lat": 38.924648166666664}, {"rental_uris": {"ios": "https://dc.lft.to/lastmile_qr_scan", "android": "https://dc.lft.to/lastmile_qr_scan"}, "fusion_lon": 0.0, "type": "electric_scooter", "is_reserved": 0, "lon": -77.028112, "is_disabled": 0, "fusion_lat": 0.0, "bike_id": "95192ebaaa989d932d05f9dd47a55987", "name": "95192ebaaa989d932d05f9dd47a55987", "lat": 38.92324083333333}, {"rental_uris": {"ios": "https://dc.lft.to/lastmile_qr_scan", "android": "https://dc.lft.to/lastmile_qr_scan"}, "fusion_lon": 0.0, "type": "electric_scooter", "is_reserved": 0, "lon": -77.05333333333333, "is_disabled": 0, "fusion_lat": 0.0, "bike_id": "3dd886e63fc5b3ee6e0ed43e8b922e7e", "name": "3dd886e63fc5b3ee6e0ed43e8b922e7e", "lat": 38.904556666666664}, {"rental_uris": {"ios": "https://dc.lft.to/lastmile_qr_scan", "android": "https://dc.lft.to/lastmile_qr_scan"}, "fusion_lon": 0.0, "type": "electric_scooter", "is_reserved": 0, "lon": -77.0049835, "is_disabled": 0, "fusion_lat": 0.0, "bike_id": "b5b38656425e6ae47981d7eedb55543f", "name": "b5b38656425e6ae47981d7eedb55543f", "lat": 38.916205}, {"rental_uris": {"ios": "https://dc.lft.to/lastmile_qr_scan", "android": "https://dc.lft.to/lastmile_qr_scan"}, "fusion_lon": 0.0, "type": "electric_scooter", "is_reserved": 0, "lon": -77.02723183333333, "is_disabled": 0, "fusion_lat": 0.0, "bike_id": "704f95d86026c2477968df78a85e5370", "name": "704f95d86026c2477968df78a85e5370", "lat": 38.90117716666666}, {"rental_uris": {"ios": "https://dc.lft.to/lastmile_qr_scan", "android": "https://dc.lft.to/lastmile_qr_scan"}, "fusion_lon": 0.0, "type": "electric_scooter", "is_reserved": 0, "lon": -77.039993, "is_disabled": 0, "fusion_lat": 0.0, "bike_id": "075bf25f43c58b43f429b30062fe77e9", "name": "075bf25f43c58b43f429b30062fe77e9", "lat": 38.898826166666666}, {"rental_uris": {"ios": "https://dc.lft.to/lastmile_qr_scan", "android": "https://dc.lft.to/lastmile_qr_scan"}, "fusion_lon": 0.0, "type": "electric_bike", "is_reserved": 0, "lon": -77.09021133333333, "is_disabled": 0, "fusion_lat": 0.0, "bike_id": "294fb22ffcac5a4a7277762ca4b66cd6", "name": "294fb22ffcac5a4a7277762ca4b66cd6", "lat": 38.926499166666666}, {"rental_uris": {"ios": "https://dc.lft.to/lastmile_qr_scan", "android": "https://dc.lft.to/lastmile_qr_scan"}, "fusion_lon": 0.0, "type": "electric_scooter", "is_reserved": 0, "lon": -77.02125933333333, "is_disabled": 0, "fusion_lat": 0.0, "bike_id": "fa421821b5bc5adaf14f183155f2e9d2", "name": "fa421821b5bc5adaf14f183155f2e9d2", "lat": 38.92270366666666}, {"rental_uris": {"ios": "https://dc.lft.to/lastmile_qr_scan", "android": "https://dc.lft.to/lastmile_qr_scan"}, "fusion_lon": 0.0, "type": "electric_scooter", "is_reserved": 0, "lon": -77.046592, "is_disabled": 0, "fusion_lat": 0.0, "bike_id": "6ba37d9979d6265b9ad76240effe7623", "name": "6ba37d9979d6265b9ad76240effe7623", "lat": 38.89849616666667}, {"rental_uris": {"ios": "https://dc.lft.to/lastmile_qr_scan", "android": "https://dc.lft.to/lastmile_qr_scan"}, "fusion_lon": 0.0, "type": "electric_scooter", "is_reserved": 0, "lon": -77.03866483333333, "is_disabled": 0, "fusion_lat": 0.0, "bike_id": "67dfb8527391b634e1df8567d1b8ae13", "name": "67dfb8527391b634e1df8567d1b8ae13", "lat": 38.91704516666667}, {"rental_uris": {"ios": "https://dc.lft.to/lastmile_qr_scan", "android": "https://dc.lft.to/lastmile_qr_scan"}, "fusion_lon": 0.0, "type": "electric_bike", "is_reserved": 0, "lon": -77.00132316666667, "is_disabled": 0, "fusion_lat": 0.0, "bike_id": "24c84c78a9351b0ab1cd39f7e5036f52", "name": "24c84c78a9351b0ab1cd39f7e5036f52", "lat": 38.994941}, {"rental_uris": {"ios": "https://dc.lft.to/lastmile_qr_scan", "android": "https://dc.lft.to/lastmile_qr_scan"}, "fusion_lon": 0.0, "type": "electric_scooter", "is_reserved": 0, "lon": -77.04513683333333, "is_disabled": 0, "fusion_lat": 0.0, "bike_id": "d3a730c1ff0937991697f2d0dfece375", "name": "d3a730c1ff0937991697f2d0dfece375", "lat": 38.896044333333336}, {"rental_uris": {"ios": "https://dc.lft.to/lastmile_qr_scan", "android": "https://dc.lft.to/lastmile_qr_scan"}, "fusion_lon": 0.0, "type": "electric_scooter", "is_reserved": 0, "lon": -77.018316, "is_disabled": 0, "fusion_lat": 0.0, "bike_id": "2f7637862f10e4b3002a9366873f327d", "name": "2f7637862f10e4b3002a9366873f327d", "lat": 38.921922333333335}, {"rental_uris": {"ios": "https://dc.lft.to/lastmile_qr_scan", "android": "https://dc.lft.to/lastmile_qr_scan"}, "fusion_lon": 0.0, "type": "electric_scooter", "is_reserved": 0, "lon": -77.03661466666667, "is_disabled": 0, "fusion_lat": 0.0, "bike_id": "6e5124ac17fe70736d81434f067627e3", "name": "6e5124ac17fe70736d81434f067627e3", "lat": 38.92237166666666}, {"rental_uris": {"ios": "https://dc.lft.to/lastmile_qr_scan", "android": "https://dc.lft.to/lastmile_qr_scan"}, "fusion_lon": 0.0, "type": "electric_scooter", "is_reserved": 0, "lon": -77.034366, "is_disabled": 0, "fusion_lat": 0.0, "bike_id": "befb9583f39f8c201b80ddf7e476c338", "name": "befb9583f39f8c201b80ddf7e476c338", "lat": 38.930906666666665}, {"rental_uris": {"ios": "https://dc.lft.to/lastmile_qr_scan", "android": "https://dc.lft.to/lastmile_qr_scan"}, "fusion_lon": 0.0, "type": "electric_bike", "is_reserved": 0, "lon": -76.95004166666666, "is_disabled": 0, "fusion_lat": 0.0, "bike_id": "e3fe309d1f2b5da555c3e6d39b416a94", "name": "e3fe309d1f2b5da555c3e6d39b416a94", "lat": 38.93611633333333}, {"rental_uris": {"ios": "https://dc.lft.to/lastmile_qr_scan", "android": "https://dc.lft.to/lastmile_qr_scan"}, "fusion_lon": 0.0, "type": "electric_scooter", "is_reserved": 0, "lon": -76.93747466666667, "is_disabled": 0, "fusion_lat": 0.0, "bike_id": "677069452c37df578db2b75e32d0adb5", "name": "677069452c37df578db2b75e32d0adb5", "lat": 38.89003316666667}, {"rental_uris": {"ios": "https://dc.lft.to/lastmile_qr_scan", "android": "https://dc.lft.to/lastmile_qr_scan"}, "fusion_lon": 0.0, "type": "electric_scooter", "is_reserved": 0, "lon": -77.01963916666666, "is_disabled": 0, "fusion_lat": 0.0, "bike_id": "a8db181fca5711986cce11ee3ab58d66", "name": "a8db181fca5711986cce11ee3ab58d66", "lat": 38.93192833333333}, {"rental_uris": {"ios": "https://dc.lft.to/lastmile_qr_scan", "android": "https://dc.lft.to/lastmile_qr_scan"}, "fusion_lon": 0.0, "type": "electric_scooter", "is_reserved": 0, "lon": -76.92794166666667, "is_disabled": 0, "fusion_lat": 0.0, "bike_id": "91df9f28f57edd144482ed68bce356df", "name": "91df9f28f57edd144482ed68bce356df", "lat": 38.88360133333333}, {"rental_uris": {"ios": "https://dc.lft.to/lastmile_qr_scan", "android": "https://dc.lft.to/lastmile_qr_scan"}, "fusion_lon": 0.0, "type": "electric_scooter", "is_reserved": 0, "lon": -77.04191533333334, "is_disabled": 0, "fusion_lat": 0.0, "bike_id": "ec2a8a99406c93749b0e6d1b5e64e366", "name": "ec2a8a99406c93749b0e6d1b5e64e366", "lat": 38.92053583333333}, {"rental_uris": {"ios": "https://dc.lft.to/lastmile_qr_scan", "android": "https://dc.lft.to/lastmile_qr_scan"}, "fusion_lon": 0.0, "type": "electric_scooter", "is_reserved": 0, "lon": -77.01698766666667, "is_disabled": 0, "fusion_lat": 0.0, "bike_id": "022d71f7aa27eaff6ae4fa0fdc3f6de6", "name": "022d71f7aa27eaff6ae4fa0fdc3f6de6", "lat": 38.92035166666667}, {"rental_uris": {"ios": "https://dc.lft.to/lastmile_qr_scan", "android": "https://dc.lft.to/lastmile_qr_scan"}, "fusion_lon": 0.0, "type": "electric_scooter", "is_reserved": 0, "lon": -77.04334983333334, "is_disabled": 0, "fusion_lat": 0.0, "bike_id": "e8f03c6c96c11e1602107776481bdc58", "name": "e8f03c6c96c11e1602107776481bdc58", "lat": 38.91780216666667}, {"rental_uris": {"ios": "https://dc.lft.to/lastmile_qr_scan", "android": "https://dc.lft.to/lastmile_qr_scan"}, "fusion_lon": 0.0, "type": "electric_scooter", "is_reserved": 0, "lon": -77.02830866666666, "is_disabled": 0, "fusion_lat": 0.0, "bike_id": "bd50ebad8740cfa26bc6a48fc4f25b76", "name": "bd50ebad8740cfa26bc6a48fc4f25b76", "lat": 38.92219466666667}, {"rental_uris": {"ios": "https://dc.lft.to/lastmile_qr_scan", "android": "https://dc.lft.to/lastmile_qr_scan"}, "fusion_lon": 0.0, "type": "electric_scooter", "is_reserved": 0, "lon": -77.041808, "is_disabled": 0, "fusion_lat": 0.0, "bike_id": "07a5c072cb8915d1df91f8605c7a7c64", "name": "07a5c072cb8915d1df91f8605c7a7c64", "lat": 38.92020483333334}, {"rental_uris": {"ios": "https://dc.lft.to/lastmile_qr_scan", "android": "https://dc.lft.to/lastmile_qr_scan"}, "fusion_lon": 0.0, "type": "electric_scooter", "is_reserved": 0, "lon": -76.97735516666667, "is_disabled": 0, "fusion_lat": 0.0, "bike_id": "e6299b46916fafc28484a880b8639584", "name": "e6299b46916fafc28484a880b8639584", "lat": 38.88769033333333}, {"rental_uris": {"ios": "https://dc.lft.to/lastmile_qr_scan", "android": "https://dc.lft.to/lastmile_qr_scan"}, "fusion_lon": 0.0, "type": "electric_bike", "is_reserved": 0, "lon": -77.0891865, "is_disabled": 0, "fusion_lat": 0.0, "bike_id": "0934bc69eefceae107d20bf38794af67", "name": "0934bc69eefceae107d20bf38794af67", "lat": 38.9672505}, {"rental_uris": {"ios": "https://dc.lft.to/lastmile_qr_scan", "android": "https://dc.lft.to/lastmile_qr_scan"}, "fusion_lon": 0.0, "type": "electric_bike", "is_reserved": 0, "lon": -77.10132816666666, "is_disabled": 0, "fusion_lat": 0.0, "bike_id": "3753c83f97f54c85df603b10a329aec8", "name": "3753c83f97f54c85df603b10a329aec8", "lat": 38.989138833333335}, {"rental_uris": {"ios": "https://dc.lft.to/lastmile_qr_scan", "android": "https://dc.lft.to/lastmile_qr_scan"}, "fusion_lon": 0.0, "type": "electric_scooter", "is_reserved": 0, "lon": -77.028284, "is_disabled": 0, "fusion_lat": 0.0, "bike_id": "28e88a445c3f517c56fd8ee7204df0aa", "name": "28e88a445c3f517c56fd8ee7204df0aa", "lat": 38.91728916666667}, {"rental_uris": {"ios": "https://dc.lft.to/lastmile_qr_scan", "android": "https://dc.lft.to/lastmile_qr_scan"}, "fusion_lon": 0.0, "type": "electric_bike", "is_reserved": 0, "lon": -76.9700855, "is_disabled": 0, "fusion_lat": 0.0, "bike_id": "37d837475a176b78d831d567eef1f0b0", "name": "37d837475a176b78d831d567eef1f0b0", "lat": 38.86369166666667}, {"rental_uris": {"ios": "https://dc.lft.to/lastmile_qr_scan", "android": "https://dc.lft.to/lastmile_qr_scan"}, "fusion_lon": 0.0, "type": "electric_bike", "is_reserved": 0, "lon": -76.9643165, "is_disabled": 0, "fusion_lat": 0.0, "bike_id": "63de589d7b71a5f50969d3ee10e00e85", "name": "63de589d7b71a5f50969d3ee10e00e85", "lat": 38.9187}, {"rental_uris": {"ios": "https://dc.lft.to/lastmile_qr_scan", "android": "https://dc.lft.to/lastmile_qr_scan"}, "fusion_lon": 0.0, "type": "electric_scooter", "is_reserved": 0, "lon": -77.03029333333333, "is_disabled": 0, "fusion_lat": 0.0, "bike_id": "ce1f5ca78412433d6baf14bd5522b607", "name": "ce1f5ca78412433d6baf14bd5522b607", "lat": 38.895893}, {"rental_uris": {"ios": "https://dc.lft.to/lastmile_qr_scan", "android": "https://dc.lft.to/lastmile_qr_scan"}, "fusion_lon": 0.0, "type": "electric_scooter", "is_reserved": 0, "lon": -77.00047166666667, "is_disabled": 0, "fusion_lat": 0.0, "bike_id": "25f52e5e11cd2142c84513e83c34841e", "name": "25f52e5e11cd2142c84513e83c34841e", "lat": 38.887593}, {"rental_uris": {"ios": "https://dc.lft.to/lastmile_qr_scan", "android": "https://dc.lft.to/lastmile_qr_scan"}, "fusion_lon": 0.0, "type": "electric_scooter", "is_reserved": 0, "lon": -76.98875683333333, "is_disabled": 0, "fusion_lat": 0.0, "bike_id": "a49112cff3b4df569811b1e2383aff91", "name": "a49112cff3b4df569811b1e2383aff91", "lat": 38.93263566666667}, {"rental_uris": {"ios": "https://dc.lft.to/lastmile_qr_scan", "android": "https://dc.lft.to/lastmile_qr_scan"}, "fusion_lon": 0.0, "type": "electric_scooter", "is_reserved": 0, "lon": -76.96118166666666, "is_disabled": 0, "fusion_lat": 0.0, "bike_id": "82781d9a49c4fce659986576404d1f7c", "name": "82781d9a49c4fce659986576404d1f7c", "lat": 38.89206933333333}, {"rental_uris": {"ios": "https://dc.lft.to/lastmile_qr_scan", "android": "https://dc.lft.to/lastmile_qr_scan"}, "fusion_lon": 0.0, "type": "electric_bike", "is_reserved": 0, "lon": -76.99801366666667, "is_disabled": 0, "fusion_lat": 0.0, "bike_id": "2bb57eac7464d2086bf94b3aa39a75e6", "name": "2bb57eac7464d2086bf94b3aa39a75e6", "lat": 38.9979915}, {"rental_uris": {"ios": "https://dc.lft.to/lastmile_qr_scan", "android": "https://dc.lft.to/lastmile_qr_scan"}, "fusion_lon": 0.0, "type": "electric_scooter", "is_reserved": 0, "lon": -77.039167, "is_disabled": 0, "fusion_lat": 0.0, "bike_id": "34f8179db964d0e18a415c4f4fab52e7", "name": "34f8179db964d0e18a415c4f4fab52e7", "lat": 38.92467116666667}, {"rental_uris": {"ios": "https://dc.lft.to/lastmile_qr_scan", "android": "https://dc.lft.to/lastmile_qr_scan"}, "fusion_lon": 0.0, "type": "electric_scooter", "is_reserved": 0, "lon": -77.051302, "is_disabled": 0, "fusion_lat": 0.0, "bike_id": "664745b474fc760bc3fb3907f16f6877", "name": "664745b474fc760bc3fb3907f16f6877", "lat": 38.905888833333336}, {"rental_uris": {"ios": "https://dc.lft.to/lastmile_qr_scan", "android": "https://dc.lft.to/lastmile_qr_scan"}, "fusion_lon": 0.0, "type": "electric_scooter", "is_reserved": 0, "lon": -77.03873616666667, "is_disabled": 0, "fusion_lat": 0.0, "bike_id": "fde99e3f662860cf3e19cd2ea3071a4a", "name": "fde99e3f662860cf3e19cd2ea3071a4a", "lat": 38.928735833333334}, {"rental_uris": {"ios": "https://dc.lft.to/lastmile_qr_scan", "android": "https://dc.lft.to/lastmile_qr_scan"}, "fusion_lon": 0.0, "type": "electric_scooter", "is_reserved": 0, "lon": -77.02118966666667, "is_disabled": 0, "fusion_lat": 0.0, "bike_id": "3b58fcbd88e295a468100674a33ab9bb", "name": "3b58fcbd88e295a468100674a33ab9bb", "lat": 38.92774716666667}, {"rental_uris": {"ios": "https://dc.lft.to/lastmile_qr_scan", "android": "https://dc.lft.to/lastmile_qr_scan"}, "fusion_lon": 0.0, "type": "electric_scooter", "is_reserved": 0, "lon": -77.02124033333334, "is_disabled": 0, "fusion_lat": 0.0, "bike_id": "d0ea1826b4ca68d6b27522fc8b490c5e", "name": "d0ea1826b4ca68d6b27522fc8b490c5e", "lat": 38.92421233333334}, {"rental_uris": {"ios": "https://dc.lft.to/lastmile_qr_scan", "android": "https://dc.lft.to/lastmile_qr_scan"}, "fusion_lon": 0.0, "type": "electric_bike", "is_reserved": 0, "lon": -77.12735616666667, "is_disabled": 0, "fusion_lat": 0.0, "bike_id": "16f51bbe2abcb676ca832a11b055fc8b", "name": "16f51bbe2abcb676ca832a11b055fc8b", "lat": 38.895636}, {"rental_uris": {"ios": "https://dc.lft.to/lastmile_qr_scan", "android": "https://dc.lft.to/lastmile_qr_scan"}, "fusion_lon": 0.0, "type": "electric_scooter", "is_reserved": 0, "lon": -77.02414683333333, "is_disabled": 0, "fusion_lat": 0.0, "bike_id": "79cf3b16aa48242fc87a49977cd21bf1", "name": "79cf3b16aa48242fc87a49977cd21bf1", "lat": 38.8922065}, {"rental_uris": {"ios": "https://dc.lft.to/lastmile_qr_scan", "android": "https://dc.lft.to/lastmile_qr_scan"}, "fusion_lon": 0.0, "type": "electric_scooter", "is_reserved": 0, "lon": -76.99070733333333, "is_disabled": 0, "fusion_lat": 0.0, "bike_id": "10cbb9c860a3cb6dfe5bab6327b70857", "name": "10cbb9c860a3cb6dfe5bab6327b70857", "lat": 38.8562655}, {"rental_uris": {"ios": "https://dc.lft.to/lastmile_qr_scan", "android": "https://dc.lft.to/lastmile_qr_scan"}, "fusion_lon": 0.0, "type": "electric_scooter", "is_reserved": 0, "lon": -77.025384, "is_disabled": 0, "fusion_lat": 0.0, "bike_id": "e26903ad57c7fe0fcddd8f37028cdf81", "name": "e26903ad57c7fe0fcddd8f37028cdf81", "lat": 38.92169066666666}, {"rental_uris": {"ios": "https://dc.lft.to/lastmile_qr_scan", "android": "https://dc.lft.to/lastmile_qr_scan"}, "fusion_lon": 0.0, "type": "electric_scooter", "is_reserved": 0, "lon": -77.04331766666667, "is_disabled": 0, "fusion_lat": 0.0, "bike_id": "e0833fe32c85e0fa1c58b72f47668aa5", "name": "e0833fe32c85e0fa1c58b72f47668aa5", "lat": 38.92198666666667}, {"rental_uris": {"ios": "https://dc.lft.to/lastmile_qr_scan", "android": "https://dc.lft.to/lastmile_qr_scan"}, "fusion_lon": 0.0, "type": "electric_scooter", "is_reserved": 0, "lon": -77.0231775, "is_disabled": 0, "fusion_lat": 0.0, "bike_id": "9f4319b53bcae3d8625ce46d673ab430", "name": "9f4319b53bcae3d8625ce46d673ab430", "lat": 38.932917}, {"rental_uris": {"ios": "https://dc.lft.to/lastmile_qr_scan", "android": "https://dc.lft.to/lastmile_qr_scan"}, "fusion_lon": 0.0, "type": "electric_scooter", "is_reserved": 0, "lon": -77.03193216666666, "is_disabled": 0, "fusion_lat": 0.0, "bike_id": "469a47d7f4413a92ca2a9e192586180f", "name": "469a47d7f4413a92ca2a9e192586180f", "lat": 38.91721883333334}, {"rental_uris": {"ios": "https://dc.lft.to/lastmile_qr_scan", "android": "https://dc.lft.to/lastmile_qr_scan"}, "fusion_lon": 0.0, "type": "electric_scooter", "is_reserved": 0, "lon": -77.00740083333334, "is_disabled": 0, "fusion_lat": 0.0, "bike_id": "ec9f85421d1c0aded45c3fd202443852", "name": "ec9f85421d1c0aded45c3fd202443852", "lat": 38.898663}, {"rental_uris": {"ios": "https://dc.lft.to/lastmile_qr_scan", "android": "https://dc.lft.to/lastmile_qr_scan"}, "fusion_lon": 0.0, "type": "electric_scooter", "is_reserved": 0, "lon": -77.002054, "is_disabled": 0, "fusion_lat": 0.0, "bike_id": "9b0a0f8362cc329231b9b6b609d22181", "name": "9b0a0f8362cc329231b9b6b609d22181", "lat": 38.914651}, {"rental_uris": {"ios": "https://dc.lft.to/lastmile_qr_scan", "android": "https://dc.lft.to/lastmile_qr_scan"}, "fusion_lon": 0.0, "type": "electric_scooter", "is_reserved": 0, "lon": -77.01273483333334, "is_disabled": 0, "fusion_lat": 0.0, "bike_id": "2734461fcdb467aa9aa208efe8111166", "name": "2734461fcdb467aa9aa208efe8111166", "lat": 38.89719316666667}, {"rental_uris": {"ios": "https://dc.lft.to/lastmile_qr_scan", "android": "https://dc.lft.to/lastmile_qr_scan"}, "fusion_lon": 0.0, "type": "electric_scooter", "is_reserved": 0, "lon": -77.04425233333333, "is_disabled": 0, "fusion_lat": 0.0, "bike_id": "920c3a71760eaa5c4dc7fe5fc4a37819", "name": "920c3a71760eaa5c4dc7fe5fc4a37819", "lat": 38.91533733333333}, {"rental_uris": {"ios": "https://dc.lft.to/lastmile_qr_scan", "android": "https://dc.lft.to/lastmile_qr_scan"}, "fusion_lon": 0.0, "type": "electric_scooter", "is_reserved": 0, "lon": -77.02036916666667, "is_disabled": 0, "fusion_lat": 0.0, "bike_id": "39287832f00f3776ac3dd72a19c35cc1", "name": "39287832f00f3776ac3dd72a19c35cc1", "lat": 38.924434833333336}, {"rental_uris": {"ios": "https://dc.lft.to/lastmile_qr_scan", "android": "https://dc.lft.to/lastmile_qr_scan"}, "fusion_lon": 0.0, "type": "electric_scooter", "is_reserved": 0, "lon": -77.04819833333333, "is_disabled": 0, "fusion_lat": 0.0, "bike_id": "3eea68c7de24b96b1d3e12e96b8aa348", "name": "3eea68c7de24b96b1d3e12e96b8aa348", "lat": 38.901856}, {"rental_uris": {"ios": "https://dc.lft.to/lastmile_qr_scan", "android": "https://dc.lft.to/lastmile_qr_scan"}, "fusion_lon": 0.0, "type": "electric_scooter", "is_reserved": 0, "lon": -77.02133833333333, "is_disabled": 0, "fusion_lat": 0.0, "bike_id": "f3473cc62c2449595dd68fd08bf819cf", "name": "f3473cc62c2449595dd68fd08bf819cf", "lat": 38.9236445}, {"rental_uris": {"ios": "https://dc.lft.to/lastmile_qr_scan", "android": "https://dc.lft.to/lastmile_qr_scan"}, "fusion_lon": 0.0, "type": "electric_scooter", "is_reserved": 0, "lon": -76.99608233333333, "is_disabled": 0, "fusion_lat": 0.0, "bike_id": "152ba1d54f3574f5c6e27b0a96911f79", "name": "152ba1d54f3574f5c6e27b0a96911f79", "lat": 38.887198833333336}, {"rental_uris": {"ios": "https://dc.lft.to/lastmile_qr_scan", "android": "https://dc.lft.to/lastmile_qr_scan"}, "fusion_lon": 0.0, "type": "electric_scooter", "is_reserved": 0, "lon": -77.04285233333333, "is_disabled": 0, "fusion_lat": 0.0, "bike_id": "aa9ca095d5997101ecce263095bae716", "name": "aa9ca095d5997101ecce263095bae716", "lat": 38.91021416666667}, {"rental_uris": {"ios": "https://dc.lft.to/lastmile_qr_scan", "android": "https://dc.lft.to/lastmile_qr_scan"}, "fusion_lon": 0.0, "type": "electric_scooter", "is_reserved": 0, "lon": -77.01087316666667, "is_disabled": 0, "fusion_lat": 0.0, "bike_id": "c36042bcec8ac9be0f5706e9ba23b1e6", "name": "c36042bcec8ac9be0f5706e9ba23b1e6", "lat": 38.896015}, {"rental_uris": {"ios": "https://dc.lft.to/lastmile_qr_scan", "android": "https://dc.lft.to/lastmile_qr_scan"}, "fusion_lon": 0.0, "type": "electric_scooter", "is_reserved": 0, "lon": -77.00417616666667, "is_disabled": 0, "fusion_lat": 0.0, "bike_id": "fdd4ed0d13b19e6ef80791cd13ddc06d", "name": "fdd4ed0d13b19e6ef80791cd13ddc06d", "lat": 38.876524}, {"rental_uris": {"ios": "https://dc.lft.to/lastmile_qr_scan", "android": "https://dc.lft.to/lastmile_qr_scan"}, "fusion_lon": 0.0, "type": "electric_scooter", "is_reserved": 0, "lon": -77.01874533333333, "is_disabled": 0, "fusion_lat": 0.0, "bike_id": "51150b15eea2b0282b8dd51a7fdcb816", "name": "51150b15eea2b0282b8dd51a7fdcb816", "lat": 38.931988}, {"rental_uris": {"ios": "https://dc.lft.to/lastmile_qr_scan", "android": "https://dc.lft.to/lastmile_qr_scan"}, "fusion_lon": 0.0, "type": "electric_scooter", "is_reserved": 0, "lon": -77.0450585, "is_disabled": 0, "fusion_lat": 0.0, "bike_id": "f5e5a05cf7797378935bcc3c895a95ca", "name": "f5e5a05cf7797378935bcc3c895a95ca", "lat": 38.892536166666666}, {"rental_uris": {"ios": "https://dc.lft.to/lastmile_qr_scan", "android": "https://dc.lft.to/lastmile_qr_scan"}, "fusion_lon": 0.0, "type": "electric_scooter", "is_reserved": 0, "lon": -77.00204916666667, "is_disabled": 0, "fusion_lat": 0.0, "bike_id": "0d4dc22232c6bce074b3f5a04cc3c4b4", "name": "0d4dc22232c6bce074b3f5a04cc3c4b4", "lat": 38.902365333333336}, {"rental_uris": {"ios": "https://dc.lft.to/lastmile_qr_scan", "android": "https://dc.lft.to/lastmile_qr_scan"}, "fusion_lon": 0.0, "type": "electric_scooter", "is_reserved": 0, "lon": -77.020558, "is_disabled": 0, "fusion_lat": 0.0, "bike_id": "d50ceee2f6d8e4e205afd1d2e3b817e8", "name": "d50ceee2f6d8e4e205afd1d2e3b817e8", "lat": 38.91353}, {"rental_uris": {"ios": "https://dc.lft.to/lastmile_qr_scan", "android": "https://dc.lft.to/lastmile_qr_scan"}, "fusion_lon": 0.0, "type": "electric_scooter", "is_reserved": 0, "lon": -77.01957116666667, "is_disabled": 0, "fusion_lat": 0.0, "bike_id": "5b8a9d4733a489d13a55a6fb27274c30", "name": "5b8a9d4733a489d13a55a6fb27274c30", "lat": 38.923688}, {"rental_uris": {"ios": "https://dc.lft.to/lastmile_qr_scan", "android": "https://dc.lft.to/lastmile_qr_scan"}, "fusion_lon": 0.0, "type": "electric_bike", "is_reserved": 0, "lon": -77.06084166666666, "is_disabled": 0, "fusion_lat": 0.0, "bike_id": "a2c6534d570f3b48b65834b062bbbcb1", "name": "a2c6534d570f3b48b65834b062bbbcb1", "lat": 38.804354333333336}, {"rental_uris": {"ios": "https://dc.lft.to/lastmile_qr_scan", "android": "https://dc.lft.to/lastmile_qr_scan"}, "fusion_lon": 0.0, "type": "electric_scooter", "is_reserved": 0, "lon": -77.03856433333333, "is_disabled": 0, "fusion_lat": 0.0, "bike_id": "8018f8053648097fd03e5f4273eb5ba5", "name": "8018f8053648097fd03e5f4273eb5ba5", "lat": 38.918085166666664}, {"rental_uris": {"ios": "https://dc.lft.to/lastmile_qr_scan", "android": "https://dc.lft.to/lastmile_qr_scan"}, "fusion_lon": 0.0, "type": "electric_scooter", "is_reserved": 0, "lon": -77.01083383333334, "is_disabled": 0, "fusion_lat": 0.0, "bike_id": "3e7eedcb5f9d793f6eb3034196256fd7", "name": "3e7eedcb5f9d793f6eb3034196256fd7", "lat": 38.8941185}, {"rental_uris": {"ios": "https://dc.lft.to/lastmile_qr_scan", "android": "https://dc.lft.to/lastmile_qr_scan"}, "fusion_lon": 0.0, "type": "electric_scooter", "is_reserved": 0, "lon": -77.020796, "is_disabled": 0, "fusion_lat": 0.0, "bike_id": "70512809906397d6501225f7cc570cf8", "name": "70512809906397d6501225f7cc570cf8", "lat": 38.92466966666667}, {"rental_uris": {"ios": "https://dc.lft.to/lastmile_qr_scan", "android": "https://dc.lft.to/lastmile_qr_scan"}, "fusion_lon": 0.0, "type": "electric_scooter", "is_reserved": 0, "lon": -77.02116433333333, "is_disabled": 0, "fusion_lat": 0.0, "bike_id": "50abc7e50617f910ecf989d173825d8b", "name": "50abc7e50617f910ecf989d173825d8b", "lat": 38.917334333333336}, {"rental_uris": {"ios": "https://dc.lft.to/lastmile_qr_scan", "android": "https://dc.lft.to/lastmile_qr_scan"}, "fusion_lon": 0.0, "type": "electric_scooter", "is_reserved": 0, "lon": -77.04750566666667, "is_disabled": 0, "fusion_lat": 0.0, "bike_id": "85ea5f5be8132f6fa20946b147a73721", "name": "85ea5f5be8132f6fa20946b147a73721", "lat": 38.91768616666667}, {"rental_uris": {"ios": "https://dc.lft.to/lastmile_qr_scan", "android": "https://dc.lft.to/lastmile_qr_scan"}, "fusion_lon": 0.0, "type": "electric_scooter", "is_reserved": 0, "lon": -77.02129766666667, "is_disabled": 0, "fusion_lat": 0.0, "bike_id": "e2f3a016cf65a15e29bbb21cf9cec06a", "name": "e2f3a016cf65a15e29bbb21cf9cec06a", "lat": 38.923329}, {"rental_uris": {"ios": "https://dc.lft.to/lastmile_qr_scan", "android": "https://dc.lft.to/lastmile_qr_scan"}, "fusion_lon": 0.0, "type": "electric_scooter", "is_reserved": 0, "lon": -77.05601616666667, "is_disabled": 0, "fusion_lat": 0.0, "bike_id": "d83d9ef015d3d564c0a8c6ccf8f62b40", "name": "d83d9ef015d3d564c0a8c6ccf8f62b40", "lat": 38.936937666666665}, {"rental_uris": {"ios": "https://dc.lft.to/lastmile_qr_scan", "android": "https://dc.lft.to/lastmile_qr_scan"}, "fusion_lon": 0.0, "type": "electric_scooter", "is_reserved": 0, "lon": -77.04171033333333, "is_disabled": 0, "fusion_lat": 0.0, "bike_id": "89805b684e546b0432a264216ed5420a", "name": "89805b684e546b0432a264216ed5420a", "lat": 38.90844466666667}, {"rental_uris": {"ios": "https://dc.lft.to/lastmile_qr_scan", "android": "https://dc.lft.to/lastmile_qr_scan"}, "fusion_lon": 0.0, "type": "electric_scooter", "is_reserved": 0, "lon": -77.02808416666667, "is_disabled": 0, "fusion_lat": 0.0, "bike_id": "7b59d5e633c0c0e1d36970ce78a19fb2", "name": "7b59d5e633c0c0e1d36970ce78a19fb2", "lat": 38.91247766666667}, {"rental_uris": {"ios": "https://dc.lft.to/lastmile_qr_scan", "android": "https://dc.lft.to/lastmile_qr_scan"}, "fusion_lon": 0.0, "type": "electric_scooter", "is_reserved": 0, "lon": -77.0405065, "is_disabled": 0, "fusion_lat": 0.0, "bike_id": "f48a429f11f5db4ae10c2e196e6ad3d0", "name": "f48a429f11f5db4ae10c2e196e6ad3d0", "lat": 38.89887316666667}, {"rental_uris": {"ios": "https://dc.lft.to/lastmile_qr_scan", "android": "https://dc.lft.to/lastmile_qr_scan"}, "fusion_lon": 0.0, "type": "electric_scooter", "is_reserved": 0, "lon": -77.02711833333333, "is_disabled": 0, "fusion_lat": 0.0, "bike_id": "3c641a4b6a206385da4dd597ae7b9a57", "name": "3c641a4b6a206385da4dd597ae7b9a57", "lat": 38.90690516666667}, {"rental_uris": {"ios": "https://dc.lft.to/lastmile_qr_scan", "android": "https://dc.lft.to/lastmile_qr_scan"}, "fusion_lon": 0.0, "type": "electric_scooter", "is_reserved": 0, "lon": -77.020733, "is_disabled": 0, "fusion_lat": 0.0, "bike_id": "b19217363e79286e8201cdfd371c4450", "name": "b19217363e79286e8201cdfd371c4450", "lat": 38.952561}, {"rental_uris": {"ios": "https://dc.lft.to/lastmile_qr_scan", "android": "https://dc.lft.to/lastmile_qr_scan"}, "fusion_lon": 0.0, "type": "electric_scooter", "is_reserved": 0, "lon": -77.01226116666666, "is_disabled": 0, "fusion_lat": 0.0, "bike_id": "0aecfac69ac78b1699eaaa39354f60c1", "name": "0aecfac69ac78b1699eaaa39354f60c1", "lat": 38.885786}, {"rental_uris": {"ios": "https://dc.lft.to/lastmile_qr_scan", "android": "https://dc.lft.to/lastmile_qr_scan"}, "fusion_lon": 0.0, "type": "electric_scooter", "is_reserved": 0, "lon": -77.03285416666667, "is_disabled": 0, "fusion_lat": 0.0, "bike_id": "fabe5956a7ec77dc900c739d6a5ccf1b", "name": "fabe5956a7ec77dc900c739d6a5ccf1b", "lat": 38.93604216666667}, {"rental_uris": {"ios": "https://dc.lft.to/lastmile_qr_scan", "android": "https://dc.lft.to/lastmile_qr_scan"}, "fusion_lon": 0.0, "type": "electric_scooter", "is_reserved": 0, "lon": -77.02116533333333, "is_disabled": 0, "fusion_lat": 0.0, "bike_id": "9bf483f85a0ff41bf7f24abf81e91cab", "name": "9bf483f85a0ff41bf7f24abf81e91cab", "lat": 38.917444333333336}, {"rental_uris": {"ios": "https://dc.lft.to/lastmile_qr_scan", "android": "https://dc.lft.to/lastmile_qr_scan"}, "fusion_lon": 0.0, "type": "electric_scooter", "is_reserved": 0, "lon": -77.029933, "is_disabled": 0, "fusion_lat": 0.0, "bike_id": "8acb4e57d2bc4b8be9e8e6246568aef3", "name": "8acb4e57d2bc4b8be9e8e6246568aef3", "lat": 38.897443}, {"rental_uris": {"ios": "https://dc.lft.to/lastmile_qr_scan", "android": "https://dc.lft.to/lastmile_qr_scan"}, "fusion_lon": 0.0, "type": "electric_scooter", "is_reserved": 0, "lon": -77.02323883333334, "is_disabled": 0, "fusion_lat": 0.0, "bike_id": "69ba56c2fab35ff827ba73e0f76753d6", "name": "69ba56c2fab35ff827ba73e0f76753d6", "lat": 38.8990765}, {"rental_uris": {"ios": "https://dc.lft.to/lastmile_qr_scan", "android": "https://dc.lft.to/lastmile_qr_scan"}, "fusion_lon": 0.0, "type": "electric_scooter", "is_reserved": 0, "lon": -77.0320275, "is_disabled": 0, "fusion_lat": 0.0, "bike_id": "73f37f94b3cbf0f6955fb6fbbf2dc3db", "name": "73f37f94b3cbf0f6955fb6fbbf2dc3db", "lat": 38.93604766666667}, {"rental_uris": {"ios": "https://dc.lft.to/lastmile_qr_scan", "android": "https://dc.lft.to/lastmile_qr_scan"}, "fusion_lon": 0.0, "type": "electric_scooter", "is_reserved": 0, "lon": -76.93927883333333, "is_disabled": 0, "fusion_lat": 0.0, "bike_id": "c963a40907bde48aff8dbf8d4230aa52", "name": "c963a40907bde48aff8dbf8d4230aa52", "lat": 38.89326633333334}, {"rental_uris": {"ios": "https://dc.lft.to/lastmile_qr_scan", "android": "https://dc.lft.to/lastmile_qr_scan"}, "fusion_lon": 0.0, "type": "electric_scooter", "is_reserved": 0, "lon": -77.0272665, "is_disabled": 0, "fusion_lat": 0.0, "bike_id": "0f292736bf1fd1ce374d286f3a8f1296", "name": "0f292736bf1fd1ce374d286f3a8f1296", "lat": 38.897166166666665}, {"rental_uris": {"ios": "https://dc.lft.to/lastmile_qr_scan", "android": "https://dc.lft.to/lastmile_qr_scan"}, "fusion_lon": 0.0, "type": "electric_scooter", "is_reserved": 0, "lon": -77.03340666666666, "is_disabled": 0, "fusion_lat": 0.0, "bike_id": "29816b974b3aeb0e83230f0e81105ef4", "name": "29816b974b3aeb0e83230f0e81105ef4", "lat": 38.89643683333333}, {"rental_uris": {"ios": "https://dc.lft.to/lastmile_qr_scan", "android": "https://dc.lft.to/lastmile_qr_scan"}, "fusion_lon": 0.0, "type": "electric_scooter", "is_reserved": 0, "lon": -77.04195883333334, "is_disabled": 0, "fusion_lat": 0.0, "bike_id": "934a2c2dcf4baacc152304687bb94102", "name": "934a2c2dcf4baacc152304687bb94102", "lat": 38.920421}, {"rental_uris": {"ios": "https://dc.lft.to/lastmile_qr_scan", "android": "https://dc.lft.to/lastmile_qr_scan"}, "fusion_lon": 0.0, "type": "electric_scooter", "is_reserved": 0, "lon": -77.02013983333333, "is_disabled": 0, "fusion_lat": 0.0, "bike_id": "4c818ba661bab177893cb7713b5fa467", "name": "4c818ba661bab177893cb7713b5fa467", "lat": 38.92415066666667}, {"rental_uris": {"ios": "https://dc.lft.to/lastmile_qr_scan", "android": "https://dc.lft.to/lastmile_qr_scan"}, "fusion_lon": 0.0, "type": "electric_scooter", "is_reserved": 0, "lon": -77.03862683333334, "is_disabled": 0, "fusion_lat": 0.0, "bike_id": "911bdfc37124b35395f877a242662364", "name": "911bdfc37124b35395f877a242662364", "lat": 38.9125145}, {"rental_uris": {"ios": "https://dc.lft.to/lastmile_qr_scan", "android": "https://dc.lft.to/lastmile_qr_scan"}, "fusion_lon": 0.0, "type": "electric_scooter", "is_reserved": 0, "lon": -77.043347, "is_disabled": 0, "fusion_lat": 0.0, "bike_id": "eca74b9568dcccef0a249a7220bdc161", "name": "eca74b9568dcccef0a249a7220bdc161", "lat": 38.921652}, {"rental_uris": {"ios": "https://dc.lft.to/lastmile_qr_scan", "android": "https://dc.lft.to/lastmile_qr_scan"}, "fusion_lon": 0.0, "type": "electric_bike", "is_reserved": 0, "lon": -76.92337783333333, "is_disabled": 0, "fusion_lat": 0.0, "bike_id": "8f489d81f12bd21cbf0062aa3dfe9d1d", "name": "8f489d81f12bd21cbf0062aa3dfe9d1d", "lat": 38.910368166666665}, {"rental_uris": {"ios": "https://dc.lft.to/lastmile_qr_scan", "android": "https://dc.lft.to/lastmile_qr_scan"}, "fusion_lon": 0.0, "type": "electric_scooter", "is_reserved": 0, "lon": -77.001228, "is_disabled": 0, "fusion_lat": 0.0, "bike_id": "41af4ca2dafd6af4aa3eb5dcf8a2d94e", "name": "41af4ca2dafd6af4aa3eb5dcf8a2d94e", "lat": 38.87797533333333}, {"rental_uris": {"ios": "https://dc.lft.to/lastmile_qr_scan", "android": "https://dc.lft.to/lastmile_qr_scan"}, "fusion_lon": 0.0, "type": "electric_scooter", "is_reserved": 0, "lon": -77.046419, "is_disabled": 0, "fusion_lat": 0.0, "bike_id": "273de5d4d71bfbbc8e83c205ce4554d0", "name": "273de5d4d71bfbbc8e83c205ce4554d0", "lat": 38.92310883333333}, {"rental_uris": {"ios": "https://dc.lft.to/lastmile_qr_scan", "android": "https://dc.lft.to/lastmile_qr_scan"}, "fusion_lon": 0.0, "type": "electric_scooter", "is_reserved": 0, "lon": -77.032353, "is_disabled": 0, "fusion_lat": 0.0, "bike_id": "daf6c491fc3ab6db865dc8e5e33e2985", "name": "daf6c491fc3ab6db865dc8e5e33e2985", "lat": 38.927453666666665}, {"rental_uris": {"ios": "https://dc.lft.to/lastmile_qr_scan", "android": "https://dc.lft.to/lastmile_qr_scan"}, "fusion_lon": 0.0, "type": "electric_scooter", "is_reserved": 0, "lon": -77.04552483333333, "is_disabled": 0, "fusion_lat": 0.0, "bike_id": "db92b3a334cff3886bb8959c4e65d73e", "name": "db92b3a334cff3886bb8959c4e65d73e", "lat": 38.934002166666666}, {"rental_uris": {"ios": "https://dc.lft.to/lastmile_qr_scan", "android": "https://dc.lft.to/lastmile_qr_scan"}, "fusion_lon": 0.0, "type": "electric_scooter", "is_reserved": 0, "lon": -77.02613783333334, "is_disabled": 0, "fusion_lat": 0.0, "bike_id": "2bb18b7c4033034640fed1a4a26473b2", "name": "2bb18b7c4033034640fed1a4a26473b2", "lat": 38.89238233333333}, {"rental_uris": {"ios": "https://dc.lft.to/lastmile_qr_scan", "android": "https://dc.lft.to/lastmile_qr_scan"}, "fusion_lon": 0.0, "type": "electric_scooter", "is_reserved": 0, "lon": -76.97138766666667, "is_disabled": 0, "fusion_lat": 0.0, "bike_id": "8416d731052c9d0a3894a29e048adbbf", "name": "8416d731052c9d0a3894a29e048adbbf", "lat": 38.91347966666667}, {"rental_uris": {"ios": "https://dc.lft.to/lastmile_qr_scan", "android": "https://dc.lft.to/lastmile_qr_scan"}, "fusion_lon": 0.0, "type": "electric_scooter", "is_reserved": 0, "lon": -77.0392745, "is_disabled": 0, "fusion_lat": 0.0, "bike_id": "1778cdfeb6b4bfa80c6bcecc5af2be81", "name": "1778cdfeb6b4bfa80c6bcecc5af2be81", "lat": 38.9192325}, {"rental_uris": {"ios": "https://dc.lft.to/lastmile_qr_scan", "android": "https://dc.lft.to/lastmile_qr_scan"}, "fusion_lon": 0.0, "type": "electric_bike", "is_reserved": 0, "lon": -77.06379533333333, "is_disabled": 0, "fusion_lat": 0.0, "bike_id": "b528ca2455eb95da341d426f9cb481cd", "name": "b528ca2455eb95da341d426f9cb481cd", "lat": 38.842917}, {"rental_uris": {"ios": "https://dc.lft.to/lastmile_qr_scan", "android": "https://dc.lft.to/lastmile_qr_scan"}, "fusion_lon": 0.0, "type": "electric_scooter", "is_reserved": 0, "lon": -77.06400433333333, "is_disabled": 0, "fusion_lat": 0.0, "bike_id": "c3b862b0e12a8f808e44e5e9c7bbd040", "name": "c3b862b0e12a8f808e44e5e9c7bbd040", "lat": 38.90852316666667}, {"rental_uris": {"ios": "https://dc.lft.to/lastmile_qr_scan", "android": "https://dc.lft.to/lastmile_qr_scan"}, "fusion_lon": 0.0, "type": "electric_scooter", "is_reserved": 0, "lon": -77.04205816666666, "is_disabled": 0, "fusion_lat": 0.0, "bike_id": "04f54a9c0ce8f1513b800d15904491fe", "name": "04f54a9c0ce8f1513b800d15904491fe", "lat": 38.92110616666667}, {"rental_uris": {"ios": "https://dc.lft.to/lastmile_qr_scan", "android": "https://dc.lft.to/lastmile_qr_scan"}, "fusion_lon": 0.0, "type": "electric_bike", "is_reserved": 0, "lon": -76.9795275, "is_disabled": 0, "fusion_lat": 0.0, "bike_id": "3f9e106aa533eb009f11bfea9ae78bd2", "name": "3f9e106aa533eb009f11bfea9ae78bd2", "lat": 38.9202785}, {"rental_uris": {"ios": "https://dc.lft.to/lastmile_qr_scan", "android": "https://dc.lft.to/lastmile_qr_scan"}, "fusion_lon": 0.0, "type": "electric_bike", "is_reserved": 0, "lon": -77.09623416666666, "is_disabled": 0, "fusion_lat": 0.0, "bike_id": "cefd2a2f0940dcea66e2dabc5a2b6a2f", "name": "cefd2a2f0940dcea66e2dabc5a2b6a2f", "lat": 38.952443833333334}, {"rental_uris": {"ios": "https://dc.lft.to/lastmile_qr_scan", "android": "https://dc.lft.to/lastmile_qr_scan"}, "fusion_lon": 0.0, "type": "electric_scooter", "is_reserved": 0, "lon": -77.02478683333334, "is_disabled": 0, "fusion_lat": 0.0, "bike_id": "23b5f837517ea6eaf4009657419c62a8", "name": "23b5f837517ea6eaf4009657419c62a8", "lat": 38.918075333333334}, {"rental_uris": {"ios": "https://dc.lft.to/lastmile_qr_scan", "android": "https://dc.lft.to/lastmile_qr_scan"}, "fusion_lon": 0.0, "type": "electric_bike", "is_reserved": 0, "lon": -76.99875283333333, "is_disabled": 0, "fusion_lat": 0.0, "bike_id": "be174bd7b140e20d185d5c5c1f8f3677", "name": "be174bd7b140e20d185d5c5c1f8f3677", "lat": 38.93219583333333}, {"rental_uris": {"ios": "https://dc.lft.to/lastmile_qr_scan", "android": "https://dc.lft.to/lastmile_qr_scan"}, "fusion_lon": 0.0, "type": "electric_scooter", "is_reserved": 0, "lon": -77.05326233333334, "is_disabled": 0, "fusion_lat": 0.0, "bike_id": "8816b7bb1a05fa28b8a1ef539fc17da4", "name": "8816b7bb1a05fa28b8a1ef539fc17da4", "lat": 38.9045975}, {"rental_uris": {"ios": "https://dc.lft.to/lastmile_qr_scan", "android": "https://dc.lft.to/lastmile_qr_scan"}, "fusion_lon": 0.0, "type": "electric_scooter", "is_reserved": 0, "lon": -77.02191116666667, "is_disabled": 0, "fusion_lat": 0.0, "bike_id": "94b7c26ebc897c88b3fbb3e0b64e9a50", "name": "94b7c26ebc897c88b3fbb3e0b64e9a50", "lat": 38.91365016666666}, {"rental_uris": {"ios": "https://dc.lft.to/lastmile_qr_scan", "android": "https://dc.lft.to/lastmile_qr_scan"}, "fusion_lon": 0.0, "type": "electric_bike", "is_reserved": 0, "lon": -76.99061233333333, "is_disabled": 0, "fusion_lat": 0.0, "bike_id": "f406ececc6bdf88b61b444100cfea122", "name": "f406ececc6bdf88b61b444100cfea122", "lat": 38.92013816666667}, {"rental_uris": {"ios": "https://dc.lft.to/lastmile_qr_scan", "android": "https://dc.lft.to/lastmile_qr_scan"}, "fusion_lon": 0.0, "type": "electric_scooter", "is_reserved": 0, "lon": -77.0334635, "is_disabled": 0, "fusion_lat": 0.0, "bike_id": "558df0ecd072206d3f3fd8e1263414bd", "name": "558df0ecd072206d3f3fd8e1263414bd", "lat": 38.935126333333336}, {"rental_uris": {"ios": "https://dc.lft.to/lastmile_qr_scan", "android": "https://dc.lft.to/lastmile_qr_scan"}, "fusion_lon": 0.0, "type": "electric_scooter", "is_reserved": 0, "lon": -77.023911, "is_disabled": 0, "fusion_lat": 0.0, "bike_id": "75d58feb67b33ed842d736f0b57a9f05", "name": "75d58feb67b33ed842d736f0b57a9f05", "lat": 38.934327}, {"rental_uris": {"ios": "https://dc.lft.to/lastmile_qr_scan", "android": "https://dc.lft.to/lastmile_qr_scan"}, "fusion_lon": 0.0, "type": "electric_scooter", "is_reserved": 0, "lon": -77.02975683333334, "is_disabled": 0, "fusion_lat": 0.0, "bike_id": "43342eda9f0b189b16d6eb03e9ede8b4", "name": "43342eda9f0b189b16d6eb03e9ede8b4", "lat": 38.9244195}, {"rental_uris": {"ios": "https://dc.lft.to/lastmile_qr_scan", "android": "https://dc.lft.to/lastmile_qr_scan"}, "fusion_lon": 0.0, "type": "electric_scooter", "is_reserved": 0, "lon": -76.99066166666667, "is_disabled": 0, "fusion_lat": 0.0, "bike_id": "3ea615366055b67512d2b6d3515badef", "name": "3ea615366055b67512d2b6d3515badef", "lat": 38.863533}, {"rental_uris": {"ios": "https://dc.lft.to/lastmile_qr_scan", "android": "https://dc.lft.to/lastmile_qr_scan"}, "fusion_lon": 0.0, "type": "electric_scooter", "is_reserved": 0, "lon": -77.0432405, "is_disabled": 0, "fusion_lat": 0.0, "bike_id": "989e60d7912c83a049b11c1619fcf9b7", "name": "989e60d7912c83a049b11c1619fcf9b7", "lat": 38.90355733333333}, {"rental_uris": {"ios": "https://dc.lft.to/lastmile_qr_scan", "android": "https://dc.lft.to/lastmile_qr_scan"}, "fusion_lon": 0.0, "type": "electric_scooter", "is_reserved": 0, "lon": -77.02722366666667, "is_disabled": 0, "fusion_lat": 0.0, "bike_id": "7305aaed31e557c2e0ae5daa09a1d3b0", "name": "7305aaed31e557c2e0ae5daa09a1d3b0", "lat": 38.8976595}, {"rental_uris": {"ios": "https://dc.lft.to/lastmile_qr_scan", "android": "https://dc.lft.to/lastmile_qr_scan"}, "fusion_lon": 0.0, "type": "electric_scooter", "is_reserved": 0, "lon": -77.00138066666666, "is_disabled": 0, "fusion_lat": 0.0, "bike_id": "a91e4a394fc5a0f9f9f0c2d567b92d2b", "name": "a91e4a394fc5a0f9f9f0c2d567b92d2b", "lat": 38.87377083333333}, {"rental_uris": {"ios": "https://dc.lft.to/lastmile_qr_scan", "android": "https://dc.lft.to/lastmile_qr_scan"}, "fusion_lon": 0.0, "type": "electric_scooter", "is_reserved": 0, "lon": -77.042243, "is_disabled": 0, "fusion_lat": 0.0, "bike_id": "3b46b6624f356df54fcf241e7d1bfa5e", "name": "3b46b6624f356df54fcf241e7d1bfa5e", "lat": 38.907144}, {"rental_uris": {"ios": "https://dc.lft.to/lastmile_qr_scan", "android": "https://dc.lft.to/lastmile_qr_scan"}, "fusion_lon": 0.0, "type": "electric_scooter", "is_reserved": 0, "lon": -76.97308133333334, "is_disabled": 0, "fusion_lat": 0.0, "bike_id": "79a04936c083843019c5e192dfa08823", "name": "79a04936c083843019c5e192dfa08823", "lat": 38.919846}, {"rental_uris": {"ios": "https://dc.lft.to/lastmile_qr_scan", "android": "https://dc.lft.to/lastmile_qr_scan"}, "fusion_lon": 0.0, "type": "electric_scooter", "is_reserved": 0, "lon": -77.0271285, "is_disabled": 0, "fusion_lat": 0.0, "bike_id": "25c89c41b2f501f3d8ef74c83dac9ca4", "name": "25c89c41b2f501f3d8ef74c83dac9ca4", "lat": 38.90692}, {"rental_uris": {"ios": "https://dc.lft.to/lastmile_qr_scan", "android": "https://dc.lft.to/lastmile_qr_scan"}, "fusion_lon": 0.0, "type": "electric_scooter", "is_reserved": 0, "lon": -77.03842683333333, "is_disabled": 0, "fusion_lat": 0.0, "bike_id": "4b3251520735ab2c1842bb0eed4f9b78", "name": "4b3251520735ab2c1842bb0eed4f9b78", "lat": 38.908287333333334}, {"rental_uris": {"ios": "https://dc.lft.to/lastmile_qr_scan", "android": "https://dc.lft.to/lastmile_qr_scan"}, "fusion_lon": 0.0, "type": "electric_scooter", "is_reserved": 0, "lon": -77.04152466666666, "is_disabled": 0, "fusion_lat": 0.0, "bike_id": "cd4fb6b5f9738d149dd237ff229c73a6", "name": "cd4fb6b5f9738d149dd237ff229c73a6", "lat": 38.895774}, {"rental_uris": {"ios": "https://dc.lft.to/lastmile_qr_scan", "android": "https://dc.lft.to/lastmile_qr_scan"}, "fusion_lon": 0.0, "type": "electric_scooter", "is_reserved": 0, "lon": -77.0150465, "is_disabled": 0, "fusion_lat": 0.0, "bike_id": "485f479d7fe29a4ee711f1966f012f5f", "name": "485f479d7fe29a4ee711f1966f012f5f", "lat": 38.907163833333335}, {"rental_uris": {"ios": "https://dc.lft.to/lastmile_qr_scan", "android": "https://dc.lft.to/lastmile_qr_scan"}, "fusion_lon": 0.0, "type": "electric_scooter", "is_reserved": 0, "lon": -77.01116766666667, "is_disabled": 0, "fusion_lat": 0.0, "bike_id": "5cc8927c7d9d8fc265a9e382cd614fcc", "name": "5cc8927c7d9d8fc265a9e382cd614fcc", "lat": 38.90332883333333}, {"rental_uris": {"ios": "https://dc.lft.to/lastmile_qr_scan", "android": "https://dc.lft.to/lastmile_qr_scan"}, "fusion_lon": 0.0, "type": "electric_scooter", "is_reserved": 0, "lon": -77.032073, "is_disabled": 0, "fusion_lat": 0.0, "bike_id": "74886c31a14ec70d11fb59940ac3ba84", "name": "74886c31a14ec70d11fb59940ac3ba84", "lat": 38.90149233333333}, {"rental_uris": {"ios": "https://dc.lft.to/lastmile_qr_scan", "android": "https://dc.lft.to/lastmile_qr_scan"}, "fusion_lon": 0.0, "type": "electric_scooter", "is_reserved": 0, "lon": -77.02160516666666, "is_disabled": 0, "fusion_lat": 0.0, "bike_id": "c2fc1af1b3e8ddfc8b694b291f74b8f2", "name": "c2fc1af1b3e8ddfc8b694b291f74b8f2", "lat": 38.925989}, {"rental_uris": {"ios": "https://dc.lft.to/lastmile_qr_scan", "android": "https://dc.lft.to/lastmile_qr_scan"}, "fusion_lon": 0.0, "type": "electric_bike", "is_reserved": 0, "lon": -77.00829333333333, "is_disabled": 0, "fusion_lat": 0.0, "bike_id": "69a38bbcd5d92fda7d3db998836b5a73", "name": "69a38bbcd5d92fda7d3db998836b5a73", "lat": 38.83037083333333}, {"rental_uris": {"ios": "https://dc.lft.to/lastmile_qr_scan", "android": "https://dc.lft.to/lastmile_qr_scan"}, "fusion_lon": 0.0, "type": "electric_scooter", "is_reserved": 0, "lon": -77.03958066666667, "is_disabled": 0, "fusion_lat": 0.0, "bike_id": "b5b02dc3a2837a3849f6fa2b0c8b85bf", "name": "b5b02dc3a2837a3849f6fa2b0c8b85bf", "lat": 38.8924345}, {"rental_uris": {"ios": "https://dc.lft.to/lastmile_qr_scan", "android": "https://dc.lft.to/lastmile_qr_scan"}, "fusion_lon": 0.0, "type": "electric_bike", "is_reserved": 0, "lon": -77.0692915, "is_disabled": 0, "fusion_lat": 0.0, "bike_id": "520af505fd754d538e940f3b61190904", "name": "520af505fd754d538e940f3b61190904", "lat": 38.846229}, {"rental_uris": {"ios": "https://dc.lft.to/lastmile_qr_scan", "android": "https://dc.lft.to/lastmile_qr_scan"}, "fusion_lon": 0.0, "type": "electric_scooter", "is_reserved": 0, "lon": -77.0380335, "is_disabled": 0, "fusion_lat": 0.0, "bike_id": "f91868755251994f4a4ca1237956646a", "name": "f91868755251994f4a4ca1237956646a", "lat": 38.91801366666667}, {"rental_uris": {"ios": "https://dc.lft.to/lastmile_qr_scan", "android": "https://dc.lft.to/lastmile_qr_scan"}, "fusion_lon": 0.0, "type": "electric_scooter", "is_reserved": 0, "lon": -77.03775116666667, "is_disabled": 0, "fusion_lat": 0.0, "bike_id": "0fddc87dd5dc6123f18d5d6b66601273", "name": "0fddc87dd5dc6123f18d5d6b66601273", "lat": 38.92571216666666}, {"rental_uris": {"ios": "https://dc.lft.to/lastmile_qr_scan", "android": "https://dc.lft.to/lastmile_qr_scan"}, "fusion_lon": 0.0, "type": "electric_scooter", "is_reserved": 0, "lon": -77.0381265, "is_disabled": 0, "fusion_lat": 0.0, "bike_id": "ad185ec23ae1e5f9f3b863af31171a0f", "name": "ad185ec23ae1e5f9f3b863af31171a0f", "lat": 38.91418566666667}, {"rental_uris": {"ios": "https://dc.lft.to/lastmile_qr_scan", "android": "https://dc.lft.to/lastmile_qr_scan"}, "fusion_lon": 0.0, "type": "electric_scooter", "is_reserved": 0, "lon": -77.03387566666666, "is_disabled": 0, "fusion_lat": 0.0, "bike_id": "df91d93ed9f72cca370a20ec5c7a7991", "name": "df91d93ed9f72cca370a20ec5c7a7991", "lat": 38.909833}, {"rental_uris": {"ios": "https://dc.lft.to/lastmile_qr_scan", "android": "https://dc.lft.to/lastmile_qr_scan"}, "fusion_lon": 0.0, "type": "electric_scooter", "is_reserved": 0, "lon": -77.03249283333334, "is_disabled": 0, "fusion_lat": 0.0, "bike_id": "6d1b2f4432be68f2d2ef960d4b65b081", "name": "6d1b2f4432be68f2d2ef960d4b65b081", "lat": 38.91708216666667}, {"rental_uris": {"ios": "https://dc.lft.to/lastmile_qr_scan", "android": "https://dc.lft.to/lastmile_qr_scan"}, "fusion_lon": 0.0, "type": "electric_scooter", "is_reserved": 0, "lon": -77.005664, "is_disabled": 0, "fusion_lat": 0.0, "bike_id": "034137848a6a18a88ffc1b39c9f3b9a1", "name": "034137848a6a18a88ffc1b39c9f3b9a1", "lat": 38.885084166666665}, {"rental_uris": {"ios": "https://dc.lft.to/lastmile_qr_scan", "android": "https://dc.lft.to/lastmile_qr_scan"}, "fusion_lon": 0.0, "type": "electric_scooter", "is_reserved": 0, "lon": -77.04814033333334, "is_disabled": 0, "fusion_lat": 0.0, "bike_id": "485625b909825adbfa24e0c9c42432e0", "name": "485625b909825adbfa24e0c9c42432e0", "lat": 38.898314}, {"rental_uris": {"ios": "https://dc.lft.to/lastmile_qr_scan", "android": "https://dc.lft.to/lastmile_qr_scan"}, "fusion_lon": 0.0, "type": "electric_scooter", "is_reserved": 0, "lon": -77.04718433333333, "is_disabled": 0, "fusion_lat": 0.0, "bike_id": "646b1f5c135993bcf5da2efc7c5ed508", "name": "646b1f5c135993bcf5da2efc7c5ed508", "lat": 38.899662666666664}, {"rental_uris": {"ios": "https://dc.lft.to/lastmile_qr_scan", "android": "https://dc.lft.to/lastmile_qr_scan"}, "fusion_lon": 0.0, "type": "electric_scooter", "is_reserved": 0, "lon": -77.04512733333334, "is_disabled": 0, "fusion_lat": 0.0, "bike_id": "155dda00a90795c9755a600665407bb2", "name": "155dda00a90795c9755a600665407bb2", "lat": 38.905743666666666}, {"rental_uris": {"ios": "https://dc.lft.to/lastmile_qr_scan", "android": "https://dc.lft.to/lastmile_qr_scan"}, "fusion_lon": 0.0, "type": "electric_bike", "is_reserved": 0, "lon": -77.05852666666667, "is_disabled": 0, "fusion_lat": 0.0, "bike_id": "8d2a02c50bb4ca31e7c80a122c17a3a0", "name": "8d2a02c50bb4ca31e7c80a122c17a3a0", "lat": 38.92387883333333}, {"rental_uris": {"ios": "https://dc.lft.to/lastmile_qr_scan", "android": "https://dc.lft.to/lastmile_qr_scan"}, "fusion_lon": 0.0, "type": "electric_scooter", "is_reserved": 0, "lon": -76.93762816666667, "is_disabled": 0, "fusion_lat": 0.0, "bike_id": "9b8259bc0c3deaa787385a3d029b081c", "name": "9b8259bc0c3deaa787385a3d029b081c", "lat": 38.899662666666664}, {"rental_uris": {"ios": "https://dc.lft.to/lastmile_qr_scan", "android": "https://dc.lft.to/lastmile_qr_scan"}, "fusion_lon": 0.0, "type": "electric_scooter", "is_reserved": 0, "lon": -77.00353583333333, "is_disabled": 0, "fusion_lat": 0.0, "bike_id": "ff80be0068d256e33a7da0e3b843ff53", "name": "ff80be0068d256e33a7da0e3b843ff53", "lat": 38.89617166666667}, {"rental_uris": {"ios": "https://dc.lft.to/lastmile_qr_scan", "android": "https://dc.lft.to/lastmile_qr_scan"}, "fusion_lon": 0.0, "type": "electric_scooter", "is_reserved": 0, "lon": -77.0178375, "is_disabled": 0, "fusion_lat": 0.0, "bike_id": "59e9634529535523ffcbd2ad25a4ac08", "name": "59e9634529535523ffcbd2ad25a4ac08", "lat": 38.92138666666666}, {"rental_uris": {"ios": "https://dc.lft.to/lastmile_qr_scan", "android": "https://dc.lft.to/lastmile_qr_scan"}, "fusion_lon": 0.0, "type": "electric_scooter", "is_reserved": 0, "lon": -77.00052333333333, "is_disabled": 0, "fusion_lat": 0.0, "bike_id": "c9ac73561a9d6d8e15b1c252a24013bc", "name": "c9ac73561a9d6d8e15b1c252a24013bc", "lat": 38.874202}, {"rental_uris": {"ios": "https://dc.lft.to/lastmile_qr_scan", "android": "https://dc.lft.to/lastmile_qr_scan"}, "fusion_lon": 0.0, "type": "electric_scooter", "is_reserved": 0, "lon": -77.0230595, "is_disabled": 0, "fusion_lat": 0.0, "bike_id": "01839c192a673dc2f1e8e3e39dad1a3b", "name": "01839c192a673dc2f1e8e3e39dad1a3b", "lat": 38.90144166666666}, {"rental_uris": {"ios": "https://dc.lft.to/lastmile_qr_scan", "android": "https://dc.lft.to/lastmile_qr_scan"}, "fusion_lon": 0.0, "type": "electric_scooter", "is_reserved": 0, "lon": -77.02846183333334, "is_disabled": 0, "fusion_lat": 0.0, "bike_id": "06a9d7286de9b3bfef06c1625031ef6f", "name": "06a9d7286de9b3bfef06c1625031ef6f", "lat": 38.93491083333333}, {"rental_uris": {"ios": "https://dc.lft.to/lastmile_qr_scan", "android": "https://dc.lft.to/lastmile_qr_scan"}, "fusion_lon": 0.0, "type": "electric_scooter", "is_reserved": 0, "lon": -76.9773515, "is_disabled": 0, "fusion_lat": 0.0, "bike_id": "b9a7c17b6846d287319b600776fd0a67", "name": "b9a7c17b6846d287319b600776fd0a67", "lat": 38.88766316666667}, {"rental_uris": {"ios": "https://dc.lft.to/lastmile_qr_scan", "android": "https://dc.lft.to/lastmile_qr_scan"}, "fusion_lon": 0.0, "type": "electric_scooter", "is_reserved": 0, "lon": -77.04043233333333, "is_disabled": 0, "fusion_lat": 0.0, "bike_id": "f54c3a79b441f9807e83bbbce269ddfc", "name": "f54c3a79b441f9807e83bbbce269ddfc", "lat": 38.91851316666666}, {"rental_uris": {"ios": "https://dc.lft.to/lastmile_qr_scan", "android": "https://dc.lft.to/lastmile_qr_scan"}, "fusion_lon": 0.0, "type": "electric_scooter", "is_reserved": 0, "lon": -77.02984666666667, "is_disabled": 0, "fusion_lat": 0.0, "bike_id": "30481ab3a296e21f6bf00ab284ad584e", "name": "30481ab3a296e21f6bf00ab284ad584e", "lat": 38.91546783333333}, {"rental_uris": {"ios": "https://dc.lft.to/lastmile_qr_scan", "android": "https://dc.lft.to/lastmile_qr_scan"}, "fusion_lon": 0.0, "type": "electric_scooter", "is_reserved": 0, "lon": -77.002122, "is_disabled": 0, "fusion_lat": 0.0, "bike_id": "e18367fee923371fcecf5c21a9422e49", "name": "e18367fee923371fcecf5c21a9422e49", "lat": 38.876214166666664}, {"rental_uris": {"ios": "https://dc.lft.to/lastmile_qr_scan", "android": "https://dc.lft.to/lastmile_qr_scan"}, "fusion_lon": 0.0, "type": "electric_scooter", "is_reserved": 0, "lon": -77.06297783333333, "is_disabled": 0, "fusion_lat": 0.0, "bike_id": "451bd8bf393c9549e63a8812967f939b", "name": "451bd8bf393c9549e63a8812967f939b", "lat": 38.9050725}, {"rental_uris": {"ios": "https://dc.lft.to/lastmile_qr_scan", "android": "https://dc.lft.to/lastmile_qr_scan"}, "fusion_lon": 0.0, "type": "electric_scooter", "is_reserved": 0, "lon": -77.03438666666666, "is_disabled": 0, "fusion_lat": 0.0, "bike_id": "73dce24315d06f6d3f32658e7a97f1c9", "name": "73dce24315d06f6d3f32658e7a97f1c9", "lat": 38.9095935}, {"rental_uris": {"ios": "https://dc.lft.to/lastmile_qr_scan", "android": "https://dc.lft.to/lastmile_qr_scan"}, "fusion_lon": 0.0, "type": "electric_scooter", "is_reserved": 0, "lon": -77.02332433333333, "is_disabled": 0, "fusion_lat": 0.0, "bike_id": "4291cf894240244ca0200017fd037714", "name": "4291cf894240244ca0200017fd037714", "lat": 38.91805816666667}, {"rental_uris": {"ios": "https://dc.lft.to/lastmile_qr_scan", "android": "https://dc.lft.to/lastmile_qr_scan"}, "fusion_lon": 0.0, "type": "electric_scooter", "is_reserved": 0, "lon": -77.039999, "is_disabled": 0, "fusion_lat": 0.0, "bike_id": "dad8fb24d2fc58132fefc4c83e5e841f", "name": "dad8fb24d2fc58132fefc4c83e5e841f", "lat": 38.903}, {"rental_uris": {"ios": "https://dc.lft.to/lastmile_qr_scan", "android": "https://dc.lft.to/lastmile_qr_scan"}, "fusion_lon": 0.0, "type": "electric_scooter", "is_reserved": 0, "lon": -77.06792483333334, "is_disabled": 0, "fusion_lat": 0.0, "bike_id": "f5502d4e0462c4fe10179f4aa08989dc", "name": "f5502d4e0462c4fe10179f4aa08989dc", "lat": 38.912788}, {"rental_uris": {"ios": "https://dc.lft.to/lastmile_qr_scan", "android": "https://dc.lft.to/lastmile_qr_scan"}, "fusion_lon": 0.0, "type": "electric_scooter", "is_reserved": 0, "lon": -76.97731733333333, "is_disabled": 0, "fusion_lat": 0.0, "bike_id": "b30cc42bdbe101dcc3bc553b56fb16aa", "name": "b30cc42bdbe101dcc3bc553b56fb16aa", "lat": 38.88767333333333}, {"rental_uris": {"ios": "https://dc.lft.to/lastmile_qr_scan", "android": "https://dc.lft.to/lastmile_qr_scan"}, "fusion_lon": 0.0, "type": "electric_scooter", "is_reserved": 0, "lon": -77.0487695, "is_disabled": 0, "fusion_lat": 0.0, "bike_id": "29dd0bfa430bf8e9debc60209cec2a47", "name": "29dd0bfa430bf8e9debc60209cec2a47", "lat": 38.90079733333334}, {"rental_uris": {"ios": "https://dc.lft.to/lastmile_qr_scan", "android": "https://dc.lft.to/lastmile_qr_scan"}, "fusion_lon": 0.0, "type": "electric_scooter", "is_reserved": 0, "lon": -77.01950516666666, "is_disabled": 0, "fusion_lat": 0.0, "bike_id": "599e64533a96b2f4002e9ea1b5eb8faa", "name": "599e64533a96b2f4002e9ea1b5eb8faa", "lat": 38.924276166666665}, {"rental_uris": {"ios": "https://dc.lft.to/lastmile_qr_scan", "android": "https://dc.lft.to/lastmile_qr_scan"}, "fusion_lon": 0.0, "type": "electric_scooter", "is_reserved": 0, "lon": -76.94664916666666, "is_disabled": 0, "fusion_lat": 0.0, "bike_id": "a22f864ca64dbac99a1b7d9c6848cac1", "name": "a22f864ca64dbac99a1b7d9c6848cac1", "lat": 38.89866933333333}, {"rental_uris": {"ios": "https://dc.lft.to/lastmile_qr_scan", "android": "https://dc.lft.to/lastmile_qr_scan"}, "fusion_lon": 0.0, "type": "electric_scooter", "is_reserved": 0, "lon": -77.04760716666667, "is_disabled": 0, "fusion_lat": 0.0, "bike_id": "1a8a7eb80f1d9daa1ef56431dae58f89", "name": "1a8a7eb80f1d9daa1ef56431dae58f89", "lat": 38.9126545}, {"rental_uris": {"ios": "https://dc.lft.to/lastmile_qr_scan", "android": "https://dc.lft.to/lastmile_qr_scan"}, "fusion_lon": 0.0, "type": "electric_scooter", "is_reserved": 0, "lon": -77.03546116666666, "is_disabled": 0, "fusion_lat": 0.0, "bike_id": "02644bc2935ebd08219d1067979106e0", "name": "02644bc2935ebd08219d1067979106e0", "lat": 38.904599166666664}, {"rental_uris": {"ios": "https://dc.lft.to/lastmile_qr_scan", "android": "https://dc.lft.to/lastmile_qr_scan"}, "fusion_lon": 0.0, "type": "electric_scooter", "is_reserved": 0, "lon": -77.0319255, "is_disabled": 0, "fusion_lat": 0.0, "bike_id": "680ed8d329da6d7dffb3746fc9a24aee", "name": "680ed8d329da6d7dffb3746fc9a24aee", "lat": 38.916496}, {"rental_uris": {"ios": "https://dc.lft.to/lastmile_qr_scan", "android": "https://dc.lft.to/lastmile_qr_scan"}, "fusion_lon": 0.0, "type": "electric_scooter", "is_reserved": 0, "lon": -77.01721433333333, "is_disabled": 0, "fusion_lat": 0.0, "bike_id": "bb931cda0f926fe7d4723a2c091293d2", "name": "bb931cda0f926fe7d4723a2c091293d2", "lat": 38.92052783333333}, {"rental_uris": {"ios": "https://dc.lft.to/lastmile_qr_scan", "android": "https://dc.lft.to/lastmile_qr_scan"}, "fusion_lon": 0.0, "type": "electric_scooter", "is_reserved": 0, "lon": -77.038939, "is_disabled": 0, "fusion_lat": 0.0, "bike_id": "42ff7c21ab961c6dda4ef35dd527496c", "name": "42ff7c21ab961c6dda4ef35dd527496c", "lat": 38.90650383333333}, {"rental_uris": {"ios": "https://dc.lft.to/lastmile_qr_scan", "android": "https://dc.lft.to/lastmile_qr_scan"}, "fusion_lon": 0.0, "type": "electric_bike", "is_reserved": 0, "lon": -77.1184835, "is_disabled": 0, "fusion_lat": 0.0, "bike_id": "cb0b924bd099a33d93e10e0a34f1121d", "name": "cb0b924bd099a33d93e10e0a34f1121d", "lat": 38.87726816666667}, {"rental_uris": {"ios": "https://dc.lft.to/lastmile_qr_scan", "android": "https://dc.lft.to/lastmile_qr_scan"}, "fusion_lon": 0.0, "type": "electric_scooter", "is_reserved": 0, "lon": -77.04056616666666, "is_disabled": 0, "fusion_lat": 0.0, "bike_id": "7472873baf3503c6c8a3aa52f26febf1", "name": "7472873baf3503c6c8a3aa52f26febf1", "lat": 38.90872516666667}, {"rental_uris": {"ios": "https://dc.lft.to/lastmile_qr_scan", "android": "https://dc.lft.to/lastmile_qr_scan"}, "fusion_lon": 0.0, "type": "electric_scooter", "is_reserved": 0, "lon": -77.010834, "is_disabled": 0, "fusion_lat": 0.0, "bike_id": "f9512c30e11060cb34efa1c8b5181bc9", "name": "f9512c30e11060cb34efa1c8b5181bc9", "lat": 38.91139783333333}, {"rental_uris": {"ios": "https://dc.lft.to/lastmile_qr_scan", "android": "https://dc.lft.to/lastmile_qr_scan"}, "fusion_lon": 0.0, "type": "electric_scooter", "is_reserved": 0, "lon": -77.024552, "is_disabled": 0, "fusion_lat": 0.0, "bike_id": "67b8516aaec5b14a9acc8f62d0804582", "name": "67b8516aaec5b14a9acc8f62d0804582", "lat": 38.8839275}, {"rental_uris": {"ios": "https://dc.lft.to/lastmile_qr_scan", "android": "https://dc.lft.to/lastmile_qr_scan"}, "fusion_lon": 0.0, "type": "electric_scooter", "is_reserved": 0, "lon": -77.03263033333333, "is_disabled": 0, "fusion_lat": 0.0, "bike_id": "61170abb223469eb6e699a9967c49ffe", "name": "61170abb223469eb6e699a9967c49ffe", "lat": 38.93538866666667}, {"rental_uris": {"ios": "https://dc.lft.to/lastmile_qr_scan", "android": "https://dc.lft.to/lastmile_qr_scan"}, "fusion_lon": 0.0, "type": "electric_bike", "is_reserved": 0, "lon": -77.00152416666667, "is_disabled": 0, "fusion_lat": 0.0, "bike_id": "2d21395073ba1e29a4605b0c1c7569a0", "name": "2d21395073ba1e29a4605b0c1c7569a0", "lat": 38.899355}, {"rental_uris": {"ios": "https://dc.lft.to/lastmile_qr_scan", "android": "https://dc.lft.to/lastmile_qr_scan"}, "fusion_lon": 0.0, "type": "electric_scooter", "is_reserved": 0, "lon": -77.04103516666666, "is_disabled": 0, "fusion_lat": 0.0, "bike_id": "4cee377a2b1881c16f69d8348cff5301", "name": "4cee377a2b1881c16f69d8348cff5301", "lat": 38.90113016666667}, {"rental_uris": {"ios": "https://dc.lft.to/lastmile_qr_scan", "android": "https://dc.lft.to/lastmile_qr_scan"}, "fusion_lon": 0.0, "type": "electric_bike", "is_reserved": 0, "lon": -76.98208133333333, "is_disabled": 0, "fusion_lat": 0.0, "bike_id": "7e55cf9398d371144ba6e69024a7b0cd", "name": "7e55cf9398d371144ba6e69024a7b0cd", "lat": 38.9850235}, {"rental_uris": {"ios": "https://dc.lft.to/lastmile_qr_scan", "android": "https://dc.lft.to/lastmile_qr_scan"}, "fusion_lon": 0.0, "type": "electric_scooter", "is_reserved": 0, "lon": -77.031943, "is_disabled": 0, "fusion_lat": 0.0, "bike_id": "cb68a146290fd297a2833fa21f52016e", "name": "cb68a146290fd297a2833fa21f52016e", "lat": 38.907825333333335}, {"rental_uris": {"ios": "https://dc.lft.to/lastmile_qr_scan", "android": "https://dc.lft.to/lastmile_qr_scan"}, "fusion_lon": 0.0, "type": "electric_scooter", "is_reserved": 0, "lon": -77.041666, "is_disabled": 0, "fusion_lat": 0.0, "bike_id": "33a69ab876abf050aeaa90442a9938c3", "name": "33a69ab876abf050aeaa90442a9938c3", "lat": 38.9197605}, {"rental_uris": {"ios": "https://dc.lft.to/lastmile_qr_scan", "android": "https://dc.lft.to/lastmile_qr_scan"}, "fusion_lon": 0.0, "type": "electric_scooter", "is_reserved": 0, "lon": -77.02808066666667, "is_disabled": 0, "fusion_lat": 0.0, "bike_id": "8d39627263ac863bf24636e13f068070", "name": "8d39627263ac863bf24636e13f068070", "lat": 38.91619766666667}, {"rental_uris": {"ios": "https://dc.lft.to/lastmile_qr_scan", "android": "https://dc.lft.to/lastmile_qr_scan"}, "fusion_lon": 0.0, "type": "electric_scooter", "is_reserved": 0, "lon": -76.95433316666667, "is_disabled": 0, "fusion_lat": 0.0, "bike_id": "4e0b316ca6abcc0f0288302967986705", "name": "4e0b316ca6abcc0f0288302967986705", "lat": 38.88566616666667}, {"rental_uris": {"ios": "https://dc.lft.to/lastmile_qr_scan", "android": "https://dc.lft.to/lastmile_qr_scan"}, "fusion_lon": 0.0, "type": "electric_scooter", "is_reserved": 0, "lon": -77.0224315, "is_disabled": 0, "fusion_lat": 0.0, "bike_id": "8429f7970239a5c6e93f0a8c27c8e777", "name": "8429f7970239a5c6e93f0a8c27c8e777", "lat": 38.92462616666667}, {"rental_uris": {"ios": "https://dc.lft.to/lastmile_qr_scan", "android": "https://dc.lft.to/lastmile_qr_scan"}, "fusion_lon": 0.0, "type": "electric_scooter", "is_reserved": 0, "lon": -77.02977883333334, "is_disabled": 0, "fusion_lat": 0.0, "bike_id": "1fe8c19e672fdc8ef7a6366db05d76e5", "name": "1fe8c19e672fdc8ef7a6366db05d76e5", "lat": 38.92276233333333}, {"rental_uris": {"ios": "https://dc.lft.to/lastmile_qr_scan", "android": "https://dc.lft.to/lastmile_qr_scan"}, "fusion_lon": 0.0, "type": "electric_scooter", "is_reserved": 0, "lon": -76.99623166666666, "is_disabled": 0, "fusion_lat": 0.0, "bike_id": "d025c4bea0602e212992744fcc69fb27", "name": "d025c4bea0602e212992744fcc69fb27", "lat": 38.885168666666665}, {"rental_uris": {"ios": "https://dc.lft.to/lastmile_qr_scan", "android": "https://dc.lft.to/lastmile_qr_scan"}, "fusion_lon": 0.0, "type": "electric_scooter", "is_reserved": 0, "lon": -77.04191116666667, "is_disabled": 0, "fusion_lat": 0.0, "bike_id": "b7df5aacec7cb90fef0d292fbdd43f38", "name": "b7df5aacec7cb90fef0d292fbdd43f38", "lat": 38.89979683333333}, {"rental_uris": {"ios": "https://dc.lft.to/lastmile_qr_scan", "android": "https://dc.lft.to/lastmile_qr_scan"}, "fusion_lon": 0.0, "type": "electric_scooter", "is_reserved": 0, "lon": -76.96899633333334, "is_disabled": 0, "fusion_lat": 0.0, "bike_id": "09764187ec3196b79916ac345e4dddf3", "name": "09764187ec3196b79916ac345e4dddf3", "lat": 38.91892516666667}, {"rental_uris": {"ios": "https://dc.lft.to/lastmile_qr_scan", "android": "https://dc.lft.to/lastmile_qr_scan"}, "fusion_lon": 0.0, "type": "electric_scooter", "is_reserved": 0, "lon": -77.04049333333333, "is_disabled": 0, "fusion_lat": 0.0, "bike_id": "69b8430fbec79c5055b10cb02e28b668", "name": "69b8430fbec79c5055b10cb02e28b668", "lat": 38.9239875}, {"rental_uris": {"ios": "https://dc.lft.to/lastmile_qr_scan", "android": "https://dc.lft.to/lastmile_qr_scan"}, "fusion_lon": 0.0, "type": "electric_scooter", "is_reserved": 0, "lon": -77.03426833333333, "is_disabled": 0, "fusion_lat": 0.0, "bike_id": "ddf23d27d2c758153ed962e4e25a8cb1", "name": "ddf23d27d2c758153ed962e4e25a8cb1", "lat": 38.909515666666664}, {"rental_uris": {"ios": "https://dc.lft.to/lastmile_qr_scan", "android": "https://dc.lft.to/lastmile_qr_scan"}, "fusion_lon": 0.0, "type": "electric_scooter", "is_reserved": 0, "lon": -77.04434666666667, "is_disabled": 0, "fusion_lat": 0.0, "bike_id": "fb77ff28696e7a74b30a12060a895863", "name": "fb77ff28696e7a74b30a12060a895863", "lat": 38.915356833333334}, {"rental_uris": {"ios": "https://dc.lft.to/lastmile_qr_scan", "android": "https://dc.lft.to/lastmile_qr_scan"}, "fusion_lon": 0.0, "type": "electric_scooter", "is_reserved": 0, "lon": -76.99511383333333, "is_disabled": 0, "fusion_lat": 0.0, "bike_id": "2d351ac916d480eeff83ad5bd1584d9c", "name": "2d351ac916d480eeff83ad5bd1584d9c", "lat": 38.894791833333336}, {"rental_uris": {"ios": "https://dc.lft.to/lastmile_qr_scan", "android": "https://dc.lft.to/lastmile_qr_scan"}, "fusion_lon": 0.0, "type": "electric_scooter", "is_reserved": 0, "lon": -77.045178, "is_disabled": 0, "fusion_lat": 0.0, "bike_id": "3d10b85dd3c2d161b0c8182140f206d1", "name": "3d10b85dd3c2d161b0c8182140f206d1", "lat": 38.899440166666665}, {"rental_uris": {"ios": "https://dc.lft.to/lastmile_qr_scan", "android": "https://dc.lft.to/lastmile_qr_scan"}, "fusion_lon": 0.0, "type": "electric_scooter", "is_reserved": 0, "lon": -76.93211733333334, "is_disabled": 0, "fusion_lat": 0.0, "bike_id": "0dc952329a1080f1a4f3ed10eda46c58", "name": "0dc952329a1080f1a4f3ed10eda46c58", "lat": 38.89664583333333}, {"rental_uris": {"ios": "https://dc.lft.to/lastmile_qr_scan", "android": "https://dc.lft.to/lastmile_qr_scan"}, "fusion_lon": 0.0, "type": "electric_scooter", "is_reserved": 0, "lon": -77.06997133333333, "is_disabled": 0, "fusion_lat": 0.0, "bike_id": "04aa6376d4705351c0512425177dfb0c", "name": "04aa6376d4705351c0512425177dfb0c", "lat": 38.95494816666667}, {"rental_uris": {"ios": "https://dc.lft.to/lastmile_qr_scan", "android": "https://dc.lft.to/lastmile_qr_scan"}, "fusion_lon": 0.0, "type": "electric_bike", "is_reserved": 0, "lon": -76.98023733333333, "is_disabled": 0, "fusion_lat": 0.0, "bike_id": "095298310ff0697be92febd0e2788362", "name": "095298310ff0697be92febd0e2788362", "lat": 38.868173}, {"rental_uris": {"ios": "https://dc.lft.to/lastmile_qr_scan", "android": "https://dc.lft.to/lastmile_qr_scan"}, "fusion_lon": 0.0, "type": "electric_scooter", "is_reserved": 0, "lon": -77.0092045, "is_disabled": 0, "fusion_lat": 0.0, "bike_id": "d9177342f1c28049eba86f7af816d9da", "name": "d9177342f1c28049eba86f7af816d9da", "lat": 38.8987615}, {"rental_uris": {"ios": "https://dc.lft.to/lastmile_qr_scan", "android": "https://dc.lft.to/lastmile_qr_scan"}, "fusion_lon": 0.0, "type": "electric_scooter", "is_reserved": 0, "lon": -77.04165116666667, "is_disabled": 0, "fusion_lat": 0.0, "bike_id": "0aa46fcc18a336acd4cf8f1089ed15e1", "name": "0aa46fcc18a336acd4cf8f1089ed15e1", "lat": 38.919402166666664}, {"rental_uris": {"ios": "https://dc.lft.to/lastmile_qr_scan", "android": "https://dc.lft.to/lastmile_qr_scan"}, "fusion_lon": 0.0, "type": "electric_scooter", "is_reserved": 0, "lon": -77.04480433333333, "is_disabled": 0, "fusion_lat": 0.0, "bike_id": "30deb356143b25788746d67721ae61d4", "name": "30deb356143b25788746d67721ae61d4", "lat": 38.9115465}, {"rental_uris": {"ios": "https://dc.lft.to/lastmile_qr_scan", "android": "https://dc.lft.to/lastmile_qr_scan"}, "fusion_lon": 0.0, "type": "electric_scooter", "is_reserved": 0, "lon": -77.00320566666667, "is_disabled": 0, "fusion_lat": 0.0, "bike_id": "833313c5876d5737bd277ef581a033c8", "name": "833313c5876d5737bd277ef581a033c8", "lat": 38.901259}, {"rental_uris": {"ios": "https://dc.lft.to/lastmile_qr_scan", "android": "https://dc.lft.to/lastmile_qr_scan"}, "fusion_lon": 0.0, "type": "electric_scooter", "is_reserved": 0, "lon": -77.02321333333333, "is_disabled": 0, "fusion_lat": 0.0, "bike_id": "427a9323094d1debaae3efe4143c6982", "name": "427a9323094d1debaae3efe4143c6982", "lat": 38.90219366666667}, {"rental_uris": {"ios": "https://dc.lft.to/lastmile_qr_scan", "android": "https://dc.lft.to/lastmile_qr_scan"}, "fusion_lon": 0.0, "type": "electric_scooter", "is_reserved": 0, "lon": -77.04860666666667, "is_disabled": 0, "fusion_lat": 0.0, "bike_id": "608c6b42142e44cefc2ba66d0887a368", "name": "608c6b42142e44cefc2ba66d0887a368", "lat": 38.90722266666667}, {"rental_uris": {"ios": "https://dc.lft.to/lastmile_qr_scan", "android": "https://dc.lft.to/lastmile_qr_scan"}, "fusion_lon": 0.0, "type": "electric_bike", "is_reserved": 0, "lon": -77.1281205, "is_disabled": 0, "fusion_lat": 0.0, "bike_id": "2a47c2edebf20bc5a6969927b9358d33", "name": "2a47c2edebf20bc5a6969927b9358d33", "lat": 38.886682}, {"rental_uris": {"ios": "https://dc.lft.to/lastmile_qr_scan", "android": "https://dc.lft.to/lastmile_qr_scan"}, "fusion_lon": 0.0, "type": "electric_scooter", "is_reserved": 0, "lon": -77.04193683333334, "is_disabled": 0, "fusion_lat": 0.0, "bike_id": "b600a95a21ac987c84ac56d9a2e0195b", "name": "b600a95a21ac987c84ac56d9a2e0195b", "lat": 38.92048883333333}, {"rental_uris": {"ios": "https://dc.lft.to/lastmile_qr_scan", "android": "https://dc.lft.to/lastmile_qr_scan"}, "fusion_lon": 0.0, "type": "electric_scooter", "is_reserved": 0, "lon": -77.02158566666667, "is_disabled": 0, "fusion_lat": 0.0, "bike_id": "4c428cb46def252a84cb3e4aa17f6b7e", "name": "4c428cb46def252a84cb3e4aa17f6b7e", "lat": 38.92601616666666}, {"rental_uris": {"ios": "https://dc.lft.to/lastmile_qr_scan", "android": "https://dc.lft.to/lastmile_qr_scan"}, "fusion_lon": 0.0, "type": "electric_scooter", "is_reserved": 0, "lon": -77.05226616666667, "is_disabled": 0, "fusion_lat": 0.0, "bike_id": "5d52382a97d0d23a7f9d4f11f23a8ca8", "name": "5d52382a97d0d23a7f9d4f11f23a8ca8", "lat": 38.923561166666666}, {"rental_uris": {"ios": "https://dc.lft.to/lastmile_qr_scan", "android": "https://dc.lft.to/lastmile_qr_scan"}, "fusion_lon": 0.0, "type": "electric_scooter", "is_reserved": 0, "lon": -77.04048666666667, "is_disabled": 0, "fusion_lat": 0.0, "bike_id": "f8f3a5592a6b46baf2a0f9d9bcfbdddd", "name": "f8f3a5592a6b46baf2a0f9d9bcfbdddd", "lat": 38.908793833333334}, {"rental_uris": {"ios": "https://dc.lft.to/lastmile_qr_scan", "android": "https://dc.lft.to/lastmile_qr_scan"}, "fusion_lon": 0.0, "type": "electric_scooter", "is_reserved": 0, "lon": -77.04322233333333, "is_disabled": 0, "fusion_lat": 0.0, "bike_id": "4b75a0389fb87c941b4efcedbcafd6b9", "name": "4b75a0389fb87c941b4efcedbcafd6b9", "lat": 38.923599333333335}, {"rental_uris": {"ios": "https://dc.lft.to/lastmile_qr_scan", "android": "https://dc.lft.to/lastmile_qr_scan"}, "fusion_lon": 0.0, "type": "electric_scooter", "is_reserved": 0, "lon": -77.07273133333334, "is_disabled": 0, "fusion_lat": 0.0, "bike_id": "6e55dcf2969d598ce431d694661a1189", "name": "6e55dcf2969d598ce431d694661a1189", "lat": 38.915181833333335}, {"rental_uris": {"ios": "https://dc.lft.to/lastmile_qr_scan", "android": "https://dc.lft.to/lastmile_qr_scan"}, "fusion_lon": 0.0, "type": "electric_scooter", "is_reserved": 0, "lon": -77.02032, "is_disabled": 0, "fusion_lat": 0.0, "bike_id": "9959716c0aec46825126cc9e3c009cf4", "name": "9959716c0aec46825126cc9e3c009cf4", "lat": 38.924104666666665}, {"rental_uris": {"ios": "https://dc.lft.to/lastmile_qr_scan", "android": "https://dc.lft.to/lastmile_qr_scan"}, "fusion_lon": 0.0, "type": "electric_bike", "is_reserved": 0, "lon": -76.931913, "is_disabled": 0, "fusion_lat": 0.0, "bike_id": "5d9c03d651b052bdd6612a3330ccf834", "name": "5d9c03d651b052bdd6612a3330ccf834", "lat": 38.879520166666666}, {"rental_uris": {"ios": "https://dc.lft.to/lastmile_qr_scan", "android": "https://dc.lft.to/lastmile_qr_scan"}, "fusion_lon": 0.0, "type": "electric_bike", "is_reserved": 0, "lon": -76.97225383333334, "is_disabled": 0, "fusion_lat": 0.0, "bike_id": "d15972682760f8b78533dfc13658e075", "name": "d15972682760f8b78533dfc13658e075", "lat": 38.915263833333334}, {"rental_uris": {"ios": "https://dc.lft.to/lastmile_qr_scan", "android": "https://dc.lft.to/lastmile_qr_scan"}, "fusion_lon": 0.0, "type": "electric_scooter", "is_reserved": 0, "lon": -77.03430833333333, "is_disabled": 0, "fusion_lat": 0.0, "bike_id": "1bdd953988c520dcca2af83033ab466e", "name": "1bdd953988c520dcca2af83033ab466e", "lat": 38.927319}, {"rental_uris": {"ios": "https://dc.lft.to/lastmile_qr_scan", "android": "https://dc.lft.to/lastmile_qr_scan"}, "fusion_lon": 0.0, "type": "electric_scooter", "is_reserved": 0, "lon": -77.041812, "is_disabled": 0, "fusion_lat": 0.0, "bike_id": "ee69476ee021647df2dd67cc6f5aca2b", "name": "ee69476ee021647df2dd67cc6f5aca2b", "lat": 38.9078415}, {"rental_uris": {"ios": "https://dc.lft.to/lastmile_qr_scan", "android": "https://dc.lft.to/lastmile_qr_scan"}, "fusion_lon": 0.0, "type": "electric_scooter", "is_reserved": 0, "lon": -77.04443616666667, "is_disabled": 0, "fusion_lat": 0.0, "bike_id": "729e2724586c354d5aa35820d2529be4", "name": "729e2724586c354d5aa35820d2529be4", "lat": 38.912541166666664}, {"rental_uris": {"ios": "https://dc.lft.to/lastmile_qr_scan", "android": "https://dc.lft.to/lastmile_qr_scan"}, "fusion_lon": 0.0, "type": "electric_scooter", "is_reserved": 0, "lon": -76.98325016666666, "is_disabled": 0, "fusion_lat": 0.0, "bike_id": "e4b55053cb3e22f5d3039296f24e8c3a", "name": "e4b55053cb3e22f5d3039296f24e8c3a", "lat": 38.90779283333333}, {"rental_uris": {"ios": "https://dc.lft.to/lastmile_qr_scan", "android": "https://dc.lft.to/lastmile_qr_scan"}, "fusion_lon": 0.0, "type": "electric_bike", "is_reserved": 0, "lon": -76.95700433333333, "is_disabled": 0, "fusion_lat": 0.0, "bike_id": "c596b40f6f594a2216adda7b2bf17db2", "name": "c596b40f6f594a2216adda7b2bf17db2", "lat": 38.888716333333335}, {"rental_uris": {"ios": "https://dc.lft.to/lastmile_qr_scan", "android": "https://dc.lft.to/lastmile_qr_scan"}, "fusion_lon": 0.0, "type": "electric_scooter", "is_reserved": 0, "lon": -77.05482866666667, "is_disabled": 0, "fusion_lat": 0.0, "bike_id": "f4170567e7f339a223c1299c65ebc081", "name": "f4170567e7f339a223c1299c65ebc081", "lat": 38.928134166666666}, {"rental_uris": {"ios": "https://dc.lft.to/lastmile_qr_scan", "android": "https://dc.lft.to/lastmile_qr_scan"}, "fusion_lon": 0.0, "type": "electric_scooter", "is_reserved": 0, "lon": -77.029854, "is_disabled": 0, "fusion_lat": 0.0, "bike_id": "c42f7b5cb4b066e6f9d43ddb8fb42c9a", "name": "c42f7b5cb4b066e6f9d43ddb8fb42c9a", "lat": 38.9155025}, {"rental_uris": {"ios": "https://dc.lft.to/lastmile_qr_scan", "android": "https://dc.lft.to/lastmile_qr_scan"}, "fusion_lon": 0.0, "type": "electric_scooter", "is_reserved": 0, "lon": -77.04151683333333, "is_disabled": 0, "fusion_lat": 0.0, "bike_id": "6d3e11546d4d3df6a3e9f2a6a35d45de", "name": "6d3e11546d4d3df6a3e9f2a6a35d45de", "lat": 38.897454333333336}, {"rental_uris": {"ios": "https://dc.lft.to/lastmile_qr_scan", "android": "https://dc.lft.to/lastmile_qr_scan"}, "fusion_lon": 0.0, "type": "electric_scooter", "is_reserved": 0, "lon": -77.03280883333333, "is_disabled": 0, "fusion_lat": 0.0, "bike_id": "853f038ed2e5f142db1f5c495baeea46", "name": "853f038ed2e5f142db1f5c495baeea46", "lat": 38.94745833333333}, {"rental_uris": {"ios": "https://dc.lft.to/lastmile_qr_scan", "android": "https://dc.lft.to/lastmile_qr_scan"}, "fusion_lon": 0.0, "type": "electric_scooter", "is_reserved": 0, "lon": -77.00008433333333, "is_disabled": 0, "fusion_lat": 0.0, "bike_id": "29eba9cecf1e4417317437f9b7a0676d", "name": "29eba9cecf1e4417317437f9b7a0676d", "lat": 38.88872083333333}, {"rental_uris": {"ios": "https://dc.lft.to/lastmile_qr_scan", "android": "https://dc.lft.to/lastmile_qr_scan"}, "fusion_lon": 0.0, "type": "electric_bike", "is_reserved": 0, "lon": -77.03177016666666, "is_disabled": 0, "fusion_lat": 0.0, "bike_id": "8746655a494290821909763104cf8847", "name": "8746655a494290821909763104cf8847", "lat": 38.903691333333335}, {"rental_uris": {"ios": "https://dc.lft.to/lastmile_qr_scan", "android": "https://dc.lft.to/lastmile_qr_scan"}, "fusion_lon": 0.0, "type": "electric_scooter", "is_reserved": 0, "lon": -77.071408, "is_disabled": 0, "fusion_lat": 0.0, "bike_id": "a5468de1f7a293001452c1aba945f495", "name": "a5468de1f7a293001452c1aba945f495", "lat": 38.920147166666666}, {"rental_uris": {"ios": "https://dc.lft.to/lastmile_qr_scan", "android": "https://dc.lft.to/lastmile_qr_scan"}, "fusion_lon": 0.0, "type": "electric_scooter", "is_reserved": 0, "lon": -77.03549183333334, "is_disabled": 0, "fusion_lat": 0.0, "bike_id": "bc10f3e61d53fb514ce6a0d165098486", "name": "bc10f3e61d53fb514ce6a0d165098486", "lat": 38.92395766666667}, {"rental_uris": {"ios": "https://dc.lft.to/lastmile_qr_scan", "android": "https://dc.lft.to/lastmile_qr_scan"}, "fusion_lon": 0.0, "type": "electric_scooter", "is_reserved": 0, "lon": -77.0205285, "is_disabled": 0, "fusion_lat": 0.0, "bike_id": "b077766c298951333b10a3b3fc58e235", "name": "b077766c298951333b10a3b3fc58e235", "lat": 38.921083}, {"rental_uris": {"ios": "https://dc.lft.to/lastmile_qr_scan", "android": "https://dc.lft.to/lastmile_qr_scan"}, "fusion_lon": 0.0, "type": "electric_bike", "is_reserved": 0, "lon": -77.11334083333334, "is_disabled": 0, "fusion_lat": 0.0, "bike_id": "a2eaa5ef35dfe0bbaedc073502f92acb", "name": "a2eaa5ef35dfe0bbaedc073502f92acb", "lat": 38.804081}, {"rental_uris": {"ios": "https://dc.lft.to/lastmile_qr_scan", "android": "https://dc.lft.to/lastmile_qr_scan"}, "fusion_lon": 0.0, "type": "electric_scooter", "is_reserved": 0, "lon": -77.00568266666667, "is_disabled": 0, "fusion_lat": 0.0, "bike_id": "70661713ae5018b01e8962236889a02c", "name": "70661713ae5018b01e8962236889a02c", "lat": 38.876269666666666}, {"rental_uris": {"ios": "https://dc.lft.to/lastmile_qr_scan", "android": "https://dc.lft.to/lastmile_qr_scan"}, "fusion_lon": 0.0, "type": "electric_scooter", "is_reserved": 0, "lon": -77.0350115, "is_disabled": 0, "fusion_lat": 0.0, "bike_id": "a866b61c9e1ae64c04fa228330495c0a", "name": "a866b61c9e1ae64c04fa228330495c0a", "lat": 38.9234455}, {"rental_uris": {"ios": "https://dc.lft.to/lastmile_qr_scan", "android": "https://dc.lft.to/lastmile_qr_scan"}, "fusion_lon": 0.0, "type": "electric_bike", "is_reserved": 0, "lon": -76.972822, "is_disabled": 0, "fusion_lat": 0.0, "bike_id": "8c62663684db420b688257eb63a98ecb", "name": "8c62663684db420b688257eb63a98ecb", "lat": 38.85600783333334}, {"rental_uris": {"ios": "https://dc.lft.to/lastmile_qr_scan", "android": "https://dc.lft.to/lastmile_qr_scan"}, "fusion_lon": 0.0, "type": "electric_bike", "is_reserved": 0, "lon": -77.05613483333333, "is_disabled": 0, "fusion_lat": 0.0, "bike_id": "8bf21fe878db00de0257d42621a8ea9c", "name": "8bf21fe878db00de0257d42621a8ea9c", "lat": 38.823166666666665}, {"rental_uris": {"ios": "https://dc.lft.to/lastmile_qr_scan", "android": "https://dc.lft.to/lastmile_qr_scan"}, "fusion_lon": 0.0, "type": "electric_scooter", "is_reserved": 0, "lon": -77.01013566666667, "is_disabled": 0, "fusion_lat": 0.0, "bike_id": "8582d6451a036650283d2bed62d309a6", "name": "8582d6451a036650283d2bed62d309a6", "lat": 38.90684683333333}, {"rental_uris": {"ios": "https://dc.lft.to/lastmile_qr_scan", "android": "https://dc.lft.to/lastmile_qr_scan"}, "fusion_lon": 0.0, "type": "electric_scooter", "is_reserved": 0, "lon": -77.02122716666666, "is_disabled": 0, "fusion_lat": 0.0, "bike_id": "c4ae5d73ca399a1163960f5c0eb5eb5d", "name": "c4ae5d73ca399a1163960f5c0eb5eb5d", "lat": 38.923668}, {"rental_uris": {"ios": "https://dc.lft.to/lastmile_qr_scan", "android": "https://dc.lft.to/lastmile_qr_scan"}, "fusion_lon": 0.0, "type": "electric_scooter", "is_reserved": 0, "lon": -77.02166816666667, "is_disabled": 0, "fusion_lat": 0.0, "bike_id": "ad1f64f3678c1cb0d33e5f28a7376654", "name": "ad1f64f3678c1cb0d33e5f28a7376654", "lat": 38.929052666666664}, {"rental_uris": {"ios": "https://dc.lft.to/lastmile_qr_scan", "android": "https://dc.lft.to/lastmile_qr_scan"}, "fusion_lon": 0.0, "type": "electric_scooter", "is_reserved": 0, "lon": -77.01221466666667, "is_disabled": 0, "fusion_lat": 0.0, "bike_id": "68d3ecc1908f9e55777df4571e58bcc7", "name": "68d3ecc1908f9e55777df4571e58bcc7", "lat": 38.91344766666667}, {"rental_uris": {"ios": "https://dc.lft.to/lastmile_qr_scan", "android": "https://dc.lft.to/lastmile_qr_scan"}, "fusion_lon": 0.0, "type": "electric_scooter", "is_reserved": 0, "lon": -77.01615983333333, "is_disabled": 0, "fusion_lat": 0.0, "bike_id": "4064a5d262b40e813eb68d6b132913fb", "name": "4064a5d262b40e813eb68d6b132913fb", "lat": 38.9106475}, {"rental_uris": {"ios": "https://dc.lft.to/lastmile_qr_scan", "android": "https://dc.lft.to/lastmile_qr_scan"}, "fusion_lon": 0.0, "type": "electric_scooter", "is_reserved": 0, "lon": -77.06903133333333, "is_disabled": 0, "fusion_lat": 0.0, "bike_id": "316fbd5ecbd0e7d18795c75b88d9e1ed", "name": "316fbd5ecbd0e7d18795c75b88d9e1ed", "lat": 38.90628683333333}, {"rental_uris": {"ios": "https://dc.lft.to/lastmile_qr_scan", "android": "https://dc.lft.to/lastmile_qr_scan"}, "fusion_lon": 0.0, "type": "electric_scooter", "is_reserved": 0, "lon": -77.02968266666667, "is_disabled": 0, "fusion_lat": 0.0, "bike_id": "6800bfe44405305e267482be303747ef", "name": "6800bfe44405305e267482be303747ef", "lat": 38.898988333333335}, {"rental_uris": {"ios": "https://dc.lft.to/lastmile_qr_scan", "android": "https://dc.lft.to/lastmile_qr_scan"}, "fusion_lon": 0.0, "type": "electric_bike", "is_reserved": 0, "lon": -76.94155733333334, "is_disabled": 0, "fusion_lat": 0.0, "bike_id": "8e17978f0cf773458d3486e2a8852744", "name": "8e17978f0cf773458d3486e2a8852744", "lat": 38.86547266666667}, {"rental_uris": {"ios": "https://dc.lft.to/lastmile_qr_scan", "android": "https://dc.lft.to/lastmile_qr_scan"}, "fusion_lon": 0.0, "type": "electric_scooter", "is_reserved": 0, "lon": -77.04988166666666, "is_disabled": 0, "fusion_lat": 0.0, "bike_id": "a138608d23ee1e1c56a8c40101e25a41", "name": "a138608d23ee1e1c56a8c40101e25a41", "lat": 38.9010645}, {"rental_uris": {"ios": "https://dc.lft.to/lastmile_qr_scan", "android": "https://dc.lft.to/lastmile_qr_scan"}, "fusion_lon": 0.0, "type": "electric_scooter", "is_reserved": 0, "lon": -77.04655566666666, "is_disabled": 0, "fusion_lat": 0.0, "bike_id": "c0ce697ebeab83018c943598f362151c", "name": "c0ce697ebeab83018c943598f362151c", "lat": 38.9004545}, {"rental_uris": {"ios": "https://dc.lft.to/lastmile_qr_scan", "android": "https://dc.lft.to/lastmile_qr_scan"}, "fusion_lon": 0.0, "type": "electric_scooter", "is_reserved": 0, "lon": -77.029831, "is_disabled": 0, "fusion_lat": 0.0, "bike_id": "6551e6bd0f39935ea35b47e6057b51da", "name": "6551e6bd0f39935ea35b47e6057b51da", "lat": 38.93053}, {"rental_uris": {"ios": "https://dc.lft.to/lastmile_qr_scan", "android": "https://dc.lft.to/lastmile_qr_scan"}, "fusion_lon": 0.0, "type": "electric_scooter", "is_reserved": 0, "lon": -76.93158833333334, "is_disabled": 0, "fusion_lat": 0.0, "bike_id": "a595001b843b0cba6ab73b0ae2c763b1", "name": "a595001b843b0cba6ab73b0ae2c763b1", "lat": 38.9013995}, {"rental_uris": {"ios": "https://dc.lft.to/lastmile_qr_scan", "android": "https://dc.lft.to/lastmile_qr_scan"}, "fusion_lon": 0.0, "type": "electric_bike", "is_reserved": 0, "lon": -76.95259166666666, "is_disabled": 0, "fusion_lat": 0.0, "bike_id": "6ac653345de4b5bae1f2f5aa662ce970", "name": "6ac653345de4b5bae1f2f5aa662ce970", "lat": 38.90691183333333}, {"rental_uris": {"ios": "https://dc.lft.to/lastmile_qr_scan", "android": "https://dc.lft.to/lastmile_qr_scan"}, "fusion_lon": 0.0, "type": "electric_scooter", "is_reserved": 0, "lon": -77.0366325, "is_disabled": 0, "fusion_lat": 0.0, "bike_id": "96665d1b6c35e0fbe6678631cc54dab5", "name": "96665d1b6c35e0fbe6678631cc54dab5", "lat": 38.913799}, {"rental_uris": {"ios": "https://dc.lft.to/lastmile_qr_scan", "android": "https://dc.lft.to/lastmile_qr_scan"}, "fusion_lon": 0.0, "type": "electric_scooter", "is_reserved": 0, "lon": -77.02020933333333, "is_disabled": 0, "fusion_lat": 0.0, "bike_id": "e4092fb9ee80db42d4f6ab1ffeee4e01", "name": "e4092fb9ee80db42d4f6ab1ffeee4e01", "lat": 38.924366166666665}, {"rental_uris": {"ios": "https://dc.lft.to/lastmile_qr_scan", "android": "https://dc.lft.to/lastmile_qr_scan"}, "fusion_lon": 0.0, "type": "electric_scooter", "is_reserved": 0, "lon": -77.02796933333333, "is_disabled": 0, "fusion_lat": 0.0, "bike_id": "6e7454ebba44ff5df12ffcce02adde96", "name": "6e7454ebba44ff5df12ffcce02adde96", "lat": 38.91131416666666}, {"rental_uris": {"ios": "https://dc.lft.to/lastmile_qr_scan", "android": "https://dc.lft.to/lastmile_qr_scan"}, "fusion_lon": 0.0, "type": "electric_scooter", "is_reserved": 0, "lon": -76.98665733333333, "is_disabled": 0, "fusion_lat": 0.0, "bike_id": "0088aa3f126f9832cc5712a837203bfe", "name": "0088aa3f126f9832cc5712a837203bfe", "lat": 38.91241183333333}, {"rental_uris": {"ios": "https://dc.lft.to/lastmile_qr_scan", "android": "https://dc.lft.to/lastmile_qr_scan"}, "fusion_lon": 0.0, "type": "electric_scooter", "is_reserved": 0, "lon": -77.0199385, "is_disabled": 0, "fusion_lat": 0.0, "bike_id": "05c4f7d364b5669c5bc7f6a6a7e75b5c", "name": "05c4f7d364b5669c5bc7f6a6a7e75b5c", "lat": 38.966116666666665}, {"rental_uris": {"ios": "https://dc.lft.to/lastmile_qr_scan", "android": "https://dc.lft.to/lastmile_qr_scan"}, "fusion_lon": 0.0, "type": "electric_scooter", "is_reserved": 0, "lon": -77.02714483333334, "is_disabled": 0, "fusion_lat": 0.0, "bike_id": "bb5f6153561e3e51dd52efd22b48d06d", "name": "bb5f6153561e3e51dd52efd22b48d06d", "lat": 38.9223505}, {"rental_uris": {"ios": "https://dc.lft.to/lastmile_qr_scan", "android": "https://dc.lft.to/lastmile_qr_scan"}, "fusion_lon": 0.0, "type": "electric_scooter", "is_reserved": 0, "lon": -77.03995133333333, "is_disabled": 0, "fusion_lat": 0.0, "bike_id": "5244da403b6cb8eeced2e7d39be8eadd", "name": "5244da403b6cb8eeced2e7d39be8eadd", "lat": 38.928724333333335}, {"rental_uris": {"ios": "https://dc.lft.to/lastmile_qr_scan", "android": "https://dc.lft.to/lastmile_qr_scan"}, "fusion_lon": 0.0, "type": "electric_scooter", "is_reserved": 0, "lon": -77.04484666666667, "is_disabled": 0, "fusion_lat": 0.0, "bike_id": "a8dac99505ab5d6f303d738e0c3d1992", "name": "a8dac99505ab5d6f303d738e0c3d1992", "lat": 38.91362633333333}, {"rental_uris": {"ios": "https://dc.lft.to/lastmile_qr_scan", "android": "https://dc.lft.to/lastmile_qr_scan"}, "fusion_lon": 0.0, "type": "electric_scooter", "is_reserved": 0, "lon": -77.02305466666667, "is_disabled": 0, "fusion_lat": 0.0, "bike_id": "fb6d6c769903b9eea53d5c630bb17b06", "name": "fb6d6c769903b9eea53d5c630bb17b06", "lat": 38.919468}, {"rental_uris": {"ios": "https://dc.lft.to/lastmile_qr_scan", "android": "https://dc.lft.to/lastmile_qr_scan"}, "fusion_lon": 0.0, "type": "electric_scooter", "is_reserved": 0, "lon": -76.98821866666667, "is_disabled": 0, "fusion_lat": 0.0, "bike_id": "d8628c250b5d362a8565bbe0ac4d8ad0", "name": "d8628c250b5d362a8565bbe0ac4d8ad0", "lat": 38.90038966666667}, {"rental_uris": {"ios": "https://dc.lft.to/lastmile_qr_scan", "android": "https://dc.lft.to/lastmile_qr_scan"}, "fusion_lon": 0.0, "type": "electric_scooter", "is_reserved": 0, "lon": -77.044277, "is_disabled": 0, "fusion_lat": 0.0, "bike_id": "225f3374d3a646028c776a84e414facb", "name": "225f3374d3a646028c776a84e414facb", "lat": 38.9114}, {"rental_uris": {"ios": "https://dc.lft.to/lastmile_qr_scan", "android": "https://dc.lft.to/lastmile_qr_scan"}, "fusion_lon": 0.0, "type": "electric_scooter", "is_reserved": 0, "lon": -77.0405865, "is_disabled": 0, "fusion_lat": 0.0, "bike_id": "9967656703b5b0e53c64df47fb98e776", "name": "9967656703b5b0e53c64df47fb98e776", "lat": 38.917637166666665}, {"rental_uris": {"ios": "https://dc.lft.to/lastmile_qr_scan", "android": "https://dc.lft.to/lastmile_qr_scan"}, "fusion_lon": 0.0, "type": "electric_scooter", "is_reserved": 0, "lon": -77.0453535, "is_disabled": 0, "fusion_lat": 0.0, "bike_id": "66409ecb02a7948b911a8d255115425c", "name": "66409ecb02a7948b911a8d255115425c", "lat": 38.900608}, {"rental_uris": {"ios": "https://dc.lft.to/lastmile_qr_scan", "android": "https://dc.lft.to/lastmile_qr_scan"}, "fusion_lon": 0.0, "type": "electric_scooter", "is_reserved": 0, "lon": -77.014366, "is_disabled": 0, "fusion_lat": 0.0, "bike_id": "295af1da89f6d1c2953dfba7a18d72a6", "name": "295af1da89f6d1c2953dfba7a18d72a6", "lat": 38.912631833333336}, {"rental_uris": {"ios": "https://dc.lft.to/lastmile_qr_scan", "android": "https://dc.lft.to/lastmile_qr_scan"}, "fusion_lon": 0.0, "type": "electric_scooter", "is_reserved": 0, "lon": -77.03865233333333, "is_disabled": 0, "fusion_lat": 0.0, "bike_id": "9805d5abea30ae0ecb422b347c909cfb", "name": "9805d5abea30ae0ecb422b347c909cfb", "lat": 38.91247883333333}, {"rental_uris": {"ios": "https://dc.lft.to/lastmile_qr_scan", "android": "https://dc.lft.to/lastmile_qr_scan"}, "fusion_lon": 0.0, "type": "electric_scooter", "is_reserved": 0, "lon": -77.0295925, "is_disabled": 0, "fusion_lat": 0.0, "bike_id": "f15d1b6ab813700add7d1f19b80cab66", "name": "f15d1b6ab813700add7d1f19b80cab66", "lat": 38.92687633333333}, {"rental_uris": {"ios": "https://dc.lft.to/lastmile_qr_scan", "android": "https://dc.lft.to/lastmile_qr_scan"}, "fusion_lon": 0.0, "type": "electric_scooter", "is_reserved": 0, "lon": -77.020546, "is_disabled": 0, "fusion_lat": 0.0, "bike_id": "b94abaa0f7245500717f8ce5825865c9", "name": "b94abaa0f7245500717f8ce5825865c9", "lat": 38.9191225}, {"rental_uris": {"ios": "https://dc.lft.to/lastmile_qr_scan", "android": "https://dc.lft.to/lastmile_qr_scan"}, "fusion_lon": 0.0, "type": "electric_scooter", "is_reserved": 0, "lon": -76.9971575, "is_disabled": 0, "fusion_lat": 0.0, "bike_id": "da26bef7551a02977682e42359cdc1a7", "name": "da26bef7551a02977682e42359cdc1a7", "lat": 38.932259333333334}, {"rental_uris": {"ios": "https://dc.lft.to/lastmile_qr_scan", "android": "https://dc.lft.to/lastmile_qr_scan"}, "fusion_lon": 0.0, "type": "electric_scooter", "is_reserved": 0, "lon": -77.01870533333333, "is_disabled": 0, "fusion_lat": 0.0, "bike_id": "c0ab3051fa74da79e80caaceac0fb489", "name": "c0ab3051fa74da79e80caaceac0fb489", "lat": 38.951458}, {"rental_uris": {"ios": "https://dc.lft.to/lastmile_qr_scan", "android": "https://dc.lft.to/lastmile_qr_scan"}, "fusion_lon": 0.0, "type": "electric_scooter", "is_reserved": 0, "lon": -77.04758516666666, "is_disabled": 0, "fusion_lat": 0.0, "bike_id": "b4cd53c651dbc8f80a5d5b3c32a722b4", "name": "b4cd53c651dbc8f80a5d5b3c32a722b4", "lat": 38.917772}, {"rental_uris": {"ios": "https://dc.lft.to/lastmile_qr_scan", "android": "https://dc.lft.to/lastmile_qr_scan"}, "fusion_lon": 0.0, "type": "electric_scooter", "is_reserved": 0, "lon": -77.07276566666667, "is_disabled": 0, "fusion_lat": 0.0, "bike_id": "f2ccee213800cf40dfaf35db91212e1b", "name": "f2ccee213800cf40dfaf35db91212e1b", "lat": 38.930245666666664}, {"rental_uris": {"ios": "https://dc.lft.to/lastmile_qr_scan", "android": "https://dc.lft.to/lastmile_qr_scan"}, "fusion_lon": 0.0, "type": "electric_scooter", "is_reserved": 0, "lon": -77.03225433333333, "is_disabled": 0, "fusion_lat": 0.0, "bike_id": "9a3322173cb8b422447376b402eef08f", "name": "9a3322173cb8b422447376b402eef08f", "lat": 38.91927666666667}, {"rental_uris": {"ios": "https://dc.lft.to/lastmile_qr_scan", "android": "https://dc.lft.to/lastmile_qr_scan"}, "fusion_lon": 0.0, "type": "electric_scooter", "is_reserved": 0, "lon": -77.03806383333334, "is_disabled": 0, "fusion_lat": 0.0, "bike_id": "ead76dc494299443a9d453a49636f54b", "name": "ead76dc494299443a9d453a49636f54b", "lat": 38.91192983333333}, {"rental_uris": {"ios": "https://dc.lft.to/lastmile_qr_scan", "android": "https://dc.lft.to/lastmile_qr_scan"}, "fusion_lon": 0.0, "type": "electric_scooter", "is_reserved": 0, "lon": -77.00985383333334, "is_disabled": 0, "fusion_lat": 0.0, "bike_id": "8e260726d0b514a0272e3d4b3c4237df", "name": "8e260726d0b514a0272e3d4b3c4237df", "lat": 38.9037225}, {"rental_uris": {"ios": "https://dc.lft.to/lastmile_qr_scan", "android": "https://dc.lft.to/lastmile_qr_scan"}, "fusion_lon": 0.0, "type": "electric_scooter", "is_reserved": 0, "lon": -77.01999333333333, "is_disabled": 0, "fusion_lat": 0.0, "bike_id": "3d19112ea302acc8c08b29ac1db90ca2", "name": "3d19112ea302acc8c08b29ac1db90ca2", "lat": 38.91359083333333}, {"rental_uris": {"ios": "https://dc.lft.to/lastmile_qr_scan", "android": "https://dc.lft.to/lastmile_qr_scan"}, "fusion_lon": 0.0, "type": "electric_scooter", "is_reserved": 0, "lon": -77.02592916666667, "is_disabled": 0, "fusion_lat": 0.0, "bike_id": "9f6bfa3ac17e81817347171f9ade90b1", "name": "9f6bfa3ac17e81817347171f9ade90b1", "lat": 38.899610333333335}, {"rental_uris": {"ios": "https://dc.lft.to/lastmile_qr_scan", "android": "https://dc.lft.to/lastmile_qr_scan"}, "fusion_lon": 0.0, "type": "electric_scooter", "is_reserved": 0, "lon": -77.04812433333333, "is_disabled": 0, "fusion_lat": 0.0, "bike_id": "3e4d240fb8a3f34b771c1ac721d1f1d2", "name": "3e4d240fb8a3f34b771c1ac721d1f1d2", "lat": 38.902115333333334}, {"rental_uris": {"ios": "https://dc.lft.to/lastmile_qr_scan", "android": "https://dc.lft.to/lastmile_qr_scan"}, "fusion_lon": 0.0, "type": "electric_scooter", "is_reserved": 0, "lon": -76.99912583333334, "is_disabled": 0, "fusion_lat": 0.0, "bike_id": "b01aeb090f9c043479b1ba135825caf7", "name": "b01aeb090f9c043479b1ba135825caf7", "lat": 38.92096983333333}, {"rental_uris": {"ios": "https://dc.lft.to/lastmile_qr_scan", "android": "https://dc.lft.to/lastmile_qr_scan"}, "fusion_lon": 0.0, "type": "electric_scooter", "is_reserved": 0, "lon": -76.99616016666667, "is_disabled": 0, "fusion_lat": 0.0, "bike_id": "3c7632b3d19ddf2ee24b01cf45d00cb6", "name": "3c7632b3d19ddf2ee24b01cf45d00cb6", "lat": 38.89608883333333}, {"rental_uris": {"ios": "https://dc.lft.to/lastmile_qr_scan", "android": "https://dc.lft.to/lastmile_qr_scan"}, "fusion_lon": 0.0, "type": "electric_scooter", "is_reserved": 0, "lon": -77.02760466666666, "is_disabled": 0, "fusion_lat": 0.0, "bike_id": "0250995ed55d12c1628dbd553705375d", "name": "0250995ed55d12c1628dbd553705375d", "lat": 38.91044466666666}, {"rental_uris": {"ios": "https://dc.lft.to/lastmile_qr_scan", "android": "https://dc.lft.to/lastmile_qr_scan"}, "fusion_lon": 0.0, "type": "electric_scooter", "is_reserved": 0, "lon": -77.01506233333333, "is_disabled": 0, "fusion_lat": 0.0, "bike_id": "b887b16f616dbf18a3d51885772486a0", "name": "b887b16f616dbf18a3d51885772486a0", "lat": 38.89307016666667}, {"rental_uris": {"ios": "https://dc.lft.to/lastmile_qr_scan", "android": "https://dc.lft.to/lastmile_qr_scan"}, "fusion_lon": 0.0, "type": "electric_scooter", "is_reserved": 0, "lon": -77.0089485, "is_disabled": 0, "fusion_lat": 0.0, "bike_id": "da1f58bffbbb8f50a86b12d28b0d9ea7", "name": "da1f58bffbbb8f50a86b12d28b0d9ea7", "lat": 38.924773}, {"rental_uris": {"ios": "https://dc.lft.to/lastmile_qr_scan", "android": "https://dc.lft.to/lastmile_qr_scan"}, "fusion_lon": 0.0, "type": "electric_scooter", "is_reserved": 0, "lon": -77.0121455, "is_disabled": 0, "fusion_lat": 0.0, "bike_id": "5c50c4243b082a04fff0942e34855aed", "name": "5c50c4243b082a04fff0942e34855aed", "lat": 38.92114466666666}, {"rental_uris": {"ios": "https://dc.lft.to/lastmile_qr_scan", "android": "https://dc.lft.to/lastmile_qr_scan"}, "fusion_lon": 0.0, "type": "electric_scooter", "is_reserved": 0, "lon": -77.02026433333333, "is_disabled": 0, "fusion_lat": 0.0, "bike_id": "b885e92424a7dc116673f6cf64584207", "name": "b885e92424a7dc116673f6cf64584207", "lat": 38.926838000000004}, {"rental_uris": {"ios": "https://dc.lft.to/lastmile_qr_scan", "android": "https://dc.lft.to/lastmile_qr_scan"}, "fusion_lon": 0.0, "type": "electric_scooter", "is_reserved": 0, "lon": -77.01379216666666, "is_disabled": 0, "fusion_lat": 0.0, "bike_id": "54878e4664b051f93c402970fe6b6b03", "name": "54878e4664b051f93c402970fe6b6b03", "lat": 38.8871255}, {"rental_uris": {"ios": "https://dc.lft.to/lastmile_qr_scan", "android": "https://dc.lft.to/lastmile_qr_scan"}, "fusion_lon": 0.0, "type": "electric_scooter", "is_reserved": 0, "lon": -77.07240733333333, "is_disabled": 0, "fusion_lat": 0.0, "bike_id": "54baba1f94c244d8c26969c66a775556", "name": "54baba1f94c244d8c26969c66a775556", "lat": 38.93952933333333}, {"rental_uris": {"ios": "https://dc.lft.to/lastmile_qr_scan", "android": "https://dc.lft.to/lastmile_qr_scan"}, "fusion_lon": 0.0, "type": "electric_scooter", "is_reserved": 0, "lon": -77.04482683333333, "is_disabled": 0, "fusion_lat": 0.0, "bike_id": "a0675bb98e25ce1e40735244b40a395a", "name": "a0675bb98e25ce1e40735244b40a395a", "lat": 38.910638}, {"rental_uris": {"ios": "https://dc.lft.to/lastmile_qr_scan", "android": "https://dc.lft.to/lastmile_qr_scan"}, "fusion_lon": 0.0, "type": "electric_scooter", "is_reserved": 0, "lon": -77.04496066666667, "is_disabled": 0, "fusion_lat": 0.0, "bike_id": "3fc9bbad9a4eed0f8344f12b4c0e9d0d", "name": "3fc9bbad9a4eed0f8344f12b4c0e9d0d", "lat": 38.913597333333335}, {"rental_uris": {"ios": "https://dc.lft.to/lastmile_qr_scan", "android": "https://dc.lft.to/lastmile_qr_scan"}, "fusion_lon": 0.0, "type": "electric_bike", "is_reserved": 0, "lon": -76.91064533333333, "is_disabled": 0, "fusion_lat": 0.0, "bike_id": "07aa01df8f60a29ae6f297d326711c67", "name": "07aa01df8f60a29ae6f297d326711c67", "lat": 39.0107035}, {"rental_uris": {"ios": "https://dc.lft.to/lastmile_qr_scan", "android": "https://dc.lft.to/lastmile_qr_scan"}, "fusion_lon": 0.0, "type": "electric_scooter", "is_reserved": 0, "lon": -76.99621933333333, "is_disabled": 0, "fusion_lat": 0.0, "bike_id": "77f4a3a337e64b86fa4ee304b344ab34", "name": "77f4a3a337e64b86fa4ee304b344ab34", "lat": 38.88397116666667}, {"rental_uris": {"ios": "https://dc.lft.to/lastmile_qr_scan", "android": "https://dc.lft.to/lastmile_qr_scan"}, "fusion_lon": 0.0, "type": "electric_scooter", "is_reserved": 0, "lon": -77.05318933333334, "is_disabled": 0, "fusion_lat": 0.0, "bike_id": "8277fb526de4ae4a3f804a70db2c136e", "name": "8277fb526de4ae4a3f804a70db2c136e", "lat": 38.90650616666667}, {"rental_uris": {"ios": "https://dc.lft.to/lastmile_qr_scan", "android": "https://dc.lft.to/lastmile_qr_scan"}, "fusion_lon": 0.0, "type": "electric_bike", "is_reserved": 0, "lon": -77.09687383333333, "is_disabled": 0, "fusion_lat": 0.0, "bike_id": "7fd4e2c7470c5974bf2eb0d324ef1645", "name": "7fd4e2c7470c5974bf2eb0d324ef1645", "lat": 38.8073745}, {"rental_uris": {"ios": "https://dc.lft.to/lastmile_qr_scan", "android": "https://dc.lft.to/lastmile_qr_scan"}, "fusion_lon": 0.0, "type": "electric_scooter", "is_reserved": 0, "lon": -77.0434755, "is_disabled": 0, "fusion_lat": 0.0, "bike_id": "66ed26c2aa195ef559dae295fb831360", "name": "66ed26c2aa195ef559dae295fb831360", "lat": 38.921665833333336}, {"rental_uris": {"ios": "https://dc.lft.to/lastmile_qr_scan", "android": "https://dc.lft.to/lastmile_qr_scan"}, "fusion_lon": 0.0, "type": "electric_bike", "is_reserved": 0, "lon": -77.23393483333334, "is_disabled": 0, "fusion_lat": 0.0, "bike_id": "6dbdced44f956f6b0ce1c7f2fa3c269b", "name": "6dbdced44f956f6b0ce1c7f2fa3c269b", "lat": 38.87171216666667}, {"rental_uris": {"ios": "https://dc.lft.to/lastmile_qr_scan", "android": "https://dc.lft.to/lastmile_qr_scan"}, "fusion_lon": 0.0, "type": "electric_bike", "is_reserved": 0, "lon": -77.02728483333334, "is_disabled": 0, "fusion_lat": 0.0, "bike_id": "63991f4e5db5cee42c9f6e1109f2fc2f", "name": "63991f4e5db5cee42c9f6e1109f2fc2f", "lat": 38.971417},