{"data": {"bikes": [{"rental_uris": {"ios": "https://dc.lft.to/lastmile_qr_scan", "android": "https://dc.lft.to/lastmile_qr_scan"}, "type": "electric_scooter", "name": "59505298d64e2bead0b3da80d7b07ed8", "is_reserved": 0, "lon": -77.0269655, "is_disabled": 0, "fusion_lat": 0.0, "lat": 38.92330616666667, "bike_id": "59505298d64e2bead0b3da80d7b07ed8", "fusion_lon": 0.0}, {"rental_uris": {"ios": "https://dc.lft.to/lastmile_qr_scan", "android": "https://dc.lft.to/lastmile_qr_scan"}, "type": "electric_scooter", "name": "efa74969803f0e2aa78db4254414e8ec", "is_reserved": 0, "lon": -77.00198383333333, "is_disabled": 0, "fusion_lat": 0.0, "lat": 38.902436, "bike_id": "efa74969803f0e2aa78db4254414e8ec", "fusion_lon": 0.0}, {"rental_uris": {"ios": "https://dc.lft.to/lastmile_qr_scan", "android": "https://dc.lft.to/lastmile_qr_scan"}, "type": "electric_scooter", "name": "20a99d8b120142dc48f0fbe68a2bbceb", "is_reserved": 0, "lon": -77.05042216666666, "is_disabled": 0, "fusion_lat": 0.0, "lat": 38.9005675, "bike_id": "20a99d8b120142dc48f0fbe68a2bbceb", "fusion_lon": 0.0}, {"rental_uris": {"ios": "https://dc.lft.to/lastmile_qr_scan", "android": "https://dc.lft.to/lastmile_qr_scan"}, "type": "electric_scooter", "name": "c6269a62edca28db2b0a2e0d0236fee0", "is_reserved": 0, "lon": -77.04335266666666, "is_disabled": 0, "fusion_lat": 0.0, "lat": 38.9080045, "bike_id": "c6269a62edca28db2b0a2e0d0236fee0", "fusion_lon": 0.0}, {"rental_uris": {"ios": "https://dc.lft.to/lastmile_qr_scan", "android": "https://dc.lft.to/lastmile_qr_scan"}, "type": "electric_scooter", "name": "2ee4e7e95612d23c2b70209e9de1ad7e", "is_reserved": 0, "lon": -76.97937833333333, "is_disabled": 0, "fusion_lat": 0.0, "lat": 38.90661583333333, "bike_id": "2ee4e7e95612d23c2b70209e9de1ad7e", "fusion_lon": 0.0}, {"rental_uris": {"ios": "https://dc.lft.to/lastmile_qr_scan", "android": "https://dc.lft.to/lastmile_qr_scan"}, "type": "electric_scooter", "name": "6a22006301dc33e02d4624c714427b9c", "is_reserved": 0, "lon": -77.03660333333333, "is_disabled": 0, "fusion_lat": 0.0, "lat": 38.92288833333333, "bike_id": "6a22006301dc33e02d4624c714427b9c", "fusion_lon": 0.0}, {"rental_uris": {"ios": "https://dc.lft.to/lastmile_qr_scan", "android": "https://dc.lft.to/lastmile_qr_scan"}, "type": "electric_scooter", "name": "852ac9b3b111f5abf77bb2a96f86cac5", "is_reserved": 0, "lon": -77.022106, "is_disabled": 0, "fusion_lat": 0.0, "lat": 38.89507416666667, "bike_id": "852ac9b3b111f5abf77bb2a96f86cac5", "fusion_lon": 0.0}, {"rental_uris": {"ios": "https://dc.lft.to/lastmile_qr_scan", "android": "https://dc.lft.to/lastmile_qr_scan"}, "type": "electric_scooter", "name": "39862f7b8bdac5acae7a506dedc609d7", "is_reserved": 0, "lon": -77.009197, "is_disabled": 0, "fusion_lat": 0.0, "lat": 38.898903, "bike_id": "39862f7b8bdac5acae7a506dedc609d7", "fusion_lon": 0.0}, {"rental_uris": {"ios": "https://dc.lft.to/lastmile_qr_scan", "android": "https://dc.lft.to/lastmile_qr_scan"}, "type": "electric_scooter", "name": "1c9369f3b91963c9c3035f852b7f682f", "is_reserved": 0, "lon": -77.00757016666667, "is_disabled": 0, "fusion_lat": 0.0, "lat": 38.92527316666666, "bike_id": "1c9369f3b91963c9c3035f852b7f682f", "fusion_lon": 0.0}, {"rental_uris": {"ios": "https://dc.lft.to/lastmile_qr_scan", "android": "https://dc.lft.to/lastmile_qr_scan"}, "type": "electric_bike", "name": "bc657c768d7d3f4805b8974d0e9adb24", "is_reserved": 0, "lon": -77.00136716666667, "is_disabled": 0, "fusion_lat": 0.0, "lat": 38.99504433333333, "bike_id": "bc657c768d7d3f4805b8974d0e9adb24", "fusion_lon": 0.0}, {"rental_uris": {"ios": "https://dc.lft.to/lastmile_qr_scan", "android": "https://dc.lft.to/lastmile_qr_scan"}, "type": "electric_scooter", "name": "5e4119ec592315c8eaf288e0aa6bf6ee", "is_reserved": 0, "lon": -77.06476, "is_disabled": 0, "fusion_lat": 0.0, "lat": 38.91024383333333, "bike_id": "5e4119ec592315c8eaf288e0aa6bf6ee", "fusion_lon": 0.0}, {"rental_uris": {"ios": "https://dc.lft.to/lastmile_qr_scan", "android": "https://dc.lft.to/lastmile_qr_scan"}, "type": "electric_scooter", "name": "a8c7415d0caa1c388928d4c8ca2b6f6d", "is_reserved": 0, "lon": -77.05218, "is_disabled": 0, "fusion_lat": 0.0, "lat": 38.90013033333334, "bike_id": "a8c7415d0caa1c388928d4c8ca2b6f6d", "fusion_lon": 0.0}, {"rental_uris": {"ios": "https://dc.lft.to/lastmile_qr_scan", "android": "https://dc.lft.to/lastmile_qr_scan"}, "type": "electric_scooter", "name": "a9cb42ff33d00d62a76a2f62eb90538b", "is_reserved": 0, "lon": -77.00409283333333, "is_disabled": 0, "fusion_lat": 0.0, "lat": 38.905569666666665, "bike_id": "a9cb42ff33d00d62a76a2f62eb90538b", "fusion_lon": 0.0}, {"rental_uris": {"ios": "https://dc.lft.to/lastmile_qr_scan", "android": "https://dc.lft.to/lastmile_qr_scan"}, "type": "electric_scooter", "name": "3f4cbed40077a99a8e406807c2277d5a", "is_reserved": 0, "lon": -77.03540766666667, "is_disabled": 0, "fusion_lat": 0.0, "lat": 38.904667833333335, "bike_id": "3f4cbed40077a99a8e406807c2277d5a", "fusion_lon": 0.0}, {"rental_uris": {"ios": "https://dc.lft.to/lastmile_qr_scan", "android": "https://dc.lft.to/lastmile_qr_scan"}, "type": "electric_scooter", "name": "bae5c45593f8be0a0e55bd8d2f573c07", "is_reserved": 0, "lon": -77.010867, "is_disabled": 0, "fusion_lat": 0.0, "lat": 38.90332816666667, "bike_id": "bae5c45593f8be0a0e55bd8d2f573c07", "fusion_lon": 0.0}, {"rental_uris": {"ios": "https://dc.lft.to/lastmile_qr_scan", "android": "https://dc.lft.to/lastmile_qr_scan"}, "type": "electric_scooter", "name": "bf038d2e40edf6be7b0d48a241453839", "is_reserved": 0, "lon": -77.05602433333334, "is_disabled": 0, "fusion_lat": 0.0, "lat": 38.9370045, "bike_id": "bf038d2e40edf6be7b0d48a241453839", "fusion_lon": 0.0}, {"rental_uris": {"ios": "https://dc.lft.to/lastmile_qr_scan", "android": "https://dc.lft.to/lastmile_qr_scan"}, "type": "electric_scooter", "name": "7c4d1db97407a2946555fe168154288e", "is_reserved": 0, "lon": -77.036625, "is_disabled": 0, "fusion_lat": 0.0, "lat": 38.91761483333333, "bike_id": "7c4d1db97407a2946555fe168154288e", "fusion_lon": 0.0}, {"rental_uris": {"ios": "https://dc.lft.to/lastmile_qr_scan", "android": "https://dc.lft.to/lastmile_qr_scan"}, "type": "electric_scooter", "name": "c3439009eba40a3a556634053e408856", "is_reserved": 0, "lon": -77.0075915, "is_disabled": 0, "fusion_lat": 0.0, "lat": 38.92677466666667, "bike_id": "c3439009eba40a3a556634053e408856", "fusion_lon": 0.0}, {"rental_uris": {"ios": "https://dc.lft.to/lastmile_qr_scan", "android": "https://dc.lft.to/lastmile_qr_scan"}, "type": "electric_scooter", "name": "9ca0dbb03ff2b764eb39b4899a7193da", "is_reserved": 0, "lon": -76.9941705, "is_disabled": 0, "fusion_lat": 0.0, "lat": 38.9210025, "bike_id": "9ca0dbb03ff2b764eb39b4899a7193da", "fusion_lon": 0.0}, {"rental_uris": {"ios": "https://dc.lft.to/lastmile_qr_scan", "android": "https://dc.lft.to/lastmile_qr_scan"}, "type": "electric_bike", "name": "777246e94f3614d9b9fa9b9d0bee58a8", "is_reserved": 0, "lon": -77.00733716666667, "is_disabled": 0, "fusion_lat": 0.0, "lat": 38.89794216666667, "bike_id": "777246e94f3614d9b9fa9b9d0bee58a8", "fusion_lon": 0.0}, {"rental_uris": {"ios": "https://dc.lft.to/lastmile_qr_scan", "android": "https://dc.lft.to/lastmile_qr_scan"}, "type": "electric_scooter", "name": "bec5943a5f73ad9c614d2ff1f1a6a7f7", "is_reserved": 0, "lon": -77.032647, "is_disabled": 0, "fusion_lat": 0.0, "lat": 38.92978633333333, "bike_id": "bec5943a5f73ad9c614d2ff1f1a6a7f7", "fusion_lon": 0.0}, {"rental_uris": {"ios": "https://dc.lft.to/lastmile_qr_scan", "android": "https://dc.lft.to/lastmile_qr_scan"}, "type": "electric_scooter", "name": "2d32221130a0983d49d7c94c8a37e7ef", "is_reserved": 0, "lon": -77.03844216666667, "is_disabled": 0, "fusion_lat": 0.0, "lat": 38.910774, "bike_id": "2d32221130a0983d49d7c94c8a37e7ef", "fusion_lon": 0.0}, {"rental_uris": {"ios": "https://dc.lft.to/lastmile_qr_scan", "android": "https://dc.lft.to/lastmile_qr_scan"}, "type": "electric_scooter", "name": "587a65ed5aee8ea75841b477e0e291df", "is_reserved": 0, "lon": -77.05024516666667, "is_disabled": 0, "fusion_lat": 0.0, "lat": 38.923562833333335, "bike_id": "587a65ed5aee8ea75841b477e0e291df", "fusion_lon": 0.0}, {"rental_uris": {"ios": "https://dc.lft.to/lastmile_qr_scan", "android": "https://dc.lft.to/lastmile_qr_scan"}, "type": "electric_scooter", "name": "520b9143a1ec2e6449fc204b90743bc6", "is_reserved": 0, "lon": -77.02415683333334, "is_disabled": 0, "fusion_lat": 0.0, "lat": 38.909576666666666, "bike_id": "520b9143a1ec2e6449fc204b90743bc6", "fusion_lon": 0.0}, {"rental_uris": {"ios": "https://dc.lft.to/lastmile_qr_scan", "android": "https://dc.lft.to/lastmile_qr_scan"}, "type": "electric_scooter", "name": "597d01c7d83b274dd34196fad00b88ab", "is_reserved": 0, "lon": -77.01766983333333, "is_disabled": 0, "fusion_lat": 0.0, "lat": 38.883263666666664, "bike_id": "597d01c7d83b274dd34196fad00b88ab", "fusion_lon": 0.0}, {"rental_uris": {"ios": "https://dc.lft.to/lastmile_qr_scan", "android": "https://dc.lft.to/lastmile_qr_scan"}, "type": "electric_scooter", "name": "729a3be30a3bb6cd58337df42e670044", "is_reserved": 0, "lon": -77.00709633333334, "is_disabled": 0, "fusion_lat": 0.0, "lat": 38.88489116666667, "bike_id": "729a3be30a3bb6cd58337df42e670044", "fusion_lon": 0.0}, {"rental_uris": {"ios": "https://dc.lft.to/lastmile_qr_scan", "android": "https://dc.lft.to/lastmile_qr_scan"}, "type": "electric_scooter", "name": "c31254763d4cb7fd0c734b7c18619c04", "is_reserved": 0, "lon": -77.04489833333334, "is_disabled": 0, "fusion_lat": 0.0, "lat": 38.893373833333335, "bike_id": "c31254763d4cb7fd0c734b7c18619c04", "fusion_lon": 0.0}, {"rental_uris": {"ios": "https://dc.lft.to/lastmile_qr_scan", "android": "https://dc.lft.to/lastmile_qr_scan"}, "type": "electric_scooter", "name": "0020028ce979de8b29567b48c40c116b", "is_reserved": 0, "lon": -77.03661133333334, "is_disabled": 0, "fusion_lat": 0.0, "lat": 38.92287366666667, "bike_id": "0020028ce979de8b29567b48c40c116b", "fusion_lon": 0.0}, {"rental_uris": {"ios": "https://dc.lft.to/lastmile_qr_scan", "android": "https://dc.lft.to/lastmile_qr_scan"}, "type": "electric_scooter", "name": "d5b6da4f74fce3e72a695354d9bd6de5", "is_reserved": 0, "lon": -77.04408533333333, "is_disabled": 0, "fusion_lat": 0.0, "lat": 38.929523833333334, "bike_id": "d5b6da4f74fce3e72a695354d9bd6de5", "fusion_lon": 0.0}, {"rental_uris": {"ios": "https://dc.lft.to/lastmile_qr_scan", "android": "https://dc.lft.to/lastmile_qr_scan"}, "type": "electric_scooter", "name": "82cfa282d3ec6dae648a7e1a83142e68", "is_reserved": 0, "lon": -77.05324616666667, "is_disabled": 0, "fusion_lat": 0.0, "lat": 38.90265983333333, "bike_id": "82cfa282d3ec6dae648a7e1a83142e68", "fusion_lon": 0.0}, {"rental_uris": {"ios": "https://dc.lft.to/lastmile_qr_scan", "android": "https://dc.lft.to/lastmile_qr_scan"}, "type": "electric_scooter", "name": "cb6022c69f758bbf69a23df44ec6d988", "is_reserved": 0, "lon": -77.03818666666666, "is_disabled": 0, "fusion_lat": 0.0, "lat": 38.915557, "bike_id": "cb6022c69f758bbf69a23df44ec6d988", "fusion_lon": 0.0}, {"rental_uris": {"ios": "https://dc.lft.to/lastmile_qr_scan", "android": "https://dc.lft.to/lastmile_qr_scan"}, "type": "electric_bike", "name": "b271c435ea6687fd972db6be853db8f1", "is_reserved": 0, "lon": -77.07014866666667, "is_disabled": 0, "fusion_lat": 0.0, "lat": 38.84113033333333, "bike_id": "b271c435ea6687fd972db6be853db8f1", "fusion_lon": 0.0}, {"rental_uris": {"ios": "https://dc.lft.to/lastmile_qr_scan", "android": "https://dc.lft.to/lastmile_qr_scan"}, "type": "electric_scooter", "name": "efab305dfc0ea20aaa1cb63c88b610e3", "is_reserved": 0, "lon": -76.96563566666667, "is_disabled": 0, "fusion_lat": 0.0, "lat": 38.8761005, "bike_id": "efab305dfc0ea20aaa1cb63c88b610e3", "fusion_lon": 0.0}, {"rental_uris": {"ios": "https://dc.lft.to/lastmile_qr_scan", "android": "https://dc.lft.to/lastmile_qr_scan"}, "type": "electric_scooter", "name": "854c504cb9bafc2d58600b54febe2bdb", "is_reserved": 0, "lon": -77.02408416666667, "is_disabled": 0, "fusion_lat": 0.0, "lat": 38.909554666666665, "bike_id": "854c504cb9bafc2d58600b54febe2bdb", "fusion_lon": 0.0}, {"rental_uris": {"ios": "https://dc.lft.to/lastmile_qr_scan", "android": "https://dc.lft.to/lastmile_qr_scan"}, "type": "electric_scooter", "name": "4ddf9060ef4a3a56347ff801a58a0de8", "is_reserved": 0, "lon": -77.06607583333333, "is_disabled": 0, "fusion_lat": 0.0, "lat": 38.905251666666665, "bike_id": "4ddf9060ef4a3a56347ff801a58a0de8", "fusion_lon": 0.0}, {"rental_uris": {"ios": "https://dc.lft.to/lastmile_qr_scan", "android": "https://dc.lft.to/lastmile_qr_scan"}, "type": "electric_scooter", "name": "3453871b223c2e67f291a0c850a395c2", "is_reserved": 0, "lon": -76.943854, "is_disabled": 0, "fusion_lat": 0.0, "lat": 38.891172, "bike_id": "3453871b223c2e67f291a0c850a395c2", "fusion_lon": 0.0}, {"rental_uris": {"ios": "https://dc.lft.to/lastmile_qr_scan", "android": "https://dc.lft.to/lastmile_qr_scan"}, "type": "electric_scooter", "name": "cf4489b6eac5c118680dfa17399325b9", "is_reserved": 0, "lon": -77.0532695, "is_disabled": 0, "fusion_lat": 0.0, "lat": 38.9045225, "bike_id": "cf4489b6eac5c118680dfa17399325b9", "fusion_lon": 0.0}, {"rental_uris": {"ios": "https://dc.lft.to/lastmile_qr_scan", "android": "https://dc.lft.to/lastmile_qr_scan"}, "type": "electric_scooter", "name": "7da50095f3ffd344783fea668836a9d7", "is_reserved": 0, "lon": -77.04046566666666, "is_disabled": 0, "fusion_lat": 0.0, "lat": 38.930132666666665, "bike_id": "7da50095f3ffd344783fea668836a9d7", "fusion_lon": 0.0}, {"rental_uris": {"ios": "https://dc.lft.to/lastmile_qr_scan", "android": "https://dc.lft.to/lastmile_qr_scan"}, "type": "electric_scooter", "name": "708e0c16e58b7ee26e6a311ba2ca6863", "is_reserved": 0, "lon": -77.048736, "is_disabled": 0, "fusion_lat": 0.0, "lat": 38.910251333333335, "bike_id": "708e0c16e58b7ee26e6a311ba2ca6863", "fusion_lon": 0.0}, {"rental_uris": {"ios": "https://dc.lft.to/lastmile_qr_scan", "android": "https://dc.lft.to/lastmile_qr_scan"}, "type": "electric_scooter", "name": "4079894bfdfa65845e23fac9f952e8e9", "is_reserved": 0, "lon": -77.03465933333334, "is_disabled": 0, "fusion_lat": 0.0, "lat": 38.90725883333333, "bike_id": "4079894bfdfa65845e23fac9f952e8e9", "fusion_lon": 0.0}, {"rental_uris": {"ios": "https://dc.lft.to/lastmile_qr_scan", "android": "https://dc.lft.to/lastmile_qr_scan"}, "type": "electric_scooter", "name": "f58a4f9a14cfcf2c6d900a53b5c14fde", "is_reserved": 0, "lon": -77.02285516666667, "is_disabled": 0, "fusion_lat": 0.0, "lat": 38.916839333333336, "bike_id": "f58a4f9a14cfcf2c6d900a53b5c14fde", "fusion_lon": 0.0}, {"rental_uris": {"ios": "https://dc.lft.to/lastmile_qr_scan", "android": "https://dc.lft.to/lastmile_qr_scan"}, "type": "electric_scooter", "name": "cf9bfffd65920ad9ffcfe98f8753e003", "is_reserved": 0, "lon": -77.02549733333333, "is_disabled": 0, "fusion_lat": 0.0, "lat": 38.951737666666666, "bike_id": "cf9bfffd65920ad9ffcfe98f8753e003", "fusion_lon": 0.0}, {"rental_uris": {"ios": "https://dc.lft.to/lastmile_qr_scan", "android": "https://dc.lft.to/lastmile_qr_scan"}, "type": "electric_scooter", "name": "45a98e26713910125e8f5ccae9b56042", "is_reserved": 0, "lon": -77.02220683333333, "is_disabled": 0, "fusion_lat": 0.0, "lat": 38.924712166666666, "bike_id": "45a98e26713910125e8f5ccae9b56042", "fusion_lon": 0.0}, {"rental_uris": {"ios": "https://dc.lft.to/lastmile_qr_scan", "android": "https://dc.lft.to/lastmile_qr_scan"}, "type": "electric_scooter", "name": "34271490a706d1b0daf4820a8e0f4791", "is_reserved": 0, "lon": -77.04136033333333, "is_disabled": 0, "fusion_lat": 0.0, "lat": 38.9054605, "bike_id": "34271490a706d1b0daf4820a8e0f4791", "fusion_lon": 0.0}, {"rental_uris": {"ios": "https://dc.lft.to/lastmile_qr_scan", "android": "https://dc.lft.to/lastmile_qr_scan"}, "type": "electric_scooter", "name": "d485dcde4672fc99f1cc913c81d03efc", "is_reserved": 0, "lon": -77.04507133333334, "is_disabled": 0, "fusion_lat": 0.0, "lat": 38.91409933333333, "bike_id": "d485dcde4672fc99f1cc913c81d03efc", "fusion_lon": 0.0}, {"rental_uris": {"ios": "https://dc.lft.to/lastmile_qr_scan", "android": "https://dc.lft.to/lastmile_qr_scan"}, "type": "electric_scooter", "name": "6163b89cd339817e823f311df324293b", "is_reserved": 0, "lon": -76.9950655, "is_disabled": 0, "fusion_lat": 0.0, "lat": 38.903306666666666, "bike_id": "6163b89cd339817e823f311df324293b", "fusion_lon": 0.0}, {"rental_uris": {"ios": "https://dc.lft.to/lastmile_qr_scan", "android": "https://dc.lft.to/lastmile_qr_scan"}, "type": "electric_scooter", "name": "ac860a053f9bc5e6dc5b6291d53f62c0", "is_reserved": 0, "lon": -77.03865333333333, "is_disabled": 0, "fusion_lat": 0.0, "lat": 38.91112566666666, "bike_id": "ac860a053f9bc5e6dc5b6291d53f62c0", "fusion_lon": 0.0}, {"rental_uris": {"ios": "https://dc.lft.to/lastmile_qr_scan", "android": "https://dc.lft.to/lastmile_qr_scan"}, "type": "electric_scooter", "name": "1171251b44973abc7e7a775bd2108760", "is_reserved": 0, "lon": -77.043705, "is_disabled": 0, "fusion_lat": 0.0, "lat": 38.91123266666666, "bike_id": "1171251b44973abc7e7a775bd2108760", "fusion_lon": 0.0}, {"rental_uris": {"ios": "https://dc.lft.to/lastmile_qr_scan", "android": "https://dc.lft.to/lastmile_qr_scan"}, "type": "electric_scooter", "name": "4e441a432c95bf69787cb5e9eb884923", "is_reserved": 0, "lon": -77.0278285, "is_disabled": 0, "fusion_lat": 0.0, "lat": 38.927661, "bike_id": "4e441a432c95bf69787cb5e9eb884923", "fusion_lon": 0.0}, {"rental_uris": {"ios": "https://dc.lft.to/lastmile_qr_scan", "android": "https://dc.lft.to/lastmile_qr_scan"}, "type": "electric_scooter", "name": "8df17c6d0002bd0811fef5acd9a6c767", "is_reserved": 0, "lon": -77.0312395, "is_disabled": 0, "fusion_lat": 0.0, "lat": 38.91802166666667, "bike_id": "8df17c6d0002bd0811fef5acd9a6c767", "fusion_lon": 0.0}, {"rental_uris": {"ios": "https://dc.lft.to/lastmile_qr_scan", "android": "https://dc.lft.to/lastmile_qr_scan"}, "type": "electric_scooter", "name": "5d0d8fb122356f445a80b5597cfe667f", "is_reserved": 0, "lon": -77.045524, "is_disabled": 0, "fusion_lat": 0.0, "lat": 38.909802666666664, "bike_id": "5d0d8fb122356f445a80b5597cfe667f", "fusion_lon": 0.0}, {"rental_uris": {"ios": "https://dc.lft.to/lastmile_qr_scan", "android": "https://dc.lft.to/lastmile_qr_scan"}, "type": "electric_scooter", "name": "ea0fb44ada4288164579dfa8a617a2f0", "is_reserved": 0, "lon": -77.03344083333333, "is_disabled": 0, "fusion_lat": 0.0, "lat": 38.89746383333333, "bike_id": "ea0fb44ada4288164579dfa8a617a2f0", "fusion_lon": 0.0}, {"rental_uris": {"ios": "https://dc.lft.to/lastmile_qr_scan", "android": "https://dc.lft.to/lastmile_qr_scan"}, "type": "electric_bike", "name": "d90cd40fa34cccfec8a06fbcb83ab769", "is_reserved": 0, "lon": -76.95741566666666, "is_disabled": 0, "fusion_lat": 0.0, "lat": 38.88854633333333, "bike_id": "d90cd40fa34cccfec8a06fbcb83ab769", "fusion_lon": 0.0}, {"rental_uris": {"ios": "https://dc.lft.to/lastmile_qr_scan", "android": "https://dc.lft.to/lastmile_qr_scan"}, "type": "electric_scooter", "name": "43f58bcf3d0c7b4374b878255c255f13", "is_reserved": 0, "lon": -77.03955466666666, "is_disabled": 0, "fusion_lat": 0.0, "lat": 38.8925175, "bike_id": "43f58bcf3d0c7b4374b878255c255f13", "fusion_lon": 0.0}, {"rental_uris": {"ios": "https://dc.lft.to/lastmile_qr_scan", "android": "https://dc.lft.to/lastmile_qr_scan"}, "type": "electric_scooter", "name": "0460f32e3069e69abec49dc0a7d49786", "is_reserved": 0, "lon": -77.06783366666667, "is_disabled": 0, "fusion_lat": 0.0, "lat": 38.90883133333333, "bike_id": "0460f32e3069e69abec49dc0a7d49786", "fusion_lon": 0.0}, {"rental_uris": {"ios": "https://dc.lft.to/lastmile_qr_scan", "android": "https://dc.lft.to/lastmile_qr_scan"}, "type": "electric_scooter", "name": "6d33978e2b22030fe7da90586bec7d12", "is_reserved": 0, "lon": -77.029826, "is_disabled": 0, "fusion_lat": 0.0, "lat": 38.923719166666665, "bike_id": "6d33978e2b22030fe7da90586bec7d12", "fusion_lon": 0.0}, {"rental_uris": {"ios": "https://dc.lft.to/lastmile_qr_scan", "android": "https://dc.lft.to/lastmile_qr_scan"}, "type": "electric_scooter", "name": "484e99c9194573795726e7123b509d24", "is_reserved": 0, "lon": -77.03756783333333, "is_disabled": 0, "fusion_lat": 0.0, "lat": 38.931954, "bike_id": "484e99c9194573795726e7123b509d24", "fusion_lon": 0.0}, {"rental_uris": {"ios": "https://dc.lft.to/lastmile_qr_scan", "android": "https://dc.lft.to/lastmile_qr_scan"}, "type": "electric_scooter", "name": "dc920fb73cafd9fb7248af67d1710efb", "is_reserved": 0, "lon": -76.9471915, "is_disabled": 0, "fusion_lat": 0.0, "lat": 38.89080333333333, "bike_id": "dc920fb73cafd9fb7248af67d1710efb", "fusion_lon": 0.0}, {"rental_uris": {"ios": "https://dc.lft.to/lastmile_qr_scan", "android": "https://dc.lft.to/lastmile_qr_scan"}, "type": "electric_scooter", "name": "ca8b843f93ff086dfc19ce8510d27f60", "is_reserved": 0, "lon": -77.042235, "is_disabled": 0, "fusion_lat": 0.0, "lat": 38.9111755, "bike_id": "ca8b843f93ff086dfc19ce8510d27f60", "fusion_lon": 0.0}, {"rental_uris": {"ios": "https://dc.lft.to/lastmile_qr_scan", "android": "https://dc.lft.to/lastmile_qr_scan"}, "type": "electric_bike", "name": "3175bfb76a9ef4ff73d160ccd7fef275", "is_reserved": 0, "lon": -77.022128, "is_disabled": 0, "fusion_lat": 0.0, "lat": 38.896262, "bike_id": "3175bfb76a9ef4ff73d160ccd7fef275", "fusion_lon": 0.0}, {"rental_uris": {"ios": "https://dc.lft.to/lastmile_qr_scan", "android": "https://dc.lft.to/lastmile_qr_scan"}, "type": "electric_scooter", "name": "36d2f5b015b8d7f4130da242a71a6d7a", "is_reserved": 0, "lon": -77.031212, "is_disabled": 0, "fusion_lat": 0.0, "lat": 38.91917466666666, "bike_id": "36d2f5b015b8d7f4130da242a71a6d7a", "fusion_lon": 0.0}, {"rental_uris": {"ios": "https://dc.lft.to/lastmile_qr_scan", "android": "https://dc.lft.to/lastmile_qr_scan"}, "type": "electric_scooter", "name": "848a0dc41798e4e952b1e6352387f827", "is_reserved": 0, "lon": -77.00609083333333, "is_disabled": 0, "fusion_lat": 0.0, "lat": 38.879724333333336, "bike_id": "848a0dc41798e4e952b1e6352387f827", "fusion_lon": 0.0}, {"rental_uris": {"ios": "https://dc.lft.to/lastmile_qr_scan", "android": "https://dc.lft.to/lastmile_qr_scan"}, "type": "electric_scooter", "name": "1bd75b6fdaf1fb212b322e63cd626d1e", "is_reserved": 0, "lon": -76.95286866666666, "is_disabled": 0, "fusion_lat": 0.0, "lat": 38.885210666666666, "bike_id": "1bd75b6fdaf1fb212b322e63cd626d1e", "fusion_lon": 0.0}, {"rental_uris": {"ios": "https://dc.lft.to/lastmile_qr_scan", "android": "https://dc.lft.to/lastmile_qr_scan"}, "type": "electric_scooter", "name": "cda9839fde8866c47df5d5e2815225d7", "is_reserved": 0, "lon": -77.0325085, "is_disabled": 0, "fusion_lat": 0.0, "lat": 38.919879333333334, "bike_id": "cda9839fde8866c47df5d5e2815225d7", "fusion_lon": 0.0}, {"rental_uris": {"ios": "https://dc.lft.to/lastmile_qr_scan", "android": "https://dc.lft.to/lastmile_qr_scan"}, "type": "electric_scooter", "name": "c53b0f02d3f94e250a61264830f85013", "is_reserved": 0, "lon": -77.02551283333334, "is_disabled": 0, "fusion_lat": 0.0, "lat": 38.951723666666666, "bike_id": "c53b0f02d3f94e250a61264830f85013", "fusion_lon": 0.0}, {"rental_uris": {"ios": "https://dc.lft.to/lastmile_qr_scan", "android": "https://dc.lft.to/lastmile_qr_scan"}, "type": "electric_scooter", "name": "ef6c06430dc742e63983313fa430ee37", "is_reserved": 0, "lon": -76.94073783333333, "is_disabled": 0, "fusion_lat": 0.0, "lat": 38.885838666666665, "bike_id": "ef6c06430dc742e63983313fa430ee37", "fusion_lon": 0.0}, {"rental_uris": {"ios": "https://dc.lft.to/lastmile_qr_scan", "android": "https://dc.lft.to/lastmile_qr_scan"}, "type": "electric_bike", "name": "eb207fe986b0c3a185aaafa15ce21ccf", "is_reserved": 0, "lon": -77.02177083333333, "is_disabled": 0, "fusion_lat": 0.0, "lat": 38.898973833333336, "bike_id": "eb207fe986b0c3a185aaafa15ce21ccf", "fusion_lon": 0.0}, {"rental_uris": {"ios": "https://dc.lft.to/lastmile_qr_scan", "android": "https://dc.lft.to/lastmile_qr_scan"}, "type": "electric_scooter", "name": "49e61c7fc2b3b55b7b3e2ea95e7ef9be", "is_reserved": 0, "lon": -77.0194935, "is_disabled": 0, "fusion_lat": 0.0, "lat": 38.92416383333333, "bike_id": "49e61c7fc2b3b55b7b3e2ea95e7ef9be", "fusion_lon": 0.0}, {"rental_uris": {"ios": "https://dc.lft.to/lastmile_qr_scan", "android": "https://dc.lft.to/lastmile_qr_scan"}, "type": "electric_scooter", "name": "998452b37d9175aac071096851d34c64", "is_reserved": 0, "lon": -76.99514033333334, "is_disabled": 0, "fusion_lat": 0.0, "lat": 38.909776666666666, "bike_id": "998452b37d9175aac071096851d34c64", "fusion_lon": 0.0}, {"rental_uris": {"ios": "https://dc.lft.to/lastmile_qr_scan", "android": "https://dc.lft.to/lastmile_qr_scan"}, "type": "electric_scooter", "name": "f3ba69855a9709410f6be0570ab94a46", "is_reserved": 0, "lon": -77.01741433333333, "is_disabled": 0, "fusion_lat": 0.0, "lat": 38.902627333333335, "bike_id": "f3ba69855a9709410f6be0570ab94a46", "fusion_lon": 0.0}, {"rental_uris": {"ios": "https://dc.lft.to/lastmile_qr_scan", "android": "https://dc.lft.to/lastmile_qr_scan"}, "type": "electric_scooter", "name": "06fd6e70a8b08fee125fcb3522d0acca", "is_reserved": 0, "lon": -77.0443095, "is_disabled": 0, "fusion_lat": 0.0, "lat": 38.89745883333333, "bike_id": "06fd6e70a8b08fee125fcb3522d0acca", "fusion_lon": 0.0}, {"rental_uris": {"ios": "https://dc.lft.to/lastmile_qr_scan", "android": "https://dc.lft.to/lastmile_qr_scan"}, "type": "electric_scooter", "name": "2f0ceff95d99a39e972e669202776326", "is_reserved": 0, "lon": -77.04051783333334, "is_disabled": 0, "fusion_lat": 0.0, "lat": 38.93005433333333, "bike_id": "2f0ceff95d99a39e972e669202776326", "fusion_lon": 0.0}, {"rental_uris": {"ios": "https://dc.lft.to/lastmile_qr_scan", "android": "https://dc.lft.to/lastmile_qr_scan"}, "type": "electric_scooter", "name": "050660556a4a12c12379e72a66c925f7", "is_reserved": 0, "lon": -77.0186205, "is_disabled": 0, "fusion_lat": 0.0, "lat": 38.9515215, "bike_id": "050660556a4a12c12379e72a66c925f7", "fusion_lon": 0.0}, {"rental_uris": {"ios": "https://dc.lft.to/lastmile_qr_scan", "android": "https://dc.lft.to/lastmile_qr_scan"}, "type": "electric_scooter", "name": "8fed9f07bc31d7365af9e941a9aec625", "is_reserved": 0, "lon": -76.972069, "is_disabled": 0, "fusion_lat": 0.0, "lat": 38.9245785, "bike_id": "8fed9f07bc31d7365af9e941a9aec625", "fusion_lon": 0.0}, {"rental_uris": {"ios": "https://dc.lft.to/lastmile_qr_scan", "android": "https://dc.lft.to/lastmile_qr_scan"}, "type": "electric_scooter", "name": "dc9ecee16b2265fa5ae584d2d8ba50df", "is_reserved": 0, "lon": -77.00426916666666, "is_disabled": 0, "fusion_lat": 0.0, "lat": 38.885169166666664, "bike_id": "dc9ecee16b2265fa5ae584d2d8ba50df", "fusion_lon": 0.0}, {"rental_uris": {"ios": "https://dc.lft.to/lastmile_qr_scan", "android": "https://dc.lft.to/lastmile_qr_scan"}, "type": "electric_scooter", "name": "345bbfdf0f87de61d6e4bd03e4e9100c", "is_reserved": 0, "lon": -77.0227455, "is_disabled": 0, "fusion_lat": 0.0, "lat": 38.92472166666667, "bike_id": "345bbfdf0f87de61d6e4bd03e4e9100c", "fusion_lon": 0.0}, {"rental_uris": {"ios": "https://dc.lft.to/lastmile_qr_scan", "android": "https://dc.lft.to/lastmile_qr_scan"}, "type": "electric_scooter", "name": "3ba3f66cb1018e3179a6d5743cc2689e", "is_reserved": 0, "lon": -77.03783283333334, "is_disabled": 0, "fusion_lat": 0.0, "lat": 38.915755, "bike_id": "3ba3f66cb1018e3179a6d5743cc2689e", "fusion_lon": 0.0}, {"rental_uris": {"ios": "https://dc.lft.to/lastmile_qr_scan", "android": "https://dc.lft.to/lastmile_qr_scan"}, "type": "electric_scooter", "name": "b7b2e85d97b61437c54abf40d05101c7", "is_reserved": 0, "lon": -76.965062, "is_disabled": 0, "fusion_lat": 0.0, "lat": 38.8764965, "bike_id": "b7b2e85d97b61437c54abf40d05101c7", "fusion_lon": 0.0}, {"rental_uris": {"ios": "https://dc.lft.to/lastmile_qr_scan", "android": "https://dc.lft.to/lastmile_qr_scan"}, "type": "electric_scooter", "name": "2cd3014bec2d53e3bbd8a4c817ff78f5", "is_reserved": 0, "lon": -76.92241583333333, "is_disabled": 0, "fusion_lat": 0.0, "lat": 38.90006533333333, "bike_id": "2cd3014bec2d53e3bbd8a4c817ff78f5", "fusion_lon": 0.0}, {"rental_uris": {"ios": "https://dc.lft.to/lastmile_qr_scan", "android": "https://dc.lft.to/lastmile_qr_scan"}, "type": "electric_scooter", "name": "a0977ca3da1c37dc2270136474db833d", "is_reserved": 0, "lon": -77.0203235, "is_disabled": 0, "fusion_lat": 0.0, "lat": 38.93644966666667, "bike_id": "a0977ca3da1c37dc2270136474db833d", "fusion_lon": 0.0}, {"rental_uris": {"ios": "https://dc.lft.to/lastmile_qr_scan", "android": "https://dc.lft.to/lastmile_qr_scan"}, "type": "electric_scooter", "name": "f36d8eb6dfca831b948da414d5d89721", "is_reserved": 0, "lon": -77.04347716666666, "is_disabled": 0, "fusion_lat": 0.0, "lat": 38.9071665, "bike_id": "f36d8eb6dfca831b948da414d5d89721", "fusion_lon": 0.0}, {"rental_uris": {"ios": "https://dc.lft.to/lastmile_qr_scan", "android": "https://dc.lft.to/lastmile_qr_scan"}, "type": "electric_bike", "name": "478b9126f4f5339cd2c60173acdf2f2c", "is_reserved": 0, "lon": -77.0663315, "is_disabled": 0, "fusion_lat": 0.0, "lat": 38.9497135, "bike_id": "478b9126f4f5339cd2c60173acdf2f2c", "fusion_lon": 0.0}, {"rental_uris": {"ios": "https://dc.lft.to/lastmile_qr_scan", "android": "https://dc.lft.to/lastmile_qr_scan"}, "type": "electric_scooter", "name": "0d4c48e6cd8ed894f8c7cfd2e0bc62d1", "is_reserved": 0, "lon": -77.032124, "is_disabled": 0, "fusion_lat": 0.0, "lat": 38.908967833333335, "bike_id": "0d4c48e6cd8ed894f8c7cfd2e0bc62d1", "fusion_lon": 0.0}, {"rental_uris": {"ios": "https://dc.lft.to/lastmile_qr_scan", "android": "https://dc.lft.to/lastmile_qr_scan"}, "type": "electric_scooter", "name": "80c22df4102f7944eef30f225c4a90a4", "is_reserved": 0, "lon": -77.0222605, "is_disabled": 0, "fusion_lat": 0.0, "lat": 38.8922, "bike_id": "80c22df4102f7944eef30f225c4a90a4", "fusion_lon": 0.0}, {"rental_uris": {"ios": "https://dc.lft.to/lastmile_qr_scan", "android": "https://dc.lft.to/lastmile_qr_scan"}, "type": "electric_scooter", "name": "77455e2f744854eacb7d4f8e9a9d8d63", "is_reserved": 0, "lon": -77.02796883333333, "is_disabled": 0, "fusion_lat": 0.0, "lat": 38.906132, "bike_id": "77455e2f744854eacb7d4f8e9a9d8d63", "fusion_lon": 0.0}, {"rental_uris": {"ios": "https://dc.lft.to/lastmile_qr_scan", "android": "https://dc.lft.to/lastmile_qr_scan"}, "type": "electric_scooter", "name": "fe9be5d8d3cde86e1ab1cc0d7fa6565b", "is_reserved": 0, "lon": -77.02761966666667, "is_disabled": 0, "fusion_lat": 0.0, "lat": 38.912084666666665, "bike_id": "fe9be5d8d3cde86e1ab1cc0d7fa6565b", "fusion_lon": 0.0}, {"rental_uris": {"ios": "https://dc.lft.to/lastmile_qr_scan", "android": "https://dc.lft.to/lastmile_qr_scan"}, "type": "electric_scooter", "name": "10b23028a5211bebe012e04268d6b329", "is_reserved": 0, "lon": -77.04596233333334, "is_disabled": 0, "fusion_lat": 0.0, "lat": 38.914237, "bike_id": "10b23028a5211bebe012e04268d6b329", "fusion_lon": 0.0}, {"rental_uris": {"ios": "https://dc.lft.to/lastmile_qr_scan", "android": "https://dc.lft.to/lastmile_qr_scan"}, "type": "electric_scooter", "name": "ddbaa172764199730e07197b05e4a5e8", "is_reserved": 0, "lon": -77.02005566666666, "is_disabled": 0, "fusion_lat": 0.0, "lat": 38.8986915, "bike_id": "ddbaa172764199730e07197b05e4a5e8", "fusion_lon": 0.0}, {"rental_uris": {"ios": "https://dc.lft.to/lastmile_qr_scan", "android": "https://dc.lft.to/lastmile_qr_scan"}, "type": "electric_scooter", "name": "a86ec1e29054b5a65c161b1f7a7edfa5", "is_reserved": 0, "lon": -77.04565783333334, "is_disabled": 0, "fusion_lat": 0.0, "lat": 38.91775166666667, "bike_id": "a86ec1e29054b5a65c161b1f7a7edfa5", "fusion_lon": 0.0}, {"rental_uris": {"ios": "https://dc.lft.to/lastmile_qr_scan", "android": "https://dc.lft.to/lastmile_qr_scan"}, "type": "electric_scooter", "name": "e0aa94918a1cc8283ca282d16226cd8c", "is_reserved": 0, "lon": -77.0221785, "is_disabled": 0, "fusion_lat": 0.0, "lat": 38.924667166666666, "bike_id": "e0aa94918a1cc8283ca282d16226cd8c", "fusion_lon": 0.0}, {"rental_uris": {"ios": "https://dc.lft.to/lastmile_qr_scan", "android": "https://dc.lft.to/lastmile_qr_scan"}, "type": "electric_scooter", "name": "9f742df6a8764d9871302c66bdd1e5a5", "is_reserved": 0, "lon": -77.02694433333333, "is_disabled": 0, "fusion_lat": 0.0, "lat": 38.90843733333333, "bike_id": "9f742df6a8764d9871302c66bdd1e5a5", "fusion_lon": 0.0}, {"rental_uris": {"ios": "https://dc.lft.to/lastmile_qr_scan", "android": "https://dc.lft.to/lastmile_qr_scan"}, "type": "electric_bike", "name": "42b515460f3336b58df5fc0920bdea30", "is_reserved": 0, "lon": -76.95793, "is_disabled": 0, "fusion_lat": 0.0, "lat": 38.9804385, "bike_id": "42b515460f3336b58df5fc0920bdea30", "fusion_lon": 0.0}, {"rental_uris": {"ios": "https://dc.lft.to/lastmile_qr_scan", "android": "https://dc.lft.to/lastmile_qr_scan"}, "type": "electric_scooter", "name": "bc859312ea7cc60a1c4ca95690c1f884", "is_reserved": 0, "lon": -77.04190333333334, "is_disabled": 0, "fusion_lat": 0.0, "lat": 38.92051216666667, "bike_id": "bc859312ea7cc60a1c4ca95690c1f884", "fusion_lon": 0.0}, {"rental_uris": {"ios": "https://dc.lft.to/lastmile_qr_scan", "android": "https://dc.lft.to/lastmile_qr_scan"}, "type": "electric_scooter", "name": "7583690e10b518126464b9ee7ed49356", "is_reserved": 0, "lon": -76.9756675, "is_disabled": 0, "fusion_lat": 0.0, "lat": 38.944203333333334, "bike_id": "7583690e10b518126464b9ee7ed49356", "fusion_lon": 0.0}, {"rental_uris": {"ios": "https://dc.lft.to/lastmile_qr_scan", "android": "https://dc.lft.to/lastmile_qr_scan"}, "type": "electric_scooter", "name": "cf6d42dd9d03566dfa6ba50eda6674d5", "is_reserved": 0, "lon": -77.0261495, "is_disabled": 0, "fusion_lat": 0.0, "lat": 38.9030395, "bike_id": "cf6d42dd9d03566dfa6ba50eda6674d5", "fusion_lon": 0.0}, {"rental_uris": {"ios": "https://dc.lft.to/lastmile_qr_scan", "android": "https://dc.lft.to/lastmile_qr_scan"}, "type": "electric_bike", "name": "ff96a496072316bc6806e66641be9568", "is_reserved": 0, "lon": -77.00135716666666, "is_disabled": 0, "fusion_lat": 0.0, "lat": 38.99498766666667, "bike_id": "ff96a496072316bc6806e66641be9568", "fusion_lon": 0.0}, {"rental_uris": {"ios": "https://dc.lft.to/lastmile_qr_scan", "android": "https://dc.lft.to/lastmile_qr_scan"}, "type": "electric_scooter", "name": "32bd56c562af04f78d8c432f2f490640", "is_reserved": 0, "lon": -76.99790183333333, "is_disabled": 0, "fusion_lat": 0.0, "lat": 38.8763575, "bike_id": "32bd56c562af04f78d8c432f2f490640", "fusion_lon": 0.0}, {"rental_uris": {"ios": "https://dc.lft.to/lastmile_qr_scan", "android": "https://dc.lft.to/lastmile_qr_scan"}, "type": "electric_scooter", "name": "35b5c0bbb99dda2a25e4e63025ca93f0", "is_reserved": 0, "lon": -77.0321815, "is_disabled": 0, "fusion_lat": 0.0, "lat": 38.90867766666667, "bike_id": "35b5c0bbb99dda2a25e4e63025ca93f0", "fusion_lon": 0.0}, {"rental_uris": {"ios": "https://dc.lft.to/lastmile_qr_scan", "android": "https://dc.lft.to/lastmile_qr_scan"}, "type": "electric_scooter", "name": "b905ce4d236d4c789e1adf94357f0f5b", "is_reserved": 0, "lon": -77.07762916666667, "is_disabled": 0, "fusion_lat": 0.0, "lat": 38.9255765, "bike_id": "b905ce4d236d4c789e1adf94357f0f5b", "fusion_lon": 0.0}, {"rental_uris": {"ios": "https://dc.lft.to/lastmile_qr_scan", "android": "https://dc.lft.to/lastmile_qr_scan"}, "type": "electric_scooter", "name": "aa32e8642b5b66700f1a1083adb9b6ed", "is_reserved": 0, "lon": -77.00955116666667, "is_disabled": 0, "fusion_lat": 0.0, "lat": 38.89778583333333, "bike_id": "aa32e8642b5b66700f1a1083adb9b6ed", "fusion_lon": 0.0}, {"rental_uris": {"ios": "https://dc.lft.to/lastmile_qr_scan", "android": "https://dc.lft.to/lastmile_qr_scan"}, "type": "electric_scooter", "name": "f9a1208ddc81cd37f796d7fb88eb08c3", "is_reserved": 0, "lon": -77.0344525, "is_disabled": 0, "fusion_lat": 0.0, "lat": 38.907375, "bike_id": "f9a1208ddc81cd37f796d7fb88eb08c3", "fusion_lon": 0.0}, {"rental_uris": {"ios": "https://dc.lft.to/lastmile_qr_scan", "android": "https://dc.lft.to/lastmile_qr_scan"}, "type": "electric_scooter", "name": "e108ede3e0ffddff3f3d06dbe591fe7f", "is_reserved": 0, "lon": -77.04484716666667, "is_disabled": 0, "fusion_lat": 0.0, "lat": 38.91858033333333, "bike_id": "e108ede3e0ffddff3f3d06dbe591fe7f", "fusion_lon": 0.0}, {"rental_uris": {"ios": "https://dc.lft.to/lastmile_qr_scan", "android": "https://dc.lft.to/lastmile_qr_scan"}, "type": "electric_scooter", "name": "9d12dfe2d11d53bf6858975159980453", "is_reserved": 0, "lon": -77.03995766666667, "is_disabled": 0, "fusion_lat": 0.0, "lat": 38.94182566666667, "bike_id": "9d12dfe2d11d53bf6858975159980453", "fusion_lon": 0.0}, {"rental_uris": {"ios": "https://dc.lft.to/lastmile_qr_scan", "android": "https://dc.lft.to/lastmile_qr_scan"}, "type": "electric_bike", "name": "2d8de303b99b3aa9c2bee3c1c492ad61", "is_reserved": 0, "lon": -77.08137416666666, "is_disabled": 0, "fusion_lat": 0.0, "lat": 38.822947, "bike_id": "2d8de303b99b3aa9c2bee3c1c492ad61", "fusion_lon": 0.0}, {"rental_uris": {"ios": "https://dc.lft.to/lastmile_qr_scan", "android": "https://dc.lft.to/lastmile_qr_scan"}, "type": "electric_bike", "name": "5e6c0576dd2d1d4097d1be5ae16f420b", "is_reserved": 0, "lon": -76.96322316666667, "is_disabled": 0, "fusion_lat": 0.0, "lat": 38.93896266666667, "bike_id": "5e6c0576dd2d1d4097d1be5ae16f420b", "fusion_lon": 0.0}, {"rental_uris": {"ios": "https://dc.lft.to/lastmile_qr_scan", "android": "https://dc.lft.to/lastmile_qr_scan"}, "type": "electric_scooter", "name": "951c6abbe817ae2193f6fe99fbe279e0", "is_reserved": 0, "lon": -77.042536, "is_disabled": 0, "fusion_lat": 0.0, "lat": 38.92061666666667, "bike_id": "951c6abbe817ae2193f6fe99fbe279e0", "fusion_lon": 0.0}, {"rental_uris": {"ios": "https://dc.lft.to/lastmile_qr_scan", "android": "https://dc.lft.to/lastmile_qr_scan"}, "type": "electric_scooter", "name": "2751ee6f5f0d0ceaee4036d0d252858d", "is_reserved": 0, "lon": -77.027245, "is_disabled": 0, "fusion_lat": 0.0, "lat": 38.9339785, "bike_id": "2751ee6f5f0d0ceaee4036d0d252858d", "fusion_lon": 0.0}, {"rental_uris": {"ios": "https://dc.lft.to/lastmile_qr_scan", "android": "https://dc.lft.to/lastmile_qr_scan"}, "type": "electric_scooter", "name": "79bb41a4daa29f3d91cec07e707472cd", "is_reserved": 0, "lon": -77.07846766666667, "is_disabled": 0, "fusion_lat": 0.0, "lat": 38.9315045, "bike_id": "79bb41a4daa29f3d91cec07e707472cd", "fusion_lon": 0.0}, {"rental_uris": {"ios": "https://dc.lft.to/lastmile_qr_scan", "android": "https://dc.lft.to/lastmile_qr_scan"}, "type": "electric_scooter", "name": "e02b955c0a68680ddcf5b7a3d0b6b5c3", "is_reserved": 0, "lon": -77.03785983333333, "is_disabled": 0, "fusion_lat": 0.0, "lat": 38.91268266666667, "bike_id": "e02b955c0a68680ddcf5b7a3d0b6b5c3", "fusion_lon": 0.0}, {"rental_uris": {"ios": "https://dc.lft.to/lastmile_qr_scan", "android": "https://dc.lft.to/lastmile_qr_scan"}, "type": "electric_scooter", "name": "73ebc89f7886f62de1f1f9babe06277f", "is_reserved": 0, "lon": -77.00068916666666, "is_disabled": 0, "fusion_lat": 0.0, "lat": 38.919133, "bike_id": "73ebc89f7886f62de1f1f9babe06277f", "fusion_lon": 0.0}, {"rental_uris": {"ios": "https://dc.lft.to/lastmile_qr_scan", "android": "https://dc.lft.to/lastmile_qr_scan"}, "type": "electric_scooter", "name": "9ec196f118cf1e3f01335b1242d7824e", "is_reserved": 0, "lon": -77.02477416666666, "is_disabled": 0, "fusion_lat": 0.0, "lat": 38.91814883333333, "bike_id": "9ec196f118cf1e3f01335b1242d7824e", "fusion_lon": 0.0}, {"rental_uris": {"ios": "https://dc.lft.to/lastmile_qr_scan", "android": "https://dc.lft.to/lastmile_qr_scan"}, "type": "electric_scooter", "name": "5ac11f7ae51a07631e1da68ade83dd62", "is_reserved": 0, "lon": -77.0439735, "is_disabled": 0, "fusion_lat": 0.0, "lat": 38.90110466666667, "bike_id": "5ac11f7ae51a07631e1da68ade83dd62", "fusion_lon": 0.0}, {"rental_uris": {"ios": "https://dc.lft.to/lastmile_qr_scan", "android": "https://dc.lft.to/lastmile_qr_scan"}, "type": "electric_scooter", "name": "2e78aac5bd8f19e565590bbe07326d71", "is_reserved": 0, "lon": -77.02633816666666, "is_disabled": 0, "fusion_lat": 0.0, "lat": 38.89639066666667, "bike_id": "2e78aac5bd8f19e565590bbe07326d71", "fusion_lon": 0.0}, {"rental_uris": {"ios": "https://dc.lft.to/lastmile_qr_scan", "android": "https://dc.lft.to/lastmile_qr_scan"}, "type": "electric_scooter", "name": "50570b45df5cd067e65c4c61692161d2", "is_reserved": 0, "lon": -77.0323635, "is_disabled": 0, "fusion_lat": 0.0, "lat": 38.8981625, "bike_id": "50570b45df5cd067e65c4c61692161d2", "fusion_lon": 0.0}, {"rental_uris": {"ios": "https://dc.lft.to/lastmile_qr_scan", "android": "https://dc.lft.to/lastmile_qr_scan"}, "type": "electric_scooter", "name": "741a0d4374d701316bf38d66e62eae5a", "is_reserved": 0, "lon": -77.067478, "is_disabled": 0, "fusion_lat": 0.0, "lat": 38.90518816666667, "bike_id": "741a0d4374d701316bf38d66e62eae5a", "fusion_lon": 0.0}, {"rental_uris": {"ios": "https://dc.lft.to/lastmile_qr_scan", "android": "https://dc.lft.to/lastmile_qr_scan"}, "type": "electric_scooter", "name": "2779b510c036daa6e23be843ee22cd29", "is_reserved": 0, "lon": -77.0136275, "is_disabled": 0, "fusion_lat": 0.0, "lat": 38.919278, "bike_id": "2779b510c036daa6e23be843ee22cd29", "fusion_lon": 0.0}, {"rental_uris": {"ios": "https://dc.lft.to/lastmile_qr_scan", "android": "https://dc.lft.to/lastmile_qr_scan"}, "type": "electric_scooter", "name": "040fe58dd5c8c8977670494d914f62ea", "is_reserved": 0, "lon": -76.99510533333333, "is_disabled": 0, "fusion_lat": 0.0, "lat": 38.87780816666667, "bike_id": "040fe58dd5c8c8977670494d914f62ea", "fusion_lon": 0.0}, {"rental_uris": {"ios": "https://dc.lft.to/lastmile_qr_scan", "android": "https://dc.lft.to/lastmile_qr_scan"}, "type": "electric_bike", "name": "9a5c25bb6c675469bd630ae40615c5d1", "is_reserved": 0, "lon": -76.97323816666666, "is_disabled": 0, "fusion_lat": 0.0, "lat": 38.857813166666666, "bike_id": "9a5c25bb6c675469bd630ae40615c5d1", "fusion_lon": 0.0}, {"rental_uris": {"ios": "https://dc.lft.to/lastmile_qr_scan", "android": "https://dc.lft.to/lastmile_qr_scan"}, "type": "electric_scooter", "name": "051968fa9dae14aedd2f4576b9407485", "is_reserved": 0, "lon": -77.02467633333333, "is_disabled": 0, "fusion_lat": 0.0, "lat": 38.93899716666667, "bike_id": "051968fa9dae14aedd2f4576b9407485", "fusion_lon": 0.0}, {"rental_uris": {"ios": "https://dc.lft.to/lastmile_qr_scan", "android": "https://dc.lft.to/lastmile_qr_scan"}, "type": "electric_scooter", "name": "1018b0e18ee536e0e2ba82b66af63a27", "is_reserved": 0, "lon": -77.02342666666667, "is_disabled": 0, "fusion_lat": 0.0, "lat": 38.93128216666667, "bike_id": "1018b0e18ee536e0e2ba82b66af63a27", "fusion_lon": 0.0}, {"rental_uris": {"ios": "https://dc.lft.to/lastmile_qr_scan", "android": "https://dc.lft.to/lastmile_qr_scan"}, "type": "electric_scooter", "name": "1fde2ecd22da5f0f5d29189160e057e6", "is_reserved": 0, "lon": -77.031764, "is_disabled": 0, "fusion_lat": 0.0, "lat": 38.919998666666665, "bike_id": "1fde2ecd22da5f0f5d29189160e057e6", "fusion_lon": 0.0}, {"rental_uris": {"ios": "https://dc.lft.to/lastmile_qr_scan", "android": "https://dc.lft.to/lastmile_qr_scan"}, "type": "electric_scooter", "name": "7aeebfb07cd4db7d5540aeae89a462e8", "is_reserved": 0, "lon": -77.03844516666666, "is_disabled": 0, "fusion_lat": 0.0, "lat": 38.910359166666666, "bike_id": "7aeebfb07cd4db7d5540aeae89a462e8", "fusion_lon": 0.0}, {"rental_uris": {"ios": "https://dc.lft.to/lastmile_qr_scan", "android": "https://dc.lft.to/lastmile_qr_scan"}, "type": "electric_scooter", "name": "f403ff65354334f56322d072be0f02f5", "is_reserved": 0, "lon": -77.02286716666667, "is_disabled": 0, "fusion_lat": 0.0, "lat": 38.8952165, "bike_id": "f403ff65354334f56322d072be0f02f5", "fusion_lon": 0.0}, {"rental_uris": {"ios": "https://dc.lft.to/lastmile_qr_scan", "android": "https://dc.lft.to/lastmile_qr_scan"}, "type": "electric_scooter", "name": "e8970c45b4101ee7bfd238687a4da7c4", "is_reserved": 0, "lon": -77.00874716666667, "is_disabled": 0, "fusion_lat": 0.0, "lat": 38.922448333333335, "bike_id": "e8970c45b4101ee7bfd238687a4da7c4", "fusion_lon": 0.0}, {"rental_uris": {"ios": "https://dc.lft.to/lastmile_qr_scan", "android": "https://dc.lft.to/lastmile_qr_scan"}, "type": "electric_scooter", "name": "86777b7674cf06d3bf101f4dbab53e58", "is_reserved": 0, "lon": -77.00917733333333, "is_disabled": 0, "fusion_lat": 0.0, "lat": 38.88189466666667, "bike_id": "86777b7674cf06d3bf101f4dbab53e58", "fusion_lon": 0.0}, {"rental_uris": {"ios": "https://dc.lft.to/lastmile_qr_scan", "android": "https://dc.lft.to/lastmile_qr_scan"}, "type": "electric_scooter", "name": "f7980a0fe32ce5251456813eb2b8e3c3", "is_reserved": 0, "lon": -77.02605366666667, "is_disabled": 0, "fusion_lat": 0.0, "lat": 38.90582716666667, "bike_id": "f7980a0fe32ce5251456813eb2b8e3c3", "fusion_lon": 0.0}, {"rental_uris": {"ios": "https://dc.lft.to/lastmile_qr_scan", "android": "https://dc.lft.to/lastmile_qr_scan"}, "type": "electric_scooter", "name": "f78a28c784829bc406113d457846b70c", "is_reserved": 0, "lon": -77.01904433333333, "is_disabled": 0, "fusion_lat": 0.0, "lat": 38.923433, "bike_id": "f78a28c784829bc406113d457846b70c", "fusion_lon": 0.0}, {"rental_uris": {"ios": "https://dc.lft.to/lastmile_qr_scan", "android": "https://dc.lft.to/lastmile_qr_scan"}, "type": "electric_scooter", "name": "310666dc165074e27c7afdc9b6fe9edf", "is_reserved": 0, "lon": -77.03666233333334, "is_disabled": 0, "fusion_lat": 0.0, "lat": 38.9172545, "bike_id": "310666dc165074e27c7afdc9b6fe9edf", "fusion_lon": 0.0}, {"rental_uris": {"ios": "https://dc.lft.to/lastmile_qr_scan", "android": "https://dc.lft.to/lastmile_qr_scan"}, "type": "electric_scooter", "name": "17c05b23ad52f5170856f1b88e98f925", "is_reserved": 0, "lon": -77.02396333333333, "is_disabled": 0, "fusion_lat": 0.0, "lat": 38.92700883333333, "bike_id": "17c05b23ad52f5170856f1b88e98f925", "fusion_lon": 0.0}, {"rental_uris": {"ios": "https://dc.lft.to/lastmile_qr_scan", "android": "https://dc.lft.to/lastmile_qr_scan"}, "type": "electric_scooter", "name": "e483fa45d08d0eb320574316b11e9bb2", "is_reserved": 0, "lon": -76.9985755, "is_disabled": 0, "fusion_lat": 0.0, "lat": 38.90025266666667, "bike_id": "e483fa45d08d0eb320574316b11e9bb2", "fusion_lon": 0.0}, {"rental_uris": {"ios": "https://dc.lft.to/lastmile_qr_scan", "android": "https://dc.lft.to/lastmile_qr_scan"}, "type": "electric_scooter", "name": "4b86a2bdfe6ad072efc1b1d0cf18f37e", "is_reserved": 0, "lon": -77.02213966666666, "is_disabled": 0, "fusion_lat": 0.0, "lat": 38.91563566666667, "bike_id": "4b86a2bdfe6ad072efc1b1d0cf18f37e", "fusion_lon": 0.0}, {"rental_uris": {"ios": "https://dc.lft.to/lastmile_qr_scan", "android": "https://dc.lft.to/lastmile_qr_scan"}, "type": "electric_scooter", "name": "7b4882483c9a6b4ba96cfe989425030b", "is_reserved": 0, "lon": -76.989858, "is_disabled": 0, "fusion_lat": 0.0, "lat": 38.865035166666665, "bike_id": "7b4882483c9a6b4ba96cfe989425030b", "fusion_lon": 0.0}, {"rental_uris": {"ios": "https://dc.lft.to/lastmile_qr_scan", "android": "https://dc.lft.to/lastmile_qr_scan"}, "type": "electric_scooter", "name": "480634c56fbf37210764da2b7007e2f4", "is_reserved": 0, "lon": -77.0615085, "is_disabled": 0, "fusion_lat": 0.0, "lat": 38.9129675, "bike_id": "480634c56fbf37210764da2b7007e2f4", "fusion_lon": 0.0}, {"rental_uris": {"ios": "https://dc.lft.to/lastmile_qr_scan", "android": "https://dc.lft.to/lastmile_qr_scan"}, "type": "electric_scooter", "name": "5aed2d0eecc535add3a6ebc5360b6cb8", "is_reserved": 0, "lon": -77.030591, "is_disabled": 0, "fusion_lat": 0.0, "lat": 38.9082915, "bike_id": "5aed2d0eecc535add3a6ebc5360b6cb8", "fusion_lon": 0.0}, {"rental_uris": {"ios": "https://dc.lft.to/lastmile_qr_scan", "android": "https://dc.lft.to/lastmile_qr_scan"}, "type": "electric_scooter", "name": "46e5eff70a406f87d8ba7fe1aa69ff60", "is_reserved": 0, "lon": -77.01758266666667, "is_disabled": 0, "fusion_lat": 0.0, "lat": 38.920988, "bike_id": "46e5eff70a406f87d8ba7fe1aa69ff60", "fusion_lon": 0.0}, {"rental_uris": {"ios": "https://dc.lft.to/lastmile_qr_scan", "android": "https://dc.lft.to/lastmile_qr_scan"}, "type": "electric_bike", "name": "6f4d09757aa5187e127a251a25467145", "is_reserved": 0, "lon": -76.94155366666666, "is_disabled": 0, "fusion_lat": 0.0, "lat": 38.890297833333335, "bike_id": "6f4d09757aa5187e127a251a25467145", "fusion_lon": 0.0}, {"rental_uris": {"ios": "https://dc.lft.to/lastmile_qr_scan", "android": "https://dc.lft.to/lastmile_qr_scan"}, "type": "electric_scooter", "name": "0757302b5512d00a79f455b528c73e51", "is_reserved": 0, "lon": -77.05001983333334, "is_disabled": 0, "fusion_lat": 0.0, "lat": 38.892343, "bike_id": "0757302b5512d00a79f455b528c73e51", "fusion_lon": 0.0}, {"rental_uris": {"ios": "https://dc.lft.to/lastmile_qr_scan", "android": "https://dc.lft.to/lastmile_qr_scan"}, "type": "electric_scooter", "name": "41b38e35dc02fb88a4af25ec6582cc9b", "is_reserved": 0, "lon": -77.00594666666667, "is_disabled": 0, "fusion_lat": 0.0, "lat": 38.905687, "bike_id": "41b38e35dc02fb88a4af25ec6582cc9b", "fusion_lon": 0.0}, {"rental_uris": {"ios": "https://dc.lft.to/lastmile_qr_scan", "android": "https://dc.lft.to/lastmile_qr_scan"}, "type": "electric_scooter", "name": "0842dfcdd543be45f19695e0ef57af67", "is_reserved": 0, "lon": -77.015806, "is_disabled": 0, "fusion_lat": 0.0, "lat": 38.8765335, "bike_id": "0842dfcdd543be45f19695e0ef57af67", "fusion_lon": 0.0}, {"rental_uris": {"ios": "https://dc.lft.to/lastmile_qr_scan", "android": "https://dc.lft.to/lastmile_qr_scan"}, "type": "electric_scooter", "name": "67350d91960554a011695757e83b7da2", "is_reserved": 0, "lon": -77.02721483333333, "is_disabled": 0, "fusion_lat": 0.0, "lat": 38.92481983333333, "bike_id": "67350d91960554a011695757e83b7da2", "fusion_lon": 0.0}, {"rental_uris": {"ios": "https://dc.lft.to/lastmile_qr_scan", "android": "https://dc.lft.to/lastmile_qr_scan"}, "type": "electric_scooter", "name": "7d10be27d21962d0b19696e4c8d36377", "is_reserved": 0, "lon": -77.02662533333333, "is_disabled": 0, "fusion_lat": 0.0, "lat": 38.90259916666667, "bike_id": "7d10be27d21962d0b19696e4c8d36377", "fusion_lon": 0.0}, {"rental_uris": {"ios": "https://dc.lft.to/lastmile_qr_scan", "android": "https://dc.lft.to/lastmile_qr_scan"}, "type": "electric_scooter", "name": "e371cf957ce62f220a60728e748ecff5", "is_reserved": 0, "lon": -77.03688, "is_disabled": 0, "fusion_lat": 0.0, "lat": 38.916770166666666, "bike_id": "e371cf957ce62f220a60728e748ecff5", "fusion_lon": 0.0}, {"rental_uris": {"ios": "https://dc.lft.to/lastmile_qr_scan", "android": "https://dc.lft.to/lastmile_qr_scan"}, "type": "electric_bike", "name": "596cbb5c069c5328d5020d48e432e292", "is_reserved": 0, "lon": -76.945371, "is_disabled": 0, "fusion_lat": 0.0, "lat": 38.86755733333333, "bike_id": "596cbb5c069c5328d5020d48e432e292", "fusion_lon": 0.0}, {"rental_uris": {"ios": "https://dc.lft.to/lastmile_qr_scan", "android": "https://dc.lft.to/lastmile_qr_scan"}, "type": "electric_scooter", "name": "c3abca285b4ae8bbd654109e5ce1427a", "is_reserved": 0, "lon": -77.03336633333333, "is_disabled": 0, "fusion_lat": 0.0, "lat": 38.928627, "bike_id": "c3abca285b4ae8bbd654109e5ce1427a", "fusion_lon": 0.0}, {"rental_uris": {"ios": "https://dc.lft.to/lastmile_qr_scan", "android": "https://dc.lft.to/lastmile_qr_scan"}, "type": "electric_scooter", "name": "984705ebbf5cc8ae4ab5a8ff154c60e4", "is_reserved": 0, "lon": -76.9994515, "is_disabled": 0, "fusion_lat": 0.0, "lat": 38.900563166666664, "bike_id": "984705ebbf5cc8ae4ab5a8ff154c60e4", "fusion_lon": 0.0}, {"rental_uris": {"ios": "https://dc.lft.to/lastmile_qr_scan", "android": "https://dc.lft.to/lastmile_qr_scan"}, "type": "electric_scooter", "name": "705fbfed9581c190876bb090a5001731", "is_reserved": 0, "lon": -76.9904005, "is_disabled": 0, "fusion_lat": 0.0, "lat": 38.86373183333333, "bike_id": "705fbfed9581c190876bb090a5001731", "fusion_lon": 0.0}, {"rental_uris": {"ios": "https://dc.lft.to/lastmile_qr_scan", "android": "https://dc.lft.to/lastmile_qr_scan"}, "type": "electric_scooter", "name": "d092b6e6965fd809a3769bf6c66570af", "is_reserved": 0, "lon": -77.03334616666666, "is_disabled": 0, "fusion_lat": 0.0, "lat": 38.925366833333335, "bike_id": "d092b6e6965fd809a3769bf6c66570af", "fusion_lon": 0.0}, {"rental_uris": {"ios": "https://dc.lft.to/lastmile_qr_scan", "android": "https://dc.lft.to/lastmile_qr_scan"}, "type": "electric_scooter", "name": "208451e8a4bcce468173f8b4ccfc7769", "is_reserved": 0, "lon": -77.0703405, "is_disabled": 0, "fusion_lat": 0.0, "lat": 38.89330916666667, "bike_id": "208451e8a4bcce468173f8b4ccfc7769", "fusion_lon": 0.0}, {"rental_uris": {"ios": "https://dc.lft.to/lastmile_qr_scan", "android": "https://dc.lft.to/lastmile_qr_scan"}, "type": "electric_scooter", "name": "c4a2df89781fda303112b6e5c3ad4b87", "is_reserved": 0, "lon": -77.0131565, "is_disabled": 0, "fusion_lat": 0.0, "lat": 38.92027483333333, "bike_id": "c4a2df89781fda303112b6e5c3ad4b87", "fusion_lon": 0.0}, {"rental_uris": {"ios": "https://dc.lft.to/lastmile_qr_scan", "android": "https://dc.lft.to/lastmile_qr_scan"}, "type": "electric_scooter", "name": "441e0ef7c610063ee2cc26efe01c24d9", "is_reserved": 0, "lon": -76.99610516666667, "is_disabled": 0, "fusion_lat": 0.0, "lat": 38.909111833333334, "bike_id": "441e0ef7c610063ee2cc26efe01c24d9", "fusion_lon": 0.0}, {"rental_uris": {"ios": "https://dc.lft.to/lastmile_qr_scan", "android": "https://dc.lft.to/lastmile_qr_scan"}, "type": "electric_scooter", "name": "849f810c79751f2050263ce2a77dcaba", "is_reserved": 0, "lon": -76.97153566666667, "is_disabled": 0, "fusion_lat": 0.0, "lat": 38.9162545, "bike_id": "849f810c79751f2050263ce2a77dcaba", "fusion_lon": 0.0}, {"rental_uris": {"ios": "https://dc.lft.to/lastmile_qr_scan", "android": "https://dc.lft.to/lastmile_qr_scan"}, "type": "electric_scooter", "name": "6dae0013a69feb71e1ebf9d0a2fb534d", "is_reserved": 0, "lon": -77.02715666666667, "is_disabled": 0, "fusion_lat": 0.0, "lat": 38.909542333333334, "bike_id": "6dae0013a69feb71e1ebf9d0a2fb534d", "fusion_lon": 0.0}, {"rental_uris": {"ios": "https://dc.lft.to/lastmile_qr_scan", "android": "https://dc.lft.to/lastmile_qr_scan"}, "type": "electric_scooter", "name": "5653ba83d01a32f50ecadc71fa201f22", "is_reserved": 0, "lon": -77.04219533333334, "is_disabled": 0, "fusion_lat": 0.0, "lat": 38.90741366666666, "bike_id": "5653ba83d01a32f50ecadc71fa201f22", "fusion_lon": 0.0}, {"rental_uris": {"ios": "https://dc.lft.to/lastmile_qr_scan", "android": "https://dc.lft.to/lastmile_qr_scan"}, "type": "electric_scooter", "name": "1a8c41bb6ee071c1b2100e950ddcb8b6", "is_reserved": 0, "lon": -77.012658, "is_disabled": 0, "fusion_lat": 0.0, "lat": 38.897141833333336, "bike_id": "1a8c41bb6ee071c1b2100e950ddcb8b6", "fusion_lon": 0.0}, {"rental_uris": {"ios": "https://dc.lft.to/lastmile_qr_scan", "android": "https://dc.lft.to/lastmile_qr_scan"}, "type": "electric_scooter", "name": "56f2b49942eb605b7f0ad09e2de9dce6", "is_reserved": 0, "lon": -77.01116366666666, "is_disabled": 0, "fusion_lat": 0.0, "lat": 38.89552, "bike_id": "56f2b49942eb605b7f0ad09e2de9dce6", "fusion_lon": 0.0}, {"rental_uris": {"ios": "https://dc.lft.to/lastmile_qr_scan", "android": "https://dc.lft.to/lastmile_qr_scan"}, "type": "electric_scooter", "name": "fdedfda7712b3585b84e1fe2ad83b9c8", "is_reserved": 0, "lon": -77.04665283333334, "is_disabled": 0, "fusion_lat": 0.0, "lat": 38.905529333333334, "bike_id": "fdedfda7712b3585b84e1fe2ad83b9c8", "fusion_lon": 0.0}, {"rental_uris": {"ios": "https://dc.lft.to/lastmile_qr_scan", "android": "https://dc.lft.to/lastmile_qr_scan"}, "type": "electric_scooter", "name": "e7feb4a964096d635abb45e62c90cb2a", "is_reserved": 0, "lon": -77.03657883333334, "is_disabled": 0, "fusion_lat": 0.0, "lat": 38.91316483333333, "bike_id": "e7feb4a964096d635abb45e62c90cb2a", "fusion_lon": 0.0}, {"rental_uris": {"ios": "https://dc.lft.to/lastmile_qr_scan", "android": "https://dc.lft.to/lastmile_qr_scan"}, "type": "electric_scooter", "name": "ece6042575ce400e98ecddb7eec812f4", "is_reserved": 0, "lon": -77.0376835, "is_disabled": 0, "fusion_lat": 0.0, "lat": 38.92327916666667, "bike_id": "ece6042575ce400e98ecddb7eec812f4", "fusion_lon": 0.0}, {"rental_uris": {"ios": "https://dc.lft.to/lastmile_qr_scan", "android": "https://dc.lft.to/lastmile_qr_scan"}, "type": "electric_scooter", "name": "b24659bf4959c484ec862de4384ab98b", "is_reserved": 0, "lon": -77.02978016666667, "is_disabled": 0, "fusion_lat": 0.0, "lat": 38.922541, "bike_id": "b24659bf4959c484ec862de4384ab98b", "fusion_lon": 0.0}, {"rental_uris": {"ios": "https://dc.lft.to/lastmile_qr_scan", "android": "https://dc.lft.to/lastmile_qr_scan"}, "type": "electric_scooter", "name": "464fe2065d298b68018a8918852e0621", "is_reserved": 0, "lon": -77.05370983333333, "is_disabled": 0, "fusion_lat": 0.0, "lat": 38.923322666666664, "bike_id": "464fe2065d298b68018a8918852e0621", "fusion_lon": 0.0}, {"rental_uris": {"ios": "https://dc.lft.to/lastmile_qr_scan", "android": "https://dc.lft.to/lastmile_qr_scan"}, "type": "electric_scooter", "name": "a6ee3bea294fa2127210ceec3c00ea8d", "is_reserved": 0, "lon": -77.01770783333333, "is_disabled": 0, "fusion_lat": 0.0, "lat": 38.900844166666666, "bike_id": "a6ee3bea294fa2127210ceec3c00ea8d", "fusion_lon": 0.0}, {"rental_uris": {"ios": "https://dc.lft.to/lastmile_qr_scan", "android": "https://dc.lft.to/lastmile_qr_scan"}, "type": "electric_scooter", "name": "b085f240c20078c3a18680fa7eb1a4b2", "is_reserved": 0, "lon": -77.04651116666666, "is_disabled": 0, "fusion_lat": 0.0, "lat": 38.8972525, "bike_id": "b085f240c20078c3a18680fa7eb1a4b2", "fusion_lon": 0.0}, {"rental_uris": {"ios": "https://dc.lft.to/lastmile_qr_scan", "android": "https://dc.lft.to/lastmile_qr_scan"}, "type": "electric_bike", "name": "5f733632e661ea2fbbcd6013b82660cf", "is_reserved": 0, "lon": -77.0034275, "is_disabled": 0, "fusion_lat": 0.0, "lat": 38.90469183333333, "bike_id": "5f733632e661ea2fbbcd6013b82660cf", "fusion_lon": 0.0}, {"rental_uris": {"ios": "https://dc.lft.to/lastmile_qr_scan", "android": "https://dc.lft.to/lastmile_qr_scan"}, "type": "electric_scooter", "name": "a1707b28172a54b9387a3b8ed434842d", "is_reserved": 0, "lon": -77.0280175, "is_disabled": 0, "fusion_lat": 0.0, "lat": 38.90738616666667, "bike_id": "a1707b28172a54b9387a3b8ed434842d", "fusion_lon": 0.0}, {"rental_uris": {"ios": "https://dc.lft.to/lastmile_qr_scan", "android": "https://dc.lft.to/lastmile_qr_scan"}, "type": "electric_scooter", "name": "0f838d724a98b4719d6afa3aa971cbbd", "is_reserved": 0, "lon": -77.000614, "is_disabled": 0, "fusion_lat": 0.0, "lat": 38.961319833333334, "bike_id": "0f838d724a98b4719d6afa3aa971cbbd", "fusion_lon": 0.0}, {"rental_uris": {"ios": "https://dc.lft.to/lastmile_qr_scan", "android": "https://dc.lft.to/lastmile_qr_scan"}, "type": "electric_scooter", "name": "85c2822985f3d5e01fb1502bd46e9137", "is_reserved": 0, "lon": -76.989426, "is_disabled": 0, "fusion_lat": 0.0, "lat": 38.903956666666666, "bike_id": "85c2822985f3d5e01fb1502bd46e9137", "fusion_lon": 0.0}, {"rental_uris": {"ios": "https://dc.lft.to/lastmile_qr_scan", "android": "https://dc.lft.to/lastmile_qr_scan"}, "type": "electric_scooter", "name": "43deb704339a067e30f8106c17e7d2ab", "is_reserved": 0, "lon": -77.05268183333334, "is_disabled": 0, "fusion_lat": 0.0, "lat": 38.923683, "bike_id": "43deb704339a067e30f8106c17e7d2ab", "fusion_lon": 0.0}, {"rental_uris": {"ios": "https://dc.lft.to/lastmile_qr_scan", "android": "https://dc.lft.to/lastmile_qr_scan"}, "type": "electric_scooter", "name": "5fc749125fd04e33b18b250647cb4650", "is_reserved": 0, "lon": -76.97632116666666, "is_disabled": 0, "fusion_lat": 0.0, "lat": 38.90571583333333, "bike_id": "5fc749125fd04e33b18b250647cb4650", "fusion_lon": 0.0}, {"rental_uris": {"ios": "https://dc.lft.to/lastmile_qr_scan", "android": "https://dc.lft.to/lastmile_qr_scan"}, "type": "electric_scooter", "name": "cfeb4f749130974cc94a1d407a99891a", "is_reserved": 0, "lon": -77.02102683333334, "is_disabled": 0, "fusion_lat": 0.0, "lat": 38.91205383333333, "bike_id": "cfeb4f749130974cc94a1d407a99891a", "fusion_lon": 0.0}, {"rental_uris": {"ios": "https://dc.lft.to/lastmile_qr_scan", "android": "https://dc.lft.to/lastmile_qr_scan"}, "type": "electric_bike", "name": "573ec28995fad61cec5a685d8184257c", "is_reserved": 0, "lon": -77.23408066666667, "is_disabled": 0, "fusion_lat": 0.0, "lat": 38.87576983333334, "bike_id": "573ec28995fad61cec5a685d8184257c", "fusion_lon": 0.0}, {"rental_uris": {"ios": "https://dc.lft.to/lastmile_qr_scan", "android": "https://dc.lft.to/lastmile_qr_scan"}, "type": "electric_scooter", "name": "c138ef7abdebd5f749c80b4b25b52e77", "is_reserved": 0, "lon": -77.049455, "is_disabled": 0, "fusion_lat": 0.0, "lat": 38.92019533333333, "bike_id": "c138ef7abdebd5f749c80b4b25b52e77", "fusion_lon": 0.0}, {"rental_uris": {"ios": "https://dc.lft.to/lastmile_qr_scan", "android": "https://dc.lft.to/lastmile_qr_scan"}, "type": "electric_scooter", "name": "488c70f95f156a54b81cdd64026ad6e2", "is_reserved": 0, "lon": -77.03493133333333, "is_disabled": 0, "fusion_lat": 0.0, "lat": 38.9327005, "bike_id": "488c70f95f156a54b81cdd64026ad6e2", "fusion_lon": 0.0}, {"rental_uris": {"ios": "https://dc.lft.to/lastmile_qr_scan", "android": "https://dc.lft.to/lastmile_qr_scan"}, "type": "electric_scooter", "name": "9c24d4d3bcea05ddb172486ba87184bc", "is_reserved": 0, "lon": -77.02963083333333, "is_disabled": 0, "fusion_lat": 0.0, "lat": 38.9226895, "bike_id": "9c24d4d3bcea05ddb172486ba87184bc", "fusion_lon": 0.0}, {"rental_uris": {"ios": "https://dc.lft.to/lastmile_qr_scan", "android": "https://dc.lft.to/lastmile_qr_scan"}, "type": "electric_scooter", "name": "bbf896f87dbb2a34ddf9895c87271cf5", "is_reserved": 0, "lon": -77.04858266666666, "is_disabled": 0, "fusion_lat": 0.0, "lat": 38.904734, "bike_id": "bbf896f87dbb2a34ddf9895c87271cf5", "fusion_lon": 0.0}, {"rental_uris": {"ios": "https://dc.lft.to/lastmile_qr_scan", "android": "https://dc.lft.to/lastmile_qr_scan"}, "type": "electric_bike", "name": "fdc8e2961a6d06f4a64d931d7758659e", "is_reserved": 0, "lon": -76.97534516666667, "is_disabled": 0, "fusion_lat": 0.0, "lat": 38.903267, "bike_id": "fdc8e2961a6d06f4a64d931d7758659e", "fusion_lon": 0.0}, {"rental_uris": {"ios": "https://dc.lft.to/lastmile_qr_scan", "android": "https://dc.lft.to/lastmile_qr_scan"}, "type": "electric_scooter", "name": "783812321eb0fdd736669ce172527821", "is_reserved": 0, "lon": -77.0191185, "is_disabled": 0, "fusion_lat": 0.0, "lat": 38.923374833333334, "bike_id": "783812321eb0fdd736669ce172527821", "fusion_lon": 0.0}, {"rental_uris": {"ios": "https://dc.lft.to/lastmile_qr_scan", "android": "https://dc.lft.to/lastmile_qr_scan"}, "type": "electric_bike", "name": "2136d346e572b1b5d5b148f12eeaf151", "is_reserved": 0, "lon": -77.03200333333334, "is_disabled": 0, "fusion_lat": 0.0, "lat": 38.909259, "bike_id": "2136d346e572b1b5d5b148f12eeaf151", "fusion_lon": 0.0}, {"rental_uris": {"ios": "https://dc.lft.to/lastmile_qr_scan", "android": "https://dc.lft.to/lastmile_qr_scan"}, "type": "electric_scooter", "name": "099eaae467756d29587b58732b6906a2", "is_reserved": 0, "lon": -77.035393, "is_disabled": 0, "fusion_lat": 0.0, "lat": 38.923387, "bike_id": "099eaae467756d29587b58732b6906a2", "fusion_lon": 0.0}, {"rental_uris": {"ios": "https://dc.lft.to/lastmile_qr_scan", "android": "https://dc.lft.to/lastmile_qr_scan"}, "type": "electric_scooter", "name": "0a4ac479195807bf61a646ca5c55c58c", "is_reserved": 0, "lon": -77.00571766666667, "is_disabled": 0, "fusion_lat": 0.0, "lat": 38.87461033333334, "bike_id": "0a4ac479195807bf61a646ca5c55c58c", "fusion_lon": 0.0}, {"rental_uris": {"ios": "https://dc.lft.to/lastmile_qr_scan", "android": "https://dc.lft.to/lastmile_qr_scan"}, "type": "electric_scooter", "name": "a2402d03ecb86938435e5187bcd39e08", "is_reserved": 0, "lon": -76.98504416666667, "is_disabled": 0, "fusion_lat": 0.0, "lat": 38.906913, "bike_id": "a2402d03ecb86938435e5187bcd39e08", "fusion_lon": 0.0}, {"rental_uris": {"ios": "https://dc.lft.to/lastmile_qr_scan", "android": "https://dc.lft.to/lastmile_qr_scan"}, "type": "electric_scooter", "name": "51043fb283b66da3f261e2dae94eea3a", "is_reserved": 0, "lon": -77.01762316666667, "is_disabled": 0, "fusion_lat": 0.0, "lat": 38.87712583333333, "bike_id": "51043fb283b66da3f261e2dae94eea3a", "fusion_lon": 0.0}, {"rental_uris": {"ios": "https://dc.lft.to/lastmile_qr_scan", "android": "https://dc.lft.to/lastmile_qr_scan"}, "type": "electric_scooter", "name": "10a643754b6024fd85ee931546040243", "is_reserved": 0, "lon": -76.95705783333334, "is_disabled": 0, "fusion_lat": 0.0, "lat": 38.89193083333333, "bike_id": "10a643754b6024fd85ee931546040243", "fusion_lon": 0.0}, {"rental_uris": {"ios": "https://dc.lft.to/lastmile_qr_scan", "android": "https://dc.lft.to/lastmile_qr_scan"}, "type": "electric_scooter", "name": "c45dfda560aa5fa204fafe1023d16b03", "is_reserved": 0, "lon": -77.03856183333333, "is_disabled": 0, "fusion_lat": 0.0, "lat": 38.917106833333335, "bike_id": "c45dfda560aa5fa204fafe1023d16b03", "fusion_lon": 0.0}, {"rental_uris": {"ios": "https://dc.lft.to/lastmile_qr_scan", "android": "https://dc.lft.to/lastmile_qr_scan"}, "type": "electric_scooter", "name": "453c201844040488a71e826d7b6fff74", "is_reserved": 0, "lon": -76.99034666666667, "is_disabled": 0, "fusion_lat": 0.0, "lat": 38.888727333333335, "bike_id": "453c201844040488a71e826d7b6fff74", "fusion_lon": 0.0}, {"rental_uris": {"ios": "https://dc.lft.to/lastmile_qr_scan", "android": "https://dc.lft.to/lastmile_qr_scan"}, "type": "electric_scooter", "name": "0f494068a83b4941d1e8a41e8760a6e5", "is_reserved": 0, "lon": -77.0115165, "is_disabled": 0, "fusion_lat": 0.0, "lat": 38.91459166666667, "bike_id": "0f494068a83b4941d1e8a41e8760a6e5", "fusion_lon": 0.0}, {"rental_uris": {"ios": "https://dc.lft.to/lastmile_qr_scan", "android": "https://dc.lft.to/lastmile_qr_scan"}, "type": "electric_scooter", "name": "c015123c2ca48c80e5357c2dd6d21bd6", "is_reserved": 0, "lon": -77.04359766666667, "is_disabled": 0, "fusion_lat": 0.0, "lat": 38.901274666666666, "bike_id": "c015123c2ca48c80e5357c2dd6d21bd6", "fusion_lon": 0.0}, {"rental_uris": {"ios": "https://dc.lft.to/lastmile_qr_scan", "android": "https://dc.lft.to/lastmile_qr_scan"}, "type": "electric_scooter", "name": "833518bdcaa7d04ee4f0bfb72845cbd5", "is_reserved": 0, "lon": -77.0177315, "is_disabled": 0, "fusion_lat": 0.0, "lat": 38.92109383333333, "bike_id": "833518bdcaa7d04ee4f0bfb72845cbd5", "fusion_lon": 0.0}, {"rental_uris": {"ios": "https://dc.lft.to/lastmile_qr_scan", "android": "https://dc.lft.to/lastmile_qr_scan"}, "type": "electric_scooter", "name": "321c20b0cf418861cab205569718700c", "is_reserved": 0, "lon": -77.0327155, "is_disabled": 0, "fusion_lat": 0.0, "lat": 38.92852383333334, "bike_id": "321c20b0cf418861cab205569718700c", "fusion_lon": 0.0}, {"rental_uris": {"ios": "https://dc.lft.to/lastmile_qr_scan", "android": "https://dc.lft.to/lastmile_qr_scan"}, "type": "electric_scooter", "name": "3ded4439ea199197711dbfa460975f3b", "is_reserved": 0, "lon": -77.009282, "is_disabled": 0, "fusion_lat": 0.0, "lat": 38.912574666666664, "bike_id": "3ded4439ea199197711dbfa460975f3b", "fusion_lon": 0.0}, {"rental_uris": {"ios": "https://dc.lft.to/lastmile_qr_scan", "android": "https://dc.lft.to/lastmile_qr_scan"}, "type": "electric_scooter", "name": "104c820687f52a8b1f511ac31af78ace", "is_reserved": 0, "lon": -77.038189, "is_disabled": 0, "fusion_lat": 0.0, "lat": 38.915555833333336, "bike_id": "104c820687f52a8b1f511ac31af78ace", "fusion_lon": 0.0}, {"rental_uris": {"ios": "https://dc.lft.to/lastmile_qr_scan", "android": "https://dc.lft.to/lastmile_qr_scan"}, "type": "electric_scooter", "name": "46e887a3421bdc9e3b6afa0febb1af75", "is_reserved": 0, "lon": -77.00390866666666, "is_disabled": 0, "fusion_lat": 0.0, "lat": 38.87457283333333, "bike_id": "46e887a3421bdc9e3b6afa0febb1af75", "fusion_lon": 0.0}, {"rental_uris": {"ios": "https://dc.lft.to/lastmile_qr_scan", "android": "https://dc.lft.to/lastmile_qr_scan"}, "type": "electric_scooter", "name": "2aabff89617b8cd6f096bfaa543d2fd6", "is_reserved": 0, "lon": -77.0053365, "is_disabled": 0, "fusion_lat": 0.0, "lat": 38.8791935, "bike_id": "2aabff89617b8cd6f096bfaa543d2fd6", "fusion_lon": 0.0}, {"rental_uris": {"ios": "https://dc.lft.to/lastmile_qr_scan", "android": "https://dc.lft.to/lastmile_qr_scan"}, "type": "electric_scooter", "name": "84963dbbd8a3f7953129fb5415d6043d", "is_reserved": 0, "lon": -77.02106733333333, "is_disabled": 0, "fusion_lat": 0.0, "lat": 38.92316016666667, "bike_id": "84963dbbd8a3f7953129fb5415d6043d", "fusion_lon": 0.0}, {"rental_uris": {"ios": "https://dc.lft.to/lastmile_qr_scan", "android": "https://dc.lft.to/lastmile_qr_scan"}, "type": "electric_scooter", "name": "d090161caef097b9c255d407f8840f83", "is_reserved": 0, "lon": -77.05088216666667, "is_disabled": 0, "fusion_lat": 0.0, "lat": 38.8976745, "bike_id": "d090161caef097b9c255d407f8840f83", "fusion_lon": 0.0}, {"rental_uris": {"ios": "https://dc.lft.to/lastmile_qr_scan", "android": "https://dc.lft.to/lastmile_qr_scan"}, "type": "electric_scooter", "name": "031b1583f97f8ae190967adbd30b7ba1", "is_reserved": 0, "lon": -77.04568233333333, "is_disabled": 0, "fusion_lat": 0.0, "lat": 38.914053, "bike_id": "031b1583f97f8ae190967adbd30b7ba1", "fusion_lon": 0.0}, {"rental_uris": {"ios": "https://dc.lft.to/lastmile_qr_scan", "android": "https://dc.lft.to/lastmile_qr_scan"}, "type": "electric_scooter", "name": "9ddd65ca0669be2207bf5cc734ecf4e3", "is_reserved": 0, "lon": -77.03860366666666, "is_disabled": 0, "fusion_lat": 0.0, "lat": 38.9118055, "bike_id": "9ddd65ca0669be2207bf5cc734ecf4e3", "fusion_lon": 0.0}, {"rental_uris": {"ios": "https://dc.lft.to/lastmile_qr_scan", "android": "https://dc.lft.to/lastmile_qr_scan"}, "type": "electric_scooter", "name": "3983a65f86b3f476361351d55111b76c", "is_reserved": 0, "lon": -77.03288366666666, "is_disabled": 0, "fusion_lat": 0.0, "lat": 38.89889266666667, "bike_id": "3983a65f86b3f476361351d55111b76c", "fusion_lon": 0.0}, {"rental_uris": {"ios": "https://dc.lft.to/lastmile_qr_scan", "android": "https://dc.lft.to/lastmile_qr_scan"}, "type": "electric_bike", "name": "243d613a0bbf4cd4e03f4077664561a8", "is_reserved": 0, "lon": -77.00677433333334, "is_disabled": 0, "fusion_lat": 0.0, "lat": 38.94514183333333, "bike_id": "243d613a0bbf4cd4e03f4077664561a8", "fusion_lon": 0.0}, {"rental_uris": {"ios": "https://dc.lft.to/lastmile_qr_scan", "android": "https://dc.lft.to/lastmile_qr_scan"}, "type": "electric_scooter", "name": "423f4a9ab28dbe9b1eacfe1c590ad081", "is_reserved": 0, "lon": -77.01217116666666, "is_disabled": 0, "fusion_lat": 0.0, "lat": 38.876687, "bike_id": "423f4a9ab28dbe9b1eacfe1c590ad081", "fusion_lon": 0.0}, {"rental_uris": {"ios": "https://dc.lft.to/lastmile_qr_scan", "android": "https://dc.lft.to/lastmile_qr_scan"}, "type": "electric_scooter", "name": "828c01f563a50260983606c2c664058e", "is_reserved": 0, "lon": -77.029591, "is_disabled": 0, "fusion_lat": 0.0, "lat": 38.9072845, "bike_id": "828c01f563a50260983606c2c664058e", "fusion_lon": 0.0}, {"rental_uris": {"ios": "https://dc.lft.to/lastmile_qr_scan", "android": "https://dc.lft.to/lastmile_qr_scan"}, "type": "electric_scooter", "name": "201c69fcbf6afbf23af37a78369cdced", "is_reserved": 0, "lon": -77.03201416666667, "is_disabled": 0, "fusion_lat": 0.0, "lat": 38.92025866666667, "bike_id": "201c69fcbf6afbf23af37a78369cdced", "fusion_lon": 0.0}, {"rental_uris": {"ios": "https://dc.lft.to/lastmile_qr_scan", "android": "https://dc.lft.to/lastmile_qr_scan"}, "type": "electric_scooter", "name": "5fc89e61509c3b8bcb1ccce2d9a59fb0", "is_reserved": 0, "lon": -77.0240425, "is_disabled": 0, "fusion_lat": 0.0, "lat": 38.92074066666667, "bike_id": "5fc89e61509c3b8bcb1ccce2d9a59fb0", "fusion_lon": 0.0}, {"rental_uris": {"ios": "https://dc.lft.to/lastmile_qr_scan", "android": "https://dc.lft.to/lastmile_qr_scan"}, "type": "electric_scooter", "name": "62efb7e2653e8c1b2a273bedbe0cfe1c", "is_reserved": 0, "lon": -77.0217265, "is_disabled": 0, "fusion_lat": 0.0, "lat": 38.894779666666665, "bike_id": "62efb7e2653e8c1b2a273bedbe0cfe1c", "fusion_lon": 0.0}, {"rental_uris": {"ios": "https://dc.lft.to/lastmile_qr_scan", "android": "https://dc.lft.to/lastmile_qr_scan"}, "type": "electric_scooter", "name": "bab02fe5cbab36a15ca480b8469ab290", "is_reserved": 0, "lon": -77.02121083333333, "is_disabled": 0, "fusion_lat": 0.0, "lat": 38.923504666666666, "bike_id": "bab02fe5cbab36a15ca480b8469ab290", "fusion_lon": 0.0}, {"rental_uris": {"ios": "https://dc.lft.to/lastmile_qr_scan", "android": "https://dc.lft.to/lastmile_qr_scan"}, "type": "electric_scooter", "name": "1687012252a995d1b885085ea1bc7e05", "is_reserved": 0, "lon": -76.94854316666667, "is_disabled": 0, "fusion_lat": 0.0, "lat": 38.883005833333335, "bike_id": "1687012252a995d1b885085ea1bc7e05", "fusion_lon": 0.0}, {"rental_uris": {"ios": "https://dc.lft.to/lastmile_qr_scan", "android": "https://dc.lft.to/lastmile_qr_scan"}, "type": "electric_bike", "name": "25ca93c4940b2879259a2e4194bd6e8d", "is_reserved": 0, "lon": -76.9582485, "is_disabled": 0, "fusion_lat": 0.0, "lat": 38.920076333333334, "bike_id": "25ca93c4940b2879259a2e4194bd6e8d", "fusion_lon": 0.0}, {"rental_uris": {"ios": "https://dc.lft.to/lastmile_qr_scan", "android": "https://dc.lft.to/lastmile_qr_scan"}, "type": "electric_scooter", "name": "fc0b78a381a09e1c6ded9af6bad46b06", "is_reserved": 0, "lon": -76.98229283333333, "is_disabled": 0, "fusion_lat": 0.0, "lat": 38.902068, "bike_id": "fc0b78a381a09e1c6ded9af6bad46b06", "fusion_lon": 0.0}, {"rental_uris": {"ios": "https://dc.lft.to/lastmile_qr_scan", "android": "https://dc.lft.to/lastmile_qr_scan"}, "type": "electric_scooter", "name": "3178c1d4b3388eacd7277339c4079e5b", "is_reserved": 0, "lon": -77.03428666666667, "is_disabled": 0, "fusion_lat": 0.0, "lat": 38.92875016666667, "bike_id": "3178c1d4b3388eacd7277339c4079e5b", "fusion_lon": 0.0}, {"rental_uris": {"ios": "https://dc.lft.to/lastmile_qr_scan", "android": "https://dc.lft.to/lastmile_qr_scan"}, "type": "electric_scooter", "name": "de65139ef414101970d19490c8af3cae", "is_reserved": 0, "lon": -77.00360816666667, "is_disabled": 0, "fusion_lat": 0.0, "lat": 38.892725, "bike_id": "de65139ef414101970d19490c8af3cae", "fusion_lon": 0.0}, {"rental_uris": {"ios": "https://dc.lft.to/lastmile_qr_scan", "android": "https://dc.lft.to/lastmile_qr_scan"}, "type": "electric_scooter", "name": "3f68671ba9e9d348f797764a2d88c9cd", "is_reserved": 0, "lon": -77.01909033333334, "is_disabled": 0, "fusion_lat": 0.0, "lat": 38.89489233333333, "bike_id": "3f68671ba9e9d348f797764a2d88c9cd", "fusion_lon": 0.0}, {"rental_uris": {"ios": "https://dc.lft.to/lastmile_qr_scan", "android": "https://dc.lft.to/lastmile_qr_scan"}, "type": "electric_scooter", "name": "44fb1bb781ad91e03362c465ca899b23", "is_reserved": 0, "lon": -77.031872, "is_disabled": 0, "fusion_lat": 0.0, "lat": 38.913507833333334, "bike_id": "44fb1bb781ad91e03362c465ca899b23", "fusion_lon": 0.0}, {"rental_uris": {"ios": "https://dc.lft.to/lastmile_qr_scan", "android": "https://dc.lft.to/lastmile_qr_scan"}, "type": "electric_scooter", "name": "bbed97767b1b07732136eb6e3853bff1", "is_reserved": 0, "lon": -77.04698916666666, "is_disabled": 0, "fusion_lat": 0.0, "lat": 38.92110683333333, "bike_id": "bbed97767b1b07732136eb6e3853bff1", "fusion_lon": 0.0}, {"rental_uris": {"ios": "https://dc.lft.to/lastmile_qr_scan", "android": "https://dc.lft.to/lastmile_qr_scan"}, "type": "electric_scooter", "name": "42c29ffbcf69e7ffa0c55b8c2b4daebd", "is_reserved": 0, "lon": -77.02119933333333, "is_disabled": 0, "fusion_lat": 0.0, "lat": 38.92405183333333, "bike_id": "42c29ffbcf69e7ffa0c55b8c2b4daebd", "fusion_lon": 0.0}, {"rental_uris": {"ios": "https://dc.lft.to/lastmile_qr_scan", "android": "https://dc.lft.to/lastmile_qr_scan"}, "type": "electric_scooter", "name": "77875411463873470e174febcba750aa", "is_reserved": 0, "lon": -77.04735283333333, "is_disabled": 0, "fusion_lat": 0.0, "lat": 38.89556916666667, "bike_id": "77875411463873470e174febcba750aa", "fusion_lon": 0.0}, {"rental_uris": {"ios": "https://dc.lft.to/lastmile_qr_scan", "android": "https://dc.lft.to/lastmile_qr_scan"}, "type": "electric_scooter", "name": "dbd36a030fc5d7aee298f9a4c81ad2f4", "is_reserved": 0, "lon": -77.01779666666667, "is_disabled": 0, "fusion_lat": 0.0, "lat": 38.904965, "bike_id": "dbd36a030fc5d7aee298f9a4c81ad2f4", "fusion_lon": 0.0}, {"rental_uris": {"ios": "https://dc.lft.to/lastmile_qr_scan", "android": "https://dc.lft.to/lastmile_qr_scan"}, "type": "electric_scooter", "name": "d9e2cb9feb099547ac3e85793f034b28", "is_reserved": 0, "lon": -77.0227595, "is_disabled": 0, "fusion_lat": 0.0, "lat": 38.915539333333335, "bike_id": "d9e2cb9feb099547ac3e85793f034b28", "fusion_lon": 0.0}, {"rental_uris": {"ios": "https://dc.lft.to/lastmile_qr_scan", "android": "https://dc.lft.to/lastmile_qr_scan"}, "type": "electric_scooter", "name": "06e6c82e823030c2675cfd12da87a0f9", "is_reserved": 0, "lon": -77.0452855, "is_disabled": 0, "fusion_lat": 0.0, "lat": 38.91817966666667, "bike_id": "06e6c82e823030c2675cfd12da87a0f9", "fusion_lon": 0.0}, {"rental_uris": {"ios": "https://dc.lft.to/lastmile_qr_scan", "android": "https://dc.lft.to/lastmile_qr_scan"}, "type": "electric_scooter", "name": "29d7e1cfcd289d79c2b15ff0da8120b9", "is_reserved": 0, "lon": -77.0416135, "is_disabled": 0, "fusion_lat": 0.0, "lat": 38.91566016666667, "bike_id": "29d7e1cfcd289d79c2b15ff0da8120b9", "fusion_lon": 0.0}, {"rental_uris": {"ios": "https://dc.lft.to/lastmile_qr_scan", "android": "https://dc.lft.to/lastmile_qr_scan"}, "type": "electric_scooter", "name": "738cf72b484530759068d3293c60b2de", "is_reserved": 0, "lon": -76.99421833333334, "is_disabled": 0, "fusion_lat": 0.0, "lat": 38.91685666666667, "bike_id": "738cf72b484530759068d3293c60b2de", "fusion_lon": 0.0}, {"rental_uris": {"ios": "https://dc.lft.to/lastmile_qr_scan", "android": "https://dc.lft.to/lastmile_qr_scan"}, "type": "electric_scooter", "name": "bf564e27eaf4fd45647aafabe4538f48", "is_reserved": 0, "lon": -77.02481616666667, "is_disabled": 0, "fusion_lat": 0.0, "lat": 38.9181555, "bike_id": "bf564e27eaf4fd45647aafabe4538f48", "fusion_lon": 0.0}, {"rental_uris": {"ios": "https://dc.lft.to/lastmile_qr_scan", "android": "https://dc.lft.to/lastmile_qr_scan"}, "type": "electric_scooter", "name": "fbf32ad2fea184f90d8703d5636cc83d", "is_reserved": 0, "lon": -77.03180566666667, "is_disabled": 0, "fusion_lat": 0.0, "lat": 38.92005783333333, "bike_id": "fbf32ad2fea184f90d8703d5636cc83d", "fusion_lon": 0.0}, {"rental_uris": {"ios": "https://dc.lft.to/lastmile_qr_scan", "android": "https://dc.lft.to/lastmile_qr_scan"}, "type": "electric_scooter", "name": "040c16b1a302a1b4e8bc1e3d4a247be5", "is_reserved": 0, "lon": -77.02607033333334, "is_disabled": 0, "fusion_lat": 0.0, "lat": 38.893071666666664, "bike_id": "040c16b1a302a1b4e8bc1e3d4a247be5", "fusion_lon": 0.0}, {"rental_uris": {"ios": "https://dc.lft.to/lastmile_qr_scan", "android": "https://dc.lft.to/lastmile_qr_scan"}, "type": "electric_scooter", "name": "ec4ddf8617c762b484275f8159cfdadb", "is_reserved": 0, "lon": -77.02092066666667, "is_disabled": 0, "fusion_lat": 0.0, "lat": 38.92913583333333, "bike_id": "ec4ddf8617c762b484275f8159cfdadb", "fusion_lon": 0.0}, {"rental_uris": {"ios": "https://dc.lft.to/lastmile_qr_scan", "android": "https://dc.lft.to/lastmile_qr_scan"}, "type": "electric_scooter", "name": "d719f0fa72f0f694c6b699487d876e88", "is_reserved": 0, "lon": -77.032235, "is_disabled": 0, "fusion_lat": 0.0, "lat": 38.90971016666667, "bike_id": "d719f0fa72f0f694c6b699487d876e88", "fusion_lon": 0.0}, {"rental_uris": {"ios": "https://dc.lft.to/lastmile_qr_scan", "android": "https://dc.lft.to/lastmile_qr_scan"}, "type": "electric_bike", "name": "0dfca199b9afd6bf6c68b5c59d99fe9c", "is_reserved": 0, "lon": -76.980176, "is_disabled": 0, "fusion_lat": 0.0, "lat": 38.853102166666666, "bike_id": "0dfca199b9afd6bf6c68b5c59d99fe9c", "fusion_lon": 0.0}, {"rental_uris": {"ios": "https://dc.lft.to/lastmile_qr_scan", "android": "https://dc.lft.to/lastmile_qr_scan"}, "type": "electric_scooter", "name": "b2d6954e09f6260f2c80c47b93d95d4a", "is_reserved": 0, "lon": -77.03872566666666, "is_disabled": 0, "fusion_lat": 0.0, "lat": 38.903585166666666, "bike_id": "b2d6954e09f6260f2c80c47b93d95d4a", "fusion_lon": 0.0}, {"rental_uris": {"ios": "https://dc.lft.to/lastmile_qr_scan", "android": "https://dc.lft.to/lastmile_qr_scan"}, "type": "electric_scooter", "name": "15900d1b7d592e8ae7dfb04d2f1733ae", "is_reserved": 0, "lon": -77.00748716666666, "is_disabled": 0, "fusion_lat": 0.0, "lat": 38.9110435, "bike_id": "15900d1b7d592e8ae7dfb04d2f1733ae", "fusion_lon": 0.0}, {"rental_uris": {"ios": "https://dc.lft.to/lastmile_qr_scan", "android": "https://dc.lft.to/lastmile_qr_scan"}, "type": "electric_scooter", "name": "15bf8dd39404f018d1ebd881b7c25eb9", "is_reserved": 0, "lon": -77.03439716666666, "is_disabled": 0, "fusion_lat": 0.0, "lat": 38.905778833333336, "bike_id": "15bf8dd39404f018d1ebd881b7c25eb9", "fusion_lon": 0.0}, {"rental_uris": {"ios": "https://dc.lft.to/lastmile_qr_scan", "android": "https://dc.lft.to/lastmile_qr_scan"}, "type": "electric_scooter", "name": "328523caa443d319bb2fa26eff815cc1", "is_reserved": 0, "lon": -77.04220983333333, "is_disabled": 0, "fusion_lat": 0.0, "lat": 38.911196833333335, "bike_id": "328523caa443d319bb2fa26eff815cc1", "fusion_lon": 0.0}, {"rental_uris": {"ios": "https://dc.lft.to/lastmile_qr_scan", "android": "https://dc.lft.to/lastmile_qr_scan"}, "type": "electric_scooter", "name": "59bcb93c0b00508bc8afa2ef24286cca", "is_reserved": 0, "lon": -77.0191535, "is_disabled": 0, "fusion_lat": 0.0, "lat": 38.89726616666667, "bike_id": "59bcb93c0b00508bc8afa2ef24286cca", "fusion_lon": 0.0}, {"rental_uris": {"ios": "https://dc.lft.to/lastmile_qr_scan", "android": "https://dc.lft.to/lastmile_qr_scan"}, "type": "electric_scooter", "name": "0ce99f7f08b163e9c0e91839d38d69ce", "is_reserved": 0, "lon": -77.04364, "is_disabled": 0, "fusion_lat": 0.0, "lat": 38.89755183333333, "bike_id": "0ce99f7f08b163e9c0e91839d38d69ce", "fusion_lon": 0.0}, {"rental_uris": {"ios": "https://dc.lft.to/lastmile_qr_scan", "android": "https://dc.lft.to/lastmile_qr_scan"}, "type": "electric_scooter", "name": "38d878eef5e3228f81dc5937b5c351f0", "is_reserved": 0, "lon": -77.04026383333333, "is_disabled": 0, "fusion_lat": 0.0, "lat": 38.92167833333333, "bike_id": "38d878eef5e3228f81dc5937b5c351f0", "fusion_lon": 0.0}, {"rental_uris": {"ios": "https://dc.lft.to/lastmile_qr_scan", "android": "https://dc.lft.to/lastmile_qr_scan"}, "type": "electric_scooter", "name": "daf3dff72eca344232be4180ea4e136b", "is_reserved": 0, "lon": -77.03415616666666, "is_disabled": 0, "fusion_lat": 0.0, "lat": 38.92400216666667, "bike_id": "daf3dff72eca344232be4180ea4e136b", "fusion_lon": 0.0}, {"rental_uris": {"ios": "https://dc.lft.to/lastmile_qr_scan", "android": "https://dc.lft.to/lastmile_qr_scan"}, "type": "electric_scooter", "name": "f04528099dd521b39712930e59498762", "is_reserved": 0, "lon": -77.020943, "is_disabled": 0, "fusion_lat": 0.0, "lat": 38.9270945, "bike_id": "f04528099dd521b39712930e59498762", "fusion_lon": 0.0}, {"rental_uris": {"ios": "https://dc.lft.to/lastmile_qr_scan", "android": "https://dc.lft.to/lastmile_qr_scan"}, "type": "electric_scooter", "name": "f3e43849c03cc51a72d3faf708e84301", "is_reserved": 0, "lon": -77.04083333333334, "is_disabled": 0, "fusion_lat": 0.0, "lat": 38.94787566666667, "bike_id": "f3e43849c03cc51a72d3faf708e84301", "fusion_lon": 0.0}, {"rental_uris": {"ios": "https://dc.lft.to/lastmile_qr_scan", "android": "https://dc.lft.to/lastmile_qr_scan"}, "type": "electric_scooter", "name": "4f5d47d58b12d257d08a1428fee1bfcf", "is_reserved": 0, "lon": -77.02376083333333, "is_disabled": 0, "fusion_lat": 0.0, "lat": 38.916768166666664, "bike_id": "4f5d47d58b12d257d08a1428fee1bfcf", "fusion_lon": 0.0}, {"rental_uris": {"ios": "https://dc.lft.to/lastmile_qr_scan", "android": "https://dc.lft.to/lastmile_qr_scan"}, "type": "electric_scooter", "name": "bd11893d8834ce4a2bff14aef451065c", "is_reserved": 0, "lon": -76.98072516666667, "is_disabled": 0, "fusion_lat": 0.0, "lat": 38.901761, "bike_id": "bd11893d8834ce4a2bff14aef451065c", "fusion_lon": 0.0}, {"rental_uris": {"ios": "https://dc.lft.to/lastmile_qr_scan", "android": "https://dc.lft.to/lastmile_qr_scan"}, "type": "electric_scooter", "name": "a957e1b36cef742d87bb4d454c25c829", "is_reserved": 0, "lon": -77.03249583333333, "is_disabled": 0, "fusion_lat": 0.0, "lat": 38.919898, "bike_id": "a957e1b36cef742d87bb4d454c25c829", "fusion_lon": 0.0}, {"rental_uris": {"ios": "https://dc.lft.to/lastmile_qr_scan", "android": "https://dc.lft.to/lastmile_qr_scan"}, "type": "electric_scooter", "name": "09b3a067a8fcbec906370214feafeab4", "is_reserved": 0, "lon": -77.04127166666666, "is_disabled": 0, "fusion_lat": 0.0, "lat": 38.933627, "bike_id": "09b3a067a8fcbec906370214feafeab4", "fusion_lon": 0.0}, {"rental_uris": {"ios": "https://dc.lft.to/lastmile_qr_scan", "android": "https://dc.lft.to/lastmile_qr_scan"}, "type": "electric_scooter", "name": "70fd2de8a3f402b54608035f1b2dd696", "is_reserved": 0, "lon": -77.0387045, "is_disabled": 0, "fusion_lat": 0.0, "lat": 38.9118405, "bike_id": "70fd2de8a3f402b54608035f1b2dd696", "fusion_lon": 0.0}, {"rental_uris": {"ios": "https://dc.lft.to/lastmile_qr_scan", "android": "https://dc.lft.to/lastmile_qr_scan"}, "type": "electric_scooter", "name": "ff2f7af75e0c419ea92790abf910e5bf", "is_reserved": 0, "lon": -77.0036425, "is_disabled": 0, "fusion_lat": 0.0, "lat": 38.899298333333334, "bike_id": "ff2f7af75e0c419ea92790abf910e5bf", "fusion_lon": 0.0}, {"rental_uris": {"ios": "https://dc.lft.to/lastmile_qr_scan", "android": "https://dc.lft.to/lastmile_qr_scan"}, "type": "electric_scooter", "name": "738c137c996b5b9c33021ea6dfaf7c41", "is_reserved": 0, "lon": -77.020924, "is_disabled": 0, "fusion_lat": 0.0, "lat": 38.927217666666664, "bike_id": "738c137c996b5b9c33021ea6dfaf7c41", "fusion_lon": 0.0}, {"rental_uris": {"ios": "https://dc.lft.to/lastmile_qr_scan", "android": "https://dc.lft.to/lastmile_qr_scan"}, "type": "electric_scooter", "name": "5bdeafa06fd7e746014e82cfc1f3968b", "is_reserved": 0, "lon": -77.043586, "is_disabled": 0, "fusion_lat": 0.0, "lat": 38.926744, "bike_id": "5bdeafa06fd7e746014e82cfc1f3968b", "fusion_lon": 0.0}, {"rental_uris": {"ios": "https://dc.lft.to/lastmile_qr_scan", "android": "https://dc.lft.to/lastmile_qr_scan"}, "type": "electric_bike", "name": "0e09378e41e9825e1924f7933ef18282", "is_reserved": 0, "lon": -76.91721616666666, "is_disabled": 0, "fusion_lat": 0.0, "lat": 38.880296666666666, "bike_id": "0e09378e41e9825e1924f7933ef18282", "fusion_lon": 0.0}, {"rental_uris": {"ios": "https://dc.lft.to/lastmile_qr_scan", "android": "https://dc.lft.to/lastmile_qr_scan"}, "type": "electric_scooter", "name": "94a47c8eaea9023864804a473ff13e7d", "is_reserved": 0, "lon": -77.00201216666666, "is_disabled": 0, "fusion_lat": 0.0, "lat": 38.90244033333333, "bike_id": "94a47c8eaea9023864804a473ff13e7d", "fusion_lon": 0.0}, {"rental_uris": {"ios": "https://dc.lft.to/lastmile_qr_scan", "android": "https://dc.lft.to/lastmile_qr_scan"}, "type": "electric_scooter", "name": "4463e03e02123594655cb161ffa57c7a", "is_reserved": 0, "lon": -77.04626683333333, "is_disabled": 0, "fusion_lat": 0.0, "lat": 38.91931433333333, "bike_id": "4463e03e02123594655cb161ffa57c7a", "fusion_lon": 0.0}, {"rental_uris": {"ios": "https://dc.lft.to/lastmile_qr_scan", "android": "https://dc.lft.to/lastmile_qr_scan"}, "type": "electric_scooter", "name": "04d538ca617ce12ec11cb2195b6ff1ac", "is_reserved": 0, "lon": -77.03908733333333, "is_disabled": 0, "fusion_lat": 0.0, "lat": 38.908304, "bike_id": "04d538ca617ce12ec11cb2195b6ff1ac", "fusion_lon": 0.0}, {"rental_uris": {"ios": "https://dc.lft.to/lastmile_qr_scan", "android": "https://dc.lft.to/lastmile_qr_scan"}, "type": "electric_scooter", "name": "96682b5587d435d011b0bb4b2b6a7ce3", "is_reserved": 0, "lon": -77.005233, "is_disabled": 0, "fusion_lat": 0.0, "lat": 38.88512933333333, "bike_id": "96682b5587d435d011b0bb4b2b6a7ce3", "fusion_lon": 0.0}, {"rental_uris": {"ios": "https://dc.lft.to/lastmile_qr_scan", "android": "https://dc.lft.to/lastmile_qr_scan"}, "type": "electric_scooter", "name": "cbf263134a919b6c7150537228150053", "is_reserved": 0, "lon": -77.01221766666667, "is_disabled": 0, "fusion_lat": 0.0, "lat": 38.920357333333335, "bike_id": "cbf263134a919b6c7150537228150053", "fusion_lon": 0.0}, {"rental_uris": {"ios": "https://dc.lft.to/lastmile_qr_scan", "android": "https://dc.lft.to/lastmile_qr_scan"}, "type": "electric_scooter", "name": "24df15b8185c1c3c15c6fe30998a61e3", "is_reserved": 0, "lon": -77.01498766666667, "is_disabled": 0, "fusion_lat": 0.0, "lat": 38.892215666666665, "bike_id": "24df15b8185c1c3c15c6fe30998a61e3", "fusion_lon": 0.0}, {"rental_uris": {"ios": "https://dc.lft.to/lastmile_qr_scan", "android": "https://dc.lft.to/lastmile_qr_scan"}, "type": "electric_scooter", "name": "83ccc066cb160744f804f9655dbad1c6", "is_reserved": 0, "lon": -77.011009, "is_disabled": 0, "fusion_lat": 0.0, "lat": 38.885406833333334, "bike_id": "83ccc066cb160744f804f9655dbad1c6", "fusion_lon": 0.0}, {"rental_uris": {"ios": "https://dc.lft.to/lastmile_qr_scan", "android": "https://dc.lft.to/lastmile_qr_scan"}, "type": "electric_scooter", "name": "bb59d6dfbaac8a5bd19b0f837355ce89", "is_reserved": 0, "lon": -77.02953316666667, "is_disabled": 0, "fusion_lat": 0.0, "lat": 38.884054666666664, "bike_id": "bb59d6dfbaac8a5bd19b0f837355ce89", "fusion_lon": 0.0}, {"rental_uris": {"ios": "https://dc.lft.to/lastmile_qr_scan", "android": "https://dc.lft.to/lastmile_qr_scan"}, "type": "electric_scooter", "name": "9d9570b4630eb742b7c40d4169097772", "is_reserved": 0, "lon": -77.0020315, "is_disabled": 0, "fusion_lat": 0.0, "lat": 38.90037133333333, "bike_id": "9d9570b4630eb742b7c40d4169097772", "fusion_lon": 0.0}, {"rental_uris": {"ios": "https://dc.lft.to/lastmile_qr_scan", "android": "https://dc.lft.to/lastmile_qr_scan"}, "type": "electric_scooter", "name": "d3ace0b3a89679a951331f3dbf7dcf87", "is_reserved": 0, "lon": -77.02716233333334, "is_disabled": 0, "fusion_lat": 0.0, "lat": 38.899906333333334, "bike_id": "d3ace0b3a89679a951331f3dbf7dcf87", "fusion_lon": 0.0}, {"rental_uris": {"ios": "https://dc.lft.to/lastmile_qr_scan", "android": "https://dc.lft.to/lastmile_qr_scan"}, "type": "electric_bike", "name": "e3af3481b4ccfe62d06e0bc375cc1f87", "is_reserved": 0, "lon": -76.99035, "is_disabled": 0, "fusion_lat": 0.0, "lat": 38.897770333333334, "bike_id": "e3af3481b4ccfe62d06e0bc375cc1f87", "fusion_lon": 0.0}, {"rental_uris": {"ios": "https://dc.lft.to/lastmile_qr_scan", "android": "https://dc.lft.to/lastmile_qr_scan"}, "type": "electric_bike", "name": "736bda73dcd0d7938e46020f85187e9e", "is_reserved": 0, "lon": -76.96101566666667, "is_disabled": 0, "fusion_lat": 0.0, "lat": 38.949682333333335, "bike_id": "736bda73dcd0d7938e46020f85187e9e", "fusion_lon": 0.0}, {"rental_uris": {"ios": "https://dc.lft.to/lastmile_qr_scan", "android": "https://dc.lft.to/lastmile_qr_scan"}, "type": "electric_scooter", "name": "17792cf7c87181366c5564f9595c9e63", "is_reserved": 0, "lon": -77.0215315, "is_disabled": 0, "fusion_lat": 0.0, "lat": 38.90221016666667, "bike_id": "17792cf7c87181366c5564f9595c9e63", "fusion_lon": 0.0}, {"rental_uris": {"ios": "https://dc.lft.to/lastmile_qr_scan", "android": "https://dc.lft.to/lastmile_qr_scan"}, "type": "electric_scooter", "name": "0140b59540f4ecc0f1f2ec813cc2fa55", "is_reserved": 0, "lon": -77.035662, "is_disabled": 0, "fusion_lat": 0.0, "lat": 38.90636833333333, "bike_id": "0140b59540f4ecc0f1f2ec813cc2fa55", "fusion_lon": 0.0}, {"rental_uris": {"ios": "https://dc.lft.to/lastmile_qr_scan", "android": "https://dc.lft.to/lastmile_qr_scan"}, "type": "electric_scooter", "name": "8e4f152cf21a5d3d2c94d1e6938d020f", "is_reserved": 0, "lon": -76.9959545, "is_disabled": 0, "fusion_lat": 0.0, "lat": 38.90032033333333, "bike_id": "8e4f152cf21a5d3d2c94d1e6938d020f", "fusion_lon": 0.0}, {"rental_uris": {"ios": "https://dc.lft.to/lastmile_qr_scan", "android": "https://dc.lft.to/lastmile_qr_scan"}, "type": "electric_scooter", "name": "875b1c683dabd5df19fac414f2b9f702", "is_reserved": 0, "lon": -77.0272395, "is_disabled": 0, "fusion_lat": 0.0, "lat": 38.924822166666665, "bike_id": "875b1c683dabd5df19fac414f2b9f702", "fusion_lon": 0.0}, {"rental_uris": {"ios": "https://dc.lft.to/lastmile_qr_scan", "android": "https://dc.lft.to/lastmile_qr_scan"}, "type": "electric_scooter", "name": "0efcbad014c22106e9908a98dddff2ad", "is_reserved": 0, "lon": -77.02867316666666, "is_disabled": 0, "fusion_lat": 0.0, "lat": 38.932775, "bike_id": "0efcbad014c22106e9908a98dddff2ad", "fusion_lon": 0.0}, {"rental_uris": {"ios": "https://dc.lft.to/lastmile_qr_scan", "android": "https://dc.lft.to/lastmile_qr_scan"}, "type": "electric_scooter", "name": "2562b0049950da3c54b874cc414d44c4", "is_reserved": 0, "lon": -77.03025816666667, "is_disabled": 0, "fusion_lat": 0.0, "lat": 38.922487833333335, "bike_id": "2562b0049950da3c54b874cc414d44c4", "fusion_lon": 0.0}, {"rental_uris": {"ios": "https://dc.lft.to/lastmile_qr_scan", "android": "https://dc.lft.to/lastmile_qr_scan"}, "type": "electric_scooter", "name": "fb4994a90d12e5aab9156a6f20fd1750", "is_reserved": 0, "lon": -77.04595033333334, "is_disabled": 0, "fusion_lat": 0.0, "lat": 38.91850866666667, "bike_id": "fb4994a90d12e5aab9156a6f20fd1750", "fusion_lon": 0.0}, {"rental_uris": {"ios": "https://dc.lft.to/lastmile_qr_scan", "android": "https://dc.lft.to/lastmile_qr_scan"}, "type": "electric_scooter", "name": "e8bc81314068a0c47536afbd7b550df1", "is_reserved": 0, "lon": -77.05228316666667, "is_disabled": 0, "fusion_lat": 0.0, "lat": 38.898492, "bike_id": "e8bc81314068a0c47536afbd7b550df1", "fusion_lon": 0.0}, {"rental_uris": {"ios": "https://dc.lft.to/lastmile_qr_scan", "android": "https://dc.lft.to/lastmile_qr_scan"}, "type": "electric_scooter", "name": "1ead398832099297eb06ef9c842ec12c", "is_reserved": 0, "lon": -77.03699333333333, "is_disabled": 0, "fusion_lat": 0.0, "lat": 38.93275766666667, "bike_id": "1ead398832099297eb06ef9c842ec12c", "fusion_lon": 0.0}, {"rental_uris": {"ios": "https://dc.lft.to/lastmile_qr_scan", "android": "https://dc.lft.to/lastmile_qr_scan"}, "type": "electric_scooter", "name": "9d79ad828fe7df20593be5e3341b14e2", "is_reserved": 0, "lon": -77.02480066666666, "is_disabled": 0, "fusion_lat": 0.0, "lat": 38.901719166666666, "bike_id": "9d79ad828fe7df20593be5e3341b14e2", "fusion_lon": 0.0}, {"rental_uris": {"ios": "https://dc.lft.to/lastmile_qr_scan", "android": "https://dc.lft.to/lastmile_qr_scan"}, "type": "electric_scooter", "name": "5fc7157eb9110b70e603efb98f7482bb", "is_reserved": 0, "lon": -77.03227883333334, "is_disabled": 0, "fusion_lat": 0.0, "lat": 38.898932, "bike_id": "5fc7157eb9110b70e603efb98f7482bb", "fusion_lon": 0.0}, {"rental_uris": {"ios": "https://dc.lft.to/lastmile_qr_scan", "android": "https://dc.lft.to/lastmile_qr_scan"}, "type": "electric_scooter", "name": "09e39c42b42d83925a6a36bb39ed7aa4", "is_reserved": 0, "lon": -77.02589466666667, "is_disabled": 0, "fusion_lat": 0.0, "lat": 38.92034833333334, "bike_id": "09e39c42b42d83925a6a36bb39ed7aa4", "fusion_lon": 0.0}, {"rental_uris": {"ios": "https://dc.lft.to/lastmile_qr_scan", "android": "https://dc.lft.to/lastmile_qr_scan"}, "type": "electric_scooter", "name": "ddc4badb1d7194be5db02f93a7f49e1a", "is_reserved": 0, "lon": -77.001341, "is_disabled": 0, "fusion_lat": 0.0, "lat": 38.873753666666666, "bike_id": "ddc4badb1d7194be5db02f93a7f49e1a", "fusion_lon": 0.0}, {"rental_uris": {"ios": "https://dc.lft.to/lastmile_qr_scan", "android": "https://dc.lft.to/lastmile_qr_scan"}, "type": "electric_scooter", "name": "64e12b802f32f84559d1ced66aaa1a4f", "is_reserved": 0, "lon": -77.0532475, "is_disabled": 0, "fusion_lat": 0.0, "lat": 38.9045715, "bike_id": "64e12b802f32f84559d1ced66aaa1a4f", "fusion_lon": 0.0}, {"rental_uris": {"ios": "https://dc.lft.to/lastmile_qr_scan", "android": "https://dc.lft.to/lastmile_qr_scan"}, "type": "electric_scooter", "name": "29e2c3c3ca5016804d7f5c38080eaee2", "is_reserved": 0, "lon": -77.0426755, "is_disabled": 0, "fusion_lat": 0.0, "lat": 38.90430933333333, "bike_id": "29e2c3c3ca5016804d7f5c38080eaee2", "fusion_lon": 0.0}, {"rental_uris": {"ios": "https://dc.lft.to/lastmile_qr_scan", "android": "https://dc.lft.to/lastmile_qr_scan"}, "type": "electric_scooter", "name": "2f453ae054d30ef2bf4edb3dce1a5dba", "is_reserved": 0, "lon": -77.01788966666666, "is_disabled": 0, "fusion_lat": 0.0, "lat": 38.91995383333333, "bike_id": "2f453ae054d30ef2bf4edb3dce1a5dba", "fusion_lon": 0.0}, {"rental_uris": {"ios": "https://dc.lft.to/lastmile_qr_scan", "android": "https://dc.lft.to/lastmile_qr_scan"}, "type": "electric_scooter", "name": "ef494eda7675ee5f9705c7f1d337833b", "is_reserved": 0, "lon": -77.03053283333334, "is_disabled": 0, "fusion_lat": 0.0, "lat": 38.924664666666665, "bike_id": "ef494eda7675ee5f9705c7f1d337833b", "fusion_lon": 0.0}, {"rental_uris": {"ios": "https://dc.lft.to/lastmile_qr_scan", "android": "https://dc.lft.to/lastmile_qr_scan"}, "type": "electric_scooter", "name": "32d51ac5a80e214c9ce8ab4701aaed7a", "is_reserved": 0, "lon": -76.95201583333333, "is_disabled": 0, "fusion_lat": 0.0, "lat": 38.90510183333333, "bike_id": "32d51ac5a80e214c9ce8ab4701aaed7a", "fusion_lon": 0.0}, {"rental_uris": {"ios": "https://dc.lft.to/lastmile_qr_scan", "android": "https://dc.lft.to/lastmile_qr_scan"}, "type": "electric_scooter", "name": "254f4894b1a50433dc5eeea017df2438", "is_reserved": 0, "lon": -77.05543483333334, "is_disabled": 0, "fusion_lat": 0.0, "lat": 38.8998105, "bike_id": "254f4894b1a50433dc5eeea017df2438", "fusion_lon": 0.0}, {"rental_uris": {"ios": "https://dc.lft.to/lastmile_qr_scan", "android": "https://dc.lft.to/lastmile_qr_scan"}, "type": "electric_bike", "name": "2611b720a3fb8c586f46e4d42f6b60d8", "is_reserved": 0, "lon": -76.937486, "is_disabled": 0, "fusion_lat": 0.0, "lat": 38.8714535, "bike_id": "2611b720a3fb8c586f46e4d42f6b60d8", "fusion_lon": 0.0}, {"rental_uris": {"ios": "https://dc.lft.to/lastmile_qr_scan", "android": "https://dc.lft.to/lastmile_qr_scan"}, "type": "electric_scooter", "name": "9e7d63c25f979661934ff78d18fa3697", "is_reserved": 0, "lon": -77.02929816666666, "is_disabled": 0, "fusion_lat": 0.0, "lat": 38.899936833333335, "bike_id": "9e7d63c25f979661934ff78d18fa3697", "fusion_lon": 0.0}, {"rental_uris": {"ios": "https://dc.lft.to/lastmile_qr_scan", "android": "https://dc.lft.to/lastmile_qr_scan"}, "type": "electric_scooter", "name": "85b0762827984ed41eeb5dfd65688132", "is_reserved": 0, "lon": -76.999294, "is_disabled": 0, "fusion_lat": 0.0, "lat": 38.957579833333334, "bike_id": "85b0762827984ed41eeb5dfd65688132", "fusion_lon": 0.0}, {"rental_uris": {"ios": "https://dc.lft.to/lastmile_qr_scan", "android": "https://dc.lft.to/lastmile_qr_scan"}, "type": "electric_scooter", "name": "66ee5ee68591a0bbe4817a449acf6e24", "is_reserved": 0, "lon": -77.00776383333333, "is_disabled": 0, "fusion_lat": 0.0, "lat": 38.89737066666667, "bike_id": "66ee5ee68591a0bbe4817a449acf6e24", "fusion_lon": 0.0}, {"rental_uris": {"ios": "https://dc.lft.to/lastmile_qr_scan", "android": "https://dc.lft.to/lastmile_qr_scan"}, "type": "electric_scooter", "name": "07e704db7b7b03e724b1e3f8978c0aa6", "is_reserved": 0, "lon": -77.0440665, "is_disabled": 0, "fusion_lat": 0.0, "lat": 38.92950183333333, "bike_id": "07e704db7b7b03e724b1e3f8978c0aa6", "fusion_lon": 0.0}, {"rental_uris": {"ios": "https://dc.lft.to/lastmile_qr_scan", "android": "https://dc.lft.to/lastmile_qr_scan"}, "type": "electric_scooter", "name": "978271844c8cc6dc166e058201172410", "is_reserved": 0, "lon": -77.02215533333333, "is_disabled": 0, "fusion_lat": 0.0, "lat": 38.92488316666667, "bike_id": "978271844c8cc6dc166e058201172410", "fusion_lon": 0.0}, {"rental_uris": {"ios": "https://dc.lft.to/lastmile_qr_scan", "android": "https://dc.lft.to/lastmile_qr_scan"}, "type": "electric_scooter", "name": "80391e626b66c79813c7c0c8e7823246", "is_reserved": 0, "lon": -77.01368916666667, "is_disabled": 0, "fusion_lat": 0.0, "lat": 38.89586516666667, "bike_id": "80391e626b66c79813c7c0c8e7823246", "fusion_lon": 0.0}, {"rental_uris": {"ios": "https://dc.lft.to/lastmile_qr_scan", "android": "https://dc.lft.to/lastmile_qr_scan"},