{"data": {"bikes": [{"rental_uris": {"ios": "https://dc.lft.to/lastmile_qr_scan", "android": "https://dc.lft.to/lastmile_qr_scan"}, "lon": -77.02206683333333, "type": "electric_scooter", "fusion_lat": 0.0, "lat": 38.91540066666666, "name": "5fb80a8258aaa6d7f8259d4af116438e", "fusion_lon": 0.0, "bike_id": "5fb80a8258aaa6d7f8259d4af116438e", "is_disabled": 0, "is_reserved": 0}, {"rental_uris": {"ios": "https://dc.lft.to/lastmile_qr_scan", "android": "https://dc.lft.to/lastmile_qr_scan"}, "lon": -77.0634995, "type": "electric_scooter", "fusion_lat": 0.0, "lat": 38.944492, "name": "40340c7a02ea5a46ad721ee6a781d709", "fusion_lon": 0.0, "bike_id": "40340c7a02ea5a46ad721ee6a781d709", "is_disabled": 0, "is_reserved": 0}, {"rental_uris": {"ios": "https://dc.lft.to/lastmile_qr_scan", "android": "https://dc.lft.to/lastmile_qr_scan"}, "lon": -77.03312883333334, "type": "electric_scooter", "fusion_lat": 0.0, "lat": 38.90146516666667, "name": "bbb1f14d8b81d6a29f0f67939f183007", "fusion_lon": 0.0, "bike_id": "bbb1f14d8b81d6a29f0f67939f183007", "is_disabled": 0, "is_reserved": 0}, {"rental_uris": {"ios": "https://dc.lft.to/lastmile_qr_scan", "android": "https://dc.lft.to/lastmile_qr_scan"}, "lon": -77.03657683333333, "type": "electric_scooter", "fusion_lat": 0.0, "lat": 38.93084483333333, "name": "294cb33323a71f8ffa665b51a5b6277d", "fusion_lon": 0.0, "bike_id": "294cb33323a71f8ffa665b51a5b6277d", "is_disabled": 0, "is_reserved": 0}, {"rental_uris": {"ios": "https://dc.lft.to/lastmile_qr_scan", "android": "https://dc.lft.to/lastmile_qr_scan"}, "lon": -77.02809366666666, "type": "electric_scooter", "fusion_lat": 0.0, "lat": 38.930800166666664, "name": "b9183bdad5723d2eb0d737b6e810cdb6", "fusion_lon": 0.0, "bike_id": "b9183bdad5723d2eb0d737b6e810cdb6", "is_disabled": 0, "is_reserved": 0}, {"rental_uris": {"ios": "https://dc.lft.to/lastmile_qr_scan", "android": "https://dc.lft.to/lastmile_qr_scan"}, "lon": -77.0278555, "type": "electric_scooter", "fusion_lat": 0.0, "lat": 38.92375833333333, "name": "764f20c7f2362674893793b8f8782e0f", "fusion_lon": 0.0, "bike_id": "764f20c7f2362674893793b8f8782e0f", "is_disabled": 0, "is_reserved": 0}, {"rental_uris": {"ios": "https://dc.lft.to/lastmile_qr_scan", "android": "https://dc.lft.to/lastmile_qr_scan"}, "lon": -77.0343115, "type": "electric_scooter", "fusion_lat": 0.0, "lat": 38.919124833333335, "name": "fe6edcd05db2845f8356a125083b8eff", "fusion_lon": 0.0, "bike_id": "fe6edcd05db2845f8356a125083b8eff", "is_disabled": 0, "is_reserved": 0}, {"rental_uris": {"ios": "https://dc.lft.to/lastmile_qr_scan", "android": "https://dc.lft.to/lastmile_qr_scan"}, "lon": -77.02154766666666, "type": "electric_scooter", "fusion_lat": 0.0, "lat": 38.928247166666665, "name": "f700692dbd19a3db308ee1f1a2f1d64c", "fusion_lon": 0.0, "bike_id": "f700692dbd19a3db308ee1f1a2f1d64c", "is_disabled": 0, "is_reserved": 0}, {"rental_uris": {"ios": "https://dc.lft.to/lastmile_qr_scan", "android": "https://dc.lft.to/lastmile_qr_scan"}, "lon": -77.02495766666667, "type": "electric_scooter", "fusion_lat": 0.0, "lat": 38.89776783333333, "name": "9e24fec50f4b00ee6d81603db812e83a", "fusion_lon": 0.0, "bike_id": "9e24fec50f4b00ee6d81603db812e83a", "is_disabled": 0, "is_reserved": 0}, {"rental_uris": {"ios": "https://dc.lft.to/lastmile_qr_scan", "android": "https://dc.lft.to/lastmile_qr_scan"}, "lon": -76.99837216666667, "type": "electric_scooter", "fusion_lat": 0.0, "lat": 38.900372833333336, "name": "28004f2dac601fc1b2f959aab7c40629", "fusion_lon": 0.0, "bike_id": "28004f2dac601fc1b2f959aab7c40629", "is_disabled": 0, "is_reserved": 0}, {"rental_uris": {"ios": "https://dc.lft.to/lastmile_qr_scan", "android": "https://dc.lft.to/lastmile_qr_scan"}, "lon": -77.02455816666667, "type": "electric_scooter", "fusion_lat": 0.0, "lat": 38.914842, "name": "ac5ce891680f9d20dbf3d505b4f7b694", "fusion_lon": 0.0, "bike_id": "ac5ce891680f9d20dbf3d505b4f7b694", "is_disabled": 0, "is_reserved": 0}, {"rental_uris": {"ios": "https://dc.lft.to/lastmile_qr_scan", "android": "https://dc.lft.to/lastmile_qr_scan"}, "lon": -77.07617566666667, "type": "electric_scooter", "fusion_lat": 0.0, "lat": 38.91253066666667, "name": "293b0baa90182d060567931522f7bc84", "fusion_lon": 0.0, "bike_id": "293b0baa90182d060567931522f7bc84", "is_disabled": 0, "is_reserved": 0}, {"rental_uris": {"ios": "https://dc.lft.to/lastmile_qr_scan", "android": "https://dc.lft.to/lastmile_qr_scan"}, "lon": -76.94716316666667, "type": "electric_scooter", "fusion_lat": 0.0, "lat": 38.8967105, "name": "150b7c39c602a00c43e2308f6afaf9e0", "fusion_lon": 0.0, "bike_id": "150b7c39c602a00c43e2308f6afaf9e0", "is_disabled": 0, "is_reserved": 0}, {"rental_uris": {"ios": "https://dc.lft.to/lastmile_qr_scan", "android": "https://dc.lft.to/lastmile_qr_scan"}, "lon": -76.98853216666667, "type": "electric_scooter", "fusion_lat": 0.0, "lat": 38.90341566666667, "name": "63e741226e2b419ecd074f74dede2685", "fusion_lon": 0.0, "bike_id": "63e741226e2b419ecd074f74dede2685", "is_disabled": 0, "is_reserved": 0}, {"rental_uris": {"ios": "https://dc.lft.to/lastmile_qr_scan", "android": "https://dc.lft.to/lastmile_qr_scan"}, "lon": -77.0383915, "type": "electric_scooter", "fusion_lat": 0.0, "lat": 38.910982, "name": "7021ca68dd12fd0846ae0beb1c460442", "fusion_lon": 0.0, "bike_id": "7021ca68dd12fd0846ae0beb1c460442", "is_disabled": 0, "is_reserved": 0}, {"rental_uris": {"ios": "https://dc.lft.to/lastmile_qr_scan", "android": "https://dc.lft.to/lastmile_qr_scan"}, "lon": -77.04169516666667, "type": "electric_scooter", "fusion_lat": 0.0, "lat": 38.90349366666667, "name": "335c18f585ae262de3c8305f543eb47a", "fusion_lon": 0.0, "bike_id": "335c18f585ae262de3c8305f543eb47a", "is_disabled": 0, "is_reserved": 0}, {"rental_uris": {"ios": "https://dc.lft.to/lastmile_qr_scan", "android": "https://dc.lft.to/lastmile_qr_scan"}, "lon": -77.03074366666667, "type": "electric_scooter", "fusion_lat": 0.0, "lat": 38.90572, "name": "4a973004cc943d64855e0956409f9e47", "fusion_lon": 0.0, "bike_id": "4a973004cc943d64855e0956409f9e47", "is_disabled": 0, "is_reserved": 0}, {"rental_uris": {"ios": "https://dc.lft.to/lastmile_qr_scan", "android": "https://dc.lft.to/lastmile_qr_scan"}, "lon": -77.03188, "type": "electric_scooter", "fusion_lat": 0.0, "lat": 38.91923166666667, "name": "d19893f0bdb9d3f122857c722708c93e", "fusion_lon": 0.0, "bike_id": "d19893f0bdb9d3f122857c722708c93e", "is_disabled": 0, "is_reserved": 0}, {"rental_uris": {"ios": "https://dc.lft.to/lastmile_qr_scan", "android": "https://dc.lft.to/lastmile_qr_scan"}, "lon": -77.04684816666666, "type": "electric_scooter", "fusion_lat": 0.0, "lat": 38.897276166666664, "name": "b9189d4e2df86078d12404f873242fa3", "fusion_lon": 0.0, "bike_id": "b9189d4e2df86078d12404f873242fa3", "is_disabled": 0, "is_reserved": 0}, {"rental_uris": {"ios": "https://dc.lft.to/lastmile_qr_scan", "android": "https://dc.lft.to/lastmile_qr_scan"}, "lon": -76.9476115, "type": "electric_scooter", "fusion_lat": 0.0, "lat": 38.90050466666667, "name": "841d85d2349268c56a263c10b1706a90", "fusion_lon": 0.0, "bike_id": "841d85d2349268c56a263c10b1706a90", "is_disabled": 0, "is_reserved": 0}, {"rental_uris": {"ios": "https://dc.lft.to/lastmile_qr_scan", "android": "https://dc.lft.to/lastmile_qr_scan"}, "lon": -77.0330705, "type": "electric_scooter", "fusion_lat": 0.0, "lat": 38.926521, "name": "198f600f03a0f59e7ae253f7b19b510c", "fusion_lon": 0.0, "bike_id": "198f600f03a0f59e7ae253f7b19b510c", "is_disabled": 0, "is_reserved": 0}, {"rental_uris": {"ios": "https://dc.lft.to/lastmile_qr_scan", "android": "https://dc.lft.to/lastmile_qr_scan"}, "lon": -77.021361, "type": "electric_scooter", "fusion_lat": 0.0, "lat": 38.937622, "name": "2e0d219d881068849402427c7ec85982", "fusion_lon": 0.0, "bike_id": "2e0d219d881068849402427c7ec85982", "is_disabled": 0, "is_reserved": 0}, {"rental_uris": {"ios": "https://dc.lft.to/lastmile_qr_scan", "android": "https://dc.lft.to/lastmile_qr_scan"}, "lon": -77.023773, "type": "electric_scooter", "fusion_lat": 0.0, "lat": 38.952455666666665, "name": "1cc5f7738c2b74eae0592bdcc0c37101", "fusion_lon": 0.0, "bike_id": "1cc5f7738c2b74eae0592bdcc0c37101", "is_disabled": 0, "is_reserved": 0}, {"rental_uris": {"ios": "https://dc.lft.to/lastmile_qr_scan", "android": "https://dc.lft.to/lastmile_qr_scan"}, "lon": -76.98007533333333, "type": "electric_bike", "fusion_lat": 0.0, "lat": 38.90258866666667, "name": "f64dc6e245b629072f6e96f3a8ab369e", "fusion_lon": 0.0, "bike_id": "f64dc6e245b629072f6e96f3a8ab369e", "is_disabled": 0, "is_reserved": 0}, {"rental_uris": {"ios": "https://dc.lft.to/lastmile_qr_scan", "android": "https://dc.lft.to/lastmile_qr_scan"}, "lon": -77.00195366666667, "type": "electric_scooter", "fusion_lat": 0.0, "lat": 38.900551666666665, "name": "2c96e11a4ffa083d4bf6c5f9969d2473", "fusion_lon": 0.0, "bike_id": "2c96e11a4ffa083d4bf6c5f9969d2473", "is_disabled": 0, "is_reserved": 0}, {"rental_uris": {"ios": "https://dc.lft.to/lastmile_qr_scan", "android": "https://dc.lft.to/lastmile_qr_scan"}, "lon": -77.0282505, "type": "electric_scooter", "fusion_lat": 0.0, "lat": 38.9026025, "name": "b5deaa2850de9cbd06f8248cf4fdc593", "fusion_lon": 0.0, "bike_id": "b5deaa2850de9cbd06f8248cf4fdc593", "is_disabled": 0, "is_reserved": 0}, {"rental_uris": {"ios": "https://dc.lft.to/lastmile_qr_scan", "android": "https://dc.lft.to/lastmile_qr_scan"}, "lon": -77.0277615, "type": "electric_scooter", "fusion_lat": 0.0, "lat": 38.9267125, "name": "fba9a974f798cc11917dac13acce8f96", "fusion_lon": 0.0, "bike_id": "fba9a974f798cc11917dac13acce8f96", "is_disabled": 0, "is_reserved": 0}, {"rental_uris": {"ios": "https://dc.lft.to/lastmile_qr_scan", "android": "https://dc.lft.to/lastmile_qr_scan"}, "lon": -77.0318865, "type": "electric_scooter", "fusion_lat": 0.0, "lat": 38.895754333333336, "name": "d832faab2d3337fb99b8cac6a126b10e", "fusion_lon": 0.0, "bike_id": "d832faab2d3337fb99b8cac6a126b10e", "is_disabled": 0, "is_reserved": 0}, {"rental_uris": {"ios": "https://dc.lft.to/lastmile_qr_scan", "android": "https://dc.lft.to/lastmile_qr_scan"}, "lon": -76.97673033333334, "type": "electric_scooter", "fusion_lat": 0.0, "lat": 38.89886166666667, "name": "bdde0abef44a275f8c6f2e1e7d2657dd", "fusion_lon": 0.0, "bike_id": "bdde0abef44a275f8c6f2e1e7d2657dd", "is_disabled": 0, "is_reserved": 0}, {"rental_uris": {"ios": "https://dc.lft.to/lastmile_qr_scan", "android": "https://dc.lft.to/lastmile_qr_scan"}, "lon": -77.02735666666666, "type": "electric_bike", "fusion_lat": 0.0, "lat": 38.94384816666667, "name": "fb3f52f584a4ce2c029935a73ba09dc5", "fusion_lon": 0.0, "bike_id": "fb3f52f584a4ce2c029935a73ba09dc5", "is_disabled": 0, "is_reserved": 0}, {"rental_uris": {"ios": "https://dc.lft.to/lastmile_qr_scan", "android": "https://dc.lft.to/lastmile_qr_scan"}, "lon": -77.0502655, "type": "electric_scooter", "fusion_lat": 0.0, "lat": 38.903705333333335, "name": "4b2d36466f7ec4873da0798d88845b78", "fusion_lon": 0.0, "bike_id": "4b2d36466f7ec4873da0798d88845b78", "is_disabled": 0, "is_reserved": 0}, {"rental_uris": {"ios": "https://dc.lft.to/lastmile_qr_scan", "android": "https://dc.lft.to/lastmile_qr_scan"}, "lon": -77.09561816666667, "type": "electric_bike", "fusion_lat": 0.0, "lat": 38.91704516666667, "name": "a8b163e38af899efe75a3baafa7e067d", "fusion_lon": 0.0, "bike_id": "a8b163e38af899efe75a3baafa7e067d", "is_disabled": 0, "is_reserved": 0}, {"rental_uris": {"ios": "https://dc.lft.to/lastmile_qr_scan", "android": "https://dc.lft.to/lastmile_qr_scan"}, "lon": -77.03450783333334, "type": "electric_scooter", "fusion_lat": 0.0, "lat": 38.905644, "name": "a7f44d1dcf4a9b1fe38720015e93cf4b", "fusion_lon": 0.0, "bike_id": "a7f44d1dcf4a9b1fe38720015e93cf4b", "is_disabled": 0, "is_reserved": 0}, {"rental_uris": {"ios": "https://dc.lft.to/lastmile_qr_scan", "android": "https://dc.lft.to/lastmile_qr_scan"}, "lon": -77.044735, "type": "electric_scooter", "fusion_lat": 0.0, "lat": 38.919112166666665, "name": "d5e0cac68485c35e07448b58c517798a", "fusion_lon": 0.0, "bike_id": "d5e0cac68485c35e07448b58c517798a", "is_disabled": 0, "is_reserved": 0}, {"rental_uris": {"ios": "https://dc.lft.to/lastmile_qr_scan", "android": "https://dc.lft.to/lastmile_qr_scan"}, "lon": -77.127341, "type": "electric_bike", "fusion_lat": 0.0, "lat": 38.8956025, "name": "f2cbd21802fe330d549d06e114eb727f", "fusion_lon": 0.0, "bike_id": "f2cbd21802fe330d549d06e114eb727f", "is_disabled": 0, "is_reserved": 0}, {"rental_uris": {"ios": "https://dc.lft.to/lastmile_qr_scan", "android": "https://dc.lft.to/lastmile_qr_scan"}, "lon": -77.00209583333333, "type": "electric_scooter", "fusion_lat": 0.0, "lat": 38.90219333333334, "name": "3f41ec0ce2420c136dd8e953763d64f2", "fusion_lon": 0.0, "bike_id": "3f41ec0ce2420c136dd8e953763d64f2", "is_disabled": 0, "is_reserved": 0}, {"rental_uris": {"ios": "https://dc.lft.to/lastmile_qr_scan", "android": "https://dc.lft.to/lastmile_qr_scan"}, "lon": -77.0245575, "type": "electric_scooter", "fusion_lat": 0.0, "lat": 38.9001225, "name": "45843e39891e31d76409886129eed58d", "fusion_lon": 0.0, "bike_id": "45843e39891e31d76409886129eed58d", "is_disabled": 0, "is_reserved": 0}, {"rental_uris": {"ios": "https://dc.lft.to/lastmile_qr_scan", "android": "https://dc.lft.to/lastmile_qr_scan"}, "lon": -77.00580583333333, "type": "electric_scooter", "fusion_lat": 0.0, "lat": 38.87217866666667, "name": "14d0e56aa3be326cbd0088adfe55bd06", "fusion_lon": 0.0, "bike_id": "14d0e56aa3be326cbd0088adfe55bd06", "is_disabled": 0, "is_reserved": 0}, {"rental_uris": {"ios": "https://dc.lft.to/lastmile_qr_scan", "android": "https://dc.lft.to/lastmile_qr_scan"}, "lon": -77.035767, "type": "electric_scooter", "fusion_lat": 0.0, "lat": 38.9233725, "name": "c0a942be56b142aefa8fa26d1002e435", "fusion_lon": 0.0, "bike_id": "c0a942be56b142aefa8fa26d1002e435", "is_disabled": 0, "is_reserved": 0}, {"rental_uris": {"ios": "https://dc.lft.to/lastmile_qr_scan", "android": "https://dc.lft.to/lastmile_qr_scan"}, "lon": -76.948923, "type": "electric_scooter", "fusion_lat": 0.0, "lat": 38.89530766666667, "name": "574bd799ad98e481047025f131565853", "fusion_lon": 0.0, "bike_id": "574bd799ad98e481047025f131565853", "is_disabled": 0, "is_reserved": 0}, {"rental_uris": {"ios": "https://dc.lft.to/lastmile_qr_scan", "android": "https://dc.lft.to/lastmile_qr_scan"}, "lon": -77.02421733333334, "type": "electric_scooter", "fusion_lat": 0.0, "lat": 38.91823516666667, "name": "1e631db830267f23543906e4a6e72605", "fusion_lon": 0.0, "bike_id": "1e631db830267f23543906e4a6e72605", "is_disabled": 0, "is_reserved": 0}, {"rental_uris": {"ios": "https://dc.lft.to/lastmile_qr_scan", "android": "https://dc.lft.to/lastmile_qr_scan"}, "lon": -76.91659533333333, "type": "electric_bike", "fusion_lat": 0.0, "lat": 38.8686185, "name": "2ca65198f441755159d4141f264505ee", "fusion_lon": 0.0, "bike_id": "2ca65198f441755159d4141f264505ee", "is_disabled": 0, "is_reserved": 0}, {"rental_uris": {"ios": "https://dc.lft.to/lastmile_qr_scan", "android": "https://dc.lft.to/lastmile_qr_scan"}, "lon": -77.00566266666667, "type": "electric_scooter", "fusion_lat": 0.0, "lat": 38.88039333333333, "name": "509074de6dcc917fe53cf75e3631a0f4", "fusion_lon": 0.0, "bike_id": "509074de6dcc917fe53cf75e3631a0f4", "is_disabled": 0, "is_reserved": 0}, {"rental_uris": {"ios": "https://dc.lft.to/lastmile_qr_scan", "android": "https://dc.lft.to/lastmile_qr_scan"}, "lon": -77.05512166666666, "type": "electric_scooter", "fusion_lat": 0.0, "lat": 38.92951933333333, "name": "6884a3059dc1f691fe56d1aa1c3e6f2a", "fusion_lon": 0.0, "bike_id": "6884a3059dc1f691fe56d1aa1c3e6f2a", "is_disabled": 0, "is_reserved": 0}, {"rental_uris": {"ios": "https://dc.lft.to/lastmile_qr_scan", "android": "https://dc.lft.to/lastmile_qr_scan"}, "lon": -77.00087983333333, "type": "electric_bike", "fusion_lat": 0.0, "lat": 38.87474483333333, "name": "498ec6a6ba3c24ec5ee619ef0a5a29e8", "fusion_lon": 0.0, "bike_id": "498ec6a6ba3c24ec5ee619ef0a5a29e8", "is_disabled": 0, "is_reserved": 0}, {"rental_uris": {"ios": "https://dc.lft.to/lastmile_qr_scan", "android": "https://dc.lft.to/lastmile_qr_scan"}, "lon": -77.06634233333334, "type": "electric_scooter", "fusion_lat": 0.0, "lat": 38.928037833333335, "name": "ca960744c607462126b522d1ffc4f5f4", "fusion_lon": 0.0, "bike_id": "ca960744c607462126b522d1ffc4f5f4", "is_disabled": 0, "is_reserved": 0}, {"rental_uris": {"ios": "https://dc.lft.to/lastmile_qr_scan", "android": "https://dc.lft.to/lastmile_qr_scan"}, "lon": -77.10784583333333, "type": "electric_bike", "fusion_lat": 0.0, "lat": 38.89219083333333, "name": "65a967ce30d36ab2c00b12bdecf07f30", "fusion_lon": 0.0, "bike_id": "65a967ce30d36ab2c00b12bdecf07f30", "is_disabled": 0, "is_reserved": 0}, {"rental_uris": {"ios": "https://dc.lft.to/lastmile_qr_scan", "android": "https://dc.lft.to/lastmile_qr_scan"}, "lon": -77.03338716666667, "type": "electric_scooter", "fusion_lat": 0.0, "lat": 38.8922245, "name": "68c89d48bec6f8a15aa8333f06741a77", "fusion_lon": 0.0, "bike_id": "68c89d48bec6f8a15aa8333f06741a77", "is_disabled": 0, "is_reserved": 0}, {"rental_uris": {"ios": "https://dc.lft.to/lastmile_qr_scan", "android": "https://dc.lft.to/lastmile_qr_scan"}, "lon": -76.989017, "type": "electric_scooter", "fusion_lat": 0.0, "lat": 38.86692516666667, "name": "d00b59596cfcb1d544498d94e6977d5a", "fusion_lon": 0.0, "bike_id": "d00b59596cfcb1d544498d94e6977d5a", "is_disabled": 0, "is_reserved": 0}, {"rental_uris": {"ios": "https://dc.lft.to/lastmile_qr_scan", "android": "https://dc.lft.to/lastmile_qr_scan"}, "lon": -76.99518733333333, "type": "electric_scooter", "fusion_lat": 0.0, "lat": 38.883712, "name": "b2884a4d586f7c585b465ca4e6fb9c91", "fusion_lon": 0.0, "bike_id": "b2884a4d586f7c585b465ca4e6fb9c91", "is_disabled": 0, "is_reserved": 0}, {"rental_uris": {"ios": "https://dc.lft.to/lastmile_qr_scan", "android": "https://dc.lft.to/lastmile_qr_scan"}, "lon": -76.92713316666666, "type": "electric_scooter", "fusion_lat": 0.0, "lat": 38.887660833333335, "name": "c695de7ddc95e3a2e3e16eafa66ba97d", "fusion_lon": 0.0, "bike_id": "c695de7ddc95e3a2e3e16eafa66ba97d", "is_disabled": 0, "is_reserved": 0}, {"rental_uris": {"ios": "https://dc.lft.to/lastmile_qr_scan", "android": "https://dc.lft.to/lastmile_qr_scan"}, "lon": -76.87819716666667, "type": "electric_bike", "fusion_lat": 0.0, "lat": 38.99233516666666, "name": "5a13f1506aea945e483b9fa7f62f04ab", "fusion_lon": 0.0, "bike_id": "5a13f1506aea945e483b9fa7f62f04ab", "is_disabled": 0, "is_reserved": 0}, {"rental_uris": {"ios": "https://dc.lft.to/lastmile_qr_scan", "android": "https://dc.lft.to/lastmile_qr_scan"}, "lon": -77.1073185, "type": "electric_bike", "fusion_lat": 0.0, "lat": 38.85519216666667, "name": "8a74dda51b7f23d95772dad15aba9658", "fusion_lon": 0.0, "bike_id": "8a74dda51b7f23d95772dad15aba9658", "is_disabled": 0, "is_reserved": 0}, {"rental_uris": {"ios": "https://dc.lft.to/lastmile_qr_scan", "android": "https://dc.lft.to/lastmile_qr_scan"}, "lon": -77.03794116666667, "type": "electric_scooter", "fusion_lat": 0.0, "lat": 38.926284833333334, "name": "e894c3ae08d0d2e96d6b0c993a34571e", "fusion_lon": 0.0, "bike_id": "e894c3ae08d0d2e96d6b0c993a34571e", "is_disabled": 0, "is_reserved": 0}, {"rental_uris": {"ios": "https://dc.lft.to/lastmile_qr_scan", "android": "https://dc.lft.to/lastmile_qr_scan"}, "lon": -77.02043166666667, "type": "electric_scooter", "fusion_lat": 0.0, "lat": 38.901867, "name": "b358724f08efae1fbe2ab75180916fe3", "fusion_lon": 0.0, "bike_id": "b358724f08efae1fbe2ab75180916fe3", "is_disabled": 0, "is_reserved": 0}, {"rental_uris": {"ios": "https://dc.lft.to/lastmile_qr_scan", "android": "https://dc.lft.to/lastmile_qr_scan"}, "lon": -76.94634816666667, "type": "electric_scooter", "fusion_lat": 0.0, "lat": 38.898346, "name": "851de91221fbf1505d528410135c8711", "fusion_lon": 0.0, "bike_id": "851de91221fbf1505d528410135c8711", "is_disabled": 0, "is_reserved": 0}, {"rental_uris": {"ios": "https://dc.lft.to/lastmile_qr_scan", "android": "https://dc.lft.to/lastmile_qr_scan"}, "lon": -76.976179, "type": "electric_scooter", "fusion_lat": 0.0, "lat": 38.903843333333334, "name": "21247c346dcce2cb5d30abe8bc0dd2b0", "fusion_lon": 0.0, "bike_id": "21247c346dcce2cb5d30abe8bc0dd2b0", "is_disabled": 0, "is_reserved": 0}, {"rental_uris": {"ios": "https://dc.lft.to/lastmile_qr_scan", "android": "https://dc.lft.to/lastmile_qr_scan"}, "lon": -77.038349, "type": "electric_scooter", "fusion_lat": 0.0, "lat": 38.92173583333334, "name": "5db06dfeda8260e196636e61af07be39", "fusion_lon": 0.0, "bike_id": "5db06dfeda8260e196636e61af07be39", "is_disabled": 0, "is_reserved": 0}, {"rental_uris": {"ios": "https://dc.lft.to/lastmile_qr_scan", "android": "https://dc.lft.to/lastmile_qr_scan"}, "lon": -76.95760533333333, "type": "electric_bike", "fusion_lat": 0.0, "lat": 38.8841895, "name": "ecc92fdf673c4db77ef1a9fe98eed3b1", "fusion_lon": 0.0, "bike_id": "ecc92fdf673c4db77ef1a9fe98eed3b1", "is_disabled": 0, "is_reserved": 0}, {"rental_uris": {"ios": "https://dc.lft.to/lastmile_qr_scan", "android": "https://dc.lft.to/lastmile_qr_scan"}, "lon": -76.97749, "type": "electric_scooter", "fusion_lat": 0.0, "lat": 38.9000995, "name": "4798b77493b7968e83d33ad4333e9266", "fusion_lon": 0.0, "bike_id": "4798b77493b7968e83d33ad4333e9266", "is_disabled": 0, "is_reserved": 0}, {"rental_uris": {"ios": "https://dc.lft.to/lastmile_qr_scan", "android": "https://dc.lft.to/lastmile_qr_scan"}, "lon": -76.944404, "type": "electric_bike", "fusion_lat": 0.0, "lat": 38.902974666666665, "name": "102f80aebc64e5b11fad215dffca944f", "fusion_lon": 0.0, "bike_id": "102f80aebc64e5b11fad215dffca944f", "is_disabled": 0, "is_reserved": 0}, {"rental_uris": {"ios": "https://dc.lft.to/lastmile_qr_scan", "android": "https://dc.lft.to/lastmile_qr_scan"}, "lon": -77.00119366666667, "type": "electric_scooter", "fusion_lat": 0.0, "lat": 38.90770333333333, "name": "46d806c41f69c57f5965b1b8e323e754", "fusion_lon": 0.0, "bike_id": "46d806c41f69c57f5965b1b8e323e754", "is_disabled": 0, "is_reserved": 0}, {"rental_uris": {"ios": "https://dc.lft.to/lastmile_qr_scan", "android": "https://dc.lft.to/lastmile_qr_scan"}, "lon": -77.02225016666667, "type": "electric_scooter", "fusion_lat": 0.0, "lat": 38.912487, "name": "81cf3d4ba866078642b91bfa591b3152", "fusion_lon": 0.0, "bike_id": "81cf3d4ba866078642b91bfa591b3152", "is_disabled": 0, "is_reserved": 0}, {"rental_uris": {"ios": "https://dc.lft.to/lastmile_qr_scan", "android": "https://dc.lft.to/lastmile_qr_scan"}, "lon": -76.977123, "type": "electric_scooter", "fusion_lat": 0.0, "lat": 38.899019333333335, "name": "10463df343193f9eb62570421b1e1919", "fusion_lon": 0.0, "bike_id": "10463df343193f9eb62570421b1e1919", "is_disabled": 0, "is_reserved": 0}, {"rental_uris": {"ios": "https://dc.lft.to/lastmile_qr_scan", "android": "https://dc.lft.to/lastmile_qr_scan"}, "lon": -76.972169, "type": "electric_bike", "fusion_lat": 0.0, "lat": 38.844769666666664, "name": "9cbac2998a98f497213640b0b9823e76", "fusion_lon": 0.0, "bike_id": "9cbac2998a98f497213640b0b9823e76", "is_disabled": 0, "is_reserved": 0}, {"rental_uris": {"ios": "https://dc.lft.to/lastmile_qr_scan", "android": "https://dc.lft.to/lastmile_qr_scan"}, "lon": -77.023163, "type": "electric_scooter", "fusion_lat": 0.0, "lat": 38.928866166666666, "name": "a39e57588ebe3a615fdeb790105facf0", "fusion_lon": 0.0, "bike_id": "a39e57588ebe3a615fdeb790105facf0", "is_disabled": 0, "is_reserved": 0}, {"rental_uris": {"ios": "https://dc.lft.to/lastmile_qr_scan", "android": "https://dc.lft.to/lastmile_qr_scan"}, "lon": -77.02163783333333, "type": "electric_scooter", "fusion_lat": 0.0, "lat": 38.897468333333336, "name": "7b836a85e48777135f89157a8e4ca637", "fusion_lon": 0.0, "bike_id": "7b836a85e48777135f89157a8e4ca637", "is_disabled": 0, "is_reserved": 0}, {"rental_uris": {"ios": "https://dc.lft.to/lastmile_qr_scan", "android": "https://dc.lft.to/lastmile_qr_scan"}, "lon": -77.12505366666667, "type": "electric_bike", "fusion_lat": 0.0, "lat": 39.024233, "name": "bee54eb6a39c5e239b1dcf9fa51c8934", "fusion_lon": 0.0, "bike_id": "bee54eb6a39c5e239b1dcf9fa51c8934", "is_disabled": 0, "is_reserved": 0}, {"rental_uris": {"ios": "https://dc.lft.to/lastmile_qr_scan", "android": "https://dc.lft.to/lastmile_qr_scan"}, "lon": -77.01274466666666, "type": "electric_scooter", "fusion_lat": 0.0, "lat": 38.91544966666667, "name": "a21edc1b450efa653a7e3160c5845e54", "fusion_lon": 0.0, "bike_id": "a21edc1b450efa653a7e3160c5845e54", "is_disabled": 0, "is_reserved": 0}, {"rental_uris": {"ios": "https://dc.lft.to/lastmile_qr_scan", "android": "https://dc.lft.to/lastmile_qr_scan"}, "lon": -77.0434785, "type": "electric_scooter", "fusion_lat": 0.0, "lat": 38.921890166666664, "name": "db8485a6c652f02e1dd44556510002b3", "fusion_lon": 0.0, "bike_id": "db8485a6c652f02e1dd44556510002b3", "is_disabled": 0, "is_reserved": 0}, {"rental_uris": {"ios": "https://dc.lft.to/lastmile_qr_scan", "android": "https://dc.lft.to/lastmile_qr_scan"}, "lon": -77.0384465, "type": "electric_scooter", "fusion_lat": 0.0, "lat": 38.90981683333333, "name": "f7eed80274b1d068afa4257dffd43778", "fusion_lon": 0.0, "bike_id": "f7eed80274b1d068afa4257dffd43778", "is_disabled": 0, "is_reserved": 0}, {"rental_uris": {"ios": "https://dc.lft.to/lastmile_qr_scan", "android": "https://dc.lft.to/lastmile_qr_scan"}, "lon": -77.0263795, "type": "electric_scooter", "fusion_lat": 0.0, "lat": 38.898488666666665, "name": "d139d091c86ea2d3dfd9df590d2a386e", "fusion_lon": 0.0, "bike_id": "d139d091c86ea2d3dfd9df590d2a386e", "is_disabled": 0, "is_reserved": 0}, {"rental_uris": {"ios": "https://dc.lft.to/lastmile_qr_scan", "android": "https://dc.lft.to/lastmile_qr_scan"}, "lon": -77.015136, "type": "electric_scooter", "fusion_lat": 0.0, "lat": 38.8873225, "name": "e80e58fd296f996d9a7e1c954709da61", "fusion_lon": 0.0, "bike_id": "e80e58fd296f996d9a7e1c954709da61", "is_disabled": 0, "is_reserved": 0}, {"rental_uris": {"ios": "https://dc.lft.to/lastmile_qr_scan", "android": "https://dc.lft.to/lastmile_qr_scan"}, "lon": -77.01744966666666, "type": "electric_scooter", "fusion_lat": 0.0, "lat": 38.917136666666664, "name": "42307e0c4793d5a9d211287c803dd112", "fusion_lon": 0.0, "bike_id": "42307e0c4793d5a9d211287c803dd112", "is_disabled": 0, "is_reserved": 0}, {"rental_uris": {"ios": "https://dc.lft.to/lastmile_qr_scan", "android": "https://dc.lft.to/lastmile_qr_scan"}, "lon": -77.02606033333333, "type": "electric_scooter", "fusion_lat": 0.0, "lat": 38.91996016666667, "name": "f22e76b5b13467e088c74090ed7d7884", "fusion_lon": 0.0, "bike_id": "f22e76b5b13467e088c74090ed7d7884", "is_disabled": 0, "is_reserved": 0}, {"rental_uris": {"ios": "https://dc.lft.to/lastmile_qr_scan", "android": "https://dc.lft.to/lastmile_qr_scan"}, "lon": -77.025193, "type": "electric_scooter", "fusion_lat": 0.0, "lat": 38.936301666666665, "name": "3e4743a59b7be761a4cc9018ffa1bf48", "fusion_lon": 0.0, "bike_id": "3e4743a59b7be761a4cc9018ffa1bf48", "is_disabled": 0, "is_reserved": 0}, {"rental_uris": {"ios": "https://dc.lft.to/lastmile_qr_scan", "android": "https://dc.lft.to/lastmile_qr_scan"}, "lon": -76.90433283333333, "type": "electric_bike", "fusion_lat": 0.0, "lat": 38.89765116666667, "name": "34c7f693f358279acc71bc5a883054a2", "fusion_lon": 0.0, "bike_id": "34c7f693f358279acc71bc5a883054a2", "is_disabled": 0, "is_reserved": 0}, {"rental_uris": {"ios": "https://dc.lft.to/lastmile_qr_scan", "android": "https://dc.lft.to/lastmile_qr_scan"}, "lon": -77.03582783333333, "type": "electric_scooter", "fusion_lat": 0.0, "lat": 38.90239416666667, "name": "7a92e4b7e863f6ce690933b6f2153389", "fusion_lon": 0.0, "bike_id": "7a92e4b7e863f6ce690933b6f2153389", "is_disabled": 0, "is_reserved": 0}, {"rental_uris": {"ios": "https://dc.lft.to/lastmile_qr_scan", "android": "https://dc.lft.to/lastmile_qr_scan"}, "lon": -77.02468566666667, "type": "electric_scooter", "fusion_lat": 0.0, "lat": 38.932976833333335, "name": "9274f9b4a355c1cfd085397072d5393f", "fusion_lon": 0.0, "bike_id": "9274f9b4a355c1cfd085397072d5393f", "is_disabled": 0, "is_reserved": 0}, {"rental_uris": {"ios": "https://dc.lft.to/lastmile_qr_scan", "android": "https://dc.lft.to/lastmile_qr_scan"}, "lon": -77.048753, "type": "electric_scooter", "fusion_lat": 0.0, "lat": 38.912413666666666, "name": "4086a86cf2ae4ab9d3d4af373dc49a35", "fusion_lon": 0.0, "bike_id": "4086a86cf2ae4ab9d3d4af373dc49a35", "is_disabled": 0, "is_reserved": 0}, {"rental_uris": {"ios": "https://dc.lft.to/lastmile_qr_scan", "android": "https://dc.lft.to/lastmile_qr_scan"}, "lon": -77.03074616666666, "type": "electric_scooter", "fusion_lat": 0.0, "lat": 38.909884, "name": "3aa6a101eaf93252b23bc1297669b919", "fusion_lon": 0.0, "bike_id": "3aa6a101eaf93252b23bc1297669b919", "is_disabled": 0, "is_reserved": 0}, {"rental_uris": {"ios": "https://dc.lft.to/lastmile_qr_scan", "android": "https://dc.lft.to/lastmile_qr_scan"}, "lon": -77.012078, "type": "electric_scooter", "fusion_lat": 0.0, "lat": 38.915198, "name": "7e14a55822427472ae3104a0f0e529b7", "fusion_lon": 0.0, "bike_id": "7e14a55822427472ae3104a0f0e529b7", "is_disabled": 0, "is_reserved": 0}, {"rental_uris": {"ios": "https://dc.lft.to/lastmile_qr_scan", "android": "https://dc.lft.to/lastmile_qr_scan"}, "lon": -77.03447416666667, "type": "electric_scooter", "fusion_lat": 0.0, "lat": 38.90358, "name": "2dac911fc8ea219911e4ae73f4502c91", "fusion_lon": 0.0, "bike_id": "2dac911fc8ea219911e4ae73f4502c91", "is_disabled": 0, "is_reserved": 0}, {"rental_uris": {"ios": "https://dc.lft.to/lastmile_qr_scan", "android": "https://dc.lft.to/lastmile_qr_scan"}, "lon": -77.00727266666667, "type": "electric_scooter", "fusion_lat": 0.0, "lat": 38.88490916666667, "name": "a91ef5e9b1823a7e9c7706f39585abfb", "fusion_lon": 0.0, "bike_id": "a91ef5e9b1823a7e9c7706f39585abfb", "is_disabled": 0, "is_reserved": 0}, {"rental_uris": {"ios": "https://dc.lft.to/lastmile_qr_scan", "android": "https://dc.lft.to/lastmile_qr_scan"}, "lon": -77.03214166666666, "type": "electric_scooter", "fusion_lat": 0.0, "lat": 38.920105, "name": "c2a1fd6747829883ac736291fa710c52", "fusion_lon": 0.0, "bike_id": "c2a1fd6747829883ac736291fa710c52", "is_disabled": 0, "is_reserved": 0}, {"rental_uris": {"ios": "https://dc.lft.to/lastmile_qr_scan", "android": "https://dc.lft.to/lastmile_qr_scan"}, "lon": -76.98704183333334, "type": "electric_bike", "fusion_lat": 0.0, "lat": 38.90158133333333, "name": "b50dbfb8102dc2f10e61e873ab312d38", "fusion_lon": 0.0, "bike_id": "b50dbfb8102dc2f10e61e873ab312d38", "is_disabled": 0, "is_reserved": 0}, {"rental_uris": {"ios": "https://dc.lft.to/lastmile_qr_scan", "android": "https://dc.lft.to/lastmile_qr_scan"}, "lon": -77.04044766666667, "type": "electric_scooter", "fusion_lat": 0.0, "lat": 38.925685, "name": "fd0459d94e9a2e3bad81d7ba99767174", "fusion_lon": 0.0, "bike_id": "fd0459d94e9a2e3bad81d7ba99767174", "is_disabled": 0, "is_reserved": 0}, {"rental_uris": {"ios": "https://dc.lft.to/lastmile_qr_scan", "android": "https://dc.lft.to/lastmile_qr_scan"}, "lon": -77.01868216666666, "type": "electric_scooter", "fusion_lat": 0.0, "lat": 38.902699, "name": "d1ef1eaab0a1d5661d444fe39a8a15fb", "fusion_lon": 0.0, "bike_id": "d1ef1eaab0a1d5661d444fe39a8a15fb", "is_disabled": 0, "is_reserved": 0}, {"rental_uris": {"ios": "https://dc.lft.to/lastmile_qr_scan", "android": "https://dc.lft.to/lastmile_qr_scan"}, "lon": -77.03179883333334, "type": "electric_scooter", "fusion_lat": 0.0, "lat": 38.91926183333333, "name": "93abf6e1fab27d36703f46bed4ef59ab", "fusion_lon": 0.0, "bike_id": "93abf6e1fab27d36703f46bed4ef59ab", "is_disabled": 0, "is_reserved": 0}, {"rental_uris": {"ios": "https://dc.lft.to/lastmile_qr_scan", "android": "https://dc.lft.to/lastmile_qr_scan"}, "lon": -77.03261916666666, "type": "electric_scooter", "fusion_lat": 0.0, "lat": 38.91405733333333, "name": "abbd4369eeb2076eb4885c9ce2960fe0", "fusion_lon": 0.0, "bike_id": "abbd4369eeb2076eb4885c9ce2960fe0", "is_disabled": 0, "is_reserved": 0}, {"rental_uris": {"ios": "https://dc.lft.to/lastmile_qr_scan", "android": "https://dc.lft.to/lastmile_qr_scan"}, "lon": -77.0298205, "type": "electric_scooter", "fusion_lat": 0.0, "lat": 38.90772966666667, "name": "8831a4c9905ae4c888dde45cd1ef4aa6", "fusion_lon": 0.0, "bike_id": "8831a4c9905ae4c888dde45cd1ef4aa6", "is_disabled": 0, "is_reserved": 0}, {"rental_uris": {"ios": "https://dc.lft.to/lastmile_qr_scan", "android": "https://dc.lft.to/lastmile_qr_scan"}, "lon": -76.93811716666667, "type": "electric_scooter", "fusion_lat": 0.0, "lat": 38.91305116666667, "name": "dddc043656d6b624ed6e127c200158ff", "fusion_lon": 0.0, "bike_id": "dddc043656d6b624ed6e127c200158ff", "is_disabled": 0, "is_reserved": 0}, {"rental_uris": {"ios": "https://dc.lft.to/lastmile_qr_scan", "android": "https://dc.lft.to/lastmile_qr_scan"}, "lon": -77.02839166666666, "type": "electric_scooter", "fusion_lat": 0.0, "lat": 38.88765883333333, "name": "867fbfebe33f3db009565ed1d80772b2", "fusion_lon": 0.0, "bike_id": "867fbfebe33f3db009565ed1d80772b2", "is_disabled": 0, "is_reserved": 0}, {"rental_uris": {"ios": "https://dc.lft.to/lastmile_qr_scan", "android": "https://dc.lft.to/lastmile_qr_scan"}, "lon": -77.03167383333333, "type": "electric_scooter", "fusion_lat": 0.0, "lat": 38.89605433333333, "name": "5adaea58b1631083b6a5f8b73b0dab35", "fusion_lon": 0.0, "bike_id": "5adaea58b1631083b6a5f8b73b0dab35", "is_disabled": 0, "is_reserved": 0}, {"rental_uris": {"ios": "https://dc.lft.to/lastmile_qr_scan", "android": "https://dc.lft.to/lastmile_qr_scan"}, "lon": -77.03969233333333, "type": "electric_scooter", "fusion_lat": 0.0, "lat": 38.8922145, "name": "7af3f1b4a3d06e0cf8d9ac985a305be8", "fusion_lon": 0.0, "bike_id": "7af3f1b4a3d06e0cf8d9ac985a305be8", "is_disabled": 0, "is_reserved": 0}, {"rental_uris": {"ios": "https://dc.lft.to/lastmile_qr_scan", "android": "https://dc.lft.to/lastmile_qr_scan"}, "lon": -77.06167116666667, "type": "electric_scooter", "fusion_lat": 0.0, "lat": 38.9422275, "name": "8da28643301042ff4648c7cbbc85c51f", "fusion_lon": 0.0, "bike_id": "8da28643301042ff4648c7cbbc85c51f", "is_disabled": 0, "is_reserved": 0}, {"rental_uris": {"ios": "https://dc.lft.to/lastmile_qr_scan", "android": "https://dc.lft.to/lastmile_qr_scan"}, "lon": -77.024078, "type": "electric_scooter", "fusion_lat": 0.0, "lat": 38.9219415, "name": "f0533f453027e2ec22ebef0ff03f4f6d", "fusion_lon": 0.0, "bike_id": "f0533f453027e2ec22ebef0ff03f4f6d", "is_disabled": 0, "is_reserved": 0}, {"rental_uris": {"ios": "https://dc.lft.to/lastmile_qr_scan", "android": "https://dc.lft.to/lastmile_qr_scan"}, "lon": -77.03241416666667, "type": "electric_scooter", "fusion_lat": 0.0, "lat": 38.90971866666667, "name": "531012649b660d6cd0ba7ac5802096e1", "fusion_lon": 0.0, "bike_id": "531012649b660d6cd0ba7ac5802096e1", "is_disabled": 0, "is_reserved": 0}, {"rental_uris": {"ios": "https://dc.lft.to/lastmile_qr_scan", "android": "https://dc.lft.to/lastmile_qr_scan"}, "lon": -76.98773016666667, "type": "electric_scooter", "fusion_lat": 0.0, "lat": 38.911726333333334, "name": "7d8aba9c9c497e2753a5ef342736a8c4", "fusion_lon": 0.0, "bike_id": "7d8aba9c9c497e2753a5ef342736a8c4", "is_disabled": 0, "is_reserved": 0}, {"rental_uris": {"ios": "https://dc.lft.to/lastmile_qr_scan", "android": "https://dc.lft.to/lastmile_qr_scan"}, "lon": -76.97890316666667, "type": "electric_scooter", "fusion_lat": 0.0, "lat": 38.9167695, "name": "b5a170744265c6e7e496a9f0196e49e7", "fusion_lon": 0.0, "bike_id": "b5a170744265c6e7e496a9f0196e49e7", "is_disabled": 0, "is_reserved": 0}, {"rental_uris": {"ios": "https://dc.lft.to/lastmile_qr_scan", "android": "https://dc.lft.to/lastmile_qr_scan"}, "lon": -77.049468, "type": "electric_scooter", "fusion_lat": 0.0, "lat": 38.896584, "name": "9ef7aeeaa58c17ac936cded367ed1456", "fusion_lon": 0.0, "bike_id": "9ef7aeeaa58c17ac936cded367ed1456", "is_disabled": 0, "is_reserved": 0}, {"rental_uris": {"ios": "https://dc.lft.to/lastmile_qr_scan", "android": "https://dc.lft.to/lastmile_qr_scan"}, "lon": -77.1274385, "type": "electric_bike", "fusion_lat": 0.0, "lat": 38.8882195, "name": "5232fcdac53049645dce6f84c0875055", "fusion_lon": 0.0, "bike_id": "5232fcdac53049645dce6f84c0875055", "is_disabled": 0, "is_reserved": 0}, {"rental_uris": {"ios": "https://dc.lft.to/lastmile_qr_scan", "android": "https://dc.lft.to/lastmile_qr_scan"}, "lon": -77.00877833333334, "type": "electric_scooter", "fusion_lat": 0.0, "lat": 38.90572383333333, "name": "5410c858b54222eb19b49991b1dbe98d", "fusion_lon": 0.0, "bike_id": "5410c858b54222eb19b49991b1dbe98d", "is_disabled": 0, "is_reserved": 0}, {"rental_uris": {"ios": "https://dc.lft.to/lastmile_qr_scan", "android": "https://dc.lft.to/lastmile_qr_scan"}, "lon": -77.03165066666666, "type": "electric_scooter", "fusion_lat": 0.0, "lat": 38.91561216666667, "name": "6c7d4a0cc1beedc982abc199fbc3940d", "fusion_lon": 0.0, "bike_id": "6c7d4a0cc1beedc982abc199fbc3940d", "is_disabled": 0, "is_reserved": 0}, {"rental_uris": {"ios": "https://dc.lft.to/lastmile_qr_scan", "android": "https://dc.lft.to/lastmile_qr_scan"}, "lon": -77.0178705, "type": "electric_scooter", "fusion_lat": 0.0, "lat": 38.90421, "name": "6e55ea9d4514624e48b93f054f8ce72b", "fusion_lon": 0.0, "bike_id": "6e55ea9d4514624e48b93f054f8ce72b", "is_disabled": 0, "is_reserved": 0}, {"rental_uris": {"ios": "https://dc.lft.to/lastmile_qr_scan", "android": "https://dc.lft.to/lastmile_qr_scan"}, "lon": -77.02184516666667, "type": "electric_scooter", "fusion_lat": 0.0, "lat": 38.892483, "name": "1ddb1c7c002e501e9d4b74755c6df3c8", "fusion_lon": 0.0, "bike_id": "1ddb1c7c002e501e9d4b74755c6df3c8", "is_disabled": 0, "is_reserved": 0}, {"rental_uris": {"ios": "https://dc.lft.to/lastmile_qr_scan", "android": "https://dc.lft.to/lastmile_qr_scan"}, "lon": -77.0752705, "type": "electric_scooter", "fusion_lat": 0.0, "lat": 38.90878133333333, "name": "2b92b4f949cf81cc241915bfc1f53cca", "fusion_lon": 0.0, "bike_id": "2b92b4f949cf81cc241915bfc1f53cca", "is_disabled": 0, "is_reserved": 0}, {"rental_uris": {"ios": "https://dc.lft.to/lastmile_qr_scan", "android": "https://dc.lft.to/lastmile_qr_scan"}, "lon": -76.98703083333334, "type": "electric_scooter", "fusion_lat": 0.0, "lat": 38.9015665, "name": "65a71a9866bf453fd79a61081ece4567", "fusion_lon": 0.0, "bike_id": "65a71a9866bf453fd79a61081ece4567", "is_disabled": 0, "is_reserved": 0}, {"rental_uris": {"ios": "https://dc.lft.to/lastmile_qr_scan", "android": "https://dc.lft.to/lastmile_qr_scan"}, "lon": -76.97437066666667, "type": "electric_scooter", "fusion_lat": 0.0, "lat": 38.864013166666666, "name": "f7a5d14190cb147c51bd46bb6d5383d6", "fusion_lon": 0.0, "bike_id": "f7a5d14190cb147c51bd46bb6d5383d6", "is_disabled": 0, "is_reserved": 0}, {"rental_uris": {"ios": "https://dc.lft.to/lastmile_qr_scan", "android": "https://dc.lft.to/lastmile_qr_scan"}, "lon": -77.04029083333333, "type": "electric_scooter", "fusion_lat": 0.0, "lat": 38.91874, "name": "5b98e91ef81857d080ca161ce2ff4629", "fusion_lon": 0.0, "bike_id": "5b98e91ef81857d080ca161ce2ff4629", "is_disabled": 0, "is_reserved": 0}, {"rental_uris": {"ios": "https://dc.lft.to/lastmile_qr_scan", "android": "https://dc.lft.to/lastmile_qr_scan"}, "lon": -77.03866716666667, "type": "electric_scooter", "fusion_lat": 0.0, "lat": 38.91552, "name": "b09752c841e0b4bd6d67995fda92efc1", "fusion_lon": 0.0, "bike_id": "b09752c841e0b4bd6d67995fda92efc1", "is_disabled": 0, "is_reserved": 0}, {"rental_uris": {"ios": "https://dc.lft.to/lastmile_qr_scan", "android": "https://dc.lft.to/lastmile_qr_scan"}, "lon": -76.931936, "type": "electric_scooter", "fusion_lat": 0.0, "lat": 38.889914166666664, "name": "6671df4fb5b04047c24619b82cb8f622", "fusion_lon": 0.0, "bike_id": "6671df4fb5b04047c24619b82cb8f622", "is_disabled": 0, "is_reserved": 0}, {"rental_uris": {"ios": "https://dc.lft.to/lastmile_qr_scan", "android": "https://dc.lft.to/lastmile_qr_scan"}, "lon": -77.006115, "type": "electric_scooter", "fusion_lat": 0.0, "lat": 38.9063355, "name": "252743baf52b44cfa98a656f8df4a542", "fusion_lon": 0.0, "bike_id": "252743baf52b44cfa98a656f8df4a542", "is_disabled": 0, "is_reserved": 0}, {"rental_uris": {"ios": "https://dc.lft.to/lastmile_qr_scan", "android": "https://dc.lft.to/lastmile_qr_scan"}, "lon": -76.994877, "type": "electric_scooter", "fusion_lat": 0.0, "lat": 38.8623665, "name": "c4923e0751790f2db9b32b00ba8f3708", "fusion_lon": 0.0, "bike_id": "c4923e0751790f2db9b32b00ba8f3708", "is_disabled": 0, "is_reserved": 0}, {"rental_uris": {"ios": "https://dc.lft.to/lastmile_qr_scan", "android": "https://dc.lft.to/lastmile_qr_scan"}, "lon": -76.9981575, "type": "electric_scooter", "fusion_lat": 0.0, "lat": 38.900201333333335, "name": "87a37720313145b837d6f6a85c56e7aa", "fusion_lon": 0.0, "bike_id": "87a37720313145b837d6f6a85c56e7aa", "is_disabled": 0, "is_reserved": 0}, {"rental_uris": {"ios": "https://dc.lft.to/lastmile_qr_scan", "android": "https://dc.lft.to/lastmile_qr_scan"}, "lon": -77.0284365, "type": "electric_scooter", "fusion_lat": 0.0, "lat": 38.9426305, "name": "4b007035e3ff5676c5b03ed132cb7e8e", "fusion_lon": 0.0, "bike_id": "4b007035e3ff5676c5b03ed132cb7e8e", "is_disabled": 0, "is_reserved": 0}, {"rental_uris": {"ios": "https://dc.lft.to/lastmile_qr_scan", "android": "https://dc.lft.to/lastmile_qr_scan"}, "lon": -77.00727183333333, "type": "electric_scooter", "fusion_lat": 0.0, "lat": 38.8849005, "name": "1dc4bc1ed2824c61747430b7bb17e6aa", "fusion_lon": 0.0, "bike_id": "1dc4bc1ed2824c61747430b7bb17e6aa", "is_disabled": 0, "is_reserved": 0}, {"rental_uris": {"ios": "https://dc.lft.to/lastmile_qr_scan", "android": "https://dc.lft.to/lastmile_qr_scan"}, "lon": -77.35315266666667, "type": "electric_bike", "fusion_lat": 0.0, "lat": 38.95000666666667, "name": "8a2f39cddf9a34305c5ee8defb693603", "fusion_lon": 0.0, "bike_id": "8a2f39cddf9a34305c5ee8defb693603", "is_disabled": 0, "is_reserved": 0}, {"rental_uris": {"ios": "https://dc.lft.to/lastmile_qr_scan", "android": "https://dc.lft.to/lastmile_qr_scan"}, "lon": -77.0475215, "type": "electric_scooter", "fusion_lat": 0.0, "lat": 38.917710666666665, "name": "c8a1bd91193823c9a8102ed4f03ddb4f", "fusion_lon": 0.0, "bike_id": "c8a1bd91193823c9a8102ed4f03ddb4f", "is_disabled": 0, "is_reserved": 0}, {"rental_uris": {"ios": "https://dc.lft.to/lastmile_qr_scan", "android": "https://dc.lft.to/lastmile_qr_scan"}, "lon": -76.93176933333334, "type": "electric_scooter", "fusion_lat": 0.0, "lat": 38.898845333333334, "name": "cddd574fbfec9902de1713f3dacc5158", "fusion_lon": 0.0, "bike_id": "cddd574fbfec9902de1713f3dacc5158", "is_disabled": 0, "is_reserved": 0}, {"rental_uris": {"ios": "https://dc.lft.to/lastmile_qr_scan", "android": "https://dc.lft.to/lastmile_qr_scan"}, "lon": -77.03191116666666, "type": "electric_scooter", "fusion_lat": 0.0, "lat": 38.919191166666664, "name": "566eb53637dd52a06e56a5f7df2c4ea0", "fusion_lon": 0.0, "bike_id": "566eb53637dd52a06e56a5f7df2c4ea0", "is_disabled": 0, "is_reserved": 0}, {"rental_uris": {"ios": "https://dc.lft.to/lastmile_qr_scan", "android": "https://dc.lft.to/lastmile_qr_scan"}, "lon": -77.04924316666667, "type": "electric_scooter", "fusion_lat": 0.0, "lat": 38.900699333333336, "name": "68b608ef2345292d98c1776d0d8da64f", "fusion_lon": 0.0, "bike_id": "68b608ef2345292d98c1776d0d8da64f", "is_disabled": 0, "is_reserved": 0}, {"rental_uris": {"ios": "https://dc.lft.to/lastmile_qr_scan", "android": "https://dc.lft.to/lastmile_qr_scan"}, "lon": -77.03670866666667, "type": "electric_scooter", "fusion_lat": 0.0, "lat": 38.9181255, "name": "c753f176b4be99307606d913e50220bb", "fusion_lon": 0.0, "bike_id": "c753f176b4be99307606d913e50220bb", "is_disabled": 0, "is_reserved": 0}, {"rental_uris": {"ios": "https://dc.lft.to/lastmile_qr_scan", "android": "https://dc.lft.to/lastmile_qr_scan"}, "lon": -76.95186183333334, "type": "electric_scooter", "fusion_lat": 0.0, "lat": 38.89137, "name": "96c42af7dd692e9a9a5d3dbfbbea4acc", "fusion_lon": 0.0, "bike_id": "96c42af7dd692e9a9a5d3dbfbbea4acc", "is_disabled": 0, "is_reserved": 0}, {"rental_uris": {"ios": "https://dc.lft.to/lastmile_qr_scan", "android": "https://dc.lft.to/lastmile_qr_scan"}, "lon": -77.00862866666667, "type": "electric_scooter", "fusion_lat": 0.0, "lat": 38.905160333333335, "name": "ad68356c5be17fe3667f21d7fbae8eac", "fusion_lon": 0.0, "bike_id": "ad68356c5be17fe3667f21d7fbae8eac", "is_disabled": 0, "is_reserved": 0}, {"rental_uris": {"ios": "https://dc.lft.to/lastmile_qr_scan", "android": "https://dc.lft.to/lastmile_qr_scan"}, "lon": -77.03852816666667, "type": "electric_scooter", "fusion_lat": 0.0, "lat": 38.90751016666667, "name": "54b3799a9e77c873def79566a2a85531", "fusion_lon": 0.0, "bike_id": "54b3799a9e77c873def79566a2a85531", "is_disabled": 0, "is_reserved": 0}, {"rental_uris": {"ios": "https://dc.lft.to/lastmile_qr_scan", "android": "https://dc.lft.to/lastmile_qr_scan"}, "lon": -77.0326465, "type": "electric_scooter", "fusion_lat": 0.0, "lat": 38.9072465, "name": "2ea02da71b40b35edaa1f3f8611573e0", "fusion_lon": 0.0, "bike_id": "2ea02da71b40b35edaa1f3f8611573e0", "is_disabled": 0, "is_reserved": 0}, {"rental_uris": {"ios": "https://dc.lft.to/lastmile_qr_scan", "android": "https://dc.lft.to/lastmile_qr_scan"}, "lon": -77.0269205, "type": "electric_scooter", "fusion_lat": 0.0, "lat": 38.906840333333335, "name": "da85aef6ae6ad4d3082e48f638cd748b", "fusion_lon": 0.0, "bike_id": "da85aef6ae6ad4d3082e48f638cd748b", "is_disabled": 0, "is_reserved": 0}, {"rental_uris": {"ios": "https://dc.lft.to/lastmile_qr_scan", "android": "https://dc.lft.to/lastmile_qr_scan"}, "lon": -77.03210366666667, "type": "electric_scooter", "fusion_lat": 0.0, "lat": 38.89984883333333, "name": "471f6feb82d59cdc3e952744adcd8c19", "fusion_lon": 0.0, "bike_id": "471f6feb82d59cdc3e952744adcd8c19", "is_disabled": 0, "is_reserved": 0}, {"rental_uris": {"ios": "https://dc.lft.to/lastmile_qr_scan", "android": "https://dc.lft.to/lastmile_qr_scan"}, "lon": -77.016468, "type": "electric_scooter", "fusion_lat": 0.0, "lat": 38.9293735, "name": "be2052e96168580e734aa47f581e0a8d", "fusion_lon": 0.0, "bike_id": "be2052e96168580e734aa47f581e0a8d", "is_disabled": 0, "is_reserved": 0}, {"rental_uris": {"ios": "https://dc.lft.to/lastmile_qr_scan", "android": "https://dc.lft.to/lastmile_qr_scan"}, "lon": -77.05519866666667, "type": "electric_scooter", "fusion_lat": 0.0, "lat": 38.899621, "name": "55c757f2ce650f021a03fdb62d509134", "fusion_lon": 0.0, "bike_id": "55c757f2ce650f021a03fdb62d509134", "is_disabled": 0, "is_reserved": 0}, {"rental_uris": {"ios": "https://dc.lft.to/lastmile_qr_scan", "android": "https://dc.lft.to/lastmile_qr_scan"}, "lon": -77.02934916666666, "type": "electric_scooter", "fusion_lat": 0.0, "lat": 38.933229833333336, "name": "12078682b4ca3621cd22ef25fe870d7e", "fusion_lon": 0.0, "bike_id": "12078682b4ca3621cd22ef25fe870d7e", "is_disabled": 0, "is_reserved": 0}, {"rental_uris": {"ios": "https://dc.lft.to/lastmile_qr_scan", "android": "https://dc.lft.to/lastmile_qr_scan"}, "lon": -77.04002133333333, "type": "electric_scooter", "fusion_lat": 0.0, "lat": 38.91821133333333, "name": "485ff6f1bf8f41a6740744ddaa3372b4", "fusion_lon": 0.0, "bike_id": "485ff6f1bf8f41a6740744ddaa3372b4", "is_disabled": 0, "is_reserved": 0}, {"rental_uris": {"ios": "https://dc.lft.to/lastmile_qr_scan", "android": "https://dc.lft.to/lastmile_qr_scan"}, "lon": -77.04032416666666, "type": "electric_scooter", "fusion_lat": 0.0, "lat": 38.924302833333336, "name": "365ac9486264024446bdfe1c07302e72", "fusion_lon": 0.0, "bike_id": "365ac9486264024446bdfe1c07302e72", "is_disabled": 0, "is_reserved": 0}, {"rental_uris": {"ios": "https://dc.lft.to/lastmile_qr_scan", "android": "https://dc.lft.to/lastmile_qr_scan"}, "lon": -77.0353535, "type": "electric_scooter", "fusion_lat": 0.0, "lat": 38.923433333333335, "name": "3e3a857611e7b1d68b95919717c0e8a0", "fusion_lon": 0.0, "bike_id": "3e3a857611e7b1d68b95919717c0e8a0", "is_disabled": 0, "is_reserved": 0}, {"rental_uris": {"ios": "https://dc.lft.to/lastmile_qr_scan", "android": "https://dc.lft.to/lastmile_qr_scan"}, "lon": -77.025891, "type": "electric_scooter", "fusion_lat": 0.0, "lat": 38.915078333333334, "name": "0f25752f57a4ce952a34fcfc34f9543d", "fusion_lon": 0.0, "bike_id": "0f25752f57a4ce952a34fcfc34f9543d", "is_disabled": 0, "is_reserved": 0}, {"rental_uris": {"ios": "https://dc.lft.to/lastmile_qr_scan", "android": "https://dc.lft.to/lastmile_qr_scan"}, "lon": -76.978206, "type": "electric_scooter", "fusion_lat": 0.0, "lat": 38.89519416666667, "name": "dbbf5a6b509b16440649098cc226a5e4", "fusion_lon": 0.0, "bike_id": "dbbf5a6b509b16440649098cc226a5e4", "is_disabled": 0, "is_reserved": 0}, {"rental_uris": {"ios": "https://dc.lft.to/lastmile_qr_scan", "android": "https://dc.lft.to/lastmile_qr_scan"}, "lon": -76.99021233333333, "type": "electric_scooter", "fusion_lat": 0.0, "lat": 38.85865283333333, "name": "53a0526bd2fade1eb83ae7b146b32129", "fusion_lon": 0.0, "bike_id": "53a0526bd2fade1eb83ae7b146b32129", "is_disabled": 0, "is_reserved": 0}, {"rental_uris": {"ios": "https://dc.lft.to/lastmile_qr_scan", "android": "https://dc.lft.to/lastmile_qr_scan"}, "lon": -77.025869, "type": "electric_scooter", "fusion_lat": 0.0, "lat": 38.92035883333333, "name": "19e04368253e7d6599998a42438495ab", "fusion_lon": 0.0, "bike_id": "19e04368253e7d6599998a42438495ab", "is_disabled": 0, "is_reserved": 0}, {"rental_uris": {"ios": "https://dc.lft.to/lastmile_qr_scan", "android": "https://dc.lft.to/lastmile_qr_scan"}, "lon": -77.01859233333333, "type": "electric_scooter", "fusion_lat": 0.0, "lat": 38.89268633333333, "name": "f657cba13808804d61c2462f8eb0fb5f", "fusion_lon": 0.0, "bike_id": "f657cba13808804d61c2462f8eb0fb5f", "is_disabled": 0, "is_reserved": 0}, {"rental_uris": {"ios": "https://dc.lft.to/lastmile_qr_scan", "android": "https://dc.lft.to/lastmile_qr_scan"}, "lon": -77.02283516666667, "type": "electric_scooter", "fusion_lat": 0.0, "lat": 38.878368333333334, "name": "6faf5973e8364ceace7019687054b6e9", "fusion_lon": 0.0, "bike_id": "6faf5973e8364ceace7019687054b6e9", "is_disabled": 0, "is_reserved": 0}, {"rental_uris": {"ios": "https://dc.lft.to/lastmile_qr_scan", "android": "https://dc.lft.to/lastmile_qr_scan"}, "lon": -77.02548016666667, "type": "electric_scooter", "fusion_lat": 0.0, "lat": 38.89221833333333, "name": "721093f6b822dfe0112f8f09d98cf156", "fusion_lon": 0.0, "bike_id": "721093f6b822dfe0112f8f09d98cf156", "is_disabled": 0, "is_reserved": 0}, {"rental_uris": {"ios": "https://dc.lft.to/lastmile_qr_scan", "android": "https://dc.lft.to/lastmile_qr_scan"}, "lon": -77.03619416666666, "type": "electric_scooter", "fusion_lat": 0.0, "lat": 38.9374015, "name": "3d39cae73657eceacf0d769c2360a1b6", "fusion_lon": 0.0, "bike_id": "3d39cae73657eceacf0d769c2360a1b6", "is_disabled": 0, "is_reserved": 0}, {"rental_uris": {"ios": "https://dc.lft.to/lastmile_qr_scan", "android": "https://dc.lft.to/lastmile_qr_scan"}, "lon": -77.00267, "type": "electric_bike", "fusion_lat": 0.0, "lat": 38.91185616666667, "name": "a8631684e08b79fa2b00fae71b8a43dc", "fusion_lon": 0.0, "bike_id": "a8631684e08b79fa2b00fae71b8a43dc", "is_disabled": 0, "is_reserved": 0}, {"rental_uris": {"ios": "https://dc.lft.to/lastmile_qr_scan", "android": "https://dc.lft.to/lastmile_qr_scan"}, "lon": -77.0322065, "type": "electric_scooter", "fusion_lat": 0.0, "lat": 38.917011, "name": "fc2e45e29a7d2d9f2c3822556167029d", "fusion_lon": 0.0, "bike_id": "fc2e45e29a7d2d9f2c3822556167029d", "is_disabled": 0, "is_reserved": 0}, {"rental_uris": {"ios": "https://dc.lft.to/lastmile_qr_scan", "android": "https://dc.lft.to/lastmile_qr_scan"}, "lon": -77.043026, "type": "electric_scooter", "fusion_lat": 0.0, "lat": 38.92295716666667, "name": "26e559146661294826602cccbac312e5", "fusion_lon": 0.0, "bike_id": "26e559146661294826602cccbac312e5", "is_disabled": 0, "is_reserved": 0}, {"rental_uris": {"ios": "https://dc.lft.to/lastmile_qr_scan", "android": "https://dc.lft.to/lastmile_qr_scan"}, "lon": -77.03311066666667, "type": "electric_scooter", "fusion_lat": 0.0, "lat": 38.90152716666667, "name": "c215611a0c168af21d12f236cb37cc10", "fusion_lon": 0.0, "bike_id": "c215611a0c168af21d12f236cb37cc10", "is_disabled": 0, "is_reserved": 0}, {"rental_uris": {"ios": "https://dc.lft.to/lastmile_qr_scan", "android": "https://dc.lft.to/lastmile_qr_scan"}, "lon": -77.06351383333333, "type": "electric_scooter", "fusion_lat": 0.0, "lat": 38.9445195, "name": "cc167ec0af27c04f572aacc78893d129", "fusion_lon": 0.0, "bike_id": "cc167ec0af27c04f572aacc78893d129", "is_disabled": 0, "is_reserved": 0}, {"rental_uris": {"ios": "https://dc.lft.to/lastmile_qr_scan", "android": "https://dc.lft.to/lastmile_qr_scan"}, "lon": -77.18292533333333, "type": "electric_bike", "fusion_lat": 0.0, "lat": 38.88339233333333, "name": "adc9cfaf9c661330b6646761d72a1c61", "fusion_lon": 0.0, "bike_id": "adc9cfaf9c661330b6646761d72a1c61", "is_disabled": 0, "is_reserved": 0}, {"rental_uris": {"ios": "https://dc.lft.to/lastmile_qr_scan", "android": "https://dc.lft.to/lastmile_qr_scan"}, "lon": -77.03868233333333, "type": "electric_scooter", "fusion_lat": 0.0, "lat": 38.90805066666667, "name": "9d375366f7536e1dfa8792f0dce983ed", "fusion_lon": 0.0, "bike_id": "9d375366f7536e1dfa8792f0dce983ed", "is_disabled": 0, "is_reserved": 0}, {"rental_uris": {"ios": "https://dc.lft.to/lastmile_qr_scan", "android": "https://dc.lft.to/lastmile_qr_scan"}, "lon": -77.0638295, "type": "electric_scooter", "fusion_lat": 0.0, "lat": 38.904995166666666, "name": "3877c173908c6aa2dec79fda873914d6", "fusion_lon": 0.0, "bike_id": "3877c173908c6aa2dec79fda873914d6", "is_disabled": 0, "is_reserved": 0}, {"rental_uris": {"ios": "https://dc.lft.to/lastmile_qr_scan", "android": "https://dc.lft.to/lastmile_qr_scan"}, "lon": -77.04002233333334, "type": "electric_scooter", "fusion_lat": 0.0, "lat": 38.900250166666666, "name": "863952301ae7a8eb4d48efd8118e7010", "fusion_lon": 0.0, "bike_id": "863952301ae7a8eb4d48efd8118e7010", "is_disabled": 0, "is_reserved": 0}, {"rental_uris": {"ios": "https://dc.lft.to/lastmile_qr_scan", "android": "https://dc.lft.to/lastmile_qr_scan"}, "lon": -77.01747666666667, "type": "electric_scooter", "fusion_lat": 0.0, "lat": 38.90560166666667, "name": "bce4aa000f08d947d840b69c944c458f", "fusion_lon": 0.0, "bike_id": "bce4aa000f08d947d840b69c944c458f", "is_disabled": 0, "is_reserved": 0}, {"rental_uris": {"ios": "https://dc.lft.to/lastmile_qr_scan", "android": "https://dc.lft.to/lastmile_qr_scan"}, "lon": -77.00028, "type": "electric_scooter", "fusion_lat": 0.0, "lat": 38.908126333333335, "name": "76b15a42e599023710653bb34bf95a49", "fusion_lon": 0.0, "bike_id": "76b15a42e599023710653bb34bf95a49", "is_disabled": 0, "is_reserved": 0}, {"rental_uris": {"ios": "https://dc.lft.to/lastmile_qr_scan", "android": "https://dc.lft.to/lastmile_qr_scan"}, "lon": -77.01379816666666, "type": "electric_scooter", "fusion_lat": 0.0, "lat": 38.928825333333336, "name": "d9f6824ab4e531b20e15de303aa1b9c0", "fusion_lon": 0.0, "bike_id": "d9f6824ab4e531b20e15de303aa1b9c0", "is_disabled": 0, "is_reserved": 0}, {"rental_uris": {"ios": "https://dc.lft.to/lastmile_qr_scan", "android": "https://dc.lft.to/lastmile_qr_scan"}, "lon": -77.031973, "type": "electric_scooter", "fusion_lat": 0.0, "lat": 38.912465833333336, "name": "ba35245985ab3b86d7a89b90f2cbcc1b", "fusion_lon": 0.0, "bike_id": "ba35245985ab3b86d7a89b90f2cbcc1b", "is_disabled": 0, "is_reserved": 0}, {"rental_uris": {"ios": "https://dc.lft.to/lastmile_qr_scan", "android": "https://dc.lft.to/lastmile_qr_scan"}, "lon": -77.03605, "type": "electric_scooter", "fusion_lat": 0.0, "lat": 38.9348445, "name": "af64e16dbcb193074e72b1c0aff6876d", "fusion_lon": 0.0, "bike_id": "af64e16dbcb193074e72b1c0aff6876d", "is_disabled": 0, "is_reserved": 0}, {"rental_uris": {"ios": "https://dc.lft.to/lastmile_qr_scan", "android": "https://dc.lft.to/lastmile_qr_scan"}, "lon": -77.04545283333333, "type": "electric_scooter", "fusion_lat": 0.0, "lat": 38.934024, "name": "7fef71c959f882e5ae66746d3a3069e0", "fusion_lon": 0.0, "bike_id": "7fef71c959f882e5ae66746d3a3069e0", "is_disabled": 0, "is_reserved": 0}, {"rental_uris": {"ios": "https://dc.lft.to/lastmile_qr_scan", "android": "https://dc.lft.to/lastmile_qr_scan"}, "lon": -77.02006166666666, "type": "electric_scooter", "fusion_lat": 0.0, "lat": 38.913120166666666, "name": "2f2cca6aa2bc1a802fb0c9d634f9cddd", "fusion_lon": 0.0, "bike_id": "2f2cca6aa2bc1a802fb0c9d634f9cddd", "is_disabled": 0, "is_reserved": 0}, {"rental_uris": {"ios": "https://dc.lft.to/lastmile_qr_scan", "android": "https://dc.lft.to/lastmile_qr_scan"}, "lon": -77.00622616666666, "type": "electric_scooter", "fusion_lat": 0.0, "lat": 38.902641833333334, "name": "6aad629df7168e76ed6b687cd5298374", "fusion_lon": 0.0, "bike_id": "6aad629df7168e76ed6b687cd5298374", "is_disabled": 0, "is_reserved": 0}, {"rental_uris": {"ios": "https://dc.lft.to/lastmile_qr_scan", "android": "https://dc.lft.to/lastmile_qr_scan"}, "lon": -76.989667, "type": "electric_scooter", "fusion_lat": 0.0, "lat": 38.9024485, "name": "6551695edc57ad4fa29b136c26a4352f", "fusion_lon": 0.0, "bike_id": "6551695edc57ad4fa29b136c26a4352f", "is_disabled": 0, "is_reserved": 0}, {"rental_uris": {"ios": "https://dc.lft.to/lastmile_qr_scan", "android": "https://dc.lft.to/lastmile_qr_scan"}, "lon": -77.02703166666667, "type": "electric_scooter", "fusion_lat": 0.0, "lat": 38.9500015, "name": "7dcac39dd54a8432bba1cef465551127", "fusion_lon": 0.0, "bike_id": "7dcac39dd54a8432bba1cef465551127", "is_disabled": 0, "is_reserved": 0}, {"rental_uris": {"ios": "https://dc.lft.to/lastmile_qr_scan", "android": "https://dc.lft.to/lastmile_qr_scan"}, "lon": -77.03958133333333, "type": "electric_scooter", "fusion_lat": 0.0, "lat": 38.892477166666666, "name": "b579555c9c056b129a7abec576be6edc", "fusion_lon": 0.0, "bike_id": "b579555c9c056b129a7abec576be6edc", "is_disabled": 0, "is_reserved": 0}, {"rental_uris": {"ios": "https://dc.lft.to/lastmile_qr_scan", "android": "https://dc.lft.to/lastmile_qr_scan"}, "lon": -77.03132133333334, "type": "electric_scooter", "fusion_lat": 0.0, "lat": 38.906628166666664, "name": "787c1939e0755030eca9490170995049", "fusion_lon": 0.0, "bike_id": "787c1939e0755030eca9490170995049", "is_disabled": 0, "is_reserved": 0}, {"rental_uris": {"ios": "https://dc.lft.to/lastmile_qr_scan", "android": "https://dc.lft.to/lastmile_qr_scan"}, "lon": -76.94636466666667, "type": "electric_scooter", "fusion_lat": 0.0, "lat": 38.89830966666667, "name": "4c66e9f5ec33f1e13b4a31ac0544256c", "fusion_lon": 0.0, "bike_id": "4c66e9f5ec33f1e13b4a31ac0544256c", "is_disabled": 0, "is_reserved": 0}, {"rental_uris": {"ios": "https://dc.lft.to/lastmile_qr_scan", "android": "https://dc.lft.to/lastmile_qr_scan"}, "lon": -77.0392045, "type": "electric_scooter", "fusion_lat": 0.0, "lat": 38.918389833333336, "name": "35cf6cbaafb78d14256217122c9db3ab", "fusion_lon": 0.0, "bike_id": "35cf6cbaafb78d14256217122c9db3ab", "is_disabled": 0, "is_reserved": 0}, {"rental_uris": {"ios": "https://dc.lft.to/lastmile_qr_scan", "android": "https://dc.lft.to/lastmile_qr_scan"}, "lon": -77.006036, "type": "electric_scooter", "fusion_lat": 0.0, "lat": 38.884854, "name": "85a589a7ca3d60f24e493f8368112e14", "fusion_lon": 0.0, "bike_id": "85a589a7ca3d60f24e493f8368112e14", "is_disabled": 0, "is_reserved": 0}, {"rental_uris": {"ios": "https://dc.lft.to/lastmile_qr_scan", "android": "https://dc.lft.to/lastmile_qr_scan"}, "lon": -77.047928, "type": "electric_scooter", "fusion_lat": 0.0, "lat": 38.899544, "name": "335b7c3140ef4ad9126b6bacb6e0b666", "fusion_lon": 0.0, "bike_id": "335b7c3140ef4ad9126b6bacb6e0b666", "is_disabled": 0, "is_reserved": 0}, {"rental_uris": {"ios": "https://dc.lft.to/lastmile_qr_scan", "android": "https://dc.lft.to/lastmile_qr_scan"}, "lon": -77.02186083333333, "type": "electric_scooter", "fusion_lat": 0.0, "lat": 38.880356166666665, "name": "97fd1bf5df4f1d830bab808add9d9f79", "fusion_lon": 0.0, "bike_id": "97fd1bf5df4f1d830bab808add9d9f79", "is_disabled": 0, "is_reserved": 0}, {"rental_uris": {"ios": "https://dc.lft.to/lastmile_qr_scan", "android": "https://dc.lft.to/lastmile_qr_scan"}, "lon": -77.02503866666666, "type": "electric_scooter", "fusion_lat": 0.0, "lat": 38.9193875, "name": "dff415614b1ceef8509da80ce5c6a597", "fusion_lon": 0.0, "bike_id": "dff415614b1ceef8509da80ce5c6a597", "is_disabled": 0, "is_reserved": 0}, {"rental_uris": {"ios": "https://dc.lft.to/lastmile_qr_scan", "android": "https://dc.lft.to/lastmile_qr_scan"}, "lon": -77.07103683333334, "type": "electric_bike", "fusion_lat": 0.0, "lat": 38.91448666666667, "name": "54e165de93d02c29d80bf9150200624b", "fusion_lon": 0.0, "bike_id": "54e165de93d02c29d80bf9150200624b", "is_disabled": 0, "is_reserved": 0}, {"rental_uris": {"ios": "https://dc.lft.to/lastmile_qr_scan", "android": "https://dc.lft.to/lastmile_qr_scan"}, "lon": -77.03847233333333, "type": "electric_scooter", "fusion_lat": 0.0, "lat": 38.907474, "name": "cd565ffb7377c1b647d2a2b20200b313", "fusion_lon": 0.0, "bike_id": "cd565ffb7377c1b647d2a2b20200b313", "is_disabled": 0, "is_reserved": 0}, {"rental_uris": {"ios": "https://dc.lft.to/lastmile_qr_scan", "android": "https://dc.lft.to/lastmile_qr_scan"}, "lon": -77.0468415, "type": "electric_scooter", "fusion_lat": 0.0, "lat": 38.892218166666666, "name": "95349fc62e56d565b992dc4bf7515e69", "fusion_lon": 0.0, "bike_id": "95349fc62e56d565b992dc4bf7515e69", "is_disabled": 0, "is_reserved": 0}, {"rental_uris": {"ios": "https://dc.lft.to/lastmile_qr_scan", "android": "https://dc.lft.to/lastmile_qr_scan"}, "lon": -77.025493, "type": "electric_scooter", "fusion_lat": 0.0, "lat": 38.92403733333333, "name": "e6635df6727fc7d67dab50d10d610a0e", "fusion_lon": 0.0, "bike_id": "e6635df6727fc7d67dab50d10d610a0e", "is_disabled": 0, "is_reserved": 0}, {"rental_uris": {"ios": "https://dc.lft.to/lastmile_qr_scan", "android": "https://dc.lft.to/lastmile_qr_scan"}, "lon": -77.07721783333334, "type": "electric_scooter", "fusion_lat": 0.0, "lat": 38.94706883333333, "name": "623430e2427925b43079a8fc50cc1b7f", "fusion_lon": 0.0, "bike_id": "623430e2427925b43079a8fc50cc1b7f", "is_disabled": 0, "is_reserved": 0}, {"rental_uris": {"ios": "https://dc.lft.to/lastmile_qr_scan", "android": "https://dc.lft.to/lastmile_qr_scan"}, "lon": -77.0277995, "type": "electric_scooter", "fusion_lat": 0.0, "lat": 38.953824833333336, "name": "df64240e35f3a4ff455c032fbcd8f5e6", "fusion_lon": 0.0, "bike_id": "df64240e35f3a4ff455c032fbcd8f5e6", "is_disabled": 0, "is_reserved": 0}, {"rental_uris": {"ios": "https://dc.lft.to/lastmile_qr_scan", "android": "https://dc.lft.to/lastmile_qr_scan"}, "lon": -76.98094533333334, "type": "electric_bike", "fusion_lat": 0.0, "lat": 38.881354333333334, "name": "40ecb5e3ca01cb5a14ffff83842e386a", "fusion_lon": 0.0, "bike_id": "40ecb5e3ca01cb5a14ffff83842e386a", "is_disabled": 0, "is_reserved": 0}, {"rental_uris": {"ios": "https://dc.lft.to/lastmile_qr_scan", "android": "https://dc.lft.to/lastmile_qr_scan"}, "lon": -77.01461583333334, "type": "electric_bike", "fusion_lat": 0.0, "lat": 38.87206583333333, "name": "7928da17de3a1039dd540fded04304f4", "fusion_lon": 0.0, "bike_id": "7928da17de3a1039dd540fded04304f4", "is_disabled": 0, "is_reserved": 0}, {"rental_uris": {"ios": "https://dc.lft.to/lastmile_qr_scan", "android": "https://dc.lft.to/lastmile_qr_scan"}, "lon": -77.03468266666667, "type": "electric_scooter", "fusion_lat": 0.0, "lat": 38.9235125, "name": "a2f111b7a02634fe31537d0171f74282", "fusion_lon": 0.0, "bike_id": "a2f111b7a02634fe31537d0171f74282", "is_disabled": 0, "is_reserved": 0}, {"rental_uris": {"ios": "https://dc.lft.to/lastmile_qr_scan", "android": "https://dc.lft.to/lastmile_qr_scan"}, "lon": -77.01257966666667, "type": "electric_scooter", "fusion_lat": 0.0, "lat": 38.89965216666667, "name": "77462a6e89e3ac3e5d39c520b3c53e5d", "fusion_lon": 0.0, "bike_id": "77462a6e89e3ac3e5d39c520b3c53e5d", "is_disabled": 0, "is_reserved": 0}, {"rental_uris": {"ios": "https://dc.lft.to/lastmile_qr_scan", "android": "https://dc.lft.to/lastmile_qr_scan"}, "lon": -77.13597616666667, "type": "electric_bike", "fusion_lat": 0.0, "lat": 39.053466, "name": "1e4715a2018fb41a002bd79a67fcc0c0", "fusion_lon": 0.0, "bike_id": "1e4715a2018fb41a002bd79a67fcc0c0", "is_disabled": 0, "is_reserved": 0}, {"rental_uris": {"ios": "https://dc.lft.to/lastmile_qr_scan", "android": "https://dc.lft.to/lastmile_qr_scan"}, "lon": -77.01428966666667, "type": "electric_scooter", "fusion_lat": 0.0, "lat": 38.87746216666667, "name": "64b6c4f6b8620a519a2b8d2b8670e85e", "fusion_lon": 0.0, "bike_id": "64b6c4f6b8620a519a2b8d2b8670e85e", "is_disabled": 0, "is_reserved": 0}, {"rental_uris": {"ios": "https://dc.lft.to/lastmile_qr_scan", "android": "https://dc.lft.to/lastmile_qr_scan"}, "lon": -77.0293735, "type": "electric_scooter", "fusion_lat": 0.0, "lat": 38.920606, "name": "59babdb30cb3619efc2fe40b9c003c62", "fusion_lon": 0.0, "bike_id": "59babdb30cb3619efc2fe40b9c003c62", "is_disabled": 0, "is_reserved": 0}, {"rental_uris": {"ios": "https://dc.lft.to/lastmile_qr_scan", "android": "https://dc.lft.to/lastmile_qr_scan"}, "lon": -77.04305716666667, "type": "electric_scooter", "fusion_lat": 0.0, "lat": 38.92255983333333, "name": "d3bebbc70ef7460a1547b235eec9a99d", "fusion_lon": 0.0, "bike_id": "d3bebbc70ef7460a1547b235eec9a99d", "is_disabled": 0, "is_reserved": 0}, {"rental_uris": {"ios": "https://dc.lft.to/lastmile_qr_scan", "android": "https://dc.lft.to/lastmile_qr_scan"}, "lon": -77.00894866666667, "type": "electric_scooter", "fusion_lat": 0.0, "lat": 38.8977245, "name": "81f21dbd8eca0d3dc8db8e6c5329c4a4", "fusion_lon": 0.0, "bike_id": "81f21dbd8eca0d3dc8db8e6c5329c4a4", "is_disabled": 0, "is_reserved": 0}, {"rental_uris": {"ios": "https://dc.lft.to/lastmile_qr_scan", "android": "https://dc.lft.to/lastmile_qr_scan"}, "lon": -77.0524995, "type": "electric_scooter", "fusion_lat": 0.0, "lat": 38.92378516666667, "name": "10e750df9dd73c9f38fe50df0572da7b", "fusion_lon": 0.0, "bike_id": "10e750df9dd73c9f38fe50df0572da7b", "is_disabled": 0, "is_reserved": 0}, {"rental_uris": {"ios": "https://dc.lft.to/lastmile_qr_scan", "android": "https://dc.lft.to/lastmile_qr_scan"}, "lon": -76.98631616666667, "type": "electric_scooter", "fusion_lat": 0.0, "lat": 38.868216333333336, "name": "d9ba85307491d6d60c34f3b741a9057a", "fusion_lon": 0.0, "bike_id": "d9ba85307491d6d60c34f3b741a9057a", "is_disabled": 0, "is_reserved": 0}, {"rental_uris": {"ios": "https://dc.lft.to/lastmile_qr_scan", "android": "https://dc.lft.to/lastmile_qr_scan"}, "lon": -77.04484, "type": "electric_scooter", "fusion_lat": 0.0, "lat": 38.9064625, "name": "54f7c68b530540e806f5c8b81b9583c7", "fusion_lon": 0.0, "bike_id": "54f7c68b530540e806f5c8b81b9583c7", "is_disabled": 0, "is_reserved": 0}, {"rental_uris": {"ios": "https://dc.lft.to/lastmile_qr_scan", "android": "https://dc.lft.to/lastmile_qr_scan"}, "lon": -77.002063, "type": "electric_scooter", "fusion_lat": 0.0, "lat": 38.9003405, "name": "71d8b55b6f572f32acf1fa9f1446b82a", "fusion_lon": 0.0, "bike_id": "71d8b55b6f572f32acf1fa9f1446b82a", "is_disabled": 0, "is_reserved": 0}, {"rental_uris": {"ios": "https://dc.lft.to/lastmile_qr_scan", "android": "https://dc.lft.to/lastmile_qr_scan"}, "lon": -77.04256966666667, "type": "electric_scooter", "fusion_lat": 0.0, "lat": 38.9205685, "name": "ae1a1b005d4860f74afdf11822f638fe", "fusion_lon": 0.0, "bike_id": "ae1a1b005d4860f74afdf11822f638fe", "is_disabled": 0, "is_reserved": 0}, {"rental_uris": {"ios": "https://dc.lft.to/lastmile_qr_scan", "android": "https://dc.lft.to/lastmile_qr_scan"}, "lon": -77.0206755, "type": "electric_scooter", "fusion_lat": 0.0, "lat": 38.93528533333333, "name": "c7aee0a205e6b4b75998f32e4136830b", "fusion_lon": 0.0, "bike_id": "c7aee0a205e6b4b75998f32e4136830b", "is_disabled": 0, "is_reserved": 0}, {"rental_uris": {"ios": "https://dc.lft.to/lastmile_qr_scan", "android": "https://dc.lft.to/lastmile_qr_scan"}, "lon": -77.024113, "type": "electric_scooter", "fusion_lat": 0.0, "lat": 38.917072, "name": "566c9518cfbe12471377b66214a2b006", "fusion_lon": 0.0, "bike_id": "566c9518cfbe12471377b66214a2b006", "is_disabled": 0, "is_reserved": 0}, {"rental_uris": {"ios": "https://dc.lft.to/lastmile_qr_scan", "android": "https://dc.lft.to/lastmile_qr_scan"}, "lon": -77.0448275, "type": "electric_scooter", "fusion_lat": 0.0, "lat": 38.913177833333336, "name": "1b5b5fe0c8f2a0df8d87ba96a6208e73", "fusion_lon": 0.0, "bike_id": "1b5b5fe0c8f2a0df8d87ba96a6208e73", "is_disabled": 0, "is_reserved": 0}, {"rental_uris": {"ios": "https://dc.lft.to/lastmile_qr_scan", "android": "https://dc.lft.to/lastmile_qr_scan"}, "lon": -77.00263366666667, "type": "electric_scooter", "fusion_lat": 0.0, "lat": 38.898967666666664, "name": "dd54fbdd8161b8a49b7f7d65827dd3b7", "fusion_lon": 0.0, "bike_id": "dd54fbdd8161b8a49b7f7d65827dd3b7", "is_disabled": 0, "is_reserved": 0}, {"rental_uris": {"ios": "https://dc.lft.to/lastmile_qr_scan", "android": "https://dc.lft.to/lastmile_qr_scan"}, "lon": -77.02837083333333, "type": "electric_scooter", "fusion_lat": 0.0, "lat": 38.92470183333333, "name": "084f09c19a1dbc0a077ea4932f7bcbfe", "fusion_lon": 0.0, "bike_id": "084f09c19a1dbc0a077ea4932f7bcbfe", "is_disabled": 0, "is_reserved": 0}, {"rental_uris": {"ios": "https://dc.lft.to/lastmile_qr_scan", "android": "https://dc.lft.to/lastmile_qr_scan"}, "lon": -77.01081, "type": "electric_bike", "fusion_lat": 0.0, "lat": 38.956535333333335, "name": "d4eeddc6712315eeb89ee44f87c2beda", "fusion_lon": 0.0, "bike_id": "d4eeddc6712315eeb89ee44f87c2beda", "is_disabled": 0, "is_reserved": 0}, {"rental_uris": {"ios": "https://dc.lft.to/lastmile_qr_scan", "android": "https://dc.lft.to/lastmile_qr_scan"}, "lon": -77.03911316666667, "type": "electric_scooter", "fusion_lat": 0.0, "lat": 38.898444, "name": "1d0088e49ce28ed0317a89ff5f2dd669", "fusion_lon": 0.0, "bike_id": "1d0088e49ce28ed0317a89ff5f2dd669", "is_disabled": 0, "is_reserved": 0}, {"rental_uris": {"ios": "https://dc.lft.to/lastmile_qr_scan", "android": "https://dc.lft.to/lastmile_qr_scan"}, "lon": -77.03557383333333, "type": "electric_scooter", "fusion_lat": 0.0, "lat": 38.931371666666664, "name": "a6ca4e434c58449df8232badff5f952a", "fusion_lon": 0.0, "bike_id": "a6ca4e434c58449df8232badff5f952a", "is_disabled": 0, "is_reserved": 0}, {"rental_uris": {"ios": "https://dc.lft.to/lastmile_qr_scan", "android": "https://dc.lft.to/lastmile_qr_scan"}, "lon": -77.0326855, "type": "electric_scooter", "fusion_lat": 0.0, "lat": 38.91982866666667, "name": "218ca7b2e488a61359bedca3dfcf20e3", "fusion_lon": 0.0, "bike_id": "218ca7b2e488a61359bedca3dfcf20e3", "is_disabled": 0, "is_reserved": 0}, {"rental_uris": {"ios": "https://dc.lft.to/lastmile_qr_scan", "android": "https://dc.lft.to/lastmile_qr_scan"}, "lon": -76.998515, "type": "electric_scooter", "fusion_lat": 0.0, "lat": 38.8949045, "name": "a6bcb1da9078b75cf005b9244d74721e", "fusion_lon": 0.0, "bike_id": "a6bcb1da9078b75cf005b9244d74721e", "is_disabled": 0, "is_reserved": 0}, {"rental_uris": {"ios": "https://dc.lft.to/lastmile_qr_scan", "android": "https://dc.lft.to/lastmile_qr_scan"}, "lon": -77.03706416666667, "type": "electric_scooter", "fusion_lat": 0.0, "lat": 38.92633683333333, "name": "1e080ee5332c6fdd041ef9f94626c529", "fusion_lon": 0.0, "bike_id": "1e080ee5332c6fdd041ef9f94626c529", "is_disabled": 0, "is_reserved": 0}, {"rental_uris": {"ios": "https://dc.lft.to/lastmile_qr_scan", "android": "https://dc.lft.to/lastmile_qr_scan"}, "lon": -77.04498983333333, "type": "electric_scooter", "fusion_lat": 0.0, "lat": 38.903308333333335, "name": "64849fa6e8cd854c656db0a2342478c0", "fusion_lon": 0.0, "bike_id": "64849fa6e8cd854c656db0a2342478c0", "is_disabled": 0, "is_reserved": 0}, {"rental_uris": {"ios": "https://dc.lft.to/lastmile_qr_scan", "android": "https://dc.lft.to/lastmile_qr_scan"}, "lon": -77.02212383333334, "type": "electric_scooter", "fusion_lat": 0.0, "lat": 38.8876895, "name": "4bce893893813c992b246e034723d437", "fusion_lon": 0.0, "bike_id": "4bce893893813c992b246e034723d437", "is_disabled": 0, "is_reserved": 0}, {"rental_uris": {"ios": "https://dc.lft.to/lastmile_qr_scan", "android": "https://dc.lft.to/lastmile_qr_scan"}, "lon": -76.96785366666667, "type": "electric_scooter", "fusion_lat": 0.0, "lat": 38.86138183333333, "name": "c58104faf89098dfadf0f59bcce655c5", "fusion_lon": 0.0, "bike_id": "c58104faf89098dfadf0f59bcce655c5", "is_disabled": 0, "is_reserved": 0}, {"rental_uris": {"ios": "https://dc.lft.to/lastmile_qr_scan", "android": "https://dc.lft.to/lastmile_qr_scan"}, "lon": -77.019614, "type": "electric_scooter", "fusion_lat": 0.0, "lat": 38.90423066666666, "name": "8a025e1df4b7863a0fc05a8f83e9f007", "fusion_lon": 0.0, "bike_id": "8a025e1df4b7863a0fc05a8f83e9f007", "is_disabled": 0, "is_reserved": 0}, {"rental_uris": {"ios": "https://dc.lft.to/lastmile_qr_scan", "android": "https://dc.lft.to/lastmile_qr_scan"}, "lon": -77.03442616666666, "type": "electric_scooter", "fusion_lat": 0.0, "lat": 38.910114, "name": "d82fbba16be18f88fe73b9f9957495ff", "fusion_lon": 0.0, "bike_id": "d82fbba16be18f88fe73b9f9957495ff", "is_disabled": 0, "is_reserved": 0}, {"rental_uris": {"ios": "https://dc.lft.to/lastmile_qr_scan", "android": "https://dc.lft.to/lastmile_qr_scan"}, "lon": -77.032196, "type": "electric_scooter", "fusion_lat": 0.0, "lat": 38.892299, "name": "a670d0ec466e5beb5152e77148aa4e95", "fusion_lon": 0.0, "bike_id": "a670d0ec466e5beb5152e77148aa4e95", "is_disabled": 0, "is_reserved": 0}, {"rental_uris": {"ios": "https://dc.lft.to/lastmile_qr_scan", "android": "https://dc.lft.to/lastmile_qr_scan"}, "lon": -77.031681, "type": "electric_scooter", "fusion_lat": 0.0, "lat": 38.899651666666664, "name": "08efec42c7459d5d78ddfd4c463692e7", "fusion_lon": 0.0, "bike_id": "08efec42c7459d5d78ddfd4c463692e7", "is_disabled": 0, "is_reserved": 0}, {"rental_uris": {"ios": "https://dc.lft.to/lastmile_qr_scan", "android": "https://dc.lft.to/lastmile_qr_scan"}, "lon": -76.983655, "type": "electric_scooter", "fusion_lat": 0.0, "lat": 38.864830166666664, "name": "5478fc8cdd36f0e70ec054237b6f07ae", "fusion_lon": 0.0, "bike_id": "5478fc8cdd36f0e70ec054237b6f07ae", "is_disabled": 0, "is_reserved": 0}, {"rental_uris": {"ios": "https://dc.lft.to/lastmile_qr_scan", "android": "https://dc.lft.to/lastmile_qr_scan"}, "lon": -76.983537, "type": "electric_scooter", "fusion_lat": 0.0, "lat": 38.91554816666667, "name": "a655b839d5f08749049850bb276ea679", "fusion_lon": 0.0, "bike_id": "a655b839d5f08749049850bb276ea679", "is_disabled": 0, "is_reserved": 0}, {"rental_uris": {"ios": "https://dc.lft.to/lastmile_qr_scan", "android": "https://dc.lft.to/lastmile_qr_scan"}, "lon": -77.01737883333334, "type": "electric_scooter", "fusion_lat": 0.0, "lat": 38.877389666666666, "name": "38a487a77325ff378a437cb71fdd7ad0", "fusion_lon": 0.0, "bike_id": "38a487a77325ff378a437cb71fdd7ad0", "is_disabled": 0, "is_reserved": 0}, {"rental_uris": {"ios": "https://dc.lft.to/lastmile_qr_scan", "android": "https://dc.lft.to/lastmile_qr_scan"}, "lon": -76.9841195, "type": "electric_scooter", "fusion_lat": 0.0, "lat": 38.913891, "name": "c08c7cb4dc9f237b93c45221f8d14f6d", "fusion_lon": 0.0, "bike_id": "c08c7cb4dc9f237b93c45221f8d14f6d", "is_disabled": 0, "is_reserved": 0}, {"rental_uris": {"ios": "https://dc.lft.to/lastmile_qr_scan", "android": "https://dc.lft.to/lastmile_qr_scan"}, "lon": -77.1143, "type": "electric_bike", "fusion_lat": 0.0, "lat": 38.85245833333333, "name": "2d5f31ecfeda7908c401cf8cd97e1ba1", "fusion_lon": 0.0, "bike_id": "2d5f31ecfeda7908c401cf8cd97e1ba1", "is_disabled": 0, "is_reserved": 0}, {"rental_uris": {"ios": "https://dc.lft.to/lastmile_qr_scan", "android": "https://dc.lft.to/lastmile_qr_scan"}, "lon": -77.07814133333333, "type": "electric_scooter", "fusion_lat": 0.0, "lat": 38.926263, "name": "2521b4970c8c7d761b67b7a19a24ea77", "fusion_lon": 0.0, "bike_id": "2521b4970c8c7d761b67b7a19a24ea77", "is_disabled": 0, "is_reserved": 0}, {"rental_uris": {"ios": "https://dc.lft.to/lastmile_qr_scan", "android": "https://dc.lft.to/lastmile_qr_scan"}, "lon": -77.05124316666667, "type": "electric_scooter", "fusion_lat": 0.0, "lat": 38.9235995, "name": "1124561b2c47155adaa0349100dbc387", "fusion_lon": 0.0, "bike_id": "1124561b2c47155adaa0349100dbc387", "is_disabled": 0, "is_reserved": 0}, {"rental_uris": {"ios": "https://dc.lft.to/lastmile_qr_scan", "android": "https://dc.lft.to/lastmile_qr_scan"}, "lon": -77.031964, "type": "electric_scooter", "fusion_lat": 0.0, "lat": 38.915339833333334, "name": "802ef231337fb859b4365338d5560001", "fusion_lon": 0.0, "bike_id": "802ef231337fb859b4365338d5560001", "is_disabled": 0, "is_reserved": 0}, {"rental_uris": {"ios": "https://dc.lft.to/lastmile_qr_scan", "android": "https://dc.lft.to/lastmile_qr_scan"}, "lon": -77.021823, "type": "electric_scooter", "fusion_lat": 0.0, "lat": 38.90827483333333, "name": "32fa98dd052f4dbc10010460778a677f", "fusion_lon": 0.0, "bike_id": "32fa98dd052f4dbc10010460778a677f", "is_disabled": 0, "is_reserved": 0}, {"rental_uris": {"ios": "https://dc.lft.to/lastmile_qr_scan", "android": "https://dc.lft.to/lastmile_qr_scan"}, "lon": -76.98498416666666, "type": "electric_scooter", "fusion_lat": 0.0, "lat": 38.860452, "name": "64838497988337e196cc673562ec93f9", "fusion_lon": 0.0, "bike_id": "64838497988337e196cc673562ec93f9", "is_disabled": 0, "is_reserved": 0}, {"rental_uris": {"ios": "https://dc.lft.to/lastmile_qr_scan", "android": "https://dc.lft.to/lastmile_qr_scan"}, "lon": -76.96883283333334, "type": "electric_bike", "fusion_lat": 0.0, "lat": 38.84594833333333, "name": "a795019bdcc4970b16474282e972d555", "fusion_lon": 0.0, "bike_id": "a795019bdcc4970b16474282e972d555", "is_disabled": 0, "is_reserved": 0}, {"rental_uris": {"ios": "https://dc.lft.to/lastmile_qr_scan", "android": "https://dc.lft.to/lastmile_qr_scan"}, "lon": -76.99530933333334, "type": "electric_scooter", "fusion_lat": 0.0, "lat": 38.92672016666667, "name": "aefa169f8df279d0ba03cdad6d713b88", "fusion_lon": 0.0, "bike_id": "aefa169f8df279d0ba03cdad6d713b88", "is_disabled": 0, "is_reserved": 0}, {"rental_uris": {"ios": "https://dc.lft.to/lastmile_qr_scan", "android": "https://dc.lft.to/lastmile_qr_scan"}, "lon": -77.100913, "type": "electric_bike", "fusion_lat": 0.0, "lat": 38.959587666666664, "name": "ddabadd852b1b682fc3487a9f148c0d4", "fusion_lon": 0.0, "bike_id": "ddabadd852b1b682fc3487a9f148c0d4", "is_disabled": 0, "is_reserved": 0}, {"rental_uris": {"ios": "https://dc.lft.to/lastmile_qr_scan", "android": "https://dc.lft.to/lastmile_qr_scan"}, "lon": -76.99509016666667, "type": "electric_scooter", "fusion_lat": 0.0, "lat": 38.84470566666667, "name": "25325deb98fe7648a81575ea6b9f3519", "fusion_lon": 0.0, "bike_id": "25325deb98fe7648a81575ea6b9f3519", "is_disabled": 0, "is_reserved": 0}, {"rental_uris": {"ios": "https://dc.lft.to/lastmile_qr_scan", "android": "https://dc.lft.to/lastmile_qr_scan"}, "lon": -77.02926433333333, "type": "electric_scooter", "fusion_lat": 0.0, "lat": 38.90009033333333, "name": "f73aacdf32bdf0bc22e7466bc40c0464", "fusion_lon": 0.0, "bike_id": "f73aacdf32bdf0bc22e7466bc40c0464", "is_disabled": 0, "is_reserved": 0}, {"rental_uris": {"ios": "https://dc.lft.to/lastmile_qr_scan", "android": "https://dc.lft.to/lastmile_qr_scan"}, "lon": -76.9991215, "type": "electric_scooter", "fusion_lat": 0.0, "lat": 38.909383, "name": "b3b07a8cb375d8f95dadb654edfbca4f", "fusion_lon": 0.0, "bike_id": "b3b07a8cb375d8f95dadb654edfbca4f", "is_disabled": 0, "is_reserved": 0}, {"rental_uris": {"ios": "https://dc.lft.to/lastmile_qr_scan", "android": "https://dc.lft.to/lastmile_qr_scan"}, "lon": -77.03011433333333, "type": "electric_scooter", "fusion_lat": 0.0, "lat": 38.91924016666667, "name": "6e336246c6fe37dfd434acb73184a477", "fusion_lon": 0.0, "bike_id": "6e336246c6fe37dfd434acb73184a477", "is_disabled": 0, "is_reserved": 0}, {"rental_uris": {"ios": "https://dc.lft.to/lastmile_qr_scan", "android": "https://dc.lft.to/lastmile_qr_scan"}, "lon": -77.031798, "type": "electric_scooter", "fusion_lat": 0.0, "lat": 38.89341833333334, "name": "22d1b3a965afda793ca9433891f47b1e", "fusion_lon": 0.0, "bike_id": "22d1b3a965afda793ca9433891f47b1e", "is_disabled": 0, "is_reserved": 0}, {"rental_uris": {"ios": "https://dc.lft.to/lastmile_qr_scan", "android": "https://dc.lft.to/lastmile_qr_scan"}, "lon": -77.03217816666667, "type": "electric_scooter", "fusion_lat": 0.0, "lat": 38.91553566666666, "name": "3ab4acf3da8978749cfaa72584aa32e1", "fusion_lon": 0.0, "bike_id": "3ab4acf3da8978749cfaa72584aa32e1", "is_disabled": 0, "is_reserved": 0}, {"rental_uris": {"ios": "https://dc.lft.to/lastmile_qr_scan", "android": "https://dc.lft.to/lastmile_qr_scan"}, "lon": -77.02459983333334, "type": "electric_scooter", "fusion_lat": 0.0, "lat": 38.918377, "name": "06985b7b2ccdf0d6ec3415e3d7adcc8f", "fusion_lon": 0.0, "bike_id": "06985b7b2ccdf0d6ec3415e3d7adcc8f", "is_disabled": 0, "is_reserved": 0}, {"rental_uris": {"ios": "https://dc.lft.to/lastmile_qr_scan", "android": "https://dc.lft.to/lastmile_qr_scan"}, "lon": -76.98842016666667, "type": "electric_bike", "fusion_lat": 0.0, "lat": 38.842714, "name": "660974379f4acfb5ec2a844fc1c3d5e4", "fusion_lon": 0.0, "bike_id": "660974379f4acfb5ec2a844fc1c3d5e4", "is_disabled": 0, "is_reserved": 0}, {"rental_uris": {"ios": "https://dc.lft.to/lastmile_qr_scan", "android": "https://dc.lft.to/lastmile_qr_scan"}, "lon": -76.9760405, "type": "electric_scooter", "fusion_lat": 0.0, "lat": 38.902069833333336, "name": "5e9988f2981fa4f2d09df50f4de391d8", "fusion_lon": 0.0, "bike_id": "5e9988f2981fa4f2d09df50f4de391d8", "is_disabled": 0, "is_reserved": 0}, {"rental_uris": {"ios": "https://dc.lft.to/lastmile_qr_scan", "android": "https://dc.lft.to/lastmile_qr_scan"}, "lon": -77.03653483333333, "type": "electric_scooter", "fusion_lat": 0.0, "lat": 38.90279983333333, "name": "b660ac450f57087566be2ff279e13a84", "fusion_lon": 0.0, "bike_id": "b660ac450f57087566be2ff279e13a84", "is_disabled": 0, "is_reserved": 0}, {"rental_uris": {"ios": "https://dc.lft.to/lastmile_qr_scan", "android": "https://dc.lft.to/lastmile_qr_scan"}, "lon": -77.00721383333334, "type": "electric_scooter", "fusion_lat": 0.0, "lat": 38.8770975, "name": "60bfac0f9f0128c5f0cb167937048ec8", "fusion_lon": 0.0, "bike_id": "60bfac0f9f0128c5f0cb167937048ec8", "is_disabled": 0, "is_reserved": 0}, {"rental_uris": {"ios": "https://dc.lft.to/lastmile_qr_scan", "android": "https://dc.lft.to/lastmile_qr_scan"}, "lon": -77.02818416666666, "type": "electric_scooter", "fusion_lat": 0.0, "lat": 38.90933066666667, "name": "0ea383fbeeb5f2a13406fc8ee470d430", "fusion_lon": 0.0, "bike_id": "0ea383fbeeb5f2a13406fc8ee470d430", "is_disabled": 0, "is_reserved": 0}, {"rental_uris": {"ios": "https://dc.lft.to/lastmile_qr_scan", "android": "https://dc.lft.to/lastmile_qr_scan"}, "lon": -77.05173783333333, "type": "electric_scooter", "fusion_lat": 0.0, "lat": 38.92417833333333, "name": "e3d1fc5279feffd8db89a9dc29e5d26e", "fusion_lon": 0.0, "bike_id": "e3d1fc5279feffd8db89a9dc29e5d26e", "is_disabled": 0, "is_reserved": 0}, {"rental_uris": {"ios": "https://dc.lft.to/lastmile_qr_scan", "android": "https://dc.lft.to/lastmile_qr_scan"}, "lon": -77.02753683333333, "type": "electric_scooter", "fusion_lat": 0.0, "lat": 38.966253, "name": "62a555491189b1227e2262e48abf5470", "fusion_lon": 0.0, "bike_id": "62a555491189b1227e2262e48abf5470", "is_disabled": 0, "is_reserved": 0}, {"rental_uris": {"ios": "https://dc.lft.to/lastmile_qr_scan", "android": "https://dc.lft.to/lastmile_qr_scan"}, "lon": -77.079291, "type": "electric_scooter", "fusion_lat": 0.0, "lat": 38.948708, "name": "316aa3adc2cad56d1d6084f90b0b7b65", "fusion_lon": 0.0, "bike_id": "316aa3adc2cad56d1d6084f90b0b7b65", "is_disabled": 0, "is_reserved": 0}, {"rental_uris": {"ios": "https://dc.lft.to/lastmile_qr_scan", "android": "https://dc.lft.to/lastmile_qr_scan"}, "lon": -76.92994533333334, "type": "electric_bike", "fusion_lat": 0.0, "lat": 38.887934666666666, "name": "f01d15f7547e0ef2e29a44dfce6e6a23", "fusion_lon": 0.0, "bike_id": "f01d15f7547e0ef2e29a44dfce6e6a23", "is_disabled": 0, "is_reserved": 0}, {"rental_uris": {"ios": "https://dc.lft.to/lastmile_qr_scan", "android": "https://dc.lft.to/lastmile_qr_scan"}, "lon": -77.028349, "type": "electric_scooter", "fusion_lat": 0.0, "lat": 38.9324065, "name": "32ad842574844cfaf141a676b35036fd", "fusion_lon": 0.0, "bike_id": "32ad842574844cfaf141a676b35036fd", "is_disabled": 0, "is_reserved": 0}, {"rental_uris": {"ios": "https://dc.lft.to/lastmile_qr_scan", "android": "https://dc.lft.to/lastmile_qr_scan"}, "lon": -77.05279566666667, "type": "electric_scooter", "fusion_lat": 0.0, "lat": 38.910154666666664, "name": "28079e26431e19ac7d4f4de9d20c50ac", "fusion_lon": 0.0, "bike_id": "28079e26431e19ac7d4f4de9d20c50ac", "is_disabled": 0, "is_reserved": 0}, {"rental_uris": {"ios": "https://dc.lft.to/lastmile_qr_scan", "android": "https://dc.lft.to/lastmile_qr_scan"}, "lon": -77.04910366666667, "type": "electric_scooter", "fusion_lat": 0.0, "lat": 38.900778833333334, "name": "7681ee58e0895c206266021e74af4f15", "fusion_lon": 0.0, "bike_id": "7681ee58e0895c206266021e74af4f15", "is_disabled": 0, "is_reserved": 0}, {"rental_uris": {"ios": "https://dc.lft.to/lastmile_qr_scan", "android": "https://dc.lft.to/lastmile_qr_scan"}, "lon": -77.00712866666667, "type": "electric_scooter", "fusion_lat": 0.0, "lat": 38.91350666666666, "name": "0a3c15377e176b6fb54b550306d656d5", "fusion_lon": 0.0, "bike_id": "0a3c15377e176b6fb54b550306d656d5", "is_disabled": 0, "is_reserved": 0}, {"rental_uris": {"ios": "https://dc.lft.to/lastmile_qr_scan", "android": "https://dc.lft.to/lastmile_qr_scan"}, "lon": -77.00203666666667, "type": "electric_scooter", "fusion_lat": 0.0, "lat": 38.90837116666667, "name": "67cc27024687128fe2be42e9e1b6c112", "fusion_lon": 0.0, "bike_id": "67cc27024687128fe2be42e9e1b6c112", "is_disabled": 0, "is_reserved": 0}, {"rental_uris": {"ios": "https://dc.lft.to/lastmile_qr_scan", "android": "https://dc.lft.to/lastmile_qr_scan"}, "lon": -77.01600466666666, "type": "electric_scooter", "fusion_lat": 0.0, "lat": 38.896232833333336, "name": "fc80ab323352c0f57c3c83521e333e78", "fusion_lon": 0.0, "bike_id": "fc80ab323352c0f57c3c83521e333e78", "is_disabled": 0, "is_reserved": 0}, {"rental_uris": {"ios": "https://dc.lft.to/lastmile_qr_scan", "android": "https://dc.lft.to/lastmile_qr_scan"}, "lon": -77.01898966666667, "type": "electric_scooter", "fusion_lat": 0.0, "lat": 38.905562833333335, "name": "39275eb212a8387a0aebd84032624807", "fusion_lon": 0.0, "bike_id": "39275eb212a8387a0aebd84032624807", "is_disabled": 0, "is_reserved": 0}, {"rental_uris": {"ios": "https://dc.lft.to/lastmile_qr_scan", "android": "https://dc.lft.to/lastmile_qr_scan"}, "lon": -77.02621283333333, "type": "electric_scooter", "fusion_lat": 0.0, "lat": 38.919097, "name": "22971e33c56a22f29bade235a77c03a2", "fusion_lon": 0.0, "bike_id": "22971e33c56a22f29bade235a77c03a2", "is_disabled": 0, "is_reserved": 0}, {"rental_uris": {"ios": "https://dc.lft.to/lastmile_qr_scan", "android": "https://dc.lft.to/lastmile_qr_scan"}, "lon": -77.03084316666667, "type": "electric_scooter", "fusion_lat": 0.0, "lat": 38.89991216666667, "name": "247a368f95d2e197249f1830b7598f60", "fusion_lon": 0.0, "bike_id": "247a368f95d2e197249f1830b7598f60", "is_disabled": 0, "is_reserved": 0}, {"rental_uris": {"ios": "https://dc.lft.to/lastmile_qr_scan", "android": "https://dc.lft.to/lastmile_qr_scan"}, "lon": -76.93738483333334, "type": "electric_scooter", "fusion_lat": 0.0, "lat": 38.89011683333333, "name": "292b47c5e73de71ccc0454d95d955a6e", "fusion_lon": 0.0, "bike_id": "292b47c5e73de71ccc0454d95d955a6e", "is_disabled": 0, "is_reserved": 0}, {"rental_uris": {"ios": "https://dc.lft.to/lastmile_qr_scan", "android": "https://dc.lft.to/lastmile_qr_scan"}, "lon": -76.98265716666667, "type": "electric_scooter", "fusion_lat": 0.0, "lat": 38.86352383333333, "name": "0b909b4e81bbcd1c539eddf0734e8fb6", "fusion_lon": 0.0, "bike_id": "0b909b4e81bbcd1c539eddf0734e8fb6", "is_disabled": 0, "is_reserved": 0}, {"rental_uris": {"ios": "https://dc.lft.to/lastmile_qr_scan", "android": "https://dc.lft.to/lastmile_qr_scan"}, "lon": -77.04419083333333, "type": "electric_scooter", "fusion_lat": 0.0, "lat": 38.9057735, "name": "e54ed47278525b869c4881c9309a211e", "fusion_lon": 0.0, "bike_id": "e54ed47278525b869c4881c9309a211e", "is_disabled": 0, "is_reserved": 0}, {"rental_uris": {"ios": "https://dc.lft.to/lastmile_qr_scan", "android": "https://dc.lft.to/lastmile_qr_scan"}, "lon": -77.016561, "type": "electric_scooter", "fusion_lat": 0.0, "lat": 38.95329666666667, "name": "eb02d62a5eb0e5457dffdd14c2f43433", "fusion_lon": 0.0, "bike_id": "eb02d62a5eb0e5457dffdd14c2f43433", "is_disabled": 0, "is_reserved": 0}, {"rental_uris": {"ios": "https://dc.lft.to/lastmile_qr_scan", "android": "https://dc.lft.to/lastmile_qr_scan"}, "lon": -77.047987, "type": "electric_scooter", "fusion_lat": 0.0, "lat": 38.89377733333333, "name": "23dc16dd89d73c4c80398e08f072e9d8", "fusion_lon": 0.0, "bike_id": "23dc16dd89d73c4c80398e08f072e9d8", "is_disabled": 0, "is_reserved": 0}, {"rental_uris": {"ios": "https://dc.lft.to/lastmile_qr_scan", "android": "https://dc.lft.to/lastmile_qr_scan"}, "lon": -76.99502816666667, "type": "electric_scooter", "fusion_lat": 0.0, "lat": 38.88174383333333, "name": "cb94fd7b020c9becdf0eb233885b7f3f", "fusion_lon": 0.0, "bike_id": "cb94fd7b020c9becdf0eb233885b7f3f", "is_disabled": 0, "is_reserved": 0}, {"rental_uris": {"ios": "https://dc.lft.to/lastmile_qr_scan", "android": "https://dc.lft.to/lastmile_qr_scan"}, "lon": -77.02189983333334, "type": "electric_scooter", "fusion_lat": 0.0, "lat": 38.91994616666667, "name": "23ecb6381548c23c76fe99090058ea0d", "fusion_lon": 0.0, "bike_id": "23ecb6381548c23c76fe99090058ea0d", "is_disabled": 0, "is_reserved": 0}, {"rental_uris": {"ios": "https://dc.lft.to/lastmile_qr_scan", "android": "https://dc.lft.to/lastmile_qr_scan"}, "lon": -77.05441483333334, "type": "electric_scooter", "fusion_lat": 0.0, "lat": 38.8960495, "name": "bef13aa810717729a5cb50a31680d5ef", "fusion_lon": 0.0, "bike_id": "bef13aa810717729a5cb50a31680d5ef", "is_disabled": 0, "is_reserved": 0}, {"rental_uris": {"ios": "https://dc.lft.to/lastmile_qr_scan", "android": "https://dc.lft.to/lastmile_qr_scan"}, "lon": -77.01118816666667, "type": "electric_scooter", "fusion_lat": 0.0, "lat": 38.90029783333333, "name": "a056c5a33b729b24f4dbe4372a21fa4a", "fusion_lon": 0.0, "bike_id": "a056c5a33b729b24f4dbe4372a21fa4a", "is_disabled": 0, "is_reserved": 0}, {"rental_uris": {"ios": "https://dc.lft.to/lastmile_qr_scan", "android": "https://dc.lft.to/lastmile_qr_scan"}, "lon": -77.02717866666667, "type": "electric_scooter", "fusion_lat": 0.0, "lat": 38.907050166666664, "name": "672942be056c6f5644b3ebc08eb2a202", "fusion_lon": 0.0, "bike_id": "672942be056c6f5644b3ebc08eb2a202", "is_disabled": 0, "is_reserved": 0}, {"rental_uris": {"ios": "https://dc.lft.to/lastmile_qr_scan", "android": "https://dc.lft.to/lastmile_qr_scan"}, "lon": -77.00528816666667, "type": "electric_scooter", "fusion_lat": 0.0, "lat": 38.92895866666667, "name": "dc9b0c5fe6cbcb0f43ac72bc1e7abac1", "fusion_lon": 0.0, "bike_id": "dc9b0c5fe6cbcb0f43ac72bc1e7abac1", "is_disabled": 0, "is_reserved": 0}, {"rental_uris": {"ios": "https://dc.lft.to/lastmile_qr_scan", "android": "https://dc.lft.to/lastmile_qr_scan"}, "lon": -77.02302083333333, "type": "electric_scooter", "fusion_lat": 0.0, "lat": 38.9084995, "name": "675b9e8ab8e0cfea83e85c81d69afd7d", "fusion_lon": 0.0, "bike_id": "675b9e8ab8e0cfea83e85c81d69afd7d", "is_disabled": 0, "is_reserved": 0}, {"rental_uris": {"ios": "https://dc.lft.to/lastmile_qr_scan", "android": "https://dc.lft.to/lastmile_qr_scan"}, "lon": -77.04167466666667, "type": "electric_scooter", "fusion_lat": 0.0, "lat": 38.919378333333334, "name": "1af0424a202e66d8a096cd2e9a0e3b80", "fusion_lon": 0.0, "bike_id": "1af0424a202e66d8a096cd2e9a0e3b80", "is_disabled": 0, "is_reserved": 0}, {"rental_uris": {"ios": "https://dc.lft.to/lastmile_qr_scan", "android": "https://dc.lft.to/lastmile_qr_scan"}, "lon": -77.03520033333334, "type": "electric_scooter", "fusion_lat": 0.0, "lat": 38.92223366666666, "name": "0d26ed987f962e778dc5502d6fc0cfaf", "fusion_lon": 0.0, "bike_id": "0d26ed987f962e778dc5502d6fc0cfaf", "is_disabled": 0, "is_reserved": 0}, {"rental_uris": {"ios": "https://dc.lft.to/lastmile_qr_scan", "android": "https://dc.lft.to/lastmile_qr_scan"}, "lon": -76.99818633333334, "type": "electric_scooter", "fusion_lat": 0.0, "lat": 38.888719, "name": "58690188c27b4f7595925c2b6f8752a0", "fusion_lon": 0.0, "bike_id": "58690188c27b4f7595925c2b6f8752a0", "is_disabled": 0, "is_reserved": 0}, {"rental_uris": {"ios": "https://dc.lft.to/lastmile_qr_scan", "android": "https://dc.lft.to/lastmile_qr_scan"}, "lon": -77.0334725, "type": "electric_scooter", "fusion_lat": 0.0, "lat": 38.89246216666667, "name": "7153f3b134398e022280f01da52ec4eb", "fusion_lon": 0.0, "bike_id": "7153f3b134398e022280f01da52ec4eb", "is_disabled": 0, "is_reserved": 0}, {"rental_uris": {"ios": "https://dc.lft.to/lastmile_qr_scan", "android": "https://dc.lft.to/lastmile_qr_scan"}, "lon": -77.00206266666666, "type": "electric_scooter", "fusion_lat": 0.0, "lat": 38.90030333333333, "name": "a510c694e82f6f277e02b2162ab4742e", "fusion_lon": 0.0, "bike_id": "a510c694e82f6f277e02b2162ab4742e", "is_disabled": 0, "is_reserved": 0}, {"rental_uris": {"ios": "https://dc.lft.to/lastmile_qr_scan", "android": "https://dc.lft.to/lastmile_qr_scan"}, "lon": -77.01620516666667, "type": "electric_scooter", "fusion_lat": 0.0, "lat": 38.907161333333335, "name": "0a63d6418ee74b325764746578bdfe7d", "fusion_lon": 0.0, "bike_id": "0a63d6418ee74b325764746578bdfe7d", "is_disabled": 0, "is_reserved": 0}, {"rental_uris": {"ios": "https://dc.lft.to/lastmile_qr_scan", "android": "https://dc.lft.to/lastmile_qr_scan"}, "lon": -77.06019133333334, "type": "electric_bike", "fusion_lat": 0.0, "lat": 38.904156, "name": "34b16b251d1b4dbecb5502468dec990d", "fusion_lon": 0.0, "bike_id": "34b16b251d1b4dbecb5502468dec990d", "is_disabled": 0, "is_reserved": 0}, {"rental_uris": {"ios": "https://dc.lft.to/lastmile_qr_scan", "android": "https://dc.lft.to/lastmile_qr_scan"}, "lon": -77.03259166666666, "type": "electric_scooter", "fusion_lat": 0.0, "lat": 38.904018, "name": "49199623c9bfbfcbb15dbe5fc7944d28", "fusion_lon": 0.0, "bike_id": "49199623c9bfbfcbb15dbe5fc7944d28", "is_disabled": 0, "is_reserved": 0}, {"rental_uris": {"ios": "https://dc.lft.to/lastmile_qr_scan", "android": "https://dc.lft.to/lastmile_qr_scan"}, "lon": -77.038557, "type": "electric_scooter", "fusion_lat": 0.0, "lat": 38.915468, "name": "bdbeccfeba6dc8c6ca7aedb1e7e9a60c", "fusion_lon": 0.0, "bike_id": "bdbeccfeba6dc8c6ca7aedb1e7e9a60c", "is_disabled": 0, "is_reserved": 0}, {"rental_uris": {"ios": "https://dc.lft.to/lastmile_qr_scan", "android": "https://dc.lft.to/lastmile_qr_scan"}, "lon": -77.02554066666667, "type": "electric_scooter", "fusion_lat": 0.0, "lat": 38.8842455, "name": "be3a26eead9ca08f3e69fad6e069ec0a", "fusion_lon": 0.0, "bike_id": "be3a26eead9ca08f3e69fad6e069ec0a", "is_disabled": 0, "is_reserved": 0}, {"rental_uris": {"ios": "https://dc.lft.to/lastmile_qr_scan", "android": "https://dc.lft.to/lastmile_qr_scan"}, "lon": -77.03565266666666, "type": "electric_bike", "fusion_lat": 0.0, "lat": 38.96469783333333, "name": "236a8aa9f609353c729d1267a05e21e7", "fusion_lon": 0.0, "bike_id": "236a8aa9f609353c729d1267a05e21e7", "is_disabled": 0, "is_reserved": 0}, {"rental_uris": {"ios": "https://dc.lft.to/lastmile_qr_scan", "android": "https://dc.lft.to/lastmile_qr_scan"}, "lon": -77.0437385, "type": "electric_scooter", "fusion_lat": 0.0, "lat": 38.91790183333333, "name": "3c191e19023898706d2a5efb838eb866", "fusion_lon": 0.0, "bike_id": "3c191e19023898706d2a5efb838eb866", "is_disabled": 0, "is_reserved": 0}, {"rental_uris": {"ios": "https://dc.lft.to/lastmile_qr_scan", "android": "https://dc.lft.to/lastmile_qr_scan"}, "lon": -77.04368066666666, "type": "electric_scooter", "fusion_lat": 0.0, "lat": 38.892212, "name": "0d63268abaa795eeb0495d700afacb6c", "fusion_lon": 0.0, "bike_id": "0d63268abaa795eeb0495d700afacb6c", "is_disabled": 0, "is_reserved": 0}, {"rental_uris": {"ios": "https://dc.lft.to/lastmile_qr_scan", "android": "https://dc.lft.to/lastmile_qr_scan"}, "lon": -77.0434655, "type": "electric_scooter", "fusion_lat": 0.0, "lat": 38.89649433333334, "name": "8877b73d16e1f3ff9e55156472cac42a", "fusion_lon": 0.0, "bike_id": "8877b73d16e1f3ff9e55156472cac42a", "is_disabled": 0, "is_reserved": 0}, {"rental_uris": {"ios": "https://dc.lft.to/lastmile_qr_scan", "android": "https://dc.lft.to/lastmile_qr_scan"}, "lon": -77.02761316666667, "type": "electric_bike", "fusion_lat": 0.0, "lat": 38.9048475, "name": "097a9c8e93010cb384946cd43ebade2c", "fusion_lon": 0.0, "bike_id": "097a9c8e93010cb384946cd43ebade2c", "is_disabled": 0, "is_reserved": 0}, {"rental_uris": {"ios": "https://dc.lft.to/lastmile_qr_scan", "android": "https://dc.lft.to/lastmile_qr_scan"}, "lon": -76.985115, "type": "electric_scooter", "fusion_lat": 0.0, "lat": 38.90606366666667, "name": "a157f963b2f1d3255da0ca2ba8ee34c4", "fusion_lon": 0.0, "bike_id": "a157f963b2f1d3255da0ca2ba8ee34c4", "is_disabled": 0, "is_reserved": 0}, {"rental_uris": {"ios": "https://dc.lft.to/lastmile_qr_scan", "android": "https://dc.lft.to/lastmile_qr_scan"}, "lon": -76.999673, "type": "electric_scooter", "fusion_lat": 0.0, "lat": 38.90913166666667, "name": "fc13937ee61f6b0875cf7422ed44a54e", "fusion_lon": 0.0, "bike_id": "fc13937ee61f6b0875cf7422ed44a54e", "is_disabled": 0, "is_reserved": 0}, {"rental_uris": {"ios": "https://dc.lft.to/lastmile_qr_scan", "android": "https://dc.lft.to/lastmile_qr_scan"}, "lon": -77.00603516666666, "type": "electric_scooter", "fusion_lat": 0.0, "lat": 38.877114, "name": "2c561ffb676eadd23308b51a64afbca6", "fusion_lon": 0.0, "bike_id": "2c561ffb676eadd23308b51a64afbca6", "is_disabled": 0, "is_reserved": 0}, {"rental_uris": {"ios": "https://dc.lft.to/lastmile_qr_scan", "android": "https://dc.lft.to/lastmile_qr_scan"}, "lon": -77.1290215, "type": "electric_bike", "fusion_lat": 0.0, "lat": 38.863743166666666, "name": "0881efd67b034955e06e237f01613547", "fusion_lon": 0.0, "bike_id": "0881efd67b034955e06e237f01613547", "is_disabled": 0, "is_reserved": 0}, {"rental_uris": {"ios": "https://dc.lft.to/lastmile_qr_scan", "android": "https://dc.lft.to/lastmile_qr_scan"}, "lon": -77.02831916666666, "type": "electric_scooter", "fusion_lat": 0.0, "lat": 38.895305666666665, "name": "9456d914a84cb6c8ad7fe62b3369952a", "fusion_lon": 0.0, "bike_id": "9456d914a84cb6c8ad7fe62b3369952a", "is_disabled": 0, "is_reserved": 0}, {"rental_uris": {"ios": "https://dc.lft.to/lastmile_qr_scan", "android": "https://dc.lft.to/lastmile_qr_scan"}, "lon": -77.0240225, "type": "electric_scooter", "fusion_lat": 0.0, "lat": 38.9158865, "name": "3c589cc170926cb54d18c9df7b3eadc5", "fusion_lon": 0.0, "bike_id": "3c589cc170926cb54d18c9df7b3eadc5", "is_disabled": 0, "is_reserved": 0}, {"rental_uris": {"ios": "https://dc.lft.to/lastmile_qr_scan", "android": "https://dc.lft.to/lastmile_qr_scan"}, "lon": -77.0500455, "type": "electric_scooter", "fusion_lat": 0.0, "lat": 38.892291166666666, "name": "92f2dc62cfc29cdad3ecc18ef389f74e", "fusion_lon": 0.0, "bike_id": "92f2dc62cfc29cdad3ecc18ef389f74e", "is_disabled": 0, "is_reserved": 0}, {"rental_uris": {"ios": "https://dc.lft.to/lastmile_qr_scan", "android": "https://dc.lft.to/lastmile_qr_scan"}, "lon": -77.02694983333333, "type": "electric_scooter", "fusion_lat": 0.0, "lat": 38.908711833333335, "name": "e88eb84cd56e85777f936bdfd5c94ec4", "fusion_lon": 0.0, "bike_id": "e88eb84cd56e85777f936bdfd5c94ec4", "is_disabled": 0, "is_reserved": 0}, {"rental_uris": {"ios": "https://dc.lft.to/lastmile_qr_scan", "android": "https://dc.lft.to/lastmile_qr_scan"}, "lon": -77.04889833333333, "type": "electric_scooter", "fusion_lat": 0.0, "lat": 38.90599066666667, "name": "ed6e0398504860d5fe3a2a3733879608", "fusion_lon": 0.0, "bike_id": "ed6e0398504860d5fe3a2a3733879608", "is_disabled": 0, "is_reserved": 0}, {"rental_uris": {"ios": "https://dc.lft.to/lastmile_qr_scan", "android": "https://dc.lft.to/lastmile_qr_scan"},