{"data": {"bikes": [{"rental_uris": {"ios": "https://dc.lft.to/lastmile_qr_scan", "android": "https://dc.lft.to/lastmile_qr_scan"}, "lat": 38.914168833333335, "is_reserved": 0, "bike_id": "e1bd4929323f25930c0f0c41f471cf82", "lon": -77.031758, "is_disabled": 0, "fusion_lat": 0.0, "fusion_lon": 0.0, "name": "e1bd4929323f25930c0f0c41f471cf82", "type": "electric_scooter"}, {"rental_uris": {"ios": "https://dc.lft.to/lastmile_qr_scan", "android": "https://dc.lft.to/lastmile_qr_scan"}, "lat": 38.911467, "is_reserved": 0, "bike_id": "3bcfb8c961b4b39b7938851f3384d7f2", "lon": -77.07413616666666, "is_disabled": 0, "fusion_lat": 0.0, "fusion_lon": 0.0, "name": "3bcfb8c961b4b39b7938851f3384d7f2", "type": "electric_bike"}, {"rental_uris": {"ios": "https://dc.lft.to/lastmile_qr_scan", "android": "https://dc.lft.to/lastmile_qr_scan"}, "lat": 38.91401333333334, "is_reserved": 0, "bike_id": "0cc19fbe8a1357922bdc5ff29f8bf88d", "lon": -77.01374016666666, "is_disabled": 0, "fusion_lat": 0.0, "fusion_lon": 0.0, "name": "0cc19fbe8a1357922bdc5ff29f8bf88d", "type": "electric_scooter"}, {"rental_uris": {"ios": "https://dc.lft.to/lastmile_qr_scan", "android": "https://dc.lft.to/lastmile_qr_scan"}, "lat": 38.874742166666664, "is_reserved": 0, "bike_id": "16efacc582d055ef647cb2a901c76c10", "lon": -77.00834483333334, "is_disabled": 0, "fusion_lat": 0.0, "fusion_lon": 0.0, "name": "16efacc582d055ef647cb2a901c76c10", "type": "electric_scooter"}, {"rental_uris": {"ios": "https://dc.lft.to/lastmile_qr_scan", "android": "https://dc.lft.to/lastmile_qr_scan"}, "lat": 38.905744, "is_reserved": 0, "bike_id": "7f6133e4ad0d4bd7d2e305962d797045", "lon": -77.03068916666666, "is_disabled": 0, "fusion_lat": 0.0, "fusion_lon": 0.0, "name": "7f6133e4ad0d4bd7d2e305962d797045", "type": "electric_scooter"}, {"rental_uris": {"ios": "https://dc.lft.to/lastmile_qr_scan", "android": "https://dc.lft.to/lastmile_qr_scan"}, "lat": 38.896948333333334, "is_reserved": 0, "bike_id": "a5add6136a9de6eae36d0ca716af9553", "lon": -77.01621966666667, "is_disabled": 0, "fusion_lat": 0.0, "fusion_lon": 0.0, "name": "a5add6136a9de6eae36d0ca716af9553", "type": "electric_scooter"}, {"rental_uris": {"ios": "https://dc.lft.to/lastmile_qr_scan", "android": "https://dc.lft.to/lastmile_qr_scan"}, "lat": 38.911120333333336, "is_reserved": 0, "bike_id": "8906ad277ca74096ef86ef82d5ace3e3", "lon": -77.0383965, "is_disabled": 0, "fusion_lat": 0.0, "fusion_lon": 0.0, "name": "8906ad277ca74096ef86ef82d5ace3e3", "type": "electric_scooter"}, {"rental_uris": {"ios": "https://dc.lft.to/lastmile_qr_scan", "android": "https://dc.lft.to/lastmile_qr_scan"}, "lat": 38.89328583333333, "is_reserved": 0, "bike_id": "2f844b91f7159943459537c969c91bef", "lon": -76.9392685, "is_disabled": 0, "fusion_lat": 0.0, "fusion_lon": 0.0, "name": "2f844b91f7159943459537c969c91bef", "type": "electric_scooter"}, {"rental_uris": {"ios": "https://dc.lft.to/lastmile_qr_scan", "android": "https://dc.lft.to/lastmile_qr_scan"}, "lat": 38.911348833333335, "is_reserved": 0, "bike_id": "63489fa8a7a7f919bde518f5c2d16304", "lon": -77.02192333333333, "is_disabled": 0, "fusion_lat": 0.0, "fusion_lon": 0.0, "name": "63489fa8a7a7f919bde518f5c2d16304", "type": "electric_scooter"}, {"rental_uris": {"ios": "https://dc.lft.to/lastmile_qr_scan", "android": "https://dc.lft.to/lastmile_qr_scan"}, "lat": 38.95329183333333, "is_reserved": 0, "bike_id": "6c924e0f202d3ee9c0be8481890c2502", "lon": -76.98250383333334, "is_disabled": 0, "fusion_lat": 0.0, "fusion_lon": 0.0, "name": "6c924e0f202d3ee9c0be8481890c2502", "type": "electric_bike"}, {"rental_uris": {"ios": "https://dc.lft.to/lastmile_qr_scan", "android": "https://dc.lft.to/lastmile_qr_scan"}, "lat": 38.9033305, "is_reserved": 0, "bike_id": "6f81f7e9f4b6b137b5894e52e5be3a33", "lon": -77.02562116666667, "is_disabled": 0, "fusion_lat": 0.0, "fusion_lon": 0.0, "name": "6f81f7e9f4b6b137b5894e52e5be3a33", "type": "electric_scooter"}, {"rental_uris": {"ios": "https://dc.lft.to/lastmile_qr_scan", "android": "https://dc.lft.to/lastmile_qr_scan"}, "lat": 38.902900833333334, "is_reserved": 0, "bike_id": "cb625c7f71705ed658b31b34b9e2720e", "lon": -77.04684666666667, "is_disabled": 0, "fusion_lat": 0.0, "fusion_lon": 0.0, "name": "cb625c7f71705ed658b31b34b9e2720e", "type": "electric_scooter"}, {"rental_uris": {"ios": "https://dc.lft.to/lastmile_qr_scan", "android": "https://dc.lft.to/lastmile_qr_scan"}, "lat": 38.90853383333334, "is_reserved": 0, "bike_id": "35cab3322052aed598b63e3ea090a83c", "lon": -77.019706, "is_disabled": 0, "fusion_lat": 0.0, "fusion_lon": 0.0, "name": "35cab3322052aed598b63e3ea090a83c", "type": "electric_scooter"}, {"rental_uris": {"ios": "https://dc.lft.to/lastmile_qr_scan", "android": "https://dc.lft.to/lastmile_qr_scan"}, "lat": 38.920501333333334, "is_reserved": 0, "bike_id": "22fb55fd25d872d666f22da8a7e242f3", "lon": -77.03440283333333, "is_disabled": 0, "fusion_lat": 0.0, "fusion_lon": 0.0, "name": "22fb55fd25d872d666f22da8a7e242f3", "type": "electric_scooter"}, {"rental_uris": {"ios": "https://dc.lft.to/lastmile_qr_scan", "android": "https://dc.lft.to/lastmile_qr_scan"}, "lat": 38.928541333333335, "is_reserved": 0, "bike_id": "a6169e7db64ede0fc1f06deda23ed72f", "lon": -77.03317116666666, "is_disabled": 0, "fusion_lat": 0.0, "fusion_lon": 0.0, "name": "a6169e7db64ede0fc1f06deda23ed72f", "type": "electric_scooter"}, {"rental_uris": {"ios": "https://dc.lft.to/lastmile_qr_scan", "android": "https://dc.lft.to/lastmile_qr_scan"}, "lat": 38.877820666666665, "is_reserved": 0, "bike_id": "01011d3965b93857f9cdf18cc6f3f1b5", "lon": -76.9941185, "is_disabled": 0, "fusion_lat": 0.0, "fusion_lon": 0.0, "name": "01011d3965b93857f9cdf18cc6f3f1b5", "type": "electric_scooter"}, {"rental_uris": {"ios": "https://dc.lft.to/lastmile_qr_scan", "android": "https://dc.lft.to/lastmile_qr_scan"}, "lat": 38.899169666666666, "is_reserved": 0, "bike_id": "deec9885241e12b7cd35e5b28a032e79", "lon": -77.0280115, "is_disabled": 0, "fusion_lat": 0.0, "fusion_lon": 0.0, "name": "deec9885241e12b7cd35e5b28a032e79", "type": "electric_scooter"}, {"rental_uris": {"ios": "https://dc.lft.to/lastmile_qr_scan", "android": "https://dc.lft.to/lastmile_qr_scan"}, "lat": 38.90767266666667, "is_reserved": 0, "bike_id": "300a7114751f8e399f1528d300be661b", "lon": -77.03841333333334, "is_disabled": 0, "fusion_lat": 0.0, "fusion_lon": 0.0, "name": "300a7114751f8e399f1528d300be661b", "type": "electric_scooter"}, {"rental_uris": {"ios": "https://dc.lft.to/lastmile_qr_scan", "android": "https://dc.lft.to/lastmile_qr_scan"}, "lat": 38.90706333333333, "is_reserved": 0, "bike_id": "6d60f2a89c2222ce3b3a4574335daf77", "lon": -77.00218066666666, "is_disabled": 0, "fusion_lat": 0.0, "fusion_lon": 0.0, "name": "6d60f2a89c2222ce3b3a4574335daf77", "type": "electric_scooter"}, {"rental_uris": {"ios": "https://dc.lft.to/lastmile_qr_scan", "android": "https://dc.lft.to/lastmile_qr_scan"}, "lat": 38.91924083333333, "is_reserved": 0, "bike_id": "f7da422cbcb4bb119d7801a1d971ee57", "lon": -77.03417183333333, "is_disabled": 0, "fusion_lat": 0.0, "fusion_lon": 0.0, "name": "f7da422cbcb4bb119d7801a1d971ee57", "type": "electric_scooter"}, {"rental_uris": {"ios": "https://dc.lft.to/lastmile_qr_scan", "android": "https://dc.lft.to/lastmile_qr_scan"}, "lat": 38.892204666666665, "is_reserved": 0, "bike_id": "b726e335c03c4734f3ff501b608d9050", "lon": -77.03222083333333, "is_disabled": 0, "fusion_lat": 0.0, "fusion_lon": 0.0, "name": "b726e335c03c4734f3ff501b608d9050", "type": "electric_scooter"}, {"rental_uris": {"ios": "https://dc.lft.to/lastmile_qr_scan", "android": "https://dc.lft.to/lastmile_qr_scan"}, "lat": 38.903694, "is_reserved": 0, "bike_id": "749607296dbec657b73db7ef61765451", "lon": -77.03655416666666, "is_disabled": 0, "fusion_lat": 0.0, "fusion_lon": 0.0, "name": "749607296dbec657b73db7ef61765451", "type": "electric_scooter"}, {"rental_uris": {"ios": "https://dc.lft.to/lastmile_qr_scan", "android": "https://dc.lft.to/lastmile_qr_scan"}, "lat": 38.899322, "is_reserved": 0, "bike_id": "de6bafd440412b11bafbd8aa8954b32c", "lon": -77.041656, "is_disabled": 0, "fusion_lat": 0.0, "fusion_lon": 0.0, "name": "de6bafd440412b11bafbd8aa8954b32c", "type": "electric_scooter"}, {"rental_uris": {"ios": "https://dc.lft.to/lastmile_qr_scan", "android": "https://dc.lft.to/lastmile_qr_scan"}, "lat": 38.902459, "is_reserved": 0, "bike_id": "55bbbecc8784dca6db42b6d9b37c502a", "lon": -77.039677, "is_disabled": 0, "fusion_lat": 0.0, "fusion_lon": 0.0, "name": "55bbbecc8784dca6db42b6d9b37c502a", "type": "electric_scooter"}, {"rental_uris": {"ios": "https://dc.lft.to/lastmile_qr_scan", "android": "https://dc.lft.to/lastmile_qr_scan"}, "lat": 38.9170845, "is_reserved": 0, "bike_id": "c69678bc4c32bbd90b7ea3c02bc510cb", "lon": -77.02794816666666, "is_disabled": 0, "fusion_lat": 0.0, "fusion_lon": 0.0, "name": "c69678bc4c32bbd90b7ea3c02bc510cb", "type": "electric_scooter"}, {"rental_uris": {"ios": "https://dc.lft.to/lastmile_qr_scan", "android": "https://dc.lft.to/lastmile_qr_scan"}, "lat": 38.90410133333334, "is_reserved": 0, "bike_id": "58881ccd97213d82f07249ce7890094c", "lon": -76.97332133333333, "is_disabled": 0, "fusion_lat": 0.0, "fusion_lon": 0.0, "name": "58881ccd97213d82f07249ce7890094c", "type": "electric_scooter"}, {"rental_uris": {"ios": "https://dc.lft.to/lastmile_qr_scan", "android": "https://dc.lft.to/lastmile_qr_scan"}, "lat": 38.910657666666665, "is_reserved": 0, "bike_id": "f26701e70ea1b8f891e4f87f15c494dc", "lon": -77.00459016666667, "is_disabled": 0, "fusion_lat": 0.0, "fusion_lon": 0.0, "name": "f26701e70ea1b8f891e4f87f15c494dc", "type": "electric_scooter"}, {"rental_uris": {"ios": "https://dc.lft.to/lastmile_qr_scan", "android": "https://dc.lft.to/lastmile_qr_scan"}, "lat": 38.92348883333333, "is_reserved": 0, "bike_id": "1cdf4c9af2ec05e617adbc6301c25136", "lon": -77.04147366666666, "is_disabled": 0, "fusion_lat": 0.0, "fusion_lon": 0.0, "name": "1cdf4c9af2ec05e617adbc6301c25136", "type": "electric_scooter"}, {"rental_uris": {"ios": "https://dc.lft.to/lastmile_qr_scan", "android": "https://dc.lft.to/lastmile_qr_scan"}, "lat": 38.898738333333334, "is_reserved": 0, "bike_id": "2d645099ec8b111b2f90c360a39368b7", "lon": -77.032789, "is_disabled": 0, "fusion_lat": 0.0, "fusion_lon": 0.0, "name": "2d645099ec8b111b2f90c360a39368b7", "type": "electric_scooter"}, {"rental_uris": {"ios": "https://dc.lft.to/lastmile_qr_scan", "android": "https://dc.lft.to/lastmile_qr_scan"}, "lat": 38.902021, "is_reserved": 0, "bike_id": "f8c35bb16b60d80b8877ac98758d2f90", "lon": -76.98236633333333, "is_disabled": 0, "fusion_lat": 0.0, "fusion_lon": 0.0, "name": "f8c35bb16b60d80b8877ac98758d2f90", "type": "electric_scooter"}, {"rental_uris": {"ios": "https://dc.lft.to/lastmile_qr_scan", "android": "https://dc.lft.to/lastmile_qr_scan"}, "lat": 38.89080383333334, "is_reserved": 0, "bike_id": "f303dcaea9747ac13baf90845944eb3d", "lon": -76.98823983333334, "is_disabled": 0, "fusion_lat": 0.0, "fusion_lon": 0.0, "name": "f303dcaea9747ac13baf90845944eb3d", "type": "electric_scooter"}, {"rental_uris": {"ios": "https://dc.lft.to/lastmile_qr_scan", "android": "https://dc.lft.to/lastmile_qr_scan"}, "lat": 38.931765166666665, "is_reserved": 0, "bike_id": "2473150b52538d5e8b76a612425360c4", "lon": -77.0429565, "is_disabled": 0, "fusion_lat": 0.0, "fusion_lon": 0.0, "name": "2473150b52538d5e8b76a612425360c4", "type": "electric_scooter"}, {"rental_uris": {"ios": "https://dc.lft.to/lastmile_qr_scan", "android": "https://dc.lft.to/lastmile_qr_scan"}, "lat": 38.91407516666666, "is_reserved": 0, "bike_id": "9232ee6ca09582cd6c6f24d18dd70309", "lon": -77.01562466666667, "is_disabled": 0, "fusion_lat": 0.0, "fusion_lon": 0.0, "name": "9232ee6ca09582cd6c6f24d18dd70309", "type": "electric_scooter"}, {"rental_uris": {"ios": "https://dc.lft.to/lastmile_qr_scan", "android": "https://dc.lft.to/lastmile_qr_scan"}, "lat": 38.91295816666667, "is_reserved": 0, "bike_id": "67f217bcaad47d9c893bf05c14af3c35", "lon": -77.04885483333334, "is_disabled": 0, "fusion_lat": 0.0, "fusion_lon": 0.0, "name": "67f217bcaad47d9c893bf05c14af3c35", "type": "electric_scooter"}, {"rental_uris": {"ios": "https://dc.lft.to/lastmile_qr_scan", "android": "https://dc.lft.to/lastmile_qr_scan"}, "lat": 38.94103883333333, "is_reserved": 0, "bike_id": "1b4a6b634d7a8f54b7f69e7fafb7844a", "lon": -77.07603316666666, "is_disabled": 0, "fusion_lat": 0.0, "fusion_lon": 0.0, "name": "1b4a6b634d7a8f54b7f69e7fafb7844a", "type": "electric_scooter"}, {"rental_uris": {"ios": "https://dc.lft.to/lastmile_qr_scan", "android": "https://dc.lft.to/lastmile_qr_scan"}, "lat": 38.941242333333335, "is_reserved": 0, "bike_id": "f7998caf8ecce31efffd982e5c890156", "lon": -77.01542266666667, "is_disabled": 0, "fusion_lat": 0.0, "fusion_lon": 0.0, "name": "f7998caf8ecce31efffd982e5c890156", "type": "electric_scooter"}, {"rental_uris": {"ios": "https://dc.lft.to/lastmile_qr_scan", "android": "https://dc.lft.to/lastmile_qr_scan"}, "lat": 38.89662116666667, "is_reserved": 0, "bike_id": "50ba7e18c90b10ff14661cc1362c3120", "lon": -77.01869916666666, "is_disabled": 0, "fusion_lat": 0.0, "fusion_lon": 0.0, "name": "50ba7e18c90b10ff14661cc1362c3120", "type": "electric_scooter"}, {"rental_uris": {"ios": "https://dc.lft.to/lastmile_qr_scan", "android": "https://dc.lft.to/lastmile_qr_scan"}, "lat": 38.904172333333335, "is_reserved": 0, "bike_id": "3808b09c2ea8780dae464544174bf9f9", "lon": -77.005913, "is_disabled": 0, "fusion_lat": 0.0, "fusion_lon": 0.0, "name": "3808b09c2ea8780dae464544174bf9f9", "type": "electric_scooter"}, {"rental_uris": {"ios": "https://dc.lft.to/lastmile_qr_scan", "android": "https://dc.lft.to/lastmile_qr_scan"}, "lat": 38.901658833333336, "is_reserved": 0, "bike_id": "5ae08d9e8349a5874e27675f5841f9a4", "lon": -77.01327733333333, "is_disabled": 0, "fusion_lat": 0.0, "fusion_lon": 0.0, "name": "5ae08d9e8349a5874e27675f5841f9a4", "type": "electric_scooter"}, {"rental_uris": {"ios": "https://dc.lft.to/lastmile_qr_scan", "android": "https://dc.lft.to/lastmile_qr_scan"}, "lat": 38.916172, "is_reserved": 0, "bike_id": "aa5a14f0411e94e7f997d3c67f7d5c6b", "lon": -77.04157366666666, "is_disabled": 0, "fusion_lat": 0.0, "fusion_lon": 0.0, "name": "aa5a14f0411e94e7f997d3c67f7d5c6b", "type": "electric_scooter"}, {"rental_uris": {"ios": "https://dc.lft.to/lastmile_qr_scan", "android": "https://dc.lft.to/lastmile_qr_scan"}, "lat": 38.917042, "is_reserved": 0, "bike_id": "18885685fc6edcbb9939dfd534554370", "lon": -77.04347283333334, "is_disabled": 0, "fusion_lat": 0.0, "fusion_lon": 0.0, "name": "18885685fc6edcbb9939dfd534554370", "type": "electric_scooter"}, {"rental_uris": {"ios": "https://dc.lft.to/lastmile_qr_scan", "android": "https://dc.lft.to/lastmile_qr_scan"}, "lat": 38.91805866666667, "is_reserved": 0, "bike_id": "4f5e9fd20acf7b82b72136e4e4de39c7", "lon": -77.03438383333334, "is_disabled": 0, "fusion_lat": 0.0, "fusion_lon": 0.0, "name": "4f5e9fd20acf7b82b72136e4e4de39c7", "type": "electric_scooter"}, {"rental_uris": {"ios": "https://dc.lft.to/lastmile_qr_scan", "android": "https://dc.lft.to/lastmile_qr_scan"}, "lat": 38.909744, "is_reserved": 0, "bike_id": "4b1093c6645f6163d7bcfffd415b55ca", "lon": -77.02308466666666, "is_disabled": 0, "fusion_lat": 0.0, "fusion_lon": 0.0, "name": "4b1093c6645f6163d7bcfffd415b55ca", "type": "electric_scooter"}, {"rental_uris": {"ios": "https://dc.lft.to/lastmile_qr_scan", "android": "https://dc.lft.to/lastmile_qr_scan"}, "lat": 38.866463333333336, "is_reserved": 0, "bike_id": "80055e7b1bc7e9d125acd529ff8822c3", "lon": -76.98509466666667, "is_disabled": 0, "fusion_lat": 0.0, "fusion_lon": 0.0, "name": "80055e7b1bc7e9d125acd529ff8822c3", "type": "electric_scooter"}, {"rental_uris": {"ios": "https://dc.lft.to/lastmile_qr_scan", "android": "https://dc.lft.to/lastmile_qr_scan"}, "lat": 38.9046595, "is_reserved": 0, "bike_id": "7d4a24002e524e21e463abfc7bf8f791", "lon": -77.01935416666667, "is_disabled": 0, "fusion_lat": 0.0, "fusion_lon": 0.0, "name": "7d4a24002e524e21e463abfc7bf8f791", "type": "electric_scooter"}, {"rental_uris": {"ios": "https://dc.lft.to/lastmile_qr_scan", "android": "https://dc.lft.to/lastmile_qr_scan"}, "lat": 38.88447383333333, "is_reserved": 0, "bike_id": "c756408c82097d31c3dabc81e4576134", "lon": -76.9509915, "is_disabled": 0, "fusion_lat": 0.0, "fusion_lon": 0.0, "name": "c756408c82097d31c3dabc81e4576134", "type": "electric_scooter"}, {"rental_uris": {"ios": "https://dc.lft.to/lastmile_qr_scan", "android": "https://dc.lft.to/lastmile_qr_scan"}, "lat": 38.93762366666667, "is_reserved": 0, "bike_id": "d2eb40328910f6735bb01073da7d463c", "lon": -77.021354, "is_disabled": 0, "fusion_lat": 0.0, "fusion_lon": 0.0, "name": "d2eb40328910f6735bb01073da7d463c", "type": "electric_scooter"}, {"rental_uris": {"ios": "https://dc.lft.to/lastmile_qr_scan", "android": "https://dc.lft.to/lastmile_qr_scan"}, "lat": 38.960901166666666, "is_reserved": 0, "bike_id": "b9a3140139146ed2cb87863aec225217", "lon": -77.02745083333333, "is_disabled": 0, "fusion_lat": 0.0, "fusion_lon": 0.0, "name": "b9a3140139146ed2cb87863aec225217", "type": "electric_scooter"}, {"rental_uris": {"ios": "https://dc.lft.to/lastmile_qr_scan", "android": "https://dc.lft.to/lastmile_qr_scan"}, "lat": 38.92148433333333, "is_reserved": 0, "bike_id": "db6916050595a00598a6bad7a71e60da", "lon": -76.993708, "is_disabled": 0, "fusion_lat": 0.0, "fusion_lon": 0.0, "name": "db6916050595a00598a6bad7a71e60da", "type": "electric_scooter"}, {"rental_uris": {"ios": "https://dc.lft.to/lastmile_qr_scan", "android": "https://dc.lft.to/lastmile_qr_scan"}, "lat": 38.946081, "is_reserved": 0, "bike_id": "ccc373c83c574bbc759e1f5ae803bb96", "lon": -77.096257, "is_disabled": 0, "fusion_lat": 0.0, "fusion_lon": 0.0, "name": "ccc373c83c574bbc759e1f5ae803bb96", "type": "electric_scooter"}, {"rental_uris": {"ios": "https://dc.lft.to/lastmile_qr_scan", "android": "https://dc.lft.to/lastmile_qr_scan"}, "lat": 38.92396516666667, "is_reserved": 0, "bike_id": "9b9e459bea2ce3b38812f4516427e1bc", "lon": -77.025484, "is_disabled": 0, "fusion_lat": 0.0, "fusion_lon": 0.0, "name": "9b9e459bea2ce3b38812f4516427e1bc", "type": "electric_scooter"}, {"rental_uris": {"ios": "https://dc.lft.to/lastmile_qr_scan", "android": "https://dc.lft.to/lastmile_qr_scan"}, "lat": 38.92464983333333, "is_reserved": 0, "bike_id": "579bd8012fd84c71edd42a7406127fe5", "lon": -77.02201233333334, "is_disabled": 0, "fusion_lat": 0.0, "fusion_lon": 0.0, "name": "579bd8012fd84c71edd42a7406127fe5", "type": "electric_scooter"}, {"rental_uris": {"ios": "https://dc.lft.to/lastmile_qr_scan", "android": "https://dc.lft.to/lastmile_qr_scan"}, "lat": 38.924579666666666, "is_reserved": 0, "bike_id": "f57b3d61724d4d214e0b2202a8678cfa", "lon": -77.02156633333334, "is_disabled": 0, "fusion_lat": 0.0, "fusion_lon": 0.0, "name": "f57b3d61724d4d214e0b2202a8678cfa", "type": "electric_scooter"}, {"rental_uris": {"ios": "https://dc.lft.to/lastmile_qr_scan", "android": "https://dc.lft.to/lastmile_qr_scan"}, "lat": 38.90561733333333, "is_reserved": 0, "bike_id": "8ff5e9ee09f1f7f721ad554b4a7a9c71", "lon": -77.04013283333333, "is_disabled": 0, "fusion_lat": 0.0, "fusion_lon": 0.0, "name": "8ff5e9ee09f1f7f721ad554b4a7a9c71", "type": "electric_scooter"}, {"rental_uris": {"ios": "https://dc.lft.to/lastmile_qr_scan", "android": "https://dc.lft.to/lastmile_qr_scan"}, "lat": 38.910533, "is_reserved": 0, "bike_id": "7fe68b504a9bac54cd299ff8ad9c259d", "lon": -77.0540025, "is_disabled": 0, "fusion_lat": 0.0, "fusion_lon": 0.0, "name": "7fe68b504a9bac54cd299ff8ad9c259d", "type": "electric_scooter"}, {"rental_uris": {"ios": "https://dc.lft.to/lastmile_qr_scan", "android": "https://dc.lft.to/lastmile_qr_scan"}, "lat": 38.88426033333333, "is_reserved": 0, "bike_id": "26ac33ec0ae3fb00d83e46565f28374c", "lon": -76.95752866666666, "is_disabled": 0, "fusion_lat": 0.0, "fusion_lon": 0.0, "name": "26ac33ec0ae3fb00d83e46565f28374c", "type": "electric_scooter"}, {"rental_uris": {"ios": "https://dc.lft.to/lastmile_qr_scan", "android": "https://dc.lft.to/lastmile_qr_scan"}, "lat": 38.905893, "is_reserved": 0, "bike_id": "514e9435637ccf40bf3f6ec3b2ffac7a", "lon": -77.0468335, "is_disabled": 0, "fusion_lat": 0.0, "fusion_lon": 0.0, "name": "514e9435637ccf40bf3f6ec3b2ffac7a", "type": "electric_scooter"}, {"rental_uris": {"ios": "https://dc.lft.to/lastmile_qr_scan", "android": "https://dc.lft.to/lastmile_qr_scan"}, "lat": 38.909653, "is_reserved": 0, "bike_id": "9c425cb043c608403ec7d9c30e2296e0", "lon": -77.04774533333334, "is_disabled": 0, "fusion_lat": 0.0, "fusion_lon": 0.0, "name": "9c425cb043c608403ec7d9c30e2296e0", "type": "electric_scooter"}, {"rental_uris": {"ios": "https://dc.lft.to/lastmile_qr_scan", "android": "https://dc.lft.to/lastmile_qr_scan"}, "lat": 38.96461633333333, "is_reserved": 0, "bike_id": "2dd695c619ed06ceea2a5a8ba9863fc7", "lon": -77.008641, "is_disabled": 0, "fusion_lat": 0.0, "fusion_lon": 0.0, "name": "2dd695c619ed06ceea2a5a8ba9863fc7", "type": "electric_bike"}, {"rental_uris": {"ios": "https://dc.lft.to/lastmile_qr_scan", "android": "https://dc.lft.to/lastmile_qr_scan"}, "lat": 38.898254, "is_reserved": 0, "bike_id": "a0d7c206a1c83602ee46a3f583b00982", "lon": -76.94654433333334, "is_disabled": 0, "fusion_lat": 0.0, "fusion_lon": 0.0, "name": "a0d7c206a1c83602ee46a3f583b00982", "type": "electric_scooter"}, {"rental_uris": {"ios": "https://dc.lft.to/lastmile_qr_scan", "android": "https://dc.lft.to/lastmile_qr_scan"}, "lat": 38.928127833333335, "is_reserved": 0, "bike_id": "9e651ddb03d518a4e665d5acfaa12781", "lon": -77.03281633333333, "is_disabled": 0, "fusion_lat": 0.0, "fusion_lon": 0.0, "name": "9e651ddb03d518a4e665d5acfaa12781", "type": "electric_scooter"}, {"rental_uris": {"ios": "https://dc.lft.to/lastmile_qr_scan", "android": "https://dc.lft.to/lastmile_qr_scan"}, "lat": 38.92458516666667, "is_reserved": 0, "bike_id": "3c36b315e324f9b14f79ffd208c8e444", "lon": -77.021554, "is_disabled": 0, "fusion_lat": 0.0, "fusion_lon": 0.0, "name": "3c36b315e324f9b14f79ffd208c8e444", "type": "electric_scooter"}, {"rental_uris": {"ios": "https://dc.lft.to/lastmile_qr_scan", "android": "https://dc.lft.to/lastmile_qr_scan"}, "lat": 38.91648033333333, "is_reserved": 0, "bike_id": "3214eb01b37652b8b47c7cee628a8ea6", "lon": -77.03649983333334, "is_disabled": 0, "fusion_lat": 0.0, "fusion_lon": 0.0, "name": "3214eb01b37652b8b47c7cee628a8ea6", "type": "electric_scooter"}, {"rental_uris": {"ios": "https://dc.lft.to/lastmile_qr_scan", "android": "https://dc.lft.to/lastmile_qr_scan"}, "lat": 38.939247333333334, "is_reserved": 0, "bike_id": "e0af9a6526727e9677a3b2efac829d2e", "lon": -77.036687, "is_disabled": 0, "fusion_lat": 0.0, "fusion_lon": 0.0, "name": "e0af9a6526727e9677a3b2efac829d2e", "type": "electric_scooter"}, {"rental_uris": {"ios": "https://dc.lft.to/lastmile_qr_scan", "android": "https://dc.lft.to/lastmile_qr_scan"}, "lat": 38.91108233333333, "is_reserved": 0, "bike_id": "8f4028965415867c0e294043b58e5523", "lon": -77.044003, "is_disabled": 0, "fusion_lat": 0.0, "fusion_lon": 0.0, "name": "8f4028965415867c0e294043b58e5523", "type": "electric_scooter"}, {"rental_uris": {"ios": "https://dc.lft.to/lastmile_qr_scan", "android": "https://dc.lft.to/lastmile_qr_scan"}, "lat": 38.8966675, "is_reserved": 0, "bike_id": "0869efa9a9c7f90c9cf7705d2f479532", "lon": -77.02402616666667, "is_disabled": 0, "fusion_lat": 0.0, "fusion_lon": 0.0, "name": "0869efa9a9c7f90c9cf7705d2f479532", "type": "electric_scooter"}, {"rental_uris": {"ios": "https://dc.lft.to/lastmile_qr_scan", "android": "https://dc.lft.to/lastmile_qr_scan"}, "lat": 38.91631366666667, "is_reserved": 0, "bike_id": "86c112b7005548d1a46552709cc3a839", "lon": -77.03215416666667, "is_disabled": 0, "fusion_lat": 0.0, "fusion_lon": 0.0, "name": "86c112b7005548d1a46552709cc3a839", "type": "electric_scooter"}, {"rental_uris": {"ios": "https://dc.lft.to/lastmile_qr_scan", "android": "https://dc.lft.to/lastmile_qr_scan"}, "lat": 38.90122916666667, "is_reserved": 0, "bike_id": "69c4e61ff389e2c67f399a63720417bd", "lon": -77.03468683333334, "is_disabled": 0, "fusion_lat": 0.0, "fusion_lon": 0.0, "name": "69c4e61ff389e2c67f399a63720417bd", "type": "electric_scooter"}, {"rental_uris": {"ios": "https://dc.lft.to/lastmile_qr_scan", "android": "https://dc.lft.to/lastmile_qr_scan"}, "lat": 38.94045966666667, "is_reserved": 0, "bike_id": "d5f6915cc29d54fe262bb062c335d552", "lon": -76.90425716666667, "is_disabled": 0, "fusion_lat": 0.0, "fusion_lon": 0.0, "name": "d5f6915cc29d54fe262bb062c335d552", "type": "electric_bike"}, {"rental_uris": {"ios": "https://dc.lft.to/lastmile_qr_scan", "android": "https://dc.lft.to/lastmile_qr_scan"}, "lat": 38.92230583333333, "is_reserved": 0, "bike_id": "fae8093f637a376691e9df01f43b9599", "lon": -77.02328633333333, "is_disabled": 0, "fusion_lat": 0.0, "fusion_lon": 0.0, "name": "fae8093f637a376691e9df01f43b9599", "type": "electric_scooter"}, {"rental_uris": {"ios": "https://dc.lft.to/lastmile_qr_scan", "android": "https://dc.lft.to/lastmile_qr_scan"}, "lat": 38.91706466666667, "is_reserved": 0, "bike_id": "e73fc7c13d74ff07e3955aeb18ff4d8c", "lon": -77.0386315, "is_disabled": 0, "fusion_lat": 0.0, "fusion_lon": 0.0, "name": "e73fc7c13d74ff07e3955aeb18ff4d8c", "type": "electric_scooter"}, {"rental_uris": {"ios": "https://dc.lft.to/lastmile_qr_scan", "android": "https://dc.lft.to/lastmile_qr_scan"}, "lat": 38.94918633333333, "is_reserved": 0, "bike_id": "ba22a3224a3d40f7b0ad0fde28fa4bfb", "lon": -77.00790083333334, "is_disabled": 0, "fusion_lat": 0.0, "fusion_lon": 0.0, "name": "ba22a3224a3d40f7b0ad0fde28fa4bfb", "type": "electric_bike"}, {"rental_uris": {"ios": "https://dc.lft.to/lastmile_qr_scan", "android": "https://dc.lft.to/lastmile_qr_scan"}, "lat": 38.92984233333333, "is_reserved": 0, "bike_id": "26f91cd16082cfc501b9b339ca335ea4", "lon": -77.02523983333333, "is_disabled": 0, "fusion_lat": 0.0, "fusion_lon": 0.0, "name": "26f91cd16082cfc501b9b339ca335ea4", "type": "electric_scooter"}, {"rental_uris": {"ios": "https://dc.lft.to/lastmile_qr_scan", "android": "https://dc.lft.to/lastmile_qr_scan"}, "lat": 38.87941816666667, "is_reserved": 0, "bike_id": "9b0cb22187ea1df42244bd1458d23448", "lon": -77.00523716666666, "is_disabled": 0, "fusion_lat": 0.0, "fusion_lon": 0.0, "name": "9b0cb22187ea1df42244bd1458d23448", "type": "electric_scooter"}, {"rental_uris": {"ios": "https://dc.lft.to/lastmile_qr_scan", "android": "https://dc.lft.to/lastmile_qr_scan"}, "lat": 38.9311335, "is_reserved": 0, "bike_id": "3bd1c7bb813e6d57abb1258aae96df40", "lon": -77.03280083333334, "is_disabled": 0, "fusion_lat": 0.0, "fusion_lon": 0.0, "name": "3bd1c7bb813e6d57abb1258aae96df40", "type": "electric_scooter"}, {"rental_uris": {"ios": "https://dc.lft.to/lastmile_qr_scan", "android": "https://dc.lft.to/lastmile_qr_scan"}, "lat": 38.92334866666667, "is_reserved": 0, "bike_id": "fd92a40d2e0cf6126a1cc1e0d9009bbf", "lon": -77.053499, "is_disabled": 0, "fusion_lat": 0.0, "fusion_lon": 0.0, "name": "fd92a40d2e0cf6126a1cc1e0d9009bbf", "type": "electric_scooter"}, {"rental_uris": {"ios": "https://dc.lft.to/lastmile_qr_scan", "android": "https://dc.lft.to/lastmile_qr_scan"}, "lat": 38.91477583333333, "is_reserved": 0, "bike_id": "cca8f7e756c3df942e02947b1593df21", "lon": -77.0417585, "is_disabled": 0, "fusion_lat": 0.0, "fusion_lon": 0.0, "name": "cca8f7e756c3df942e02947b1593df21", "type": "electric_scooter"}, {"rental_uris": {"ios": "https://dc.lft.to/lastmile_qr_scan", "android": "https://dc.lft.to/lastmile_qr_scan"}, "lat": 38.9031425, "is_reserved": 0, "bike_id": "df38bf2d5d807cfc06563e5491af168f", "lon": -77.03849766666667, "is_disabled": 0, "fusion_lat": 0.0, "fusion_lon": 0.0, "name": "df38bf2d5d807cfc06563e5491af168f", "type": "electric_scooter"}, {"rental_uris": {"ios": "https://dc.lft.to/lastmile_qr_scan", "android": "https://dc.lft.to/lastmile_qr_scan"}, "lat": 38.911098833333334, "is_reserved": 0, "bike_id": "ac184cbef79939eedb2c13ee0fe0ac97", "lon": -77.04357566666667, "is_disabled": 0, "fusion_lat": 0.0, "fusion_lon": 0.0, "name": "ac184cbef79939eedb2c13ee0fe0ac97", "type": "electric_scooter"}, {"rental_uris": {"ios": "https://dc.lft.to/lastmile_qr_scan", "android": "https://dc.lft.to/lastmile_qr_scan"}, "lat": 38.921822, "is_reserved": 0, "bike_id": "35db316d49f6af7638bb0bc6d1ab4b92", "lon": -77.04686716666667, "is_disabled": 0, "fusion_lat": 0.0, "fusion_lon": 0.0, "name": "35db316d49f6af7638bb0bc6d1ab4b92", "type": "electric_scooter"}, {"rental_uris": {"ios": "https://dc.lft.to/lastmile_qr_scan", "android": "https://dc.lft.to/lastmile_qr_scan"}, "lat": 38.92533866666667, "is_reserved": 0, "bike_id": "02dd570b4200df0ba385424aec4091fe", "lon": -77.03527766666667, "is_disabled": 0, "fusion_lat": 0.0, "fusion_lon": 0.0, "name": "02dd570b4200df0ba385424aec4091fe", "type": "electric_scooter"}, {"rental_uris": {"ios": "https://dc.lft.to/lastmile_qr_scan", "android": "https://dc.lft.to/lastmile_qr_scan"}, "lat": 38.83362566666667, "is_reserved": 0, "bike_id": "483b17bf893658da52793c68fe5d5a0a", "lon": -77.0030465, "is_disabled": 0, "fusion_lat": 0.0, "fusion_lon": 0.0, "name": "483b17bf893658da52793c68fe5d5a0a", "type": "electric_bike"}, {"rental_uris": {"ios": "https://dc.lft.to/lastmile_qr_scan", "android": "https://dc.lft.to/lastmile_qr_scan"}, "lat": 38.905273333333334, "is_reserved": 0, "bike_id": "a6afdeb09831a97ca995292e1ad8ccbb", "lon": -77.06045433333334, "is_disabled": 0, "fusion_lat": 0.0, "fusion_lon": 0.0, "name": "a6afdeb09831a97ca995292e1ad8ccbb", "type": "electric_scooter"}, {"rental_uris": {"ios": "https://dc.lft.to/lastmile_qr_scan", "android": "https://dc.lft.to/lastmile_qr_scan"}, "lat": 38.9035385, "is_reserved": 0, "bike_id": "c83a55205bbe5acc4952f038c86a4ceb", "lon": -77.03711916666667, "is_disabled": 0, "fusion_lat": 0.0, "fusion_lon": 0.0, "name": "c83a55205bbe5acc4952f038c86a4ceb", "type": "electric_scooter"}, {"rental_uris": {"ios": "https://dc.lft.to/lastmile_qr_scan", "android": "https://dc.lft.to/lastmile_qr_scan"}, "lat": 38.9223995, "is_reserved": 0, "bike_id": "c4abe9e5436d1740ec25c64c506e4487", "lon": -77.01953933333333, "is_disabled": 0, "fusion_lat": 0.0, "fusion_lon": 0.0, "name": "c4abe9e5436d1740ec25c64c506e4487", "type": "electric_scooter"}, {"rental_uris": {"ios": "https://dc.lft.to/lastmile_qr_scan", "android": "https://dc.lft.to/lastmile_qr_scan"}, "lat": 38.916006, "is_reserved": 0, "bike_id": "e2727445f0b5ca0ec1500465ebdbba12", "lon": -76.98386566666667, "is_disabled": 0, "fusion_lat": 0.0, "fusion_lon": 0.0, "name": "e2727445f0b5ca0ec1500465ebdbba12", "type": "electric_scooter"}, {"rental_uris": {"ios": "https://dc.lft.to/lastmile_qr_scan", "android": "https://dc.lft.to/lastmile_qr_scan"}, "lat": 38.90776066666667, "is_reserved": 0, "bike_id": "df11c35b96d018da1c90e99a4c15754e", "lon": -77.071666, "is_disabled": 0, "fusion_lat": 0.0, "fusion_lon": 0.0, "name": "df11c35b96d018da1c90e99a4c15754e", "type": "electric_scooter"}, {"rental_uris": {"ios": "https://dc.lft.to/lastmile_qr_scan", "android": "https://dc.lft.to/lastmile_qr_scan"}, "lat": 38.908510666666665, "is_reserved": 0, "bike_id": "4e7023b803896e7b65b3a349d4775990", "lon": -77.02994183333334, "is_disabled": 0, "fusion_lat": 0.0, "fusion_lon": 0.0, "name": "4e7023b803896e7b65b3a349d4775990", "type": "electric_scooter"}, {"rental_uris": {"ios": "https://dc.lft.to/lastmile_qr_scan", "android": "https://dc.lft.to/lastmile_qr_scan"}, "lat": 38.900403, "is_reserved": 0, "bike_id": "8cc02ea0f09a1e68a02c4d1f28caf7ed", "lon": -77.04361366666667, "is_disabled": 0, "fusion_lat": 0.0, "fusion_lon": 0.0, "name": "8cc02ea0f09a1e68a02c4d1f28caf7ed", "type": "electric_scooter"}, {"rental_uris": {"ios": "https://dc.lft.to/lastmile_qr_scan", "android": "https://dc.lft.to/lastmile_qr_scan"}, "lat": 38.905343, "is_reserved": 0, "bike_id": "cf33d6c4a8ae1a731728ce23f84df3aa", "lon": -77.055946, "is_disabled": 0, "fusion_lat": 0.0, "fusion_lon": 0.0, "name": "cf33d6c4a8ae1a731728ce23f84df3aa", "type": "electric_scooter"}, {"rental_uris": {"ios": "https://dc.lft.to/lastmile_qr_scan", "android": "https://dc.lft.to/lastmile_qr_scan"}, "lat": 38.9040765, "is_reserved": 0, "bike_id": "742cf4e0084f01d7b307b643596f3dea", "lon": -77.0633125, "is_disabled": 0, "fusion_lat": 0.0, "fusion_lon": 0.0, "name": "742cf4e0084f01d7b307b643596f3dea", "type": "electric_scooter"}, {"rental_uris": {"ios": "https://dc.lft.to/lastmile_qr_scan", "android": "https://dc.lft.to/lastmile_qr_scan"}, "lat": 38.92744783333333, "is_reserved": 0, "bike_id": "5d2d45858a1518d35997b5791b833515", "lon": -77.02132866666666, "is_disabled": 0, "fusion_lat": 0.0, "fusion_lon": 0.0, "name": "5d2d45858a1518d35997b5791b833515", "type": "electric_scooter"}, {"rental_uris": {"ios": "https://dc.lft.to/lastmile_qr_scan", "android": "https://dc.lft.to/lastmile_qr_scan"}, "lat": 38.917016, "is_reserved": 0, "bike_id": "cfe682d03a90507a2ed4aa1c2637aa7b", "lon": -77.02914116666666, "is_disabled": 0, "fusion_lat": 0.0, "fusion_lon": 0.0, "name": "cfe682d03a90507a2ed4aa1c2637aa7b", "type": "electric_scooter"}, {"rental_uris": {"ios": "https://dc.lft.to/lastmile_qr_scan", "android": "https://dc.lft.to/lastmile_qr_scan"}, "lat": 38.90550316666667, "is_reserved": 0, "bike_id": "ef0deaee9777f37812f9c22da60f4829", "lon": -77.04348216666666, "is_disabled": 0, "fusion_lat": 0.0, "fusion_lon": 0.0, "name": "ef0deaee9777f37812f9c22da60f4829", "type": "electric_scooter"}, {"rental_uris": {"ios": "https://dc.lft.to/lastmile_qr_scan", "android": "https://dc.lft.to/lastmile_qr_scan"}, "lat": 38.904118833333335, "is_reserved": 0, "bike_id": "37731839c63feb8d1bee32a95d247a56", "lon": -77.040379, "is_disabled": 0, "fusion_lat": 0.0, "fusion_lon": 0.0, "name": "37731839c63feb8d1bee32a95d247a56", "type": "electric_scooter"}, {"rental_uris": {"ios": "https://dc.lft.to/lastmile_qr_scan", "android": "https://dc.lft.to/lastmile_qr_scan"}, "lat": 38.918051166666665, "is_reserved": 0, "bike_id": "9d3508523715d91030c9dfdda60b9dd7", "lon": -77.02699583333333, "is_disabled": 0, "fusion_lat": 0.0, "fusion_lon": 0.0, "name": "9d3508523715d91030c9dfdda60b9dd7", "type": "electric_scooter"}, {"rental_uris": {"ios": "https://dc.lft.to/lastmile_qr_scan", "android": "https://dc.lft.to/lastmile_qr_scan"}, "lat": 38.89222433333333, "is_reserved": 0, "bike_id": "021d411ff2306e4f39d731c2d094440d", "lon": -77.041988, "is_disabled": 0, "fusion_lat": 0.0, "fusion_lon": 0.0, "name": "021d411ff2306e4f39d731c2d094440d", "type": "electric_scooter"}, {"rental_uris": {"ios": "https://dc.lft.to/lastmile_qr_scan", "android": "https://dc.lft.to/lastmile_qr_scan"}, "lat": 38.95120083333333, "is_reserved": 0, "bike_id": "fbf3e6dbd1f4ea726d34d88bd44b85f7", "lon": -77.01524316666666, "is_disabled": 0, "fusion_lat": 0.0, "fusion_lon": 0.0, "name": "fbf3e6dbd1f4ea726d34d88bd44b85f7", "type": "electric_bike"}, {"rental_uris": {"ios": "https://dc.lft.to/lastmile_qr_scan", "android": "https://dc.lft.to/lastmile_qr_scan"}, "lat": 38.89402666666667, "is_reserved": 0, "bike_id": "c36d8dcb0ae5b73d31512fbfd42bed24", "lon": -76.99490866666666, "is_disabled": 0, "fusion_lat": 0.0, "fusion_lon": 0.0, "name": "c36d8dcb0ae5b73d31512fbfd42bed24", "type": "electric_scooter"}, {"rental_uris": {"ios": "https://dc.lft.to/lastmile_qr_scan", "android": "https://dc.lft.to/lastmile_qr_scan"}, "lat": 38.95493533333333, "is_reserved": 0, "bike_id": "7ee3e9971c5fdfe0925ecebbb9f04a9e", "lon": -77.01722416666667, "is_disabled": 0, "fusion_lat": 0.0, "fusion_lon": 0.0, "name": "7ee3e9971c5fdfe0925ecebbb9f04a9e", "type": "electric_scooter"}, {"rental_uris": {"ios": "https://dc.lft.to/lastmile_qr_scan", "android": "https://dc.lft.to/lastmile_qr_scan"}, "lat": 38.92812333333333, "is_reserved": 0, "bike_id": "3d4b5db618c15539275d259a43ad64ae", "lon": -77.014152, "is_disabled": 0, "fusion_lat": 0.0, "fusion_lon": 0.0, "name": "3d4b5db618c15539275d259a43ad64ae", "type": "electric_scooter"}, {"rental_uris": {"ios": "https://dc.lft.to/lastmile_qr_scan", "android": "https://dc.lft.to/lastmile_qr_scan"}, "lat": 38.87460516666667, "is_reserved": 0, "bike_id": "1feaf0f0deca51cb26299c542275e26b", "lon": -77.0189555, "is_disabled": 0, "fusion_lat": 0.0, "fusion_lon": 0.0, "name": "1feaf0f0deca51cb26299c542275e26b", "type": "electric_scooter"}, {"rental_uris": {"ios": "https://dc.lft.to/lastmile_qr_scan", "android": "https://dc.lft.to/lastmile_qr_scan"}, "lat": 38.92764833333333, "is_reserved": 0, "bike_id": "45231164cc0d21ffcbf31891c9d63d38", "lon": -77.02737383333333, "is_disabled": 0, "fusion_lat": 0.0, "fusion_lon": 0.0, "name": "45231164cc0d21ffcbf31891c9d63d38", "type": "electric_scooter"}, {"rental_uris": {"ios": "https://dc.lft.to/lastmile_qr_scan", "android": "https://dc.lft.to/lastmile_qr_scan"}, "lat": 38.90083666666666, "is_reserved": 0, "bike_id": "bbbdeb538b11186372ce889f161a0751", "lon": -77.01295666666667, "is_disabled": 0, "fusion_lat": 0.0, "fusion_lon": 0.0, "name": "bbbdeb538b11186372ce889f161a0751", "type": "electric_bike"}, {"rental_uris": {"ios": "https://dc.lft.to/lastmile_qr_scan", "android": "https://dc.lft.to/lastmile_qr_scan"}, "lat": 38.92361566666666, "is_reserved": 0, "bike_id": "1b623bc6fead9a8547e194d912d65eb5", "lon": -77.04389083333334, "is_disabled": 0, "fusion_lat": 0.0, "fusion_lon": 0.0, "name": "1b623bc6fead9a8547e194d912d65eb5", "type": "electric_scooter"}, {"rental_uris": {"ios": "https://dc.lft.to/lastmile_qr_scan", "android": "https://dc.lft.to/lastmile_qr_scan"}, "lat": 38.955001833333334, "is_reserved": 0, "bike_id": "df2ce39c42f1408619fe4296421f0ebc", "lon": -77.00204433333333, "is_disabled": 0, "fusion_lat": 0.0, "fusion_lon": 0.0, "name": "df2ce39c42f1408619fe4296421f0ebc", "type": "electric_bike"}, {"rental_uris": {"ios": "https://dc.lft.to/lastmile_qr_scan", "android": "https://dc.lft.to/lastmile_qr_scan"}, "lat": 38.920827333333335, "is_reserved": 0, "bike_id": "4c77ec8a766b83f904062a53e6edd8de", "lon": -77.025538, "is_disabled": 0, "fusion_lat": 0.0, "fusion_lon": 0.0, "name": "4c77ec8a766b83f904062a53e6edd8de", "type": "electric_scooter"}, {"rental_uris": {"ios": "https://dc.lft.to/lastmile_qr_scan", "android": "https://dc.lft.to/lastmile_qr_scan"}, "lat": 38.9169055, "is_reserved": 0, "bike_id": "24e6fc3a6882c89b815889c82d930334", "lon": -77.031447, "is_disabled": 0, "fusion_lat": 0.0, "fusion_lon": 0.0, "name": "24e6fc3a6882c89b815889c82d930334", "type": "electric_scooter"}, {"rental_uris": {"ios": "https://dc.lft.to/lastmile_qr_scan", "android": "https://dc.lft.to/lastmile_qr_scan"}, "lat": 38.89860816666667, "is_reserved": 0, "bike_id": "309a5fac843beacee1ed9bb3a11b47de", "lon": -76.94638383333333, "is_disabled": 0, "fusion_lat": 0.0, "fusion_lon": 0.0, "name": "309a5fac843beacee1ed9bb3a11b47de", "type": "electric_scooter"}, {"rental_uris": {"ios": "https://dc.lft.to/lastmile_qr_scan", "android": "https://dc.lft.to/lastmile_qr_scan"}, "lat": 38.87651283333334, "is_reserved": 0, "bike_id": "c1853d65351df7e84488dd2a548ea210", "lon": -77.00417516666667, "is_disabled": 0, "fusion_lat": 0.0, "fusion_lon": 0.0, "name": "c1853d65351df7e84488dd2a548ea210", "type": "electric_scooter"}, {"rental_uris": {"ios": "https://dc.lft.to/lastmile_qr_scan", "android": "https://dc.lft.to/lastmile_qr_scan"}, "lat": 38.866810666666666, "is_reserved": 0, "bike_id": "d2f33871bdef67e4565dcbf0adf6e2cc", "lon": -76.98567183333333, "is_disabled": 0, "fusion_lat": 0.0, "fusion_lon": 0.0, "name": "d2f33871bdef67e4565dcbf0adf6e2cc", "type": "electric_scooter"}, {"rental_uris": {"ios": "https://dc.lft.to/lastmile_qr_scan", "android": "https://dc.lft.to/lastmile_qr_scan"}, "lat": 38.92979833333333, "is_reserved": 0, "bike_id": "08c4715dff44e6d0faa93ac1d81e4ca0", "lon": -77.03655766666667, "is_disabled": 0, "fusion_lat": 0.0, "fusion_lon": 0.0, "name": "08c4715dff44e6d0faa93ac1d81e4ca0", "type": "electric_scooter"}, {"rental_uris": {"ios": "https://dc.lft.to/lastmile_qr_scan", "android": "https://dc.lft.to/lastmile_qr_scan"}, "lat": 38.90320033333333, "is_reserved": 0, "bike_id": "d58e0058a8dd55e8be988fe8a529eddb", "lon": -76.975465, "is_disabled": 0, "fusion_lat": 0.0, "fusion_lon": 0.0, "name": "d58e0058a8dd55e8be988fe8a529eddb", "type": "electric_scooter"}, {"rental_uris": {"ios": "https://dc.lft.to/lastmile_qr_scan", "android": "https://dc.lft.to/lastmile_qr_scan"}, "lat": 38.85509016666666, "is_reserved": 0, "bike_id": "50923d1496548d22359a7d3229859d38", "lon": -76.98413783333334, "is_disabled": 0, "fusion_lat": 0.0, "fusion_lon": 0.0, "name": "50923d1496548d22359a7d3229859d38", "type": "electric_bike"}, {"rental_uris": {"ios": "https://dc.lft.to/lastmile_qr_scan", "android": "https://dc.lft.to/lastmile_qr_scan"}, "lat": 38.923469, "is_reserved": 0, "bike_id": "5fccc22329e372d82c84eb8d7f4065f6", "lon": -77.03538366666666, "is_disabled": 0, "fusion_lat": 0.0, "fusion_lon": 0.0, "name": "5fccc22329e372d82c84eb8d7f4065f6", "type": "electric_scooter"}, {"rental_uris": {"ios": "https://dc.lft.to/lastmile_qr_scan", "android": "https://dc.lft.to/lastmile_qr_scan"}, "lat": 38.90129683333333, "is_reserved": 0, "bike_id": "e96cc7f87cb4bad8d3caf1a2fb37aade", "lon": -77.050012, "is_disabled": 0, "fusion_lat": 0.0, "fusion_lon": 0.0, "name": "e96cc7f87cb4bad8d3caf1a2fb37aade", "type": "electric_scooter"}, {"rental_uris": {"ios": "https://dc.lft.to/lastmile_qr_scan", "android": "https://dc.lft.to/lastmile_qr_scan"}, "lat": 38.88525216666667, "is_reserved": 0, "bike_id": "09dca6751c744aa29f1cb4d7d33bf93d", "lon": -76.97711583333333, "is_disabled": 0, "fusion_lat": 0.0, "fusion_lon": 0.0, "name": "09dca6751c744aa29f1cb4d7d33bf93d", "type": "electric_scooter"}, {"rental_uris": {"ios": "https://dc.lft.to/lastmile_qr_scan", "android": "https://dc.lft.to/lastmile_qr_scan"}, "lat": 38.9085895, "is_reserved": 0, "bike_id": "68f0cf51edec036fb215be1fc88e4ba0", "lon": -77.0222925, "is_disabled": 0, "fusion_lat": 0.0, "fusion_lon": 0.0, "name": "68f0cf51edec036fb215be1fc88e4ba0", "type": "electric_scooter"}, {"rental_uris": {"ios": "https://dc.lft.to/lastmile_qr_scan", "android": "https://dc.lft.to/lastmile_qr_scan"}, "lat": 38.92653716666667, "is_reserved": 0, "bike_id": "cd52e143ea1e4474708da78f145ec46b", "lon": -77.0242175, "is_disabled": 0, "fusion_lat": 0.0, "fusion_lon": 0.0, "name": "cd52e143ea1e4474708da78f145ec46b", "type": "electric_scooter"}, {"rental_uris": {"ios": "https://dc.lft.to/lastmile_qr_scan", "android": "https://dc.lft.to/lastmile_qr_scan"}, "lat": 38.9073795, "is_reserved": 0, "bike_id": "b1824d717e0f2b2a2721b9ff42a00cf3", "lon": -77.023753, "is_disabled": 0, "fusion_lat": 0.0, "fusion_lon": 0.0, "name": "b1824d717e0f2b2a2721b9ff42a00cf3", "type": "electric_scooter"}, {"rental_uris": {"ios": "https://dc.lft.to/lastmile_qr_scan", "android": "https://dc.lft.to/lastmile_qr_scan"}, "lat": 38.90027533333333, "is_reserved": 0, "bike_id": "001becc79a62685f5c1a3a099e09aa8c", "lon": -76.995616, "is_disabled": 0, "fusion_lat": 0.0, "fusion_lon": 0.0, "name": "001becc79a62685f5c1a3a099e09aa8c", "type": "electric_scooter"}, {"rental_uris": {"ios": "https://dc.lft.to/lastmile_qr_scan", "android": "https://dc.lft.to/lastmile_qr_scan"}, "lat": 38.89727883333333, "is_reserved": 0, "bike_id": "e31d7b1af155210b16edb6078b86a2bf", "lon": -77.04742316666666, "is_disabled": 0, "fusion_lat": 0.0, "fusion_lon": 0.0, "name": "e31d7b1af155210b16edb6078b86a2bf", "type": "electric_scooter"}, {"rental_uris": {"ios": "https://dc.lft.to/lastmile_qr_scan", "android": "https://dc.lft.to/lastmile_qr_scan"}, "lat": 38.89628966666667, "is_reserved": 0, "bike_id": "f5c8d6479b71da6a746ef35305f1cb97", "lon": -77.02686266666667, "is_disabled": 0, "fusion_lat": 0.0, "fusion_lon": 0.0, "name": "f5c8d6479b71da6a746ef35305f1cb97", "type": "electric_scooter"}, {"rental_uris": {"ios": "https://dc.lft.to/lastmile_qr_scan", "android": "https://dc.lft.to/lastmile_qr_scan"}, "lat": 38.894383166666664, "is_reserved": 0, "bike_id": "ec7dff0f91325104640074db274418f1", "lon": -76.9836055, "is_disabled": 0, "fusion_lat": 0.0, "fusion_lon": 0.0, "name": "ec7dff0f91325104640074db274418f1", "type": "electric_scooter"}, {"rental_uris": {"ios": "https://dc.lft.to/lastmile_qr_scan", "android": "https://dc.lft.to/lastmile_qr_scan"}, "lat": 38.8943985, "is_reserved": 0, "bike_id": "475c487dd1099669d3504564318a281f", "lon": -77.02693016666667, "is_disabled": 0, "fusion_lat": 0.0, "fusion_lon": 0.0, "name": "475c487dd1099669d3504564318a281f", "type": "electric_scooter"}, {"rental_uris": {"ios": "https://dc.lft.to/lastmile_qr_scan", "android": "https://dc.lft.to/lastmile_qr_scan"}, "lat": 38.89253516666667, "is_reserved": 0, "bike_id": "3e7aaafd6ebe3a113134464f2905ef22", "lon": -77.01962166666667, "is_disabled": 0, "fusion_lat": 0.0, "fusion_lon": 0.0, "name": "3e7aaafd6ebe3a113134464f2905ef22", "type": "electric_scooter"}, {"rental_uris": {"ios": "https://dc.lft.to/lastmile_qr_scan", "android": "https://dc.lft.to/lastmile_qr_scan"}, "lat": 38.90230016666667, "is_reserved": 0, "bike_id": "ecdcfa9e88f268cef815eaa42ef96d41", "lon": -77.043567, "is_disabled": 0, "fusion_lat": 0.0, "fusion_lon": 0.0, "name": "ecdcfa9e88f268cef815eaa42ef96d41", "type": "electric_scooter"}, {"rental_uris": {"ios": "https://dc.lft.to/lastmile_qr_scan", "android": "https://dc.lft.to/lastmile_qr_scan"}, "lat": 38.884881, "is_reserved": 0, "bike_id": "0505e27b795125275f39419f9aad358c", "lon": -77.00709533333334, "is_disabled": 0, "fusion_lat": 0.0, "fusion_lon": 0.0, "name": "0505e27b795125275f39419f9aad358c", "type": "electric_scooter"}, {"rental_uris": {"ios": "https://dc.lft.to/lastmile_qr_scan", "android": "https://dc.lft.to/lastmile_qr_scan"}, "lat": 38.907302, "is_reserved": 0, "bike_id": "eb41fec5e95320d6cacd4cdbdd599f60", "lon": -77.04269, "is_disabled": 0, "fusion_lat": 0.0, "fusion_lon": 0.0, "name": "eb41fec5e95320d6cacd4cdbdd599f60", "type": "electric_scooter"}, {"rental_uris": {"ios": "https://dc.lft.to/lastmile_qr_scan", "android": "https://dc.lft.to/lastmile_qr_scan"}, "lat": 38.87476316666667, "is_reserved": 0, "bike_id": "f023af63569990e4ee0627fdd63e56ae", "lon": -77.0084205, "is_disabled": 0, "fusion_lat": 0.0, "fusion_lon": 0.0, "name": "f023af63569990e4ee0627fdd63e56ae", "type": "electric_scooter"}, {"rental_uris": {"ios": "https://dc.lft.to/lastmile_qr_scan", "android": "https://dc.lft.to/lastmile_qr_scan"}, "lat": 38.92477783333333, "is_reserved": 0, "bike_id": "3c5541ac857ba256e960b19b8d7d0e75", "lon": -77.02652183333333, "is_disabled": 0, "fusion_lat": 0.0, "fusion_lon": 0.0, "name": "3c5541ac857ba256e960b19b8d7d0e75", "type": "electric_scooter"}, {"rental_uris": {"ios": "https://dc.lft.to/lastmile_qr_scan", "android": "https://dc.lft.to/lastmile_qr_scan"}, "lat": 38.903371, "is_reserved": 0, "bike_id": "224b312b22e32a3d68c98460d5d5c958", "lon": -77.04340983333333, "is_disabled": 0, "fusion_lat": 0.0, "fusion_lon": 0.0, "name": "224b312b22e32a3d68c98460d5d5c958", "type": "electric_scooter"}, {"rental_uris": {"ios": "https://dc.lft.to/lastmile_qr_scan", "android": "https://dc.lft.to/lastmile_qr_scan"}, "lat": 38.867600333333336, "is_reserved": 0, "bike_id": "910cba84812012cc05c604bc26273a80", "lon": -76.9828315, "is_disabled": 0, "fusion_lat": 0.0, "fusion_lon": 0.0, "name": "910cba84812012cc05c604bc26273a80", "type": "electric_scooter"}, {"rental_uris": {"ios": "https://dc.lft.to/lastmile_qr_scan", "android": "https://dc.lft.to/lastmile_qr_scan"}, "lat": 38.8813495, "is_reserved": 0, "bike_id": "dfa0c58a20494de14ff9d8d5b485eba4", "lon": -77.02706566666667, "is_disabled": 0, "fusion_lat": 0.0, "fusion_lon": 0.0, "name": "dfa0c58a20494de14ff9d8d5b485eba4", "type": "electric_scooter"}, {"rental_uris": {"ios": "https://dc.lft.to/lastmile_qr_scan", "android": "https://dc.lft.to/lastmile_qr_scan"}, "lat": 38.952321, "is_reserved": 0, "bike_id": "5a856bcc7f55ea974a154517ca231481", "lon": -77.01379083333333, "is_disabled": 0, "fusion_lat": 0.0, "fusion_lon": 0.0, "name": "5a856bcc7f55ea974a154517ca231481", "type": "electric_scooter"}, {"rental_uris": {"ios": "https://dc.lft.to/lastmile_qr_scan", "android": "https://dc.lft.to/lastmile_qr_scan"}, "lat": 38.89218533333333, "is_reserved": 0, "bike_id": "bd743d0d2e294d296f52a53d8b66287a", "lon": -77.032099, "is_disabled": 0, "fusion_lat": 0.0, "fusion_lon": 0.0, "name": "bd743d0d2e294d296f52a53d8b66287a", "type": "electric_scooter"}, {"rental_uris": {"ios": "https://dc.lft.to/lastmile_qr_scan", "android": "https://dc.lft.to/lastmile_qr_scan"}, "lat": 38.917601166666664, "is_reserved": 1, "bike_id": "0bc150909447429a1f5bbced5b4aac98", "lon": -77.0440825, "is_disabled": 0, "fusion_lat": 0.0, "fusion_lon": 0.0, "name": "0bc150909447429a1f5bbced5b4aac98", "type": "electric_bike"}, {"rental_uris": {"ios": "https://dc.lft.to/lastmile_qr_scan", "android": "https://dc.lft.to/lastmile_qr_scan"}, "lat": 38.925989, "is_reserved": 0, "bike_id": "4af5f6ff762602cdea7612f39da76b92", "lon": -77.01220766666667, "is_disabled": 0, "fusion_lat": 0.0, "fusion_lon": 0.0, "name": "4af5f6ff762602cdea7612f39da76b92", "type": "electric_scooter"}, {"rental_uris": {"ios": "https://dc.lft.to/lastmile_qr_scan", "android": "https://dc.lft.to/lastmile_qr_scan"}, "lat": 38.92838966666667, "is_reserved": 0, "bike_id": "bb4febde4fc92a4e948ff994eb2b1095", "lon": -77.0331775, "is_disabled": 0, "fusion_lat": 0.0, "fusion_lon": 0.0, "name": "bb4febde4fc92a4e948ff994eb2b1095", "type": "electric_scooter"}, {"rental_uris": {"ios": "https://dc.lft.to/lastmile_qr_scan", "android": "https://dc.lft.to/lastmile_qr_scan"}, "lat": 38.89617466666667, "is_reserved": 0, "bike_id": "9c1e9c512d95f1ba0b3edb1dc9fadd2f", "lon": -77.00923216666666, "is_disabled": 0, "fusion_lat": 0.0, "fusion_lon": 0.0, "name": "9c1e9c512d95f1ba0b3edb1dc9fadd2f", "type": "electric_scooter"}, {"rental_uris": {"ios": "https://dc.lft.to/lastmile_qr_scan", "android": "https://dc.lft.to/lastmile_qr_scan"}, "lat": 38.9028895, "is_reserved": 0, "bike_id": "da7509ca81eac2d01553435cb66a394c", "lon": -77.04686616666666, "is_disabled": 0, "fusion_lat": 0.0, "fusion_lon": 0.0, "name": "da7509ca81eac2d01553435cb66a394c", "type": "electric_scooter"}, {"rental_uris": {"ios": "https://dc.lft.to/lastmile_qr_scan", "android": "https://dc.lft.to/lastmile_qr_scan"}, "lat": 38.88332, "is_reserved": 0, "bike_id": "bfc598bc30447d6130b7965239e9faf5", "lon": -77.017396, "is_disabled": 0, "fusion_lat": 0.0, "fusion_lon": 0.0, "name": "bfc598bc30447d6130b7965239e9faf5", "type": "electric_scooter"}, {"rental_uris": {"ios": "https://dc.lft.to/lastmile_qr_scan", "android": "https://dc.lft.to/lastmile_qr_scan"}, "lat": 38.87375733333333, "is_reserved": 0, "bike_id": "5a3628bd957b64cb30c74c81a5a7f957", "lon": -76.97005933333334, "is_disabled": 0, "fusion_lat": 0.0, "fusion_lon": 0.0, "name": "5a3628bd957b64cb30c74c81a5a7f957", "type": "electric_scooter"}, {"rental_uris": {"ios": "https://dc.lft.to/lastmile_qr_scan", "android": "https://dc.lft.to/lastmile_qr_scan"}, "lat": 38.89638933333333, "is_reserved": 0, "bike_id": "a79b9522a765df75f75e1e019e416d88", "lon": -77.02607133333333, "is_disabled": 0, "fusion_lat": 0.0, "fusion_lon": 0.0, "name": "a79b9522a765df75f75e1e019e416d88", "type": "electric_scooter"}, {"rental_uris": {"ios": "https://dc.lft.to/lastmile_qr_scan", "android": "https://dc.lft.to/lastmile_qr_scan"}, "lat": 38.905628, "is_reserved": 0, "bike_id": "6857d9e7e9eca3a2a5d51c4e70ec05fb", "lon": -77.00587666666667, "is_disabled": 0, "fusion_lat": 0.0, "fusion_lon": 0.0, "name": "6857d9e7e9eca3a2a5d51c4e70ec05fb", "type": "electric_scooter"}, {"rental_uris": {"ios": "https://dc.lft.to/lastmile_qr_scan", "android": "https://dc.lft.to/lastmile_qr_scan"}, "lat": 38.928863166666666, "is_reserved": 0, "bike_id": "337ed6fd59640577ca9063b20309e754", "lon": -77.01233516666667, "is_disabled": 0, "fusion_lat": 0.0, "fusion_lon": 0.0, "name": "337ed6fd59640577ca9063b20309e754", "type": "electric_scooter"}, {"rental_uris": {"ios": "https://dc.lft.to/lastmile_qr_scan", "android": "https://dc.lft.to/lastmile_qr_scan"}, "lat": 38.9167585, "is_reserved": 0, "bike_id": "e1033fdea35f97220e84173af062179e", "lon": -77.046199, "is_disabled": 0, "fusion_lat": 0.0, "fusion_lon": 0.0, "name": "e1033fdea35f97220e84173af062179e", "type": "electric_scooter"}, {"rental_uris": {"ios": "https://dc.lft.to/lastmile_qr_scan", "android": "https://dc.lft.to/lastmile_qr_scan"}, "lat": 39.0525305, "is_reserved": 0, "bike_id": "29344c550af8595dfa710a61b074afc1", "lon": -77.08064833333333, "is_disabled": 0, "fusion_lat": 0.0, "fusion_lon": 0.0, "name": "29344c550af8595dfa710a61b074afc1", "type": "electric_bike"}, {"rental_uris": {"ios": "https://dc.lft.to/lastmile_qr_scan", "android": "https://dc.lft.to/lastmile_qr_scan"}, "lat": 38.89706066666667, "is_reserved": 0, "bike_id": "d61f6d797b76d1d9b97b41415c4d4865", "lon": -77.02306583333333, "is_disabled": 0, "fusion_lat": 0.0, "fusion_lon": 0.0, "name": "d61f6d797b76d1d9b97b41415c4d4865", "type": "electric_scooter"}, {"rental_uris": {"ios": "https://dc.lft.to/lastmile_qr_scan", "android": "https://dc.lft.to/lastmile_qr_scan"}, "lat": 38.9027275, "is_reserved": 0, "bike_id": "de017a0485ebded9adbdef866a84635d", "lon": -77.0295085, "is_disabled": 0, "fusion_lat": 0.0, "fusion_lon": 0.0, "name": "de017a0485ebded9adbdef866a84635d", "type": "electric_scooter"}, {"rental_uris": {"ios": "https://dc.lft.to/lastmile_qr_scan", "android": "https://dc.lft.to/lastmile_qr_scan"}, "lat": 38.939095, "is_reserved": 0, "bike_id": "85da85660c45ef8780cf8ab41742920a", "lon": -77.03621116666666, "is_disabled": 0, "fusion_lat": 0.0, "fusion_lon": 0.0, "name": "85da85660c45ef8780cf8ab41742920a", "type": "electric_scooter"}, {"rental_uris": {"ios": "https://dc.lft.to/lastmile_qr_scan", "android": "https://dc.lft.to/lastmile_qr_scan"}, "lat": 38.91579133333333, "is_reserved": 0, "bike_id": "ad50703e6b7cdbaba0812acb0d59a47d", "lon": -77.04697616666667, "is_disabled": 0, "fusion_lat": 0.0, "fusion_lon": 0.0, "name": "ad50703e6b7cdbaba0812acb0d59a47d", "type": "electric_scooter"}, {"rental_uris": {"ios": "https://dc.lft.to/lastmile_qr_scan", "android": "https://dc.lft.to/lastmile_qr_scan"}, "lat": 38.89832116666667, "is_reserved": 0, "bike_id": "9940d00e8eb7e037ea84cdfc70777a7b", "lon": -77.033389, "is_disabled": 0, "fusion_lat": 0.0, "fusion_lon": 0.0, "name": "9940d00e8eb7e037ea84cdfc70777a7b", "type": "electric_scooter"}, {"rental_uris": {"ios": "https://dc.lft.to/lastmile_qr_scan", "android": "https://dc.lft.to/lastmile_qr_scan"}, "lat": 38.905956333333336, "is_reserved": 0, "bike_id": "7546f9c7ed98a92fbcb693f5243c40d8", "lon": -77.002061, "is_disabled": 0, "fusion_lat": 0.0, "fusion_lon": 0.0, "name": "7546f9c7ed98a92fbcb693f5243c40d8", "type": "electric_scooter"}, {"rental_uris": {"ios": "https://dc.lft.to/lastmile_qr_scan", "android": "https://dc.lft.to/lastmile_qr_scan"}, "lat": 38.89935716666667, "is_reserved": 0, "bike_id": "867b87042062eee7d8d275f2e2ccf62b", "lon": -77.02393766666667, "is_disabled": 0, "fusion_lat": 0.0, "fusion_lon": 0.0, "name": "867b87042062eee7d8d275f2e2ccf62b", "type": "electric_scooter"}, {"rental_uris": {"ios": "https://dc.lft.to/lastmile_qr_scan", "android": "https://dc.lft.to/lastmile_qr_scan"}, "lat": 38.91600066666667, "is_reserved": 0, "bike_id": "cd286a08c8d4a533fdd5b3ab68e344c3", "lon": -77.02105616666667, "is_disabled": 0, "fusion_lat": 0.0, "fusion_lon": 0.0, "name": "cd286a08c8d4a533fdd5b3ab68e344c3", "type": "electric_scooter"}, {"rental_uris": {"ios": "https://dc.lft.to/lastmile_qr_scan", "android": "https://dc.lft.to/lastmile_qr_scan"}, "lat": 38.92388716666667, "is_reserved": 0, "bike_id": "04f646990949a2c90a75bcb5e3ad30fa", "lon": -77.0297045, "is_disabled": 0, "fusion_lat": 0.0, "fusion_lon": 0.0, "name": "04f646990949a2c90a75bcb5e3ad30fa", "type": "electric_scooter"}, {"rental_uris": {"ios": "https://dc.lft.to/lastmile_qr_scan", "android": "https://dc.lft.to/lastmile_qr_scan"}, "lat": 38.9373565, "is_reserved": 0, "bike_id": "ccb28097762dc2043b5af3c0459a776e", "lon": -77.02452233333334, "is_disabled": 0, "fusion_lat": 0.0, "fusion_lon": 0.0, "name": "ccb28097762dc2043b5af3c0459a776e", "type": "electric_scooter"}, {"rental_uris": {"ios": "https://dc.lft.to/lastmile_qr_scan", "android": "https://dc.lft.to/lastmile_qr_scan"}, "lat": 38.927254833333336, "is_reserved": 0, "bike_id": "b3f3e5a87933e3e1884a05abdcbce4d2", "lon": -77.032403, "is_disabled": 0, "fusion_lat": 0.0, "fusion_lon": 0.0, "name": "b3f3e5a87933e3e1884a05abdcbce4d2", "type": "electric_scooter"}, {"rental_uris": {"ios": "https://dc.lft.to/lastmile_qr_scan", "android": "https://dc.lft.to/lastmile_qr_scan"}, "lat": 38.88741666666667, "is_reserved": 0, "bike_id": "0fa797e4c8742b669799681930973cc1", "lon": -77.01727166666667, "is_disabled": 0, "fusion_lat": 0.0, "fusion_lon": 0.0, "name": "0fa797e4c8742b669799681930973cc1", "type": "electric_scooter"}, {"rental_uris": {"ios": "https://dc.lft.to/lastmile_qr_scan", "android": "https://dc.lft.to/lastmile_qr_scan"}, "lat": 38.8580405, "is_reserved": 0, "bike_id": "989d34784320162688e377ba33212452", "lon": -76.986557, "is_disabled": 0, "fusion_lat": 0.0, "fusion_lon": 0.0, "name": "989d34784320162688e377ba33212452", "type": "electric_scooter"}, {"rental_uris": {"ios": "https://dc.lft.to/lastmile_qr_scan", "android": "https://dc.lft.to/lastmile_qr_scan"}, "lat": 38.911199833333335, "is_reserved": 0, "bike_id": "fba425abc47477ecc28f97b7bd7ca4d8", "lon": -77.04460733333333, "is_disabled": 0, "fusion_lat": 0.0, "fusion_lon": 0.0, "name": "fba425abc47477ecc28f97b7bd7ca4d8", "type": "electric_scooter"}, {"rental_uris": {"ios": "https://dc.lft.to/lastmile_qr_scan", "android": "https://dc.lft.to/lastmile_qr_scan"}, "lat": 38.88520483333333, "is_reserved": 0, "bike_id": "31217c4ddb26091437a34e6ed3d7c022", "lon": -77.002683, "is_disabled": 0, "fusion_lat": 0.0, "fusion_lon": 0.0, "name": "31217c4ddb26091437a34e6ed3d7c022", "type": "electric_scooter"}, {"rental_uris": {"ios": "https://dc.lft.to/lastmile_qr_scan", "android": "https://dc.lft.to/lastmile_qr_scan"}, "lat": 38.866266333333336, "is_reserved": 0, "bike_id": "22d6498b18edee94e686c91381f5d40b", "lon": -76.98712183333333, "is_disabled": 0, "fusion_lat": 0.0, "fusion_lon": 0.0, "name": "22d6498b18edee94e686c91381f5d40b", "type": "electric_scooter"}, {"rental_uris": {"ios": "https://dc.lft.to/lastmile_qr_scan", "android": "https://dc.lft.to/lastmile_qr_scan"}, "lat": 38.86509183333333, "is_reserved": 0, "bike_id": "e9459a8a2dee160bb8004fab8f59dd77", "lon": -76.97317533333333, "is_disabled": 0, "fusion_lat": 0.0, "fusion_lon": 0.0, "name": "e9459a8a2dee160bb8004fab8f59dd77", "type": "electric_bike"}, {"rental_uris": {"ios": "https://dc.lft.to/lastmile_qr_scan", "android": "https://dc.lft.to/lastmile_qr_scan"}, "lat": 38.88407566666667, "is_reserved": 0, "bike_id": "fd323ef9a71bad1a5b196b2f8ba01365", "lon": -77.01535866666667, "is_disabled": 0, "fusion_lat": 0.0, "fusion_lon": 0.0, "name": "fd323ef9a71bad1a5b196b2f8ba01365", "type": "electric_scooter"}, {"rental_uris": {"ios": "https://dc.lft.to/lastmile_qr_scan", "android": "https://dc.lft.to/lastmile_qr_scan"}, "lat": 38.82784433333333, "is_reserved": 0, "bike_id": "1b7833b2874867de0950fdc2b92084b5", "lon": -77.12490516666666, "is_disabled": 0, "fusion_lat": 0.0, "fusion_lon": 0.0, "name": "1b7833b2874867de0950fdc2b92084b5", "type": "electric_bike"}, {"rental_uris": {"ios": "https://dc.lft.to/lastmile_qr_scan", "android": "https://dc.lft.to/lastmile_qr_scan"}, "lat": 38.8668015, "is_reserved": 0, "bike_id": "ebcfed6616dc97d0adbd2281541a323b", "lon": -76.985688, "is_disabled": 0, "fusion_lat": 0.0, "fusion_lon": 0.0, "name": "ebcfed6616dc97d0adbd2281541a323b", "type": "electric_scooter"}, {"rental_uris": {"ios": "https://dc.lft.to/lastmile_qr_scan", "android": "https://dc.lft.to/lastmile_qr_scan"}, "lat": 38.90959566666667, "is_reserved": 0, "bike_id": "6416c728863740db8b686d55446f9bce", "lon": -76.98440116666667, "is_disabled": 0, "fusion_lat": 0.0, "fusion_lon": 0.0, "name": "6416c728863740db8b686d55446f9bce", "type": "electric_bike"}, {"rental_uris": {"ios": "https://dc.lft.to/lastmile_qr_scan", "android": "https://dc.lft.to/lastmile_qr_scan"}, "lat": 38.907710333333334, "is_reserved": 0, "bike_id": "e8bcc5a8154975c2d3fb21c8fcd52395", "lon": -77.0715415, "is_disabled": 0, "fusion_lat": 0.0, "fusion_lon": 0.0, "name": "e8bcc5a8154975c2d3fb21c8fcd52395", "type": "electric_scooter"}, {"rental_uris": {"ios": "https://dc.lft.to/lastmile_qr_scan", "android": "https://dc.lft.to/lastmile_qr_scan"}, "lat": 38.898443, "is_reserved": 0, "bike_id": "cacf5e4334f8708bc3d3f19db73627d0", "lon": -77.03344166666666, "is_disabled": 0, "fusion_lat": 0.0, "fusion_lon": 0.0, "name": "cacf5e4334f8708bc3d3f19db73627d0", "type": "electric_scooter"}, {"rental_uris": {"ios": "https://dc.lft.to/lastmile_qr_scan", "android": "https://dc.lft.to/lastmile_qr_scan"}, "lat": 38.901474, "is_reserved": 0, "bike_id": "ea8f6cb288bcaa7f9f588039e770fae4", "lon": -77.022881, "is_disabled": 0, "fusion_lat": 0.0, "fusion_lon": 0.0, "name": "ea8f6cb288bcaa7f9f588039e770fae4", "type": "electric_scooter"}, {"rental_uris": {"ios": "https://dc.lft.to/lastmile_qr_scan", "android": "https://dc.lft.to/lastmile_qr_scan"}, "lat": 38.910496333333334, "is_reserved": 0, "bike_id": "a4ea46a9736cfefb443bdeb5c8a13d15", "lon": -77.0408905, "is_disabled": 0, "fusion_lat": 0.0, "fusion_lon": 0.0, "name": "a4ea46a9736cfefb443bdeb5c8a13d15", "type": "electric_scooter"}, {"rental_uris": {"ios": "https://dc.lft.to/lastmile_qr_scan", "android": "https://dc.lft.to/lastmile_qr_scan"}, "lat": 38.8874425, "is_reserved": 0, "bike_id": "7787ef0b8dcf2748de0d6c7ae1893eed", "lon": -77.018024, "is_disabled": 0, "fusion_lat": 0.0, "fusion_lon": 0.0, "name": "7787ef0b8dcf2748de0d6c7ae1893eed", "type": "electric_scooter"}, {"rental_uris": {"ios": "https://dc.lft.to/lastmile_qr_scan", "android": "https://dc.lft.to/lastmile_qr_scan"}, "lat": 38.901848, "is_reserved": 0, "bike_id": "79600abbd0dffec99b4920c9aeea4008", "lon": -76.92899216666666, "is_disabled": 0, "fusion_lat": 0.0, "fusion_lon": 0.0, "name": "79600abbd0dffec99b4920c9aeea4008", "type": "electric_scooter"}, {"rental_uris": {"ios": "https://dc.lft.to/lastmile_qr_scan", "android": "https://dc.lft.to/lastmile_qr_scan"}, "lat": 38.88264083333333, "is_reserved": 0, "bike_id": "ad87d22fe282caff2991698be0cb420a", "lon": -76.99478683333334, "is_disabled": 0, "fusion_lat": 0.0, "fusion_lon": 0.0, "name": "ad87d22fe282caff2991698be0cb420a", "type": "electric_scooter"}, {"rental_uris": {"ios": "https://dc.lft.to/lastmile_qr_scan", "android": "https://dc.lft.to/lastmile_qr_scan"}, "lat": 38.892214333333335, "is_reserved": 0, "bike_id": "ffd4f58387d300b131ac938253a3af9d", "lon": -77.0480635, "is_disabled": 0, "fusion_lat": 0.0, "fusion_lon": 0.0, "name": "ffd4f58387d300b131ac938253a3af9d", "type": "electric_scooter"}, {"rental_uris": {"ios": "https://dc.lft.to/lastmile_qr_scan", "android": "https://dc.lft.to/lastmile_qr_scan"}, "lat": 38.903687166666664, "is_reserved": 0, "bike_id": "e6449cbd1829aced5804578319ca8ccd", "lon": -77.04007083333333, "is_disabled": 0, "fusion_lat": 0.0, "fusion_lon": 0.0, "name": "e6449cbd1829aced5804578319ca8ccd", "type": "electric_scooter"}, {"rental_uris": {"ios": "https://dc.lft.to/lastmile_qr_scan", "android": "https://dc.lft.to/lastmile_qr_scan"}, "lat": 38.91815416666667, "is_reserved": 0, "bike_id": "3f2ae241ae4c65b727652012a68430f8", "lon": -77.02716683333334, "is_disabled": 0, "fusion_lat": 0.0, "fusion_lon": 0.0, "name": "3f2ae241ae4c65b727652012a68430f8", "type": "electric_scooter"}, {"rental_uris": {"ios": "https://dc.lft.to/lastmile_qr_scan", "android": "https://dc.lft.to/lastmile_qr_scan"}, "lat": 38.924949, "is_reserved": 0, "bike_id": "bc7fc3c962519daa36e0e38b81360504", "lon": -77.02528233333334, "is_disabled": 0, "fusion_lat": 0.0, "fusion_lon": 0.0, "name": "bc7fc3c962519daa36e0e38b81360504", "type": "electric_scooter"}, {"rental_uris": {"ios": "https://dc.lft.to/lastmile_qr_scan", "android": "https://dc.lft.to/lastmile_qr_scan"}, "lat": 38.8919555, "is_reserved": 0, "bike_id": "4480e682d1f326bec1b3a28c14db76b0", "lon": -77.02380066666667, "is_disabled": 0, "fusion_lat": 0.0, "fusion_lon": 0.0, "name": "4480e682d1f326bec1b3a28c14db76b0", "type": "electric_scooter"}, {"rental_uris": {"ios": "https://dc.lft.to/lastmile_qr_scan", "android": "https://dc.lft.to/lastmile_qr_scan"}, "lat": 38.899490666666665, "is_reserved": 0, "bike_id": "3ed061c06030318d889bd7c797df80c5", "lon": -77.04876166666666, "is_disabled": 0, "fusion_lat": 0.0, "fusion_lon": 0.0, "name": "3ed061c06030318d889bd7c797df80c5", "type": "electric_scooter"}, {"rental_uris": {"ios": "https://dc.lft.to/lastmile_qr_scan", "android": "https://dc.lft.to/lastmile_qr_scan"}, "lat": 38.9023515, "is_reserved": 0, "bike_id": "673624a08e797d27beda43b868badc36", "lon": -77.00201633333333, "is_disabled": 0, "fusion_lat": 0.0, "fusion_lon": 0.0, "name": "673624a08e797d27beda43b868badc36", "type": "electric_scooter"}, {"rental_uris": {"ios": "https://dc.lft.to/lastmile_qr_scan", "android": "https://dc.lft.to/lastmile_qr_scan"}, "lat": 38.884396, "is_reserved": 0, "bike_id": "59478515010534dc7e5ce37735e3bec8", "lon": -76.99622166666667, "is_disabled": 0, "fusion_lat": 0.0, "fusion_lon": 0.0, "name": "59478515010534dc7e5ce37735e3bec8", "type": "electric_scooter"}, {"rental_uris": {"ios": "https://dc.lft.to/lastmile_qr_scan", "android": "https://dc.lft.to/lastmile_qr_scan"}, "lat": 38.92107033333333, "is_reserved": 0, "bike_id": "565c1e99827b92abe350d38e85693b66", "lon": -77.01803083333333, "is_disabled": 0, "fusion_lat": 0.0, "fusion_lon": 0.0, "name": "565c1e99827b92abe350d38e85693b66", "type": "electric_scooter"}, {"rental_uris": {"ios": "https://dc.lft.to/lastmile_qr_scan", "android": "https://dc.lft.to/lastmile_qr_scan"}, "lat": 38.921127, "is_reserved": 0, "bike_id": "6b126e1dff5b0d6cc614e54852cf5ba2", "lon": -77.0208125, "is_disabled": 0, "fusion_lat": 0.0, "fusion_lon": 0.0, "name": "6b126e1dff5b0d6cc614e54852cf5ba2", "type": "electric_scooter"}, {"rental_uris": {"ios": "https://dc.lft.to/lastmile_qr_scan", "android": "https://dc.lft.to/lastmile_qr_scan"}, "lat": 38.9110685, "is_reserved": 0, "bike_id": "fe405a9827d662d523e634cbe7c5b630", "lon": -77.03842366666667, "is_disabled": 0, "fusion_lat": 0.0, "fusion_lon": 0.0, "name": "fe405a9827d662d523e634cbe7c5b630", "type": "electric_scooter"}, {"rental_uris": {"ios": "https://dc.lft.to/lastmile_qr_scan", "android": "https://dc.lft.to/lastmile_qr_scan"}, "lat": 38.8934355, "is_reserved": 0, "bike_id": "2f7a15094ec197d68342c649920e31f5", "lon": -76.93972116666667, "is_disabled": 0, "fusion_lat": 0.0, "fusion_lon": 0.0, "name": "2f7a15094ec197d68342c649920e31f5", "type": "electric_scooter"}, {"rental_uris": {"ios": "https://dc.lft.to/lastmile_qr_scan", "android": "https://dc.lft.to/lastmile_qr_scan"}, "lat": 38.908168333333336, "is_reserved": 0, "bike_id": "97e2f640aeed3ce9ae15a9f9bd941eb2", "lon": -77.03944783333333, "is_disabled": 0, "fusion_lat": 0.0, "fusion_lon": 0.0, "name": "97e2f640aeed3ce9ae15a9f9bd941eb2", "type": "electric_scooter"}, {"rental_uris": {"ios": "https://dc.lft.to/lastmile_qr_scan", "android": "https://dc.lft.to/lastmile_qr_scan"}, "lat": 39.010761333333335, "is_reserved": 0, "bike_id": "e736234f368d80d28cdadcae775bf065", "lon": -76.91064416666667, "is_disabled": 0, "fusion_lat": 0.0, "fusion_lon": 0.0, "name": "e736234f368d80d28cdadcae775bf065", "type": "electric_bike"}, {"rental_uris": {"ios": "https://dc.lft.to/lastmile_qr_scan", "android": "https://dc.lft.to/lastmile_qr_scan"}, "lat": 38.91636116666667, "is_reserved": 0, "bike_id": "3a718d204ee5d208e430cb85a09ed0d2", "lon": -77.03220916666666, "is_disabled": 0, "fusion_lat": 0.0, "fusion_lon": 0.0, "name": "3a718d204ee5d208e430cb85a09ed0d2", "type": "electric_scooter"}, {"rental_uris": {"ios": "https://dc.lft.to/lastmile_qr_scan", "android": "https://dc.lft.to/lastmile_qr_scan"}, "lat": 38.89845433333333, "is_reserved": 0, "bike_id": "618bf8627265eb534c8f9d8dff4b637e", "lon": -77.0126675, "is_disabled": 0, "fusion_lat": 0.0, "fusion_lon": 0.0, "name": "618bf8627265eb534c8f9d8dff4b637e", "type": "electric_scooter"}, {"rental_uris": {"ios": "https://dc.lft.to/lastmile_qr_scan", "android": "https://dc.lft.to/lastmile_qr_scan"}, "lat": 38.9326185, "is_reserved": 0, "bike_id": "a9573dcdd467af3f483488f0a0257a7d", "lon": -77.03877683333333, "is_disabled": 0, "fusion_lat": 0.0, "fusion_lon": 0.0, "name": "a9573dcdd467af3f483488f0a0257a7d", "type": "electric_scooter"}, {"rental_uris": {"ios": "https://dc.lft.to/lastmile_qr_scan", "android": "https://dc.lft.to/lastmile_qr_scan"}, "lat": 38.90989733333333, "is_reserved": 0, "bike_id": "bcdc1d4dac3d387342abe38573a3cf53", "lon": -77.00503933333333, "is_disabled": 0, "fusion_lat": 0.0, "fusion_lon": 0.0, "name": "bcdc1d4dac3d387342abe38573a3cf53", "type": "electric_scooter"}, {"rental_uris": {"ios": "https://dc.lft.to/lastmile_qr_scan", "android": "https://dc.lft.to/lastmile_qr_scan"}, "lat": 38.90222833333333, "is_reserved": 0, "bike_id": "114ed91e92aa05c72292d1a036e6d8fa", "lon": -77.03942783333333, "is_disabled": 0, "fusion_lat": 0.0, "fusion_lon": 0.0, "name": "114ed91e92aa05c72292d1a036e6d8fa", "type": "electric_scooter"}, {"rental_uris": {"ios": "https://dc.lft.to/lastmile_qr_scan", "android": "https://dc.lft.to/lastmile_qr_scan"}, "lat": 38.897207, "is_reserved": 0, "bike_id": "db70d80cc993f3b53f92981954ef5f01", "lon": -77.02493066666666, "is_disabled": 0, "fusion_lat": 0.0, "fusion_lon": 0.0, "name": "db70d80cc993f3b53f92981954ef5f01", "type": "electric_scooter"}, {"rental_uris": {"ios": "https://dc.lft.to/lastmile_qr_scan", "android": "https://dc.lft.to/lastmile_qr_scan"}, "lat": 38.8946115, "is_reserved": 0, "bike_id": "334a1d4ae86a03d11f9353fc70c50485", "lon": -77.0205785, "is_disabled": 0, "fusion_lat": 0.0, "fusion_lon": 0.0, "name": "334a1d4ae86a03d11f9353fc70c50485", "type": "electric_scooter"}, {"rental_uris": {"ios": "https://dc.lft.to/lastmile_qr_scan", "android": "https://dc.lft.to/lastmile_qr_scan"}, "lat": 38.94439633333333, "is_reserved": 0, "bike_id": "1661e99efaaab30fd784aea40da2e30c", "lon": -77.06408216666667, "is_disabled": 0, "fusion_lat": 0.0, "fusion_lon": 0.0, "name": "1661e99efaaab30fd784aea40da2e30c", "type": "electric_scooter"}, {"rental_uris": {"ios": "https://dc.lft.to/lastmile_qr_scan", "android": "https://dc.lft.to/lastmile_qr_scan"}, "lat": 38.902233833333334, "is_reserved": 0, "bike_id": "0d09d3293534cfaac54de0cb7a547d54", "lon": -77.03922516666667, "is_disabled": 0, "fusion_lat": 0.0, "fusion_lon": 0.0, "name": "0d09d3293534cfaac54de0cb7a547d54", "type": "electric_scooter"}, {"rental_uris": {"ios": "https://dc.lft.to/lastmile_qr_scan", "android": "https://dc.lft.to/lastmile_qr_scan"}, "lat": 38.911078833333335, "is_reserved": 0, "bike_id": "e7c4579e5872b80884fb83e14a823b4c", "lon": -77.038396, "is_disabled": 0, "fusion_lat": 0.0, "fusion_lon": 0.0, "name": "e7c4579e5872b80884fb83e14a823b4c", "type": "electric_scooter"}, {"rental_uris": {"ios": "https://dc.lft.to/lastmile_qr_scan", "android": "https://dc.lft.to/lastmile_qr_scan"}, "lat": 38.8769, "is_reserved": 0, "bike_id": "4622581900afa3897efb19b6b6fafe22", "lon": -77.0044295, "is_disabled": 0, "fusion_lat": 0.0, "fusion_lon": 0.0, "name": "4622581900afa3897efb19b6b6fafe22", "type": "electric_scooter"}, {"rental_uris": {"ios": "https://dc.lft.to/lastmile_qr_scan", "android": "https://dc.lft.to/lastmile_qr_scan"}, "lat": 38.90864716666667, "is_reserved": 0, "bike_id": "01ab9e4b11d38aca69e50506ba977f20", "lon": -77.07163766666666, "is_disabled": 0, "fusion_lat": 0.0, "fusion_lon": 0.0, "name": "01ab9e4b11d38aca69e50506ba977f20", "type": "electric_scooter"}, {"rental_uris": {"ios": "https://dc.lft.to/lastmile_qr_scan", "android": "https://dc.lft.to/lastmile_qr_scan"}, "lat": 38.87694533333333, "is_reserved": 0, "bike_id": "1b0343ca7170f2ab2e322dfc482fe5d4", "lon": -77.00430583333333, "is_disabled": 0, "fusion_lat": 0.0, "fusion_lon": 0.0, "name": "1b0343ca7170f2ab2e322dfc482fe5d4", "type": "electric_scooter"}, {"rental_uris": {"ios": "https://dc.lft.to/lastmile_qr_scan", "android": "https://dc.lft.to/lastmile_qr_scan"}, "lat": 38.8874435, "is_reserved": 0, "bike_id": "fafe241787d583b98a634348f89b85f7", "lon": -77.028434, "is_disabled": 0, "fusion_lat": 0.0, "fusion_lon": 0.0, "name": "fafe241787d583b98a634348f89b85f7", "type": "electric_scooter"}, {"rental_uris": {"ios": "https://dc.lft.to/lastmile_qr_scan", "android": "https://dc.lft.to/lastmile_qr_scan"}, "lat": 38.90466683333333, "is_reserved": 0, "bike_id": "ec819e2cd205837210357b32a1fdd67a", "lon": -77.039458, "is_disabled": 0, "fusion_lat": 0.0, "fusion_lon": 0.0, "name": "ec819e2cd205837210357b32a1fdd67a", "type": "electric_scooter"}, {"rental_uris": {"ios": "https://dc.lft.to/lastmile_qr_scan", "android": "https://dc.lft.to/lastmile_qr_scan"}, "lat": 38.934734666666664, "is_reserved": 0, "bike_id": "91b106241790a343655b8d42e21dbbef", "lon": -77.08665566666667, "is_disabled": 0, "fusion_lat": 0.0, "fusion_lon": 0.0, "name": "91b106241790a343655b8d42e21dbbef", "type": "electric_scooter"}, {"rental_uris": {"ios": "https://dc.lft.to/lastmile_qr_scan", "android": "https://dc.lft.to/lastmile_qr_scan"}, "lat": 38.897427, "is_reserved": 0, "bike_id": "9c8dc8ddf0633411bc18b4d93bc61267", "lon": -77.0307805, "is_disabled": 0, "fusion_lat": 0.0, "fusion_lon": 0.0, "name": "9c8dc8ddf0633411bc18b4d93bc61267", "type": "electric_scooter"}, {"rental_uris": {"ios": "https://dc.lft.to/lastmile_qr_scan", "android": "https://dc.lft.to/lastmile_qr_scan"}, "lat": 38.93925983333333, "is_reserved": 0, "bike_id": "66647659bd372d07ec7768cff1a9fd22", "lon": -77.02794366666667, "is_disabled": 0, "fusion_lat": 0.0, "fusion_lon": 0.0, "name": "66647659bd372d07ec7768cff1a9fd22", "type": "electric_scooter"}, {"rental_uris": {"ios": "https://dc.lft.to/lastmile_qr_scan", "android": "https://dc.lft.to/lastmile_qr_scan"}, "lat": 38.91649366666667, "is_reserved": 0, "bike_id": "11395506c5dea87cbd86228807525cbe", "lon": -77.041662, "is_disabled": 0, "fusion_lat": 0.0, "fusion_lon": 0.0, "name": "11395506c5dea87cbd86228807525cbe", "type": "electric_scooter"}, {"rental_uris": {"ios": "https://dc.lft.to/lastmile_qr_scan", "android": "https://dc.lft.to/lastmile_qr_scan"}, "lat": 38.93428016666667, "is_reserved": 0, "bike_id": "c667538ed643604561ba89f47232c295", "lon": -77.05585633333334, "is_disabled": 0, "fusion_lat": 0.0, "fusion_lon": 0.0, "name": "c667538ed643604561ba89f47232c295", "type": "electric_scooter"}, {"rental_uris": {"ios": "https://dc.lft.to/lastmile_qr_scan", "android": "https://dc.lft.to/lastmile_qr_scan"}, "lat": 38.89533433333333, "is_reserved": 0, "bike_id": "ab1093a8fb5455baa493ddedaca306e9", "lon": -77.04846466666666, "is_disabled": 0, "fusion_lat": 0.0, "fusion_lon": 0.0, "name": "ab1093a8fb5455baa493ddedaca306e9", "type": "electric_scooter"}, {"rental_uris": {"ios": "https://dc.lft.to/lastmile_qr_scan", "android": "https://dc.lft.to/lastmile_qr_scan"}, "lat": 38.864462333333336, "is_reserved": 0, "bike_id": "2ec269c4eaccb73838b885836b70d721", "lon": -77.10687066666667, "is_disabled": 0, "fusion_lat": 0.0, "fusion_lon": 0.0, "name": "2ec269c4eaccb73838b885836b70d721", "type": "electric_bike"}, {"rental_uris": {"ios": "https://dc.lft.to/lastmile_qr_scan", "android": "https://dc.lft.to/lastmile_qr_scan"}, "lat": 38.90623883333333, "is_reserved": 0, "bike_id": "0f87eab9b773449076ee0f42a0bd4140", "lon": -77.010152, "is_disabled": 0, "fusion_lat": 0.0, "fusion_lon": 0.0, "name": "0f87eab9b773449076ee0f42a0bd4140", "type": "electric_scooter"}, {"rental_uris": {"ios": "https://dc.lft.to/lastmile_qr_scan", "android": "https://dc.lft.to/lastmile_qr_scan"}, "lat": 38.90269683333333, "is_reserved": 0, "bike_id": "308f5860d0d4d025995a44de1752c0ad", "lon": -77.02996616666667, "is_disabled": 0, "fusion_lat": 0.0, "fusion_lon": 0.0, "name": "308f5860d0d4d025995a44de1752c0ad", "type": "electric_scooter"}, {"rental_uris": {"ios": "https://dc.lft.to/lastmile_qr_scan", "android": "https://dc.lft.to/lastmile_qr_scan"}, "lat": 38.90370766666667, "is_reserved": 0, "bike_id": "e8b6c3a2269607d8e7655684011f3d27", "lon": -77.04491983333334, "is_disabled": 0, "fusion_lat": 0.0, "fusion_lon": 0.0, "name": "e8b6c3a2269607d8e7655684011f3d27", "type": "electric_scooter"}, {"rental_uris": {"ios": "https://dc.lft.to/lastmile_qr_scan", "android": "https://dc.lft.to/lastmile_qr_scan"}, "lat": 38.907242, "is_reserved": 0, "bike_id": "bc7e894ac3330fd0af22a439a7f78d48", "lon": -77.02492516666666, "is_disabled": 0, "fusion_lat": 0.0, "fusion_lon": 0.0, "name": "bc7e894ac3330fd0af22a439a7f78d48", "type": "electric_scooter"}, {"rental_uris": {"ios": "https://dc.lft.to/lastmile_qr_scan", "android": "https://dc.lft.to/lastmile_qr_scan"}, "lat": 38.9240855, "is_reserved": 0, "bike_id": "2b778bf7fec18479722b0517c3018d4a", "lon": -77.02004233333334, "is_disabled": 0, "fusion_lat": 0.0, "fusion_lon": 0.0, "name": "2b778bf7fec18479722b0517c3018d4a", "type": "electric_scooter"}, {"rental_uris": {"ios": "https://dc.lft.to/lastmile_qr_scan", "android": "https://dc.lft.to/lastmile_qr_scan"}, "lat": 38.88123083333333, "is_reserved": 0, "bike_id": "e12e543f7e3911091d79472ec1c78c27", "lon": -77.01645466666666, "is_disabled": 0, "fusion_lat": 0.0, "fusion_lon": 0.0, "name": "e12e543f7e3911091d79472ec1c78c27", "type": "electric_scooter"}, {"rental_uris": {"ios": "https://dc.lft.to/lastmile_qr_scan", "android": "https://dc.lft.to/lastmile_qr_scan"}, "lat": 38.9077405, "is_reserved": 0, "bike_id": "dbf2b30861321af77fd922de073e8aa5", "lon": -77.03764966666667, "is_disabled": 0, "fusion_lat": 0.0, "fusion_lon": 0.0, "name": "dbf2b30861321af77fd922de073e8aa5", "type": "electric_bike"}, {"rental_uris": {"ios": "https://dc.lft.to/lastmile_qr_scan", "android": "https://dc.lft.to/lastmile_qr_scan"}, "lat": 38.941621166666664, "is_reserved": 0, "bike_id": "d8ac5c1c2c32ec843370684b154bc66c", "lon": -77.02557716666666, "is_disabled": 0, "fusion_lat": 0.0, "fusion_lon": 0.0, "name": "d8ac5c1c2c32ec843370684b154bc66c", "type": "electric_scooter"}, {"rental_uris": {"ios": "https://dc.lft.to/lastmile_qr_scan", "android": "https://dc.lft.to/lastmile_qr_scan"}, "lat": 38.88718883333333, "is_reserved": 0, "bike_id": "6068488a9a516a87ae05ce18e2d59e5f", "lon": -77.03179966666667, "is_disabled": 0, "fusion_lat": 0.0, "fusion_lon": 0.0, "name": "6068488a9a516a87ae05ce18e2d59e5f", "type": "electric_scooter"}, {"rental_uris": {"ios": "https://dc.lft.to/lastmile_qr_scan", "android": "https://dc.lft.to/lastmile_qr_scan"}, "lat": 38.89934266666667, "is_reserved": 0, "bike_id": "96ff03f3d6adbbcf639ced59f65ab028", "lon": -76.997242, "is_disabled": 0, "fusion_lat": 0.0, "fusion_lon": 0.0, "name": "96ff03f3d6adbbcf639ced59f65ab028", "type": "electric_scooter"}, {"rental_uris": {"ios": "https://dc.lft.to/lastmile_qr_scan", "android": "https://dc.lft.to/lastmile_qr_scan"}, "lat": 38.934249666666666, "is_reserved": 0, "bike_id": "4d7bb30e184144173a4ea4394c1253d6", "lon": -77.04000466666666, "is_disabled": 0, "fusion_lat": 0.0, "fusion_lon": 0.0, "name": "4d7bb30e184144173a4ea4394c1253d6", "type": "electric_scooter"}, {"rental_uris": {"ios": "https://dc.lft.to/lastmile_qr_scan", "android": "https://dc.lft.to/lastmile_qr_scan"}, "lat": 38.935326333333336, "is_reserved": 0, "bike_id": "04edc83b71edd0ec0434d7f7ec0b0192", "lon": -77.03088933333333, "is_disabled": 0, "fusion_lat": 0.0, "fusion_lon": 0.0, "name": "04edc83b71edd0ec0434d7f7ec0b0192", "type": "electric_scooter"}, {"rental_uris": {"ios": "https://dc.lft.to/lastmile_qr_scan", "android": "https://dc.lft.to/lastmile_qr_scan"}, "lat": 38.866864166666666, "is_reserved": 0, "bike_id": "2e442ca23f09db13600860d964df36fa", "lon": -76.9854645, "is_disabled": 0, "fusion_lat": 0.0, "fusion_lon": 0.0, "name": "2e442ca23f09db13600860d964df36fa", "type": "electric_scooter"}, {"rental_uris": {"ios": "https://dc.lft.to/lastmile_qr_scan", "android": "https://dc.lft.to/lastmile_qr_scan"}, "lat": 38.898279, "is_reserved": 0, "bike_id": "ce6d7cbf6e65bf2361b50147a138928d", "lon": -76.9462915, "is_disabled": 0, "fusion_lat": 0.0, "fusion_lon": 0.0, "name": "ce6d7cbf6e65bf2361b50147a138928d", "type": "electric_scooter"}, {"rental_uris": {"ios": "https://dc.lft.to/lastmile_qr_scan", "android": "https://dc.lft.to/lastmile_qr_scan"}, "lat": 38.907172333333335, "is_reserved": 0, "bike_id": "c5bd899a952723c56398cf3e9a4b6e4c", "lon": -77.01913566666667, "is_disabled": 0, "fusion_lat": 0.0, "fusion_lon": 0.0, "name": "c5bd899a952723c56398cf3e9a4b6e4c", "type": "electric_scooter"}, {"rental_uris": {"ios": "https://dc.lft.to/lastmile_qr_scan", "android": "https://dc.lft.to/lastmile_qr_scan"}, "lat": 38.88742333333333, "is_reserved": 0, "bike_id": "c5abb01fdee507c7a133732f3e8962e1", "lon": -77.02277466666666, "is_disabled": 0, "fusion_lat": 0.0, "fusion_lon": 0.0, "name": "c5abb01fdee507c7a133732f3e8962e1", "type": "electric_scooter"}, {"rental_uris": {"ios": "https://dc.lft.to/lastmile_qr_scan", "android": "https://dc.lft.to/lastmile_qr_scan"}, "lat": 38.9057765, "is_reserved": 0, "bike_id": "21ea5b3f6c38d4a1322eab6f01b26cad", "lon": -77.040472, "is_disabled": 0, "fusion_lat": 0.0, "fusion_lon": 0.0, "name": "21ea5b3f6c38d4a1322eab6f01b26cad", "type": "electric_scooter"}, {"rental_uris": {"ios": "https://dc.lft.to/lastmile_qr_scan", "android": "https://dc.lft.to/lastmile_qr_scan"}, "lat": 38.91815233333333, "is_reserved": 0, "bike_id": "89afc7526194b87eb6376636460e9727", "lon": -77.02479333333333, "is_disabled": 0, "fusion_lat": 0.0, "fusion_lon": 0.0, "name": "89afc7526194b87eb6376636460e9727", "type": "electric_scooter"}, {"rental_uris": {"ios": "https://dc.lft.to/lastmile_qr_scan", "android": "https://dc.lft.to/lastmile_qr_scan"}, "lat": 38.8524525, "is_reserved": 0, "bike_id": "4a1de58f85ca3817addff10f3b16f8c1", "lon": -77.10791933333333, "is_disabled": 0, "fusion_lat": 0.0, "fusion_lon": 0.0, "name": "4a1de58f85ca3817addff10f3b16f8c1", "type": "electric_bike"}, {"rental_uris": {"ios": "https://dc.lft.to/lastmile_qr_scan", "android": "https://dc.lft.to/lastmile_qr_scan"}, "lat": 38.93497416666666, "is_reserved": 0, "bike_id": "4decb4a53f0a42dae230a109f67f071f", "lon": -77.08161683333333, "is_disabled": 0, "fusion_lat": 0.0, "fusion_lon": 0.0, "name": "4decb4a53f0a42dae230a109f67f071f", "type": "electric_scooter"}, {"rental_uris": {"ios": "https://dc.lft.to/lastmile_qr_scan", "android": "https://dc.lft.to/lastmile_qr_scan"}, "lat": 38.902468999999996, "is_reserved": 0, "bike_id": "67eb3051a8e3d63545977e15e964e386", "lon": -77.04465916666666, "is_disabled": 0, "fusion_lat": 0.0, "fusion_lon": 0.0, "name": "67eb3051a8e3d63545977e15e964e386", "type": "electric_scooter"}, {"rental_uris": {"ios": "https://dc.lft.to/lastmile_qr_scan", "android": "https://dc.lft.to/lastmile_qr_scan"}, "lat": 38.907309833333336, "is_reserved": 0, "bike_id": "a38eb63aa28c13e0170388d4f24c79c8", "lon": -77.00935783333334, "is_disabled": 0, "fusion_lat": 0.0, "fusion_lon": 0.0, "name": "a38eb63aa28c13e0170388d4f24c79c8", "type": "electric_scooter"}, {"rental_uris": {"ios": "https://dc.lft.to/lastmile_qr_scan", "android": "https://dc.lft.to/lastmile_qr_scan"}, "lat": 38.91813466666667, "is_reserved": 0, "bike_id": "02f40e7b92850a8c4a795549558e29d5", "lon": -77.03699866666666, "is_disabled": 0, "fusion_lat": 0.0, "fusion_lon": 0.0, "name": "02f40e7b92850a8c4a795549558e29d5", "type": "electric_scooter"}, {"rental_uris": {"ios": "https://dc.lft.to/lastmile_qr_scan", "android": "https://dc.lft.to/lastmile_qr_scan"}, "lat": 38.821704833333335, "is_reserved": 0, "bike_id": "4757ff632cad75850569ec2947c5d2d0", "lon": -76.99518116666667, "is_disabled": 0, "fusion_lat": 0.0, "fusion_lon": 0.0, "name": "4757ff632cad75850569ec2947c5d2d0", "type": "electric_bike"}, {"rental_uris": {"ios": "https://dc.lft.to/lastmile_qr_scan", "android": "https://dc.lft.to/lastmile_qr_scan"}, "lat": 38.9024065, "is_reserved": 0, "bike_id": "84d91831b508d67591335591959ba53a", "lon": -77.00196666666666, "is_disabled": 0, "fusion_lat": 0.0, "fusion_lon": 0.0, "name": "84d91831b508d67591335591959ba53a", "type": "electric_scooter"}, {"rental_uris": {"ios": "https://dc.lft.to/lastmile_qr_scan", "android": "https://dc.lft.to/lastmile_qr_scan"}, "lat": 38.92783433333334, "is_reserved": 0, "bike_id": "1f5ba856448959c34e317e90b7017535", "lon": -77.032146, "is_disabled": 0, "fusion_lat": 0.0, "fusion_lon": 0.0, "name": "1f5ba856448959c34e317e90b7017535", "type": "electric_scooter"}, {"rental_uris": {"ios": "https://dc.lft.to/lastmile_qr_scan", "android": "https://dc.lft.to/lastmile_qr_scan"}, "lat": 38.92516766666667, "is_reserved": 0, "bike_id": "a4309e3457e1ab00198ad44bcb370bbe", "lon": -77.05132666666667, "is_disabled": 0, "fusion_lat": 0.0, "fusion_lon": 0.0, "name": "a4309e3457e1ab00198ad44bcb370bbe", "type": "electric_scooter"}, {"rental_uris": {"ios": "https://dc.lft.to/lastmile_qr_scan", "android": "https://dc.lft.to/lastmile_qr_scan"}, "lat": 38.90937183333333, "is_reserved": 0, "bike_id": "7243b58713270a6c5057754bb9013276", "lon": -77.02816533333333, "is_disabled": 0, "fusion_lat": 0.0, "fusion_lon": 0.0, "name": "7243b58713270a6c5057754bb9013276", "type": "electric_scooter"}, {"rental_uris": {"ios": "https://dc.lft.to/lastmile_qr_scan", "android": "https://dc.lft.to/lastmile_qr_scan"}, "lat": 38.90023516666667, "is_reserved": 0, "bike_id": "4f18c1ba549b1794540854bd281e5764", "lon": -76.98905816666667, "is_disabled": 0, "fusion_lat": 0.0, "fusion_lon": 0.0, "name": "4f18c1ba549b1794540854bd281e5764", "type": "electric_scooter"}, {"rental_uris": {"ios": "https://dc.lft.to/lastmile_qr_scan", "android": "https://dc.lft.to/lastmile_qr_scan"}, "lat": 38.941293333333334, "is_reserved": 0, "bike_id": "d7a63832953828e2bb469dce5fdef8e5", "lon": -77.0154585, "is_disabled": 0, "fusion_lat": 0.0, "fusion_lon": 0.0, "name": "d7a63832953828e2bb469dce5fdef8e5", "type": "electric_scooter"}, {"rental_uris": {"ios": "https://dc.lft.to/lastmile_qr_scan", "android": "https://dc.lft.to/lastmile_qr_scan"}, "lat": 38.884293166666666, "is_reserved": 0, "bike_id": "d0ea4ff2c55473f4e74764016d80912b", "lon": -77.0150355, "is_disabled": 0, "fusion_lat": 0.0, "fusion_lon": 0.0, "name": "d0ea4ff2c55473f4e74764016d80912b", "type": "electric_scooter"}, {"rental_uris": {"ios": "https://dc.lft.to/lastmile_qr_scan", "android": "https://dc.lft.to/lastmile_qr_scan"}, "lat": 38.89452466666667, "is_reserved": 0, "bike_id": "77e2c9c2f0274678de85f876582ef6f7", "lon": -77.01878116666667, "is_disabled": 0, "fusion_lat": 0.0, "fusion_lon": 0.0, "name": "77e2c9c2f0274678de85f876582ef6f7", "type": "electric_scooter"}, {"rental_uris": {"ios": "https://dc.lft.to/lastmile_qr_scan", "android": "https://dc.lft.to/lastmile_qr_scan"}, "lat": 38.928481833333336, "is_reserved": 0, "bike_id": "20ebcba80c71f2e018a4b674ab43a31f", "lon": -77.03593266666667, "is_disabled": 0, "fusion_lat": 0.0, "fusion_lon": 0.0, "name": "20ebcba80c71f2e018a4b674ab43a31f", "type": "electric_scooter"}, {"rental_uris": {"ios": "https://dc.lft.to/lastmile_qr_scan", "android": "https://dc.lft.to/lastmile_qr_scan"}, "lat": 38.9278415, "is_reserved": 0, "bike_id": "c7b63482beae7ed13524ecc73e5c539b", "lon": -77.02314466666667, "is_disabled": 0, "fusion_lat": 0.0, "fusion_lon": 0.0, "name": "c7b63482beae7ed13524ecc73e5c539b", "type": "electric_scooter"}, {"rental_uris": {"ios": "https://dc.lft.to/lastmile_qr_scan", "android": "https://dc.lft.to/lastmile_qr_scan"}, "lat": 38.9002315, "is_reserved": 0, "bike_id": "e14ef89e2e1bb78f6ef8de1508627632", "lon": -77.01178916666667, "is_disabled": 0, "fusion_lat": 0.0, "fusion_lon": 0.0, "name": "e14ef89e2e1bb78f6ef8de1508627632", "type": "electric_scooter"}, {"rental_uris": {"ios": "https://dc.lft.to/lastmile_qr_scan", "android": "https://dc.lft.to/lastmile_qr_scan"}, "lat": 38.897239166666665, "is_reserved": 0, "bike_id": "c365f477a03af2dec988f54043455346", "lon": -77.026839, "is_disabled": 0, "fusion_lat": 0.0, "fusion_lon": 0.0, "name": "c365f477a03af2dec988f54043455346", "type": "electric_scooter"}, {"rental_uris": {"ios": "https://dc.lft.to/lastmile_qr_scan", "android": "https://dc.lft.to/lastmile_qr_scan"}, "lat": 38.92831116666667, "is_reserved": 0, "bike_id": "1196836ad5bfcb15d762fcaa67b9bf53", "lon": -77.04346416666667, "is_disabled": 0, "fusion_lat": 0.0, "fusion_lon": 0.0, "name": "1196836ad5bfcb15d762fcaa67b9bf53", "type": "electric_scooter"}, {"rental_uris": {"ios": "https://dc.lft.to/lastmile_qr_scan", "android": "https://dc.lft.to/lastmile_qr_scan"}, "lat": 38.911181666666664, "is_reserved": 0, "bike_id": "8cf90ecf69bca8ab676bbcb55ebeb4d7", "lon": -77.00602416666666, "is_disabled": 0, "fusion_lat": 0.0, "fusion_lon": 0.0, "name": "8cf90ecf69bca8ab676bbcb55ebeb4d7", "type": "electric_scooter"}, {"rental_uris": {"ios": "https://dc.lft.to/lastmile_qr_scan", "android": "https://dc.lft.to/lastmile_qr_scan"}, "lat": 38.91599316666667, "is_reserved": 0, "bike_id": "260759c8ff08f3eb8c5cad07704c1b33", "lon": -77.04661083333333, "is_disabled": 0, "fusion_lat": 0.0, "fusion_lon": 0.0, "name": "260759c8ff08f3eb8c5cad07704c1b33", "type": "electric_scooter"}, {"rental_uris": {"ios": "https://dc.lft.to/lastmile_qr_scan", "android": "https://dc.lft.to/lastmile_qr_scan"}, "lat": 38.873709166666664, "is_reserved": 0, "bike_id": "35f1b0cc419475fc79e06dab92649630", "lon": -77.00114816666667, "is_disabled": 0, "fusion_lat": 0.0, "fusion_lon": 0.0, "name": "35f1b0cc419475fc79e06dab92649630", "type": "electric_scooter"}, {"rental_uris": {"ios": "https://dc.lft.to/lastmile_qr_scan", "android": "https://dc.lft.to/lastmile_qr_scan"}, "lat": 38.9012675, "is_reserved": 0, "bike_id": "30e80bc22f2c1156a337dc1eb22d47d0", "lon": -77.03218516666666, "is_disabled": 0, "fusion_lat": 0.0, "fusion_lon": 0.0, "name": "30e80bc22f2c1156a337dc1eb22d47d0", "type": "electric_scooter"}, {"rental_uris": {"ios": "https://dc.lft.to/lastmile_qr_scan", "android": "https://dc.lft.to/lastmile_qr_scan"}, "lat": 38.933982, "is_reserved": 0, "bike_id": "1c8ff8c55f9a50de676e9c600b66413f", "lon": -77.05744766666666, "is_disabled": 0, "fusion_lat": 0.0, "fusion_lon": 0.0, "name": "1c8ff8c55f9a50de676e9c600b66413f", "type": "electric_scooter"}, {"rental_uris": {"ios": "https://dc.lft.to/lastmile_qr_scan", "android": "https://dc.lft.to/lastmile_qr_scan"}, "lat": 38.892294, "is_reserved": 0, "bike_id": "6647ddbea76b004abeceab3e42fbb060", "lon": -77.01764416666667, "is_disabled": 0, "fusion_lat": 0.0, "fusion_lon": 0.0, "name": "6647ddbea76b004abeceab3e42fbb060", "type": "electric_scooter"}, {"rental_uris": {"ios": "https://dc.lft.to/lastmile_qr_scan", "android": "https://dc.lft.to/lastmile_qr_scan"}, "lat": 38.91414366666667, "is_reserved": 0, "bike_id": "888bc2e9147d9eaa8298d628fd517889", "lon": -77.02327816666667, "is_disabled": 0, "fusion_lat": 0.0, "fusion_lon": 0.0, "name": "888bc2e9147d9eaa8298d628fd517889", "type": "electric_scooter"}, {"rental_uris": {"ios": "https://dc.lft.to/lastmile_qr_scan", "android": "https://dc.lft.to/lastmile_qr_scan"}, "lat": 38.9210125, "is_reserved": 0, "bike_id": "c6be3903b6be84cca157f5dbb6e3694a", "lon": -77.017726, "is_disabled": 0, "fusion_lat": 0.0, "fusion_lon": 0.0, "name": "c6be3903b6be84cca157f5dbb6e3694a", "type": "electric_scooter"}, {"rental_uris": {"ios": "https://dc.lft.to/lastmile_qr_scan", "android": "https://dc.lft.to/lastmile_qr_scan"}, "lat": 38.926733166666665, "is_reserved": 0, "bike_id": "6b22ef1120bc385a45dc8a8643013e5a", "lon": -77.03792066666666, "is_disabled": 0, "fusion_lat": 0.0, "fusion_lon": 0.0, "name": "6b22ef1120bc385a45dc8a8643013e5a", "type": "electric_scooter"}, {"rental_uris": {"ios": "https://dc.lft.to/lastmile_qr_scan", "android": "https://dc.lft.to/lastmile_qr_scan"}, "lat": 38.91754566666667, "is_reserved": 0, "bike_id": "966aed22c27595c247a7a38767f73d20", "lon": -77.02812133333333, "is_disabled": 0, "fusion_lat": 0.0, "fusion_lon": 0.0, "name": "966aed22c27595c247a7a38767f73d20", "type": "electric_scooter"}, {"rental_uris": {"ios": "https://dc.lft.to/lastmile_qr_scan", "android": "https://dc.lft.to/lastmile_qr_scan"}, "lat": 38.91703583333334, "is_reserved": 0, "bike_id": "4172acba8c421367d512b4d589c5551e", "lon": -77.03863683333333, "is_disabled": 0, "fusion_lat": 0.0, "fusion_lon": 0.0, "name": "4172acba8c421367d512b4d589c5551e", "type": "electric_scooter"}, {"rental_uris": {"ios": "https://dc.lft.to/lastmile_qr_scan", "android": "https://dc.lft.to/lastmile_qr_scan"}, "lat": 38.9199555, "is_reserved": 0, "bike_id": "f1a6b70f999f3e31d911b9327facb901", "lon": -77.0322175, "is_disabled": 0, "fusion_lat": 0.0, "fusion_lon": 0.0, "name": "f1a6b70f999f3e31d911b9327facb901", "type": "electric_scooter"}, {"rental_uris": {"ios": "https://dc.lft.to/lastmile_qr_scan", "android": "https://dc.lft.to/lastmile_qr_scan"}, "lat": 38.9278035, "is_reserved": 0, "bike_id": "ac9a8c5545ef42e8a8b727284647269c", "lon": -77.0231135, "is_disabled": 0, "fusion_lat": 0.0, "fusion_lon": 0.0, "name": "ac9a8c5545ef42e8a8b727284647269c", "type": "electric_scooter"}, {"rental_uris": {"ios": "https://dc.lft.to/lastmile_qr_scan", "android": "https://dc.lft.to/lastmile_qr_scan"}, "lat": 38.91577066666667, "is_reserved": 0, "bike_id": "6144d6b96d2eee6f44ecd0f12bd9ef4e", "lon": -77.0318195, "is_disabled": 0, "fusion_lat": 0.0, "fusion_lon": 0.0, "name": "6144d6b96d2eee6f44ecd0f12bd9ef4e", "type": "electric_scooter"}, {"rental_uris": {"ios": "https://dc.lft.to/lastmile_qr_scan", "android": "https://dc.lft.to/lastmile_qr_scan"}, "lat": 38.855951, "is_reserved": 0, "bike_id": "38d4bf1f11c0440eb7f01901c358e808", "lon": -76.98728766666666, "is_disabled": 0, "fusion_lat": 0.0, "fusion_lon": 0.0, "name": "38d4bf1f11c0440eb7f01901c358e808", "type": "electric_scooter"}, {"rental_uris": {"ios": "https://dc.lft.to/lastmile_qr_scan", "android": "https://dc.lft.to/lastmile_qr_scan"}, "lat": 38.904238666666664, "is_reserved": 0, "bike_id": "b1f8a66197caad760c8939cda9ff2c4c", "lon": -77.043609, "is_disabled": 0, "fusion_lat": 0.0, "fusion_lon": 0.0, "name": "b1f8a66197caad760c8939cda9ff2c4c", "type": "electric_scooter"}, {"rental_uris": {"ios": "https://dc.lft.to/lastmile_qr_scan", "android": "https://dc.lft.to/lastmile_qr_scan"}, "lat": 38.931006833333335, "is_reserved": 0, "bike_id": "342cd97a4f9c60110eb758269e52b63f", "lon": -77.02119266666666, "is_disabled": 0, "fusion_lat": 0.0, "fusion_lon": 0.0, "name": "342cd97a4f9c60110eb758269e52b63f", "type": "electric_scooter"}, {"rental_uris": {"ios": "https://dc.lft.to/lastmile_qr_scan", "android": "https://dc.lft.to/lastmile_qr_scan"}, "lat": 38.92046166666667, "is_reserved": 0, "bike_id": "5bc2cc17ef544f58c6721cca4f6588de", "lon": -77.0257835, "is_disabled": 0, "fusion_lat": 0.0, "fusion_lon": 0.0, "name": "5bc2cc17ef544f58c6721cca4f6588de", "type": "electric_scooter"}, {"rental_uris": {"ios": "https://dc.lft.to/lastmile_qr_scan", "android": "https://dc.lft.to/lastmile_qr_scan"}, "lat": 38.91820116666667, "is_reserved": 0, "bike_id": "2ae3aea684c0003413417cc5fda20115", "lon": -77.0035165, "is_disabled": 0, "fusion_lat": 0.0, "fusion_lon": 0.0, "name": "2ae3aea684c0003413417cc5fda20115", "type": "electric_scooter"}, {"rental_uris": {"ios": "https://dc.lft.to/lastmile_qr_scan", "android": "https://dc.lft.to/lastmile_qr_scan"}, "lat": 38.88702283333333, "is_reserved": 0, "bike_id": "f69632b5c36a8bffa1de0c22cf118414", "lon": -77.013742, "is_disabled": 0, "fusion_lat": 0.0, "fusion_lon": 0.0, "name": "f69632b5c36a8bffa1de0c22cf118414", "type": "electric_scooter"}, {"rental_uris": {"ios": "https://dc.lft.to/lastmile_qr_scan", "android": "https://dc.lft.to/lastmile_qr_scan"}, "lat": 38.897381, "is_reserved": 0, "bike_id": "48cae4e1cdb475636bdfc459c61ba2c8", "lon": -77.00923383333334, "is_disabled": 0, "fusion_lat": 0.0, "fusion_lon": 0.0, "name": "48cae4e1cdb475636bdfc459c61ba2c8", "type": "electric_scooter"}, {"rental_uris": {"ios": "https://dc.lft.to/lastmile_qr_scan", "android": "https://dc.lft.to/lastmile_qr_scan"}, "lat": 38.8994775, "is_reserved": 0, "bike_id": "cb2868c3d77c89cb90ddb7bbf28bf232", "lon": -77.040056, "is_disabled": 0, "fusion_lat": 0.0, "fusion_lon": 0.0, "name": "cb2868c3d77c89cb90ddb7bbf28bf232", "type": "electric_scooter"}, {"rental_uris": {"ios": "https://dc.lft.to/lastmile_qr_scan", "android": "https://dc.lft.to/lastmile_qr_scan"}, "lat": 38.93080533333333, "is_reserved": 0, "bike_id": "6a506689608e96fdb3b691aa22e75742", "lon": -77.02792783333334, "is_disabled": 0, "fusion_lat": 0.0, "fusion_lon": 0.0, "name": "6a506689608e96fdb3b691aa22e75742", "type": "electric_scooter"}, {"rental_uris": {"ios": "https://dc.lft.to/lastmile_qr_scan", "android": "https://dc.lft.to/lastmile_qr_scan"}, "lat": 38.917110666666666, "is_reserved": 0, "bike_id": "68c85c0737c1ef70fde42a667b981199", "lon": -77.038659, "is_disabled": 0, "fusion_lat": 0.0, "fusion_lon": 0.0, "name": "68c85c0737c1ef70fde42a667b981199", "type": "electric_scooter"}, {"rental_uris": {"ios": "https://dc.lft.to/lastmile_qr_scan", "android": "https://dc.lft.to/lastmile_qr_scan"}, "lat": 38.916058666666665, "is_reserved": 0, "bike_id": "0ec5a8b67a9e94044c7ac9f0732fb4a6", "lon": -77.03116516666667, "is_disabled": 0, "fusion_lat": 0.0, "fusion_lon": 0.0, "name": "0ec5a8b67a9e94044c7ac9f0732fb4a6", "type": "electric_scooter"}, {"rental_uris": {"ios": "https://dc.lft.to/lastmile_qr_scan", "android": "https://dc.lft.to/lastmile_qr_scan"}, "lat": 38.9054235, "is_reserved": 0, "bike_id": "e8f430c3eba89679f11e21712a6b3fec", "lon": -77.059106, "is_disabled": 0, "fusion_lat": 0.0, "fusion_lon": 0.0, "name": "e8f430c3eba89679f11e21712a6b3fec", "type": "electric_scooter"}, {"rental_uris": {"ios": "https://dc.lft.to/lastmile_qr_scan", "android": "https://dc.lft.to/lastmile_qr_scan"}, "lat": 38.9003605, "is_reserved": 0, "bike_id": "b0122472e6fafdadfee77a5b06bddae1", "lon": -77.0118365, "is_disabled": 0, "fusion_lat": 0.0, "fusion_lon": 0.0, "name": "b0122472e6fafdadfee77a5b06bddae1", "type": "electric_scooter"}, {"rental_uris": {"ios": "https://dc.lft.to/lastmile_qr_scan", "android": "https://dc.lft.to/lastmile_qr_scan"}, "lat": 38.87575616666667, "is_reserved": 0, "bike_id": "0c2f82147559a12ac2cf1ff901718193", "lon": -77.23407166666667, "is_disabled": 0, "fusion_lat": 0.0, "fusion_lon": 0.0, "name": "0c2f82147559a12ac2cf1ff901718193", "type": "electric_bike"}, {"rental_uris": {"ios": "https://dc.lft.to/lastmile_qr_scan", "android": "https://dc.lft.to/lastmile_qr_scan"}, "lat": 38.9169245, "is_reserved": 0, "bike_id": "581be6d74d7ee38696b0e7fd8e9e9fb0", "lon": -77.02659283333334, "is_disabled": 0, "fusion_lat": 0.0, "fusion_lon": 0.0, "name": "581be6d74d7ee38696b0e7fd8e9e9fb0", "type": "electric_scooter"}, {"rental_uris": {"ios": "https://dc.lft.to/lastmile_qr_scan", "android": "https://dc.lft.to/lastmile_qr_scan"}, "lat": 38.91630583333333, "is_reserved": 0, "bike_id": "cbedf4546b56763825aef4937b737a27", "lon": -77.03206633333333, "is_disabled": 0, "fusion_lat": 0.0, "fusion_lon": 0.0, "name": "cbedf4546b56763825aef4937b737a27", "type": "electric_scooter"}, {"rental_uris": {"ios": "https://dc.lft.to/lastmile_qr_scan", "android": "https://dc.lft.to/lastmile_qr_scan"}, "lat": 38.9178675, "is_reserved": 0, "bike_id": "fd133d0df4670556c2cde588567d255c", "lon": -77.023083, "is_disabled": 0, "fusion_lat": 0.0, "fusion_lon": 0.0, "name": "fd133d0df4670556c2cde588567d255c", "type": "electric_scooter"}, {"rental_uris": {"ios": "https://dc.lft.to/lastmile_qr_scan", "android": "https://dc.lft.to/lastmile_qr_scan"}, "lat": 38.911042, "is_reserved": 0, "bike_id": "c41894c3f800ef39d727f94495bdaae6", "lon": -77.04219966666666, "is_disabled": 0, "fusion_lat": 0.0, "fusion_lon": 0.0, "name": "c41894c3f800ef39d727f94495bdaae6", "type": "electric_scooter"}, {"rental_uris": {"ios": "https://dc.lft.to/lastmile_qr_scan", "android": "https://dc.lft.to/lastmile_qr_scan"}, "lat": 38.860607, "is_reserved": 0, "bike_id": "c1d7bfc2d59c4a2cee6b88d1f32dd268", "lon": -76.98510183333333, "is_disabled": 0, "fusion_lat": 0.0, "fusion_lon": 0.0, "name": "c1d7bfc2d59c4a2cee6b88d1f32dd268", "type": "electric_scooter"}, {"rental_uris": {"ios": "https://dc.lft.to/lastmile_qr_scan", "android": "https://dc.lft.to/lastmile_qr_scan"},