{"data": {"bikes": [{"is_reserved": 0, "type": "electric_scooter", "bike_id": "027f5d4047d87157bacc7d492da7f1f7", "lat": 38.895338, "lon": -77.033405, "rental_uris": {"android": "https://dc.lft.to/lastmile_qr_scan", "ios": "https://dc.lft.to/lastmile_qr_scan"}, "is_disabled": 0, "fusion_lat": 0.0, "name": "027f5d4047d87157bacc7d492da7f1f7", "fusion_lon": 0.0}, {"is_reserved": 0, "type": "electric_scooter", "bike_id": "670cbd40d41e325dea25db0ccda5e304", "lat": 38.931340166666665, "lon": -77.03848766666667, "rental_uris": {"android": "https://dc.lft.to/lastmile_qr_scan", "ios": "https://dc.lft.to/lastmile_qr_scan"}, "is_disabled": 0, "fusion_lat": 0.0, "name": "670cbd40d41e325dea25db0ccda5e304", "fusion_lon": 0.0}, {"is_reserved": 0, "type": "electric_scooter", "bike_id": "da82dc68c1badc709e411771cad366ff", "lat": 38.9370055, "lon": -77.02115033333334, "rental_uris": {"android": "https://dc.lft.to/lastmile_qr_scan", "ios": "https://dc.lft.to/lastmile_qr_scan"}, "is_disabled": 0, "fusion_lat": 0.0, "name": "da82dc68c1badc709e411771cad366ff", "fusion_lon": 0.0}, {"is_reserved": 0, "type": "electric_scooter", "bike_id": "b6fb1d10b939208362c1b5e3b15fda67", "lat": 38.914039833333334, "lon": -77.03251983333334, "rental_uris": {"android": "https://dc.lft.to/lastmile_qr_scan", "ios": "https://dc.lft.to/lastmile_qr_scan"}, "is_disabled": 0, "fusion_lat": 0.0, "name": "b6fb1d10b939208362c1b5e3b15fda67", "fusion_lon": 0.0}, {"is_reserved": 0, "type": "electric_scooter", "bike_id": "39e0ec5810c62885bd44c05d6e138059", "lat": 38.8992725, "lon": -76.97833483333334, "rental_uris": {"android": "https://dc.lft.to/lastmile_qr_scan", "ios": "https://dc.lft.to/lastmile_qr_scan"}, "is_disabled": 0, "fusion_lat": 0.0, "name": "39e0ec5810c62885bd44c05d6e138059", "fusion_lon": 0.0}, {"is_reserved": 0, "type": "electric_scooter", "bike_id": "d1da5e3b50d51e096e3a622cfaedff11", "lat": 38.9269305, "lon": -77.0375935, "rental_uris": {"android": "https://dc.lft.to/lastmile_qr_scan", "ios": "https://dc.lft.to/lastmile_qr_scan"}, "is_disabled": 0, "fusion_lat": 0.0, "name": "d1da5e3b50d51e096e3a622cfaedff11", "fusion_lon": 0.0}, {"is_reserved": 0, "type": "electric_scooter", "bike_id": "a7a5ea6dd0b8c564a7c00106f79def8d", "lat": 38.897293833333336, "lon": -77.0227975, "rental_uris": {"android": "https://dc.lft.to/lastmile_qr_scan", "ios": "https://dc.lft.to/lastmile_qr_scan"}, "is_disabled": 0, "fusion_lat": 0.0, "name": "a7a5ea6dd0b8c564a7c00106f79def8d", "fusion_lon": 0.0}, {"is_reserved": 0, "type": "electric_scooter", "bike_id": "a5089deedb43db03ea8407a6417ca5df", "lat": 38.946590666666665, "lon": -77.03282716666666, "rental_uris": {"android": "https://dc.lft.to/lastmile_qr_scan", "ios": "https://dc.lft.to/lastmile_qr_scan"}, "is_disabled": 0, "fusion_lat": 0.0, "name": "a5089deedb43db03ea8407a6417ca5df", "fusion_lon": 0.0}, {"is_reserved": 0, "type": "electric_scooter", "bike_id": "cb2fa26d6b70937fe010f9fd98ec9e7a", "lat": 38.8774835, "lon": -77.00259133333333, "rental_uris": {"android": "https://dc.lft.to/lastmile_qr_scan", "ios": "https://dc.lft.to/lastmile_qr_scan"}, "is_disabled": 0, "fusion_lat": 0.0, "name": "cb2fa26d6b70937fe010f9fd98ec9e7a", "fusion_lon": 0.0}, {"is_reserved": 0, "type": "electric_scooter", "bike_id": "a7900d302cb1bc1e7bde88c7ab76fa80", "lat": 38.90527266666667, "lon": -77.06214666666666, "rental_uris": {"android": "https://dc.lft.to/lastmile_qr_scan", "ios": "https://dc.lft.to/lastmile_qr_scan"}, "is_disabled": 0, "fusion_lat": 0.0, "name": "a7900d302cb1bc1e7bde88c7ab76fa80", "fusion_lon": 0.0}, {"is_reserved": 0, "type": "electric_scooter", "bike_id": "f9ce1d288ab7788f10ef64774e6d77e9", "lat": 38.924321666666664, "lon": -77.04046783333334, "rental_uris": {"android": "https://dc.lft.to/lastmile_qr_scan", "ios": "https://dc.lft.to/lastmile_qr_scan"}, "is_disabled": 0, "fusion_lat": 0.0, "name": "f9ce1d288ab7788f10ef64774e6d77e9", "fusion_lon": 0.0}, {"is_reserved": 0, "type": "electric_scooter", "bike_id": "9b92916226cdffce959e70d2b223d72e", "lat": 38.90501533333333, "lon": -77.0294535, "rental_uris": {"android": "https://dc.lft.to/lastmile_qr_scan", "ios": "https://dc.lft.to/lastmile_qr_scan"}, "is_disabled": 0, "fusion_lat": 0.0, "name": "9b92916226cdffce959e70d2b223d72e", "fusion_lon": 0.0}, {"is_reserved": 0, "type": "electric_scooter", "bike_id": "7f702f612010b985975b0190b7e65551", "lat": 38.9389215, "lon": -77.032612, "rental_uris": {"android": "https://dc.lft.to/lastmile_qr_scan", "ios": "https://dc.lft.to/lastmile_qr_scan"}, "is_disabled": 0, "fusion_lat": 0.0, "name": "7f702f612010b985975b0190b7e65551", "fusion_lon": 0.0}, {"is_reserved": 0, "type": "electric_scooter", "bike_id": "c23d91844db7eed27ea07fc311c0ee6e", "lat": 38.8522415, "lon": -76.99424816666667, "rental_uris": {"android": "https://dc.lft.to/lastmile_qr_scan", "ios": "https://dc.lft.to/lastmile_qr_scan"}, "is_disabled": 0, "fusion_lat": 0.0, "name": "c23d91844db7eed27ea07fc311c0ee6e", "fusion_lon": 0.0}, {"is_reserved": 0, "type": "electric_scooter", "bike_id": "b4f7780f22621ff1a8c58bcf0f348b79", "lat": 38.8991015, "lon": -76.93364733333334, "rental_uris": {"android": "https://dc.lft.to/lastmile_qr_scan", "ios": "https://dc.lft.to/lastmile_qr_scan"}, "is_disabled": 0, "fusion_lat": 0.0, "name": "b4f7780f22621ff1a8c58bcf0f348b79", "fusion_lon": 0.0}, {"is_reserved": 0, "type": "electric_scooter", "bike_id": "1ade582deed69c7584fff41a001052eb", "lat": 38.90295866666666, "lon": -77.00207033333334, "rental_uris": {"android": "https://dc.lft.to/lastmile_qr_scan", "ios": "https://dc.lft.to/lastmile_qr_scan"}, "is_disabled": 0, "fusion_lat": 0.0, "name": "1ade582deed69c7584fff41a001052eb", "fusion_lon": 0.0}, {"is_reserved": 0, "type": "electric_scooter", "bike_id": "8291ba2b708ac72f8212532e56a4a006", "lat": 38.908563666666666, "lon": -77.01021766666666, "rental_uris": {"android": "https://dc.lft.to/lastmile_qr_scan", "ios": "https://dc.lft.to/lastmile_qr_scan"}, "is_disabled": 0, "fusion_lat": 0.0, "name": "8291ba2b708ac72f8212532e56a4a006", "fusion_lon": 0.0}, {"is_reserved": 0, "type": "electric_scooter", "bike_id": "7dbe85e9310110e82d635ee2544ae52a", "lat": 38.917897333333336, "lon": -77.041037, "rental_uris": {"android": "https://dc.lft.to/lastmile_qr_scan", "ios": "https://dc.lft.to/lastmile_qr_scan"}, "is_disabled": 0, "fusion_lat": 0.0, "name": "7dbe85e9310110e82d635ee2544ae52a", "fusion_lon": 0.0}, {"is_reserved": 0, "type": "electric_scooter", "bike_id": "dd0b1d804d222c4b2ebb8c5cfa4b90ad", "lat": 38.91062816666667, "lon": -77.04092266666666, "rental_uris": {"android": "https://dc.lft.to/lastmile_qr_scan", "ios": "https://dc.lft.to/lastmile_qr_scan"}, "is_disabled": 0, "fusion_lat": 0.0, "name": "dd0b1d804d222c4b2ebb8c5cfa4b90ad", "fusion_lon": 0.0}, {"is_reserved": 0, "type": "electric_scooter", "bike_id": "d80a071e3d0c3180f80d7d6f7225b605", "lat": 38.9207705, "lon": -77.02312166666667, "rental_uris": {"android": "https://dc.lft.to/lastmile_qr_scan", "ios": "https://dc.lft.to/lastmile_qr_scan"}, "is_disabled": 0, "fusion_lat": 0.0, "name": "d80a071e3d0c3180f80d7d6f7225b605", "fusion_lon": 0.0}, {"is_reserved": 0, "type": "electric_scooter", "bike_id": "f3f4c0f9c724b02a1ce45b3941864df9", "lat": 38.90689233333333, "lon": -77.015371, "rental_uris": {"android": "https://dc.lft.to/lastmile_qr_scan", "ios": "https://dc.lft.to/lastmile_qr_scan"}, "is_disabled": 0, "fusion_lat": 0.0, "name": "f3f4c0f9c724b02a1ce45b3941864df9", "fusion_lon": 0.0}, {"is_reserved": 0, "type": "electric_scooter", "bike_id": "c7430e719b0b0131d041679cf50d3d95", "lat": 38.92609683333333, "lon": -77.021679, "rental_uris": {"android": "https://dc.lft.to/lastmile_qr_scan", "ios": "https://dc.lft.to/lastmile_qr_scan"}, "is_disabled": 0, "fusion_lat": 0.0, "name": "c7430e719b0b0131d041679cf50d3d95", "fusion_lon": 0.0}, {"is_reserved": 0, "type": "electric_scooter", "bike_id": "494b6172c8f74c9f145a1976801f4dbf", "lat": 38.9171115, "lon": -77.03469833333334, "rental_uris": {"android": "https://dc.lft.to/lastmile_qr_scan", "ios": "https://dc.lft.to/lastmile_qr_scan"}, "is_disabled": 0, "fusion_lat": 0.0, "name": "494b6172c8f74c9f145a1976801f4dbf", "fusion_lon": 0.0}, {"is_reserved": 0, "type": "electric_scooter", "bike_id": "872729338f1c77e669656d3088bd9541", "lat": 38.904133, "lon": -76.97328833333333, "rental_uris": {"android": "https://dc.lft.to/lastmile_qr_scan", "ios": "https://dc.lft.to/lastmile_qr_scan"}, "is_disabled": 0, "fusion_lat": 0.0, "name": "872729338f1c77e669656d3088bd9541", "fusion_lon": 0.0}, {"is_reserved": 0, "type": "electric_scooter", "bike_id": "1d489cde5ae191a3b95f81cef9d71d4d", "lat": 38.904005833333336, "lon": -77.0420765, "rental_uris": {"android": "https://dc.lft.to/lastmile_qr_scan", "ios": "https://dc.lft.to/lastmile_qr_scan"}, "is_disabled": 0, "fusion_lat": 0.0, "name": "1d489cde5ae191a3b95f81cef9d71d4d", "fusion_lon": 0.0}, {"is_reserved": 0, "type": "electric_scooter", "bike_id": "398952ceec9b6641a44651375759ea8f", "lat": 38.915667666666664, "lon": -77.01157016666667, "rental_uris": {"android": "https://dc.lft.to/lastmile_qr_scan", "ios": "https://dc.lft.to/lastmile_qr_scan"}, "is_disabled": 0, "fusion_lat": 0.0, "name": "398952ceec9b6641a44651375759ea8f", "fusion_lon": 0.0}, {"is_reserved": 0, "type": "electric_scooter", "bike_id": "81386aff192f6944b3f72a5ad8b5b31c", "lat": 38.92053666666666, "lon": -77.04186516666667, "rental_uris": {"android": "https://dc.lft.to/lastmile_qr_scan", "ios": "https://dc.lft.to/lastmile_qr_scan"}, "is_disabled": 0, "fusion_lat": 0.0, "name": "81386aff192f6944b3f72a5ad8b5b31c", "fusion_lon": 0.0}, {"is_reserved": 0, "type": "electric_scooter", "bike_id": "e1c87e10690c74986cc8803f951b4e90", "lat": 38.92068883333334, "lon": -76.98079, "rental_uris": {"android": "https://dc.lft.to/lastmile_qr_scan", "ios": "https://dc.lft.to/lastmile_qr_scan"}, "is_disabled": 0, "fusion_lat": 0.0, "name": "e1c87e10690c74986cc8803f951b4e90", "fusion_lon": 0.0}, {"is_reserved": 0, "type": "electric_scooter", "bike_id": "e4f41da4240021a06e2d13b1aea3602c", "lat": 38.91922433333333, "lon": -77.0339765, "rental_uris": {"android": "https://dc.lft.to/lastmile_qr_scan", "ios": "https://dc.lft.to/lastmile_qr_scan"}, "is_disabled": 0, "fusion_lat": 0.0, "name": "e4f41da4240021a06e2d13b1aea3602c", "fusion_lon": 0.0}, {"is_reserved": 0, "type": "electric_scooter", "bike_id": "7bc54195c56a4c3acd3f86f9c8b76ed9", "lat": 38.896353, "lon": -77.02185316666667, "rental_uris": {"android": "https://dc.lft.to/lastmile_qr_scan", "ios": "https://dc.lft.to/lastmile_qr_scan"}, "is_disabled": 0, "fusion_lat": 0.0, "name": "7bc54195c56a4c3acd3f86f9c8b76ed9", "fusion_lon": 0.0}, {"is_reserved": 0, "type": "electric_scooter", "bike_id": "1f839f8fb2148c20d35d30818ef04860", "lat": 38.975045, "lon": -77.016952, "rental_uris": {"android": "https://dc.lft.to/lastmile_qr_scan", "ios": "https://dc.lft.to/lastmile_qr_scan"}, "is_disabled": 0, "fusion_lat": 0.0, "name": "1f839f8fb2148c20d35d30818ef04860", "fusion_lon": 0.0}, {"is_reserved": 0, "type": "electric_scooter", "bike_id": "aa503285e6af1a6d33d6c253f6526beb", "lat": 38.91006083333333, "lon": -77.03192416666667, "rental_uris": {"android": "https://dc.lft.to/lastmile_qr_scan", "ios": "https://dc.lft.to/lastmile_qr_scan"}, "is_disabled": 0, "fusion_lat": 0.0, "name": "aa503285e6af1a6d33d6c253f6526beb", "fusion_lon": 0.0}, {"is_reserved": 0, "type": "electric_scooter", "bike_id": "a54408853bd1a3373daa7943bf574d72", "lat": 38.93883133333333, "lon": -77.02481666666667, "rental_uris": {"android": "https://dc.lft.to/lastmile_qr_scan", "ios": "https://dc.lft.to/lastmile_qr_scan"}, "is_disabled": 0, "fusion_lat": 0.0, "name": "a54408853bd1a3373daa7943bf574d72", "fusion_lon": 0.0}, {"is_reserved": 0, "type": "electric_scooter", "bike_id": "9da0678d7bfde90036c848555a942539", "lat": 38.897352, "lon": -77.05475866666667, "rental_uris": {"android": "https://dc.lft.to/lastmile_qr_scan", "ios": "https://dc.lft.to/lastmile_qr_scan"}, "is_disabled": 0, "fusion_lat": 0.0, "name": "9da0678d7bfde90036c848555a942539", "fusion_lon": 0.0}, {"is_reserved": 0, "type": "electric_scooter", "bike_id": "f65604e385eb00fd08d5af5a16a051dc", "lat": 38.924276666666664, "lon": -77.0194725, "rental_uris": {"android": "https://dc.lft.to/lastmile_qr_scan", "ios": "https://dc.lft.to/lastmile_qr_scan"}, "is_disabled": 0, "fusion_lat": 0.0, "name": "f65604e385eb00fd08d5af5a16a051dc", "fusion_lon": 0.0}, {"is_reserved": 0, "type": "electric_scooter", "bike_id": "91bf8d3c0c5c17615b651e9552b8bb1f", "lat": 38.887639, "lon": -77.033459, "rental_uris": {"android": "https://dc.lft.to/lastmile_qr_scan", "ios": "https://dc.lft.to/lastmile_qr_scan"}, "is_disabled": 0, "fusion_lat": 0.0, "name": "91bf8d3c0c5c17615b651e9552b8bb1f", "fusion_lon": 0.0}, {"is_reserved": 0, "type": "electric_bike", "bike_id": "76140169d6c0900a465395a132820ce8", "lat": 38.887936, "lon": -76.9233455, "rental_uris": {"android": "https://dc.lft.to/lastmile_qr_scan", "ios": "https://dc.lft.to/lastmile_qr_scan"}, "is_disabled": 0, "fusion_lat": 0.0, "name": "76140169d6c0900a465395a132820ce8", "fusion_lon": 0.0}, {"is_reserved": 0, "type": "electric_scooter", "bike_id": "9178205c9f5408cb76e027e8b63c5469", "lat": 38.91337866666667, "lon": -77.04807233333334, "rental_uris": {"android": "https://dc.lft.to/lastmile_qr_scan", "ios": "https://dc.lft.to/lastmile_qr_scan"}, "is_disabled": 0, "fusion_lat": 0.0, "name": "9178205c9f5408cb76e027e8b63c5469", "fusion_lon": 0.0}, {"is_reserved": 0, "type": "electric_scooter", "bike_id": "35591373f73823dc2fe887f2f374156c", "lat": 38.892534166666664, "lon": -77.048879, "rental_uris": {"android": "https://dc.lft.to/lastmile_qr_scan", "ios": "https://dc.lft.to/lastmile_qr_scan"}, "is_disabled": 0, "fusion_lat": 0.0, "name": "35591373f73823dc2fe887f2f374156c", "fusion_lon": 0.0}, {"is_reserved": 0, "type": "electric_scooter", "bike_id": "49821745ab01cb3ac30f221f91b110d4", "lat": 38.91807, "lon": -77.0269955, "rental_uris": {"android": "https://dc.lft.to/lastmile_qr_scan", "ios": "https://dc.lft.to/lastmile_qr_scan"}, "is_disabled": 0, "fusion_lat": 0.0, "name": "49821745ab01cb3ac30f221f91b110d4", "fusion_lon": 0.0}, {"is_reserved": 0, "type": "electric_bike", "bike_id": "7809b79f7fd12cd891e2a8e83efe9b51", "lat": 38.8799815, "lon": -77.1095825, "rental_uris": {"android": "https://dc.lft.to/lastmile_qr_scan", "ios": "https://dc.lft.to/lastmile_qr_scan"}, "is_disabled": 0, "fusion_lat": 0.0, "name": "7809b79f7fd12cd891e2a8e83efe9b51", "fusion_lon": 0.0}, {"is_reserved": 0, "type": "electric_scooter", "bike_id": "d9283be596fd0133fcbddcd11987f25b", "lat": 38.88339783333333, "lon": -76.942852, "rental_uris": {"android": "https://dc.lft.to/lastmile_qr_scan", "ios": "https://dc.lft.to/lastmile_qr_scan"}, "is_disabled": 0, "fusion_lat": 0.0, "name": "d9283be596fd0133fcbddcd11987f25b", "fusion_lon": 0.0}, {"is_reserved": 0, "type": "electric_scooter", "bike_id": "b8ed25f11db031715a0f6f8022d62f90", "lat": 38.892525, "lon": -76.99484533333333, "rental_uris": {"android": "https://dc.lft.to/lastmile_qr_scan", "ios": "https://dc.lft.to/lastmile_qr_scan"}, "is_disabled": 0, "fusion_lat": 0.0, "name": "b8ed25f11db031715a0f6f8022d62f90", "fusion_lon": 0.0}, {"is_reserved": 0, "type": "electric_scooter", "bike_id": "ce07046f91f46234858904fdaf2ab0ea", "lat": 38.884246166666664, "lon": -77.02591033333333, "rental_uris": {"android": "https://dc.lft.to/lastmile_qr_scan", "ios": "https://dc.lft.to/lastmile_qr_scan"}, "is_disabled": 0, "fusion_lat": 0.0, "name": "ce07046f91f46234858904fdaf2ab0ea", "fusion_lon": 0.0}, {"is_reserved": 0, "type": "electric_scooter", "bike_id": "cc21637baff5d6490d9c06642a06ba06", "lat": 38.914760666666666, "lon": -77.03195233333334, "rental_uris": {"android": "https://dc.lft.to/lastmile_qr_scan", "ios": "https://dc.lft.to/lastmile_qr_scan"}, "is_disabled": 0, "fusion_lat": 0.0, "name": "cc21637baff5d6490d9c06642a06ba06", "fusion_lon": 0.0}, {"is_reserved": 0, "type": "electric_scooter", "bike_id": "4a0501a45de0fab5e7ba19d57ccd49f5", "lat": 38.896785, "lon": -77.00515933333334, "rental_uris": {"android": "https://dc.lft.to/lastmile_qr_scan", "ios": "https://dc.lft.to/lastmile_qr_scan"}, "is_disabled": 0, "fusion_lat": 0.0, "name": "4a0501a45de0fab5e7ba19d57ccd49f5", "fusion_lon": 0.0}, {"is_reserved": 0, "type": "electric_scooter", "bike_id": "002bc1205d3892339f870c3d289ccb45", "lat": 38.887315, "lon": -77.028222, "rental_uris": {"android": "https://dc.lft.to/lastmile_qr_scan", "ios": "https://dc.lft.to/lastmile_qr_scan"}, "is_disabled": 0, "fusion_lat": 0.0, "name": "002bc1205d3892339f870c3d289ccb45", "fusion_lon": 0.0}, {"is_reserved": 0, "type": "electric_scooter", "bike_id": "2388f2fc28a9f4ea36152642c9247d94", "lat": 38.902029166666665, "lon": -77.02183283333333, "rental_uris": {"android": "https://dc.lft.to/lastmile_qr_scan", "ios": "https://dc.lft.to/lastmile_qr_scan"}, "is_disabled": 0, "fusion_lat": 0.0, "name": "2388f2fc28a9f4ea36152642c9247d94", "fusion_lon": 0.0}, {"is_reserved": 0, "type": "electric_scooter", "bike_id": "fa9c0c365ca5ca9a7c4c07d9c4e792e9", "lat": 38.914878, "lon": -77.02182633333334, "rental_uris": {"android": "https://dc.lft.to/lastmile_qr_scan", "ios": "https://dc.lft.to/lastmile_qr_scan"}, "is_disabled": 0, "fusion_lat": 0.0, "name": "fa9c0c365ca5ca9a7c4c07d9c4e792e9", "fusion_lon": 0.0}, {"is_reserved": 0, "type": "electric_scooter", "bike_id": "36e8e9e2c3f62915475ea68b66ea92ae", "lat": 38.92643283333334, "lon": -77.03688966666667, "rental_uris": {"android": "https://dc.lft.to/lastmile_qr_scan", "ios": "https://dc.lft.to/lastmile_qr_scan"}, "is_disabled": 0, "fusion_lat": 0.0, "name": "36e8e9e2c3f62915475ea68b66ea92ae", "fusion_lon": 0.0}, {"is_reserved": 0, "type": "electric_scooter", "bike_id": "347292e6398c26b963498e9e0e1b751b", "lat": 38.9182025, "lon": -77.05896616666666, "rental_uris": {"android": "https://dc.lft.to/lastmile_qr_scan", "ios": "https://dc.lft.to/lastmile_qr_scan"}, "is_disabled": 0, "fusion_lat": 0.0, "name": "347292e6398c26b963498e9e0e1b751b", "fusion_lon": 0.0}, {"is_reserved": 0, "type": "electric_scooter", "bike_id": "5183d7b51ef22af65d72590a69cb9a5a", "lat": 38.8922705, "lon": -77.04996933333334, "rental_uris": {"android": "https://dc.lft.to/lastmile_qr_scan", "ios": "https://dc.lft.to/lastmile_qr_scan"}, "is_disabled": 0, "fusion_lat": 0.0, "name": "5183d7b51ef22af65d72590a69cb9a5a", "fusion_lon": 0.0}, {"is_reserved": 0, "type": "electric_scooter", "bike_id": "97ccea9cccfb9a9a22bc4a9276b664a4", "lat": 38.892163833333335, "lon": -77.01703866666666, "rental_uris": {"android": "https://dc.lft.to/lastmile_qr_scan", "ios": "https://dc.lft.to/lastmile_qr_scan"}, "is_disabled": 0, "fusion_lat": 0.0, "name": "97ccea9cccfb9a9a22bc4a9276b664a4", "fusion_lon": 0.0}, {"is_reserved": 0, "type": "electric_scooter", "bike_id": "79ff40e5fc4d2df664e52d8ebce2eae1", "lat": 38.92556533333333, "lon": -76.98148166666667, "rental_uris": {"android": "https://dc.lft.to/lastmile_qr_scan", "ios": "https://dc.lft.to/lastmile_qr_scan"}, "is_disabled": 0, "fusion_lat": 0.0, "name": "79ff40e5fc4d2df664e52d8ebce2eae1", "fusion_lon": 0.0}, {"is_reserved": 0, "type": "electric_scooter", "bike_id": "4e32928ad37b5d4132149e582d9ef8e5", "lat": 38.94327633333333, "lon": -77.06516566666667, "rental_uris": {"android": "https://dc.lft.to/lastmile_qr_scan", "ios": "https://dc.lft.to/lastmile_qr_scan"}, "is_disabled": 0, "fusion_lat": 0.0, "name": "4e32928ad37b5d4132149e582d9ef8e5", "fusion_lon": 0.0}, {"is_reserved": 0, "type": "electric_scooter", "bike_id": "fbb83a12ffbf28224def47e8819307c6", "lat": 38.9044485, "lon": -77.06267866666667, "rental_uris": {"android": "https://dc.lft.to/lastmile_qr_scan", "ios": "https://dc.lft.to/lastmile_qr_scan"}, "is_disabled": 0, "fusion_lat": 0.0, "name": "fbb83a12ffbf28224def47e8819307c6", "fusion_lon": 0.0}, {"is_reserved": 0, "type": "electric_scooter", "bike_id": "91433f605cbc7913075b83def8e5e309", "lat": 38.93375116666667, "lon": -77.0202305, "rental_uris": {"android": "https://dc.lft.to/lastmile_qr_scan", "ios": "https://dc.lft.to/lastmile_qr_scan"}, "is_disabled": 0, "fusion_lat": 0.0, "name": "91433f605cbc7913075b83def8e5e309", "fusion_lon": 0.0}, {"is_reserved": 0, "type": "electric_scooter", "bike_id": "01b5e08e7436f943ec5fa103adf41b32", "lat": 38.87289616666666, "lon": -77.009846, "rental_uris": {"android": "https://dc.lft.to/lastmile_qr_scan", "ios": "https://dc.lft.to/lastmile_qr_scan"}, "is_disabled": 0, "fusion_lat": 0.0, "name": "01b5e08e7436f943ec5fa103adf41b32", "fusion_lon": 0.0}, {"is_reserved": 0, "type": "electric_scooter", "bike_id": "6e5526fb448ef0df836c5866a04d38af", "lat": 38.91228983333333, "lon": -77.01116666666667, "rental_uris": {"android": "https://dc.lft.to/lastmile_qr_scan", "ios": "https://dc.lft.to/lastmile_qr_scan"}, "is_disabled": 0, "fusion_lat": 0.0, "name": "6e5526fb448ef0df836c5866a04d38af", "fusion_lon": 0.0}, {"is_reserved": 0, "type": "electric_scooter", "bike_id": "875103ab055b7e81d3fedb4325b57697", "lat": 38.88756566666667, "lon": -76.99613633333334, "rental_uris": {"android": "https://dc.lft.to/lastmile_qr_scan", "ios": "https://dc.lft.to/lastmile_qr_scan"}, "is_disabled": 0, "fusion_lat": 0.0, "name": "875103ab055b7e81d3fedb4325b57697", "fusion_lon": 0.0}, {"is_reserved": 0, "type": "electric_scooter", "bike_id": "8642ef9a9ff037e3ac7cce77c0c6ca21", "lat": 38.87724983333333, "lon": -77.01760283333333, "rental_uris": {"android": "https://dc.lft.to/lastmile_qr_scan", "ios": "https://dc.lft.to/lastmile_qr_scan"}, "is_disabled": 0, "fusion_lat": 0.0, "name": "8642ef9a9ff037e3ac7cce77c0c6ca21", "fusion_lon": 0.0}, {"is_reserved": 0, "type": "electric_scooter", "bike_id": "ef3fc7a450070512b68d9ff4b887555b", "lat": 38.90520133333333, "lon": -77.06041033333334, "rental_uris": {"android": "https://dc.lft.to/lastmile_qr_scan", "ios": "https://dc.lft.to/lastmile_qr_scan"}, "is_disabled": 0, "fusion_lat": 0.0, "name": "ef3fc7a450070512b68d9ff4b887555b", "fusion_lon": 0.0}, {"is_reserved": 0, "type": "electric_bike", "bike_id": "24eaf6db0e432eb4878020e59956ad0d", "lat": 38.988363666666665, "lon": -77.02648733333334, "rental_uris": {"android": "https://dc.lft.to/lastmile_qr_scan", "ios": "https://dc.lft.to/lastmile_qr_scan"}, "is_disabled": 0, "fusion_lat": 0.0, "name": "24eaf6db0e432eb4878020e59956ad0d", "fusion_lon": 0.0}, {"is_reserved": 0, "type": "electric_scooter", "bike_id": "2dde0d14d286967de3249cc7ed0d5763", "lat": 38.9268605, "lon": -77.00868133333333, "rental_uris": {"android": "https://dc.lft.to/lastmile_qr_scan", "ios": "https://dc.lft.to/lastmile_qr_scan"}, "is_disabled": 0, "fusion_lat": 0.0, "name": "2dde0d14d286967de3249cc7ed0d5763", "fusion_lon": 0.0}, {"is_reserved": 0, "type": "electric_scooter", "bike_id": "b9d25cce623f8bbe5187dc01b2111069", "lat": 38.90591333333333, "lon": -77.024218, "rental_uris": {"android": "https://dc.lft.to/lastmile_qr_scan", "ios": "https://dc.lft.to/lastmile_qr_scan"}, "is_disabled": 0, "fusion_lat": 0.0, "name": "b9d25cce623f8bbe5187dc01b2111069", "fusion_lon": 0.0}, {"is_reserved": 0, "type": "electric_scooter", "bike_id": "bcfe1447f67a392d9e0bb46cf3c62b17", "lat": 38.94978533333333, "lon": -77.02448033333333, "rental_uris": {"android": "https://dc.lft.to/lastmile_qr_scan", "ios": "https://dc.lft.to/lastmile_qr_scan"}, "is_disabled": 0, "fusion_lat": 0.0, "name": "bcfe1447f67a392d9e0bb46cf3c62b17", "fusion_lon": 0.0}, {"is_reserved": 0, "type": "electric_bike", "bike_id": "28af5e4797ad0c420feba15035048a55", "lat": 38.92136566666667, "lon": -77.00399416666667, "rental_uris": {"android": "https://dc.lft.to/lastmile_qr_scan", "ios": "https://dc.lft.to/lastmile_qr_scan"}, "is_disabled": 0, "fusion_lat": 0.0, "name": "28af5e4797ad0c420feba15035048a55", "fusion_lon": 0.0}, {"is_reserved": 0, "type": "electric_scooter", "bike_id": "51fd737985da287008aea7ccbcb1e645", "lat": 38.937210666666665, "lon": -77.03259983333334, "rental_uris": {"android": "https://dc.lft.to/lastmile_qr_scan", "ios": "https://dc.lft.to/lastmile_qr_scan"}, "is_disabled": 0, "fusion_lat": 0.0, "name": "51fd737985da287008aea7ccbcb1e645", "fusion_lon": 0.0}, {"is_reserved": 0, "type": "electric_scooter", "bike_id": "b6d68a1a96b7fe15e8c2bd6bf5647b9b", "lat": 38.93423766666667, "lon": -77.039027, "rental_uris": {"android": "https://dc.lft.to/lastmile_qr_scan", "ios": "https://dc.lft.to/lastmile_qr_scan"}, "is_disabled": 0, "fusion_lat": 0.0, "name": "b6d68a1a96b7fe15e8c2bd6bf5647b9b", "fusion_lon": 0.0}, {"is_reserved": 0, "type": "electric_scooter", "bike_id": "d1689a494cbfab899a16b3a6e54a344d", "lat": 38.900808, "lon": -77.04873233333333, "rental_uris": {"android": "https://dc.lft.to/lastmile_qr_scan", "ios": "https://dc.lft.to/lastmile_qr_scan"}, "is_disabled": 0, "fusion_lat": 0.0, "name": "d1689a494cbfab899a16b3a6e54a344d", "fusion_lon": 0.0}, {"is_reserved": 0, "type": "electric_scooter", "bike_id": "117693cdef1686fb42c040c5574c8fbc", "lat": 38.92708016666667, "lon": -77.0026545, "rental_uris": {"android": "https://dc.lft.to/lastmile_qr_scan", "ios": "https://dc.lft.to/lastmile_qr_scan"}, "is_disabled": 0, "fusion_lat": 0.0, "name": "117693cdef1686fb42c040c5574c8fbc", "fusion_lon": 0.0}, {"is_reserved": 0, "type": "electric_scooter", "bike_id": "a159ac64c27451bc71dff4d34e75f3c8", "lat": 38.87341883333333, "lon": -76.99170816666667, "rental_uris": {"android": "https://dc.lft.to/lastmile_qr_scan", "ios": "https://dc.lft.to/lastmile_qr_scan"}, "is_disabled": 0, "fusion_lat": 0.0, "name": "a159ac64c27451bc71dff4d34e75f3c8", "fusion_lon": 0.0}, {"is_reserved": 0, "type": "electric_bike", "bike_id": "5357e49bdaf5edefe4e9d36015e78e9d", "lat": 38.920230833333335, "lon": -76.99556566666666, "rental_uris": {"android": "https://dc.lft.to/lastmile_qr_scan", "ios": "https://dc.lft.to/lastmile_qr_scan"}, "is_disabled": 0, "fusion_lat": 0.0, "name": "5357e49bdaf5edefe4e9d36015e78e9d", "fusion_lon": 0.0}, {"is_reserved": 0, "type": "electric_scooter", "bike_id": "866cbe17feb2b011938bcedc9945a95f", "lat": 38.91067783333333, "lon": -77.03659966666666, "rental_uris": {"android": "https://dc.lft.to/lastmile_qr_scan", "ios": "https://dc.lft.to/lastmile_qr_scan"}, "is_disabled": 0, "fusion_lat": 0.0, "name": "866cbe17feb2b011938bcedc9945a95f", "fusion_lon": 0.0}, {"is_reserved": 0, "type": "electric_scooter", "bike_id": "d61f02319f35f56b1ac6113002558731", "lat": 38.89240916666667, "lon": -77.04895766666667, "rental_uris": {"android": "https://dc.lft.to/lastmile_qr_scan", "ios": "https://dc.lft.to/lastmile_qr_scan"}, "is_disabled": 0, "fusion_lat": 0.0, "name": "d61f02319f35f56b1ac6113002558731", "fusion_lon": 0.0}, {"is_reserved": 0, "type": "electric_scooter", "bike_id": "34279996a85f6a12e9dabc835f491400", "lat": 38.909329, "lon": -77.05951366666666, "rental_uris": {"android": "https://dc.lft.to/lastmile_qr_scan", "ios": "https://dc.lft.to/lastmile_qr_scan"}, "is_disabled": 0, "fusion_lat": 0.0, "name": "34279996a85f6a12e9dabc835f491400", "fusion_lon": 0.0}, {"is_reserved": 0, "type": "electric_scooter", "bike_id": "c93fcdd934364b1cf7f7cbf8def43c52", "lat": 38.9402835, "lon": -77.024873, "rental_uris": {"android": "https://dc.lft.to/lastmile_qr_scan", "ios": "https://dc.lft.to/lastmile_qr_scan"}, "is_disabled": 0, "fusion_lat": 0.0, "name": "c93fcdd934364b1cf7f7cbf8def43c52", "fusion_lon": 0.0}, {"is_reserved": 0, "type": "electric_scooter", "bike_id": "c0f79c3ac12fc77c4a316e94e564d558", "lat": 38.93545916666667, "lon": -77.07272616666667, "rental_uris": {"android": "https://dc.lft.to/lastmile_qr_scan", "ios": "https://dc.lft.to/lastmile_qr_scan"}, "is_disabled": 0, "fusion_lat": 0.0, "name": "c0f79c3ac12fc77c4a316e94e564d558", "fusion_lon": 0.0}, {"is_reserved": 0, "type": "electric_scooter", "bike_id": "e8f325237b0aa50120630856c3b0382f", "lat": 38.90962366666667, "lon": -77.021295, "rental_uris": {"android": "https://dc.lft.to/lastmile_qr_scan", "ios": "https://dc.lft.to/lastmile_qr_scan"}, "is_disabled": 0, "fusion_lat": 0.0, "name": "e8f325237b0aa50120630856c3b0382f", "fusion_lon": 0.0}, {"is_reserved": 0, "type": "electric_scooter", "bike_id": "b369f8b43812643a5f7b02e9d7c7707a", "lat": 38.89544766666667, "lon": -76.98334883333334, "rental_uris": {"android": "https://dc.lft.to/lastmile_qr_scan", "ios": "https://dc.lft.to/lastmile_qr_scan"}, "is_disabled": 0, "fusion_lat": 0.0, "name": "b369f8b43812643a5f7b02e9d7c7707a", "fusion_lon": 0.0}, {"is_reserved": 0, "type": "electric_scooter", "bike_id": "723c52b4d8fc7055edd200e67024da77", "lat": 38.902768, "lon": -77.03972383333333, "rental_uris": {"android": "https://dc.lft.to/lastmile_qr_scan", "ios": "https://dc.lft.to/lastmile_qr_scan"}, "is_disabled": 0, "fusion_lat": 0.0, "name": "723c52b4d8fc7055edd200e67024da77", "fusion_lon": 0.0}, {"is_reserved": 0, "type": "electric_scooter", "bike_id": "dd11fe70c4dcdb472418ef443e989793", "lat": 38.9127725, "lon": -77.03136, "rental_uris": {"android": "https://dc.lft.to/lastmile_qr_scan", "ios": "https://dc.lft.to/lastmile_qr_scan"}, "is_disabled": 0, "fusion_lat": 0.0, "name": "dd11fe70c4dcdb472418ef443e989793", "fusion_lon": 0.0}, {"is_reserved": 0, "type": "electric_scooter", "bike_id": "de3ddc4584538927bb3716a338218686", "lat": 38.923427833333335, "lon": -77.01903583333333, "rental_uris": {"android": "https://dc.lft.to/lastmile_qr_scan", "ios": "https://dc.lft.to/lastmile_qr_scan"}, "is_disabled": 0, "fusion_lat": 0.0, "name": "de3ddc4584538927bb3716a338218686", "fusion_lon": 0.0}, {"is_reserved": 0, "type": "electric_scooter", "bike_id": "ec0e29274230af4dd00fff536c0e3d2a", "lat": 38.91712283333333, "lon": -77.0267235, "rental_uris": {"android": "https://dc.lft.to/lastmile_qr_scan", "ios": "https://dc.lft.to/lastmile_qr_scan"}, "is_disabled": 0, "fusion_lat": 0.0, "name": "ec0e29274230af4dd00fff536c0e3d2a", "fusion_lon": 0.0}, {"is_reserved": 0, "type": "electric_scooter", "bike_id": "a791a250239725f92ef9ae5dc900de31", "lat": 38.897402, "lon": -77.00742983333333, "rental_uris": {"android": "https://dc.lft.to/lastmile_qr_scan", "ios": "https://dc.lft.to/lastmile_qr_scan"}, "is_disabled": 0, "fusion_lat": 0.0, "name": "a791a250239725f92ef9ae5dc900de31", "fusion_lon": 0.0}, {"is_reserved": 0, "type": "electric_scooter", "bike_id": "b5719072e6b64156b45f3951b05c265d", "lat": 38.90142483333333, "lon": -77.000646, "rental_uris": {"android": "https://dc.lft.to/lastmile_qr_scan", "ios": "https://dc.lft.to/lastmile_qr_scan"}, "is_disabled": 0, "fusion_lat": 0.0, "name": "b5719072e6b64156b45f3951b05c265d", "fusion_lon": 0.0}, {"is_reserved": 0, "type": "electric_bike", "bike_id": "00d9815fcb550e18e3ad06d8ff02c84b", "lat": 38.942661333333334, "lon": -76.99070133333333, "rental_uris": {"android": "https://dc.lft.to/lastmile_qr_scan", "ios": "https://dc.lft.to/lastmile_qr_scan"}, "is_disabled": 0, "fusion_lat": 0.0, "name": "00d9815fcb550e18e3ad06d8ff02c84b", "fusion_lon": 0.0}, {"is_reserved": 0, "type": "electric_scooter", "bike_id": "9c51e68a204454e89db611bf7a746152", "lat": 38.90852066666667, "lon": -77.06340633333333, "rental_uris": {"android": "https://dc.lft.to/lastmile_qr_scan", "ios": "https://dc.lft.to/lastmile_qr_scan"}, "is_disabled": 0, "fusion_lat": 0.0, "name": "9c51e68a204454e89db611bf7a746152", "fusion_lon": 0.0}, {"is_reserved": 0, "type": "electric_scooter", "bike_id": "d820ff6f93e3ed6c9ed5b7ed9320d515", "lat": 38.91116183333333, "lon": -77.032961, "rental_uris": {"android": "https://dc.lft.to/lastmile_qr_scan", "ios": "https://dc.lft.to/lastmile_qr_scan"}, "is_disabled": 0, "fusion_lat": 0.0, "name": "d820ff6f93e3ed6c9ed5b7ed9320d515", "fusion_lon": 0.0}, {"is_reserved": 0, "type": "electric_scooter", "bike_id": "3c6e9659f46b535f4927505bb183441a", "lat": 38.92773433333333, "lon": -77.0324455, "rental_uris": {"android": "https://dc.lft.to/lastmile_qr_scan", "ios": "https://dc.lft.to/lastmile_qr_scan"}, "is_disabled": 0, "fusion_lat": 0.0, "name": "3c6e9659f46b535f4927505bb183441a", "fusion_lon": 0.0}, {"is_reserved": 0, "type": "electric_scooter", "bike_id": "de25312515a5db1016afdf969fedd5e6", "lat": 38.89434833333333, "lon": -77.0396835, "rental_uris": {"android": "https://dc.lft.to/lastmile_qr_scan", "ios": "https://dc.lft.to/lastmile_qr_scan"}, "is_disabled": 0, "fusion_lat": 0.0, "name": "de25312515a5db1016afdf969fedd5e6", "fusion_lon": 0.0}, {"is_reserved": 0, "type": "electric_scooter", "bike_id": "bf92754a75df35173284b62d28f540ec", "lat": 38.8981405, "lon": -77.04662266666666, "rental_uris": {"android": "https://dc.lft.to/lastmile_qr_scan", "ios": "https://dc.lft.to/lastmile_qr_scan"}, "is_disabled": 0, "fusion_lat": 0.0, "name": "bf92754a75df35173284b62d28f540ec", "fusion_lon": 0.0}, {"is_reserved": 0, "type": "electric_scooter", "bike_id": "568207d154d6fcf0b2e7142f07de9120", "lat": 38.92728483333333, "lon": -77.02587083333333, "rental_uris": {"android": "https://dc.lft.to/lastmile_qr_scan", "ios": "https://dc.lft.to/lastmile_qr_scan"}, "is_disabled": 0, "fusion_lat": 0.0, "name": "568207d154d6fcf0b2e7142f07de9120", "fusion_lon": 0.0}, {"is_reserved": 0, "type": "electric_scooter", "bike_id": "25fa298b524f0ad3d0d97869e5b03d96", "lat": 38.91580883333334, "lon": -77.012357, "rental_uris": {"android": "https://dc.lft.to/lastmile_qr_scan", "ios": "https://dc.lft.to/lastmile_qr_scan"}, "is_disabled": 0, "fusion_lat": 0.0, "name": "25fa298b524f0ad3d0d97869e5b03d96", "fusion_lon": 0.0}, {"is_reserved": 0, "type": "electric_scooter", "bike_id": "27aef2943bd567e71f8f0c0a4c0d13e1", "lat": 38.913936666666665, "lon": -76.98414533333333, "rental_uris": {"android": "https://dc.lft.to/lastmile_qr_scan", "ios": "https://dc.lft.to/lastmile_qr_scan"}, "is_disabled": 0, "fusion_lat": 0.0, "name": "27aef2943bd567e71f8f0c0a4c0d13e1", "fusion_lon": 0.0}, {"is_reserved": 0, "type": "electric_scooter", "bike_id": "f76c2e4fefc0ebada62bd19f6d8bfab0", "lat": 38.89846, "lon": -77.0286125, "rental_uris": {"android": "https://dc.lft.to/lastmile_qr_scan", "ios": "https://dc.lft.to/lastmile_qr_scan"}, "is_disabled": 0, "fusion_lat": 0.0, "name": "f76c2e4fefc0ebada62bd19f6d8bfab0", "fusion_lon": 0.0}, {"is_reserved": 0, "type": "electric_scooter", "bike_id": "35b4de6e33645e20599dd1b585082576", "lat": 38.92398766666667, "lon": -77.0506395, "rental_uris": {"android": "https://dc.lft.to/lastmile_qr_scan", "ios": "https://dc.lft.to/lastmile_qr_scan"}, "is_disabled": 0, "fusion_lat": 0.0, "name": "35b4de6e33645e20599dd1b585082576", "fusion_lon": 0.0}, {"is_reserved": 0, "type": "electric_scooter", "bike_id": "b9e5ad4b72f57871dac8a8fd8b3d07d5", "lat": 38.8922855, "lon": -77.04995133333334, "rental_uris": {"android": "https://dc.lft.to/lastmile_qr_scan", "ios": "https://dc.lft.to/lastmile_qr_scan"}, "is_disabled": 0, "fusion_lat": 0.0, "name": "b9e5ad4b72f57871dac8a8fd8b3d07d5", "fusion_lon": 0.0}, {"is_reserved": 0, "type": "electric_scooter", "bike_id": "acc2a117983b03a32a045bc0786daabf", "lat": 38.9261545, "lon": -77.02154366666667, "rental_uris": {"android": "https://dc.lft.to/lastmile_qr_scan", "ios": "https://dc.lft.to/lastmile_qr_scan"}, "is_disabled": 0, "fusion_lat": 0.0, "name": "acc2a117983b03a32a045bc0786daabf", "fusion_lon": 0.0}, {"is_reserved": 0, "type": "electric_scooter", "bike_id": "07cfea0ad6d4be7dfa8880d4e2e81bb6", "lat": 38.900027333333334, "lon": -77.02715133333334, "rental_uris": {"android": "https://dc.lft.to/lastmile_qr_scan", "ios": "https://dc.lft.to/lastmile_qr_scan"}, "is_disabled": 0, "fusion_lat": 0.0, "name": "07cfea0ad6d4be7dfa8880d4e2e81bb6", "fusion_lon": 0.0}, {"is_reserved": 0, "type": "electric_scooter", "bike_id": "c7d7436a5ce442e230782ac079770bd8", "lat": 38.952553333333334, "lon": -77.02392, "rental_uris": {"android": "https://dc.lft.to/lastmile_qr_scan", "ios": "https://dc.lft.to/lastmile_qr_scan"}, "is_disabled": 0, "fusion_lat": 0.0, "name": "c7d7436a5ce442e230782ac079770bd8", "fusion_lon": 0.0}, {"is_reserved": 0, "type": "electric_scooter", "bike_id": "0b6dca46d5014b98eca62cea816adf44", "lat": 38.91636716666667, "lon": -77.0156805, "rental_uris": {"android": "https://dc.lft.to/lastmile_qr_scan", "ios": "https://dc.lft.to/lastmile_qr_scan"}, "is_disabled": 0, "fusion_lat": 0.0, "name": "0b6dca46d5014b98eca62cea816adf44", "fusion_lon": 0.0}, {"is_reserved": 0, "type": "electric_scooter", "bike_id": "748a32e81d64a151a5a5663a4daa6570", "lat": 38.9171355, "lon": -77.03208183333334, "rental_uris": {"android": "https://dc.lft.to/lastmile_qr_scan", "ios": "https://dc.lft.to/lastmile_qr_scan"}, "is_disabled": 0, "fusion_lat": 0.0, "name": "748a32e81d64a151a5a5663a4daa6570", "fusion_lon": 0.0}, {"is_reserved": 0, "type": "electric_scooter", "bike_id": "907b10d501a7ddecfbaaf8229b2a4b30", "lat": 38.93530883333333, "lon": -77.024894, "rental_uris": {"android": "https://dc.lft.to/lastmile_qr_scan", "ios": "https://dc.lft.to/lastmile_qr_scan"}, "is_disabled": 0, "fusion_lat": 0.0, "name": "907b10d501a7ddecfbaaf8229b2a4b30", "fusion_lon": 0.0}, {"is_reserved": 0, "type": "electric_scooter", "bike_id": "9b49578ee6ba9d3b7901951c3c90fc8d", "lat": 38.91868766666666, "lon": -77.013525, "rental_uris": {"android": "https://dc.lft.to/lastmile_qr_scan", "ios": "https://dc.lft.to/lastmile_qr_scan"}, "is_disabled": 0, "fusion_lat": 0.0, "name": "9b49578ee6ba9d3b7901951c3c90fc8d", "fusion_lon": 0.0}, {"is_reserved": 0, "type": "electric_bike", "bike_id": "e8487403a205eac164d9eb8a273c2d6a", "lat": 38.995483666666665, "lon": -77.07464666666667, "rental_uris": {"android": "https://dc.lft.to/lastmile_qr_scan", "ios": "https://dc.lft.to/lastmile_qr_scan"}, "is_disabled": 0, "fusion_lat": 0.0, "name": "e8487403a205eac164d9eb8a273c2d6a", "fusion_lon": 0.0}, {"is_reserved": 0, "type": "electric_scooter", "bike_id": "9b59b321d82e97810c7fd97dc0bdcd3c", "lat": 38.905918166666666, "lon": -77.03638283333333, "rental_uris": {"android": "https://dc.lft.to/lastmile_qr_scan", "ios": "https://dc.lft.to/lastmile_qr_scan"}, "is_disabled": 0, "fusion_lat": 0.0, "name": "9b59b321d82e97810c7fd97dc0bdcd3c", "fusion_lon": 0.0}, {"is_reserved": 0, "type": "electric_scooter", "bike_id": "daa3538fa0334637fd5c7121431a41cd", "lat": 38.966478333333335, "lon": -77.008924, "rental_uris": {"android": "https://dc.lft.to/lastmile_qr_scan", "ios": "https://dc.lft.to/lastmile_qr_scan"}, "is_disabled": 0, "fusion_lat": 0.0, "name": "daa3538fa0334637fd5c7121431a41cd", "fusion_lon": 0.0}, {"is_reserved": 0, "type": "electric_scooter", "bike_id": "3b9119c25c66146d4acc5f662c8645e2", "lat": 38.924204833333334, "lon": -77.02002483333334, "rental_uris": {"android": "https://dc.lft.to/lastmile_qr_scan", "ios": "https://dc.lft.to/lastmile_qr_scan"}, "is_disabled": 0, "fusion_lat": 0.0, "name": "3b9119c25c66146d4acc5f662c8645e2", "fusion_lon": 0.0}, {"is_reserved": 0, "type": "electric_scooter", "bike_id": "2eccbc01441e00592d49d0169fe74754", "lat": 38.8602015, "lon": -76.96998533333333, "rental_uris": {"android": "https://dc.lft.to/lastmile_qr_scan", "ios": "https://dc.lft.to/lastmile_qr_scan"}, "is_disabled": 0, "fusion_lat": 0.0, "name": "2eccbc01441e00592d49d0169fe74754", "fusion_lon": 0.0}, {"is_reserved": 0, "type": "electric_scooter", "bike_id": "bdc429c905aca5502b30d2e72053a139", "lat": 38.901449666666664, "lon": -76.99111016666667, "rental_uris": {"android": "https://dc.lft.to/lastmile_qr_scan", "ios": "https://dc.lft.to/lastmile_qr_scan"}, "is_disabled": 0, "fusion_lat": 0.0, "name": "bdc429c905aca5502b30d2e72053a139", "fusion_lon": 0.0}, {"is_reserved": 0, "type": "electric_scooter", "bike_id": "1bf9f175dfe801637b90e8bab95bcb7a", "lat": 38.909766, "lon": -77.011102, "rental_uris": {"android": "https://dc.lft.to/lastmile_qr_scan", "ios": "https://dc.lft.to/lastmile_qr_scan"}, "is_disabled": 0, "fusion_lat": 0.0, "name": "1bf9f175dfe801637b90e8bab95bcb7a", "fusion_lon": 0.0}, {"is_reserved": 0, "type": "electric_scooter", "bike_id": "d75d853003953836c6ce40c0de8a47f2", "lat": 38.951836, "lon": -77.01265283333333, "rental_uris": {"android": "https://dc.lft.to/lastmile_qr_scan", "ios": "https://dc.lft.to/lastmile_qr_scan"}, "is_disabled": 0, "fusion_lat": 0.0, "name": "d75d853003953836c6ce40c0de8a47f2", "fusion_lon": 0.0}, {"is_reserved": 0, "type": "electric_scooter", "bike_id": "250e3bbca7774d1ab0c9e8a4225cf0ca", "lat": 38.93076116666667, "lon": -77.0281455, "rental_uris": {"android": "https://dc.lft.to/lastmile_qr_scan", "ios": "https://dc.lft.to/lastmile_qr_scan"}, "is_disabled": 0, "fusion_lat": 0.0, "name": "250e3bbca7774d1ab0c9e8a4225cf0ca", "fusion_lon": 0.0}, {"is_reserved": 0, "type": "electric_scooter", "bike_id": "acb17041b07797a7d72bb0465cd0ccc1", "lat": 38.90029883333333, "lon": -77.04685116666667, "rental_uris": {"android": "https://dc.lft.to/lastmile_qr_scan", "ios": "https://dc.lft.to/lastmile_qr_scan"}, "is_disabled": 0, "fusion_lat": 0.0, "name": "acb17041b07797a7d72bb0465cd0ccc1", "fusion_lon": 0.0}, {"is_reserved": 0, "type": "electric_scooter", "bike_id": "7490af69797288f8ab39fa43faa93504", "lat": 38.91099033333333, "lon": -77.023805, "rental_uris": {"android": "https://dc.lft.to/lastmile_qr_scan", "ios": "https://dc.lft.to/lastmile_qr_scan"}, "is_disabled": 0, "fusion_lat": 0.0, "name": "7490af69797288f8ab39fa43faa93504", "fusion_lon": 0.0}, {"is_reserved": 0, "type": "electric_scooter", "bike_id": "0100f0df5a11fb1cd890601e8464d706", "lat": 38.931444, "lon": -77.038266, "rental_uris": {"android": "https://dc.lft.to/lastmile_qr_scan", "ios": "https://dc.lft.to/lastmile_qr_scan"}, "is_disabled": 0, "fusion_lat": 0.0, "name": "0100f0df5a11fb1cd890601e8464d706", "fusion_lon": 0.0}, {"is_reserved": 0, "type": "electric_scooter", "bike_id": "0db74081d28cecb6bdc409b6ca89f4a5", "lat": 38.9334315, "lon": -77.03664033333334, "rental_uris": {"android": "https://dc.lft.to/lastmile_qr_scan", "ios": "https://dc.lft.to/lastmile_qr_scan"}, "is_disabled": 0, "fusion_lat": 0.0, "name": "0db74081d28cecb6bdc409b6ca89f4a5", "fusion_lon": 0.0}, {"is_reserved": 0, "type": "electric_scooter", "bike_id": "e0be97687447f760ae00172f59e131ab", "lat": 38.96138633333333, "lon": -77.0281445, "rental_uris": {"android": "https://dc.lft.to/lastmile_qr_scan", "ios": "https://dc.lft.to/lastmile_qr_scan"}, "is_disabled": 0, "fusion_lat": 0.0, "name": "e0be97687447f760ae00172f59e131ab", "fusion_lon": 0.0}, {"is_reserved": 0, "type": "electric_scooter", "bike_id": "bf01680415e316243161ce07261b61c8", "lat": 38.90617733333333, "lon": -77.02591766666667, "rental_uris": {"android": "https://dc.lft.to/lastmile_qr_scan", "ios": "https://dc.lft.to/lastmile_qr_scan"}, "is_disabled": 0, "fusion_lat": 0.0, "name": "bf01680415e316243161ce07261b61c8", "fusion_lon": 0.0}, {"is_reserved": 0, "type": "electric_scooter", "bike_id": "ccf2d4b4d8652e3aa8e6e009f118e4b3", "lat": 38.895531, "lon": -76.98337166666667, "rental_uris": {"android": "https://dc.lft.to/lastmile_qr_scan", "ios": "https://dc.lft.to/lastmile_qr_scan"}, "is_disabled": 0, "fusion_lat": 0.0, "name": "ccf2d4b4d8652e3aa8e6e009f118e4b3", "fusion_lon": 0.0}, {"is_reserved": 0, "type": "electric_scooter", "bike_id": "a44ce902749b0508e589ec6150433f2c", "lat": 38.90668983333333, "lon": -76.98022, "rental_uris": {"android": "https://dc.lft.to/lastmile_qr_scan", "ios": "https://dc.lft.to/lastmile_qr_scan"}, "is_disabled": 0, "fusion_lat": 0.0, "name": "a44ce902749b0508e589ec6150433f2c", "fusion_lon": 0.0}, {"is_reserved": 0, "type": "electric_scooter", "bike_id": "9793471718f00c84a3137b51a81e9428", "lat": 38.90948383333333, "lon": -77.0442355, "rental_uris": {"android": "https://dc.lft.to/lastmile_qr_scan", "ios": "https://dc.lft.to/lastmile_qr_scan"}, "is_disabled": 0, "fusion_lat": 0.0, "name": "9793471718f00c84a3137b51a81e9428", "fusion_lon": 0.0}, {"is_reserved": 0, "type": "electric_scooter", "bike_id": "587857a2127daf5b4458869efb860107", "lat": 38.871624, "lon": -77.0135055, "rental_uris": {"android": "https://dc.lft.to/lastmile_qr_scan", "ios": "https://dc.lft.to/lastmile_qr_scan"}, "is_disabled": 0, "fusion_lat": 0.0, "name": "587857a2127daf5b4458869efb860107", "fusion_lon": 0.0}, {"is_reserved": 0, "type": "electric_scooter", "bike_id": "c3cf93089fe029fba4444c6d89c84ee5", "lat": 38.9100395, "lon": -77.03185, "rental_uris": {"android": "https://dc.lft.to/lastmile_qr_scan", "ios": "https://dc.lft.to/lastmile_qr_scan"}, "is_disabled": 0, "fusion_lat": 0.0, "name": "c3cf93089fe029fba4444c6d89c84ee5", "fusion_lon": 0.0}, {"is_reserved": 0, "type": "electric_scooter", "bike_id": "20883cf50842c9bb1f8bfa27e714d216", "lat": 38.90032716666666, "lon": -76.9887435, "rental_uris": {"android": "https://dc.lft.to/lastmile_qr_scan", "ios": "https://dc.lft.to/lastmile_qr_scan"}, "is_disabled": 0, "fusion_lat": 0.0, "name": "20883cf50842c9bb1f8bfa27e714d216", "fusion_lon": 0.0}, {"is_reserved": 0, "type": "electric_scooter", "bike_id": "660b817df52f9c88d36a29d60f95a4d3", "lat": 38.93694516666667, "lon": -77.02711633333334, "rental_uris": {"android": "https://dc.lft.to/lastmile_qr_scan", "ios": "https://dc.lft.to/lastmile_qr_scan"}, "is_disabled": 0, "fusion_lat": 0.0, "name": "660b817df52f9c88d36a29d60f95a4d3", "fusion_lon": 0.0}, {"is_reserved": 0, "type": "electric_bike", "bike_id": "abe6788008315ff31fc503587b1ed32f", "lat": 38.918099166666664, "lon": -77.0095985, "rental_uris": {"android": "https://dc.lft.to/lastmile_qr_scan", "ios": "https://dc.lft.to/lastmile_qr_scan"}, "is_disabled": 0, "fusion_lat": 0.0, "name": "abe6788008315ff31fc503587b1ed32f", "fusion_lon": 0.0}, {"is_reserved": 0, "type": "electric_scooter", "bike_id": "2bfe5f93b811c7349713f7aa900d04e4", "lat": 38.898509833333335, "lon": -76.92748666666667, "rental_uris": {"android": "https://dc.lft.to/lastmile_qr_scan", "ios": "https://dc.lft.to/lastmile_qr_scan"}, "is_disabled": 0, "fusion_lat": 0.0, "name": "2bfe5f93b811c7349713f7aa900d04e4", "fusion_lon": 0.0}, {"is_reserved": 0, "type": "electric_scooter", "bike_id": "3561304597e2990fbb55f8cf2c13efa3", "lat": 38.944447333333336, "lon": -77.0291225, "rental_uris": {"android": "https://dc.lft.to/lastmile_qr_scan", "ios": "https://dc.lft.to/lastmile_qr_scan"}, "is_disabled": 0, "fusion_lat": 0.0, "name": "3561304597e2990fbb55f8cf2c13efa3", "fusion_lon": 0.0}, {"is_reserved": 0, "type": "electric_scooter", "bike_id": "d86e2b6cfb632ab3e421f1682fc03670", "lat": 38.925678, "lon": -76.96999583333333, "rental_uris": {"android": "https://dc.lft.to/lastmile_qr_scan", "ios": "https://dc.lft.to/lastmile_qr_scan"}, "is_disabled": 0, "fusion_lat": 0.0, "name": "d86e2b6cfb632ab3e421f1682fc03670", "fusion_lon": 0.0}, {"is_reserved": 0, "type": "electric_scooter", "bike_id": "3cdeec86bd11b20f1f165bb66f35cc7f", "lat": 38.915724, "lon": -77.02174216666667, "rental_uris": {"android": "https://dc.lft.to/lastmile_qr_scan", "ios": "https://dc.lft.to/lastmile_qr_scan"}, "is_disabled": 0, "fusion_lat": 0.0, "name": "3cdeec86bd11b20f1f165bb66f35cc7f", "fusion_lon": 0.0}, {"is_reserved": 0, "type": "electric_scooter", "bike_id": "ec971c2841e059446e5d27a1783c36c0", "lat": 38.877631, "lon": -76.9942215, "rental_uris": {"android": "https://dc.lft.to/lastmile_qr_scan", "ios": "https://dc.lft.to/lastmile_qr_scan"}, "is_disabled": 0, "fusion_lat": 0.0, "name": "ec971c2841e059446e5d27a1783c36c0", "fusion_lon": 0.0}, {"is_reserved": 0, "type": "electric_scooter", "bike_id": "ffbb9cfab71f9ea524eab89392f0e77a", "lat": 38.884402333333334, "lon": -76.9947375, "rental_uris": {"android": "https://dc.lft.to/lastmile_qr_scan", "ios": "https://dc.lft.to/lastmile_qr_scan"}, "is_disabled": 0, "fusion_lat": 0.0, "name": "ffbb9cfab71f9ea524eab89392f0e77a", "fusion_lon": 0.0}, {"is_reserved": 0, "type": "electric_scooter", "bike_id": "cea7c84e7c3688ba25e29a9721663b24", "lat": 38.906507500000004, "lon": -77.04659183333334, "rental_uris": {"android": "https://dc.lft.to/lastmile_qr_scan", "ios": "https://dc.lft.to/lastmile_qr_scan"}, "is_disabled": 0, "fusion_lat": 0.0, "name": "cea7c84e7c3688ba25e29a9721663b24", "fusion_lon": 0.0}, {"is_reserved": 0, "type": "electric_scooter", "bike_id": "407ff6d242ea2fd54df1199c7a053971", "lat": 38.89608483333333, "lon": -77.04399383333333, "rental_uris": {"android": "https://dc.lft.to/lastmile_qr_scan", "ios": "https://dc.lft.to/lastmile_qr_scan"}, "is_disabled": 0, "fusion_lat": 0.0, "name": "407ff6d242ea2fd54df1199c7a053971", "fusion_lon": 0.0}, {"is_reserved": 0, "type": "electric_scooter", "bike_id": "a0e1baa1b932a7b9f3bbab7f344c1f34", "lat": 38.89888716666667, "lon": -76.93174033333334, "rental_uris": {"android": "https://dc.lft.to/lastmile_qr_scan", "ios": "https://dc.lft.to/lastmile_qr_scan"}, "is_disabled": 0, "fusion_lat": 0.0, "name": "a0e1baa1b932a7b9f3bbab7f344c1f34", "fusion_lon": 0.0}, {"is_reserved": 0, "type": "electric_scooter", "bike_id": "ffe83d7975be56f67bc01b47c869eb5c", "lat": 38.929523833333334, "lon": -77.0040005, "rental_uris": {"android": "https://dc.lft.to/lastmile_qr_scan", "ios": "https://dc.lft.to/lastmile_qr_scan"}, "is_disabled": 0, "fusion_lat": 0.0, "name": "ffe83d7975be56f67bc01b47c869eb5c", "fusion_lon": 0.0}, {"is_reserved": 0, "type": "electric_scooter", "bike_id": "61a3c2025d790dff18d06743823919d6", "lat": 38.90742133333333, "lon": -77.0029155, "rental_uris": {"android": "https://dc.lft.to/lastmile_qr_scan", "ios": "https://dc.lft.to/lastmile_qr_scan"}, "is_disabled": 0, "fusion_lat": 0.0, "name": "61a3c2025d790dff18d06743823919d6", "fusion_lon": 0.0}, {"is_reserved": 0, "type": "electric_scooter", "bike_id": "63565674a424204820d03eab17e8009e", "lat": 38.93120783333333, "lon": -77.020856, "rental_uris": {"android": "https://dc.lft.to/lastmile_qr_scan", "ios": "https://dc.lft.to/lastmile_qr_scan"}, "is_disabled": 0, "fusion_lat": 0.0, "name": "63565674a424204820d03eab17e8009e", "fusion_lon": 0.0}, {"is_reserved": 0, "type": "electric_scooter", "bike_id": "7be006a4296009fc2ae1bd07785d96df", "lat": 38.942463833333335, "lon": -77.03579066666667, "rental_uris": {"android": "https://dc.lft.to/lastmile_qr_scan", "ios": "https://dc.lft.to/lastmile_qr_scan"}, "is_disabled": 0, "fusion_lat": 0.0, "name": "7be006a4296009fc2ae1bd07785d96df", "fusion_lon": 0.0}, {"is_reserved": 0, "type": "electric_scooter", "bike_id": "1f68091ac5bb8d2442a56cdb733f7ab5", "lat": 38.900691, "lon": -76.92738516666667, "rental_uris": {"android": "https://dc.lft.to/lastmile_qr_scan", "ios": "https://dc.lft.to/lastmile_qr_scan"}, "is_disabled": 0, "fusion_lat": 0.0, "name": "1f68091ac5bb8d2442a56cdb733f7ab5", "fusion_lon": 0.0}, {"is_reserved": 0, "type": "electric_scooter", "bike_id": "5e5ff58c78051baa7d63000cd8a1d6ea", "lat": 38.92954733333333, "lon": -77.02340416666667, "rental_uris": {"android": "https://dc.lft.to/lastmile_qr_scan", "ios": "https://dc.lft.to/lastmile_qr_scan"}, "is_disabled": 0, "fusion_lat": 0.0, "name": "5e5ff58c78051baa7d63000cd8a1d6ea", "fusion_lon": 0.0}, {"is_reserved": 0, "type": "electric_scooter", "bike_id": "30f83208070d7066a18b0c4848bc0290", "lat": 38.924925, "lon": -77.0407095, "rental_uris": {"android": "https://dc.lft.to/lastmile_qr_scan", "ios": "https://dc.lft.to/lastmile_qr_scan"}, "is_disabled": 0, "fusion_lat": 0.0, "name": "30f83208070d7066a18b0c4848bc0290", "fusion_lon": 0.0}, {"is_reserved": 0, "type": "electric_scooter", "bike_id": "7b8c860e4203c1f31ba2a8ba7588c716", "lat": 38.918205, "lon": -77.03021516666666, "rental_uris": {"android": "https://dc.lft.to/lastmile_qr_scan", "ios": "https://dc.lft.to/lastmile_qr_scan"}, "is_disabled": 0, "fusion_lat": 0.0, "name": "7b8c860e4203c1f31ba2a8ba7588c716", "fusion_lon": 0.0}, {"is_reserved": 0, "type": "electric_scooter", "bike_id": "8dfdf5188843733593eee843b284513b", "lat": 38.910073, "lon": -77.04005216666667, "rental_uris": {"android": "https://dc.lft.to/lastmile_qr_scan", "ios": "https://dc.lft.to/lastmile_qr_scan"}, "is_disabled": 0, "fusion_lat": 0.0, "name": "8dfdf5188843733593eee843b284513b", "fusion_lon": 0.0}, {"is_reserved": 0, "type": "electric_scooter", "bike_id": "b772cccb35ce3802aa0266745116dee2", "lat": 38.905409, "lon": -77.00209333333333, "rental_uris": {"android": "https://dc.lft.to/lastmile_qr_scan", "ios": "https://dc.lft.to/lastmile_qr_scan"}, "is_disabled": 0, "fusion_lat": 0.0, "name": "b772cccb35ce3802aa0266745116dee2", "fusion_lon": 0.0}, {"is_reserved": 0, "type": "electric_scooter", "bike_id": "d6bdee2207d330e8028432d901ea9f95", "lat": 38.9280025, "lon": -77.02534033333333, "rental_uris": {"android": "https://dc.lft.to/lastmile_qr_scan", "ios": "https://dc.lft.to/lastmile_qr_scan"}, "is_disabled": 0, "fusion_lat": 0.0, "name": "d6bdee2207d330e8028432d901ea9f95", "fusion_lon": 0.0}, {"is_reserved": 0, "type": "electric_scooter", "bike_id": "67599fd2ae1068178cb7fae59e9dc0a6", "lat": 38.92041966666667, "lon": -77.04195016666667, "rental_uris": {"android": "https://dc.lft.to/lastmile_qr_scan", "ios": "https://dc.lft.to/lastmile_qr_scan"}, "is_disabled": 0, "fusion_lat": 0.0, "name": "67599fd2ae1068178cb7fae59e9dc0a6", "fusion_lon": 0.0}, {"is_reserved": 0, "type": "electric_scooter", "bike_id": "2110d06b13c2f5db8e9ddbae61f55143", "lat": 38.87299983333333, "lon": -77.00226366666666, "rental_uris": {"android": "https://dc.lft.to/lastmile_qr_scan", "ios": "https://dc.lft.to/lastmile_qr_scan"}, "is_disabled": 0, "fusion_lat": 0.0, "name": "2110d06b13c2f5db8e9ddbae61f55143", "fusion_lon": 0.0}, {"is_reserved": 0, "type": "electric_bike", "bike_id": "766713ee54607da776be28e64ca5d3dc", "lat": 38.89926466666667, "lon": -77.00192083333333, "rental_uris": {"android": "https://dc.lft.to/lastmile_qr_scan", "ios": "https://dc.lft.to/lastmile_qr_scan"}, "is_disabled": 0, "fusion_lat": 0.0, "name": "766713ee54607da776be28e64ca5d3dc", "fusion_lon": 0.0}, {"is_reserved": 0, "type": "electric_scooter", "bike_id": "a1b5e0c1bebd938774e807494517b164", "lat": 38.891475166666666, "lon": -76.99939216666667, "rental_uris": {"android": "https://dc.lft.to/lastmile_qr_scan", "ios": "https://dc.lft.to/lastmile_qr_scan"}, "is_disabled": 0, "fusion_lat": 0.0, "name": "a1b5e0c1bebd938774e807494517b164", "fusion_lon": 0.0}, {"is_reserved": 0, "type": "electric_scooter", "bike_id": "64b911026d5e5ece7ba1f43422a32a20", "lat": 38.89532833333333, "lon": -77.04472833333334, "rental_uris": {"android": "https://dc.lft.to/lastmile_qr_scan", "ios": "https://dc.lft.to/lastmile_qr_scan"}, "is_disabled": 0, "fusion_lat": 0.0, "name": "64b911026d5e5ece7ba1f43422a32a20", "fusion_lon": 0.0}, {"is_reserved": 0, "type": "electric_scooter", "bike_id": "2c3fdafdd0998921218151f5d9c4ac2f", "lat": 38.914908, "lon": -77.0323015, "rental_uris": {"android": "https://dc.lft.to/lastmile_qr_scan", "ios": "https://dc.lft.to/lastmile_qr_scan"}, "is_disabled": 0, "fusion_lat": 0.0, "name": "2c3fdafdd0998921218151f5d9c4ac2f", "fusion_lon": 0.0}, {"is_reserved": 0, "type": "electric_scooter", "bike_id": "63a7cce778cd2b41376c8d908b2af072", "lat": 38.926579833333335, "lon": -77.03708366666666, "rental_uris": {"android": "https://dc.lft.to/lastmile_qr_scan", "ios": "https://dc.lft.to/lastmile_qr_scan"}, "is_disabled": 0, "fusion_lat": 0.0, "name": "63a7cce778cd2b41376c8d908b2af072", "fusion_lon": 0.0}, {"is_reserved": 0, "type": "electric_bike", "bike_id": "1a1614820b1ccfe78f9f250993145095", "lat": 39.084931166666664, "lon": -76.95059366666666, "rental_uris": {"android": "https://dc.lft.to/lastmile_qr_scan", "ios": "https://dc.lft.to/lastmile_qr_scan"}, "is_disabled": 0, "fusion_lat": 0.0, "name": "1a1614820b1ccfe78f9f250993145095", "fusion_lon": 0.0}, {"is_reserved": 0, "type": "electric_scooter", "bike_id": "1a9fb7f4b0965669a2ca37d8180727a8", "lat": 38.957489833333334, "lon": -77.03016416666667, "rental_uris": {"android": "https://dc.lft.to/lastmile_qr_scan", "ios": "https://dc.lft.to/lastmile_qr_scan"}, "is_disabled": 0, "fusion_lat": 0.0, "name": "1a9fb7f4b0965669a2ca37d8180727a8", "fusion_lon": 0.0}, {"is_reserved": 0, "type": "electric_scooter", "bike_id": "20a673744a604fb8961f49a66c31c8de", "lat": 38.930517333333334, "lon": -77.0361185, "rental_uris": {"android": "https://dc.lft.to/lastmile_qr_scan", "ios": "https://dc.lft.to/lastmile_qr_scan"}, "is_disabled": 0, "fusion_lat": 0.0, "name": "20a673744a604fb8961f49a66c31c8de", "fusion_lon": 0.0}, {"is_reserved": 0, "type": "electric_scooter", "bike_id": "20360118eabcbbdb4220086f63b8b479", "lat": 38.918484666666664, "lon": -77.02426416666667, "rental_uris": {"android": "https://dc.lft.to/lastmile_qr_scan", "ios": "https://dc.lft.to/lastmile_qr_scan"}, "is_disabled": 0, "fusion_lat": 0.0, "name": "20360118eabcbbdb4220086f63b8b479", "fusion_lon": 0.0}, {"is_reserved": 0, "type": "electric_scooter", "bike_id": "814a9bb8e9cd79113f8737cde9d98ce6", "lat": 38.944353666666665, "lon": -76.979625, "rental_uris": {"android": "https://dc.lft.to/lastmile_qr_scan", "ios": "https://dc.lft.to/lastmile_qr_scan"}, "is_disabled": 0, "fusion_lat": 0.0, "name": "814a9bb8e9cd79113f8737cde9d98ce6", "fusion_lon": 0.0}, {"is_reserved": 0, "type": "electric_scooter", "bike_id": "24b1a507438c7ad0513daae6fb04d04f", "lat": 38.939988666666665, "lon": -77.01954066666667, "rental_uris": {"android": "https://dc.lft.to/lastmile_qr_scan", "ios": "https://dc.lft.to/lastmile_qr_scan"}, "is_disabled": 0, "fusion_lat": 0.0, "name": "24b1a507438c7ad0513daae6fb04d04f", "fusion_lon": 0.0}, {"is_reserved": 0, "type": "electric_scooter", "bike_id": "31ff1229877cd38cf74bc8fe9256a9a7", "lat": 38.941872333333336, "lon": -77.0249075, "rental_uris": {"android": "https://dc.lft.to/lastmile_qr_scan", "ios": "https://dc.lft.to/lastmile_qr_scan"}, "is_disabled": 0, "fusion_lat": 0.0, "name": "31ff1229877cd38cf74bc8fe9256a9a7", "fusion_lon": 0.0}, {"is_reserved": 0, "type": "electric_scooter", "bike_id": "9516e8ca446ec680bf31e3dffa0053bc", "lat": 38.906222666666665, "lon": -77.00874766666666, "rental_uris": {"android": "https://dc.lft.to/lastmile_qr_scan", "ios": "https://dc.lft.to/lastmile_qr_scan"}, "is_disabled": 0, "fusion_lat": 0.0, "name": "9516e8ca446ec680bf31e3dffa0053bc", "fusion_lon": 0.0}, {"is_reserved": 0, "type": "electric_scooter", "bike_id": "eb16c13c3c8ef345b4547cfd142ab516", "lat": 38.90065933333333, "lon": -77.05296516666667, "rental_uris": {"android": "https://dc.lft.to/lastmile_qr_scan", "ios": "https://dc.lft.to/lastmile_qr_scan"}, "is_disabled": 0, "fusion_lat": 0.0, "name": "eb16c13c3c8ef345b4547cfd142ab516", "fusion_lon": 0.0}, {"is_reserved": 0, "type": "electric_scooter", "bike_id": "6071566230d697f9e4bd2fabca3ff196", "lat": 38.90505233333333, "lon": -77.0294085, "rental_uris": {"android": "https://dc.lft.to/lastmile_qr_scan", "ios": "https://dc.lft.to/lastmile_qr_scan"}, "is_disabled": 0, "fusion_lat": 0.0, "name": "6071566230d697f9e4bd2fabca3ff196", "fusion_lon": 0.0}, {"is_reserved": 0, "type": "electric_scooter", "bike_id": "442042b919d69cde394f799c8a695ace", "lat": 38.927754666666665, "lon": -77.02780366666667, "rental_uris": {"android": "https://dc.lft.to/lastmile_qr_scan", "ios": "https://dc.lft.to/lastmile_qr_scan"}, "is_disabled": 0, "fusion_lat": 0.0, "name": "442042b919d69cde394f799c8a695ace", "fusion_lon": 0.0}, {"is_reserved": 0, "type": "electric_scooter", "bike_id": "a7fdc8b8d430a57cd89ec141060b6265", "lat": 38.8934085, "lon": -77.01948, "rental_uris": {"android": "https://dc.lft.to/lastmile_qr_scan", "ios": "https://dc.lft.to/lastmile_qr_scan"}, "is_disabled": 0, "fusion_lat": 0.0, "name": "a7fdc8b8d430a57cd89ec141060b6265", "fusion_lon": 0.0}, {"is_reserved": 0, "type": "electric_scooter", "bike_id": "310dfc815df4286c98ad579100d8b4ea", "lat": 38.91021, "lon": -76.9936975, "rental_uris": {"android": "https://dc.lft.to/lastmile_qr_scan", "ios": "https://dc.lft.to/lastmile_qr_scan"}, "is_disabled": 0, "fusion_lat": 0.0, "name": "310dfc815df4286c98ad579100d8b4ea", "fusion_lon": 0.0}, {"is_reserved": 0, "type": "electric_scooter", "bike_id": "386fd3f84682e4be544d351383979f36", "lat": 38.89227433333333, "lon": -77.0310695, "rental_uris": {"android": "https://dc.lft.to/lastmile_qr_scan", "ios": "https://dc.lft.to/lastmile_qr_scan"}, "is_disabled": 0, "fusion_lat": 0.0, "name": "386fd3f84682e4be544d351383979f36", "fusion_lon": 0.0}, {"is_reserved": 0, "type": "electric_scooter", "bike_id": "de2ad2ed38e6c73f5db20d8fb4ba21ae", "lat": 38.93117683333333, "lon": -77.023201, "rental_uris": {"android": "https://dc.lft.to/lastmile_qr_scan", "ios": "https://dc.lft.to/lastmile_qr_scan"}, "is_disabled": 0, "fusion_lat": 0.0, "name": "de2ad2ed38e6c73f5db20d8fb4ba21ae", "fusion_lon": 0.0}, {"is_reserved": 0, "type": "electric_scooter", "bike_id": "bf94d6d1d00922a89369bc05224e72ba", "lat": 38.92204733333333, "lon": -77.02030366666666, "rental_uris": {"android": "https://dc.lft.to/lastmile_qr_scan", "ios": "https://dc.lft.to/lastmile_qr_scan"}, "is_disabled": 0, "fusion_lat": 0.0, "name": "bf94d6d1d00922a89369bc05224e72ba", "fusion_lon": 0.0}, {"is_reserved": 0, "type": "electric_scooter", "bike_id": "2988d69b13938054cf5c1c97f7919f1e", "lat": 38.916117, "lon": -77.02188983333333, "rental_uris": {"android": "https://dc.lft.to/lastmile_qr_scan", "ios": "https://dc.lft.to/lastmile_qr_scan"}, "is_disabled": 0, "fusion_lat": 0.0, "name": "2988d69b13938054cf5c1c97f7919f1e", "fusion_lon": 0.0}, {"is_reserved": 0, "type": "electric_scooter", "bike_id": "120d21436d3bd51797944d35902c1921", "lat": 38.9388365, "lon": -77.03282166666666, "rental_uris": {"android": "https://dc.lft.to/lastmile_qr_scan", "ios": "https://dc.lft.to/lastmile_qr_scan"}, "is_disabled": 0, "fusion_lat": 0.0, "name": "120d21436d3bd51797944d35902c1921", "fusion_lon": 0.0}, {"is_reserved": 0, "type": "electric_scooter", "bike_id": "13f00f6483032edef35538cb8e0ff0ca", "lat": 38.900173, "lon": -76.9916915, "rental_uris": {"android": "https://dc.lft.to/lastmile_qr_scan", "ios": "https://dc.lft.to/lastmile_qr_scan"}, "is_disabled": 0, "fusion_lat": 0.0, "name": "13f00f6483032edef35538cb8e0ff0ca", "fusion_lon": 0.0}, {"is_reserved": 0, "type": "electric_scooter", "bike_id": "e6ae617afc9b8306800f54c61b4172ea", "lat": 38.887290166666666, "lon": -77.02823316666667, "rental_uris": {"android": "https://dc.lft.to/lastmile_qr_scan", "ios": "https://dc.lft.to/lastmile_qr_scan"}, "is_disabled": 0, "fusion_lat": 0.0, "name": "e6ae617afc9b8306800f54c61b4172ea", "fusion_lon": 0.0}, {"is_reserved": 0, "type": "electric_scooter", "bike_id": "83214c6b1145d09771417eec8539ea1c", "lat": 38.93062883333333, "lon": -77.03939633333333, "rental_uris": {"android": "https://dc.lft.to/lastmile_qr_scan", "ios": "https://dc.lft.to/lastmile_qr_scan"}, "is_disabled": 0, "fusion_lat": 0.0, "name": "83214c6b1145d09771417eec8539ea1c", "fusion_lon": 0.0}, {"is_reserved": 0, "type": "electric_scooter", "bike_id": "5ee836a4c8547f8231f29082bc892c19", "lat": 38.932851, "lon": -77.039372, "rental_uris": {"android": "https://dc.lft.to/lastmile_qr_scan", "ios": "https://dc.lft.to/lastmile_qr_scan"}, "is_disabled": 0, "fusion_lat": 0.0, "name": "5ee836a4c8547f8231f29082bc892c19", "fusion_lon": 0.0}, {"is_reserved": 0, "type": "electric_scooter", "bike_id": "97c4f939d1edd2076d7c5841c05e4176", "lat": 38.8750045, "lon": -77.00233633333333, "rental_uris": {"android": "https://dc.lft.to/lastmile_qr_scan", "ios": "https://dc.lft.to/lastmile_qr_scan"}, "is_disabled": 0, "fusion_lat": 0.0, "name": "97c4f939d1edd2076d7c5841c05e4176", "fusion_lon": 0.0}, {"is_reserved": 0, "type": "electric_scooter", "bike_id": "41708403bf11fcca9eafe9b82b644baf", "lat": 38.9341055, "lon": -77.04547166666667, "rental_uris": {"android": "https://dc.lft.to/lastmile_qr_scan", "ios": "https://dc.lft.to/lastmile_qr_scan"}, "is_disabled": 0, "fusion_lat": 0.0, "name": "41708403bf11fcca9eafe9b82b644baf", "fusion_lon": 0.0}, {"is_reserved": 0, "type": "electric_scooter", "bike_id": "8c27ad670981680aed25e924146debf7", "lat": 38.9030335, "lon": -76.93415783333333, "rental_uris": {"android": "https://dc.lft.to/lastmile_qr_scan", "ios": "https://dc.lft.to/lastmile_qr_scan"}, "is_disabled": 0, "fusion_lat": 0.0, "name": "8c27ad670981680aed25e924146debf7", "fusion_lon": 0.0}, {"is_reserved": 0, "type": "electric_scooter", "bike_id": "e71a0d09d4de86382d93381d0adec162", "lat": 38.90960616666667, "lon": -77.03468883333333, "rental_uris": {"android": "https://dc.lft.to/lastmile_qr_scan", "ios": "https://dc.lft.to/lastmile_qr_scan"}, "is_disabled": 0, "fusion_lat": 0.0, "name": "e71a0d09d4de86382d93381d0adec162", "fusion_lon": 0.0}, {"is_reserved": 0, "type": "electric_scooter", "bike_id": "a5fee62074a08788362f7c3c9cfbe02f", "lat": 38.895033166666664, "lon": -77.02164483333334, "rental_uris": {"android": "https://dc.lft.to/lastmile_qr_scan", "ios": "https://dc.lft.to/lastmile_qr_scan"}, "is_disabled": 0, "fusion_lat": 0.0, "name": "a5fee62074a08788362f7c3c9cfbe02f", "fusion_lon": 0.0}, {"is_reserved": 0, "type": "electric_bike", "bike_id": "28e553a7f8932915d5e9536f6bdeec4d", "lat": 38.961282833333335, "lon": -77.00867566666666, "rental_uris": {"android": "https://dc.lft.to/lastmile_qr_scan", "ios": "https://dc.lft.to/lastmile_qr_scan"}, "is_disabled": 0, "fusion_lat": 0.0, "name": "28e553a7f8932915d5e9536f6bdeec4d", "fusion_lon": 0.0}, {"is_reserved": 0, "type": "electric_scooter", "bike_id": "3b5abb0bdd237828735904eacd2829f6", "lat": 38.9206115, "lon": -77.02506183333334, "rental_uris": {"android": "https://dc.lft.to/lastmile_qr_scan", "ios": "https://dc.lft.to/lastmile_qr_scan"}, "is_disabled": 0, "fusion_lat": 0.0, "name": "3b5abb0bdd237828735904eacd2829f6", "fusion_lon": 0.0}, {"is_reserved": 0, "type": "electric_scooter", "bike_id": "45f8da38f943002b5240b35a74c93547", "lat": 38.945144166666665, "lon": -77.03356966666666, "rental_uris": {"android": "https://dc.lft.to/lastmile_qr_scan", "ios": "https://dc.lft.to/lastmile_qr_scan"}, "is_disabled": 0, "fusion_lat": 0.0, "name": "45f8da38f943002b5240b35a74c93547", "fusion_lon": 0.0}, {"is_reserved": 0, "type": "electric_scooter", "bike_id": "2cbfaae9222b860becbfa221af1a1368", "lat": 38.91628766666667, "lon": -77.03168666666667, "rental_uris": {"android": "https://dc.lft.to/lastmile_qr_scan", "ios": "https://dc.lft.to/lastmile_qr_scan"}, "is_disabled": 0, "fusion_lat": 0.0, "name": "2cbfaae9222b860becbfa221af1a1368", "fusion_lon": 0.0}, {"is_reserved": 0, "type": "electric_scooter", "bike_id": "112c9c05649e8a0a901b29db5a4da151", "lat": 38.931185, "lon": -77.023183, "rental_uris": {"android": "https://dc.lft.to/lastmile_qr_scan", "ios": "https://dc.lft.to/lastmile_qr_scan"}, "is_disabled": 0, "fusion_lat": 0.0, "name": "112c9c05649e8a0a901b29db5a4da151", "fusion_lon": 0.0}, {"is_reserved": 0, "type": "electric_scooter", "bike_id": "8107bf4ef12822b06119925125c7036a", "lat": 38.89619, "lon": -77.04415983333334, "rental_uris": {"android": "https://dc.lft.to/lastmile_qr_scan", "ios": "https://dc.lft.to/lastmile_qr_scan"}, "is_disabled": 0, "fusion_lat": 0.0, "name": "8107bf4ef12822b06119925125c7036a", "fusion_lon": 0.0}, {"is_reserved": 0, "type": "electric_scooter", "bike_id": "2b00c21c8f4d616441d5b0730efbd56d", "lat": 38.915646833333334, "lon": -77.03115016666666, "rental_uris": {"android": "https://dc.lft.to/lastmile_qr_scan", "ios": "https://dc.lft.to/lastmile_qr_scan"}, "is_disabled": 0, "fusion_lat": 0.0, "name": "2b00c21c8f4d616441d5b0730efbd56d", "fusion_lon": 0.0}, {"is_reserved": 0, "type": "electric_scooter", "bike_id": "6e4afb2d5266241f4c2720601d36da22", "lat": 38.894253166666665, "lon": -77.0559475, "rental_uris": {"android": "https://dc.lft.to/lastmile_qr_scan", "ios": "https://dc.lft.to/lastmile_qr_scan"}, "is_disabled": 0, "fusion_lat": 0.0, "name": "6e4afb2d5266241f4c2720601d36da22", "fusion_lon": 0.0}, {"is_reserved": 0, "type": "electric_scooter", "bike_id": "13f8a4c22b747bde536247b16356cb83", "lat": 38.91883683333333, "lon": -77.04722366666667, "rental_uris": {"android": "https://dc.lft.to/lastmile_qr_scan", "ios": "https://dc.lft.to/lastmile_qr_scan"}, "is_disabled": 0, "fusion_lat": 0.0, "name": "13f8a4c22b747bde536247b16356cb83", "fusion_lon": 0.0}, {"is_reserved": 0, "type": "electric_scooter", "bike_id": "eaa3b852d579aaa9f33b26dbd75aee95", "lat": 38.865316666666665, "lon": -76.9690295, "rental_uris": {"android": "https://dc.lft.to/lastmile_qr_scan", "ios": "https://dc.lft.to/lastmile_qr_scan"}, "is_disabled": 0, "fusion_lat": 0.0, "name": "eaa3b852d579aaa9f33b26dbd75aee95", "fusion_lon": 0.0}, {"is_reserved": 0, "type": "electric_scooter", "bike_id": "df389449defb4f44e105edcb444dac9b", "lat": 38.92772133333333, "lon": -77.0277725, "rental_uris": {"android": "https://dc.lft.to/lastmile_qr_scan", "ios": "https://dc.lft.to/lastmile_qr_scan"}, "is_disabled": 0, "fusion_lat": 0.0, "name": "df389449defb4f44e105edcb444dac9b", "fusion_lon": 0.0}, {"is_reserved": 0, "type": "electric_scooter", "bike_id": "896b25e85b107803bbdf1cbb745cbeff", "lat": 38.91681716666667, "lon": -77.0296625, "rental_uris": {"android": "https://dc.lft.to/lastmile_qr_scan", "ios": "https://dc.lft.to/lastmile_qr_scan"}, "is_disabled": 0, "fusion_lat": 0.0, "name": "896b25e85b107803bbdf1cbb745cbeff", "fusion_lon": 0.0}, {"is_reserved": 0, "type": "electric_scooter", "bike_id": "2c0d27fd59adecbb4e081e25bb7bbb7f", "lat": 38.916967666666665, "lon": -77.034699, "rental_uris": {"android": "https://dc.lft.to/lastmile_qr_scan", "ios": "https://dc.lft.to/lastmile_qr_scan"}, "is_disabled": 0, "fusion_lat": 0.0, "name": "2c0d27fd59adecbb4e081e25bb7bbb7f", "fusion_lon": 0.0}, {"is_reserved": 0, "type": "electric_scooter", "bike_id": "312fe6fb4060aa7ee4412bc52014e202", "lat": 38.92365916666667, "lon": -77.01912283333333, "rental_uris": {"android": "https://dc.lft.to/lastmile_qr_scan", "ios": "https://dc.lft.to/lastmile_qr_scan"}, "is_disabled": 0, "fusion_lat": 0.0, "name": "312fe6fb4060aa7ee4412bc52014e202", "fusion_lon": 0.0}, {"is_reserved": 0, "type": "electric_scooter", "bike_id": "a0e7d438ccd64c30cd0a4990ab8d65f1", "lat": 38.917666833333335, "lon": -77.04058683333334, "rental_uris": {"android": "https://dc.lft.to/lastmile_qr_scan", "ios": "https://dc.lft.to/lastmile_qr_scan"}, "is_disabled": 0, "fusion_lat": 0.0, "name": "a0e7d438ccd64c30cd0a4990ab8d65f1", "fusion_lon": 0.0}, {"is_reserved": 0, "type": "electric_scooter", "bike_id": "fa759c6906874cae0bfdbd285fba6064", "lat": 38.928638, "lon": -77.023045, "rental_uris": {"android": "https://dc.lft.to/lastmile_qr_scan", "ios": "https://dc.lft.to/lastmile_qr_scan"}, "is_disabled": 0, "fusion_lat": 0.0, "name": "fa759c6906874cae0bfdbd285fba6064", "fusion_lon": 0.0}, {"is_reserved": 0, "type": "electric_bike", "bike_id": "b07c0b8bdfa94231abd8acd28ff33155", "lat": 38.802491833333335, "lon": -77.11436966666666, "rental_uris": {"android": "https://dc.lft.to/lastmile_qr_scan", "ios": "https://dc.lft.to/lastmile_qr_scan"}, "is_disabled": 0, "fusion_lat": 0.0, "name": "b07c0b8bdfa94231abd8acd28ff33155", "fusion_lon": 0.0}, {"is_reserved": 0, "type": "electric_scooter", "bike_id": "e8ffb54aab59f776592e8d5186b538a9", "lat": 38.904832999999996, "lon": -77.04857583333333, "rental_uris": {"android": "https://dc.lft.to/lastmile_qr_scan", "ios": "https://dc.lft.to/lastmile_qr_scan"}, "is_disabled": 0, "fusion_lat": 0.0, "name": "e8ffb54aab59f776592e8d5186b538a9", "fusion_lon": 0.0}, {"is_reserved": 0, "type": "electric_scooter", "bike_id": "45f1b300862851af4d9b52826c9ed5e6", "lat": 38.92510033333333, "lon": -77.0387755, "rental_uris": {"android": "https://dc.lft.to/lastmile_qr_scan", "ios": "https://dc.lft.to/lastmile_qr_scan"}, "is_disabled": 0, "fusion_lat": 0.0, "name": "45f1b300862851af4d9b52826c9ed5e6", "fusion_lon": 0.0}, {"is_reserved": 0, "type": "electric_scooter", "bike_id": "451dcee75305847320ad0340743fd7f1", "lat": 38.929708166666664, "lon": -77.023349, "rental_uris": {"android": "https://dc.lft.to/lastmile_qr_scan", "ios": "https://dc.lft.to/lastmile_qr_scan"}, "is_disabled": 0, "fusion_lat": 0.0, "name": "451dcee75305847320ad0340743fd7f1", "fusion_lon": 0.0}, {"is_reserved": 0, "type": "electric_scooter", "bike_id": "d29db71c1e2539a808e0039a32c7b349", "lat": 38.947321, "lon": -77.02455366666666, "rental_uris": {"android": "https://dc.lft.to/lastmile_qr_scan", "ios": "https://dc.lft.to/lastmile_qr_scan"}, "is_disabled": 0, "fusion_lat": 0.0, "name": "d29db71c1e2539a808e0039a32c7b349", "fusion_lon": 0.0}, {"is_reserved": 0, "type": "electric_scooter", "bike_id": "aa05c0b661cc5f4b8b76e3b3c319fe92", "lat": 38.92568766666667, "lon": -76.97002766666667, "rental_uris": {"android": "https://dc.lft.to/lastmile_qr_scan", "ios": "https://dc.lft.to/lastmile_qr_scan"}, "is_disabled": 0, "fusion_lat": 0.0, "name": "aa05c0b661cc5f4b8b76e3b3c319fe92", "fusion_lon": 0.0}, {"is_reserved": 0, "type": "electric_scooter", "bike_id": "5a98e305cbd2bb1119e92ab7a3dde16c", "lat": 38.908747166666664, "lon": -77.02178283333333, "rental_uris": {"android": "https://dc.lft.to/lastmile_qr_scan", "ios": "https://dc.lft.to/lastmile_qr_scan"}, "is_disabled": 0, "fusion_lat": 0.0, "name": "5a98e305cbd2bb1119e92ab7a3dde16c", "fusion_lon": 0.0}, {"is_reserved": 0, "type": "electric_scooter", "bike_id": "149af300bf6fc570a06529ca87a40f33", "lat": 38.92506216666666, "lon": -77.0522055, "rental_uris": {"android": "https://dc.lft.to/lastmile_qr_scan", "ios": "https://dc.lft.to/lastmile_qr_scan"}, "is_disabled": 0, "fusion_lat": 0.0, "name": "149af300bf6fc570a06529ca87a40f33", "fusion_lon": 0.0}, {"is_reserved": 0, "type": "electric_scooter", "bike_id": "4a182d900281921702a656d4613af9a1", "lat": 38.92093416666667, "lon": -77.02524533333333, "rental_uris": {"android": "https://dc.lft.to/lastmile_qr_scan", "ios": "https://dc.lft.to/lastmile_qr_scan"}, "is_disabled": 0, "fusion_lat": 0.0, "name": "4a182d900281921702a656d4613af9a1", "fusion_lon": 0.0}, {"is_reserved": 0, "type": "electric_scooter", "bike_id": "f05c621b196ffece51547fcac84dd0fc", "lat": 38.8922725, "lon": -77.044839, "rental_uris": {"android": "https://dc.lft.to/lastmile_qr_scan", "ios": "https://dc.lft.to/lastmile_qr_scan"}, "is_disabled": 0, "fusion_lat": 0.0, "name": "f05c621b196ffece51547fcac84dd0fc", "fusion_lon": 0.0}, {"is_reserved": 0, "type": "electric_scooter", "bike_id": "7a304ee5467637039901f588a7199c78", "lat": 38.921033, "lon": -77.04683683333333, "rental_uris": {"android": "https://dc.lft.to/lastmile_qr_scan", "ios": "https://dc.lft.to/lastmile_qr_scan"}, "is_disabled": 0, "fusion_lat": 0.0, "name": "7a304ee5467637039901f588a7199c78", "fusion_lon": 0.0}, {"is_reserved": 0, "type": "electric_scooter", "bike_id": "75c94bdff22ff68631a1bb5f03e85885", "lat": 38.933612, "lon": -77.05722166666666, "rental_uris": {"android": "https://dc.lft.to/lastmile_qr_scan", "ios": "https://dc.lft.to/lastmile_qr_scan"}, "is_disabled": 0, "fusion_lat": 0.0, "name": "75c94bdff22ff68631a1bb5f03e85885", "fusion_lon": 0.0}, {"is_reserved": 0, "type": "electric_scooter", "bike_id": "62aeae490d41ca7c26d045a2c950ab33", "lat": 38.8838525, "lon": -77.04607466666667, "rental_uris": {"android": "https://dc.lft.to/lastmile_qr_scan", "ios": "https://dc.lft.to/lastmile_qr_scan"}, "is_disabled": 0, "fusion_lat": 0.0, "name": "62aeae490d41ca7c26d045a2c950ab33", "fusion_lon": 0.0}, {"is_reserved": 0, "type": "electric_scooter", "bike_id": "a0feeb8ff292c7a5543c99e7a105829c", "lat": 38.9182445, "lon": -77.01209366666667, "rental_uris": {"android": "https://dc.lft.to/lastmile_qr_scan", "ios": "https://dc.lft.to/lastmile_qr_scan"}, "is_disabled": 0, "fusion_lat": 0.0, "name": "a0feeb8ff292c7a5543c99e7a105829c", "fusion_lon": 0.0}, {"is_reserved": 0, "type": "electric_scooter", "bike_id": "624b62c18e4bf7181f53e0513aff3d6b", "lat": 38.926349, "lon": -77.04250933333333, "rental_uris": {"android": "https://dc.lft.to/lastmile_qr_scan", "ios": "https://dc.lft.to/lastmile_qr_scan"}, "is_disabled": 0, "fusion_lat": 0.0, "name": "624b62c18e4bf7181f53e0513aff3d6b", "fusion_lon": 0.0}, {"is_reserved": 0, "type": "electric_scooter", "bike_id": "41aef4cab8bdf3252295bf3d0e693831", "lat": 38.92411233333333, "lon": -77.0426385, "rental_uris": {"android": "https://dc.lft.to/lastmile_qr_scan", "ios": "https://dc.lft.to/lastmile_qr_scan"}, "is_disabled": 0, "fusion_lat": 0.0, "name": "41aef4cab8bdf3252295bf3d0e693831", "fusion_lon": 0.0}, {"is_reserved": 0, "type": "electric_scooter", "bike_id": "ab87ae1ac2452a6cbe453f303319da4c", "lat": 38.943296333333336, "lon": -77.012533, "rental_uris": {"android": "https://dc.lft.to/lastmile_qr_scan", "ios": "https://dc.lft.to/lastmile_qr_scan"}, "is_disabled": 0, "fusion_lat": 0.0, "name": "ab87ae1ac2452a6cbe453f303319da4c", "fusion_lon": 0.0}, {"is_reserved": 0, "type": "electric_scooter", "bike_id": "92faa96ab0bcb74b1b6affb0595f2828", "lat": 38.90902716666667, "lon": -76.9961795, "rental_uris": {"android": "https://dc.lft.to/lastmile_qr_scan", "ios": "https://dc.lft.to/lastmile_qr_scan"}, "is_disabled": 0, "fusion_lat": 0.0, "name": "92faa96ab0bcb74b1b6affb0595f2828", "fusion_lon": 0.0}, {"is_reserved": 0, "type": "electric_scooter", "bike_id": "28690584d44e2ac07b2eee44caf59959", "lat": 38.97517233333333, "lon": -77.01741883333334, "rental_uris": {"android": "https://dc.lft.to/lastmile_qr_scan", "ios": "https://dc.lft.to/lastmile_qr_scan"}, "is_disabled": 0, "fusion_lat": 0.0, "name": "28690584d44e2ac07b2eee44caf59959", "fusion_lon": 0.0}, {"is_reserved": 0, "type": "electric_scooter", "bike_id": "eb7353ced0d3c5026c622059677f8280", "lat": 38.886250833333335, "lon": -77.0199305, "rental_uris": {"android": "https://dc.lft.to/lastmile_qr_scan", "ios": "https://dc.lft.to/lastmile_qr_scan"}, "is_disabled": 0, "fusion_lat": 0.0, "name": "eb7353ced0d3c5026c622059677f8280", "fusion_lon": 0.0}, {"is_reserved": 0, "type": "electric_scooter", "bike_id": "0593089636cf1cd865a8bec980d64d58", "lat": 38.94329616666667, "lon": -77.06518516666667, "rental_uris": {"android": "https://dc.lft.to/lastmile_qr_scan", "ios": "https://dc.lft.to/lastmile_qr_scan"}, "is_disabled": 0, "fusion_lat": 0.0, "name": "0593089636cf1cd865a8bec980d64d58", "fusion_lon": 0.0}, {"is_reserved": 0, "type": "electric_scooter", "bike_id": "5d1b737a4a7ee9b11e09a48e1ea2071d", "lat": 38.9139625, "lon": -77.043319, "rental_uris": {"android": "https://dc.lft.to/lastmile_qr_scan", "ios": "https://dc.lft.to/lastmile_qr_scan"}, "is_disabled": 0, "fusion_lat": 0.0, "name": "5d1b737a4a7ee9b11e09a48e1ea2071d", "fusion_lon": 0.0}, {"is_reserved": 0, "type": "electric_scooter", "bike_id": "d3fd05bcaadece2a4021e77487c010c0", "lat": 38.8854275, "lon": -77.0335185, "rental_uris": {"android": "https://dc.lft.to/lastmile_qr_scan", "ios": "https://dc.lft.to/lastmile_qr_scan"}, "is_disabled": 0, "fusion_lat": 0.0, "name": "d3fd05bcaadece2a4021e77487c010c0", "fusion_lon": 0.0}, {"is_reserved": 0, "type": "electric_bike", "bike_id": "afdd8eade77a0c3978e948ee5748b197", "lat": 38.86758783333333, "lon": -76.94528733333334, "rental_uris": {"android": "https://dc.lft.to/lastmile_qr_scan", "ios": "https://dc.lft.to/lastmile_qr_scan"}, "is_disabled": 0, "fusion_lat": 0.0, "name": "afdd8eade77a0c3978e948ee5748b197", "fusion_lon": 0.0}, {"is_reserved": 0, "type": "electric_scooter", "bike_id": "059d88d65af934601860243303036da1", "lat": 38.92298733333333, "lon": -77.03395916666666, "rental_uris": {"android": "https://dc.lft.to/lastmile_qr_scan", "ios": "https://dc.lft.to/lastmile_qr_scan"}, "is_disabled": 0, "fusion_lat": 0.0, "name": "059d88d65af934601860243303036da1", "fusion_lon": 0.0}, {"is_reserved": 0, "type": "electric_bike", "bike_id": "76107ab3970359194b996b132082965a", "lat": 38.90384383333333, "lon": -77.06270333333333, "rental_uris": {"android": "https://dc.lft.to/lastmile_qr_scan", "ios": "https://dc.lft.to/lastmile_qr_scan"}, "is_disabled": 0, "fusion_lat": 0.0, "name": "76107ab3970359194b996b132082965a", "fusion_lon": 0.0}, {"is_reserved": 0, "type": "electric_scooter", "bike_id": "dc087f58d9ff4a0b03751df2209eb316", "lat": 38.923843833333336, "lon": -77.03055216666667, "rental_uris": {"android": "https://dc.lft.to/lastmile_qr_scan", "ios": "https://dc.lft.to/lastmile_qr_scan"}, "is_disabled": 0, "fusion_lat": 0.0, "name": "dc087f58d9ff4a0b03751df2209eb316", "fusion_lon": 0.0}, {"is_reserved": 0, "type": "electric_bike", "bike_id": "1b10b16d8945dae725b8c8fe3c5f9e94", "lat": 38.97521116666667, "lon": -77.01683633333333, "rental_uris": {"android": "https://dc.lft.to/lastmile_qr_scan", "ios": "https://dc.lft.to/lastmile_qr_scan"}, "is_disabled": 0, "fusion_lat": 0.0, "name": "1b10b16d8945dae725b8c8fe3c5f9e94", "fusion_lon": 0.0}, {"is_reserved": 0, "type": "electric_scooter", "bike_id": "fecdfd4ca3b8159492da66f7bc2836ef", "lat": 38.920315333333335, "lon": -76.98542566666667, "rental_uris": {"android": "https://dc.lft.to/lastmile_qr_scan", "ios": "https://dc.lft.to/lastmile_qr_scan"}, "is_disabled": 0, "fusion_lat": 0.0, "name": "fecdfd4ca3b8159492da66f7bc2836ef", "fusion_lon": 0.0}, {"is_reserved": 0, "type": "electric_scooter", "bike_id": "7406f68d26979aa0dea338090b45a3bd", "lat": 38.88773033333333, "lon": -76.93260666666667, "rental_uris": {"android": "https://dc.lft.to/lastmile_qr_scan", "ios": "https://dc.lft.to/lastmile_qr_scan"}, "is_disabled": 0, "fusion_lat": 0.0, "name": "7406f68d26979aa0dea338090b45a3bd", "fusion_lon": 0.0}, {"is_reserved": 0, "type": "electric_scooter", "bike_id": "b12aa45eeaf74c04f4578ee6ec3dee2d", "lat": 38.9111915, "lon": -77.032587, "rental_uris": {"android": "https://dc.lft.to/lastmile_qr_scan", "ios": "https://dc.lft.to/lastmile_qr_scan"}, "is_disabled": 0, "fusion_lat": 0.0, "name": "b12aa45eeaf74c04f4578ee6ec3dee2d", "fusion_lon": 0.0}, {"is_reserved": 0, "type": "electric_scooter", "bike_id": "2eed24f62cbd0de51a2fe1fe5121caa3", "lat": 38.87144966666666, "lon": -76.96585, "rental_uris": {"android": "https://dc.lft.to/lastmile_qr_scan", "ios": "https://dc.lft.to/lastmile_qr_scan"}, "is_disabled": 0, "fusion_lat": 0.0, "name": "2eed24f62cbd0de51a2fe1fe5121caa3", "fusion_lon": 0.0}, {"is_reserved": 0, "type": "electric_scooter", "bike_id": "8ddee87f25b81d9d8f6acf54b494fbd7", "lat": 38.899663833333335, "lon": -77.04553633333333, "rental_uris": {"android": "https://dc.lft.to/lastmile_qr_scan", "ios": "https://dc.lft.to/lastmile_qr_scan"}, "is_disabled": 0, "fusion_lat": 0.0, "name": "8ddee87f25b81d9d8f6acf54b494fbd7", "fusion_lon": 0.0}, {"is_reserved": 0, "type": "electric_scooter", "bike_id": "190dc711f23212a1dd84c227a346ce6b", "lat": 38.911869, "lon": -77.0449835, "rental_uris": {"android": "https://dc.lft.to/lastmile_qr_scan", "ios": "https://dc.lft.to/lastmile_qr_scan"}, "is_disabled": 0, "fusion_lat": 0.0, "name": "190dc711f23212a1dd84c227a346ce6b", "fusion_lon": 0.0}, {"is_reserved": 0, "type": "electric_scooter", "bike_id": "6094d6bafc9366464b3bdf51f8ba268e", "lat": 38.930772166666664, "lon": -77.03735933333333, "rental_uris": {"android": "https://dc.lft.to/lastmile_qr_scan", "ios": "https://dc.lft.to/lastmile_qr_scan"}, "is_disabled": 0, "fusion_lat": 0.0, "name": "6094d6bafc9366464b3bdf51f8ba268e", "fusion_lon": 0.0}, {"is_reserved": 0, "type": "electric_bike", "bike_id": "304200cb7cd5264530d0c171e5a5e4c2", "lat": 38.8821495, "lon": -77.11162183333333, "rental_uris": {"android": "https://dc.lft.to/lastmile_qr_scan", "ios": "https://dc.lft.to/lastmile_qr_scan"}, "is_disabled": 0, "fusion_lat": 0.0, "name": "304200cb7cd5264530d0c171e5a5e4c2", "fusion_lon": 0.0}, {"is_reserved": 0, "type": "electric_scooter", "bike_id": "c4f87d6914844f144ea8c22d9b58b8dd", "lat": 38.8999725, "lon": -77.0270655, "rental_uris": {"android": "https://dc.lft.to/lastmile_qr_scan", "ios": "https://dc.lft.to/lastmile_qr_scan"}, "is_disabled": 0, "fusion_lat": 0.0, "name": "c4f87d6914844f144ea8c22d9b58b8dd", "fusion_lon": 0.0}, {"is_reserved": 0, "type": "electric_scooter", "bike_id": "21257c765c67562eeacd87930d641b1e", "lat": 38.88787933333333, "lon": -76.97709716666667, "rental_uris": {"android": "https://dc.lft.to/lastmile_qr_scan", "ios": "https://dc.lft.to/lastmile_qr_scan"}, "is_disabled": 0, "fusion_lat": 0.0, "name": "21257c765c67562eeacd87930d641b1e", "fusion_lon": 0.0}, {"is_reserved": 0, "type": "electric_scooter", "bike_id": "abfc2d639faa38e36429fa9594197347", "lat": 38.8729645, "lon": -77.01555733333333, "rental_uris": {"android": "https://dc.lft.to/lastmile_qr_scan", "ios": "https://dc.lft.to/lastmile_qr_scan"}, "is_disabled": 0, "fusion_lat": 0.0, "name": "abfc2d639faa38e36429fa9594197347", "fusion_lon": 0.0}, {"is_reserved": 0, "type": "electric_scooter", "bike_id": "9315a6bcb9e902f003a9904805d51d56", "lat": 38.928543833333336, "lon": -77.03735266666666, "rental_uris": {"android": "https://dc.lft.to/lastmile_qr_scan", "ios": "https://dc.lft.to/lastmile_qr_scan"}, "is_disabled": 0, "fusion_lat": 0.0, "name": "9315a6bcb9e902f003a9904805d51d56", "fusion_lon": 0.0}, {"is_reserved": 0, "type": "electric_scooter", "bike_id": "903de8a52ccffc8ca500816113dc2d70", "lat": 38.9002725, "lon": -76.98867766666666, "rental_uris": {"android": "https://dc.lft.to/lastmile_qr_scan", "ios": "https://dc.lft.to/lastmile_qr_scan"}, "is_disabled": 0, "fusion_lat": 0.0, "name": "903de8a52ccffc8ca500816113dc2d70", "fusion_lon": 0.0}, {"is_reserved": 0, "type": "electric_scooter", "bike_id": "c4bd222397a886b9090a2bc67ce26737", "lat": 38.9247445, "lon": -77.03956133333334, "rental_uris": {"android": "https://dc.lft.to/lastmile_qr_scan", "ios": "https://dc.lft.to/lastmile_qr_scan"}, "is_disabled": 0, "fusion_lat": 0.0, "name": "c4bd222397a886b9090a2bc67ce26737", "fusion_lon": 0.0}, {"is_reserved": 0, "type": "electric_scooter", "bike_id": "4391ffff6db9c73ec0395cf8e48bb026", "lat": 38.887295, "lon": -77.02205216666667, "rental_uris": {"android": "https://dc.lft.to/lastmile_qr_scan", "ios": "https://dc.lft.to/lastmile_qr_scan"}, "is_disabled": 0, "fusion_lat": 0.0, "name": "4391ffff6db9c73ec0395cf8e48bb026", "fusion_lon": 0.0}, {"is_reserved": 0, "type": "electric_scooter", "bike_id": "99d64c01f92807910ef8c8bc115c5b16", "lat": 38.899741, "lon": -77.020998, "rental_uris": {"android": "https://dc.lft.to/lastmile_qr_scan", "ios": "https://dc.lft.to/lastmile_qr_scan"}, "is_disabled": 0, "fusion_lat": 0.0, "name": "99d64c01f92807910ef8c8bc115c5b16", "fusion_lon": 0.0}, {"is_reserved": 0, "type": "electric_scooter", "bike_id": "a93db32988c3992355deeb3e5d09d05e", "lat": 38.960344666666664, "lon": -77.02427416666667, "rental_uris": {"android": "https://dc.lft.to/lastmile_qr_scan", "ios": "https://dc.lft.to/lastmile_qr_scan"}, "is_disabled": 0, "fusion_lat": 0.0, "name": "a93db32988c3992355deeb3e5d09d05e", "fusion_lon": 0.0}, {"is_reserved": 0, "type": "electric_scooter", "bike_id": "aa37694474e18c9e5f861143628a25a3", "lat": 38.8983025, "lon": -76.94647816666667, "rental_uris": {"android": "https://dc.lft.to/lastmile_qr_scan", "ios": "https://dc.lft.to/lastmile_qr_scan"}, "is_disabled": 0, "fusion_lat": 0.0, "name": "aa37694474e18c9e5f861143628a25a3", "fusion_lon": 0.0}, {"is_reserved": 0, "type": "electric_scooter", "bike_id": "05bb4dda24a3e728bdb1d43e3c42db4d", "lat": 38.9363685, "lon": -77.07295683333334, "rental_uris": {"android": "https://dc.lft.to/lastmile_qr_scan", "ios": "https://dc.lft.to/lastmile_qr_scan"}, "is_disabled": 0, "fusion_lat": 0.0, "name": "05bb4dda24a3e728bdb1d43e3c42db4d", "fusion_lon": 0.0}, {"is_reserved": 0, "type": "electric_scooter", "bike_id": "e05daca48e5b6327326223dbb62f72c8", "lat": 38.89962366666666, "lon": -77.04489366666667, "rental_uris": {"android": "https://dc.lft.to/lastmile_qr_scan", "ios": "https://dc.lft.to/lastmile_qr_scan"}, "is_disabled": 0, "fusion_lat": 0.0, "name": "e05daca48e5b6327326223dbb62f72c8", "fusion_lon": 0.0}, {"is_reserved": 0, "type": "electric_scooter", "bike_id": "f4fee906a727940e959882839985b485", "lat": 38.917546333333334, "lon": -77.01461233333333, "rental_uris": {"android": "https://dc.lft.to/lastmile_qr_scan", "ios": "https://dc.lft.to/lastmile_qr_scan"}, "is_disabled": 0, "fusion_lat": 0.0, "name": "f4fee906a727940e959882839985b485", "fusion_lon": 0.0}, {"is_reserved": 0, "type": "electric_bike", "bike_id": "85ce7c0709527889b93f71db6849b813", "lat": 38.90373483333333, "lon": -77.04509433333334, "rental_uris": {"android": "https://dc.lft.to/lastmile_qr_scan", "ios": "https://dc.lft.to/lastmile_qr_scan"}, "is_disabled": 0, "fusion_lat": 0.0, "name": "85ce7c0709527889b93f71db6849b813", "fusion_lon": 0.0}, {"is_reserved": 0, "type": "electric_scooter", "bike_id": "86867b0c2ee1627f4cec53631ad69c3f", "lat": 38.912615333333335, "lon": -77.02850783333334, "rental_uris": {"android": "https://dc.lft.to/lastmile_qr_scan", "ios": "https://dc.lft.to/lastmile_qr_scan"}, "is_disabled": 0, "fusion_lat": 0.0, "name": "86867b0c2ee1627f4cec53631ad69c3f", "fusion_lon": 0.0}, {"is_reserved": 0, "type": "electric_scooter", "bike_id": "68e6c8436f886e31d4b90520f6267aba", "lat": 38.8924035, "lon": -77.01342283333334, "rental_uris": {"android": "https://dc.lft.to/lastmile_qr_scan", "ios": "https://dc.lft.to/lastmile_qr_scan"}, "is_disabled": 0, "fusion_lat": 0.0, "name": "68e6c8436f886e31d4b90520f6267aba", "fusion_lon": 0.0}, {"is_reserved": 0, "type": "electric_scooter", "bike_id": "e4518178336ee5edda378729f547974d", "lat": 38.918071166666664, "lon": -77.0269975, "rental_uris": {"android": "https://dc.lft.to/lastmile_qr_scan", "ios": "https://dc.lft.to/lastmile_qr_scan"}, "is_disabled": 0, "fusion_lat": 0.0, "name": "e4518178336ee5edda378729f547974d", "fusion_lon": 0.0}, {"is_reserved": 0, "type": "electric_scooter", "bike_id": "bf16b774a217066c980bdb6285bd7f24", "lat": 38.919208, "lon": -77.04801616666667, "rental_uris": {"android": "https://dc.lft.to/lastmile_qr_scan", "ios": "https://dc.lft.to/lastmile_qr_scan"}, "is_disabled": 0, "fusion_lat": 0.0, "name": "bf16b774a217066c980bdb6285bd7f24", "fusion_lon": 0.0}, {"is_reserved": 0, "type": "electric_scooter", "bike_id": "63b7ee069be8732790a5b42f18ed9ce4", "lat": 38.89612566666667, "lon": -77.0089105, "rental_uris": {"android": "https://dc.lft.to/lastmile_qr_scan", "ios": "https://dc.lft.to/lastmile_qr_scan"}, "is_disabled": 0, "fusion_lat": 0.0, "name": "63b7ee069be8732790a5b42f18ed9ce4", "fusion_lon": 0.0}, {"is_reserved": 0, "type": "electric_bike", "bike_id": "9827e4e08f6ad08c9bfb77745f54c331", "lat": 38.9447675, "lon": -76.9868715, "rental_uris": {"android": "https://dc.lft.to/lastmile_qr_scan", "ios": "https://dc.lft.to/lastmile_qr_scan"}, "is_disabled": 0, "fusion_lat": 0.0, "name": "9827e4e08f6ad08c9bfb77745f54c331", "fusion_lon": 0.0}, {"is_reserved": 0, "type": "electric_scooter", "bike_id": "a65cde36a8e4f9d97bd2772f3151396e", "lat": 38.931383333333336, "lon": -77.02308433333333, "rental_uris": {"android": "https://dc.lft.to/lastmile_qr_scan", "ios": "https://dc.lft.to/lastmile_qr_scan"}, "is_disabled": 0, "fusion_lat": 0.0, "name": "a65cde36a8e4f9d97bd2772f3151396e", "fusion_lon": 0.0}, {"is_reserved": 0, "type": "electric_scooter", "bike_id": "61ae9b4274843f58f3aa9510f0c47bd9", "lat": 38.950535, "lon": -77.05410133333334, "rental_uris": {"android": "https://dc.lft.to/lastmile_qr_scan", "ios": "https://dc.lft.to/lastmile_qr_scan"}, "is_disabled": 0, "fusion_lat": 0.0, "name": "61ae9b4274843f58f3aa9510f0c47bd9", "fusion_lon": 0.0}, {"is_reserved": 0, "type": "electric_scooter", "bike_id": "2b88d60bd07c2f73456f9112a9526188", "lat": 38.9161405, "lon": -77.037276, "rental_uris": {"android": "https://dc.lft.to/lastmile_qr_scan", "ios": "https://dc.lft.to/lastmile_qr_scan"}, "is_disabled": 0, "fusion_lat": 0.0, "name": "2b88d60bd07c2f73456f9112a9526188", "fusion_lon": 0.0}, {"is_reserved": 0, "type": "electric_scooter", "bike_id": "b47d5b2a1a5f0f5b47b595bc1ef2087d", "lat": 38.924405666666665, "lon": -77.00063566666667, "rental_uris": {"android": "https://dc.lft.to/lastmile_qr_scan", "ios": "https://dc.lft.to/lastmile_qr_scan"}, "is_disabled": 0, "fusion_lat": 0.0, "name": "b47d5b2a1a5f0f5b47b595bc1ef2087d", "fusion_lon": 0.0}, {"is_reserved": 0, "type": "electric_scooter", "bike_id": "f4a011d5dc428031fcd46bf8af91d53b", "lat": 38.918155166666665, "lon": -77.0330145, "rental_uris": {"android": "https://dc.lft.to/lastmile_qr_scan", "ios": "https://dc.lft.to/lastmile_qr_scan"}, "is_disabled": 0, "fusion_lat": 0.0, "name": "f4a011d5dc428031fcd46bf8af91d53b", "fusion_lon": 0.0}, {"is_reserved": 0, "type": "electric_bike", "bike_id": "6d11999cfae612b30d3facada65062d4", "lat": 38.891283666666666, "lon": -77.18290516666667, "rental_uris": {"android": "https://dc.lft.to/lastmile_qr_scan", "ios": "https://dc.lft.to/lastmile_qr_scan"}, "is_disabled": 0, "fusion_lat": 0.0, "name": "6d11999cfae612b30d3facada65062d4", "fusion_lon": 0.0}, {"is_reserved": 0, "type": "electric_scooter", "bike_id": "87b3ee68460ed5f1ac0af2e3d739774f", "lat": 38.920452, "lon": -77.0482465, "rental_uris": {"android": "https://dc.lft.to/lastmile_qr_scan", "ios": "https://dc.lft.to/lastmile_qr_scan"}, "is_disabled": 0, "fusion_lat": 0.0, "name": "87b3ee68460ed5f1ac0af2e3d739774f", "fusion_lon": 0.0}, {"is_reserved": 0, "type": "electric_scooter", "bike_id": "8f41908f3899394b01c1ad782fcfa821", "lat": 38.937219166666665, "lon": -77.03263266666667, "rental_uris": {"android": "https://dc.lft.to/lastmile_qr_scan", "ios": "https://dc.lft.to/lastmile_qr_scan"}, "is_disabled": 0, "fusion_lat": 0.0, "name": "8f41908f3899394b01c1ad782fcfa821", "fusion_lon": 0.0}, {"is_reserved": 0, "type": "electric_scooter", "bike_id": "fdc34becff294f82d200e6eb339430be", "lat": 38.9204335, "lon": -77.04192783333333, "rental_uris": {"android": "https://dc.lft.to/lastmile_qr_scan", "ios": "https://dc.lft.to/lastmile_qr_scan"}, "is_disabled": 0, "fusion_lat": 0.0, "name": "fdc34becff294f82d200e6eb339430be", "fusion_lon": 0.0}, {"is_reserved": 0, "type": "electric_scooter", "bike_id": "4662fb1814b3c240bcafc88d61319c1e", "lat": 38.90974966666667, "lon": -77.04517233333333, "rental_uris": {"android": "https://dc.lft.to/lastmile_qr_scan", "ios": "https://dc.lft.to/lastmile_qr_scan"}, "is_disabled": 0, "fusion_lat": 0.0, "name": "4662fb1814b3c240bcafc88d61319c1e", "fusion_lon": 0.0}, {"is_reserved": 0, "type": "electric_scooter", "bike_id": "982ff3b4cb4468d42226aeef967edf86", "lat": 38.93226883333333, "lon": -77.02826116666667, "rental_uris": {"android": "https://dc.lft.to/lastmile_qr_scan", "ios": "https://dc.lft.to/lastmile_qr_scan"}, "is_disabled": 0, "fusion_lat": 0.0, "name": "982ff3b4cb4468d42226aeef967edf86", "fusion_lon": 0.0}, {"is_reserved": 0, "type": "electric_scooter", "bike_id": "9c83c7aff4d373ffd6663d367462c000", "lat": 38.944163333333336, "lon": -77.06320833333334, "rental_uris": {"android": "https://dc.lft.to/lastmile_qr_scan", "ios": "https://dc.lft.to/lastmile_qr_scan"}, "is_disabled": 0, "fusion_lat": 0.0, "name": "9c83c7aff4d373ffd6663d367462c000", "fusion_lon": 0.0}, {"is_reserved": 0, "type": "electric_scooter", "bike_id": "56dd3a5596a6e825d7983df107ea0f6a", "lat": 38.9192085, "lon": -77.04801316666666, "rental_uris": {"android": "https://dc.lft.to/lastmile_qr_scan", "ios": "https://dc.lft.to/lastmile_qr_scan"}, "is_disabled": 0, "fusion_lat": 0.0, "name": "56dd3a5596a6e825d7983df107ea0f6a", "fusion_lon": 0.0}, {"is_reserved": 0, "type": "electric_scooter", "bike_id": "87dba1d40c224234da73f30da4eadf1b", "lat": 38.916782, "lon": -77.0238415, "rental_uris": {"android": "https://dc.lft.to/lastmile_qr_scan", "ios": "https://dc.lft.to/lastmile_qr_scan"}, "is_disabled": 0, "fusion_lat": 0.0, "name": "87dba1d40c224234da73f30da4eadf1b", "fusion_lon": 0.0}, {"is_reserved": 0, "type": "electric_scooter", "bike_id": "7a3848c6ce9cce5169635c02b6db55d0", "lat": 38.90568116666667, "lon": -77.005687, "rental_uris": {"android": "https://dc.lft.to/lastmile_qr_scan", "ios": "https://dc.lft.to/lastmile_qr_scan"}, "is_disabled": 0, "fusion_lat": 0.0, "name": "7a3848c6ce9cce5169635c02b6db55d0", "fusion_lon": 0.0}, {"is_reserved": 0, "type": "electric_scooter", "bike_id": "a63fb40ff2da50fdbee90760d90bd8e3", "lat": 38.905683833333335, "lon": -77.029536, "rental_uris": {"android": "https://dc.lft.to/lastmile_qr_scan", "ios": "https://dc.lft.to/lastmile_qr_scan"}, "is_disabled": 0, "fusion_lat": 0.0, "name": "a63fb40ff2da50fdbee90760d90bd8e3", "fusion_lon": 0.0}, {"is_reserved": 0, "type": "electric_scooter", "bike_id": "59f2933b6ac5c7e5342bb82f5341ae47", "lat": 38.85327266666667, "lon": -76.9800445, "rental_uris": {"android": "https://dc.lft.to/lastmile_qr_scan", "ios": "https://dc.lft.to/lastmile_qr_scan"}, "is_disabled": 0, "fusion_lat": 0.0, "name": "59f2933b6ac5c7e5342bb82f5341ae47", "fusion_lon": 0.0}, {"is_reserved": 0, "type": "electric_scooter", "bike_id": "8aa24258605db6c32e80874cd6166eda", "lat": 38.92085483333334, "lon": -77.023373, "rental_uris": {"android": "https://dc.lft.to/lastmile_qr_scan", "ios": "https://dc.lft.to/lastmile_qr_scan"}, "is_disabled": 0, "fusion_lat": 0.0, "name": "8aa24258605db6c32e80874cd6166eda", "fusion_lon": 0.0}, {"is_reserved": 0, "type": "electric_scooter", "bike_id": "ff85d16108ad4f9dbc758213d053daeb", "lat": 38.902677, "lon": -77.00327816666666, "rental_uris": {"android": "https://dc.lft.to/lastmile_qr_scan", "ios": "https://dc.lft.to/lastmile_qr_scan"}, "is_disabled": 0, "fusion_lat": 0.0, "name": "ff85d16108ad4f9dbc758213d053daeb", "fusion_lon": 0.0}, {"is_reserved": 0, "type": "electric_scooter", "bike_id": "6757ad08a2653e941900c2046fe88598", "lat": 38.91930933333333, "lon": -77.03421183333333, "rental_uris": {"android": "https://dc.lft.to/lastmile_qr_scan", "ios": "https://dc.lft.to/lastmile_qr_scan"}, "is_disabled": 0, "fusion_lat": 0.0, "name": "6757ad08a2653e941900c2046fe88598", "fusion_lon": 0.0}, {"is_reserved": 0, "type": "electric_scooter", "bike_id": "9e659b5ab029575a0f6eb224b83fe2f9", "lat": 38.9117915, "lon": -77.03187816666667, "rental_uris": {"android": "https://dc.lft.to/lastmile_qr_scan", "ios": "https://dc.lft.to/lastmile_qr_scan"}, "is_disabled": 0, "fusion_lat": 0.0, "name": "9e659b5ab029575a0f6eb224b83fe2f9", "fusion_lon": 0.0}, {"is_reserved": 0, "type": "electric_scooter", "bike_id": "fa10904bf6212d00db45c3039ce3ff12", "lat": 38.8995865, "lon": -76.9789715, "rental_uris": {"android": "https://dc.lft.to/lastmile_qr_scan", "ios": "https://dc.lft.to/lastmile_qr_scan"}, "is_disabled": 0, "fusion_lat": 0.0, "name": "fa10904bf6212d00db45c3039ce3ff12", "fusion_lon": 0.0}, {"is_reserved": 0, "type": "electric_scooter", "bike_id": "59763e10260abf6954914b8d389f7875", "lat": 38.90829383333333, "lon": -77.04330366666667, "rental_uris": {"android": "https://dc.lft.to/lastmile_qr_scan", "ios": "https://dc.lft.to/lastmile_qr_scan"}, "is_disabled": 0, "fusion_lat": 0.0, "name": "59763e10260abf6954914b8d389f7875", "fusion_lon": 0.0}, {"is_reserved": 0, "type": "electric_scooter", "bike_id": "f35ac3c3fd5f2c84361af93942b0a0ce", "lat": 38.90653416666667, "lon": -76.9836895, "rental_uris": {"android": "https://dc.lft.to/lastmile_qr_scan", "ios": "https://dc.lft.to/lastmile_qr_scan"}, "is_disabled": 0, "fusion_lat": 0.0, "name": "f35ac3c3fd5f2c84361af93942b0a0ce", "fusion_lon": 0.0}, {"is_reserved": 0, "type": "electric_scooter", "bike_id": "19261d9cd8399da2e75c67887f702810", "lat": 38.91405183333333, "lon": -77.03184833333333, "rental_uris": {"android": "https://dc.lft.to/lastmile_qr_scan", "ios": "https://dc.lft.to/lastmile_qr_scan"}, "is_disabled": 0, "fusion_lat": 0.0, "name": "19261d9cd8399da2e75c67887f702810", "fusion_lon": 0.0}, {"is_reserved": 0, "type": "electric_scooter", "bike_id": "b48bb8b3b58dab80ddf46bccf85162a9", "lat": 38.909633166666666, "lon": -77.0465335, "rental_uris": {"android": "https://dc.lft.to/lastmile_qr_scan", "ios": "https://dc.lft.to/lastmile_qr_scan"}, "is_disabled": 0, "fusion_lat": 0.0, "name": "b48bb8b3b58dab80ddf46bccf85162a9", "fusion_lon": 0.0}, {"is_reserved": 0, "type": "electric_scooter", "bike_id": "73b70af176aaa9b8e4eb7a769bb42372", "lat": 38.90729066666667, "lon": -76.934491, "rental_uris": {"android": "https://dc.lft.to/lastmile_qr_scan", "ios": "https://dc.lft.to/lastmile_qr_scan"}, "is_disabled": 0, "fusion_lat": 0.0, "name": "73b70af176aaa9b8e4eb7a769bb42372", "fusion_lon": 0.0}, {"is_reserved": 0, "type": "electric_scooter", "bike_id": "9b468ca55ac22449892a251eef2a8a8a", "lat": 38.9330775, "lon": -77.02135166666666, "rental_uris": {"android": "https://dc.lft.to/lastmile_qr_scan", "ios": "https://dc.lft.to/lastmile_qr_scan"}, "is_disabled": 0, "fusion_lat": 0.0, "name": "9b468ca55ac22449892a251eef2a8a8a", "fusion_lon": 0.0}, {"is_reserved": 0, "type": "electric_bike", "bike_id": "2b2d3a2e3619e25b781dcb15cfa2ddf0", "lat": 38.84459066666667, "lon": -76.931623, "rental_uris": {"android": "https://dc.lft.to/lastmile_qr_scan", "ios": "https://dc.lft.to/lastmile_qr_scan"},