{"data": {"bikes": [{"bike_id": "61f50070768de9b07ddc8e7d67118711", "is_reserved": 0, "fusion_lon": 0.0, "lat": 38.9553255, "is_disabled": 0, "name": "61f50070768de9b07ddc8e7d67118711", "fusion_lat": 0.0, "rental_uris": {"ios": "https://dc.lft.to/lastmile_qr_scan", "android": "https://dc.lft.to/lastmile_qr_scan"}, "lon": -77.02412783333334, "type": "electric_bike"}, {"bike_id": "2576c710a4d6e91aa162456f327ac8ec", "is_reserved": 0, "fusion_lon": 0.0, "lat": 38.902134, "is_disabled": 0, "name": "2576c710a4d6e91aa162456f327ac8ec", "fusion_lat": 0.0, "rental_uris": {"ios": "https://dc.lft.to/lastmile_qr_scan", "android": "https://dc.lft.to/lastmile_qr_scan"}, "lon": -76.9458795, "type": "electric_scooter"}, {"bike_id": "698027284db699fb046237cb08996fba", "is_reserved": 0, "fusion_lon": 0.0, "lat": 38.949479333333336, "is_disabled": 0, "name": "698027284db699fb046237cb08996fba", "fusion_lat": 0.0, "rental_uris": {"ios": "https://dc.lft.to/lastmile_qr_scan", "android": "https://dc.lft.to/lastmile_qr_scan"}, "lon": -77.01617566666667, "type": "electric_scooter"}, {"bike_id": "c78cfa7f58207418ec5714428c15f1f4", "is_reserved": 0, "fusion_lon": 0.0, "lat": 38.91966333333333, "is_disabled": 0, "name": "c78cfa7f58207418ec5714428c15f1f4", "fusion_lat": 0.0, "rental_uris": {"ios": "https://dc.lft.to/lastmile_qr_scan", "android": "https://dc.lft.to/lastmile_qr_scan"}, "lon": -76.97260016666667, "type": "electric_bike"}, {"bike_id": "0f9449ab9db711740361ae733e80eaca", "is_reserved": 0, "fusion_lon": 0.0, "lat": 38.935633, "is_disabled": 0, "name": "0f9449ab9db711740361ae733e80eaca", "fusion_lat": 0.0, "rental_uris": {"ios": "https://dc.lft.to/lastmile_qr_scan", "android": "https://dc.lft.to/lastmile_qr_scan"}, "lon": -77.03700466666666, "type": "electric_bike"}, {"bike_id": "7a3a09b16f3fa861174c482f20dce77d", "is_reserved": 0, "fusion_lon": 0.0, "lat": 38.9255555, "is_disabled": 0, "name": "7a3a09b16f3fa861174c482f20dce77d", "fusion_lat": 0.0, "rental_uris": {"ios": "https://dc.lft.to/lastmile_qr_scan", "android": "https://dc.lft.to/lastmile_qr_scan"}, "lon": -77.0013875, "type": "electric_bike"}, {"bike_id": "3268d2a8b1136253b3b4001ba306d48c", "is_reserved": 0, "fusion_lon": 0.0, "lat": 38.90322483333333, "is_disabled": 0, "name": "3268d2a8b1136253b3b4001ba306d48c", "fusion_lat": 0.0, "rental_uris": {"ios": "https://dc.lft.to/lastmile_qr_scan", "android": "https://dc.lft.to/lastmile_qr_scan"}, "lon": -77.03848116666667, "type": "electric_scooter"}, {"bike_id": "2388db756331c7995c2106d57938509a", "is_reserved": 0, "fusion_lon": 0.0, "lat": 38.905435, "is_disabled": 0, "name": "2388db756331c7995c2106d57938509a", "fusion_lat": 0.0, "rental_uris": {"ios": "https://dc.lft.to/lastmile_qr_scan", "android": "https://dc.lft.to/lastmile_qr_scan"}, "lon": -77.00576233333334, "type": "electric_scooter"}, {"bike_id": "22e006547a128b22759563b2dee96941", "is_reserved": 0, "fusion_lon": 0.0, "lat": 38.9204845, "is_disabled": 0, "name": "22e006547a128b22759563b2dee96941", "fusion_lat": 0.0, "rental_uris": {"ios": "https://dc.lft.to/lastmile_qr_scan", "android": "https://dc.lft.to/lastmile_qr_scan"}, "lon": -77.03389333333334, "type": "electric_scooter"}, {"bike_id": "1c5ec3e50e8a2d887bdf4720a099f5b2", "is_reserved": 0, "fusion_lon": 0.0, "lat": 38.91880333333334, "is_disabled": 0, "name": "1c5ec3e50e8a2d887bdf4720a099f5b2", "fusion_lat": 0.0, "rental_uris": {"ios": "https://dc.lft.to/lastmile_qr_scan", "android": "https://dc.lft.to/lastmile_qr_scan"}, "lon": -77.04458916666667, "type": "electric_scooter"}, {"bike_id": "356965ece56584f65ecd645ac2ddcfb6", "is_reserved": 0, "fusion_lon": 0.0, "lat": 38.9662325, "is_disabled": 0, "name": "356965ece56584f65ecd645ac2ddcfb6", "fusion_lat": 0.0, "rental_uris": {"ios": "https://dc.lft.to/lastmile_qr_scan", "android": "https://dc.lft.to/lastmile_qr_scan"}, "lon": -76.97669766666667, "type": "electric_bike"}, {"bike_id": "86600f984f8cc6145ccfd8530d6456e8", "is_reserved": 0, "fusion_lon": 0.0, "lat": 38.952656833333336, "is_disabled": 0, "name": "86600f984f8cc6145ccfd8530d6456e8", "fusion_lat": 0.0, "rental_uris": {"ios": "https://dc.lft.to/lastmile_qr_scan", "android": "https://dc.lft.to/lastmile_qr_scan"}, "lon": -77.02560966666667, "type": "electric_scooter"}, {"bike_id": "f6199cc51279791b1abebd12e7c7c157", "is_reserved": 0, "fusion_lon": 0.0, "lat": 38.899500333333336, "is_disabled": 0, "name": "f6199cc51279791b1abebd12e7c7c157", "fusion_lat": 0.0, "rental_uris": {"ios": "https://dc.lft.to/lastmile_qr_scan", "android": "https://dc.lft.to/lastmile_qr_scan"}, "lon": -77.031732, "type": "electric_scooter"}, {"bike_id": "24528a965ac4cdb3c073ec25ff4c0270", "is_reserved": 0, "fusion_lon": 0.0, "lat": 38.866978, "is_disabled": 0, "name": "24528a965ac4cdb3c073ec25ff4c0270", "fusion_lat": 0.0, "rental_uris": {"ios": "https://dc.lft.to/lastmile_qr_scan", "android": "https://dc.lft.to/lastmile_qr_scan"}, "lon": -76.987114, "type": "electric_scooter"}, {"bike_id": "6eb7cb6bf6264b99f692ab0a9904ab50", "is_reserved": 0, "fusion_lon": 0.0, "lat": 38.9097545, "is_disabled": 0, "name": "6eb7cb6bf6264b99f692ab0a9904ab50", "fusion_lat": 0.0, "rental_uris": {"ios": "https://dc.lft.to/lastmile_qr_scan", "android": "https://dc.lft.to/lastmile_qr_scan"}, "lon": -77.03867933333333, "type": "electric_scooter"}, {"bike_id": "4f02077e2ee95fe9fba81d6251946198", "is_reserved": 0, "fusion_lon": 0.0, "lat": 38.90769916666667, "is_disabled": 0, "name": "4f02077e2ee95fe9fba81d6251946198", "fusion_lat": 0.0, "rental_uris": {"ios": "https://dc.lft.to/lastmile_qr_scan", "android": "https://dc.lft.to/lastmile_qr_scan"}, "lon": -77.06911416666667, "type": "electric_scooter"}, {"bike_id": "c9726e448328aae4dd557606dc688049", "is_reserved": 0, "fusion_lon": 0.0, "lat": 38.933604833333334, "is_disabled": 0, "name": "c9726e448328aae4dd557606dc688049", "fusion_lat": 0.0, "rental_uris": {"ios": "https://dc.lft.to/lastmile_qr_scan", "android": "https://dc.lft.to/lastmile_qr_scan"}, "lon": -77.026429, "type": "electric_scooter"}, {"bike_id": "447406b99eeda18429de25cd51212478", "is_reserved": 0, "fusion_lon": 0.0, "lat": 38.939869, "is_disabled": 0, "name": "447406b99eeda18429de25cd51212478", "fusion_lat": 0.0, "rental_uris": {"ios": "https://dc.lft.to/lastmile_qr_scan", "android": "https://dc.lft.to/lastmile_qr_scan"}, "lon": -77.0289175, "type": "electric_scooter"}, {"bike_id": "f6fe7addf32c747343f0aeeb3f1821a0", "is_reserved": 0, "fusion_lon": 0.0, "lat": 38.91669133333333, "is_disabled": 0, "name": "f6fe7addf32c747343f0aeeb3f1821a0", "fusion_lat": 0.0, "rental_uris": {"ios": "https://dc.lft.to/lastmile_qr_scan", "android": "https://dc.lft.to/lastmile_qr_scan"}, "lon": -77.02306766666666, "type": "electric_scooter"}, {"bike_id": "92ee5f3e3acd7980dd8149e37ea6142a", "is_reserved": 0, "fusion_lon": 0.0, "lat": 38.999410166666664, "is_disabled": 0, "name": "92ee5f3e3acd7980dd8149e37ea6142a", "fusion_lat": 0.0, "rental_uris": {"ios": "https://dc.lft.to/lastmile_qr_scan", "android": "https://dc.lft.to/lastmile_qr_scan"}, "lon": -77.01766883333333, "type": "electric_bike"}, {"bike_id": "a0b3a767a15449e92b18bd7e7ab5bb9f", "is_reserved": 0, "fusion_lon": 0.0, "lat": 38.91256033333333, "is_disabled": 0, "name": "a0b3a767a15449e92b18bd7e7ab5bb9f", "fusion_lat": 0.0, "rental_uris": {"ios": "https://dc.lft.to/lastmile_qr_scan", "android": "https://dc.lft.to/lastmile_qr_scan"}, "lon": -77.037686, "type": "electric_scooter"}, {"bike_id": "3f25a7023b6b1c67cd157f40b5442e3d", "is_reserved": 0, "fusion_lon": 0.0, "lat": 38.92785166666667, "is_disabled": 0, "name": "3f25a7023b6b1c67cd157f40b5442e3d", "fusion_lat": 0.0, "rental_uris": {"ios": "https://dc.lft.to/lastmile_qr_scan", "android": "https://dc.lft.to/lastmile_qr_scan"}, "lon": -77.02080816666667, "type": "electric_scooter"}, {"bike_id": "79a08936b5af40bc5a9f995432844179", "is_reserved": 0, "fusion_lon": 0.0, "lat": 38.89103983333333, "is_disabled": 0, "name": "79a08936b5af40bc5a9f995432844179", "fusion_lat": 0.0, "rental_uris": {"ios": "https://dc.lft.to/lastmile_qr_scan", "android": "https://dc.lft.to/lastmile_qr_scan"}, "lon": -76.98702183333333, "type": "electric_scooter"}, {"bike_id": "e1a791c8ad5fef8e455d47e21fbc2640", "is_reserved": 0, "fusion_lon": 0.0, "lat": 38.85920316666667, "is_disabled": 0, "name": "e1a791c8ad5fef8e455d47e21fbc2640", "fusion_lat": 0.0, "rental_uris": {"ios": "https://dc.lft.to/lastmile_qr_scan", "android": "https://dc.lft.to/lastmile_qr_scan"}, "lon": -76.98979266666667, "type": "electric_scooter"}, {"bike_id": "5941e84e8fd2ff221cba8d435ed2e9f8", "is_reserved": 0, "fusion_lon": 0.0, "lat": 38.909777, "is_disabled": 0, "name": "5941e84e8fd2ff221cba8d435ed2e9f8", "fusion_lat": 0.0, "rental_uris": {"ios": "https://dc.lft.to/lastmile_qr_scan", "android": "https://dc.lft.to/lastmile_qr_scan"}, "lon": -77.0239715, "type": "electric_scooter"}, {"bike_id": "a51119ee9b625de8430c1af00aefe07d", "is_reserved": 0, "fusion_lon": 0.0, "lat": 38.87090283333333, "is_disabled": 0, "name": "a51119ee9b625de8430c1af00aefe07d", "fusion_lat": 0.0, "rental_uris": {"ios": "https://dc.lft.to/lastmile_qr_scan", "android": "https://dc.lft.to/lastmile_qr_scan"}, "lon": -77.012104, "type": "electric_bike"}, {"bike_id": "1658bfca2b58677438d30d8fbdccc656", "is_reserved": 0, "fusion_lon": 0.0, "lat": 38.922458666666664, "is_disabled": 0, "name": "1658bfca2b58677438d30d8fbdccc656", "fusion_lat": 0.0, "rental_uris": {"ios": "https://dc.lft.to/lastmile_qr_scan", "android": "https://dc.lft.to/lastmile_qr_scan"}, "lon": -77.030817, "type": "electric_scooter"}, {"bike_id": "59db49750be62db3bc9639d054285f28", "is_reserved": 0, "fusion_lon": 0.0, "lat": 38.879112166666665, "is_disabled": 0, "name": "59db49750be62db3bc9639d054285f28", "fusion_lat": 0.0, "rental_uris": {"ios": "https://dc.lft.to/lastmile_qr_scan", "android": "https://dc.lft.to/lastmile_qr_scan"}, "lon": -77.02271333333333, "type": "electric_scooter"}, {"bike_id": "a9431fc174f93caf7175dad2951c88fb", "is_reserved": 0, "fusion_lon": 0.0, "lat": 38.90030433333333, "is_disabled": 0, "name": "a9431fc174f93caf7175dad2951c88fb", "fusion_lat": 0.0, "rental_uris": {"ios": "https://dc.lft.to/lastmile_qr_scan", "android": "https://dc.lft.to/lastmile_qr_scan"}, "lon": -76.98758666666667, "type": "electric_scooter"}, {"bike_id": "16269d4af07a74bfd8bc8e7200de3f6a", "is_reserved": 0, "fusion_lon": 0.0, "lat": 38.90625883333333, "is_disabled": 0, "name": "16269d4af07a74bfd8bc8e7200de3f6a", "fusion_lat": 0.0, "rental_uris": {"ios": "https://dc.lft.to/lastmile_qr_scan", "android": "https://dc.lft.to/lastmile_qr_scan"}, "lon": -76.98609266666666, "type": "electric_bike"}, {"bike_id": "b6669f10633aeb21b53493135a43d722", "is_reserved": 0, "fusion_lon": 0.0, "lat": 38.9180985, "is_disabled": 0, "name": "b6669f10633aeb21b53493135a43d722", "fusion_lat": 0.0, "rental_uris": {"ios": "https://dc.lft.to/lastmile_qr_scan", "android": "https://dc.lft.to/lastmile_qr_scan"}, "lon": -77.03562733333334, "type": "electric_scooter"}, {"bike_id": "b637fb19e40c4dd474c83e4b5bad4fcc", "is_reserved": 0, "fusion_lon": 0.0, "lat": 38.8968425, "is_disabled": 0, "name": "b637fb19e40c4dd474c83e4b5bad4fcc", "fusion_lat": 0.0, "rental_uris": {"ios": "https://dc.lft.to/lastmile_qr_scan", "android": "https://dc.lft.to/lastmile_qr_scan"}, "lon": -76.99616716666667, "type": "electric_scooter"}, {"bike_id": "abfbe810211be5f332e8d961709e133b", "is_reserved": 0, "fusion_lon": 0.0, "lat": 38.91978816666666, "is_disabled": 0, "name": "abfbe810211be5f332e8d961709e133b", "fusion_lat": 0.0, "rental_uris": {"ios": "https://dc.lft.to/lastmile_qr_scan", "android": "https://dc.lft.to/lastmile_qr_scan"}, "lon": -77.04439466666666, "type": "electric_scooter"}, {"bike_id": "9e4ba36bef7d136af054e5b201e49038", "is_reserved": 0, "fusion_lon": 0.0, "lat": 38.90388266666667, "is_disabled": 0, "name": "9e4ba36bef7d136af054e5b201e49038", "fusion_lat": 0.0, "rental_uris": {"ios": "https://dc.lft.to/lastmile_qr_scan", "android": "https://dc.lft.to/lastmile_qr_scan"}, "lon": -77.04433183333333, "type": "electric_scooter"}, {"bike_id": "34144e5cff0ffdaebaf8532aa476e2e8", "is_reserved": 0, "fusion_lon": 0.0, "lat": 38.93708433333333, "is_disabled": 0, "name": "34144e5cff0ffdaebaf8532aa476e2e8", "fusion_lat": 0.0, "rental_uris": {"ios": "https://dc.lft.to/lastmile_qr_scan", "android": "https://dc.lft.to/lastmile_qr_scan"}, "lon": -77.029799, "type": "electric_bike"}, {"bike_id": "a653b14c18c5e681747d4c7082cb3138", "is_reserved": 0, "fusion_lon": 0.0, "lat": 38.90243433333333, "is_disabled": 0, "name": "a653b14c18c5e681747d4c7082cb3138", "fusion_lat": 0.0, "rental_uris": {"ios": "https://dc.lft.to/lastmile_qr_scan", "android": "https://dc.lft.to/lastmile_qr_scan"}, "lon": -77.00196433333333, "type": "electric_scooter"}, {"bike_id": "33cf2f90af73bfd22252320693d38755", "is_reserved": 0, "fusion_lon": 0.0, "lat": 38.9418385, "is_disabled": 0, "name": "33cf2f90af73bfd22252320693d38755", "fusion_lat": 0.0, "rental_uris": {"ios": "https://dc.lft.to/lastmile_qr_scan", "android": "https://dc.lft.to/lastmile_qr_scan"}, "lon": -77.03651033333334, "type": "electric_scooter"}, {"bike_id": "a58b8559b1df3a26c3312c1015cd9346", "is_reserved": 0, "fusion_lon": 0.0, "lat": 38.913359, "is_disabled": 0, "name": "a58b8559b1df3a26c3312c1015cd9346", "fusion_lat": 0.0, "rental_uris": {"ios": "https://dc.lft.to/lastmile_qr_scan", "android": "https://dc.lft.to/lastmile_qr_scan"}, "lon": -77.04815416666666, "type": "electric_scooter"}, {"bike_id": "23f421fd19a3240e53ae4874135f62ae", "is_reserved": 0, "fusion_lon": 0.0, "lat": 38.90004966666667, "is_disabled": 0, "name": "23f421fd19a3240e53ae4874135f62ae", "fusion_lat": 0.0, "rental_uris": {"ios": "https://dc.lft.to/lastmile_qr_scan", "android": "https://dc.lft.to/lastmile_qr_scan"}, "lon": -77.03296433333334, "type": "electric_scooter"}, {"bike_id": "87b582f601da9121c8a755f977c7c48a", "is_reserved": 0, "fusion_lon": 0.0, "lat": 38.89840216666666, "is_disabled": 0, "name": "87b582f601da9121c8a755f977c7c48a", "fusion_lat": 0.0, "rental_uris": {"ios": "https://dc.lft.to/lastmile_qr_scan", "android": "https://dc.lft.to/lastmile_qr_scan"}, "lon": -77.03189716666667, "type": "electric_scooter"}, {"bike_id": "5b7af7ca78f606f155ba6b363d2960e1", "is_reserved": 0, "fusion_lon": 0.0, "lat": 38.882813166666665, "is_disabled": 0, "name": "5b7af7ca78f606f155ba6b363d2960e1", "fusion_lat": 0.0, "rental_uris": {"ios": "https://dc.lft.to/lastmile_qr_scan", "android": "https://dc.lft.to/lastmile_qr_scan"}, "lon": -76.98609033333334, "type": "electric_scooter"}, {"bike_id": "35f352ff592e30d970de3300738230f7", "is_reserved": 0, "fusion_lon": 0.0, "lat": 38.87629716666667, "is_disabled": 0, "name": "35f352ff592e30d970de3300738230f7", "fusion_lat": 0.0, "rental_uris": {"ios": "https://dc.lft.to/lastmile_qr_scan", "android": "https://dc.lft.to/lastmile_qr_scan"}, "lon": -76.9652605, "type": "electric_scooter"}, {"bike_id": "138b80e1a1ab8cd8b66d434574c898c2", "is_reserved": 0, "fusion_lon": 0.0, "lat": 38.897433, "is_disabled": 0, "name": "138b80e1a1ab8cd8b66d434574c898c2", "fusion_lat": 0.0, "rental_uris": {"ios": "https://dc.lft.to/lastmile_qr_scan", "android": "https://dc.lft.to/lastmile_qr_scan"}, "lon": -76.938455, "type": "electric_scooter"}, {"bike_id": "6ae017d553a4cb04bcb01888587bddf9", "is_reserved": 0, "fusion_lon": 0.0, "lat": 38.90330933333333, "is_disabled": 0, "name": "6ae017d553a4cb04bcb01888587bddf9", "fusion_lat": 0.0, "rental_uris": {"ios": "https://dc.lft.to/lastmile_qr_scan", "android": "https://dc.lft.to/lastmile_qr_scan"}, "lon": -76.97591633333333, "type": "electric_scooter"}, {"bike_id": "ae183120ce21b0b31842684bfe603102", "is_reserved": 0, "fusion_lon": 0.0, "lat": 38.8381355, "is_disabled": 0, "name": "ae183120ce21b0b31842684bfe603102", "fusion_lat": 0.0, "rental_uris": {"ios": "https://dc.lft.to/lastmile_qr_scan", "android": "https://dc.lft.to/lastmile_qr_scan"}, "lon": -77.09523633333333, "type": "electric_bike"}, {"bike_id": "f16a5e71cdc6dca371b8c193933642db", "is_reserved": 0, "fusion_lon": 0.0, "lat": 38.94630466666667, "is_disabled": 0, "name": "f16a5e71cdc6dca371b8c193933642db", "fusion_lat": 0.0, "rental_uris": {"ios": "https://dc.lft.to/lastmile_qr_scan", "android": "https://dc.lft.to/lastmile_qr_scan"}, "lon": -77.01843216666667, "type": "electric_scooter"}, {"bike_id": "605ae18709685bd0019ba09ce54e4914", "is_reserved": 0, "fusion_lon": 0.0, "lat": 38.92871483333333, "is_disabled": 0, "name": "605ae18709685bd0019ba09ce54e4914", "fusion_lat": 0.0, "rental_uris": {"ios": "https://dc.lft.to/lastmile_qr_scan", "android": "https://dc.lft.to/lastmile_qr_scan"}, "lon": -77.01368533333333, "type": "electric_scooter"}, {"bike_id": "dea2ff80fa09b3a571c0d6931a4dd52e", "is_reserved": 0, "fusion_lon": 0.0, "lat": 38.9276385, "is_disabled": 0, "name": "dea2ff80fa09b3a571c0d6931a4dd52e", "fusion_lat": 0.0, "rental_uris": {"ios": "https://dc.lft.to/lastmile_qr_scan", "android": "https://dc.lft.to/lastmile_qr_scan"}, "lon": -77.07309066666667, "type": "electric_scooter"}, {"bike_id": "9bcc63420dcd4a52bfcd6a267369b667", "is_reserved": 0, "fusion_lon": 0.0, "lat": 38.865186, "is_disabled": 0, "name": "9bcc63420dcd4a52bfcd6a267369b667", "fusion_lat": 0.0, "rental_uris": {"ios": "https://dc.lft.to/lastmile_qr_scan", "android": "https://dc.lft.to/lastmile_qr_scan"}, "lon": -76.990294, "type": "electric_scooter"}, {"bike_id": "95e280e4892dce73239120da1bdeeacd", "is_reserved": 0, "fusion_lon": 0.0, "lat": 38.80011916666667, "is_disabled": 0, "name": "95e280e4892dce73239120da1bdeeacd", "fusion_lat": 0.0, "rental_uris": {"ios": "https://dc.lft.to/lastmile_qr_scan", "android": "https://dc.lft.to/lastmile_qr_scan"}, "lon": -77.13002216666666, "type": "electric_bike"}, {"bike_id": "4b812bf1051a6b433636a8509214dc10", "is_reserved": 0, "fusion_lon": 0.0, "lat": 38.86665433333334, "is_disabled": 0, "name": "4b812bf1051a6b433636a8509214dc10", "fusion_lat": 0.0, "rental_uris": {"ios": "https://dc.lft.to/lastmile_qr_scan", "android": "https://dc.lft.to/lastmile_qr_scan"}, "lon": -76.989041, "type": "electric_scooter"}, {"bike_id": "416f45d9195718cf7863375e4f4de72c", "is_reserved": 0, "fusion_lon": 0.0, "lat": 38.89608416666667, "is_disabled": 0, "name": "416f45d9195718cf7863375e4f4de72c", "fusion_lat": 0.0, "rental_uris": {"ios": "https://dc.lft.to/lastmile_qr_scan", "android": "https://dc.lft.to/lastmile_qr_scan"}, "lon": -77.04457816666667, "type": "electric_scooter"}, {"bike_id": "1024eb41849b792a541cdaf45a12bb3f", "is_reserved": 0, "fusion_lon": 0.0, "lat": 38.9328945, "is_disabled": 0, "name": "1024eb41849b792a541cdaf45a12bb3f", "fusion_lat": 0.0, "rental_uris": {"ios": "https://dc.lft.to/lastmile_qr_scan", "android": "https://dc.lft.to/lastmile_qr_scan"}, "lon": -77.03982183333333, "type": "electric_scooter"}, {"bike_id": "023198203580d1ca752c1c51f328d079", "is_reserved": 0, "fusion_lon": 0.0, "lat": 38.8383335, "is_disabled": 0, "name": "023198203580d1ca752c1c51f328d079", "fusion_lat": 0.0, "rental_uris": {"ios": "https://dc.lft.to/lastmile_qr_scan", "android": "https://dc.lft.to/lastmile_qr_scan"}, "lon": -76.99685633333333, "type": "electric_bike"}, {"bike_id": "d98ab19efbb62898f72e460214c336a0", "is_reserved": 0, "fusion_lon": 0.0, "lat": 38.9333965, "is_disabled": 0, "name": "d98ab19efbb62898f72e460214c336a0", "fusion_lat": 0.0, "rental_uris": {"ios": "https://dc.lft.to/lastmile_qr_scan", "android": "https://dc.lft.to/lastmile_qr_scan"}, "lon": -77.03289333333333, "type": "electric_scooter"}, {"bike_id": "b41245aa3014f5a462c86bb46d554aed", "is_reserved": 0, "fusion_lon": 0.0, "lat": 38.88686833333333, "is_disabled": 0, "name": "b41245aa3014f5a462c86bb46d554aed", "fusion_lat": 0.0, "rental_uris": {"ios": "https://dc.lft.to/lastmile_qr_scan", "android": "https://dc.lft.to/lastmile_qr_scan"}, "lon": -76.9576095, "type": "electric_scooter"}, {"bike_id": "ec4cdb09dd8b7a312a4ab4f728895437", "is_reserved": 0, "fusion_lon": 0.0, "lat": 38.966251166666666, "is_disabled": 0, "name": "ec4cdb09dd8b7a312a4ab4f728895437", "fusion_lat": 0.0, "rental_uris": {"ios": "https://dc.lft.to/lastmile_qr_scan", "android": "https://dc.lft.to/lastmile_qr_scan"}, "lon": -77.03429183333333, "type": "electric_bike"}, {"bike_id": "fe774af055fe13a9b1984ee2425b2e96", "is_reserved": 0, "fusion_lon": 0.0, "lat": 38.926881333333334, "is_disabled": 0, "name": "fe774af055fe13a9b1984ee2425b2e96", "fusion_lat": 0.0, "rental_uris": {"ios": "https://dc.lft.to/lastmile_qr_scan", "android": "https://dc.lft.to/lastmile_qr_scan"}, "lon": -77.01573533333334, "type": "electric_scooter"}, {"bike_id": "f046f9c5ed19d1baa06df017162bb834", "is_reserved": 0, "fusion_lon": 0.0, "lat": 38.925406, "is_disabled": 0, "name": "f046f9c5ed19d1baa06df017162bb834", "fusion_lat": 0.0, "rental_uris": {"ios": "https://dc.lft.to/lastmile_qr_scan", "android": "https://dc.lft.to/lastmile_qr_scan"}, "lon": -77.03525683333334, "type": "electric_scooter"}, {"bike_id": "7f208930c55a9cef92782208d16a6744", "is_reserved": 0, "fusion_lon": 0.0, "lat": 38.910096333333335, "is_disabled": 0, "name": "7f208930c55a9cef92782208d16a6744", "fusion_lat": 0.0, "rental_uris": {"ios": "https://dc.lft.to/lastmile_qr_scan", "android": "https://dc.lft.to/lastmile_qr_scan"}, "lon": -77.0344725, "type": "electric_scooter"}, {"bike_id": "14a785e944342af9ac95094b9c68694d", "is_reserved": 0, "fusion_lon": 0.0, "lat": 38.916980333333335, "is_disabled": 0, "name": "14a785e944342af9ac95094b9c68694d", "fusion_lat": 0.0, "rental_uris": {"ios": "https://dc.lft.to/lastmile_qr_scan", "android": "https://dc.lft.to/lastmile_qr_scan"}, "lon": -77.0289585, "type": "electric_scooter"}, {"bike_id": "cd47cb2dc2a279b90804c7306ccd56c6", "is_reserved": 0, "fusion_lon": 0.0, "lat": 38.92440083333334, "is_disabled": 0, "name": "cd47cb2dc2a279b90804c7306ccd56c6", "fusion_lat": 0.0, "rental_uris": {"ios": "https://dc.lft.to/lastmile_qr_scan", "android": "https://dc.lft.to/lastmile_qr_scan"}, "lon": -77.03375066666666, "type": "electric_scooter"}, {"bike_id": "74e8ad05a6059137b2d83c562adc12f0", "is_reserved": 0, "fusion_lon": 0.0, "lat": 38.9279725, "is_disabled": 0, "name": "74e8ad05a6059137b2d83c562adc12f0", "fusion_lat": 0.0, "rental_uris": {"ios": "https://dc.lft.to/lastmile_qr_scan", "android": "https://dc.lft.to/lastmile_qr_scan"}, "lon": -77.02604066666666, "type": "electric_scooter"}, {"bike_id": "acaec84fcd46a0705d7035a69be744a4", "is_reserved": 0, "fusion_lon": 0.0, "lat": 38.9284865, "is_disabled": 0, "name": "acaec84fcd46a0705d7035a69be744a4", "fusion_lat": 0.0, "rental_uris": {"ios": "https://dc.lft.to/lastmile_qr_scan", "android": "https://dc.lft.to/lastmile_qr_scan"}, "lon": -77.02057333333333, "type": "electric_bike"}, {"bike_id": "3c02438157a8c94f7827d46ba02b956d", "is_reserved": 0, "fusion_lon": 0.0, "lat": 38.916207666666665, "is_disabled": 0, "name": "3c02438157a8c94f7827d46ba02b956d", "fusion_lat": 0.0, "rental_uris": {"ios": "https://dc.lft.to/lastmile_qr_scan", "android": "https://dc.lft.to/lastmile_qr_scan"}, "lon": -77.03642483333333, "type": "electric_scooter"}, {"bike_id": "d4373adc75dffd15f393802abd21d4a1", "is_reserved": 0, "fusion_lon": 0.0, "lat": 38.902348833333335, "is_disabled": 0, "name": "d4373adc75dffd15f393802abd21d4a1", "fusion_lat": 0.0, "rental_uris": {"ios": "https://dc.lft.to/lastmile_qr_scan", "android": "https://dc.lft.to/lastmile_qr_scan"}, "lon": -77.019752, "type": "electric_scooter"}, {"bike_id": "e94429503dc1ede30b44c93f41fddee6", "is_reserved": 0, "fusion_lon": 0.0, "lat": 38.91004066666667, "is_disabled": 0, "name": "e94429503dc1ede30b44c93f41fddee6", "fusion_lat": 0.0, "rental_uris": {"ios": "https://dc.lft.to/lastmile_qr_scan", "android": "https://dc.lft.to/lastmile_qr_scan"}, "lon": -77.02102616666667, "type": "electric_scooter"}, {"bike_id": "c6740d653bdee2f439696b6ee5889349", "is_reserved": 0, "fusion_lon": 0.0, "lat": 38.91537116666667, "is_disabled": 0, "name": "c6740d653bdee2f439696b6ee5889349", "fusion_lat": 0.0, "rental_uris": {"ios": "https://dc.lft.to/lastmile_qr_scan", "android": "https://dc.lft.to/lastmile_qr_scan"}, "lon": -77.02347183333333, "type": "electric_scooter"}, {"bike_id": "564cabc8035d08fcd9d65a7f5bdc286d", "is_reserved": 0, "fusion_lon": 0.0, "lat": 38.899652333333336, "is_disabled": 0, "name": "564cabc8035d08fcd9d65a7f5bdc286d", "fusion_lat": 0.0, "rental_uris": {"ios": "https://dc.lft.to/lastmile_qr_scan", "android": "https://dc.lft.to/lastmile_qr_scan"}, "lon": -77.01624666666666, "type": "electric_scooter"}, {"bike_id": "aa301c68a53489c8ee30b73d7ba39aca", "is_reserved": 0, "fusion_lon": 0.0, "lat": 38.89378466666667, "is_disabled": 0, "name": "aa301c68a53489c8ee30b73d7ba39aca", "fusion_lat": 0.0, "rental_uris": {"ios": "https://dc.lft.to/lastmile_qr_scan", "android": "https://dc.lft.to/lastmile_qr_scan"}, "lon": -76.94983666666667, "type": "electric_scooter"}, {"bike_id": "ca2441d28648211ae404cdf0a078a9f2", "is_reserved": 0, "fusion_lon": 0.0, "lat": 38.874781, "is_disabled": 0, "name": "ca2441d28648211ae404cdf0a078a9f2", "fusion_lat": 0.0, "rental_uris": {"ios": "https://dc.lft.to/lastmile_qr_scan", "android": "https://dc.lft.to/lastmile_qr_scan"}, "lon": -76.9652705, "type": "electric_bike"}, {"bike_id": "ff469fa3724f126e47a5dec1718bf4dc", "is_reserved": 0, "fusion_lon": 0.0, "lat": 38.92191533333333, "is_disabled": 0, "name": "ff469fa3724f126e47a5dec1718bf4dc", "fusion_lat": 0.0, "rental_uris": {"ios": "https://dc.lft.to/lastmile_qr_scan", "android": "https://dc.lft.to/lastmile_qr_scan"}, "lon": -77.041263, "type": "electric_scooter"}, {"bike_id": "1972014aff6ee0ec2f16f3beeb6d789f", "is_reserved": 0, "fusion_lon": 0.0, "lat": 38.90303683333333, "is_disabled": 0, "name": "1972014aff6ee0ec2f16f3beeb6d789f", "fusion_lat": 0.0, "rental_uris": {"ios": "https://dc.lft.to/lastmile_qr_scan", "android": "https://dc.lft.to/lastmile_qr_scan"}, "lon": -77.04330966666667, "type": "electric_scooter"}, {"bike_id": "4ce0e9a721dd13f3ce076abfdd79f66c", "is_reserved": 0, "fusion_lon": 0.0, "lat": 38.92362583333333, "is_disabled": 0, "name": "4ce0e9a721dd13f3ce076abfdd79f66c", "fusion_lat": 0.0, "rental_uris": {"ios": "https://dc.lft.to/lastmile_qr_scan", "android": "https://dc.lft.to/lastmile_qr_scan"}, "lon": -77.05027866666667, "type": "electric_scooter"}, {"bike_id": "8835420187cb8fef6bd2957cca200a4d", "is_reserved": 0, "fusion_lon": 0.0, "lat": 38.901354166666664, "is_disabled": 0, "name": "8835420187cb8fef6bd2957cca200a4d", "fusion_lat": 0.0, "rental_uris": {"ios": "https://dc.lft.to/lastmile_qr_scan", "android": "https://dc.lft.to/lastmile_qr_scan"}, "lon": -77.04471833333334, "type": "electric_scooter"}, {"bike_id": "7895642ba6f287c90497825c2aa24a57", "is_reserved": 0, "fusion_lon": 0.0, "lat": 38.91998383333333, "is_disabled": 0, "name": "7895642ba6f287c90497825c2aa24a57", "fusion_lat": 0.0, "rental_uris": {"ios": "https://dc.lft.to/lastmile_qr_scan", "android": "https://dc.lft.to/lastmile_qr_scan"}, "lon": -77.0322965, "type": "electric_scooter"}, {"bike_id": "3de71f92c03ff5e513b80e2befa48ade", "is_reserved": 0, "fusion_lon": 0.0, "lat": 38.9285195, "is_disabled": 0, "name": "3de71f92c03ff5e513b80e2befa48ade", "fusion_lat": 0.0, "rental_uris": {"ios": "https://dc.lft.to/lastmile_qr_scan", "android": "https://dc.lft.to/lastmile_qr_scan"}, "lon": -77.05419883333333, "type": "electric_scooter"}, {"bike_id": "b9b8f03a2591b673a04f6d1a8071927a", "is_reserved": 0, "fusion_lon": 0.0, "lat": 38.900977833333336, "is_disabled": 0, "name": "b9b8f03a2591b673a04f6d1a8071927a", "fusion_lat": 0.0, "rental_uris": {"ios": "https://dc.lft.to/lastmile_qr_scan", "android": "https://dc.lft.to/lastmile_qr_scan"}, "lon": -77.0493, "type": "electric_scooter"}, {"bike_id": "348823627a143728cd84a6aed09d096c", "is_reserved": 0, "fusion_lon": 0.0, "lat": 38.861670833333335, "is_disabled": 0, "name": "348823627a143728cd84a6aed09d096c", "fusion_lat": 0.0, "rental_uris": {"ios": "https://dc.lft.to/lastmile_qr_scan", "android": "https://dc.lft.to/lastmile_qr_scan"}, "lon": -76.95066816666667, "type": "electric_bike"}, {"bike_id": "46763fdeb265c96f94e6ab28b6b4f90e", "is_reserved": 0, "fusion_lon": 0.0, "lat": 38.92328666666667, "is_disabled": 0, "name": "46763fdeb265c96f94e6ab28b6b4f90e", "fusion_lat": 0.0, "rental_uris": {"ios": "https://dc.lft.to/lastmile_qr_scan", "android": "https://dc.lft.to/lastmile_qr_scan"}, "lon": -77.04484766666667, "type": "electric_scooter"}, {"bike_id": "2936b51a8a2050a074180b63456274fa", "is_reserved": 0, "fusion_lon": 0.0, "lat": 38.92337216666667, "is_disabled": 0, "name": "2936b51a8a2050a074180b63456274fa", "fusion_lat": 0.0, "rental_uris": {"ios": "https://dc.lft.to/lastmile_qr_scan", "android": "https://dc.lft.to/lastmile_qr_scan"}, "lon": -77.03893133333334, "type": "electric_scooter"}, {"bike_id": "62e7eb893d0459a269d46ccacad39eb4", "is_reserved": 0, "fusion_lon": 0.0, "lat": 38.924935, "is_disabled": 0, "name": "62e7eb893d0459a269d46ccacad39eb4", "fusion_lat": 0.0, "rental_uris": {"ios": "https://dc.lft.to/lastmile_qr_scan", "android": "https://dc.lft.to/lastmile_qr_scan"}, "lon": -77.027141, "type": "electric_scooter"}, {"bike_id": "98880cce47d1c66255b0993f155fb284", "is_reserved": 0, "fusion_lon": 0.0, "lat": 38.93376833333333, "is_disabled": 0, "name": "98880cce47d1c66255b0993f155fb284", "fusion_lat": 0.0, "rental_uris": {"ios": "https://dc.lft.to/lastmile_qr_scan", "android": "https://dc.lft.to/lastmile_qr_scan"}, "lon": -77.03463866666667, "type": "electric_scooter"}, {"bike_id": "9f714998bc602ccbcccdc7cb20c00cab", "is_reserved": 0, "fusion_lon": 0.0, "lat": 38.9483535, "is_disabled": 0, "name": "9f714998bc602ccbcccdc7cb20c00cab", "fusion_lat": 0.0, "rental_uris": {"ios": "https://dc.lft.to/lastmile_qr_scan", "android": "https://dc.lft.to/lastmile_qr_scan"}, "lon": -77.03901333333333, "type": "electric_bike"}, {"bike_id": "6c53b76cfbd5c721614d52d82d6dc1d3", "is_reserved": 0, "fusion_lon": 0.0, "lat": 38.917272833333335, "is_disabled": 0, "name": "6c53b76cfbd5c721614d52d82d6dc1d3", "fusion_lat": 0.0, "rental_uris": {"ios": "https://dc.lft.to/lastmile_qr_scan", "android": "https://dc.lft.to/lastmile_qr_scan"}, "lon": -77.06831566666666, "type": "electric_scooter"}, {"bike_id": "ba77d4287d6a35d35727a5c76a1fe3eb", "is_reserved": 0, "fusion_lon": 0.0, "lat": 38.9390595, "is_disabled": 0, "name": "ba77d4287d6a35d35727a5c76a1fe3eb", "fusion_lat": 0.0, "rental_uris": {"ios": "https://dc.lft.to/lastmile_qr_scan", "android": "https://dc.lft.to/lastmile_qr_scan"}, "lon": -77.077279, "type": "electric_scooter"}, {"bike_id": "9bc52535aae7b1f2f1fc82ed3a042486", "is_reserved": 0, "fusion_lon": 0.0, "lat": 38.89481416666667, "is_disabled": 0, "name": "9bc52535aae7b1f2f1fc82ed3a042486", "fusion_lat": 0.0, "rental_uris": {"ios": "https://dc.lft.to/lastmile_qr_scan", "android": "https://dc.lft.to/lastmile_qr_scan"}, "lon": -77.030756, "type": "electric_scooter"}, {"bike_id": "31d26d316a7728eb8a71ced4fe868ed9", "is_reserved": 0, "fusion_lon": 0.0, "lat": 38.906063, "is_disabled": 0, "name": "31d26d316a7728eb8a71ced4fe868ed9", "fusion_lat": 0.0, "rental_uris": {"ios": "https://dc.lft.to/lastmile_qr_scan", "android": "https://dc.lft.to/lastmile_qr_scan"}, "lon": -77.04037483333333, "type": "electric_scooter"}, {"bike_id": "a184bbac30ca9ff333b152edc71efac1", "is_reserved": 0, "fusion_lon": 0.0, "lat": 38.92213366666667, "is_disabled": 0, "name": "a184bbac30ca9ff333b152edc71efac1", "fusion_lat": 0.0, "rental_uris": {"ios": "https://dc.lft.to/lastmile_qr_scan", "android": "https://dc.lft.to/lastmile_qr_scan"}, "lon": -77.04251833333333, "type": "electric_scooter"}, {"bike_id": "04a4cbd053f3286e36521068920f7ac0", "is_reserved": 0, "fusion_lon": 0.0, "lat": 38.885043, "is_disabled": 0, "name": "04a4cbd053f3286e36521068920f7ac0", "fusion_lat": 0.0, "rental_uris": {"ios": "https://dc.lft.to/lastmile_qr_scan", "android": "https://dc.lft.to/lastmile_qr_scan"}, "lon": -77.00568883333334, "type": "electric_scooter"}, {"bike_id": "d48f6f15b63c63520f2e860a53769153", "is_reserved": 0, "fusion_lon": 0.0, "lat": 38.928408, "is_disabled": 0, "name": "d48f6f15b63c63520f2e860a53769153", "fusion_lat": 0.0, "rental_uris": {"ios": "https://dc.lft.to/lastmile_qr_scan", "android": "https://dc.lft.to/lastmile_qr_scan"}, "lon": -77.0550315, "type": "electric_scooter"}, {"bike_id": "0502d08ee9c6b706eb276ee56d3f478d", "is_reserved": 0, "fusion_lon": 0.0, "lat": 38.9170355, "is_disabled": 0, "name": "0502d08ee9c6b706eb276ee56d3f478d", "fusion_lat": 0.0, "rental_uris": {"ios": "https://dc.lft.to/lastmile_qr_scan", "android": "https://dc.lft.to/lastmile_qr_scan"}, "lon": -77.0229495, "type": "electric_scooter"}, {"bike_id": "be0815a7d62ee85f81baa0a1cc0741ae", "is_reserved": 0, "fusion_lon": 0.0, "lat": 38.86630783333333, "is_disabled": 0, "name": "be0815a7d62ee85f81baa0a1cc0741ae", "fusion_lat": 0.0, "rental_uris": {"ios": "https://dc.lft.to/lastmile_qr_scan", "android": "https://dc.lft.to/lastmile_qr_scan"}, "lon": -76.9871495, "type": "electric_scooter"}, {"bike_id": "352543ec1a3b6f4a1bde58d88565c7d1", "is_reserved": 0, "fusion_lon": 0.0, "lat": 38.880415666666664, "is_disabled": 0, "name": "352543ec1a3b6f4a1bde58d88565c7d1", "fusion_lat": 0.0, "rental_uris": {"ios": "https://dc.lft.to/lastmile_qr_scan", "android": "https://dc.lft.to/lastmile_qr_scan"}, "lon": -77.02505316666667, "type": "electric_scooter"}, {"bike_id": "7ba133e8a51438e5fed9ab45807e6b7e", "is_reserved": 0, "fusion_lon": 0.0, "lat": 38.89771566666667, "is_disabled": 0, "name": "7ba133e8a51438e5fed9ab45807e6b7e", "fusion_lat": 0.0, "rental_uris": {"ios": "https://dc.lft.to/lastmile_qr_scan", "android": "https://dc.lft.to/lastmile_qr_scan"}, "lon": -76.90448033333334, "type": "electric_bike"}, {"bike_id": "60fff67a302a8a86e0c0bee7d1f6f585", "is_reserved": 0, "fusion_lon": 0.0, "lat": 38.900231166666664, "is_disabled": 0, "name": "60fff67a302a8a86e0c0bee7d1f6f585", "fusion_lat": 0.0, "rental_uris": {"ios": "https://dc.lft.to/lastmile_qr_scan", "android": "https://dc.lft.to/lastmile_qr_scan"}, "lon": -76.99549833333333, "type": "electric_scooter"}, {"bike_id": "7d98e47c156bb4eb6dc42fa6c9ea8baf", "is_reserved": 0, "fusion_lon": 0.0, "lat": 38.90667216666667, "is_disabled": 0, "name": "7d98e47c156bb4eb6dc42fa6c9ea8baf", "fusion_lat": 0.0, "rental_uris": {"ios": "https://dc.lft.to/lastmile_qr_scan", "android": "https://dc.lft.to/lastmile_qr_scan"}, "lon": -77.0270185, "type": "electric_scooter"}, {"bike_id": "49be4fcb8ddc14024c05acb4cd8270fc", "is_reserved": 0, "fusion_lon": 0.0, "lat": 38.867192333333335, "is_disabled": 0, "name": "49be4fcb8ddc14024c05acb4cd8270fc", "fusion_lat": 0.0, "rental_uris": {"ios": "https://dc.lft.to/lastmile_qr_scan", "android": "https://dc.lft.to/lastmile_qr_scan"}, "lon": -76.987707, "type": "electric_scooter"}, {"bike_id": "182c1820968d3413c808d0cda05ba287", "is_reserved": 0, "fusion_lon": 0.0, "lat": 38.92855133333333, "is_disabled": 0, "name": "182c1820968d3413c808d0cda05ba287", "fusion_lat": 0.0, "rental_uris": {"ios": "https://dc.lft.to/lastmile_qr_scan", "android": "https://dc.lft.to/lastmile_qr_scan"}, "lon": -77.03593516666666, "type": "electric_scooter"}, {"bike_id": "ecd9f4e061f5382db6ea966e93057671", "is_reserved": 0, "fusion_lon": 0.0, "lat": 38.89941366666667, "is_disabled": 0, "name": "ecd9f4e061f5382db6ea966e93057671", "fusion_lat": 0.0, "rental_uris": {"ios": "https://dc.lft.to/lastmile_qr_scan", "android": "https://dc.lft.to/lastmile_qr_scan"}, "lon": -77.03176066666667, "type": "electric_scooter"}, {"bike_id": "0938d337676f68a7d335ceba70e2b23b", "is_reserved": 0, "fusion_lon": 0.0, "lat": 38.91594716666667, "is_disabled": 0, "name": "0938d337676f68a7d335ceba70e2b23b", "fusion_lat": 0.0, "rental_uris": {"ios": "https://dc.lft.to/lastmile_qr_scan", "android": "https://dc.lft.to/lastmile_qr_scan"}, "lon": -77.04361566666667, "type": "electric_scooter"}, {"bike_id": "8b46915b120aff4007cc1475c5619e4c", "is_reserved": 0, "fusion_lon": 0.0, "lat": 38.898000333333336, "is_disabled": 0, "name": "8b46915b120aff4007cc1475c5619e4c", "fusion_lat": 0.0, "rental_uris": {"ios": "https://dc.lft.to/lastmile_qr_scan", "android": "https://dc.lft.to/lastmile_qr_scan"}, "lon": -76.99161866666667, "type": "electric_scooter"}, {"bike_id": "1707da868e4b6865560948325762d4aa", "is_reserved": 0, "fusion_lon": 0.0, "lat": 38.918458666666666, "is_disabled": 0, "name": "1707da868e4b6865560948325762d4aa", "fusion_lat": 0.0, "rental_uris": {"ios": "https://dc.lft.to/lastmile_qr_scan", "android": "https://dc.lft.to/lastmile_qr_scan"}, "lon": -77.03896883333333, "type": "electric_scooter"}, {"bike_id": "41f787bed53f0ea9d581689e1eeb9c8b", "is_reserved": 0, "fusion_lon": 0.0, "lat": 38.883314, "is_disabled": 0, "name": "41f787bed53f0ea9d581689e1eeb9c8b", "fusion_lat": 0.0, "rental_uris": {"ios": "https://dc.lft.to/lastmile_qr_scan", "android": "https://dc.lft.to/lastmile_qr_scan"}, "lon": -77.017438, "type": "electric_scooter"}, {"bike_id": "5c8fb3aa62c362246f9cd2829668b237", "is_reserved": 0, "fusion_lon": 0.0, "lat": 38.90545183333333, "is_disabled": 0, "name": "5c8fb3aa62c362246f9cd2829668b237", "fusion_lat": 0.0, "rental_uris": {"ios": "https://dc.lft.to/lastmile_qr_scan", "android": "https://dc.lft.to/lastmile_qr_scan"}, "lon": -77.0058255, "type": "electric_scooter"}, {"bike_id": "25185498882c494d02420bd91e08f608", "is_reserved": 0, "fusion_lon": 0.0, "lat": 38.8975635, "is_disabled": 0, "name": "25185498882c494d02420bd91e08f608", "fusion_lat": 0.0, "rental_uris": {"ios": "https://dc.lft.to/lastmile_qr_scan", "android": "https://dc.lft.to/lastmile_qr_scan"}, "lon": -77.02690616666666, "type": "electric_scooter"}, {"bike_id": "6b929481de1a72842ba886ab928085ab", "is_reserved": 0, "fusion_lon": 0.0, "lat": 38.95632883333333, "is_disabled": 0, "name": "6b929481de1a72842ba886ab928085ab", "fusion_lat": 0.0, "rental_uris": {"ios": "https://dc.lft.to/lastmile_qr_scan", "android": "https://dc.lft.to/lastmile_qr_scan"}, "lon": -76.93886733333333, "type": "electric_bike"}, {"bike_id": "18d4392b8df349eb521859034fd49844", "is_reserved": 0, "fusion_lon": 0.0, "lat": 38.934482, "is_disabled": 0, "name": "18d4392b8df349eb521859034fd49844", "fusion_lat": 0.0, "rental_uris": {"ios": "https://dc.lft.to/lastmile_qr_scan", "android": "https://dc.lft.to/lastmile_qr_scan"}, "lon": -77.0284265, "type": "electric_scooter"}, {"bike_id": "85ce1f2df2102b848a757709a0ca4f08", "is_reserved": 0, "fusion_lon": 0.0, "lat": 38.92471483333333, "is_disabled": 0, "name": "85ce1f2df2102b848a757709a0ca4f08", "fusion_lat": 0.0, "rental_uris": {"ios": "https://dc.lft.to/lastmile_qr_scan", "android": "https://dc.lft.to/lastmile_qr_scan"}, "lon": -77.03771333333333, "type": "electric_scooter"}, {"bike_id": "827baa419791184bba2643a2e47e8932", "is_reserved": 0, "fusion_lon": 0.0, "lat": 38.9223795, "is_disabled": 0, "name": "827baa419791184bba2643a2e47e8932", "fusion_lat": 0.0, "rental_uris": {"ios": "https://dc.lft.to/lastmile_qr_scan", "android": "https://dc.lft.to/lastmile_qr_scan"}, "lon": -77.03355533333334, "type": "electric_scooter"}, {"bike_id": "a52354c3004b89e5c55effe390bb866c", "is_reserved": 0, "fusion_lon": 0.0, "lat": 38.91873266666666, "is_disabled": 0, "name": "a52354c3004b89e5c55effe390bb866c", "fusion_lat": 0.0, "rental_uris": {"ios": "https://dc.lft.to/lastmile_qr_scan", "android": "https://dc.lft.to/lastmile_qr_scan"}, "lon": -77.043771, "type": "electric_scooter"}, {"bike_id": "85d2317556018761eb1421be7ebd9bcb", "is_reserved": 0, "fusion_lon": 0.0, "lat": 38.926896, "is_disabled": 0, "name": "85d2317556018761eb1421be7ebd9bcb", "fusion_lat": 0.0, "rental_uris": {"ios": "https://dc.lft.to/lastmile_qr_scan", "android": "https://dc.lft.to/lastmile_qr_scan"}, "lon": -77.09556883333333, "type": "electric_scooter"}, {"bike_id": "423225f1b0fb86e82be3ac0ab494abe5", "is_reserved": 0, "fusion_lon": 0.0, "lat": 38.879805166666664, "is_disabled": 0, "name": "423225f1b0fb86e82be3ac0ab494abe5", "fusion_lat": 0.0, "rental_uris": {"ios": "https://dc.lft.to/lastmile_qr_scan", "android": "https://dc.lft.to/lastmile_qr_scan"}, "lon": -76.91598466666667, "type": "electric_bike"}, {"bike_id": "2004d760ad82c2757c5379ad909b0a0f", "is_reserved": 0, "fusion_lon": 0.0, "lat": 38.9182725, "is_disabled": 0, "name": "2004d760ad82c2757c5379ad909b0a0f", "fusion_lat": 0.0, "rental_uris": {"ios": "https://dc.lft.to/lastmile_qr_scan", "android": "https://dc.lft.to/lastmile_qr_scan"}, "lon": -77.04176416666667, "type": "electric_scooter"}, {"bike_id": "1ef5534fa28e8c171a0ae1d018d3af09", "is_reserved": 0, "fusion_lon": 0.0, "lat": 38.915828833333336, "is_disabled": 0, "name": "1ef5534fa28e8c171a0ae1d018d3af09", "fusion_lat": 0.0, "rental_uris": {"ios": "https://dc.lft.to/lastmile_qr_scan", "android": "https://dc.lft.to/lastmile_qr_scan"}, "lon": -77.044764, "type": "electric_scooter"}, {"bike_id": "589e446b311dc5829a25ff68bb2ed311", "is_reserved": 0, "fusion_lon": 0.0, "lat": 38.909598, "is_disabled": 0, "name": "589e446b311dc5829a25ff68bb2ed311", "fusion_lat": 0.0, "rental_uris": {"ios": "https://dc.lft.to/lastmile_qr_scan", "android": "https://dc.lft.to/lastmile_qr_scan"}, "lon": -77.03165966666667, "type": "electric_scooter"}, {"bike_id": "098613f1691c9657534ec2569c3c4866", "is_reserved": 0, "fusion_lon": 0.0, "lat": 38.94065633333334, "is_disabled": 0, "name": "098613f1691c9657534ec2569c3c4866", "fusion_lat": 0.0, "rental_uris": {"ios": "https://dc.lft.to/lastmile_qr_scan", "android": "https://dc.lft.to/lastmile_qr_scan"}, "lon": -76.99464233333333, "type": "electric_scooter"}, {"bike_id": "7d20e70bfd82a155893ba16ef1337a36", "is_reserved": 0, "fusion_lon": 0.0, "lat": 38.91569766666667, "is_disabled": 0, "name": "7d20e70bfd82a155893ba16ef1337a36", "fusion_lat": 0.0, "rental_uris": {"ios": "https://dc.lft.to/lastmile_qr_scan", "android": "https://dc.lft.to/lastmile_qr_scan"}, "lon": -77.038551, "type": "electric_scooter"}, {"bike_id": "0406adac1db2cf3878dfd87ab528e289", "is_reserved": 0, "fusion_lon": 0.0, "lat": 38.905771333333334, "is_disabled": 0, "name": "0406adac1db2cf3878dfd87ab528e289", "fusion_lat": 0.0, "rental_uris": {"ios": "https://dc.lft.to/lastmile_qr_scan", "android": "https://dc.lft.to/lastmile_qr_scan"}, "lon": -77.02209383333333, "type": "electric_scooter"}, {"bike_id": "7e271fbf15d96335bdd2556571fb6ee1", "is_reserved": 0, "fusion_lon": 0.0, "lat": 38.93597233333333, "is_disabled": 0, "name": "7e271fbf15d96335bdd2556571fb6ee1", "fusion_lat": 0.0, "rental_uris": {"ios": "https://dc.lft.to/lastmile_qr_scan", "android": "https://dc.lft.to/lastmile_qr_scan"}, "lon": -77.05591466666667, "type": "electric_scooter"}, {"bike_id": "9cb218619a0459d463f1d1eef82dbf90", "is_reserved": 0, "fusion_lon": 0.0, "lat": 38.90016816666667, "is_disabled": 0, "name": "9cb218619a0459d463f1d1eef82dbf90", "fusion_lat": 0.0, "rental_uris": {"ios": "https://dc.lft.to/lastmile_qr_scan", "android": "https://dc.lft.to/lastmile_qr_scan"}, "lon": -77.01208133333333, "type": "electric_scooter"}, {"bike_id": "2c01f1d77dedce1985c242376c386d8a", "is_reserved": 0, "fusion_lon": 0.0, "lat": 38.90151133333333, "is_disabled": 0, "name": "2c01f1d77dedce1985c242376c386d8a", "fusion_lat": 0.0, "rental_uris": {"ios": "https://dc.lft.to/lastmile_qr_scan", "android": "https://dc.lft.to/lastmile_qr_scan"}, "lon": -76.93061716666666, "type": "electric_scooter"}, {"bike_id": "9ce9deb9fa781bd2985a79c240bea1e1", "is_reserved": 0, "fusion_lon": 0.0, "lat": 38.92336266666667, "is_disabled": 0, "name": "9ce9deb9fa781bd2985a79c240bea1e1", "fusion_lat": 0.0, "rental_uris": {"ios": "https://dc.lft.to/lastmile_qr_scan", "android": "https://dc.lft.to/lastmile_qr_scan"}, "lon": -77.03517033333334, "type": "electric_scooter"}, {"bike_id": "a87cdcbc35959a5243d7363621950b1d", "is_reserved": 0, "fusion_lon": 0.0, "lat": 38.90867516666667, "is_disabled": 0, "name": "a87cdcbc35959a5243d7363621950b1d", "fusion_lat": 0.0, "rental_uris": {"ios": "https://dc.lft.to/lastmile_qr_scan", "android": "https://dc.lft.to/lastmile_qr_scan"}, "lon": -77.032847, "type": "electric_scooter"}, {"bike_id": "66672c2a7c25b4db269bfe573685d7ff", "is_reserved": 0, "fusion_lon": 0.0, "lat": 38.863701, "is_disabled": 0, "name": "66672c2a7c25b4db269bfe573685d7ff", "fusion_lat": 0.0, "rental_uris": {"ios": "https://dc.lft.to/lastmile_qr_scan", "android": "https://dc.lft.to/lastmile_qr_scan"}, "lon": -77.01361033333333, "type": "electric_scooter"}, {"bike_id": "fce63da005aee85d98e7041e299c3167", "is_reserved": 0, "fusion_lon": 0.0, "lat": 38.905330166666666, "is_disabled": 0, "name": "fce63da005aee85d98e7041e299c3167", "fusion_lat": 0.0, "rental_uris": {"ios": "https://dc.lft.to/lastmile_qr_scan", "android": "https://dc.lft.to/lastmile_qr_scan"}, "lon": -77.0576145, "type": "electric_scooter"}, {"bike_id": "ea2fe60a189a28c978b0dfee4f1eed47", "is_reserved": 0, "fusion_lon": 0.0, "lat": 38.929644833333334, "is_disabled": 0, "name": "ea2fe60a189a28c978b0dfee4f1eed47", "fusion_lat": 0.0, "rental_uris": {"ios": "https://dc.lft.to/lastmile_qr_scan", "android": "https://dc.lft.to/lastmile_qr_scan"}, "lon": -77.01148016666667, "type": "electric_scooter"}, {"bike_id": "7d20f1514218d490d4e7430bd905d356", "is_reserved": 0, "fusion_lon": 0.0, "lat": 38.917954, "is_disabled": 0, "name": "7d20f1514218d490d4e7430bd905d356", "fusion_lat": 0.0, "rental_uris": {"ios": "https://dc.lft.to/lastmile_qr_scan", "android": "https://dc.lft.to/lastmile_qr_scan"}, "lon": -77.034325, "type": "electric_scooter"}, {"bike_id": "f2fd438eca64ac0604f8644f684384d3", "is_reserved": 0, "fusion_lon": 0.0, "lat": 38.845785166666666, "is_disabled": 0, "name": "f2fd438eca64ac0604f8644f684384d3", "fusion_lat": 0.0, "rental_uris": {"ios": "https://dc.lft.to/lastmile_qr_scan", "android": "https://dc.lft.to/lastmile_qr_scan"}, "lon": -77.09619083333334, "type": "electric_bike"}, {"bike_id": "4dd1a0e34e1b14190aef6d5c23d0692c", "is_reserved": 0, "fusion_lon": 0.0, "lat": 38.92743166666666, "is_disabled": 0, "name": "4dd1a0e34e1b14190aef6d5c23d0692c", "fusion_lat": 0.0, "rental_uris": {"ios": "https://dc.lft.to/lastmile_qr_scan", "android": "https://dc.lft.to/lastmile_qr_scan"}, "lon": -77.0363635, "type": "electric_bike"}, {"bike_id": "01af9341d8b8c5b91fff50b4564a6460", "is_reserved": 0, "fusion_lon": 0.0, "lat": 38.921635333333334, "is_disabled": 0, "name": "01af9341d8b8c5b91fff50b4564a6460", "fusion_lat": 0.0, "rental_uris": {"ios": "https://dc.lft.to/lastmile_qr_scan", "android": "https://dc.lft.to/lastmile_qr_scan"}, "lon": -77.04693916666666, "type": "electric_scooter"}, {"bike_id": "bf2510c08903440892076cb06e861e77", "is_reserved": 0, "fusion_lon": 0.0, "lat": 38.90812, "is_disabled": 0, "name": "bf2510c08903440892076cb06e861e77", "fusion_lat": 0.0, "rental_uris": {"ios": "https://dc.lft.to/lastmile_qr_scan", "android": "https://dc.lft.to/lastmile_qr_scan"}, "lon": -77.03466333333333, "type": "electric_scooter"}, {"bike_id": "96097eaba87e2ce222e24d6a14affbb1", "is_reserved": 0, "fusion_lon": 0.0, "lat": 38.900167, "is_disabled": 0, "name": "96097eaba87e2ce222e24d6a14affbb1", "fusion_lat": 0.0, "rental_uris": {"ios": "https://dc.lft.to/lastmile_qr_scan", "android": "https://dc.lft.to/lastmile_qr_scan"}, "lon": -76.9730945, "type": "electric_scooter"}, {"bike_id": "c1768038d5a639759faedad6d77f3919", "is_reserved": 0, "fusion_lon": 0.0, "lat": 38.899555666666664, "is_disabled": 0, "name": "c1768038d5a639759faedad6d77f3919", "fusion_lat": 0.0, "rental_uris": {"ios": "https://dc.lft.to/lastmile_qr_scan", "android": "https://dc.lft.to/lastmile_qr_scan"}, "lon": -77.003478, "type": "electric_scooter"}, {"bike_id": "8f08298175e07ad09498b34c8c6a8c9a", "is_reserved": 0, "fusion_lon": 0.0, "lat": 38.9050175, "is_disabled": 0, "name": "8f08298175e07ad09498b34c8c6a8c9a", "fusion_lat": 0.0, "rental_uris": {"ios": "https://dc.lft.to/lastmile_qr_scan", "android": "https://dc.lft.to/lastmile_qr_scan"}, "lon": -77.02958566666666, "type": "electric_scooter"}, {"bike_id": "2caad08113e0239dcf7c52e022938fa8", "is_reserved": 0, "fusion_lon": 0.0, "lat": 38.902243, "is_disabled": 0, "name": "2caad08113e0239dcf7c52e022938fa8", "fusion_lat": 0.0, "rental_uris": {"ios": "https://dc.lft.to/lastmile_qr_scan", "android": "https://dc.lft.to/lastmile_qr_scan"}, "lon": -77.06060433333333, "type": "electric_scooter"}, {"bike_id": "2760cc6b7be7cbd36d8dbe9ca11dfbad", "is_reserved": 0, "fusion_lon": 0.0, "lat": 38.92722, "is_disabled": 0, "name": "2760cc6b7be7cbd36d8dbe9ca11dfbad", "fusion_lat": 0.0, "rental_uris": {"ios": "https://dc.lft.to/lastmile_qr_scan", "android": "https://dc.lft.to/lastmile_qr_scan"}, "lon": -77.02273816666667, "type": "electric_scooter"}, {"bike_id": "4ffd5dd07c385ac53a36eabe2fa04d19", "is_reserved": 0, "fusion_lon": 0.0, "lat": 38.894945, "is_disabled": 0, "name": "4ffd5dd07c385ac53a36eabe2fa04d19", "fusion_lat": 0.0, "rental_uris": {"ios": "https://dc.lft.to/lastmile_qr_scan", "android": "https://dc.lft.to/lastmile_qr_scan"}, "lon": -77.02206766666667, "type": "electric_scooter"}, {"bike_id": "01c6c68c54ba6263b91ec79f54d9f362", "is_reserved": 0, "fusion_lon": 0.0, "lat": 38.912542333333334, "is_disabled": 0, "name": "01c6c68c54ba6263b91ec79f54d9f362", "fusion_lat": 0.0, "rental_uris": {"ios": "https://dc.lft.to/lastmile_qr_scan", "android": "https://dc.lft.to/lastmile_qr_scan"}, "lon": -77.02695616666666, "type": "electric_scooter"}, {"bike_id": "70ac6461d3fcd3f896d7d006d04b5e92", "is_reserved": 0, "fusion_lon": 0.0, "lat": 38.908474, "is_disabled": 0, "name": "70ac6461d3fcd3f896d7d006d04b5e92", "fusion_lat": 0.0, "rental_uris": {"ios": "https://dc.lft.to/lastmile_qr_scan", "android": "https://dc.lft.to/lastmile_qr_scan"}, "lon": -77.08526116666667, "type": "electric_scooter"}, {"bike_id": "a09523b16cfbc4d0a0a157013c573a49", "is_reserved": 0, "fusion_lon": 0.0, "lat": 38.920878, "is_disabled": 0, "name": "a09523b16cfbc4d0a0a157013c573a49", "fusion_lat": 0.0, "rental_uris": {"ios": "https://dc.lft.to/lastmile_qr_scan", "android": "https://dc.lft.to/lastmile_qr_scan"}, "lon": -77.02542, "type": "electric_scooter"}, {"bike_id": "c17e036048441be6a4db9b0164587569", "is_reserved": 0, "fusion_lon": 0.0, "lat": 38.903709166666665, "is_disabled": 0, "name": "c17e036048441be6a4db9b0164587569", "fusion_lat": 0.0, "rental_uris": {"ios": "https://dc.lft.to/lastmile_qr_scan", "android": "https://dc.lft.to/lastmile_qr_scan"}, "lon": -77.04357916666666, "type": "electric_scooter"}, {"bike_id": "314299bb3129f5090796b6287f6c2c35", "is_reserved": 0, "fusion_lon": 0.0, "lat": 38.87998283333334, "is_disabled": 0, "name": "314299bb3129f5090796b6287f6c2c35", "fusion_lat": 0.0, "rental_uris": {"ios": "https://dc.lft.to/lastmile_qr_scan", "android": "https://dc.lft.to/lastmile_qr_scan"}, "lon": -76.99495083333333, "type": "electric_scooter"}, {"bike_id": "2e9d5d7552bbeaccd26b023aeedf55ff", "is_reserved": 0, "fusion_lon": 0.0, "lat": 38.866313833333336, "is_disabled": 0, "name": "2e9d5d7552bbeaccd26b023aeedf55ff", "fusion_lat": 0.0, "rental_uris": {"ios": "https://dc.lft.to/lastmile_qr_scan", "android": "https://dc.lft.to/lastmile_qr_scan"}, "lon": -76.98718516666666, "type": "electric_scooter"}, {"bike_id": "bfd1ef737ae519056156b3674fb83b83", "is_reserved": 0, "fusion_lon": 0.0, "lat": 38.9288605, "is_disabled": 0, "name": "bfd1ef737ae519056156b3674fb83b83", "fusion_lat": 0.0, "rental_uris": {"ios": "https://dc.lft.to/lastmile_qr_scan", "android": "https://dc.lft.to/lastmile_qr_scan"}, "lon": -77.0545665, "type": "electric_scooter"}, {"bike_id": "ad705a8b35f3ea7ebfa29d42fb021f6e", "is_reserved": 0, "fusion_lon": 0.0, "lat": 39.052092, "is_disabled": 0, "name": "ad705a8b35f3ea7ebfa29d42fb021f6e", "fusion_lat": 0.0, "rental_uris": {"ios": "https://dc.lft.to/lastmile_qr_scan", "android": "https://dc.lft.to/lastmile_qr_scan"}, "lon": -77.10912833333333, "type": "electric_bike"}, {"bike_id": "4d4ba4941ce6af10887b4037a191d9f1", "is_reserved": 0, "fusion_lon": 0.0, "lat": 38.90568066666667, "is_disabled": 0, "name": "4d4ba4941ce6af10887b4037a191d9f1", "fusion_lat": 0.0, "rental_uris": {"ios": "https://dc.lft.to/lastmile_qr_scan", "android": "https://dc.lft.to/lastmile_qr_scan"}, "lon": -77.00587333333333, "type": "electric_scooter"}, {"bike_id": "331620f069584b17de992b2052e36db6", "is_reserved": 0, "fusion_lon": 0.0, "lat": 38.8962375, "is_disabled": 0, "name": "331620f069584b17de992b2052e36db6", "fusion_lat": 0.0, "rental_uris": {"ios": "https://dc.lft.to/lastmile_qr_scan", "android": "https://dc.lft.to/lastmile_qr_scan"}, "lon": -77.00919266666666, "type": "electric_scooter"}, {"bike_id": "ee5f1d0f5efd755c94960877dd9e9364", "is_reserved": 0, "fusion_lon": 0.0, "lat": 38.8821245, "is_disabled": 0, "name": "ee5f1d0f5efd755c94960877dd9e9364", "fusion_lat": 0.0, "rental_uris": {"ios": "https://dc.lft.to/lastmile_qr_scan", "android": "https://dc.lft.to/lastmile_qr_scan"}, "lon": -76.92698966666667, "type": "electric_scooter"}, {"bike_id": "904ee5302996540e78d27bf90468b7e6", "is_reserved": 0, "fusion_lon": 0.0, "lat": 38.90138283333334, "is_disabled": 0, "name": "904ee5302996540e78d27bf90468b7e6", "fusion_lat": 0.0, "rental_uris": {"ios": "https://dc.lft.to/lastmile_qr_scan", "android": "https://dc.lft.to/lastmile_qr_scan"}, "lon": -77.04240066666667, "type": "electric_scooter"}, {"bike_id": "6c06d21ff43ce5188b00a0c399748e81", "is_reserved": 0, "fusion_lon": 0.0, "lat": 38.920267333333335, "is_disabled": 0, "name": "6c06d21ff43ce5188b00a0c399748e81", "fusion_lat": 0.0, "rental_uris": {"ios": "https://dc.lft.to/lastmile_qr_scan", "android": "https://dc.lft.to/lastmile_qr_scan"}, "lon": -77.03866333333333, "type": "electric_scooter"}, {"bike_id": "2a738a7fdf75a5cca1b79103414fc717", "is_reserved": 0, "fusion_lon": 0.0, "lat": 38.9068175, "is_disabled": 0, "name": "2a738a7fdf75a5cca1b79103414fc717", "fusion_lat": 0.0, "rental_uris": {"ios": "https://dc.lft.to/lastmile_qr_scan", "android": "https://dc.lft.to/lastmile_qr_scan"}, "lon": -77.07538966666667, "type": "electric_scooter"}, {"bike_id": "26973b6e8bf72d767c3e543fa02539b2", "is_reserved": 0, "fusion_lon": 0.0, "lat": 38.91549083333334, "is_disabled": 0, "name": "26973b6e8bf72d767c3e543fa02539b2", "fusion_lat": 0.0, "rental_uris": {"ios": "https://dc.lft.to/lastmile_qr_scan", "android": "https://dc.lft.to/lastmile_qr_scan"}, "lon": -77.0393695, "type": "electric_scooter"}, {"bike_id": "fa9d6b9cc38890ff718eeb1d4ba777e1", "is_reserved": 0, "fusion_lon": 0.0, "lat": 38.91464333333333, "is_disabled": 0, "name": "fa9d6b9cc38890ff718eeb1d4ba777e1", "fusion_lat": 0.0, "rental_uris": {"ios": "https://dc.lft.to/lastmile_qr_scan", "android": "https://dc.lft.to/lastmile_qr_scan"}, "lon": -77.0319545, "type": "electric_scooter"}, {"bike_id": "ef2eeb9684e7feb76f38885012f31a72", "is_reserved": 0, "fusion_lon": 0.0, "lat": 38.92214383333334, "is_disabled": 0, "name": "ef2eeb9684e7feb76f38885012f31a72", "fusion_lat": 0.0, "rental_uris": {"ios": "https://dc.lft.to/lastmile_qr_scan", "android": "https://dc.lft.to/lastmile_qr_scan"}, "lon": -77.03661633333333, "type": "electric_scooter"}, {"bike_id": "35759610e0d0e24051faa83dfedb7e0e", "is_reserved": 0, "fusion_lon": 0.0, "lat": 38.925135166666664, "is_disabled": 0, "name": "35759610e0d0e24051faa83dfedb7e0e", "fusion_lat": 0.0, "rental_uris": {"ios": "https://dc.lft.to/lastmile_qr_scan", "android": "https://dc.lft.to/lastmile_qr_scan"}, "lon": -77.00172366666666, "type": "electric_scooter"}, {"bike_id": "371f61f17f0aacff0ef0dcbddc56c5d4", "is_reserved": 0, "fusion_lon": 0.0, "lat": 38.89227966666667, "is_disabled": 0, "name": "371f61f17f0aacff0ef0dcbddc56c5d4", "fusion_lat": 0.0, "rental_uris": {"ios": "https://dc.lft.to/lastmile_qr_scan", "android": "https://dc.lft.to/lastmile_qr_scan"}, "lon": -77.04332983333333, "type": "electric_scooter"}, {"bike_id": "c5f48903327394a4c56f70b1ddaa7c26", "is_reserved": 0, "fusion_lon": 0.0, "lat": 38.93430133333333, "is_disabled": 0, "name": "c5f48903327394a4c56f70b1ddaa7c26", "fusion_lat": 0.0, "rental_uris": {"ios": "https://dc.lft.to/lastmile_qr_scan", "android": "https://dc.lft.to/lastmile_qr_scan"}, "lon": -77.04316266666666, "type": "electric_scooter"}, {"bike_id": "27f3f98e5b512faeb4848dcba0d4ebe2", "is_reserved": 0, "fusion_lon": 0.0, "lat": 38.93331583333333, "is_disabled": 0, "name": "27f3f98e5b512faeb4848dcba0d4ebe2", "fusion_lat": 0.0, "rental_uris": {"ios": "https://dc.lft.to/lastmile_qr_scan", "android": "https://dc.lft.to/lastmile_qr_scan"}, "lon": -77.03273566666667, "type": "electric_scooter"}, {"bike_id": "a42baf71b5b4e26283ed732f3fbee6e4", "is_reserved": 0, "fusion_lon": 0.0, "lat": 38.91550083333333, "is_disabled": 0, "name": "a42baf71b5b4e26283ed732f3fbee6e4", "fusion_lat": 0.0, "rental_uris": {"ios": "https://dc.lft.to/lastmile_qr_scan", "android": "https://dc.lft.to/lastmile_qr_scan"}, "lon": -77.03853066666667, "type": "electric_scooter"}, {"bike_id": "73f6ab98180e53850a5e20b934143463", "is_reserved": 0, "fusion_lon": 0.0, "lat": 38.918769, "is_disabled": 0, "name": "73f6ab98180e53850a5e20b934143463", "fusion_lat": 0.0, "rental_uris": {"ios": "https://dc.lft.to/lastmile_qr_scan", "android": "https://dc.lft.to/lastmile_qr_scan"}, "lon": -76.97148183333333, "type": "electric_scooter"}, {"bike_id": "13acc404664e7acf9b720974d6f87bab", "is_reserved": 0, "fusion_lon": 0.0, "lat": 38.894914166666666, "is_disabled": 0, "name": "13acc404664e7acf9b720974d6f87bab", "fusion_lat": 0.0, "rental_uris": {"ios": "https://dc.lft.to/lastmile_qr_scan", "android": "https://dc.lft.to/lastmile_qr_scan"}, "lon": -77.022131, "type": "electric_scooter"}, {"bike_id": "13dd77181a75e2949bbeffdd1c9fc50d", "is_reserved": 0, "fusion_lon": 0.0, "lat": 38.91493716666667, "is_disabled": 0, "name": "13dd77181a75e2949bbeffdd1c9fc50d", "fusion_lat": 0.0, "rental_uris": {"ios": "https://dc.lft.to/lastmile_qr_scan", "android": "https://dc.lft.to/lastmile_qr_scan"}, "lon": -77.02695166666666, "type": "electric_scooter"}, {"bike_id": "e964203aee1f83bbaa519c7f6a27ced0", "is_reserved": 0, "fusion_lon": 0.0, "lat": 38.89916983333333, "is_disabled": 0, "name": "e964203aee1f83bbaa519c7f6a27ced0", "fusion_lat": 0.0, "rental_uris": {"ios": "https://dc.lft.to/lastmile_qr_scan", "android": "https://dc.lft.to/lastmile_qr_scan"}, "lon": -77.05440466666667, "type": "electric_scooter"}, {"bike_id": "7b39ecc6ca1113811a17541cd056fe96", "is_reserved": 0, "fusion_lon": 0.0, "lat": 38.949274, "is_disabled": 0, "name": "7b39ecc6ca1113811a17541cd056fe96", "fusion_lat": 0.0, "rental_uris": {"ios": "https://dc.lft.to/lastmile_qr_scan", "android": "https://dc.lft.to/lastmile_qr_scan"}, "lon": -77.019301, "type": "electric_scooter"}, {"bike_id": "cad8b8adf16b0be49ede0d353d6c1d9a", "is_reserved": 0, "fusion_lon": 0.0, "lat": 38.946144333333336, "is_disabled": 0, "name": "cad8b8adf16b0be49ede0d353d6c1d9a", "fusion_lat": 0.0, "rental_uris": {"ios": "https://dc.lft.to/lastmile_qr_scan", "android": "https://dc.lft.to/lastmile_qr_scan"}, "lon": -77.0351275, "type": "electric_scooter"}, {"bike_id": "6101af53299289dad58ab59e82c7d03f", "is_reserved": 0, "fusion_lon": 0.0, "lat": 38.94326266666667, "is_disabled": 0, "name": "6101af53299289dad58ab59e82c7d03f", "fusion_lat": 0.0, "rental_uris": {"ios": "https://dc.lft.to/lastmile_qr_scan", "android": "https://dc.lft.to/lastmile_qr_scan"}, "lon": -77.07388416666667, "type": "electric_scooter"}, {"bike_id": "9a2e4f490b8d044da6f593e28716879a", "is_reserved": 0, "fusion_lon": 0.0, "lat": 38.9098085, "is_disabled": 0, "name": "9a2e4f490b8d044da6f593e28716879a", "fusion_lat": 0.0, "rental_uris": {"ios": "https://dc.lft.to/lastmile_qr_scan", "android": "https://dc.lft.to/lastmile_qr_scan"}, "lon": -77.067118, "type": "electric_scooter"}, {"bike_id": "739309fcea67de319d3e82601dcef317", "is_reserved": 0, "fusion_lon": 0.0, "lat": 38.883381666666665, "is_disabled": 0, "name": "739309fcea67de319d3e82601dcef317", "fusion_lat": 0.0, "rental_uris": {"ios": "https://dc.lft.to/lastmile_qr_scan", "android": "https://dc.lft.to/lastmile_qr_scan"}, "lon": -77.01775266666667, "type": "electric_scooter"}, {"bike_id": "35b005d8c8ddeae504b0571052f62345", "is_reserved": 0, "fusion_lon": 0.0, "lat": 38.931173, "is_disabled": 0, "name": "35b005d8c8ddeae504b0571052f62345", "fusion_lat": 0.0, "rental_uris": {"ios": "https://dc.lft.to/lastmile_qr_scan", "android": "https://dc.lft.to/lastmile_qr_scan"}, "lon": -77.02098666666667, "type": "electric_scooter"}, {"bike_id": "396a246cf73eecde5ba7d228c9bc73f2", "is_reserved": 0, "fusion_lon": 0.0, "lat": 38.909029833333335, "is_disabled": 0, "name": "396a246cf73eecde5ba7d228c9bc73f2", "fusion_lat": 0.0, "rental_uris": {"ios": "https://dc.lft.to/lastmile_qr_scan", "android": "https://dc.lft.to/lastmile_qr_scan"}, "lon": -77.02684866666667, "type": "electric_scooter"}, {"bike_id": "5461b22fd52a454336360a07d7138205", "is_reserved": 0, "fusion_lon": 0.0, "lat": 38.9056275, "is_disabled": 0, "name": "5461b22fd52a454336360a07d7138205", "fusion_lat": 0.0, "rental_uris": {"ios": "https://dc.lft.to/lastmile_qr_scan", "android": "https://dc.lft.to/lastmile_qr_scan"}, "lon": -77.024748, "type": "electric_scooter"}, {"bike_id": "1e9ea927437d31b09a1a48535dbb8341", "is_reserved": 0, "fusion_lon": 0.0, "lat": 38.912828, "is_disabled": 0, "name": "1e9ea927437d31b09a1a48535dbb8341", "fusion_lat": 0.0, "rental_uris": {"ios": "https://dc.lft.to/lastmile_qr_scan", "android": "https://dc.lft.to/lastmile_qr_scan"}, "lon": -77.022994, "type": "electric_scooter"}, {"bike_id": "bca5b61b7392d37ccce3d447315b3e26", "is_reserved": 0, "fusion_lon": 0.0, "lat": 38.915661666666665, "is_disabled": 0, "name": "bca5b61b7392d37ccce3d447315b3e26", "fusion_lat": 0.0, "rental_uris": {"ios": "https://dc.lft.to/lastmile_qr_scan", "android": "https://dc.lft.to/lastmile_qr_scan"}, "lon": -77.02128033333334, "type": "electric_scooter"}, {"bike_id": "765a49a7456e387ae06c8dd4786a24eb", "is_reserved": 0, "fusion_lon": 0.0, "lat": 38.905198166666665, "is_disabled": 0, "name": "765a49a7456e387ae06c8dd4786a24eb", "fusion_lat": 0.0, "rental_uris": {"ios": "https://dc.lft.to/lastmile_qr_scan", "android": "https://dc.lft.to/lastmile_qr_scan"}, "lon": -77.02690266666667, "type": "electric_scooter"}, {"bike_id": "1fd048d10476d1cec9cb8ff6c4ebf5a1", "is_reserved": 0, "fusion_lon": 0.0, "lat": 38.903406333333336, "is_disabled": 0, "name": "1fd048d10476d1cec9cb8ff6c4ebf5a1", "fusion_lat": 0.0, "rental_uris": {"ios": "https://dc.lft.to/lastmile_qr_scan", "android": "https://dc.lft.to/lastmile_qr_scan"}, "lon": -77.0382025, "type": "electric_scooter"}, {"bike_id": "c7f9f5284660bcd73958e12511954471", "is_reserved": 0, "fusion_lon": 0.0, "lat": 38.95926866666667, "is_disabled": 0, "name": "c7f9f5284660bcd73958e12511954471", "fusion_lat": 0.0, "rental_uris": {"ios": "https://dc.lft.to/lastmile_qr_scan", "android": "https://dc.lft.to/lastmile_qr_scan"}, "lon": -77.03324466666666, "type": "electric_scooter"}, {"bike_id": "fce8c4655dc9cf772cb3f04ebfa515c6", "is_reserved": 0, "fusion_lon": 0.0, "lat": 38.939897, "is_disabled": 0, "name": "fce8c4655dc9cf772cb3f04ebfa515c6", "fusion_lat": 0.0, "rental_uris": {"ios": "https://dc.lft.to/lastmile_qr_scan", "android": "https://dc.lft.to/lastmile_qr_scan"}, "lon": -77.02507316666667, "type": "electric_bike"}, {"bike_id": "832823280433ed2707c29cb73bf2eb38", "is_reserved": 0, "fusion_lon": 0.0, "lat": 38.908108, "is_disabled": 0, "name": "832823280433ed2707c29cb73bf2eb38", "fusion_lat": 0.0, "rental_uris": {"ios": "https://dc.lft.to/lastmile_qr_scan", "android": "https://dc.lft.to/lastmile_qr_scan"}, "lon": -77.03439683333333, "type": "electric_scooter"}, {"bike_id": "cd956e380034ad7fb87bfcc86deb23cf", "is_reserved": 0, "fusion_lon": 0.0, "lat": 38.865617666666665, "is_disabled": 0, "name": "cd956e380034ad7fb87bfcc86deb23cf", "fusion_lat": 0.0, "rental_uris": {"ios": "https://dc.lft.to/lastmile_qr_scan", "android": "https://dc.lft.to/lastmile_qr_scan"}, "lon": -76.9894895, "type": "electric_scooter"}, {"bike_id": "89d2510f7e1788ded87e60274716ce0f", "is_reserved": 0, "fusion_lon": 0.0, "lat": 38.89814033333333, "is_disabled": 0, "name": "89d2510f7e1788ded87e60274716ce0f", "fusion_lat": 0.0, "rental_uris": {"ios": "https://dc.lft.to/lastmile_qr_scan", "android": "https://dc.lft.to/lastmile_qr_scan"}, "lon": -77.032758, "type": "electric_scooter"}, {"bike_id": "0b775c4d69cc29c55b1e32f083b265b4", "is_reserved": 0, "fusion_lon": 0.0, "lat": 38.9012165, "is_disabled": 0, "name": "0b775c4d69cc29c55b1e32f083b265b4", "fusion_lat": 0.0, "rental_uris": {"ios": "https://dc.lft.to/lastmile_qr_scan", "android": "https://dc.lft.to/lastmile_qr_scan"}, "lon": -77.0435665, "type": "electric_scooter"}, {"bike_id": "b7f72bc754113a047c2fa2f16e258bbd", "is_reserved": 0, "fusion_lon": 0.0, "lat": 38.92211983333333, "is_disabled": 0, "name": "b7f72bc754113a047c2fa2f16e258bbd", "fusion_lat": 0.0, "rental_uris": {"ios": "https://dc.lft.to/lastmile_qr_scan", "android": "https://dc.lft.to/lastmile_qr_scan"}, "lon": -77.0366, "type": "electric_scooter"}, {"bike_id": "8c26c938a6cd03e790e27bf8877114d5", "is_reserved": 0, "fusion_lon": 0.0, "lat": 38.919787, "is_disabled": 0, "name": "8c26c938a6cd03e790e27bf8877114d5", "fusion_lat": 0.0, "rental_uris": {"ios": "https://dc.lft.to/lastmile_qr_scan", "android": "https://dc.lft.to/lastmile_qr_scan"}, "lon": -77.02390466666667, "type": "electric_scooter"}, {"bike_id": "1c866c7871a889691bdcd4ee63ecc086", "is_reserved": 0, "fusion_lon": 0.0, "lat": 38.9299095, "is_disabled": 0, "name": "1c866c7871a889691bdcd4ee63ecc086", "fusion_lat": 0.0, "rental_uris": {"ios": "https://dc.lft.to/lastmile_qr_scan", "android": "https://dc.lft.to/lastmile_qr_scan"}, "lon": -77.079435, "type": "electric_scooter"}, {"bike_id": "b54a62d770b58be560f81503605e4ddb", "is_reserved": 0, "fusion_lon": 0.0, "lat": 38.92167933333333, "is_disabled": 0, "name": "b54a62d770b58be560f81503605e4ddb", "fusion_lat": 0.0, "rental_uris": {"ios": "https://dc.lft.to/lastmile_qr_scan", "android": "https://dc.lft.to/lastmile_qr_scan"}, "lon": -76.99391233333333, "type": "electric_scooter"}, {"bike_id": "f0a278d1c0f5759295f11b7167caace5", "is_reserved": 0, "fusion_lon": 0.0, "lat": 38.924125333333336, "is_disabled": 0, "name": "f0a278d1c0f5759295f11b7167caace5", "fusion_lat": 0.0, "rental_uris": {"ios": "https://dc.lft.to/lastmile_qr_scan", "android": "https://dc.lft.to/lastmile_qr_scan"}, "lon": -77.04068283333334, "type": "electric_bike"}, {"bike_id": "8d7810c833a13b857b398195ca86d333", "is_reserved": 0, "fusion_lon": 0.0, "lat": 38.87137233333333, "is_disabled": 0, "name": "8d7810c833a13b857b398195ca86d333", "fusion_lat": 0.0, "rental_uris": {"ios": "https://dc.lft.to/lastmile_qr_scan", "android": "https://dc.lft.to/lastmile_qr_scan"}, "lon": -76.937308, "type": "electric_bike"}, {"bike_id": "91dc134a81f6db9734bd804724c4b2c2", "is_reserved": 0, "fusion_lon": 0.0, "lat": 38.864566833333335, "is_disabled": 0, "name": "91dc134a81f6db9734bd804724c4b2c2", "fusion_lat": 0.0, "rental_uris": {"ios": "https://dc.lft.to/lastmile_qr_scan", "android": "https://dc.lft.to/lastmile_qr_scan"}, "lon": -76.9455015, "type": "electric_bike"}, {"bike_id": "160deafa7a1c8400bee3aa09b9187b81", "is_reserved": 0, "fusion_lon": 0.0, "lat": 38.936756833333334, "is_disabled": 0, "name": "160deafa7a1c8400bee3aa09b9187b81", "fusion_lat": 0.0, "rental_uris": {"ios": "https://dc.lft.to/lastmile_qr_scan", "android": "https://dc.lft.to/lastmile_qr_scan"}, "lon": -77.03593016666666, "type": "electric_scooter"}, {"bike_id": "3c235d891f6c1a2d8e22a0450f52dc95", "is_reserved": 0, "fusion_lon": 0.0, "lat": 38.924851333333336, "is_disabled": 0, "name": "3c235d891f6c1a2d8e22a0450f52dc95", "fusion_lat": 0.0, "rental_uris": {"ios": "https://dc.lft.to/lastmile_qr_scan", "android": "https://dc.lft.to/lastmile_qr_scan"}, "lon": -77.02715766666667, "type": "electric_scooter"}, {"bike_id": "903bb222cc1ddcbe4b0ed12404c36a80", "is_reserved": 0, "fusion_lon": 0.0, "lat": 38.9210795, "is_disabled": 0, "name": "903bb222cc1ddcbe4b0ed12404c36a80", "fusion_lat": 0.0, "rental_uris": {"ios": "https://dc.lft.to/lastmile_qr_scan", "android": "https://dc.lft.to/lastmile_qr_scan"}, "lon": -77.04367983333333, "type": "electric_scooter"}, {"bike_id": "226b139550e985c7e6aba4fd6dd8d4a1", "is_reserved": 0, "fusion_lon": 0.0, "lat": 38.921603833333336, "is_disabled": 0, "name": "226b139550e985c7e6aba4fd6dd8d4a1", "fusion_lat": 0.0, "rental_uris": {"ios": "https://dc.lft.to/lastmile_qr_scan", "android": "https://dc.lft.to/lastmile_qr_scan"}, "lon": -77.01804366666667, "type": "electric_scooter"}, {"bike_id": "930419877c12b248270458a219c7e61b", "is_reserved": 0, "fusion_lon": 0.0, "lat": 38.838096166666666, "is_disabled": 0, "name": "930419877c12b248270458a219c7e61b", "fusion_lat": 0.0, "rental_uris": {"ios": "https://dc.lft.to/lastmile_qr_scan", "android": "https://dc.lft.to/lastmile_qr_scan"}, "lon": -76.99841466666666, "type": "electric_bike"}, {"bike_id": "9a8e2715e7204668b4410b13fb15f613", "is_reserved": 0, "fusion_lon": 0.0, "lat": 38.9132475, "is_disabled": 0, "name": "9a8e2715e7204668b4410b13fb15f613", "fusion_lat": 0.0, "rental_uris": {"ios": "https://dc.lft.to/lastmile_qr_scan", "android": "https://dc.lft.to/lastmile_qr_scan"}, "lon": -77.01509216666666, "type": "electric_scooter"}, {"bike_id": "77def1abe1a007717002ef9983babcb3", "is_reserved": 0, "fusion_lon": 0.0, "lat": 38.933401833333335, "is_disabled": 0, "name": "77def1abe1a007717002ef9983babcb3", "fusion_lat": 0.0, "rental_uris": {"ios": "https://dc.lft.to/lastmile_qr_scan", "android": "https://dc.lft.to/lastmile_qr_scan"}, "lon": -77.03285533333333, "type": "electric_scooter"}, {"bike_id": "3d9ec75610a28a24e524be63ada7888e", "is_reserved": 0, "fusion_lon": 0.0, "lat": 39.015956333333335, "is_disabled": 0, "name": "3d9ec75610a28a24e524be63ada7888e", "fusion_lat": 0.0, "rental_uris": {"ios": "https://dc.lft.to/lastmile_qr_scan", "android": "https://dc.lft.to/lastmile_qr_scan"}, "lon": -77.04428883333334, "type": "electric_bike"}, {"bike_id": "c5b2c850e48409f4b4583d8bce2640da", "is_reserved": 0, "fusion_lon": 0.0, "lat": 38.938950166666665, "is_disabled": 0, "name": "c5b2c850e48409f4b4583d8bce2640da", "fusion_lat": 0.0, "rental_uris": {"ios": "https://dc.lft.to/lastmile_qr_scan", "android": "https://dc.lft.to/lastmile_qr_scan"}, "lon": -77.02975483333333, "type": "electric_scooter"}, {"bike_id": "4d519a1f7e87100023c2f41289d0b1b3", "is_reserved": 0, "fusion_lon": 0.0, "lat": 38.905382, "is_disabled": 0, "name": "4d519a1f7e87100023c2f41289d0b1b3", "fusion_lat": 0.0, "rental_uris": {"ios": "https://dc.lft.to/lastmile_qr_scan", "android": "https://dc.lft.to/lastmile_qr_scan"}, "lon": -77.00212716666667, "type": "electric_bike"}, {"bike_id": "9ad8a7bd02e006612bae4b296f7c981c", "is_reserved": 0, "fusion_lon": 0.0, "lat": 38.922417833333334, "is_disabled": 0, "name": "9ad8a7bd02e006612bae4b296f7c981c", "fusion_lat": 0.0, "rental_uris": {"ios": "https://dc.lft.to/lastmile_qr_scan", "android": "https://dc.lft.to/lastmile_qr_scan"}, "lon": -77.030726, "type": "electric_scooter"}, {"bike_id": "973ce02c528f46c7175e22554d275d46", "is_reserved": 0, "fusion_lon": 0.0, "lat": 38.92262316666667, "is_disabled": 0, "name": "973ce02c528f46c7175e22554d275d46", "fusion_lat": 0.0, "rental_uris": {"ios": "https://dc.lft.to/lastmile_qr_scan", "android": "https://dc.lft.to/lastmile_qr_scan"}, "lon": -77.04211416666666, "type": "electric_scooter"}, {"bike_id": "416754e9bdbf6fcc76872b7aac7d1154", "is_reserved": 0, "fusion_lon": 0.0, "lat": 38.9015985, "is_disabled": 0, "name": "416754e9bdbf6fcc76872b7aac7d1154", "fusion_lat": 0.0, "rental_uris": {"ios": "https://dc.lft.to/lastmile_qr_scan", "android": "https://dc.lft.to/lastmile_qr_scan"}, "lon": -76.975069, "type": "electric_scooter"}, {"bike_id": "c4486e71282f125d70bc76d480631faf", "is_reserved": 0, "fusion_lon": 0.0, "lat": 38.900882833333334, "is_disabled": 0, "name": "c4486e71282f125d70bc76d480631faf", "fusion_lat": 0.0, "rental_uris": {"ios": "https://dc.lft.to/lastmile_qr_scan", "android": "https://dc.lft.to/lastmile_qr_scan"}, "lon": -77.04781683333333, "type": "electric_scooter"}, {"bike_id": "5c5786095013114cde9ba7776f828ffd", "is_reserved": 0, "fusion_lon": 0.0, "lat": 38.902992166666664, "is_disabled": 0, "name": "5c5786095013114cde9ba7776f828ffd", "fusion_lat": 0.0, "rental_uris": {"ios": "https://dc.lft.to/lastmile_qr_scan", "android": "https://dc.lft.to/lastmile_qr_scan"}, "lon": -76.94438683333334, "type": "electric_bike"}, {"bike_id": "0dea946231fba52d40cbe92bea949881", "is_reserved": 0, "fusion_lon": 0.0, "lat": 38.90356716666667, "is_disabled": 0, "name": "0dea946231fba52d40cbe92bea949881", "fusion_lat": 0.0, "rental_uris": {"ios": "https://dc.lft.to/lastmile_qr_scan", "android": "https://dc.lft.to/lastmile_qr_scan"}, "lon": -77.0386235, "type": "electric_scooter"}, {"bike_id": "9b1d641f968afb06cc34986278f24001", "is_reserved": 0, "fusion_lon": 0.0, "lat": 38.8133545, "is_disabled": 0, "name": "9b1d641f968afb06cc34986278f24001", "fusion_lat": 0.0, "rental_uris": {"ios": "https://dc.lft.to/lastmile_qr_scan", "android": "https://dc.lft.to/lastmile_qr_scan"}, "lon": -77.05104733333333, "type": "electric_bike"}, {"bike_id": "237ba84d39d1862613c82227fcd71b3e", "is_reserved": 0, "fusion_lon": 0.0, "lat": 38.886368833333336, "is_disabled": 0, "name": "237ba84d39d1862613c82227fcd71b3e", "fusion_lat": 0.0, "rental_uris": {"ios": "https://dc.lft.to/lastmile_qr_scan", "android": "https://dc.lft.to/lastmile_qr_scan"}, "lon": -77.0213305, "type": "electric_scooter"}, {"bike_id": "9379cb7016dcef54972988dae30bf149", "is_reserved": 0, "fusion_lon": 0.0, "lat": 38.9067735, "is_disabled": 0, "name": "9379cb7016dcef54972988dae30bf149", "fusion_lat": 0.0, "rental_uris": {"ios": "https://dc.lft.to/lastmile_qr_scan", "android": "https://dc.lft.to/lastmile_qr_scan"}, "lon": -77.00061183333334, "type": "electric_scooter"}, {"bike_id": "fda4a5af0d746c01b8c53b291895f47b", "is_reserved": 0, "fusion_lon": 0.0, "lat": 38.903839, "is_disabled": 0, "name": "fda4a5af0d746c01b8c53b291895f47b", "fusion_lat": 0.0, "rental_uris": {"ios": "https://dc.lft.to/lastmile_qr_scan", "android": "https://dc.lft.to/lastmile_qr_scan"}, "lon": -76.99834083333333, "type": "electric_scooter"}, {"bike_id": "455a0efcba1416e52d469147fd9b8acd", "is_reserved": 0, "fusion_lon": 0.0, "lat": 38.924598333333336, "is_disabled": 0, "name": "455a0efcba1416e52d469147fd9b8acd", "fusion_lat": 0.0, "rental_uris": {"ios": "https://dc.lft.to/lastmile_qr_scan", "android": "https://dc.lft.to/lastmile_qr_scan"}, "lon": -76.9990815, "type": "electric_scooter"}, {"bike_id": "ead24d06af203c4352bd3ac772b60af3", "is_reserved": 0, "fusion_lon": 0.0, "lat": 38.933496, "is_disabled": 0, "name": "ead24d06af203c4352bd3ac772b60af3", "fusion_lat": 0.0, "rental_uris": {"ios": "https://dc.lft.to/lastmile_qr_scan", "android": "https://dc.lft.to/lastmile_qr_scan"}, "lon": -77.06938116666667, "type": "electric_scooter"}, {"bike_id": "6bb4352c1a37f0d92ac81af08248ae81", "is_reserved": 0, "fusion_lon": 0.0, "lat": 38.911256, "is_disabled": 0, "name": "6bb4352c1a37f0d92ac81af08248ae81", "fusion_lat": 0.0, "rental_uris": {"ios": "https://dc.lft.to/lastmile_qr_scan", "android": "https://dc.lft.to/lastmile_qr_scan"}, "lon": -77.02187633333334, "type": "electric_scooter"}, {"bike_id": "d1faf18a2465e1d16f15160b0360e4d9", "is_reserved": 0, "fusion_lon": 0.0, "lat": 38.909774666666664, "is_disabled": 0, "name": "d1faf18a2465e1d16f15160b0360e4d9", "fusion_lat": 0.0, "rental_uris": {"ios": "https://dc.lft.to/lastmile_qr_scan", "android": "https://dc.lft.to/lastmile_qr_scan"}, "lon": -77.04874683333334, "type": "electric_scooter"}, {"bike_id": "ff0baf54636237cbb10afc480058d75a", "is_reserved": 0, "fusion_lon": 0.0, "lat": 38.8853005, "is_disabled": 0, "name": "ff0baf54636237cbb10afc480058d75a", "fusion_lat": 0.0, "rental_uris": {"ios": "https://dc.lft.to/lastmile_qr_scan", "android": "https://dc.lft.to/lastmile_qr_scan"}, "lon": -77.005817, "type": "electric_scooter"}, {"bike_id": "f00866aa45a99f9367a72fffa6967061", "is_reserved": 0, "fusion_lon": 0.0, "lat": 38.902758166666665, "is_disabled": 0, "name": "f00866aa45a99f9367a72fffa6967061", "fusion_lat": 0.0, "rental_uris": {"ios": "https://dc.lft.to/lastmile_qr_scan", "android": "https://dc.lft.to/lastmile_qr_scan"}, "lon": -77.038409, "type": "electric_scooter"}, {"bike_id": "bc9638d0ade5b751eaef9e53d292f585", "is_reserved": 0, "fusion_lon": 0.0, "lat": 38.866644666666666, "is_disabled": 0, "name": "bc9638d0ade5b751eaef9e53d292f585", "fusion_lat": 0.0, "rental_uris": {"ios": "https://dc.lft.to/lastmile_qr_scan", "android": "https://dc.lft.to/lastmile_qr_scan"}, "lon": -76.98908183333333, "type": "electric_scooter"}, {"bike_id": "baf1f3ff7c647f139a80ac5850e61c24", "is_reserved": 0, "fusion_lon": 0.0, "lat": 38.899192166666666, "is_disabled": 0, "name": "baf1f3ff7c647f139a80ac5850e61c24", "fusion_lat": 0.0, "rental_uris": {"ios": "https://dc.lft.to/lastmile_qr_scan", "android": "https://dc.lft.to/lastmile_qr_scan"}, "lon": -77.03929966666666, "type": "electric_scooter"}, {"bike_id": "9c2a858a567e6bb4ac505aa019b81653", "is_reserved": 0, "fusion_lon": 0.0, "lat": 38.897792833333334, "is_disabled": 0, "name": "9c2a858a567e6bb4ac505aa019b81653", "fusion_lat": 0.0, "rental_uris": {"ios": "https://dc.lft.to/lastmile_qr_scan", "android": "https://dc.lft.to/lastmile_qr_scan"}, "lon": -77.04327, "type": "electric_scooter"}, {"bike_id": "8074196503bc26e364f2f18c557e5fa4", "is_reserved": 0, "fusion_lon": 0.0, "lat": 38.958136333333336, "is_disabled": 0, "name": "8074196503bc26e364f2f18c557e5fa4", "fusion_lat": 0.0, "rental_uris": {"ios": "https://dc.lft.to/lastmile_qr_scan", "android": "https://dc.lft.to/lastmile_qr_scan"}, "lon": -77.01380633333333, "type": "electric_bike"}, {"bike_id": "41dddd6988b746454099c5028a8b73dc", "is_reserved": 0, "fusion_lon": 0.0, "lat": 38.934101166666665, "is_disabled": 0, "name": "41dddd6988b746454099c5028a8b73dc", "fusion_lat": 0.0, "rental_uris": {"ios": "https://dc.lft.to/lastmile_qr_scan", "android": "https://dc.lft.to/lastmile_qr_scan"}, "lon": -77.03269533333334, "type": "electric_scooter"}, {"bike_id": "c31a38cdfd34d2f2f1222106337265e8", "is_reserved": 0, "fusion_lon": 0.0, "lat": 38.90453616666667, "is_disabled": 0, "name": "c31a38cdfd34d2f2f1222106337265e8", "fusion_lat": 0.0, "rental_uris": {"ios": "https://dc.lft.to/lastmile_qr_scan", "android": "https://dc.lft.to/lastmile_qr_scan"}, "lon": -77.05926266666667, "type": "electric_scooter"}, {"bike_id": "4824c344d9006e2ff4f3b14578fc6f7c", "is_reserved": 0, "fusion_lon": 0.0, "lat": 38.864144333333336, "is_disabled": 0, "name": "4824c344d9006e2ff4f3b14578fc6f7c", "fusion_lat": 0.0, "rental_uris": {"ios": "https://dc.lft.to/lastmile_qr_scan", "android": "https://dc.lft.to/lastmile_qr_scan"}, "lon": -77.01350233333334, "type": "electric_scooter"}, {"bike_id": "a7468e3f02b6768ce24e0c6dd82540b9", "is_reserved": 0, "fusion_lon": 0.0, "lat": 38.957352666666665, "is_disabled": 0, "name": "a7468e3f02b6768ce24e0c6dd82540b9", "fusion_lat": 0.0, "rental_uris": {"ios": "https://dc.lft.to/lastmile_qr_scan", "android": "https://dc.lft.to/lastmile_qr_scan"}, "lon": -77.02417183333333, "type": "electric_scooter"}, {"bike_id": "eb6c3f93ef651175b51720505f483e08", "is_reserved": 0, "fusion_lon": 0.0, "lat": 38.90964983333333, "is_disabled": 0, "name": "eb6c3f93ef651175b51720505f483e08", "fusion_lat": 0.0, "rental_uris": {"ios": "https://dc.lft.to/lastmile_qr_scan", "android": "https://dc.lft.to/lastmile_qr_scan"}, "lon": -77.03426066666667, "type": "electric_scooter"}, {"bike_id": "9f99435d954a5833159fa8c44a133180", "is_reserved": 0, "fusion_lon": 0.0, "lat": 38.9017605, "is_disabled": 0, "name": "9f99435d954a5833159fa8c44a133180", "fusion_lat": 0.0, "rental_uris": {"ios": "https://dc.lft.to/lastmile_qr_scan", "android": "https://dc.lft.to/lastmile_qr_scan"}, "lon": -76.99993833333333, "type": "electric_scooter"}, {"bike_id": "9a8f2444b02bb05e7e7ebd84a0d6417e", "is_reserved": 0, "fusion_lon": 0.0, "lat": 38.8843915, "is_disabled": 0, "name": "9a8f2444b02bb05e7e7ebd84a0d6417e", "fusion_lat": 0.0, "rental_uris": {"ios": "https://dc.lft.to/lastmile_qr_scan", "android": "https://dc.lft.to/lastmile_qr_scan"}, "lon": -77.03046133333334, "type": "electric_scooter"}, {"bike_id": "347f569dd906ee2bf613e0ca601151b2", "is_reserved": 0, "fusion_lon": 0.0, "lat": 38.914144, "is_disabled": 0, "name": "347f569dd906ee2bf613e0ca601151b2", "fusion_lat": 0.0, "rental_uris": {"ios": "https://dc.lft.to/lastmile_qr_scan", "android": "https://dc.lft.to/lastmile_qr_scan"}, "lon": -77.03814466666667, "type": "electric_scooter"}, {"bike_id": "d1ae37a9ef33d24054f4c06861fcb0fc", "is_reserved": 0, "fusion_lon": 0.0, "lat": 38.863584333333336, "is_disabled": 0, "name": "d1ae37a9ef33d24054f4c06861fcb0fc", "fusion_lat": 0.0, "rental_uris": {"ios": "https://dc.lft.to/lastmile_qr_scan", "android": "https://dc.lft.to/lastmile_qr_scan"}, "lon": -76.99066516666667, "type": "electric_scooter"}, {"bike_id": "33c6e4e143d379a1c9037e990b7fbff6", "is_reserved": 0, "fusion_lon": 0.0, "lat": 38.90794133333333, "is_disabled": 0, "name": "33c6e4e143d379a1c9037e990b7fbff6", "fusion_lat": 0.0, "rental_uris": {"ios": "https://dc.lft.to/lastmile_qr_scan", "android": "https://dc.lft.to/lastmile_qr_scan"}, "lon": -77.03650266666666, "type": "electric_scooter"}, {"bike_id": "0f6cfef7ebd616dc5890fb1f8383c8ad", "is_reserved": 0, "fusion_lon": 0.0, "lat": 38.9042975, "is_disabled": 0, "name": "0f6cfef7ebd616dc5890fb1f8383c8ad", "fusion_lat": 0.0, "rental_uris": {"ios": "https://dc.lft.to/lastmile_qr_scan", "android": "https://dc.lft.to/lastmile_qr_scan"}, "lon": -77.0060185, "type": "electric_scooter"}, {"bike_id": "6f2336ef970a454a19fba29827424057", "is_reserved": 0, "fusion_lon": 0.0, "lat": 38.91107316666667, "is_disabled": 0, "name": "6f2336ef970a454a19fba29827424057", "fusion_lat": 0.0, "rental_uris": {"ios": "https://dc.lft.to/lastmile_qr_scan", "android": "https://dc.lft.to/lastmile_qr_scan"}, "lon": -77.0371875, "type": "electric_scooter"}, {"bike_id": "36297e294662bba2472a5f8faa4462f5", "is_reserved": 0, "fusion_lon": 0.0, "lat": 38.93235116666666, "is_disabled": 0, "name": "36297e294662bba2472a5f8faa4462f5", "fusion_lat": 0.0, "rental_uris": {"ios": "https://dc.lft.to/lastmile_qr_scan", "android": "https://dc.lft.to/lastmile_qr_scan"}, "lon": -77.03830933333333, "type": "electric_scooter"}, {"bike_id": "71ce89b0a5819b91c72ddba269aebc95", "is_reserved": 0, "fusion_lon": 0.0, "lat": 38.8699615, "is_disabled": 0, "name": "71ce89b0a5819b91c72ddba269aebc95", "fusion_lat": 0.0, "rental_uris": {"ios": "https://dc.lft.to/lastmile_qr_scan", "android": "https://dc.lft.to/lastmile_qr_scan"}, "lon": -76.95983133333333, "type": "electric_bike"}, {"bike_id": "c4b33ba783e20fffb09b01e68f84b8ce", "is_reserved": 0, "fusion_lon": 0.0, "lat": 38.82265, "is_disabled": 0, "name": "c4b33ba783e20fffb09b01e68f84b8ce", "fusion_lat": 0.0, "rental_uris": {"ios": "https://dc.lft.to/lastmile_qr_scan", "android": "https://dc.lft.to/lastmile_qr_scan"}, "lon": -77.05807966666667, "type": "electric_bike"}, {"bike_id": "878ce00c23b5fea39970858f13cc7695", "is_reserved": 0, "fusion_lon": 0.0, "lat": 38.90263483333333, "is_disabled": 0, "name": "878ce00c23b5fea39970858f13cc7695", "fusion_lat": 0.0, "rental_uris": {"ios": "https://dc.lft.to/lastmile_qr_scan", "android": "https://dc.lft.to/lastmile_qr_scan"}, "lon": -77.03968533333334, "type": "electric_scooter"}, {"bike_id": "90bca9d8ef1005e7f4963ab0112de281", "is_reserved": 0, "fusion_lon": 0.0, "lat": 38.90067066666667, "is_disabled": 0, "name": "90bca9d8ef1005e7f4963ab0112de281", "fusion_lat": 0.0, "rental_uris": {"ios": "https://dc.lft.to/lastmile_qr_scan", "android": "https://dc.lft.to/lastmile_qr_scan"}, "lon": -76.98712033333334, "type": "electric_scooter"}, {"bike_id": "199ae22be2e8374f6dc02dbdfe71406a", "is_reserved": 0, "fusion_lon": 0.0, "lat": 38.8624185, "is_disabled": 0, "name": "199ae22be2e8374f6dc02dbdfe71406a", "fusion_lat": 0.0, "rental_uris": {"ios": "https://dc.lft.to/lastmile_qr_scan", "android": "https://dc.lft.to/lastmile_qr_scan"}, "lon": -76.99492533333333, "type": "electric_scooter"}, {"bike_id": "d80e6abe202fdf915957d9c6fbef6e3f", "is_reserved": 0, "fusion_lon": 0.0, "lat": 38.985041833333334, "is_disabled": 0, "name": "d80e6abe202fdf915957d9c6fbef6e3f", "fusion_lat": 0.0, "rental_uris": {"ios": "https://dc.lft.to/lastmile_qr_scan", "android": "https://dc.lft.to/lastmile_qr_scan"}, "lon": -76.98209816666666, "type": "electric_bike"}, {"bike_id": "7f9bc4cf60dbf506598d327a63a1e96b", "is_reserved": 0, "fusion_lon": 0.0, "lat": 38.8938895, "is_disabled": 0, "name": "7f9bc4cf60dbf506598d327a63a1e96b", "fusion_lat": 0.0, "rental_uris": {"ios": "https://dc.lft.to/lastmile_qr_scan", "android": "https://dc.lft.to/lastmile_qr_scan"}, "lon": -77.00602183333334, "type": "electric_scooter"}, {"bike_id": "500f12da717b3f48b79f5c0c096d0b7d", "is_reserved": 0, "fusion_lon": 0.0, "lat": 38.93284333333333, "is_disabled": 0, "name": "500f12da717b3f48b79f5c0c096d0b7d", "fusion_lat": 0.0, "rental_uris": {"ios": "https://dc.lft.to/lastmile_qr_scan", "android": "https://dc.lft.to/lastmile_qr_scan"}, "lon": -77.0250555, "type": "electric_bike"}, {"bike_id": "a6fd31b040063c27d5de58454185de4f", "is_reserved": 0, "fusion_lon": 0.0, "lat": 38.8653875, "is_disabled": 0, "name": "a6fd31b040063c27d5de58454185de4f", "fusion_lat": 0.0, "rental_uris": {"ios": "https://dc.lft.to/lastmile_qr_scan", "android": "https://dc.lft.to/lastmile_qr_scan"}, "lon": -76.98701316666667, "type": "electric_scooter"}, {"bike_id": "61b552e6f0670560cddb976638c8d7c7", "is_reserved": 0, "fusion_lon": 0.0, "lat": 38.9184805, "is_disabled": 0, "name": "61b552e6f0670560cddb976638c8d7c7", "fusion_lat": 0.0, "rental_uris": {"ios": "https://dc.lft.to/lastmile_qr_scan", "android": "https://dc.lft.to/lastmile_qr_scan"}, "lon": -77.02320183333333, "type": "electric_scooter"}, {"bike_id": "af2df5dde1d62b10bc326a10f8ba5b1c", "is_reserved": 0, "fusion_lon": 0.0, "lat": 38.9282585, "is_disabled": 0, "name": "af2df5dde1d62b10bc326a10f8ba5b1c", "fusion_lat": 0.0, "rental_uris": {"ios": "https://dc.lft.to/lastmile_qr_scan", "android": "https://dc.lft.to/lastmile_qr_scan"}, "lon": -77.02254, "type": "electric_scooter"}, {"bike_id": "2fbc2a4d2b15f7804ba74182b122b899", "is_reserved": 0, "fusion_lon": 0.0, "lat": 38.9039175, "is_disabled": 0, "name": "2fbc2a4d2b15f7804ba74182b122b899", "fusion_lat": 0.0, "rental_uris": {"ios": "https://dc.lft.to/lastmile_qr_scan", "android": "https://dc.lft.to/lastmile_qr_scan"}, "lon": -77.0420855, "type": "electric_scooter"}, {"bike_id": "00f5109115ef9fc88951c1e565affdec", "is_reserved": 0, "fusion_lon": 0.0, "lat": 38.90251133333334, "is_disabled": 0, "name": "00f5109115ef9fc88951c1e565affdec", "fusion_lat": 0.0, "rental_uris": {"ios": "https://dc.lft.to/lastmile_qr_scan", "android": "https://dc.lft.to/lastmile_qr_scan"}, "lon": -77.029787, "type": "electric_scooter"}, {"bike_id": "0ad35bd01b4770449994f25d3e5c0bd7", "is_reserved": 0, "fusion_lon": 0.0, "lat": 38.91191833333333, "is_disabled": 0, "name": "0ad35bd01b4770449994f25d3e5c0bd7", "fusion_lat": 0.0, "rental_uris": {"ios": "https://dc.lft.to/lastmile_qr_scan", "android": "https://dc.lft.to/lastmile_qr_scan"}, "lon": -77.060885, "type": "electric_scooter"}, {"bike_id": "0e94c8c6e00aca0f5c04c1de652accba", "is_reserved": 0, "fusion_lon": 0.0, "lat": 38.901723833333335, "is_disabled": 0, "name": "0e94c8c6e00aca0f5c04c1de652accba", "fusion_lat": 0.0, "rental_uris": {"ios": "https://dc.lft.to/lastmile_qr_scan", "android": "https://dc.lft.to/lastmile_qr_scan"}, "lon": -76.98071283333333, "type": "electric_scooter"}, {"bike_id": "daab77bacb7cca8563d36d28f701f86f", "is_reserved": 0, "fusion_lon": 0.0, "lat": 38.888878, "is_disabled": 0, "name": "daab77bacb7cca8563d36d28f701f86f", "fusion_lat": 0.0, "rental_uris": {"ios": "https://dc.lft.to/lastmile_qr_scan", "android": "https://dc.lft.to/lastmile_qr_scan"}, "lon": -77.03321816666667, "type": "electric_bike"}, {"bike_id": "ad9070ed310adc3875f6aa509e271b69", "is_reserved": 0, "fusion_lon": 0.0, "lat": 38.9596, "is_disabled": 0, "name": "ad9070ed310adc3875f6aa509e271b69", "fusion_lat": 0.0, "rental_uris": {"ios": "https://dc.lft.to/lastmile_qr_scan", "android": "https://dc.lft.to/lastmile_qr_scan"}, "lon": -77.10090766666667, "type": "electric_bike"}, {"bike_id": "8ad093105cd67274b4c1c17343a0b5f9", "is_reserved": 0, "fusion_lon": 0.0, "lat": 38.885008666666664, "is_disabled": 0, "name": "8ad093105cd67274b4c1c17343a0b5f9", "fusion_lat": 0.0, "rental_uris": {"ios": "https://dc.lft.to/lastmile_qr_scan", "android": "https://dc.lft.to/lastmile_qr_scan"}, "lon": -77.0072755, "type": "electric_scooter"}, {"bike_id": "19bbde0035864b42ab0c6f155ab1c472", "is_reserved": 0, "fusion_lon": 0.0, "lat": 38.905708833333335, "is_disabled": 0, "name": "19bbde0035864b42ab0c6f155ab1c472", "fusion_lat": 0.0, "rental_uris": {"ios": "https://dc.lft.to/lastmile_qr_scan", "android": "https://dc.lft.to/lastmile_qr_scan"}, "lon": -77.03629866666667, "type": "electric_scooter"}, {"bike_id": "481a129067233207ed29cf0fde2e01dd", "is_reserved": 0, "fusion_lon": 0.0, "lat": 38.897171666666665, "is_disabled": 0, "name": "481a129067233207ed29cf0fde2e01dd", "fusion_lat": 0.0, "rental_uris": {"ios": "https://dc.lft.to/lastmile_qr_scan", "android": "https://dc.lft.to/lastmile_qr_scan"}, "lon": -77.02726466666667, "type": "electric_scooter"}, {"bike_id": "2a9468c70924ff2996505584cabcf275", "is_reserved": 0, "fusion_lon": 0.0, "lat": 38.912024, "is_disabled": 0, "name": "2a9468c70924ff2996505584cabcf275", "fusion_lat": 0.0, "rental_uris": {"ios": "https://dc.lft.to/lastmile_qr_scan", "android": "https://dc.lft.to/lastmile_qr_scan"}, "lon": -77.07326116666667, "type": "electric_scooter"}, {"bike_id": "8c4c44276f09130a115c0b401fb0a2ea", "is_reserved": 0, "fusion_lon": 0.0, "lat": 38.96207883333334, "is_disabled": 0, "name": "8c4c44276f09130a115c0b401fb0a2ea", "fusion_lat": 0.0, "rental_uris": {"ios": "https://dc.lft.to/lastmile_qr_scan", "android": "https://dc.lft.to/lastmile_qr_scan"}, "lon": -77.02229183333333, "type": "electric_bike"}, {"bike_id": "4edd5abad1e690973d13a88d6b6d7ea3", "is_reserved": 0, "fusion_lon": 0.0, "lat": 38.900915, "is_disabled": 0, "name": "4edd5abad1e690973d13a88d6b6d7ea3", "fusion_lat": 0.0, "rental_uris": {"ios": "https://dc.lft.to/lastmile_qr_scan", "android": "https://dc.lft.to/lastmile_qr_scan"}, "lon": -77.04875716666666, "type": "electric_bike"}, {"bike_id": "dab439c83e9e77d6c5216b18fd52c51b", "is_reserved": 0, "fusion_lon": 0.0, "lat": 38.913619, "is_disabled": 0, "name": "dab439c83e9e77d6c5216b18fd52c51b", "fusion_lat": 0.0, "rental_uris": {"ios": "https://dc.lft.to/lastmile_qr_scan", "android": "https://dc.lft.to/lastmile_qr_scan"}, "lon": -77.04645866666667, "type": "electric_scooter"}, {"bike_id": "cc3d7ab197f57255ce2a59e43501c63f", "is_reserved": 0, "fusion_lon": 0.0, "lat": 38.93676816666667, "is_disabled": 0, "name": "cc3d7ab197f57255ce2a59e43501c63f", "fusion_lat": 0.0, "rental_uris": {"ios": "https://dc.lft.to/lastmile_qr_scan", "android": "https://dc.lft.to/lastmile_qr_scan"}, "lon": -76.95199116666667, "type": "electric_bike"}, {"bike_id": "2e5f82afa3e3b23c2aec004cbc8a3937", "is_reserved": 0, "fusion_lon": 0.0, "lat": 38.88408666666667, "is_disabled": 0, "name": "2e5f82afa3e3b23c2aec004cbc8a3937", "fusion_lat": 0.0, "rental_uris": {"ios": "https://dc.lft.to/lastmile_qr_scan", "android": "https://dc.lft.to/lastmile_qr_scan"}, "lon": -76.960576, "type": "electric_bike"}, {"bike_id": "34aac2ffe44cd2e5ce5b2670785e35d3", "is_reserved": 0, "fusion_lon": 0.0, "lat": 38.90909933333333, "is_disabled": 0, "name": "34aac2ffe44cd2e5ce5b2670785e35d3", "fusion_lat": 0.0, "rental_uris": {"ios": "https://dc.lft.to/lastmile_qr_scan", "android": "https://dc.lft.to/lastmile_qr_scan"}, "lon": -77.038376, "type": "electric_scooter"}, {"bike_id": "c8993090686b6f10bb6ec564373d339c", "is_reserved": 0, "fusion_lon": 0.0, "lat": 38.8718905, "is_disabled": 0, "name": "c8993090686b6f10bb6ec564373d339c", "fusion_lat": 0.0, "rental_uris": {"ios": "https://dc.lft.to/lastmile_qr_scan", "android": "https://dc.lft.to/lastmile_qr_scan"}, "lon": -77.01372783333333, "type": "electric_scooter"}, {"bike_id": "62102ab80a760a051bc3e313a637d28f", "is_reserved": 0, "fusion_lon": 0.0, "lat": 38.91951183333333, "is_disabled": 0, "name": "62102ab80a760a051bc3e313a637d28f", "fusion_lat": 0.0, "rental_uris": {"ios": "https://dc.lft.to/lastmile_qr_scan", "android": "https://dc.lft.to/lastmile_qr_scan"}, "lon": -76.97915033333334, "type": "electric_bike"}, {"bike_id": "0dc58ed0f04341871dc3e4f650bf66d0", "is_reserved": 0, "fusion_lon": 0.0, "lat": 38.92876866666667, "is_disabled": 0, "name": "0dc58ed0f04341871dc3e4f650bf66d0", "fusion_lat": 0.0, "rental_uris": {"ios": "https://dc.lft.to/lastmile_qr_scan", "android": "https://dc.lft.to/lastmile_qr_scan"}, "lon": -77.040497, "type": "electric_scooter"}, {"bike_id": "656e1b99fdccc918e5f8f513a20cb0ac", "is_reserved": 0, "fusion_lon": 0.0, "lat": 38.90013416666667, "is_disabled": 0, "name": "656e1b99fdccc918e5f8f513a20cb0ac", "fusion_lat": 0.0, "rental_uris": {"ios": "https://dc.lft.to/lastmile_qr_scan", "android": "https://dc.lft.to/lastmile_qr_scan"}, "lon": -76.99759466666667, "type": "electric_scooter"}, {"bike_id": "e116138ed18f81e0c64d92e9f6b7eac2", "is_reserved": 0, "fusion_lon": 0.0, "lat": 38.885255666666666, "is_disabled": 0, "name": "e116138ed18f81e0c64d92e9f6b7eac2", "fusion_lat": 0.0, "rental_uris": {"ios": "https://dc.lft.to/lastmile_qr_scan", "android": "https://dc.lft.to/lastmile_qr_scan"}, "lon": -77.01719316666667, "type": "electric_scooter"}, {"bike_id": "3d5192a192fa77b37f5f6259f1911502", "is_reserved": 0, "fusion_lon": 0.0, "lat": 38.87146516666667, "is_disabled": 0, "name": "3d5192a192fa77b37f5f6259f1911502", "fusion_lat": 0.0, "rental_uris": {"ios": "https://dc.lft.to/lastmile_qr_scan", "android": "https://dc.lft.to/lastmile_qr_scan"}, "lon": -76.93662416666666, "type": "electric_bike"}, {"bike_id": "73f4db29c64ad3081d44bad90b726a8c", "is_reserved": 0, "fusion_lon": 0.0, "lat": 38.88453, "is_disabled": 0, "name": "73f4db29c64ad3081d44bad90b726a8c", "fusion_lat": 0.0, "rental_uris": {"ios": "https://dc.lft.to/lastmile_qr_scan", "android": "https://dc.lft.to/lastmile_qr_scan"}, "lon": -77.00573616666667, "type": "electric_scooter"}, {"bike_id": "02d915c63cae0eefe1a8ed4f4ad3a5a2", "is_reserved": 0, "fusion_lon": 0.0, "lat": 38.894039666666664, "is_disabled": 0, "name": "02d915c63cae0eefe1a8ed4f4ad3a5a2", "fusion_lat": 0.0, "rental_uris": {"ios": "https://dc.lft.to/lastmile_qr_scan", "android": "https://dc.lft.to/lastmile_qr_scan"}, "lon": -76.99366883333333, "type": "electric_scooter"}, {"bike_id": "1454b4297b4430a617e48af5275e0626", "is_reserved": 0, "fusion_lon": 0.0, "lat": 38.957755166666665, "is_disabled": 0, "name": "1454b4297b4430a617e48af5275e0626", "fusion_lat": 0.0, "rental_uris": {"ios": "https://dc.lft.to/lastmile_qr_scan", "android": "https://dc.lft.to/lastmile_qr_scan"}, "lon": -77.01154983333333, "type": "electric_bike"}, {"bike_id": "92159206aa059e7975a41928158686d9", "is_reserved": 0, "fusion_lon": 0.0, "lat": 38.927536333333336, "is_disabled": 0, "name": "92159206aa059e7975a41928158686d9", "fusion_lat": 0.0, "rental_uris": {"ios": "https://dc.lft.to/lastmile_qr_scan", "android": "https://dc.lft.to/lastmile_qr_scan"}, "lon": -77.02421816666667, "type": "electric_scooter"}, {"bike_id": "7e8d8eca619976342acf7e36e6d7fcff", "is_reserved": 0, "fusion_lon": 0.0, "lat": 38.90669316666666, "is_disabled": 0, "name": "7e8d8eca619976342acf7e36e6d7fcff", "fusion_lat": 0.0, "rental_uris": {"ios": "https://dc.lft.to/lastmile_qr_scan", "android": "https://dc.lft.to/lastmile_qr_scan"}, "lon": -77.02685133333334, "type": "electric_scooter"}, {"bike_id": "e03f20900b85c979e17831da5fe95a11", "is_reserved": 0, "fusion_lon": 0.0, "lat": 38.89253033333333, "is_disabled": 0, "name": "e03f20900b85c979e17831da5fe95a11", "fusion_lat": 0.0, "rental_uris": {"ios": "https://dc.lft.to/lastmile_qr_scan", "android": "https://dc.lft.to/lastmile_qr_scan"}, "lon": -76.943286, "type": "electric_scooter"}, {"bike_id": "49c9e38199c0cd552b0f94c6d151fa6e", "is_reserved": 0, "fusion_lon": 0.0, "lat": 38.9183, "is_disabled": 0, "name": "49c9e38199c0cd552b0f94c6d151fa6e", "fusion_lat": 0.0, "rental_uris": {"ios": "https://dc.lft.to/lastmile_qr_scan", "android": "https://dc.lft.to/lastmile_qr_scan"}, "lon": -77.03519066666667, "type": "electric_scooter"}, {"bike_id": "d13c2c29a021d1907500a468f9c0f9f6", "is_reserved": 0, "fusion_lon": 0.0, "lat": 38.934502333333334, "is_disabled": 0, "name": "d13c2c29a021d1907500a468f9c0f9f6", "fusion_lat": 0.0, "rental_uris": {"ios": "https://dc.lft.to/lastmile_qr_scan", "android": "https://dc.lft.to/lastmile_qr_scan"}, "lon": -77.07220416666667, "type": "electric_scooter"}, {"bike_id": "f977f9f752f8eb767ecc678968c31179", "is_reserved": 0, "fusion_lon": 0.0, "lat": 38.90518433333333, "is_disabled": 0, "name": "f977f9f752f8eb767ecc678968c31179", "fusion_lat": 0.0, "rental_uris": {"ios": "https://dc.lft.to/lastmile_qr_scan", "android": "https://dc.lft.to/lastmile_qr_scan"}, "lon": -77.0597, "type": "electric_scooter"}, {"bike_id": "0621c9cad051518f48a4c9a149899606", "is_reserved": 0, "fusion_lon": 0.0, "lat": 38.93724566666667, "is_disabled": 0, "name": "0621c9cad051518f48a4c9a149899606", "fusion_lat": 0.0, "rental_uris": {"ios": "https://dc.lft.to/lastmile_qr_scan", "android": "https://dc.lft.to/lastmile_qr_scan"}, "lon": -77.03264166666666, "type": "electric_scooter"}, {"bike_id": "bb31eb466b8346dfa53b5a3f963bcddc", "is_reserved": 0, "fusion_lon": 0.0, "lat": 38.9179635, "is_disabled": 0, "name": "bb31eb466b8346dfa53b5a3f963bcddc", "fusion_lat": 0.0, "rental_uris": {"ios": "https://dc.lft.to/lastmile_qr_scan", "android": "https://dc.lft.to/lastmile_qr_scan"}, "lon": -77.03435583333334, "type": "electric_scooter"}, {"bike_id": "d17f005436bc751a87f5b67da888de79", "is_reserved": 0, "fusion_lon": 0.0, "lat": 38.94268833333334, "is_disabled": 0, "name": "d17f005436bc751a87f5b67da888de79", "fusion_lat": 0.0, "rental_uris": {"ios": "https://dc.lft.to/lastmile_qr_scan", "android": "https://dc.lft.to/lastmile_qr_scan"}, "lon": -76.98066983333334, "type": "electric_bike"}, {"bike_id": "b0cc5efad2705c6cc3a0939575e1debf", "is_reserved": 0, "fusion_lon": 0.0, "lat": 38.900319, "is_disabled": 0, "name": "b0cc5efad2705c6cc3a0939575e1debf", "fusion_lat": 0.0, "rental_uris": {"ios": "https://dc.lft.to/lastmile_qr_scan", "android": "https://dc.lft.to/lastmile_qr_scan"}, "lon": -76.98797883333333, "type": "electric_scooter"}, {"bike_id": "40a2109b91037997b477207ba526847e", "is_reserved": 0, "fusion_lon": 0.0, "lat": 38.9180635, "is_disabled": 0, "name": "40a2109b91037997b477207ba526847e", "fusion_lat": 0.0, "rental_uris": {"ios": "https://dc.lft.to/lastmile_qr_scan", "android": "https://dc.lft.to/lastmile_qr_scan"}, "lon": -77.01014566666667, "type": "electric_scooter"}, {"bike_id": "e1560c115231b602cd95747274528465", "is_reserved": 0, "fusion_lon": 0.0, "lat": 38.883154833333336, "is_disabled": 0, "name": "e1560c115231b602cd95747274528465", "fusion_lat": 0.0, "rental_uris": {"ios": "https://dc.lft.to/lastmile_qr_scan", "android": "https://dc.lft.to/lastmile_qr_scan"}, "lon": -77.009336, "type": "electric_scooter"}, {"bike_id": "5e598522cff2d8d9411c5367e67143b9", "is_reserved": 0, "fusion_lon": 0.0, "lat": 38.896021, "is_disabled": 0, "name": "5e598522cff2d8d9411c5367e67143b9", "fusion_lat": 0.0, "rental_uris": {"ios": "https://dc.lft.to/lastmile_qr_scan", "android": "https://dc.lft.to/lastmile_qr_scan"}, "lon": -77.04460383333333, "type": "electric_scooter"}, {"bike_id": "530990d665ee32302c4b1bca3fdd0210", "is_reserved": 0, "fusion_lon": 0.0, "lat": 38.9199525, "is_disabled": 0, "name": "530990d665ee32302c4b1bca3fdd0210", "fusion_lat": 0.0, "rental_uris": {"ios": "https://dc.lft.to/lastmile_qr_scan", "android": "https://dc.lft.to/lastmile_qr_scan"}, "lon": -77.03215, "type": "electric_scooter"},