{"data": {"bikes": [{"lon": -77.04358933333333, "rental_uris": {"android": "https://dc.lft.to/lastmile_qr_scan", "ios": "https://dc.lft.to/lastmile_qr_scan"}, "fusion_lon": 0.0, "is_reserved": 0, "is_disabled": 0, "fusion_lat": 0.0, "type": "electric_scooter", "name": "ccaa4b94926dc00c88dbd86eec2d9b5f", "lat": 38.90786533333333, "bike_id": "ccaa4b94926dc00c88dbd86eec2d9b5f"}, {"lon": -77.04161066666667, "rental_uris": {"android": "https://dc.lft.to/lastmile_qr_scan", "ios": "https://dc.lft.to/lastmile_qr_scan"}, "fusion_lon": 0.0, "is_reserved": 0, "is_disabled": 0, "fusion_lat": 0.0, "type": "electric_scooter", "name": "1d4c4b24c787da27fb2ad071ad49b552", "lat": 38.892309, "bike_id": "1d4c4b24c787da27fb2ad071ad49b552"}, {"lon": -77.03184866666666, "rental_uris": {"android": "https://dc.lft.to/lastmile_qr_scan", "ios": "https://dc.lft.to/lastmile_qr_scan"}, "fusion_lon": 0.0, "is_reserved": 0, "is_disabled": 0, "fusion_lat": 0.0, "type": "electric_scooter", "name": "06d78472e7029489de6639f2e25e0b3c", "lat": 38.9112245, "bike_id": "06d78472e7029489de6639f2e25e0b3c"}, {"lon": -77.040447, "rental_uris": {"android": "https://dc.lft.to/lastmile_qr_scan", "ios": "https://dc.lft.to/lastmile_qr_scan"}, "fusion_lon": 0.0, "is_reserved": 0, "is_disabled": 0, "fusion_lat": 0.0, "type": "electric_scooter", "name": "9e3b369f9a2a8368234f45bf29585816", "lat": 38.9244485, "bike_id": "9e3b369f9a2a8368234f45bf29585816"}, {"lon": -76.98692733333333, "rental_uris": {"android": "https://dc.lft.to/lastmile_qr_scan", "ios": "https://dc.lft.to/lastmile_qr_scan"}, "fusion_lon": 0.0, "is_reserved": 0, "is_disabled": 0, "fusion_lat": 0.0, "type": "electric_scooter", "name": "0850e50dd4b9ca4ab1bf035295b63984", "lat": 38.900581833333334, "bike_id": "0850e50dd4b9ca4ab1bf035295b63984"}, {"lon": -77.04357666666667, "rental_uris": {"android": "https://dc.lft.to/lastmile_qr_scan", "ios": "https://dc.lft.to/lastmile_qr_scan"}, "fusion_lon": 0.0, "is_reserved": 0, "is_disabled": 0, "fusion_lat": 0.0, "type": "electric_scooter", "name": "7454a29e404328c805f1062e2d85ff7b", "lat": 38.92792583333333, "bike_id": "7454a29e404328c805f1062e2d85ff7b"}, {"lon": -77.0011055, "rental_uris": {"android": "https://dc.lft.to/lastmile_qr_scan", "ios": "https://dc.lft.to/lastmile_qr_scan"}, "fusion_lon": 0.0, "is_reserved": 0, "is_disabled": 0, "fusion_lat": 0.0, "type": "electric_scooter", "name": "05bf259e7b891beab204c2e62c0a8e58", "lat": 38.873827, "bike_id": "05bf259e7b891beab204c2e62c0a8e58"}, {"lon": -77.03180583333334, "rental_uris": {"android": "https://dc.lft.to/lastmile_qr_scan", "ios": "https://dc.lft.to/lastmile_qr_scan"}, "fusion_lon": 0.0, "is_reserved": 0, "is_disabled": 0, "fusion_lat": 0.0, "type": "electric_scooter", "name": "e0872075986ae14c170b3df3cf9a0702", "lat": 38.910606333333334, "bike_id": "e0872075986ae14c170b3df3cf9a0702"}, {"lon": -77.02113933333334, "rental_uris": {"android": "https://dc.lft.to/lastmile_qr_scan", "ios": "https://dc.lft.to/lastmile_qr_scan"}, "fusion_lon": 0.0, "is_reserved": 0, "is_disabled": 0, "fusion_lat": 0.0, "type": "electric_scooter", "name": "962deea3e6c72cb8a607091298d95c66", "lat": 38.904788833333335, "bike_id": "962deea3e6c72cb8a607091298d95c66"}, {"lon": -77.005762, "rental_uris": {"android": "https://dc.lft.to/lastmile_qr_scan", "ios": "https://dc.lft.to/lastmile_qr_scan"}, "fusion_lon": 0.0, "is_reserved": 0, "is_disabled": 0, "fusion_lat": 0.0, "type": "electric_scooter", "name": "4b4b21e28d5998839becbd3933b1dfef", "lat": 38.90624733333333, "bike_id": "4b4b21e28d5998839becbd3933b1dfef"}, {"lon": -77.03301283333333, "rental_uris": {"android": "https://dc.lft.to/lastmile_qr_scan", "ios": "https://dc.lft.to/lastmile_qr_scan"}, "fusion_lon": 0.0, "is_reserved": 0, "is_disabled": 0, "fusion_lat": 0.0, "type": "electric_scooter", "name": "5598be7cec286779fd7da983a7336ef6", "lat": 38.903697, "bike_id": "5598be7cec286779fd7da983a7336ef6"}, {"lon": -77.05266783333333, "rental_uris": {"android": "https://dc.lft.to/lastmile_qr_scan", "ios": "https://dc.lft.to/lastmile_qr_scan"}, "fusion_lon": 0.0, "is_reserved": 0, "is_disabled": 0, "fusion_lat": 0.0, "type": "electric_bike", "name": "21271af1e56036223c0f12dc9b111ed2", "lat": 38.961772, "bike_id": "21271af1e56036223c0f12dc9b111ed2"}, {"lon": -76.99712416666667, "rental_uris": {"android": "https://dc.lft.to/lastmile_qr_scan", "ios": "https://dc.lft.to/lastmile_qr_scan"}, "fusion_lon": 0.0, "is_reserved": 0, "is_disabled": 0, "fusion_lat": 0.0, "type": "electric_scooter", "name": "695d028c5cf6b5a46a8d8739af59c9bd", "lat": 38.934316, "bike_id": "695d028c5cf6b5a46a8d8739af59c9bd"}, {"lon": -77.0489795, "rental_uris": {"android": "https://dc.lft.to/lastmile_qr_scan", "ios": "https://dc.lft.to/lastmile_qr_scan"}, "fusion_lon": 0.0, "is_reserved": 0, "is_disabled": 0, "fusion_lat": 0.0, "type": "electric_scooter", "name": "bc0fd83701aa74b2ea0322c744cacc30", "lat": 38.90526066666666, "bike_id": "bc0fd83701aa74b2ea0322c744cacc30"}, {"lon": -77.04150083333333, "rental_uris": {"android": "https://dc.lft.to/lastmile_qr_scan", "ios": "https://dc.lft.to/lastmile_qr_scan"}, "fusion_lon": 0.0, "is_reserved": 0, "is_disabled": 0, "fusion_lat": 0.0, "type": "electric_scooter", "name": "906e4769fa893e7fa0b4406a1f9a1d13", "lat": 38.909039, "bike_id": "906e4769fa893e7fa0b4406a1f9a1d13"}, {"lon": -77.03432483333333, "rental_uris": {"android": "https://dc.lft.to/lastmile_qr_scan", "ios": "https://dc.lft.to/lastmile_qr_scan"}, "fusion_lon": 0.0, "is_reserved": 0, "is_disabled": 0, "fusion_lat": 0.0, "type": "electric_scooter", "name": "a52b836ba189c2d9d88e90c894662756", "lat": 38.917148, "bike_id": "a52b836ba189c2d9d88e90c894662756"}, {"lon": -77.039568, "rental_uris": {"android": "https://dc.lft.to/lastmile_qr_scan", "ios": "https://dc.lft.to/lastmile_qr_scan"}, "fusion_lon": 0.0, "is_reserved": 0, "is_disabled": 0, "fusion_lat": 0.0, "type": "electric_scooter", "name": "8881d339363d8550d80ff4c2d37d16e8", "lat": 38.892345166666665, "bike_id": "8881d339363d8550d80ff4c2d37d16e8"}, {"lon": -77.03438616666666, "rental_uris": {"android": "https://dc.lft.to/lastmile_qr_scan", "ios": "https://dc.lft.to/lastmile_qr_scan"}, "fusion_lon": 0.0, "is_reserved": 0, "is_disabled": 0, "fusion_lat": 0.0, "type": "electric_scooter", "name": "401c9140f7502307928f02732e559c6e", "lat": 38.903673, "bike_id": "401c9140f7502307928f02732e559c6e"}, {"lon": -77.030544, "rental_uris": {"android": "https://dc.lft.to/lastmile_qr_scan", "ios": "https://dc.lft.to/lastmile_qr_scan"}, "fusion_lon": 0.0, "is_reserved": 0, "is_disabled": 0, "fusion_lat": 0.0, "type": "electric_scooter", "name": "f188d7d7b2f53e72fbb8a34552e467aa", "lat": 38.9167895, "bike_id": "f188d7d7b2f53e72fbb8a34552e467aa"}, {"lon": -77.07555066666667, "rental_uris": {"android": "https://dc.lft.to/lastmile_qr_scan", "ios": "https://dc.lft.to/lastmile_qr_scan"}, "fusion_lon": 0.0, "is_reserved": 0, "is_disabled": 0, "fusion_lat": 0.0, "type": "electric_scooter", "name": "8d5fd8f0f8d129153d3a658f1ca84951", "lat": 38.92083983333333, "bike_id": "8d5fd8f0f8d129153d3a658f1ca84951"}, {"lon": -77.0265965, "rental_uris": {"android": "https://dc.lft.to/lastmile_qr_scan", "ios": "https://dc.lft.to/lastmile_qr_scan"}, "fusion_lon": 0.0, "is_reserved": 0, "is_disabled": 0, "fusion_lat": 0.0, "type": "electric_scooter", "name": "2541132165a9905a067bae3c64ef4710", "lat": 38.89210033333333, "bike_id": "2541132165a9905a067bae3c64ef4710"}, {"lon": -76.9806055, "rental_uris": {"android": "https://dc.lft.to/lastmile_qr_scan", "ios": "https://dc.lft.to/lastmile_qr_scan"}, "fusion_lon": 0.0, "is_reserved": 0, "is_disabled": 0, "fusion_lat": 0.0, "type": "electric_scooter", "name": "cc87144904ded836be0b952752eff476", "lat": 38.88490383333333, "bike_id": "cc87144904ded836be0b952752eff476"}, {"lon": -76.94196566666666, "rental_uris": {"android": "https://dc.lft.to/lastmile_qr_scan", "ios": "https://dc.lft.to/lastmile_qr_scan"}, "fusion_lon": 0.0, "is_reserved": 0, "is_disabled": 0, "fusion_lat": 0.0, "type": "electric_scooter", "name": "a66be28d27a853afbb6e39f85df308fc", "lat": 38.9022535, "bike_id": "a66be28d27a853afbb6e39f85df308fc"}, {"lon": -77.02186133333333, "rental_uris": {"android": "https://dc.lft.to/lastmile_qr_scan", "ios": "https://dc.lft.to/lastmile_qr_scan"}, "fusion_lon": 0.0, "is_reserved": 0, "is_disabled": 0, "fusion_lat": 0.0, "type": "electric_scooter", "name": "ec6b1ad1106c7fd634229db3afc115ea", "lat": 38.88172266666667, "bike_id": "ec6b1ad1106c7fd634229db3afc115ea"}, {"lon": -77.01227466666667, "rental_uris": {"android": "https://dc.lft.to/lastmile_qr_scan", "ios": "https://dc.lft.to/lastmile_qr_scan"}, "fusion_lon": 0.0, "is_reserved": 0, "is_disabled": 0, "fusion_lat": 0.0, "type": "electric_bike", "name": "c65de3618e4678576df43cb8eb357f02", "lat": 38.9508545, "bike_id": "c65de3618e4678576df43cb8eb357f02"}, {"lon": -76.99471366666667, "rental_uris": {"android": "https://dc.lft.to/lastmile_qr_scan", "ios": "https://dc.lft.to/lastmile_qr_scan"}, "fusion_lon": 0.0, "is_reserved": 0, "is_disabled": 0, "fusion_lat": 0.0, "type": "electric_scooter", "name": "482c203a0eeadb96f4349169f50a5a54", "lat": 38.905413333333335, "bike_id": "482c203a0eeadb96f4349169f50a5a54"}, {"lon": -77.000818, "rental_uris": {"android": "https://dc.lft.to/lastmile_qr_scan", "ios": "https://dc.lft.to/lastmile_qr_scan"}, "fusion_lon": 0.0, "is_reserved": 0, "is_disabled": 0, "fusion_lat": 0.0, "type": "electric_scooter", "name": "85b8a9a61df642eede87dbe6cf0a3c25", "lat": 38.87596966666667, "bike_id": "85b8a9a61df642eede87dbe6cf0a3c25"}, {"lon": -76.98356183333334, "rental_uris": {"android": "https://dc.lft.to/lastmile_qr_scan", "ios": "https://dc.lft.to/lastmile_qr_scan"}, "fusion_lon": 0.0, "is_reserved": 0, "is_disabled": 0, "fusion_lat": 0.0, "type": "electric_scooter", "name": "8ac2673db13acc7f396c3bb66e5ecaaa", "lat": 38.88721433333333, "bike_id": "8ac2673db13acc7f396c3bb66e5ecaaa"}, {"lon": -77.02395866666667, "rental_uris": {"android": "https://dc.lft.to/lastmile_qr_scan", "ios": "https://dc.lft.to/lastmile_qr_scan"}, "fusion_lon": 0.0, "is_reserved": 0, "is_disabled": 0, "fusion_lat": 0.0, "type": "electric_scooter", "name": "f5a2966e996a7f445b0da640013c1c28", "lat": 38.901797333333334, "bike_id": "f5a2966e996a7f445b0da640013c1c28"}, {"lon": -76.9733015, "rental_uris": {"android": "https://dc.lft.to/lastmile_qr_scan", "ios": "https://dc.lft.to/lastmile_qr_scan"}, "fusion_lon": 0.0, "is_reserved": 0, "is_disabled": 0, "fusion_lat": 0.0, "type": "electric_scooter", "name": "d1e8db8c4ee93bf5647f805c72389cca", "lat": 38.9040675, "bike_id": "d1e8db8c4ee93bf5647f805c72389cca"}, {"lon": -77.04999816666667, "rental_uris": {"android": "https://dc.lft.to/lastmile_qr_scan", "ios": "https://dc.lft.to/lastmile_qr_scan"}, "fusion_lon": 0.0, "is_reserved": 0, "is_disabled": 0, "fusion_lat": 0.0, "type": "electric_scooter", "name": "319b89824f87db07d2b0be7fb2e1a0c5", "lat": 38.89228883333333, "bike_id": "319b89824f87db07d2b0be7fb2e1a0c5"}, {"lon": -76.93498333333334, "rental_uris": {"android": "https://dc.lft.to/lastmile_qr_scan", "ios": "https://dc.lft.to/lastmile_qr_scan"}, "fusion_lon": 0.0, "is_reserved": 0, "is_disabled": 0, "fusion_lat": 0.0, "type": "electric_scooter", "name": "c84f0a95873a08942a9fd8b7451238ec", "lat": 38.88341333333334, "bike_id": "c84f0a95873a08942a9fd8b7451238ec"}, {"lon": -77.03497133333333, "rental_uris": {"android": "https://dc.lft.to/lastmile_qr_scan", "ios": "https://dc.lft.to/lastmile_qr_scan"}, "fusion_lon": 0.0, "is_reserved": 0, "is_disabled": 0, "fusion_lat": 0.0, "type": "electric_scooter", "name": "27c0ed3de742e2e22950de2a60982bb1", "lat": 38.92330466666667, "bike_id": "27c0ed3de742e2e22950de2a60982bb1"}, {"lon": -77.0315615, "rental_uris": {"android": "https://dc.lft.to/lastmile_qr_scan", "ios": "https://dc.lft.to/lastmile_qr_scan"}, "fusion_lon": 0.0, "is_reserved": 0, "is_disabled": 0, "fusion_lat": 0.0, "type": "electric_scooter", "name": "6ff3026387d46f0a08560c8a636ad3f1", "lat": 38.916929333333336, "bike_id": "6ff3026387d46f0a08560c8a636ad3f1"}, {"lon": -77.02416716666667, "rental_uris": {"android": "https://dc.lft.to/lastmile_qr_scan", "ios": "https://dc.lft.to/lastmile_qr_scan"}, "fusion_lon": 0.0, "is_reserved": 0, "is_disabled": 0, "fusion_lat": 0.0, "type": "electric_scooter", "name": "7d64b27a2d694615bcba6a0e39eab1ea", "lat": 38.8951945, "bike_id": "7d64b27a2d694615bcba6a0e39eab1ea"}, {"lon": -77.0258655, "rental_uris": {"android": "https://dc.lft.to/lastmile_qr_scan", "ios": "https://dc.lft.to/lastmile_qr_scan"}, "fusion_lon": 0.0, "is_reserved": 0, "is_disabled": 0, "fusion_lat": 0.0, "type": "electric_scooter", "name": "d5ab3dcf5c058748b2baede8f41f943c", "lat": 38.9182, "bike_id": "d5ab3dcf5c058748b2baede8f41f943c"}, {"lon": -77.02135266666667, "rental_uris": {"android": "https://dc.lft.to/lastmile_qr_scan", "ios": "https://dc.lft.to/lastmile_qr_scan"}, "fusion_lon": 0.0, "is_reserved": 0, "is_disabled": 0, "fusion_lat": 0.0, "type": "electric_scooter", "name": "7402efdeaa4b3b0043c895cfe844e821", "lat": 38.92481266666667, "bike_id": "7402efdeaa4b3b0043c895cfe844e821"}, {"lon": -77.05679383333333, "rental_uris": {"android": "https://dc.lft.to/lastmile_qr_scan", "ios": "https://dc.lft.to/lastmile_qr_scan"}, "fusion_lon": 0.0, "is_reserved": 0, "is_disabled": 0, "fusion_lat": 0.0, "type": "electric_scooter", "name": "9deb5e2fc35ed27e523cb5a31073e161", "lat": 38.923298833333334, "bike_id": "9deb5e2fc35ed27e523cb5a31073e161"}, {"lon": -76.9991465, "rental_uris": {"android": "https://dc.lft.to/lastmile_qr_scan", "ios": "https://dc.lft.to/lastmile_qr_scan"}, "fusion_lon": 0.0, "is_reserved": 0, "is_disabled": 0, "fusion_lat": 0.0, "type": "electric_scooter", "name": "0ec39dcf476145ed148cdbee8be0b04d", "lat": 38.84349516666666, "bike_id": "0ec39dcf476145ed148cdbee8be0b04d"}, {"lon": -77.02151566666667, "rental_uris": {"android": "https://dc.lft.to/lastmile_qr_scan", "ios": "https://dc.lft.to/lastmile_qr_scan"}, "fusion_lon": 0.0, "is_reserved": 0, "is_disabled": 0, "fusion_lat": 0.0, "type": "electric_scooter", "name": "c3bbfeafe06e31735ac4f00432a58cf1", "lat": 38.9023725, "bike_id": "c3bbfeafe06e31735ac4f00432a58cf1"}, {"lon": -77.03400483333333, "rental_uris": {"android": "https://dc.lft.to/lastmile_qr_scan", "ios": "https://dc.lft.to/lastmile_qr_scan"}, "fusion_lon": 0.0, "is_reserved": 0, "is_disabled": 0, "fusion_lat": 0.0, "type": "electric_scooter", "name": "28190ece82913aa88abee706d2e7bfda", "lat": 38.902619666666666, "bike_id": "28190ece82913aa88abee706d2e7bfda"}, {"lon": -77.0382915, "rental_uris": {"android": "https://dc.lft.to/lastmile_qr_scan", "ios": "https://dc.lft.to/lastmile_qr_scan"}, "fusion_lon": 0.0, "is_reserved": 0, "is_disabled": 0, "fusion_lat": 0.0, "type": "electric_scooter", "name": "1c8e7d967dbfcf1bb36895841e6a1c55", "lat": 38.906839166666664, "bike_id": "1c8e7d967dbfcf1bb36895841e6a1c55"}, {"lon": -77.03281216666667, "rental_uris": {"android": "https://dc.lft.to/lastmile_qr_scan", "ios": "https://dc.lft.to/lastmile_qr_scan"}, "fusion_lon": 0.0, "is_reserved": 0, "is_disabled": 0, "fusion_lat": 0.0, "type": "electric_scooter", "name": "640305e0e9e7c6152fc1143a0773d598", "lat": 38.9292865, "bike_id": "640305e0e9e7c6152fc1143a0773d598"}, {"lon": -77.04603833333333, "rental_uris": {"android": "https://dc.lft.to/lastmile_qr_scan", "ios": "https://dc.lft.to/lastmile_qr_scan"}, "fusion_lon": 0.0, "is_reserved": 0, "is_disabled": 0, "fusion_lat": 0.0, "type": "electric_scooter", "name": "0f9107c228a1017d00c7197d64f5ddcf", "lat": 38.90256316666667, "bike_id": "0f9107c228a1017d00c7197d64f5ddcf"}, {"lon": -77.07039733333333, "rental_uris": {"android": "https://dc.lft.to/lastmile_qr_scan", "ios": "https://dc.lft.to/lastmile_qr_scan"}, "fusion_lon": 0.0, "is_reserved": 0, "is_disabled": 0, "fusion_lat": 0.0, "type": "electric_scooter", "name": "ab21c244806b13308333b7b8b7e45c64", "lat": 38.9075845, "bike_id": "ab21c244806b13308333b7b8b7e45c64"}, {"lon": -77.04930916666666, "rental_uris": {"android": "https://dc.lft.to/lastmile_qr_scan", "ios": "https://dc.lft.to/lastmile_qr_scan"}, "fusion_lon": 0.0, "is_reserved": 0, "is_disabled": 0, "fusion_lat": 0.0, "type": "electric_scooter", "name": "ecfc888667bcc5ad0bc4c98e61de340e", "lat": 38.90079716666666, "bike_id": "ecfc888667bcc5ad0bc4c98e61de340e"}, {"lon": -77.03280933333333, "rental_uris": {"android": "https://dc.lft.to/lastmile_qr_scan", "ios": "https://dc.lft.to/lastmile_qr_scan"}, "fusion_lon": 0.0, "is_reserved": 0, "is_disabled": 0, "fusion_lat": 0.0, "type": "electric_scooter", "name": "0d1baf0f7a6e200b07647e32fa8c2a32", "lat": 38.9376205, "bike_id": "0d1baf0f7a6e200b07647e32fa8c2a32"}, {"lon": -76.96703633333334, "rental_uris": {"android": "https://dc.lft.to/lastmile_qr_scan", "ios": "https://dc.lft.to/lastmile_qr_scan"}, "fusion_lon": 0.0, "is_reserved": 0, "is_disabled": 0, "fusion_lat": 0.0, "type": "electric_scooter", "name": "23c572dd35cfd94f0ea801bcaf5e7458", "lat": 38.86010783333333, "bike_id": "23c572dd35cfd94f0ea801bcaf5e7458"}, {"lon": -77.00437633333334, "rental_uris": {"android": "https://dc.lft.to/lastmile_qr_scan", "ios": "https://dc.lft.to/lastmile_qr_scan"}, "fusion_lon": 0.0, "is_reserved": 0, "is_disabled": 0, "fusion_lat": 0.0, "type": "electric_scooter", "name": "9f874d2fec0b81bf650b6aaf693b35ce", "lat": 38.8762875, "bike_id": "9f874d2fec0b81bf650b6aaf693b35ce"}, {"lon": -77.02727183333333, "rental_uris": {"android": "https://dc.lft.to/lastmile_qr_scan", "ios": "https://dc.lft.to/lastmile_qr_scan"}, "fusion_lon": 0.0, "is_reserved": 0, "is_disabled": 0, "fusion_lat": 0.0, "type": "electric_scooter", "name": "09e92c87ce5768e59bf68ad9144fb98a", "lat": 38.8975975, "bike_id": "09e92c87ce5768e59bf68ad9144fb98a"}, {"lon": -77.04534, "rental_uris": {"android": "https://dc.lft.to/lastmile_qr_scan", "ios": "https://dc.lft.to/lastmile_qr_scan"}, "fusion_lon": 0.0, "is_reserved": 0, "is_disabled": 0, "fusion_lat": 0.0, "type": "electric_scooter", "name": "cd6c5aafd8b983f06baf96bdd36fea8c", "lat": 38.91105916666667, "bike_id": "cd6c5aafd8b983f06baf96bdd36fea8c"}, {"lon": -77.03775733333333, "rental_uris": {"android": "https://dc.lft.to/lastmile_qr_scan", "ios": "https://dc.lft.to/lastmile_qr_scan"}, "fusion_lon": 0.0, "is_reserved": 0, "is_disabled": 0, "fusion_lat": 0.0, "type": "electric_scooter", "name": "1cc03e2739f9a6f69accc94cc37d1b44", "lat": 38.91686283333333, "bike_id": "1cc03e2739f9a6f69accc94cc37d1b44"}, {"lon": -77.024079, "rental_uris": {"android": "https://dc.lft.to/lastmile_qr_scan", "ios": "https://dc.lft.to/lastmile_qr_scan"}, "fusion_lon": 0.0, "is_reserved": 0, "is_disabled": 0, "fusion_lat": 0.0, "type": "electric_scooter", "name": "c1fc5fe4626a36c04b345a2f6cd91965", "lat": 38.897375833333335, "bike_id": "c1fc5fe4626a36c04b345a2f6cd91965"}, {"lon": -77.03188016666667, "rental_uris": {"android": "https://dc.lft.to/lastmile_qr_scan", "ios": "https://dc.lft.to/lastmile_qr_scan"}, "fusion_lon": 0.0, "is_reserved": 0, "is_disabled": 0, "fusion_lat": 0.0, "type": "electric_scooter", "name": "e9cca31c9006db7e78ccf2110751083d", "lat": 38.908297833333336, "bike_id": "e9cca31c9006db7e78ccf2110751083d"}, {"lon": -77.0464885, "rental_uris": {"android": "https://dc.lft.to/lastmile_qr_scan", "ios": "https://dc.lft.to/lastmile_qr_scan"}, "fusion_lon": 0.0, "is_reserved": 0, "is_disabled": 0, "fusion_lat": 0.0, "type": "electric_scooter", "name": "1b4477e811aa1a844268cf7539b3cdc9", "lat": 38.892164, "bike_id": "1b4477e811aa1a844268cf7539b3cdc9"}, {"lon": -77.03186716666667, "rental_uris": {"android": "https://dc.lft.to/lastmile_qr_scan", "ios": "https://dc.lft.to/lastmile_qr_scan"}, "fusion_lon": 0.0, "is_reserved": 0, "is_disabled": 0, "fusion_lat": 0.0, "type": "electric_scooter", "name": "0e4de79a1559cb2b95d92548a2bcbddf", "lat": 38.9010355, "bike_id": "0e4de79a1559cb2b95d92548a2bcbddf"}, {"lon": -77.08762816666666, "rental_uris": {"android": "https://dc.lft.to/lastmile_qr_scan", "ios": "https://dc.lft.to/lastmile_qr_scan"}, "fusion_lon": 0.0, "is_reserved": 0, "is_disabled": 0, "fusion_lat": 0.0, "type": "electric_scooter", "name": "a6b6741d5e2206fdf432ff54ce9ae61b", "lat": 38.935552666666666, "bike_id": "a6b6741d5e2206fdf432ff54ce9ae61b"}, {"lon": -77.04654383333333, "rental_uris": {"android": "https://dc.lft.to/lastmile_qr_scan", "ios": "https://dc.lft.to/lastmile_qr_scan"}, "fusion_lon": 0.0, "is_reserved": 0, "is_disabled": 0, "fusion_lat": 0.0, "type": "electric_scooter", "name": "18303f9e198535f6a5aaf32972e8d714", "lat": 38.90694466666667, "bike_id": "18303f9e198535f6a5aaf32972e8d714"}, {"lon": -77.052083, "rental_uris": {"android": "https://dc.lft.to/lastmile_qr_scan", "ios": "https://dc.lft.to/lastmile_qr_scan"}, "fusion_lon": 0.0, "is_reserved": 0, "is_disabled": 0, "fusion_lat": 0.0, "type": "electric_scooter", "name": "df4a4582cc1d8e7ab8888fc0b0a208f0", "lat": 38.924714, "bike_id": "df4a4582cc1d8e7ab8888fc0b0a208f0"}, {"lon": -77.04512133333333, "rental_uris": {"android": "https://dc.lft.to/lastmile_qr_scan", "ios": "https://dc.lft.to/lastmile_qr_scan"}, "fusion_lon": 0.0, "is_reserved": 0, "is_disabled": 0, "fusion_lat": 0.0, "type": "electric_scooter", "name": "ee23a1b8f733f21308fbbe468486434b", "lat": 38.903575833333335, "bike_id": "ee23a1b8f733f21308fbbe468486434b"}, {"lon": -77.05172766666666, "rental_uris": {"android": "https://dc.lft.to/lastmile_qr_scan", "ios": "https://dc.lft.to/lastmile_qr_scan"}, "fusion_lon": 0.0, "is_reserved": 0, "is_disabled": 0, "fusion_lat": 0.0, "type": "electric_scooter", "name": "a47a86e9e5555f18d0bdf60866e6253d", "lat": 38.923424833333335, "bike_id": "a47a86e9e5555f18d0bdf60866e6253d"}, {"lon": -77.01207883333333, "rental_uris": {"android": "https://dc.lft.to/lastmile_qr_scan", "ios": "https://dc.lft.to/lastmile_qr_scan"}, "fusion_lon": 0.0, "is_reserved": 0, "is_disabled": 0, "fusion_lat": 0.0, "type": "electric_scooter", "name": "8b063028cb398c2e6aa41d2203f6c89d", "lat": 38.921183666666664, "bike_id": "8b063028cb398c2e6aa41d2203f6c89d"}, {"lon": -77.0476565, "rental_uris": {"android": "https://dc.lft.to/lastmile_qr_scan", "ios": "https://dc.lft.to/lastmile_qr_scan"}, "fusion_lon": 0.0, "is_reserved": 0, "is_disabled": 0, "fusion_lat": 0.0, "type": "electric_scooter", "name": "ef8805990796dce2e7fd2eb4cf1e06bb", "lat": 38.90230916666667, "bike_id": "ef8805990796dce2e7fd2eb4cf1e06bb"}, {"lon": -76.942021, "rental_uris": {"android": "https://dc.lft.to/lastmile_qr_scan", "ios": "https://dc.lft.to/lastmile_qr_scan"}, "fusion_lon": 0.0, "is_reserved": 0, "is_disabled": 0, "fusion_lat": 0.0, "type": "electric_scooter", "name": "5713d3199f169279385aec537617695e", "lat": 38.884089, "bike_id": "5713d3199f169279385aec537617695e"}, {"lon": -77.02204416666666, "rental_uris": {"android": "https://dc.lft.to/lastmile_qr_scan", "ios": "https://dc.lft.to/lastmile_qr_scan"}, "fusion_lon": 0.0, "is_reserved": 0, "is_disabled": 0, "fusion_lat": 0.0, "type": "electric_scooter", "name": "e3c01fa4fed8446aa7890e5104269167", "lat": 38.88717583333333, "bike_id": "e3c01fa4fed8446aa7890e5104269167"}, {"lon": -77.04276416666667, "rental_uris": {"android": "https://dc.lft.to/lastmile_qr_scan", "ios": "https://dc.lft.to/lastmile_qr_scan"}, "fusion_lon": 0.0, "is_reserved": 0, "is_disabled": 0, "fusion_lat": 0.0, "type": "electric_scooter", "name": "e28ab1cf45b2b86057a6025ee0e15318", "lat": 38.895999333333336, "bike_id": "e28ab1cf45b2b86057a6025ee0e15318"}, {"lon": -77.02719583333334, "rental_uris": {"android": "https://dc.lft.to/lastmile_qr_scan", "ios": "https://dc.lft.to/lastmile_qr_scan"}, "fusion_lon": 0.0, "is_reserved": 0, "is_disabled": 0, "fusion_lat": 0.0, "type": "electric_scooter", "name": "aa92cc80b53386a6eed450181a6ae010", "lat": 38.89713783333333, "bike_id": "aa92cc80b53386a6eed450181a6ae010"}, {"lon": -77.03853016666666, "rental_uris": {"android": "https://dc.lft.to/lastmile_qr_scan", "ios": "https://dc.lft.to/lastmile_qr_scan"}, "fusion_lon": 0.0, "is_reserved": 0, "is_disabled": 0, "fusion_lat": 0.0, "type": "electric_scooter", "name": "36f235df2acd07fe3621b862d409d988", "lat": 38.91656866666667, "bike_id": "36f235df2acd07fe3621b862d409d988"}, {"lon": -77.025398, "rental_uris": {"android": "https://dc.lft.to/lastmile_qr_scan", "ios": "https://dc.lft.to/lastmile_qr_scan"}, "fusion_lon": 0.0, "is_reserved": 0, "is_disabled": 0, "fusion_lat": 0.0, "type": "electric_scooter", "name": "69b58fdb6c3629e7a7609d3af5ce9c72", "lat": 38.93988933333333, "bike_id": "69b58fdb6c3629e7a7609d3af5ce9c72"}, {"lon": -76.98096366666667, "rental_uris": {"android": "https://dc.lft.to/lastmile_qr_scan", "ios": "https://dc.lft.to/lastmile_qr_scan"}, "fusion_lon": 0.0, "is_reserved": 0, "is_disabled": 0, "fusion_lat": 0.0, "type": "electric_scooter", "name": "0996b184a651155a396e6c38f270ff37", "lat": 38.89605566666667, "bike_id": "0996b184a651155a396e6c38f270ff37"}, {"lon": -77.0230565, "rental_uris": {"android": "https://dc.lft.to/lastmile_qr_scan", "ios": "https://dc.lft.to/lastmile_qr_scan"}, "fusion_lon": 0.0, "is_reserved": 0, "is_disabled": 0, "fusion_lat": 0.0, "type": "electric_scooter", "name": "4e41c513f08a4e18b63bcb7d6c485938", "lat": 38.916168, "bike_id": "4e41c513f08a4e18b63bcb7d6c485938"}, {"lon": -77.0213395, "rental_uris": {"android": "https://dc.lft.to/lastmile_qr_scan", "ios": "https://dc.lft.to/lastmile_qr_scan"}, "fusion_lon": 0.0, "is_reserved": 0, "is_disabled": 0, "fusion_lat": 0.0, "type": "electric_scooter", "name": "0bb59b4b303e86902cc6ffcdae1fb184", "lat": 38.88746616666667, "bike_id": "0bb59b4b303e86902cc6ffcdae1fb184"}, {"lon": -76.937576, "rental_uris": {"android": "https://dc.lft.to/lastmile_qr_scan", "ios": "https://dc.lft.to/lastmile_qr_scan"}, "fusion_lon": 0.0, "is_reserved": 0, "is_disabled": 0, "fusion_lat": 0.0, "type": "electric_scooter", "name": "e11cd1e59ee510b33a78419fae978d6e", "lat": 38.890407, "bike_id": "e11cd1e59ee510b33a78419fae978d6e"}, {"lon": -76.99464616666667, "rental_uris": {"android": "https://dc.lft.to/lastmile_qr_scan", "ios": "https://dc.lft.to/lastmile_qr_scan"}, "fusion_lon": 0.0, "is_reserved": 0, "is_disabled": 0, "fusion_lat": 0.0, "type": "electric_scooter", "name": "6f6159b8162796dde5fc90c66ece7238", "lat": 38.86191383333333, "bike_id": "6f6159b8162796dde5fc90c66ece7238"}, {"lon": -76.99774583333334, "rental_uris": {"android": "https://dc.lft.to/lastmile_qr_scan", "ios": "https://dc.lft.to/lastmile_qr_scan"}, "fusion_lon": 0.0, "is_reserved": 0, "is_disabled": 0, "fusion_lat": 0.0, "type": "electric_bike", "name": "0146720daaaac419c282b3fd9d38769f", "lat": 38.92281066666666, "bike_id": "0146720daaaac419c282b3fd9d38769f"}, {"lon": -77.0501625, "rental_uris": {"android": "https://dc.lft.to/lastmile_qr_scan", "ios": "https://dc.lft.to/lastmile_qr_scan"}, "fusion_lon": 0.0, "is_reserved": 0, "is_disabled": 0, "fusion_lat": 0.0, "type": "electric_scooter", "name": "4672e49b3c1e9f859cb3fefb23e028a3", "lat": 38.9233945, "bike_id": "4672e49b3c1e9f859cb3fefb23e028a3"}, {"lon": -76.93761833333333, "rental_uris": {"android": "https://dc.lft.to/lastmile_qr_scan", "ios": "https://dc.lft.to/lastmile_qr_scan"}, "fusion_lon": 0.0, "is_reserved": 0, "is_disabled": 0, "fusion_lat": 0.0, "type": "electric_scooter", "name": "a87d81258d30e79b05a1a88a7a3a91e2", "lat": 38.89038866666667, "bike_id": "a87d81258d30e79b05a1a88a7a3a91e2"}, {"lon": -77.02214983333333, "rental_uris": {"android": "https://dc.lft.to/lastmile_qr_scan", "ios": "https://dc.lft.to/lastmile_qr_scan"}, "fusion_lon": 0.0, "is_reserved": 0, "is_disabled": 0, "fusion_lat": 0.0, "type": "electric_scooter", "name": "ca4b21e7e34797a1826ebcdcda6ed267", "lat": 38.924717333333334, "bike_id": "ca4b21e7e34797a1826ebcdcda6ed267"}, {"lon": -77.0117945, "rental_uris": {"android": "https://dc.lft.to/lastmile_qr_scan", "ios": "https://dc.lft.to/lastmile_qr_scan"}, "fusion_lon": 0.0, "is_reserved": 0, "is_disabled": 0, "fusion_lat": 0.0, "type": "electric_scooter", "name": "480a47522af092e498e2ff2a467b47b8", "lat": 38.8963255, "bike_id": "480a47522af092e498e2ff2a467b47b8"}, {"lon": -77.02853, "rental_uris": {"android": "https://dc.lft.to/lastmile_qr_scan", "ios": "https://dc.lft.to/lastmile_qr_scan"}, "fusion_lon": 0.0, "is_reserved": 0, "is_disabled": 0, "fusion_lat": 0.0, "type": "electric_scooter", "name": "2bbeec4dc3a092c9692aecc29f25151f", "lat": 38.93416066666666, "bike_id": "2bbeec4dc3a092c9692aecc29f25151f"}, {"lon": -77.02691, "rental_uris": {"android": "https://dc.lft.to/lastmile_qr_scan", "ios": "https://dc.lft.to/lastmile_qr_scan"}, "fusion_lon": 0.0, "is_reserved": 0, "is_disabled": 0, "fusion_lat": 0.0, "type": "electric_scooter", "name": "fca5dbf9e54a03c7e86f0f8df1cd7d10", "lat": 38.906618, "bike_id": "fca5dbf9e54a03c7e86f0f8df1cd7d10"}, {"lon": -77.013778, "rental_uris": {"android": "https://dc.lft.to/lastmile_qr_scan", "ios": "https://dc.lft.to/lastmile_qr_scan"}, "fusion_lon": 0.0, "is_reserved": 0, "is_disabled": 0, "fusion_lat": 0.0, "type": "electric_scooter", "name": "f3967d8ea0a2cefcec98e41e55effc5e", "lat": 38.86929166666667, "bike_id": "f3967d8ea0a2cefcec98e41e55effc5e"}, {"lon": -77.05322433333333, "rental_uris": {"android": "https://dc.lft.to/lastmile_qr_scan", "ios": "https://dc.lft.to/lastmile_qr_scan"}, "fusion_lon": 0.0, "is_reserved": 0, "is_disabled": 0, "fusion_lat": 0.0, "type": "electric_scooter", "name": "29e021fd6e938d73bc89d5994d18d858", "lat": 38.91546016666667, "bike_id": "29e021fd6e938d73bc89d5994d18d858"}, {"lon": -76.99841883333333, "rental_uris": {"android": "https://dc.lft.to/lastmile_qr_scan", "ios": "https://dc.lft.to/lastmile_qr_scan"}, "fusion_lon": 0.0, "is_reserved": 0, "is_disabled": 0, "fusion_lat": 0.0, "type": "electric_scooter", "name": "d3fa86acd3a954bb0f613d4d9f7f8ab6", "lat": 38.9001205, "bike_id": "d3fa86acd3a954bb0f613d4d9f7f8ab6"}, {"lon": -77.00592083333333, "rental_uris": {"android": "https://dc.lft.to/lastmile_qr_scan", "ios": "https://dc.lft.to/lastmile_qr_scan"}, "fusion_lon": 0.0, "is_reserved": 0, "is_disabled": 0, "fusion_lat": 0.0, "type": "electric_scooter", "name": "356cdafdd46261ec01f23ba4ada98423", "lat": 38.87570233333334, "bike_id": "356cdafdd46261ec01f23ba4ada98423"}, {"lon": -77.0467685, "rental_uris": {"android": "https://dc.lft.to/lastmile_qr_scan", "ios": "https://dc.lft.to/lastmile_qr_scan"}, "fusion_lon": 0.0, "is_reserved": 0, "is_disabled": 0, "fusion_lat": 0.0, "type": "electric_scooter", "name": "22213dbb4e392ff57f574f8e55b7741e", "lat": 38.892638833333336, "bike_id": "22213dbb4e392ff57f574f8e55b7741e"}, {"lon": -77.04187933333333, "rental_uris": {"android": "https://dc.lft.to/lastmile_qr_scan", "ios": "https://dc.lft.to/lastmile_qr_scan"}, "fusion_lon": 0.0, "is_reserved": 0, "is_disabled": 0, "fusion_lat": 0.0, "type": "electric_scooter", "name": "93424807135b18b7d64d4ed6b717cd36", "lat": 38.9068585, "bike_id": "93424807135b18b7d64d4ed6b717cd36"}, {"lon": -77.03689833333334, "rental_uris": {"android": "https://dc.lft.to/lastmile_qr_scan", "ios": "https://dc.lft.to/lastmile_qr_scan"}, "fusion_lon": 0.0, "is_reserved": 0, "is_disabled": 0, "fusion_lat": 0.0, "type": "electric_scooter", "name": "60076480e4acbe204d001476c384afa6", "lat": 38.922613166666665, "bike_id": "60076480e4acbe204d001476c384afa6"}, {"lon": -77.04483883333333, "rental_uris": {"android": "https://dc.lft.to/lastmile_qr_scan", "ios": "https://dc.lft.to/lastmile_qr_scan"}, "fusion_lon": 0.0, "is_reserved": 0, "is_disabled": 0, "fusion_lat": 0.0, "type": "electric_scooter", "name": "cebc2f8b642044f68c37dd383669420f", "lat": 38.91115416666667, "bike_id": "cebc2f8b642044f68c37dd383669420f"}, {"lon": -77.04197283333333, "rental_uris": {"android": "https://dc.lft.to/lastmile_qr_scan", "ios": "https://dc.lft.to/lastmile_qr_scan"}, "fusion_lon": 0.0, "is_reserved": 0, "is_disabled": 0, "fusion_lat": 0.0, "type": "electric_scooter", "name": "48108cfc869e06c54828d9d63a8ccbaf", "lat": 38.927053, "bike_id": "48108cfc869e06c54828d9d63a8ccbaf"}, {"lon": -77.00199516666666, "rental_uris": {"android": "https://dc.lft.to/lastmile_qr_scan", "ios": "https://dc.lft.to/lastmile_qr_scan"}, "fusion_lon": 0.0, "is_reserved": 0, "is_disabled": 0, "fusion_lat": 0.0, "type": "electric_scooter", "name": "53e021ff97bbf9dedfcd76b048daad21", "lat": 38.8867075, "bike_id": "53e021ff97bbf9dedfcd76b048daad21"}, {"lon": -77.037748, "rental_uris": {"android": "https://dc.lft.to/lastmile_qr_scan", "ios": "https://dc.lft.to/lastmile_qr_scan"}, "fusion_lon": 0.0, "is_reserved": 0, "is_disabled": 0, "fusion_lat": 0.0, "type": "electric_scooter", "name": "79db89f261ca94799fdef88405922f82", "lat": 38.9169175, "bike_id": "79db89f261ca94799fdef88405922f82"}, {"lon": -77.03944433333334, "rental_uris": {"android": "https://dc.lft.to/lastmile_qr_scan", "ios": "https://dc.lft.to/lastmile_qr_scan"}, "fusion_lon": 0.0, "is_reserved": 0, "is_disabled": 0, "fusion_lat": 0.0, "type": "electric_scooter", "name": "b92091ec09a82bb3462b0f914f2f7f99", "lat": 38.928732333333336, "bike_id": "b92091ec09a82bb3462b0f914f2f7f99"}, {"lon": -77.03467683333334, "rental_uris": {"android": "https://dc.lft.to/lastmile_qr_scan", "ios": "https://dc.lft.to/lastmile_qr_scan"}, "fusion_lon": 0.0, "is_reserved": 0, "is_disabled": 0, "fusion_lat": 0.0, "type": "electric_scooter", "name": "225ae62b43863397048456a752e69a99", "lat": 38.91705433333333, "bike_id": "225ae62b43863397048456a752e69a99"}, {"lon": -77.02157483333333, "rental_uris": {"android": "https://dc.lft.to/lastmile_qr_scan", "ios": "https://dc.lft.to/lastmile_qr_scan"}, "fusion_lon": 0.0, "is_reserved": 0, "is_disabled": 0, "fusion_lat": 0.0, "type": "electric_scooter", "name": "a9f854222848bb7345609be07cf277b4", "lat": 38.924503, "bike_id": "a9f854222848bb7345609be07cf277b4"}, {"lon": -77.07349, "rental_uris": {"android": "https://dc.lft.to/lastmile_qr_scan", "ios": "https://dc.lft.to/lastmile_qr_scan"}, "fusion_lon": 0.0, "is_reserved": 0, "is_disabled": 0, "fusion_lat": 0.0, "type": "electric_scooter", "name": "f1b705ae458dbfc6bbc2d76b26a7e088", "lat": 38.93478566666667, "bike_id": "f1b705ae458dbfc6bbc2d76b26a7e088"}, {"lon": -77.02659716666666, "rental_uris": {"android": "https://dc.lft.to/lastmile_qr_scan", "ios": "https://dc.lft.to/lastmile_qr_scan"}, "fusion_lon": 0.0, "is_reserved": 0, "is_disabled": 0, "fusion_lat": 0.0, "type": "electric_scooter", "name": "3ef74560b753ce843bcddf5c52bbd3eb", "lat": 38.921719833333334, "bike_id": "3ef74560b753ce843bcddf5c52bbd3eb"}, {"lon": -77.0465485, "rental_uris": {"android": "https://dc.lft.to/lastmile_qr_scan", "ios": "https://dc.lft.to/lastmile_qr_scan"}, "fusion_lon": 0.0, "is_reserved": 0, "is_disabled": 0, "fusion_lat": 0.0, "type": "electric_scooter", "name": "ab7d5582a5db27e733c5ccdea21f84fb", "lat": 38.91361633333333, "bike_id": "ab7d5582a5db27e733c5ccdea21f84fb"}, {"lon": -77.0225765, "rental_uris": {"android": "https://dc.lft.to/lastmile_qr_scan", "ios": "https://dc.lft.to/lastmile_qr_scan"}, "fusion_lon": 0.0, "is_reserved": 0, "is_disabled": 0, "fusion_lat": 0.0, "type": "electric_scooter", "name": "6f9c21b6c3d20e64bf8440470039150d", "lat": 38.925104166666664, "bike_id": "6f9c21b6c3d20e64bf8440470039150d"}, {"lon": -77.06378433333333, "rental_uris": {"android": "https://dc.lft.to/lastmile_qr_scan", "ios": "https://dc.lft.to/lastmile_qr_scan"}, "fusion_lon": 0.0, "is_reserved": 0, "is_disabled": 0, "fusion_lat": 0.0, "type": "electric_scooter", "name": "6e10fea701cef12c995fca040301e311", "lat": 38.905155666666666, "bike_id": "6e10fea701cef12c995fca040301e311"}, {"lon": -77.02399033333333, "rental_uris": {"android": "https://dc.lft.to/lastmile_qr_scan", "ios": "https://dc.lft.to/lastmile_qr_scan"}, "fusion_lon": 0.0, "is_reserved": 0, "is_disabled": 0, "fusion_lat": 0.0, "type": "electric_scooter", "name": "8804828fa6014c61ef2171447bb4116f", "lat": 38.90665283333333, "bike_id": "8804828fa6014c61ef2171447bb4116f"}, {"lon": -77.0486555, "rental_uris": {"android": "https://dc.lft.to/lastmile_qr_scan", "ios": "https://dc.lft.to/lastmile_qr_scan"}, "fusion_lon": 0.0, "is_reserved": 0, "is_disabled": 0, "fusion_lat": 0.0, "type": "electric_scooter", "name": "f0a0104478a81c732eefd2b7ca3101cb", "lat": 38.89219333333333, "bike_id": "f0a0104478a81c732eefd2b7ca3101cb"}, {"lon": -77.033493, "rental_uris": {"android": "https://dc.lft.to/lastmile_qr_scan", "ios": "https://dc.lft.to/lastmile_qr_scan"}, "fusion_lon": 0.0, "is_reserved": 0, "is_disabled": 0, "fusion_lat": 0.0, "type": "electric_scooter", "name": "93d797edad777a2c1f7f635489e0ddc6", "lat": 38.927472, "bike_id": "93d797edad777a2c1f7f635489e0ddc6"}, {"lon": -77.00331833333334, "rental_uris": {"android": "https://dc.lft.to/lastmile_qr_scan", "ios": "https://dc.lft.to/lastmile_qr_scan"}, "fusion_lon": 0.0, "is_reserved": 0, "is_disabled": 0, "fusion_lat": 0.0, "type": "electric_scooter", "name": "4b5b604da2519aab888b63730cfb69e0", "lat": 38.899268166666666, "bike_id": "4b5b604da2519aab888b63730cfb69e0"}, {"lon": -77.048815, "rental_uris": {"android": "https://dc.lft.to/lastmile_qr_scan", "ios": "https://dc.lft.to/lastmile_qr_scan"}, "fusion_lon": 0.0, "is_reserved": 0, "is_disabled": 0, "fusion_lat": 0.0, "type": "electric_scooter", "name": "81f01ee6ceb21a0a6565257085c51eea", "lat": 38.90862333333333, "bike_id": "81f01ee6ceb21a0a6565257085c51eea"}, {"lon": -76.98689683333333, "rental_uris": {"android": "https://dc.lft.to/lastmile_qr_scan", "ios": "https://dc.lft.to/lastmile_qr_scan"}, "fusion_lon": 0.0, "is_reserved": 0, "is_disabled": 0, "fusion_lat": 0.0, "type": "electric_bike", "name": "599ba6be01ed57b6b99bd7f63bae9796", "lat": 38.94469433333333, "bike_id": "599ba6be01ed57b6b99bd7f63bae9796"}, {"lon": -77.01984833333333, "rental_uris": {"android": "https://dc.lft.to/lastmile_qr_scan", "ios": "https://dc.lft.to/lastmile_qr_scan"}, "fusion_lon": 0.0, "is_reserved": 0, "is_disabled": 0, "fusion_lat": 0.0, "type": "electric_scooter", "name": "55d05c38f84295b709120a290efe4b51", "lat": 38.910403, "bike_id": "55d05c38f84295b709120a290efe4b51"}, {"lon": -77.01139266666667, "rental_uris": {"android": "https://dc.lft.to/lastmile_qr_scan", "ios": "https://dc.lft.to/lastmile_qr_scan"}, "fusion_lon": 0.0, "is_reserved": 0, "is_disabled": 0, "fusion_lat": 0.0, "type": "electric_scooter", "name": "af65493cd0316fd366244559f7ed5a89", "lat": 38.906397166666665, "bike_id": "af65493cd0316fd366244559f7ed5a89"}, {"lon": -77.02858916666666, "rental_uris": {"android": "https://dc.lft.to/lastmile_qr_scan", "ios": "https://dc.lft.to/lastmile_qr_scan"}, "fusion_lon": 0.0, "is_reserved": 0, "is_disabled": 0, "fusion_lat": 0.0, "type": "electric_scooter", "name": "4a298825dea23a7dc7ec3051ab07b8a9", "lat": 38.934961666666666, "bike_id": "4a298825dea23a7dc7ec3051ab07b8a9"}, {"lon": -77.01399633333334, "rental_uris": {"android": "https://dc.lft.to/lastmile_qr_scan", "ios": "https://dc.lft.to/lastmile_qr_scan"}, "fusion_lon": 0.0, "is_reserved": 0, "is_disabled": 0, "fusion_lat": 0.0, "type": "electric_scooter", "name": "116a4a899ad4800b0a0a72500e512a0e", "lat": 38.892137166666664, "bike_id": "116a4a899ad4800b0a0a72500e512a0e"}, {"lon": -77.0404015, "rental_uris": {"android": "https://dc.lft.to/lastmile_qr_scan", "ios": "https://dc.lft.to/lastmile_qr_scan"}, "fusion_lon": 0.0, "is_reserved": 0, "is_disabled": 0, "fusion_lat": 0.0, "type": "electric_scooter", "name": "ff9e165bef0667d289d16004d0242909", "lat": 38.92447383333333, "bike_id": "ff9e165bef0667d289d16004d0242909"}, {"lon": -77.00916733333334, "rental_uris": {"android": "https://dc.lft.to/lastmile_qr_scan", "ios": "https://dc.lft.to/lastmile_qr_scan"}, "fusion_lon": 0.0, "is_reserved": 0, "is_disabled": 0, "fusion_lat": 0.0, "type": "electric_scooter", "name": "703aa5cd9c07bfee6661acfef670e4bd", "lat": 38.896415166666664, "bike_id": "703aa5cd9c07bfee6661acfef670e4bd"}, {"lon": -76.97927166666666, "rental_uris": {"android": "https://dc.lft.to/lastmile_qr_scan", "ios": "https://dc.lft.to/lastmile_qr_scan"}, "fusion_lon": 0.0, "is_reserved": 0, "is_disabled": 0, "fusion_lat": 0.0, "type": "electric_scooter", "name": "a7ddddba9c71a8d8e1267362e7393949", "lat": 38.90240083333333, "bike_id": "a7ddddba9c71a8d8e1267362e7393949"}, {"lon": -77.0305045, "rental_uris": {"android": "https://dc.lft.to/lastmile_qr_scan", "ios": "https://dc.lft.to/lastmile_qr_scan"}, "fusion_lon": 0.0, "is_reserved": 0, "is_disabled": 0, "fusion_lat": 0.0, "type": "electric_scooter", "name": "e96bd0e21529ca671ec25e8f07f5460e", "lat": 38.92303166666667, "bike_id": "e96bd0e21529ca671ec25e8f07f5460e"}, {"lon": -77.024279, "rental_uris": {"android": "https://dc.lft.to/lastmile_qr_scan", "ios": "https://dc.lft.to/lastmile_qr_scan"}, "fusion_lon": 0.0, "is_reserved": 0, "is_disabled": 0, "fusion_lat": 0.0, "type": "electric_bike", "name": "ac9a321a3673380c741191ff695f0d87", "lat": 38.99489666666667, "bike_id": "ac9a321a3673380c741191ff695f0d87"}, {"lon": -77.02555266666667, "rental_uris": {"android": "https://dc.lft.to/lastmile_qr_scan", "ios": "https://dc.lft.to/lastmile_qr_scan"}, "fusion_lon": 0.0, "is_reserved": 0, "is_disabled": 0, "fusion_lat": 0.0, "type": "electric_scooter", "name": "038925ecda4bf87fcfeaeab2e597f5df", "lat": 38.924691333333335, "bike_id": "038925ecda4bf87fcfeaeab2e597f5df"}, {"lon": -77.0279075, "rental_uris": {"android": "https://dc.lft.to/lastmile_qr_scan", "ios": "https://dc.lft.to/lastmile_qr_scan"}, "fusion_lon": 0.0, "is_reserved": 0, "is_disabled": 0, "fusion_lat": 0.0, "type": "electric_scooter", "name": "911f18eb670aa6bc10a5d80860add8d1", "lat": 38.89795133333333, "bike_id": "911f18eb670aa6bc10a5d80860add8d1"}, {"lon": -77.02653266666667, "rental_uris": {"android": "https://dc.lft.to/lastmile_qr_scan", "ios": "https://dc.lft.to/lastmile_qr_scan"}, "fusion_lon": 0.0, "is_reserved": 0, "is_disabled": 0, "fusion_lat": 0.0, "type": "electric_scooter", "name": "32501a6f200782f2c77cc7cf69b0fbcf", "lat": 38.921754166666666, "bike_id": "32501a6f200782f2c77cc7cf69b0fbcf"}, {"lon": -77.03247116666667, "rental_uris": {"android": "https://dc.lft.to/lastmile_qr_scan", "ios": "https://dc.lft.to/lastmile_qr_scan"}, "fusion_lon": 0.0, "is_reserved": 0, "is_disabled": 0, "fusion_lat": 0.0, "type": "electric_scooter", "name": "67d7fa3493504a145f80e7a2a48fe78e", "lat": 38.93125933333334, "bike_id": "67d7fa3493504a145f80e7a2a48fe78e"}, {"lon": -77.03677983333333, "rental_uris": {"android": "https://dc.lft.to/lastmile_qr_scan", "ios": "https://dc.lft.to/lastmile_qr_scan"}, "fusion_lon": 0.0, "is_reserved": 0, "is_disabled": 0, "fusion_lat": 0.0, "type": "electric_scooter", "name": "ba8face909c7c14652247ab9a1c43032", "lat": 38.916404, "bike_id": "ba8face909c7c14652247ab9a1c43032"}, {"lon": -77.04338, "rental_uris": {"android": "https://dc.lft.to/lastmile_qr_scan", "ios": "https://dc.lft.to/lastmile_qr_scan"}, "fusion_lon": 0.0, "is_reserved": 0, "is_disabled": 0, "fusion_lat": 0.0, "type": "electric_scooter", "name": "e75b2975e5b23676d7f6efa2e27a6bad", "lat": 38.91039933333333, "bike_id": "e75b2975e5b23676d7f6efa2e27a6bad"}, {"lon": -77.02187583333334, "rental_uris": {"android": "https://dc.lft.to/lastmile_qr_scan", "ios": "https://dc.lft.to/lastmile_qr_scan"}, "fusion_lon": 0.0, "is_reserved": 0, "is_disabled": 0, "fusion_lat": 0.0, "type": "electric_scooter", "name": "9b26572ea9e05c0954351520516c522b", "lat": 38.9147595, "bike_id": "9b26572ea9e05c0954351520516c522b"}, {"lon": -77.02418833333333, "rental_uris": {"android": "https://dc.lft.to/lastmile_qr_scan", "ios": "https://dc.lft.to/lastmile_qr_scan"}, "fusion_lon": 0.0, "is_reserved": 0, "is_disabled": 0, "fusion_lat": 0.0, "type": "electric_scooter", "name": "d13b38e590c2c8ef1966bd9840272f23", "lat": 38.892165166666665, "bike_id": "d13b38e590c2c8ef1966bd9840272f23"}, {"lon": -77.003874, "rental_uris": {"android": "https://dc.lft.to/lastmile_qr_scan", "ios": "https://dc.lft.to/lastmile_qr_scan"}, "fusion_lon": 0.0, "is_reserved": 0, "is_disabled": 0, "fusion_lat": 0.0, "type": "electric_scooter", "name": "bb421c498a402a66ee46e26642ed3c21", "lat": 38.87635516666667, "bike_id": "bb421c498a402a66ee46e26642ed3c21"}, {"lon": -77.00373733333333, "rental_uris": {"android": "https://dc.lft.to/lastmile_qr_scan", "ios": "https://dc.lft.to/lastmile_qr_scan"}, "fusion_lon": 0.0, "is_reserved": 0, "is_disabled": 0, "fusion_lat": 0.0, "type": "electric_scooter", "name": "146369860329f444dec3d5fda2d8c55c", "lat": 38.897266333333334, "bike_id": "146369860329f444dec3d5fda2d8c55c"}, {"lon": -77.029449, "rental_uris": {"android": "https://dc.lft.to/lastmile_qr_scan", "ios": "https://dc.lft.to/lastmile_qr_scan"}, "fusion_lon": 0.0, "is_reserved": 0, "is_disabled": 0, "fusion_lat": 0.0, "type": "electric_scooter", "name": "5d00fa158ea4ff541b06724cf0a7634d", "lat": 38.90648783333334, "bike_id": "5d00fa158ea4ff541b06724cf0a7634d"}, {"lon": -77.12987466666667, "rental_uris": {"android": "https://dc.lft.to/lastmile_qr_scan", "ios": "https://dc.lft.to/lastmile_qr_scan"}, "fusion_lon": 0.0, "is_reserved": 0, "is_disabled": 0, "fusion_lat": 0.0, "type": "electric_bike", "name": "83461dc40b8d7883d5fd8efbf0ee7749", "lat": 38.80759716666667, "bike_id": "83461dc40b8d7883d5fd8efbf0ee7749"}, {"lon": -76.93744033333333, "rental_uris": {"android": "https://dc.lft.to/lastmile_qr_scan", "ios": "https://dc.lft.to/lastmile_qr_scan"}, "fusion_lon": 0.0, "is_reserved": 0, "is_disabled": 0, "fusion_lat": 0.0, "type": "electric_scooter", "name": "401bdb71222b8d3e8cc8fa5188717707", "lat": 38.890064333333335, "bike_id": "401bdb71222b8d3e8cc8fa5188717707"}, {"lon": -77.02631366666667, "rental_uris": {"android": "https://dc.lft.to/lastmile_qr_scan", "ios": "https://dc.lft.to/lastmile_qr_scan"}, "fusion_lon": 0.0, "is_reserved": 0, "is_disabled": 0, "fusion_lat": 0.0, "type": "electric_scooter", "name": "2783d8c5bb8c9aca91e6dfb5cb482861", "lat": 38.896967, "bike_id": "2783d8c5bb8c9aca91e6dfb5cb482861"}, {"lon": -77.04540566666667, "rental_uris": {"android": "https://dc.lft.to/lastmile_qr_scan", "ios": "https://dc.lft.to/lastmile_qr_scan"}, "fusion_lon": 0.0, "is_reserved": 0, "is_disabled": 0, "fusion_lat": 0.0, "type": "electric_scooter", "name": "72c1978088ed81814abd0538af9ecd3a", "lat": 38.91112533333333, "bike_id": "72c1978088ed81814abd0538af9ecd3a"}, {"lon": -77.0381845, "rental_uris": {"android": "https://dc.lft.to/lastmile_qr_scan", "ios": "https://dc.lft.to/lastmile_qr_scan"}, "fusion_lon": 0.0, "is_reserved": 0, "is_disabled": 0, "fusion_lat": 0.0, "type": "electric_scooter", "name": "7b732847c8c58af7aa8217fa6927b83b", "lat": 38.92701116666667, "bike_id": "7b732847c8c58af7aa8217fa6927b83b"}, {"lon": -77.03424083333333, "rental_uris": {"android": "https://dc.lft.to/lastmile_qr_scan", "ios": "https://dc.lft.to/lastmile_qr_scan"}, "fusion_lon": 0.0, "is_reserved": 0, "is_disabled": 0, "fusion_lat": 0.0, "type": "electric_scooter", "name": "deec513fe5e15ee60de1e98728af61ac", "lat": 38.9042825, "bike_id": "deec513fe5e15ee60de1e98728af61ac"}, {"lon": -77.04430466666666, "rental_uris": {"android": "https://dc.lft.to/lastmile_qr_scan", "ios": "https://dc.lft.to/lastmile_qr_scan"}, "fusion_lon": 0.0, "is_reserved": 0, "is_disabled": 0, "fusion_lat": 0.0, "type": "electric_scooter", "name": "3a6bd83ecfafa92e8cc164ce100191a7", "lat": 38.921089, "bike_id": "3a6bd83ecfafa92e8cc164ce100191a7"}, {"lon": -77.0050435, "rental_uris": {"android": "https://dc.lft.to/lastmile_qr_scan", "ios": "https://dc.lft.to/lastmile_qr_scan"}, "fusion_lon": 0.0, "is_reserved": 0, "is_disabled": 0, "fusion_lat": 0.0, "type": "electric_scooter", "name": "1a06b87d7920079effe6424f81552447", "lat": 38.87526033333333, "bike_id": "1a06b87d7920079effe6424f81552447"}, {"lon": -77.09376883333333, "rental_uris": {"android": "https://dc.lft.to/lastmile_qr_scan", "ios": "https://dc.lft.to/lastmile_qr_scan"}, "fusion_lon": 0.0, "is_reserved": 0, "is_disabled": 0, "fusion_lat": 0.0, "type": "electric_bike", "name": "ef3e558fa54e0509ef6307d45f4b46dc", "lat": 38.860322333333336, "bike_id": "ef3e558fa54e0509ef6307d45f4b46dc"}, {"lon": -77.0037165, "rental_uris": {"android": "https://dc.lft.to/lastmile_qr_scan", "ios": "https://dc.lft.to/lastmile_qr_scan"}, "fusion_lon": 0.0, "is_reserved": 0, "is_disabled": 0, "fusion_lat": 0.0, "type": "electric_scooter", "name": "46ebfc907f906dd9a3b3ab1f47477aa2", "lat": 38.907885, "bike_id": "46ebfc907f906dd9a3b3ab1f47477aa2"}, {"lon": -76.94254916666667, "rental_uris": {"android": "https://dc.lft.to/lastmile_qr_scan", "ios": "https://dc.lft.to/lastmile_qr_scan"}, "fusion_lon": 0.0, "is_reserved": 0, "is_disabled": 0, "fusion_lat": 0.0, "type": "electric_scooter", "name": "28c9674ac0ee65c5b6c68d95adec8047", "lat": 38.89840516666667, "bike_id": "28c9674ac0ee65c5b6c68d95adec8047"}, {"lon": -77.02397616666667, "rental_uris": {"android": "https://dc.lft.to/lastmile_qr_scan", "ios": "https://dc.lft.to/lastmile_qr_scan"}, "fusion_lon": 0.0, "is_reserved": 0, "is_disabled": 0, "fusion_lat": 0.0, "type": "electric_scooter", "name": "f42129e45c31acf834e1c881d545d9d3", "lat": 38.90404433333333, "bike_id": "f42129e45c31acf834e1c881d545d9d3"}, {"lon": -77.0221655, "rental_uris": {"android": "https://dc.lft.to/lastmile_qr_scan", "ios": "https://dc.lft.to/lastmile_qr_scan"}, "fusion_lon": 0.0, "is_reserved": 0, "is_disabled": 0, "fusion_lat": 0.0, "type": "electric_scooter", "name": "5fb8d133ffc60fc45107641bfbed6d2d", "lat": 38.924718666666664, "bike_id": "5fb8d133ffc60fc45107641bfbed6d2d"}, {"lon": -77.0355085, "rental_uris": {"android": "https://dc.lft.to/lastmile_qr_scan", "ios": "https://dc.lft.to/lastmile_qr_scan"}, "fusion_lon": 0.0, "is_reserved": 0, "is_disabled": 0, "fusion_lat": 0.0, "type": "electric_scooter", "name": "e9391c17a2c80c97abc963910d3921b9", "lat": 38.908544166666665, "bike_id": "e9391c17a2c80c97abc963910d3921b9"}, {"lon": -76.9925895, "rental_uris": {"android": "https://dc.lft.to/lastmile_qr_scan", "ios": "https://dc.lft.to/lastmile_qr_scan"}, "fusion_lon": 0.0, "is_reserved": 0, "is_disabled": 0, "fusion_lat": 0.0, "type": "electric_scooter", "name": "796cb28871542ba7e379ccf940b7e5cb", "lat": 38.881713833333336, "bike_id": "796cb28871542ba7e379ccf940b7e5cb"}, {"lon": -77.051706, "rental_uris": {"android": "https://dc.lft.to/lastmile_qr_scan", "ios": "https://dc.lft.to/lastmile_qr_scan"}, "fusion_lon": 0.0, "is_reserved": 0, "is_disabled": 0, "fusion_lat": 0.0, "type": "electric_scooter", "name": "5d74c8d2f97673daef0b3a32e64636b9", "lat": 38.92409966666666, "bike_id": "5d74c8d2f97673daef0b3a32e64636b9"}, {"lon": -77.03758933333333, "rental_uris": {"android": "https://dc.lft.to/lastmile_qr_scan", "ios": "https://dc.lft.to/lastmile_qr_scan"}, "fusion_lon": 0.0, "is_reserved": 0, "is_disabled": 0, "fusion_lat": 0.0, "type": "electric_scooter", "name": "30d9bcc4fb3cbfa7c86f2f2dbd8624af", "lat": 38.92910333333333, "bike_id": "30d9bcc4fb3cbfa7c86f2f2dbd8624af"}, {"lon": -77.04199216666666, "rental_uris": {"android": "https://dc.lft.to/lastmile_qr_scan", "ios": "https://dc.lft.to/lastmile_qr_scan"}, "fusion_lon": 0.0, "is_reserved": 0, "is_disabled": 0, "fusion_lat": 0.0, "type": "electric_scooter", "name": "50782db7b816cef283a3fad1ecde8fce", "lat": 38.8922205, "bike_id": "50782db7b816cef283a3fad1ecde8fce"}, {"lon": -77.0363805, "rental_uris": {"android": "https://dc.lft.to/lastmile_qr_scan", "ios": "https://dc.lft.to/lastmile_qr_scan"}, "fusion_lon": 0.0, "is_reserved": 0, "is_disabled": 0, "fusion_lat": 0.0, "type": "electric_scooter", "name": "698353fcb0353912d82484c5c4c32ec8", "lat": 38.903690833333336, "bike_id": "698353fcb0353912d82484c5c4c32ec8"}, {"lon": -77.04157366666666, "rental_uris": {"android": "https://dc.lft.to/lastmile_qr_scan", "ios": "https://dc.lft.to/lastmile_qr_scan"}, "fusion_lon": 0.0, "is_reserved": 0, "is_disabled": 0, "fusion_lat": 0.0, "type": "electric_scooter", "name": "3886607641a9835bab01165220b1ec6c", "lat": 38.90703666666667, "bike_id": "3886607641a9835bab01165220b1ec6c"}, {"lon": -76.99616066666667, "rental_uris": {"android": "https://dc.lft.to/lastmile_qr_scan", "ios": "https://dc.lft.to/lastmile_qr_scan"}, "fusion_lon": 0.0, "is_reserved": 0, "is_disabled": 0, "fusion_lat": 0.0, "type": "electric_scooter", "name": "92cdc8160ea4e055b7c831d9f9f9e334", "lat": 38.89465416666667, "bike_id": "92cdc8160ea4e055b7c831d9f9f9e334"}, {"lon": -77.03503433333333, "rental_uris": {"android": "https://dc.lft.to/lastmile_qr_scan", "ios": "https://dc.lft.to/lastmile_qr_scan"}, "fusion_lon": 0.0, "is_reserved": 0, "is_disabled": 0, "fusion_lat": 0.0, "type": "electric_scooter", "name": "cd5c32d7a7a9f34a1e9a8fc9ef64f526", "lat": 38.92344933333333, "bike_id": "cd5c32d7a7a9f34a1e9a8fc9ef64f526"}, {"lon": -77.0575245, "rental_uris": {"android": "https://dc.lft.to/lastmile_qr_scan", "ios": "https://dc.lft.to/lastmile_qr_scan"}, "fusion_lon": 0.0, "is_reserved": 0, "is_disabled": 0, "fusion_lat": 0.0, "type": "electric_bike", "name": "2a921d88427be2b75b7959380beeba55", "lat": 38.924131833333334, "bike_id": "2a921d88427be2b75b7959380beeba55"}, {"lon": -77.00473933333333, "rental_uris": {"android": "https://dc.lft.to/lastmile_qr_scan", "ios": "https://dc.lft.to/lastmile_qr_scan"}, "fusion_lon": 0.0, "is_reserved": 0, "is_disabled": 0, "fusion_lat": 0.0, "type": "electric_bike", "name": "4e818b00ecfba0867d4b5abbf78c8963", "lat": 38.891502, "bike_id": "4e818b00ecfba0867d4b5abbf78c8963"}, {"lon": -77.07464966666667, "rental_uris": {"android": "https://dc.lft.to/lastmile_qr_scan", "ios": "https://dc.lft.to/lastmile_qr_scan"}, "fusion_lon": 0.0, "is_reserved": 0, "is_disabled": 0, "fusion_lat": 0.0, "type": "electric_scooter", "name": "5582f58e6321bb784a5dac3a00af32c6", "lat": 38.93562383333333, "bike_id": "5582f58e6321bb784a5dac3a00af32c6"}, {"lon": -77.009257, "rental_uris": {"android": "https://dc.lft.to/lastmile_qr_scan", "ios": "https://dc.lft.to/lastmile_qr_scan"}, "fusion_lon": 0.0, "is_reserved": 0, "is_disabled": 0, "fusion_lat": 0.0, "type": "electric_scooter", "name": "d50ddd28fb19b3612ade19c088fa3b12", "lat": 38.8993315, "bike_id": "d50ddd28fb19b3612ade19c088fa3b12"}, {"lon": -77.02395566666667, "rental_uris": {"android": "https://dc.lft.to/lastmile_qr_scan", "ios": "https://dc.lft.to/lastmile_qr_scan"}, "fusion_lon": 0.0, "is_reserved": 0, "is_disabled": 0, "fusion_lat": 0.0, "type": "electric_scooter", "name": "db908268d965cee1a4a8db877c9261af", "lat": 38.90176366666667, "bike_id": "db908268d965cee1a4a8db877c9261af"}, {"lon": -77.01767616666666, "rental_uris": {"android": "https://dc.lft.to/lastmile_qr_scan", "ios": "https://dc.lft.to/lastmile_qr_scan"}, "fusion_lon": 0.0, "is_reserved": 0, "is_disabled": 0, "fusion_lat": 0.0, "type": "electric_scooter", "name": "419a83c7b3f3f2e04c71b33813bbf2fb", "lat": 38.906323, "bike_id": "419a83c7b3f3f2e04c71b33813bbf2fb"}, {"lon": -77.00382783333333, "rental_uris": {"android": "https://dc.lft.to/lastmile_qr_scan", "ios": "https://dc.lft.to/lastmile_qr_scan"}, "fusion_lon": 0.0, "is_reserved": 0, "is_disabled": 0, "fusion_lat": 0.0, "type": "electric_bike", "name": "18f928b37d3f1ddc39baa058d49743f0", "lat": 38.83604066666667, "bike_id": "18f928b37d3f1ddc39baa058d49743f0"}, {"lon": -77.00732966666666, "rental_uris": {"android": "https://dc.lft.to/lastmile_qr_scan", "ios": "https://dc.lft.to/lastmile_qr_scan"}, "fusion_lon": 0.0, "is_reserved": 0, "is_disabled": 0, "fusion_lat": 0.0, "type": "electric_scooter", "name": "ed2a64ef93072a05fcfc32566d051445", "lat": 38.904615, "bike_id": "ed2a64ef93072a05fcfc32566d051445"}, {"lon": -76.98433766666666, "rental_uris": {"android": "https://dc.lft.to/lastmile_qr_scan", "ios": "https://dc.lft.to/lastmile_qr_scan"}, "fusion_lon": 0.0, "is_reserved": 0, "is_disabled": 0, "fusion_lat": 0.0, "type": "electric_scooter", "name": "e7b92471b64ca69074e4a356e4fd8d86", "lat": 38.93274616666667, "bike_id": "e7b92471b64ca69074e4a356e4fd8d86"}, {"lon": -77.01998233333333, "rental_uris": {"android": "https://dc.lft.to/lastmile_qr_scan", "ios": "https://dc.lft.to/lastmile_qr_scan"}, "fusion_lon": 0.0, "is_reserved": 0, "is_disabled": 0, "fusion_lat": 0.0, "type": "electric_scooter", "name": "82d76bbc5f66a9f0ea582a885669e849", "lat": 38.9149265, "bike_id": "82d76bbc5f66a9f0ea582a885669e849"}, {"lon": -77.05263, "rental_uris": {"android": "https://dc.lft.to/lastmile_qr_scan", "ios": "https://dc.lft.to/lastmile_qr_scan"}, "fusion_lon": 0.0, "is_reserved": 0, "is_disabled": 0, "fusion_lat": 0.0, "type": "electric_scooter", "name": "da06ebab1f240239c5bf7f300db35c28", "lat": 38.927593, "bike_id": "da06ebab1f240239c5bf7f300db35c28"}, {"lon": -76.98509083333333, "rental_uris": {"android": "https://dc.lft.to/lastmile_qr_scan", "ios": "https://dc.lft.to/lastmile_qr_scan"}, "fusion_lon": 0.0, "is_reserved": 0, "is_disabled": 0, "fusion_lat": 0.0, "type": "electric_bike", "name": "ccb42cbbda0784446c17d828750c878f", "lat": 38.87936416666667, "bike_id": "ccb42cbbda0784446c17d828750c878f"}, {"lon": -76.93173433333334, "rental_uris": {"android": "https://dc.lft.to/lastmile_qr_scan", "ios": "https://dc.lft.to/lastmile_qr_scan"}, "fusion_lon": 0.0, "is_reserved": 0, "is_disabled": 0, "fusion_lat": 0.0, "type": "electric_scooter", "name": "42e8129375eaf64ed498787b5cdb1b76", "lat": 38.898849166666665, "bike_id": "42e8129375eaf64ed498787b5cdb1b76"}, {"lon": -77.0215605, "rental_uris": {"android": "https://dc.lft.to/lastmile_qr_scan", "ios": "https://dc.lft.to/lastmile_qr_scan"}, "fusion_lon": 0.0, "is_reserved": 0, "is_disabled": 0, "fusion_lat": 0.0, "type": "electric_scooter", "name": "223b87677bfcb39a15136219a453be47", "lat": 38.92602483333334, "bike_id": "223b87677bfcb39a15136219a453be47"}, {"lon": -77.03213366666667, "rental_uris": {"android": "https://dc.lft.to/lastmile_qr_scan", "ios": "https://dc.lft.to/lastmile_qr_scan"}, "fusion_lon": 0.0, "is_reserved": 0, "is_disabled": 0, "fusion_lat": 0.0, "type": "electric_scooter", "name": "ba92b30e9f4176734c0613cea3178b73", "lat": 38.916172833333334, "bike_id": "ba92b30e9f4176734c0613cea3178b73"}, {"lon": -77.02803683333333, "rental_uris": {"android": "https://dc.lft.to/lastmile_qr_scan", "ios": "https://dc.lft.to/lastmile_qr_scan"}, "fusion_lon": 0.0, "is_reserved": 0, "is_disabled": 0, "fusion_lat": 0.0, "type": "electric_scooter", "name": "9b2b418c5e9f40c32899c7e8183a4b42", "lat": 38.94449616666667, "bike_id": "9b2b418c5e9f40c32899c7e8183a4b42"}, {"lon": -77.04237633333334, "rental_uris": {"android": "https://dc.lft.to/lastmile_qr_scan", "ios": "https://dc.lft.to/lastmile_qr_scan"}, "fusion_lon": 0.0, "is_reserved": 0, "is_disabled": 0, "fusion_lat": 0.0, "type": "electric_scooter", "name": "e40b52a59d719c500215f24c477221ca", "lat": 38.92186866666667, "bike_id": "e40b52a59d719c500215f24c477221ca"}, {"lon": -77.02378683333333, "rental_uris": {"android": "https://dc.lft.to/lastmile_qr_scan", "ios": "https://dc.lft.to/lastmile_qr_scan"}, "fusion_lon": 0.0, "is_reserved": 0, "is_disabled": 0, "fusion_lat": 0.0, "type": "electric_scooter", "name": "385aae48d6fdcc97fc2788943ba2f716", "lat": 38.8919065, "bike_id": "385aae48d6fdcc97fc2788943ba2f716"}, {"lon": -77.01894266666666, "rental_uris": {"android": "https://dc.lft.to/lastmile_qr_scan", "ios": "https://dc.lft.to/lastmile_qr_scan"}, "fusion_lon": 0.0, "is_reserved": 0, "is_disabled": 0, "fusion_lat": 0.0, "type": "electric_scooter", "name": "5845fc6388ff529585736f35fc4ad9db", "lat": 38.9226195, "bike_id": "5845fc6388ff529585736f35fc4ad9db"}, {"lon": -77.02158316666667, "rental_uris": {"android": "https://dc.lft.to/lastmile_qr_scan", "ios": "https://dc.lft.to/lastmile_qr_scan"}, "fusion_lon": 0.0, "is_reserved": 0, "is_disabled": 0, "fusion_lat": 0.0, "type": "electric_scooter", "name": "fa2a75a94eef3d6ec7bf7bdf7d198e7a", "lat": 38.9245055, "bike_id": "fa2a75a94eef3d6ec7bf7bdf7d198e7a"}, {"lon": -77.01904266666666, "rental_uris": {"android": "https://dc.lft.to/lastmile_qr_scan", "ios": "https://dc.lft.to/lastmile_qr_scan"}, "fusion_lon": 0.0, "is_reserved": 0, "is_disabled": 0, "fusion_lat": 0.0, "type": "electric_scooter", "name": "a44a9d946ca8bbd131ae36f4b4770f1c", "lat": 38.901391333333336, "bike_id": "a44a9d946ca8bbd131ae36f4b4770f1c"}, {"lon": -77.036587, "rental_uris": {"android": "https://dc.lft.to/lastmile_qr_scan", "ios": "https://dc.lft.to/lastmile_qr_scan"}, "fusion_lon": 0.0, "is_reserved": 0, "is_disabled": 0, "fusion_lat": 0.0, "type": "electric_scooter", "name": "594e5847eff5f36ae5bed8cc454f8114", "lat": 38.93201466666667, "bike_id": "594e5847eff5f36ae5bed8cc454f8114"}, {"lon": -77.0014955, "rental_uris": {"android": "https://dc.lft.to/lastmile_qr_scan", "ios": "https://dc.lft.to/lastmile_qr_scan"}, "fusion_lon": 0.0, "is_reserved": 0, "is_disabled": 0, "fusion_lat": 0.0, "type": "electric_scooter", "name": "76a1751dd10eafba7ce91a981869938d", "lat": 38.910709833333335, "bike_id": "76a1751dd10eafba7ce91a981869938d"}, {"lon": -77.0124035, "rental_uris": {"android": "https://dc.lft.to/lastmile_qr_scan", "ios": "https://dc.lft.to/lastmile_qr_scan"}, "fusion_lon": 0.0, "is_reserved": 0, "is_disabled": 0, "fusion_lat": 0.0, "type": "electric_scooter", "name": "6a14bb1a0b8951b0741c2163315392af", "lat": 38.89845733333333, "bike_id": "6a14bb1a0b8951b0741c2163315392af"}, {"lon": -77.023709, "rental_uris": {"android": "https://dc.lft.to/lastmile_qr_scan", "ios": "https://dc.lft.to/lastmile_qr_scan"}, "fusion_lon": 0.0, "is_reserved": 0, "is_disabled": 0, "fusion_lat": 0.0, "type": "electric_scooter", "name": "a66f582a264c727062109342fe362da4", "lat": 38.89213766666667, "bike_id": "a66f582a264c727062109342fe362da4"}, {"lon": -77.03832883333334, "rental_uris": {"android": "https://dc.lft.to/lastmile_qr_scan", "ios": "https://dc.lft.to/lastmile_qr_scan"}, "fusion_lon": 0.0, "is_reserved": 0, "is_disabled": 0, "fusion_lat": 0.0, "type": "electric_scooter", "name": "733bb296059de95871d18787ceb5ec46", "lat": 38.94501533333333, "bike_id": "733bb296059de95871d18787ceb5ec46"}, {"lon": -77.0321755, "rental_uris": {"android": "https://dc.lft.to/lastmile_qr_scan", "ios": "https://dc.lft.to/lastmile_qr_scan"}, "fusion_lon": 0.0, "is_reserved": 0, "is_disabled": 0, "fusion_lat": 0.0, "type": "electric_scooter", "name": "a09afb117a2f758015e0ada5b80d31f2", "lat": 38.91805133333333, "bike_id": "a09afb117a2f758015e0ada5b80d31f2"}, {"lon": -77.05029183333333, "rental_uris": {"android": "https://dc.lft.to/lastmile_qr_scan", "ios": "https://dc.lft.to/lastmile_qr_scan"}, "fusion_lon": 0.0, "is_reserved": 0, "is_disabled": 0, "fusion_lat": 0.0, "type": "electric_scooter", "name": "b006cb680c394af146e9637e27984814", "lat": 38.905987333333336, "bike_id": "b006cb680c394af146e9637e27984814"}, {"lon": -77.0279005, "rental_uris": {"android": "https://dc.lft.to/lastmile_qr_scan", "ios": "https://dc.lft.to/lastmile_qr_scan"}, "fusion_lon": 0.0, "is_reserved": 0, "is_disabled": 0, "fusion_lat": 0.0, "type": "electric_scooter", "name": "aba512077c7c91249bafeb687ad3739a", "lat": 38.97340966666667, "bike_id": "aba512077c7c91249bafeb687ad3739a"}, {"lon": -76.98725316666666, "rental_uris": {"android": "https://dc.lft.to/lastmile_qr_scan", "ios": "https://dc.lft.to/lastmile_qr_scan"}, "fusion_lon": 0.0, "is_reserved": 0, "is_disabled": 0, "fusion_lat": 0.0, "type": "electric_scooter", "name": "d48d8f983f45313057ce75888e693082", "lat": 38.903505, "bike_id": "d48d8f983f45313057ce75888e693082"}, {"lon": -77.0237435, "rental_uris": {"android": "https://dc.lft.to/lastmile_qr_scan", "ios": "https://dc.lft.to/lastmile_qr_scan"}, "fusion_lon": 0.0, "is_reserved": 0, "is_disabled": 0, "fusion_lat": 0.0, "type": "electric_scooter", "name": "ba381705be984b79c197c5a09e820cfa", "lat": 38.90196866666667, "bike_id": "ba381705be984b79c197c5a09e820cfa"}, {"lon": -77.0383855, "rental_uris": {"android": "https://dc.lft.to/lastmile_qr_scan", "ios": "https://dc.lft.to/lastmile_qr_scan"}, "fusion_lon": 0.0, "is_reserved": 0, "is_disabled": 0, "fusion_lat": 0.0, "type": "electric_scooter", "name": "d27363815bc78ce035385e97c875ab8f", "lat": 38.902649333333336, "bike_id": "d27363815bc78ce035385e97c875ab8f"}, {"lon": -77.0196445, "rental_uris": {"android": "https://dc.lft.to/lastmile_qr_scan", "ios": "https://dc.lft.to/lastmile_qr_scan"}, "fusion_lon": 0.0, "is_reserved": 0, "is_disabled": 0, "fusion_lat": 0.0, "type": "electric_scooter", "name": "524048e5d4a7018f6d041c7fc4ab60bd", "lat": 38.91896216666667, "bike_id": "524048e5d4a7018f6d041c7fc4ab60bd"}, {"lon": -77.06984383333334, "rental_uris": {"android": "https://dc.lft.to/lastmile_qr_scan", "ios": "https://dc.lft.to/lastmile_qr_scan"}, "fusion_lon": 0.0, "is_reserved": 0, "is_disabled": 0, "fusion_lat": 0.0, "type": "electric_scooter", "name": "1b18a1291fd1207874d1e81b1db3e4b1", "lat": 38.9552415, "bike_id": "1b18a1291fd1207874d1e81b1db3e4b1"}, {"lon": -76.98336666666667, "rental_uris": {"android": "https://dc.lft.to/lastmile_qr_scan", "ios": "https://dc.lft.to/lastmile_qr_scan"}, "fusion_lon": 0.0, "is_reserved": 0, "is_disabled": 0, "fusion_lat": 0.0, "type": "electric_scooter", "name": "feb209ff03a742e6947e2cf1a7c69ed0", "lat": 38.89538683333333, "bike_id": "feb209ff03a742e6947e2cf1a7c69ed0"}, {"lon": -77.03054183333333, "rental_uris": {"android": "https://dc.lft.to/lastmile_qr_scan", "ios": "https://dc.lft.to/lastmile_qr_scan"}, "fusion_lon": 0.0, "is_reserved": 0, "is_disabled": 0, "fusion_lat": 0.0, "type": "electric_bike", "name": "0bb5242e7ca74f1b02d6557c562faca0", "lat": 38.95951183333333, "bike_id": "0bb5242e7ca74f1b02d6557c562faca0"}, {"lon": -76.95752416666667, "rental_uris": {"android": "https://dc.lft.to/lastmile_qr_scan", "ios": "https://dc.lft.to/lastmile_qr_scan"}, "fusion_lon": 0.0, "is_reserved": 0, "is_disabled": 0, "fusion_lat": 0.0, "type": "electric_scooter", "name": "f4fa84321cc77f3fc5bf03bcd14f8523", "lat": 38.8842545, "bike_id": "f4fa84321cc77f3fc5bf03bcd14f8523"}, {"lon": -77.02428133333333, "rental_uris": {"android": "https://dc.lft.to/lastmile_qr_scan", "ios": "https://dc.lft.to/lastmile_qr_scan"}, "fusion_lon": 0.0, "is_reserved": 0, "is_disabled": 0, "fusion_lat": 0.0, "type": "electric_scooter", "name": "e032ce1be298a20ce42b885efb2295f8", "lat": 38.967963, "bike_id": "e032ce1be298a20ce42b885efb2295f8"}, {"lon": -76.996562, "rental_uris": {"android": "https://dc.lft.to/lastmile_qr_scan", "ios": "https://dc.lft.to/lastmile_qr_scan"}, "fusion_lon": 0.0, "is_reserved": 0, "is_disabled": 0, "fusion_lat": 0.0, "type": "electric_bike", "name": "b5f141614b69d642c0139db795529567", "lat": 38.838325166666664, "bike_id": "b5f141614b69d642c0139db795529567"}, {"lon": -76.93427683333333, "rental_uris": {"android": "https://dc.lft.to/lastmile_qr_scan", "ios": "https://dc.lft.to/lastmile_qr_scan"}, "fusion_lon": 0.0, "is_reserved": 0, "is_disabled": 0, "fusion_lat": 0.0, "type": "electric_scooter", "name": "ffa628655395003a8297ac497aa97cc6", "lat": 38.893367166666664, "bike_id": "ffa628655395003a8297ac497aa97cc6"}, {"lon": -76.98249333333334, "rental_uris": {"android": "https://dc.lft.to/lastmile_qr_scan", "ios": "https://dc.lft.to/lastmile_qr_scan"}, "fusion_lon": 0.0, "is_reserved": 0, "is_disabled": 0, "fusion_lat": 0.0, "type": "electric_bike", "name": "7d3a2e28b14f05617a26b9ee3d8d0c56", "lat": 38.95322783333334, "bike_id": "7d3a2e28b14f05617a26b9ee3d8d0c56"}, {"lon": -77.03180316666666, "rental_uris": {"android": "https://dc.lft.to/lastmile_qr_scan", "ios": "https://dc.lft.to/lastmile_qr_scan"}, "fusion_lon": 0.0, "is_reserved": 0, "is_disabled": 0, "fusion_lat": 0.0, "type": "electric_scooter", "name": "2dc3457a6c895129273f680a900d2bfa", "lat": 38.884080166666664, "bike_id": "2dc3457a6c895129273f680a900d2bfa"}, {"lon": -77.02498066666666, "rental_uris": {"android": "https://dc.lft.to/lastmile_qr_scan", "ios": "https://dc.lft.to/lastmile_qr_scan"}, "fusion_lon": 0.0, "is_reserved": 0, "is_disabled": 0, "fusion_lat": 0.0, "type": "electric_scooter", "name": "4deb7233663f0d34d243e43532b713c6", "lat": 38.930400666666664, "bike_id": "4deb7233663f0d34d243e43532b713c6"}, {"lon": -77.04396816666667, "rental_uris": {"android": "https://dc.lft.to/lastmile_qr_scan", "ios": "https://dc.lft.to/lastmile_qr_scan"}, "fusion_lon": 0.0, "is_reserved": 0, "is_disabled": 0, "fusion_lat": 0.0, "type": "electric_scooter", "name": "a1ba39cecdf754ad6106b6b3e5e2dd34", "lat": 38.89750133333333, "bike_id": "a1ba39cecdf754ad6106b6b3e5e2dd34"}, {"lon": -77.04819316666666, "rental_uris": {"android": "https://dc.lft.to/lastmile_qr_scan", "ios": "https://dc.lft.to/lastmile_qr_scan"}, "fusion_lon": 0.0, "is_reserved": 0, "is_disabled": 0, "fusion_lat": 0.0, "type": "electric_scooter", "name": "3c785e4d693dc860feba11b48d866ae5", "lat": 38.905128500000004, "bike_id": "3c785e4d693dc860feba11b48d866ae5"}, {"lon": -77.0333935, "rental_uris": {"android": "https://dc.lft.to/lastmile_qr_scan", "ios": "https://dc.lft.to/lastmile_qr_scan"}, "fusion_lon": 0.0, "is_reserved": 0, "is_disabled": 0, "fusion_lat": 0.0, "type": "electric_scooter", "name": "76c6c3a2656695385c7aad6892b7db58", "lat": 38.89218016666667, "bike_id": "76c6c3a2656695385c7aad6892b7db58"}, {"lon": -77.0194445, "rental_uris": {"android": "https://dc.lft.to/lastmile_qr_scan", "ios": "https://dc.lft.to/lastmile_qr_scan"}, "fusion_lon": 0.0, "is_reserved": 0, "is_disabled": 0, "fusion_lat": 0.0, "type": "electric_scooter", "name": "ad6b72cdf9ad9fb34117fb1848dc7ee4", "lat": 38.924161833333336, "bike_id": "ad6b72cdf9ad9fb34117fb1848dc7ee4"}, {"lon": -77.052632, "rental_uris": {"android": "https://dc.lft.to/lastmile_qr_scan", "ios": "https://dc.lft.to/lastmile_qr_scan"}, "fusion_lon": 0.0, "is_reserved": 0, "is_disabled": 0, "fusion_lat": 0.0, "type": "electric_bike", "name": "aa91eb1a946052da0a96b7f85643f54b", "lat": 38.961612, "bike_id": "aa91eb1a946052da0a96b7f85643f54b"}, {"lon": -77.01216516666666, "rental_uris": {"android": "https://dc.lft.to/lastmile_qr_scan", "ios": "https://dc.lft.to/lastmile_qr_scan"}, "fusion_lon": 0.0, "is_reserved": 0, "is_disabled": 0, "fusion_lat": 0.0, "type": "electric_scooter", "name": "7ef5b8daa17b4e1f24e377a623eae6ae", "lat": 38.920248, "bike_id": "7ef5b8daa17b4e1f24e377a623eae6ae"}, {"lon": -77.00197116666666, "rental_uris": {"android": "https://dc.lft.to/lastmile_qr_scan", "ios": "https://dc.lft.to/lastmile_qr_scan"}, "fusion_lon": 0.0, "is_reserved": 0, "is_disabled": 0, "fusion_lat": 0.0, "type": "electric_scooter", "name": "bbc437ee41c0e7af440502ea99c11166", "lat": 38.911639, "bike_id": "bbc437ee41c0e7af440502ea99c11166"}, {"lon": -77.00741316666667, "rental_uris": {"android": "https://dc.lft.to/lastmile_qr_scan", "ios": "https://dc.lft.to/lastmile_qr_scan"}, "fusion_lon": 0.0, "is_reserved": 0, "is_disabled": 0, "fusion_lat": 0.0, "type": "electric_scooter", "name": "c14c0ccee0ab0ccda5315123a117ccc0", "lat": 38.878401833333335, "bike_id": "c14c0ccee0ab0ccda5315123a117ccc0"}, {"lon": -77.00062583333333, "rental_uris": {"android": "https://dc.lft.to/lastmile_qr_scan", "ios": "https://dc.lft.to/lastmile_qr_scan"}, "fusion_lon": 0.0, "is_reserved": 0, "is_disabled": 0, "fusion_lat": 0.0, "type": "electric_scooter", "name": "32253438116020d6381ea26c5b92920d", "lat": 38.87689816666666, "bike_id": "32253438116020d6381ea26c5b92920d"}, {"lon": -77.039924, "rental_uris": {"android": "https://dc.lft.to/lastmile_qr_scan", "ios": "https://dc.lft.to/lastmile_qr_scan"}, "fusion_lon": 0.0, "is_reserved": 0, "is_disabled": 0, "fusion_lat": 0.0, "type": "electric_scooter", "name": "1db55e4dcc9cd45a2efa21578b802020", "lat": 38.934281, "bike_id": "1db55e4dcc9cd45a2efa21578b802020"}, {"lon": -77.07286383333333, "rental_uris": {"android": "https://dc.lft.to/lastmile_qr_scan", "ios": "https://dc.lft.to/lastmile_qr_scan"}, "fusion_lon": 0.0, "is_reserved": 0, "is_disabled": 0, "fusion_lat": 0.0, "type": "electric_scooter", "name": "a71d04ffec0b357486eec63a3c7bc684", "lat": 38.90575833333333, "bike_id": "a71d04ffec0b357486eec63a3c7bc684"}, {"lon": -77.06523833333334, "rental_uris": {"android": "https://dc.lft.to/lastmile_qr_scan", "ios": "https://dc.lft.to/lastmile_qr_scan"}, "fusion_lon": 0.0, "is_reserved": 0, "is_disabled": 0, "fusion_lat": 0.0, "type": "electric_scooter", "name": "c08fa8a8cfd854cbd9681d801c354035", "lat": 38.92409133333334, "bike_id": "c08fa8a8cfd854cbd9681d801c354035"}, {"lon": -77.0316625, "rental_uris": {"android": "https://dc.lft.to/lastmile_qr_scan", "ios": "https://dc.lft.to/lastmile_qr_scan"}, "fusion_lon": 0.0, "is_reserved": 0, "is_disabled": 0, "fusion_lat": 0.0, "type": "electric_scooter", "name": "448cc1913aa4a2f896647c68a21e6288", "lat": 38.89214183333333, "bike_id": "448cc1913aa4a2f896647c68a21e6288"}, {"lon": -77.022535, "rental_uris": {"android": "https://dc.lft.to/lastmile_qr_scan", "ios": "https://dc.lft.to/lastmile_qr_scan"}, "fusion_lon": 0.0, "is_reserved": 0, "is_disabled": 0, "fusion_lat": 0.0, "type": "electric_scooter", "name": "a950e1db7e69308b41c297fc19914ccd", "lat": 38.92884733333333, "bike_id": "a950e1db7e69308b41c297fc19914ccd"}, {"lon": -77.03646233333333, "rental_uris": {"android": "https://dc.lft.to/lastmile_qr_scan", "ios": "https://dc.lft.to/lastmile_qr_scan"}, "fusion_lon": 0.0, "is_reserved": 0, "is_disabled": 0, "fusion_lat": 0.0, "type": "electric_scooter", "name": "4710d4e07199075f164d0cf18bde3d74", "lat": 38.91308133333333, "bike_id": "4710d4e07199075f164d0cf18bde3d74"}, {"lon": -77.031409, "rental_uris": {"android": "https://dc.lft.to/lastmile_qr_scan", "ios": "https://dc.lft.to/lastmile_qr_scan"}, "fusion_lon": 0.0, "is_reserved": 0, "is_disabled": 0, "fusion_lat": 0.0, "type": "electric_scooter", "name": "b6e4e0a3760dac63d2fb42f006f59e8c", "lat": 38.902524666666665, "bike_id": "b6e4e0a3760dac63d2fb42f006f59e8c"}, {"lon": -76.97526383333333, "rental_uris": {"android": "https://dc.lft.to/lastmile_qr_scan", "ios": "https://dc.lft.to/lastmile_qr_scan"}, "fusion_lon": 0.0, "is_reserved": 0, "is_disabled": 0, "fusion_lat": 0.0, "type": "electric_bike", "name": "9fbfc77fecb711067f5ba99268de1c49", "lat": 38.84000983333333, "bike_id": "9fbfc77fecb711067f5ba99268de1c49"}, {"lon": -77.02697166666667, "rental_uris": {"android": "https://dc.lft.to/lastmile_qr_scan", "ios": "https://dc.lft.to/lastmile_qr_scan"}, "fusion_lon": 0.0, "is_reserved": 0, "is_disabled": 0, "fusion_lat": 0.0, "type": "electric_scooter", "name": "db16ae9970ae972254ab497e1128606c", "lat": 38.923927166666665, "bike_id": "db16ae9970ae972254ab497e1128606c"}, {"lon": -77.0218575, "rental_uris": {"android": "https://dc.lft.to/lastmile_qr_scan", "ios": "https://dc.lft.to/lastmile_qr_scan"}, "fusion_lon": 0.0, "is_reserved": 0, "is_disabled": 0, "fusion_lat": 0.0, "type": "electric_bike", "name": "330b5050a486f95d7b408747830d4922", "lat": 39.00480733333333, "bike_id": "330b5050a486f95d7b408747830d4922"}, {"lon": -77.0403565, "rental_uris": {"android": "https://dc.lft.to/lastmile_qr_scan", "ios": "https://dc.lft.to/lastmile_qr_scan"}, "fusion_lon": 0.0, "is_reserved": 0, "is_disabled": 0, "fusion_lat": 0.0, "type": "electric_scooter", "name": "2435b89a5fbe5c408127696b2f3ce30f", "lat": 38.90137083333333, "bike_id": "2435b89a5fbe5c408127696b2f3ce30f"}, {"lon": -77.051194, "rental_uris": {"android": "https://dc.lft.to/lastmile_qr_scan", "ios": "https://dc.lft.to/lastmile_qr_scan"}, "fusion_lon": 0.0, "is_reserved": 0, "is_disabled": 0, "fusion_lat": 0.0, "type": "electric_scooter", "name": "def29dc633dd2fd6779255272d8cfb8a", "lat": 38.90645633333333, "bike_id": "def29dc633dd2fd6779255272d8cfb8a"}, {"lon": -77.04679166666666, "rental_uris": {"android": "https://dc.lft.to/lastmile_qr_scan", "ios": "https://dc.lft.to/lastmile_qr_scan"}, "fusion_lon": 0.0, "is_reserved": 0, "is_disabled": 0, "fusion_lat": 0.0, "type": "electric_scooter", "name": "06630c5cd4ede2556f19e11b13fd8e4b", "lat": 38.8950145, "bike_id": "06630c5cd4ede2556f19e11b13fd8e4b"}, {"lon": -76.96506316666667, "rental_uris": {"android": "https://dc.lft.to/lastmile_qr_scan", "ios": "https://dc.lft.to/lastmile_qr_scan"}, "fusion_lon": 0.0, "is_reserved": 0, "is_disabled": 0, "fusion_lat": 0.0, "type": "electric_scooter", "name": "fc9fb5624adf62611a106026097689d2", "lat": 38.876501833333336, "bike_id": "fc9fb5624adf62611a106026097689d2"}, {"lon": -77.037951, "rental_uris": {"android": "https://dc.lft.to/lastmile_qr_scan", "ios": "https://dc.lft.to/lastmile_qr_scan"}, "fusion_lon": 0.0, "is_reserved": 0, "is_disabled": 0, "fusion_lat": 0.0, "type": "electric_scooter", "name": "17ad70429be8e736fd3fa5302d29c70e", "lat": 38.906509166666666, "bike_id": "17ad70429be8e736fd3fa5302d29c70e"}, {"lon": -77.03649166666666, "rental_uris": {"android": "https://dc.lft.to/lastmile_qr_scan", "ios": "https://dc.lft.to/lastmile_qr_scan"}, "fusion_lon": 0.0, "is_reserved": 0, "is_disabled": 0, "fusion_lat": 0.0, "type": "electric_scooter", "name": "e6083eb74d6c0e4aa7bdf5d37d4a871f", "lat": 38.92371166666667, "bike_id": "e6083eb74d6c0e4aa7bdf5d37d4a871f"}, {"lon": -77.00220283333333, "rental_uris": {"android": "https://dc.lft.to/lastmile_qr_scan", "ios": "https://dc.lft.to/lastmile_qr_scan"}, "fusion_lon": 0.0, "is_reserved": 0, "is_disabled": 0, "fusion_lat": 0.0, "type": "electric_scooter", "name": "50d33205f4ee46a2fcc3cd8990e84487", "lat": 38.90009, "bike_id": "50d33205f4ee46a2fcc3cd8990e84487"}, {"lon": -77.03652233333334, "rental_uris": {"android": "https://dc.lft.to/lastmile_qr_scan", "ios": "https://dc.lft.to/lastmile_qr_scan"}, "fusion_lon": 0.0, "is_reserved": 0, "is_disabled": 0, "fusion_lat": 0.0, "type": "electric_scooter", "name": "270c44879e54f263f48e14febb7668e4", "lat": 38.9070175, "bike_id": "270c44879e54f263f48e14febb7668e4"}, {"lon": -77.02633216666666, "rental_uris": {"android": "https://dc.lft.to/lastmile_qr_scan", "ios": "https://dc.lft.to/lastmile_qr_scan"}, "fusion_lon": 0.0, "is_reserved": 0, "is_disabled": 0, "fusion_lat": 0.0, "type": "electric_scooter", "name": "f7bca97cec45937b68bb199823b9fbea", "lat": 38.9409195, "bike_id": "f7bca97cec45937b68bb199823b9fbea"}, {"lon": -77.00741216666667, "rental_uris": {"android": "https://dc.lft.to/lastmile_qr_scan", "ios": "https://dc.lft.to/lastmile_qr_scan"}, "fusion_lon": 0.0, "is_reserved": 0, "is_disabled": 0, "fusion_lat": 0.0, "type": "electric_scooter", "name": "af7c5243e9b2aba41b5aafc95bd3df2c", "lat": 38.8982705, "bike_id": "af7c5243e9b2aba41b5aafc95bd3df2c"}, {"lon": -77.0216625, "rental_uris": {"android": "https://dc.lft.to/lastmile_qr_scan", "ios": "https://dc.lft.to/lastmile_qr_scan"}, "fusion_lon": 0.0, "is_reserved": 0, "is_disabled": 0, "fusion_lat": 0.0, "type": "electric_scooter", "name": "cf8550dc2ca8cf037c7722b0df294812", "lat": 38.926122166666666, "bike_id": "cf8550dc2ca8cf037c7722b0df294812"}, {"lon": -77.02372916666667, "rental_uris": {"android": "https://dc.lft.to/lastmile_qr_scan", "ios": "https://dc.lft.to/lastmile_qr_scan"}, "fusion_lon": 0.0, "is_reserved": 0, "is_disabled": 0, "fusion_lat": 0.0, "type": "electric_scooter", "name": "8b8e4ad3d58ce8ce1b6e2a518e8005a8", "lat": 38.89211983333333, "bike_id": "8b8e4ad3d58ce8ce1b6e2a518e8005a8"}, {"lon": -77.06810633333333, "rental_uris": {"android": "https://dc.lft.to/lastmile_qr_scan", "ios": "https://dc.lft.to/lastmile_qr_scan"}, "fusion_lon": 0.0, "is_reserved": 0, "is_disabled": 0, "fusion_lat": 0.0, "type": "electric_scooter", "name": "f640f9579553f780397cc30eb038c768", "lat": 38.90396616666666, "bike_id": "f640f9579553f780397cc30eb038c768"}, {"lon": -77.0240105, "rental_uris": {"android": "https://dc.lft.to/lastmile_qr_scan", "ios": "https://dc.lft.to/lastmile_qr_scan"}, "fusion_lon": 0.0, "is_reserved": 0, "is_disabled": 0, "fusion_lat": 0.0, "type": "electric_scooter", "name": "701fbf715bec02264b771bd20b609c8a", "lat": 38.90181833333333, "bike_id": "701fbf715bec02264b771bd20b609c8a"}, {"lon": -77.07137, "rental_uris": {"android": "https://dc.lft.to/lastmile_qr_scan", "ios": "https://dc.lft.to/lastmile_qr_scan"}, "fusion_lon": 0.0, "is_reserved": 0, "is_disabled": 0, "fusion_lat": 0.0, "type": "electric_scooter", "name": "ffb1f27b6ce3e66ac07a29d691c4e230", "lat": 38.92028883333333, "bike_id": "ffb1f27b6ce3e66ac07a29d691c4e230"}, {"lon": -77.0103365, "rental_uris": {"android": "https://dc.lft.to/lastmile_qr_scan", "ios": "https://dc.lft.to/lastmile_qr_scan"}, "fusion_lon": 0.0, "is_reserved": 0, "is_disabled": 0, "fusion_lat": 0.0, "type": "electric_scooter", "name": "4553dda9c012cd54d249c0baf393fda1", "lat": 38.92025266666667, "bike_id": "4553dda9c012cd54d249c0baf393fda1"}, {"lon": -77.01221116666666, "rental_uris": {"android": "https://dc.lft.to/lastmile_qr_scan", "ios": "https://dc.lft.to/lastmile_qr_scan"}, "fusion_lon": 0.0, "is_reserved": 0, "is_disabled": 0, "fusion_lat": 0.0, "type": "electric_scooter", "name": "774140c7acefd7a6cc5c33d212995a99", "lat": 38.900344, "bike_id": "774140c7acefd7a6cc5c33d212995a99"}, {"lon": -76.9528425, "rental_uris": {"android": "https://dc.lft.to/lastmile_qr_scan", "ios": "https://dc.lft.to/lastmile_qr_scan"}, "fusion_lon": 0.0, "is_reserved": 0, "is_disabled": 0, "fusion_lat": 0.0, "type": "electric_scooter", "name": "f647868a98889454ff0a8595d9048e39", "lat": 38.885086, "bike_id": "f647868a98889454ff0a8595d9048e39"}, {"lon": -76.994979, "rental_uris": {"android": "https://dc.lft.to/lastmile_qr_scan", "ios": "https://dc.lft.to/lastmile_qr_scan"}, "fusion_lon": 0.0, "is_reserved": 0, "is_disabled": 0, "fusion_lat": 0.0, "type": "electric_scooter", "name": "d12a185e923ce31fae8ff049a42d283b", "lat": 38.879185666666665, "bike_id": "d12a185e923ce31fae8ff049a42d283b"}, {"lon": -77.00341533333334, "rental_uris": {"android": "https://dc.lft.to/lastmile_qr_scan", "ios": "https://dc.lft.to/lastmile_qr_scan"}, "fusion_lon": 0.0, "is_reserved": 0, "is_disabled": 0, "fusion_lat": 0.0, "type": "electric_scooter", "name": "36d486306028eeaa30e6fee411135c8f", "lat": 38.8952855, "bike_id": "36d486306028eeaa30e6fee411135c8f"}, {"lon": -77.03906666666667, "rental_uris": {"android": "https://dc.lft.to/lastmile_qr_scan", "ios": "https://dc.lft.to/lastmile_qr_scan"}, "fusion_lon": 0.0, "is_reserved": 0, "is_disabled": 0, "fusion_lat": 0.0, "type": "electric_scooter", "name": "779c6d5e553a03c45c895d48778df10a", "lat": 38.90651016666666, "bike_id": "779c6d5e553a03c45c895d48778df10a"}, {"lon": -77.034541, "rental_uris": {"android": "https://dc.lft.to/lastmile_qr_scan", "ios": "https://dc.lft.to/lastmile_qr_scan"}, "fusion_lon": 0.0, "is_reserved": 0, "is_disabled": 0, "fusion_lat": 0.0, "type": "electric_scooter", "name": "f8fda18f5062277cc0f8a6b805d6c02b", "lat": 38.904096833333334, "bike_id": "f8fda18f5062277cc0f8a6b805d6c02b"}, {"lon": -77.02692516666667, "rental_uris": {"android": "https://dc.lft.to/lastmile_qr_scan", "ios": "https://dc.lft.to/lastmile_qr_scan"}, "fusion_lon": 0.0, "is_reserved": 0, "is_disabled": 0, "fusion_lat": 0.0, "type": "electric_scooter", "name": "e5025653d7622cfa01f3be4d1ea9180d", "lat": 38.8946955, "bike_id": "e5025653d7622cfa01f3be4d1ea9180d"}, {"lon": -77.10106666666667, "rental_uris": {"android": "https://dc.lft.to/lastmile_qr_scan", "ios": "https://dc.lft.to/lastmile_qr_scan"}, "fusion_lon": 0.0, "is_reserved": 0, "is_disabled": 0, "fusion_lat": 0.0, "type": "electric_bike", "name": "fa0fcc735e14bef17b83fb9fdfaa6817", "lat": 38.989486666666664, "bike_id": "fa0fcc735e14bef17b83fb9fdfaa6817"}, {"lon": -77.04336616666667, "rental_uris": {"android": "https://dc.lft.to/lastmile_qr_scan", "ios": "https://dc.lft.to/lastmile_qr_scan"}, "fusion_lon": 0.0, "is_reserved": 0, "is_disabled": 0, "fusion_lat": 0.0, "type": "electric_scooter", "name": "e292913fe7e72dc02821b060451ec578", "lat": 38.9222205, "bike_id": "e292913fe7e72dc02821b060451ec578"}, {"lon": -77.04644933333333, "rental_uris": {"android": "https://dc.lft.to/lastmile_qr_scan", "ios": "https://dc.lft.to/lastmile_qr_scan"}, "fusion_lon": 0.0, "is_reserved": 0, "is_disabled": 0, "fusion_lat": 0.0, "type": "electric_scooter", "name": "b0c1b87c44c5231704311194be27ad9c", "lat": 38.90363333333333, "bike_id": "b0c1b87c44c5231704311194be27ad9c"}, {"lon": -77.046522, "rental_uris": {"android": "https://dc.lft.to/lastmile_qr_scan", "ios": "https://dc.lft.to/lastmile_qr_scan"}, "fusion_lon": 0.0, "is_reserved": 0, "is_disabled": 0, "fusion_lat": 0.0, "type": "electric_scooter", "name": "6303fbca56c35c93ee755bb0cc616b64", "lat": 38.9102475, "bike_id": "6303fbca56c35c93ee755bb0cc616b64"}, {"lon": -77.0182625, "rental_uris": {"android": "https://dc.lft.to/lastmile_qr_scan", "ios": "https://dc.lft.to/lastmile_qr_scan"}, "fusion_lon": 0.0, "is_reserved": 0, "is_disabled": 0, "fusion_lat": 0.0, "type": "electric_scooter", "name": "c320aa4db8b00208ef3bc9f8913c8343", "lat": 38.92253433333333, "bike_id": "c320aa4db8b00208ef3bc9f8913c8343"}, {"lon": -77.00290616666666, "rental_uris": {"android": "https://dc.lft.to/lastmile_qr_scan", "ios": "https://dc.lft.to/lastmile_qr_scan"}, "fusion_lon": 0.0, "is_reserved": 0, "is_disabled": 0, "fusion_lat": 0.0, "type": "electric_scooter", "name": "33a656b53c7a5704a81da5363df840a9", "lat": 38.892258166666664, "bike_id": "33a656b53c7a5704a81da5363df840a9"}, {"lon": -77.04517333333334, "rental_uris": {"android": "https://dc.lft.to/lastmile_qr_scan", "ios": "https://dc.lft.to/lastmile_qr_scan"}, "fusion_lon": 0.0, "is_reserved": 0, "is_disabled": 0, "fusion_lat": 0.0, "type": "electric_scooter", "name": "a2d166b62f05a363a212f851475ac510", "lat": 38.901314666666664, "bike_id": "a2d166b62f05a363a212f851475ac510"}, {"lon": -77.02955216666666, "rental_uris": {"android": "https://dc.lft.to/lastmile_qr_scan", "ios": "https://dc.lft.to/lastmile_qr_scan"}, "fusion_lon": 0.0, "is_reserved": 0, "is_disabled": 0, "fusion_lat": 0.0, "type": "electric_scooter", "name": "387a7fa93c3175c510bf3721997f82c5", "lat": 38.88402416666667, "bike_id": "387a7fa93c3175c510bf3721997f82c5"}, {"lon": -77.04086983333333, "rental_uris": {"android": "https://dc.lft.to/lastmile_qr_scan", "ios": "https://dc.lft.to/lastmile_qr_scan"}, "fusion_lon": 0.0, "is_reserved": 0, "is_disabled": 0, "fusion_lat": 0.0, "type": "electric_scooter", "name": "c6492b2ab579dc1059db6b8010ec332f", "lat": 38.9327595, "bike_id": "c6492b2ab579dc1059db6b8010ec332f"}, {"lon": -76.9732825, "rental_uris": {"android": "https://dc.lft.to/lastmile_qr_scan", "ios": "https://dc.lft.to/lastmile_qr_scan"}, "fusion_lon": 0.0, "is_reserved": 0, "is_disabled": 0, "fusion_lat": 0.0, "type": "electric_scooter", "name": "f2c751b58b21178d9b5dd5292743d1d1", "lat": 38.90408633333333, "bike_id": "f2c751b58b21178d9b5dd5292743d1d1"}, {"lon": -76.98446933333334, "rental_uris": {"android": "https://dc.lft.to/lastmile_qr_scan", "ios": "https://dc.lft.to/lastmile_qr_scan"}, "fusion_lon": 0.0, "is_reserved": 0, "is_disabled": 0, "fusion_lat": 0.0, "type": "electric_scooter", "name": "e6c077b5cea54c82e1bdf7b264136100", "lat": 38.914311, "bike_id": "e6c077b5cea54c82e1bdf7b264136100"}, {"lon": -77.02983816666666, "rental_uris": {"android": "https://dc.lft.to/lastmile_qr_scan", "ios": "https://dc.lft.to/lastmile_qr_scan"}, "fusion_lon": 0.0, "is_reserved": 0, "is_disabled": 0, "fusion_lat": 0.0, "type": "electric_scooter", "name": "ff250420bb2a3286d6fc53aa2bae2cf0", "lat": 38.949731666666665, "bike_id": "ff250420bb2a3286d6fc53aa2bae2cf0"}, {"lon": -77.02940033333333, "rental_uris": {"android": "https://dc.lft.to/lastmile_qr_scan", "ios": "https://dc.lft.to/lastmile_qr_scan"}, "fusion_lon": 0.0, "is_reserved": 0, "is_disabled": 0, "fusion_lat": 0.0, "type": "electric_scooter", "name": "aef77b27b1b02fbe139d6b9c5e02ae36", "lat": 38.942811666666664, "bike_id": "aef77b27b1b02fbe139d6b9c5e02ae36"}, {"lon": -77.04147966666666, "rental_uris": {"android": "https://dc.lft.to/lastmile_qr_scan", "ios": "https://dc.lft.to/lastmile_qr_scan"}, "fusion_lon": 0.0, "is_reserved": 0, "is_disabled": 0, "fusion_lat": 0.0, "type": "electric_scooter", "name": "61c787000bbc6ca8288ce204eddcf430", "lat": 38.9050505, "bike_id": "61c787000bbc6ca8288ce204eddcf430"}, {"lon": -77.03181266666667, "rental_uris": {"android": "https://dc.lft.to/lastmile_qr_scan", "ios": "https://dc.lft.to/lastmile_qr_scan"}, "fusion_lon": 0.0, "is_reserved": 0, "is_disabled": 0, "fusion_lat": 0.0, "type": "electric_scooter", "name": "f340d01945262169d49212c2b8e077ec", "lat": 38.88739433333333, "bike_id": "f340d01945262169d49212c2b8e077ec"}, {"lon": -76.98657116666666, "rental_uris": {"android": "https://dc.lft.to/lastmile_qr_scan", "ios": "https://dc.lft.to/lastmile_qr_scan"}, "fusion_lon": 0.0, "is_reserved": 0, "is_disabled": 0, "fusion_lat": 0.0, "type": "electric_scooter", "name": "116bb958c58542f6c4b9e9302c07c41e", "lat": 38.89790283333333, "bike_id": "116bb958c58542f6c4b9e9302c07c41e"}, {"lon": -77.04713316666667, "rental_uris": {"android": "https://dc.lft.to/lastmile_qr_scan", "ios": "https://dc.lft.to/lastmile_qr_scan"}, "fusion_lon": 0.0, "is_reserved": 0, "is_disabled": 0, "fusion_lat": 0.0, "type": "electric_bike", "name": "8c5b401988356e0fd4d8f9e5b39aec9a", "lat": 38.99771583333333, "bike_id": "8c5b401988356e0fd4d8f9e5b39aec9a"}, {"lon": -77.04242583333334, "rental_uris": {"android": "https://dc.lft.to/lastmile_qr_scan", "ios": "https://dc.lft.to/lastmile_qr_scan"}, "fusion_lon": 0.0, "is_reserved": 0, "is_disabled": 0, "fusion_lat": 0.0, "type": "electric_scooter", "name": "d6e0483772e9a84de4386a150066c9e8", "lat": 38.89946066666667, "bike_id": "d6e0483772e9a84de4386a150066c9e8"}, {"lon": -77.06685283333333, "rental_uris": {"android": "https://dc.lft.to/lastmile_qr_scan", "ios": "https://dc.lft.to/lastmile_qr_scan"}, "fusion_lon": 0.0, "is_reserved": 0, "is_disabled": 0, "fusion_lat": 0.0, "type": "electric_scooter", "name": "6610b6c93a364cbc8958708fcfa37b27", "lat": 38.903657, "bike_id": "6610b6c93a364cbc8958708fcfa37b27"}, {"lon": -77.04200933333334, "rental_uris": {"android": "https://dc.lft.to/lastmile_qr_scan", "ios": "https://dc.lft.to/lastmile_qr_scan"}, "fusion_lon": 0.0, "is_reserved": 0, "is_disabled": 0, "fusion_lat": 0.0, "type": "electric_scooter", "name": "44674c1ecdfc36d316a2647bf80027c0", "lat": 38.918761, "bike_id": "44674c1ecdfc36d316a2647bf80027c0"}, {"lon": -77.03640416666667, "rental_uris": {"android": "https://dc.lft.to/lastmile_qr_scan", "ios": "https://dc.lft.to/lastmile_qr_scan"}, "fusion_lon": 0.0, "is_reserved": 0, "is_disabled": 0, "fusion_lat": 0.0, "type": "electric_scooter", "name": "10e93d6d06b8800b2883d73dc11ea470", "lat": 38.916081166666665, "bike_id": "10e93d6d06b8800b2883d73dc11ea470"}, {"lon": -77.0297905, "rental_uris": {"android": "https://dc.lft.to/lastmile_qr_scan", "ios": "https://dc.lft.to/lastmile_qr_scan"}, "fusion_lon": 0.0, "is_reserved": 0, "is_disabled": 0, "fusion_lat": 0.0, "type": "electric_scooter", "name": "bed7b1e56a582938c5257b7b503ae83a", "lat": 38.93180983333333, "bike_id": "bed7b1e56a582938c5257b7b503ae83a"}, {"lon": -76.99574916666667, "rental_uris": {"android": "https://dc.lft.to/lastmile_qr_scan", "ios": "https://dc.lft.to/lastmile_qr_scan"}, "fusion_lon": 0.0, "is_reserved": 0, "is_disabled": 0, "fusion_lat": 0.0, "type": "electric_scooter", "name": "560a3955974d39174fd0bd7d9a59fa5c", "lat": 38.862709, "bike_id": "560a3955974d39174fd0bd7d9a59fa5c"}, {"lon": -77.03152616666667, "rental_uris": {"android": "https://dc.lft.to/lastmile_qr_scan", "ios": "https://dc.lft.to/lastmile_qr_scan"}, "fusion_lon": 0.0, "is_reserved": 0, "is_disabled": 0, "fusion_lat": 0.0, "type": "electric_scooter", "name": "7c0858a2c0e58dbd7ad1012b2c3438bf", "lat": 38.915614833333336, "bike_id": "7c0858a2c0e58dbd7ad1012b2c3438bf"}, {"lon": -77.02447433333333, "rental_uris": {"android": "https://dc.lft.to/lastmile_qr_scan", "ios": "https://dc.lft.to/lastmile_qr_scan"}, "fusion_lon": 0.0, "is_reserved": 0, "is_disabled": 0, "fusion_lat": 0.0, "type": "electric_scooter", "name": "e6113f3947b5f9775441ed0f487f3283", "lat": 38.92649683333333, "bike_id": "e6113f3947b5f9775441ed0f487f3283"}, {"lon": -76.93380366666666, "rental_uris": {"android": "https://dc.lft.to/lastmile_qr_scan", "ios": "https://dc.lft.to/lastmile_qr_scan"}, "fusion_lon": 0.0, "is_reserved": 0, "is_disabled": 0, "fusion_lat": 0.0, "type": "electric_scooter", "name": "c2deb010715dd631bdc866deabfeba74", "lat": 38.89910583333333, "bike_id": "c2deb010715dd631bdc866deabfeba74"}, {"lon": -77.02181916666666, "rental_uris": {"android": "https://dc.lft.to/lastmile_qr_scan", "ios": "https://dc.lft.to/lastmile_qr_scan"}, "fusion_lon": 0.0, "is_reserved": 0, "is_disabled": 0, "fusion_lat": 0.0, "type": "electric_scooter", "name": "5f54301be2771410fac277c9278262fd", "lat": 38.91464583333333, "bike_id": "5f54301be2771410fac277c9278262fd"}, {"lon": -77.02258083333334, "rental_uris": {"android": "https://dc.lft.to/lastmile_qr_scan", "ios": "https://dc.lft.to/lastmile_qr_scan"}, "fusion_lon": 0.0, "is_reserved": 0, "is_disabled": 0, "fusion_lat": 0.0, "type": "electric_scooter", "name": "2c721e8fc0932ad6b32b987ddd0d6f83", "lat": 38.925027166666666, "bike_id": "2c721e8fc0932ad6b32b987ddd0d6f83"}, {"lon": -77.01620483333333, "rental_uris": {"android": "https://dc.lft.to/lastmile_qr_scan", "ios": "https://dc.lft.to/lastmile_qr_scan"}, "fusion_lon": 0.0, "is_reserved": 0, "is_disabled": 0, "fusion_lat": 0.0, "type": "electric_scooter", "name": "3da12202fccc8175829c08107d7bf14e", "lat": 38.947401666666664, "bike_id": "3da12202fccc8175829c08107d7bf14e"}, {"lon": -77.02792133333334, "rental_uris": {"android": "https://dc.lft.to/lastmile_qr_scan", "ios": "https://dc.lft.to/lastmile_qr_scan"}, "fusion_lon": 0.0, "is_reserved": 0, "is_disabled": 0, "fusion_lat": 0.0, "type": "electric_scooter", "name": "65acc629a38577c508c95bddfd61d451", "lat": 38.8950345, "bike_id": "65acc629a38577c508c95bddfd61d451"}, {"lon": -77.00719616666666, "rental_uris": {"android": "https://dc.lft.to/lastmile_qr_scan", "ios": "https://dc.lft.to/lastmile_qr_scan"}, "fusion_lon": 0.0, "is_reserved": 0, "is_disabled": 0, "fusion_lat": 0.0, "type": "electric_scooter", "name": "880a39bc5fccce26dd7b0052f18118f8", "lat": 38.95526733333333, "bike_id": "880a39bc5fccce26dd7b0052f18118f8"}, {"lon": -77.04024766666667, "rental_uris": {"android": "https://dc.lft.to/lastmile_qr_scan", "ios": "https://dc.lft.to/lastmile_qr_scan"}, "fusion_lon": 0.0, "is_reserved": 0, "is_disabled": 0, "fusion_lat": 0.0, "type": "electric_scooter", "name": "8dbcf79a9dd1778e442a3c7abd2c5b5e", "lat": 38.9215495, "bike_id": "8dbcf79a9dd1778e442a3c7abd2c5b5e"}, {"lon": -77.03197283333333, "rental_uris": {"android": "https://dc.lft.to/lastmile_qr_scan", "ios": "https://dc.lft.to/lastmile_qr_scan"}, "fusion_lon": 0.0, "is_reserved": 0, "is_disabled": 0, "fusion_lat": 0.0, "type": "electric_scooter", "name": "90d42d3ba5ec2e8db794600b24fde7c4", "lat": 38.892204, "bike_id": "90d42d3ba5ec2e8db794600b24fde7c4"}, {"lon": -77.0238765, "rental_uris": {"android": "https://dc.lft.to/lastmile_qr_scan", "ios": "https://dc.lft.to/lastmile_qr_scan"}, "fusion_lon": 0.0, "is_reserved": 0, "is_disabled": 0, "fusion_lat": 0.0, "type": "electric_scooter", "name": "6d8356ed79fc1aff4999c126bf798d0c", "lat": 38.91999666666667, "bike_id": "6d8356ed79fc1aff4999c126bf798d0c"}, {"lon": -76.97284616666667, "rental_uris": {"android": "https://dc.lft.to/lastmile_qr_scan", "ios": "https://dc.lft.to/lastmile_qr_scan"}, "fusion_lon": 0.0, "is_reserved": 0, "is_disabled": 0, "fusion_lat": 0.0, "type": "electric_scooter", "name": "2847a4636846fdc1644f6c71d96513aa", "lat": 38.917193833333336, "bike_id": "2847a4636846fdc1644f6c71d96513aa"}, {"lon": -77.02586716666667, "rental_uris": {"android": "https://dc.lft.to/lastmile_qr_scan", "ios": "https://dc.lft.to/lastmile_qr_scan"}, "fusion_lon": 0.0, "is_reserved": 0, "is_disabled": 0, "fusion_lat": 0.0, "type": "electric_scooter", "name": "f64a5c49f1ba40ff4a4c69ceba62ec0a", "lat": 38.884165, "bike_id": "f64a5c49f1ba40ff4a4c69ceba62ec0a"}, {"lon": -77.04192766666667, "rental_uris": {"android": "https://dc.lft.to/lastmile_qr_scan", "ios": "https://dc.lft.to/lastmile_qr_scan"}, "fusion_lon": 0.0, "is_reserved": 0, "is_disabled": 0, "fusion_lat": 0.0, "type": "electric_scooter", "name": "5882ce6793f51f791e3eb697a6594bd8", "lat": 38.90124183333333, "bike_id": "5882ce6793f51f791e3eb697a6594bd8"}, {"lon": -77.03830116666667, "rental_uris": {"android": "https://dc.lft.to/lastmile_qr_scan", "ios": "https://dc.lft.to/lastmile_qr_scan"}, "fusion_lon": 0.0, "is_reserved": 0, "is_disabled": 0, "fusion_lat": 0.0, "type": "electric_scooter", "name": "031c30e1dec2ef385881e654971667f2", "lat": 38.91491116666667, "bike_id": "031c30e1dec2ef385881e654971667f2"}, {"lon": -77.022084, "rental_uris": {"android": "https://dc.lft.to/lastmile_qr_scan", "ios": "https://dc.lft.to/lastmile_qr_scan"}, "fusion_lon": 0.0, "is_reserved": 0, "is_disabled": 0, "fusion_lat": 0.0, "type": "electric_scooter", "name": "671e604a82c3a09502a11ee0f9f096c8", "lat": 38.92056616666667, "bike_id": "671e604a82c3a09502a11ee0f9f096c8"}, {"lon": -77.03503133333334, "rental_uris": {"android": "https://dc.lft.to/lastmile_qr_scan", "ios": "https://dc.lft.to/lastmile_qr_scan"}, "fusion_lon": 0.0, "is_reserved": 0, "is_disabled": 0, "fusion_lat": 0.0, "type": "electric_scooter", "name": "f918d91765171c286fd6b9abba7cb485", "lat": 38.9234645, "bike_id": "f918d91765171c286fd6b9abba7cb485"}, {"lon": -77.017411, "rental_uris": {"android": "https://dc.lft.to/lastmile_qr_scan", "ios": "https://dc.lft.to/lastmile_qr_scan"}, "fusion_lon": 0.0, "is_reserved": 0, "is_disabled": 0, "fusion_lat": 0.0, "type": "electric_scooter", "name": "0d4d399e59eaf35ea8ef44662e064c05", "lat": 38.89216283333333, "bike_id": "0d4d399e59eaf35ea8ef44662e064c05"}, {"lon": -77.02537233333334, "rental_uris": {"android": "https://dc.lft.to/lastmile_qr_scan", "ios": "https://dc.lft.to/lastmile_qr_scan"}, "fusion_lon": 0.0, "is_reserved": 0, "is_disabled": 0, "fusion_lat": 0.0, "type": "electric_scooter", "name": "398431bb80b02909bde3570338ca887c", "lat": 38.9406955, "bike_id": "398431bb80b02909bde3570338ca887c"}, {"lon": -77.0006625, "rental_uris": {"android": "https://dc.lft.to/lastmile_qr_scan", "ios": "https://dc.lft.to/lastmile_qr_scan"}, "fusion_lon": 0.0, "is_reserved": 0, "is_disabled": 0, "fusion_lat": 0.0, "type": "electric_scooter", "name": "26e73fa16a9a1e3ba9a4026bcae0526b", "lat": 38.87359033333333, "bike_id": "26e73fa16a9a1e3ba9a4026bcae0526b"}, {"lon": -77.01011766666667, "rental_uris": {"android": "https://dc.lft.to/lastmile_qr_scan", "ios": "https://dc.lft.to/lastmile_qr_scan"}, "fusion_lon": 0.0, "is_reserved": 0, "is_disabled": 0, "fusion_lat": 0.0, "type": "electric_scooter", "name": "55d3dc7f7c8f0b82322c71ddde4e1308", "lat": 38.91699416666667, "bike_id": "55d3dc7f7c8f0b82322c71ddde4e1308"}, {"lon": -77.00911583333334, "rental_uris": {"android": "https://dc.lft.to/lastmile_qr_scan", "ios": "https://dc.lft.to/lastmile_qr_scan"}, "fusion_lon": 0.0, "is_reserved": 0, "is_disabled": 0, "fusion_lat": 0.0, "type": "electric_scooter", "name": "a3448ab398854f6ed45b7ee2abca865b", "lat": 38.8963835, "bike_id": "a3448ab398854f6ed45b7ee2abca865b"}, {"lon": -77.02391016666667, "rental_uris": {"android": "https://dc.lft.to/lastmile_qr_scan", "ios": "https://dc.lft.to/lastmile_qr_scan"}, "fusion_lon": 0.0, "is_reserved": 0, "is_disabled": 0, "fusion_lat": 0.0, "type": "electric_scooter", "name": "2acdb83d3629eabb5ab9b5f93584b748", "lat": 38.90005583333333, "bike_id": "2acdb83d3629eabb5ab9b5f93584b748"}, {"lon": -76.990697, "rental_uris": {"android": "https://dc.lft.to/lastmile_qr_scan", "ios": "https://dc.lft.to/lastmile_qr_scan"}, "fusion_lon": 0.0, "is_reserved": 0, "is_disabled": 0, "fusion_lat": 0.0, "type": "electric_bike", "name": "f1403f9dbabc065ee7da5f206590fdc8", "lat": 38.942607, "bike_id": "f1403f9dbabc065ee7da5f206590fdc8"}, {"lon": -77.02730966666667, "rental_uris": {"android": "https://dc.lft.to/lastmile_qr_scan", "ios": "https://dc.lft.to/lastmile_qr_scan"}, "fusion_lon": 0.0, "is_reserved": 0, "is_disabled": 0, "fusion_lat": 0.0, "type": "electric_scooter", "name": "1d2d13c14613504bd0b6c6d5c9c307d4", "lat": 38.93561183333333, "bike_id": "1d2d13c14613504bd0b6c6d5c9c307d4"}, {"lon": -77.02929166666667, "rental_uris": {"android": "https://dc.lft.to/lastmile_qr_scan", "ios": "https://dc.lft.to/lastmile_qr_scan"}, "fusion_lon": 0.0, "is_reserved": 0, "is_disabled": 0, "fusion_lat": 0.0, "type": "electric_bike", "name": "8d8c7160b00ae9cf14e98be950ad29a8", "lat": 38.90531, "bike_id": "8d8c7160b00ae9cf14e98be950ad29a8"},