{"data": {"bikes": [{"lat": 38.89122783333333, "is_disabled": 0, "type": "electric_scooter", "lon": -76.94094416666667, "bike_id": "4b2755e662edf76799c3821cafba0c3c", "fusion_lat": 0.0, "name": "4b2755e662edf76799c3821cafba0c3c", "is_reserved": 0, "rental_uris": {"android": "https://dc.lft.to/lastmile_qr_scan", "ios": "https://dc.lft.to/lastmile_qr_scan"}, "fusion_lon": 0.0}, {"lat": 38.911902833333336, "is_disabled": 0, "type": "electric_scooter", "lon": -77.032214, "bike_id": "aa9cde73eea3ae4876bd12e1d362e6d7", "fusion_lat": 0.0, "name": "aa9cde73eea3ae4876bd12e1d362e6d7", "is_reserved": 0, "rental_uris": {"android": "https://dc.lft.to/lastmile_qr_scan", "ios": "https://dc.lft.to/lastmile_qr_scan"}, "fusion_lon": 0.0}, {"lat": 38.910814333333335, "is_disabled": 0, "type": "electric_scooter", "lon": -77.07646333333334, "bike_id": "966de512ba9ded87bbbc4a91173ecfb4", "fusion_lat": 0.0, "name": "966de512ba9ded87bbbc4a91173ecfb4", "is_reserved": 0, "rental_uris": {"android": "https://dc.lft.to/lastmile_qr_scan", "ios": "https://dc.lft.to/lastmile_qr_scan"}, "fusion_lon": 0.0}, {"lat": 38.900022, "is_disabled": 0, "type": "electric_scooter", "lon": -76.99852133333333, "bike_id": "0e84a0f9b91e9d26a341a8c215eaaa4e", "fusion_lat": 0.0, "name": "0e84a0f9b91e9d26a341a8c215eaaa4e", "is_reserved": 0, "rental_uris": {"android": "https://dc.lft.to/lastmile_qr_scan", "ios": "https://dc.lft.to/lastmile_qr_scan"}, "fusion_lon": 0.0}, {"lat": 39.01590516666667, "is_disabled": 0, "type": "electric_bike", "lon": -77.044322, "bike_id": "30fa1aef01decdbcc5f43b5a945681ca", "fusion_lat": 0.0, "name": "30fa1aef01decdbcc5f43b5a945681ca", "is_reserved": 0, "rental_uris": {"android": "https://dc.lft.to/lastmile_qr_scan", "ios": "https://dc.lft.to/lastmile_qr_scan"}, "fusion_lon": 0.0}, {"lat": 38.90393233333333, "is_disabled": 0, "type": "electric_scooter", "lon": -77.03297966666666, "bike_id": "bab0b01538f38a8866bff14c595b1606", "fusion_lat": 0.0, "name": "bab0b01538f38a8866bff14c595b1606", "is_reserved": 0, "rental_uris": {"android": "https://dc.lft.to/lastmile_qr_scan", "ios": "https://dc.lft.to/lastmile_qr_scan"}, "fusion_lon": 0.0}, {"lat": 38.902265, "is_disabled": 0, "type": "electric_bike", "lon": -77.06302266666667, "bike_id": "32918846c3bddfd788e2d9c3d9e049ee", "fusion_lat": 0.0, "name": "32918846c3bddfd788e2d9c3d9e049ee", "is_reserved": 0, "rental_uris": {"android": "https://dc.lft.to/lastmile_qr_scan", "ios": "https://dc.lft.to/lastmile_qr_scan"}, "fusion_lon": 0.0}, {"lat": 38.884291, "is_disabled": 0, "type": "electric_scooter", "lon": -77.030484, "bike_id": "f2fecff3f9cecc77d2ab8552afb4253e", "fusion_lat": 0.0, "name": "f2fecff3f9cecc77d2ab8552afb4253e", "is_reserved": 0, "rental_uris": {"android": "https://dc.lft.to/lastmile_qr_scan", "ios": "https://dc.lft.to/lastmile_qr_scan"}, "fusion_lon": 0.0}, {"lat": 38.905253333333334, "is_disabled": 0, "type": "electric_scooter", "lon": -77.0638255, "bike_id": "5e06687fad19fab5e2262b376ae0b1d9", "fusion_lat": 0.0, "name": "5e06687fad19fab5e2262b376ae0b1d9", "is_reserved": 0, "rental_uris": {"android": "https://dc.lft.to/lastmile_qr_scan", "ios": "https://dc.lft.to/lastmile_qr_scan"}, "fusion_lon": 0.0}, {"lat": 38.87507633333333, "is_disabled": 0, "type": "electric_bike", "lon": -77.025935, "bike_id": "b858c16fab22e3f8a0aab9b6c6f26711", "fusion_lat": 0.0, "name": "b858c16fab22e3f8a0aab9b6c6f26711", "is_reserved": 0, "rental_uris": {"android": "https://dc.lft.to/lastmile_qr_scan", "ios": "https://dc.lft.to/lastmile_qr_scan"}, "fusion_lon": 0.0}, {"lat": 38.91915616666667, "is_disabled": 0, "type": "electric_scooter", "lon": -77.02500666666667, "bike_id": "e44521799761376a939b1fc53aeff52b", "fusion_lat": 0.0, "name": "e44521799761376a939b1fc53aeff52b", "is_reserved": 0, "rental_uris": {"android": "https://dc.lft.to/lastmile_qr_scan", "ios": "https://dc.lft.to/lastmile_qr_scan"}, "fusion_lon": 0.0}, {"lat": 38.8606185, "is_disabled": 0, "type": "electric_bike", "lon": -77.05637333333334, "bike_id": "65bca1352478ca1ecb2cadeb7ad0a02b", "fusion_lat": 0.0, "name": "65bca1352478ca1ecb2cadeb7ad0a02b", "is_reserved": 0, "rental_uris": {"android": "https://dc.lft.to/lastmile_qr_scan", "ios": "https://dc.lft.to/lastmile_qr_scan"}, "fusion_lon": 0.0}, {"lat": 38.914023666666665, "is_disabled": 0, "type": "electric_scooter", "lon": -77.02062983333333, "bike_id": "2085249ea62b0cd55dd24f9295badb3a", "fusion_lat": 0.0, "name": "2085249ea62b0cd55dd24f9295badb3a", "is_reserved": 0, "rental_uris": {"android": "https://dc.lft.to/lastmile_qr_scan", "ios": "https://dc.lft.to/lastmile_qr_scan"}, "fusion_lon": 0.0}, {"lat": 38.919925166666665, "is_disabled": 0, "type": "electric_scooter", "lon": -76.973034, "bike_id": "9fd50dadb3d9910421d09818f5f31c06", "fusion_lat": 0.0, "name": "9fd50dadb3d9910421d09818f5f31c06", "is_reserved": 0, "rental_uris": {"android": "https://dc.lft.to/lastmile_qr_scan", "ios": "https://dc.lft.to/lastmile_qr_scan"}, "fusion_lon": 0.0}, {"lat": 38.91404416666666, "is_disabled": 0, "type": "electric_scooter", "lon": -77.0326925, "bike_id": "2b914492e6b4242145d63783db55e780", "fusion_lat": 0.0, "name": "2b914492e6b4242145d63783db55e780", "is_reserved": 0, "rental_uris": {"android": "https://dc.lft.to/lastmile_qr_scan", "ios": "https://dc.lft.to/lastmile_qr_scan"}, "fusion_lon": 0.0}, {"lat": 38.90978366666667, "is_disabled": 0, "type": "electric_scooter", "lon": -77.033294, "bike_id": "4895dabb8e7f5d430175170923f41af9", "fusion_lat": 0.0, "name": "4895dabb8e7f5d430175170923f41af9", "is_reserved": 0, "rental_uris": {"android": "https://dc.lft.to/lastmile_qr_scan", "ios": "https://dc.lft.to/lastmile_qr_scan"}, "fusion_lon": 0.0}, {"lat": 38.92224, "is_disabled": 0, "type": "electric_scooter", "lon": -77.03898383333333, "bike_id": "0ab501062e93de6bb27132a877b75cf8", "fusion_lat": 0.0, "name": "0ab501062e93de6bb27132a877b75cf8", "is_reserved": 0, "rental_uris": {"android": "https://dc.lft.to/lastmile_qr_scan", "ios": "https://dc.lft.to/lastmile_qr_scan"}, "fusion_lon": 0.0}, {"lat": 38.95324516666667, "is_disabled": 0, "type": "electric_bike", "lon": -76.9882525, "bike_id": "e1ba60820e575accb5a9e907b4de5dc3", "fusion_lat": 0.0, "name": "e1ba60820e575accb5a9e907b4de5dc3", "is_reserved": 0, "rental_uris": {"android": "https://dc.lft.to/lastmile_qr_scan", "ios": "https://dc.lft.to/lastmile_qr_scan"}, "fusion_lon": 0.0}, {"lat": 38.862575666666665, "is_disabled": 0, "type": "electric_scooter", "lon": -76.986962, "bike_id": "0c097c6ac0139156a5d02cac48c28a05", "fusion_lat": 0.0, "name": "0c097c6ac0139156a5d02cac48c28a05", "is_reserved": 0, "rental_uris": {"android": "https://dc.lft.to/lastmile_qr_scan", "ios": "https://dc.lft.to/lastmile_qr_scan"}, "fusion_lon": 0.0}, {"lat": 38.86615883333333, "is_disabled": 0, "type": "electric_scooter", "lon": -76.98654383333333, "bike_id": "83f72e360598840ab1afcaf211e61ff6", "fusion_lat": 0.0, "name": "83f72e360598840ab1afcaf211e61ff6", "is_reserved": 0, "rental_uris": {"android": "https://dc.lft.to/lastmile_qr_scan", "ios": "https://dc.lft.to/lastmile_qr_scan"}, "fusion_lon": 0.0}, {"lat": 38.912693833333336, "is_disabled": 0, "type": "electric_scooter", "lon": -77.0222405, "bike_id": "8da2a8d600d84688c85cb9d8b633e656", "fusion_lat": 0.0, "name": "8da2a8d600d84688c85cb9d8b633e656", "is_reserved": 0, "rental_uris": {"android": "https://dc.lft.to/lastmile_qr_scan", "ios": "https://dc.lft.to/lastmile_qr_scan"}, "fusion_lon": 0.0}, {"lat": 38.88588633333333, "is_disabled": 0, "type": "electric_scooter", "lon": -77.01975066666667, "bike_id": "76cff896ffd94d58579106764cab2ad8", "fusion_lat": 0.0, "name": "76cff896ffd94d58579106764cab2ad8", "is_reserved": 0, "rental_uris": {"android": "https://dc.lft.to/lastmile_qr_scan", "ios": "https://dc.lft.to/lastmile_qr_scan"}, "fusion_lon": 0.0}, {"lat": 38.84427616666667, "is_disabled": 0, "type": "electric_scooter", "lon": -76.997842, "bike_id": "66f4390658bb09ae7bf1528a552bc2e3", "fusion_lat": 0.0, "name": "66f4390658bb09ae7bf1528a552bc2e3", "is_reserved": 0, "rental_uris": {"android": "https://dc.lft.to/lastmile_qr_scan", "ios": "https://dc.lft.to/lastmile_qr_scan"}, "fusion_lon": 0.0}, {"lat": 38.90774416666667, "is_disabled": 0, "type": "electric_scooter", "lon": -77.020642, "bike_id": "d88b0776e6fbdae6959a9d3435602381", "fusion_lat": 0.0, "name": "d88b0776e6fbdae6959a9d3435602381", "is_reserved": 0, "rental_uris": {"android": "https://dc.lft.to/lastmile_qr_scan", "ios": "https://dc.lft.to/lastmile_qr_scan"}, "fusion_lon": 0.0}, {"lat": 38.88733216666667, "is_disabled": 0, "type": "electric_scooter", "lon": -77.03221566666667, "bike_id": "864bcb9b61d26730164adcb0f06717b0", "fusion_lat": 0.0, "name": "864bcb9b61d26730164adcb0f06717b0", "is_reserved": 0, "rental_uris": {"android": "https://dc.lft.to/lastmile_qr_scan", "ios": "https://dc.lft.to/lastmile_qr_scan"}, "fusion_lon": 0.0}, {"lat": 38.915693166666664, "is_disabled": 0, "type": "electric_scooter", "lon": -77.03184166666666, "bike_id": "b9b61d0197221b421c52ae7c90dcd4f2", "fusion_lat": 0.0, "name": "b9b61d0197221b421c52ae7c90dcd4f2", "is_reserved": 0, "rental_uris": {"android": "https://dc.lft.to/lastmile_qr_scan", "ios": "https://dc.lft.to/lastmile_qr_scan"}, "fusion_lon": 0.0}, {"lat": 38.91558366666667, "is_disabled": 0, "type": "electric_scooter", "lon": -77.032386, "bike_id": "61f78040d49ee3ca1c123969dc2d690a", "fusion_lat": 0.0, "name": "61f78040d49ee3ca1c123969dc2d690a", "is_reserved": 0, "rental_uris": {"android": "https://dc.lft.to/lastmile_qr_scan", "ios": "https://dc.lft.to/lastmile_qr_scan"}, "fusion_lon": 0.0}, {"lat": 38.90686216666667, "is_disabled": 0, "type": "electric_bike", "lon": -76.95191733333333, "bike_id": "3718de2e7bf50f71895a14940440d98e", "fusion_lat": 0.0, "name": "3718de2e7bf50f71895a14940440d98e", "is_reserved": 0, "rental_uris": {"android": "https://dc.lft.to/lastmile_qr_scan", "ios": "https://dc.lft.to/lastmile_qr_scan"}, "fusion_lon": 0.0}, {"lat": 38.95667016666667, "is_disabled": 0, "type": "electric_bike", "lon": -77.02784533333333, "bike_id": "6c4a6ba50b137e9ceb257776dbd1bb68", "fusion_lat": 0.0, "name": "6c4a6ba50b137e9ceb257776dbd1bb68", "is_reserved": 0, "rental_uris": {"android": "https://dc.lft.to/lastmile_qr_scan", "ios": "https://dc.lft.to/lastmile_qr_scan"}, "fusion_lon": 0.0}, {"lat": 38.95888016666667, "is_disabled": 0, "type": "electric_bike", "lon": -76.92479283333333, "bike_id": "34521609682ea9d417544e8ad9a4ed8d", "fusion_lat": 0.0, "name": "34521609682ea9d417544e8ad9a4ed8d", "is_reserved": 0, "rental_uris": {"android": "https://dc.lft.to/lastmile_qr_scan", "ios": "https://dc.lft.to/lastmile_qr_scan"}, "fusion_lon": 0.0}, {"lat": 38.88304983333333, "is_disabled": 0, "type": "electric_bike", "lon": -77.0316525, "bike_id": "bcd72b3297b6839e14733c3f6e8f73a3", "fusion_lat": 0.0, "name": "bcd72b3297b6839e14733c3f6e8f73a3", "is_reserved": 0, "rental_uris": {"android": "https://dc.lft.to/lastmile_qr_scan", "ios": "https://dc.lft.to/lastmile_qr_scan"}, "fusion_lon": 0.0}, {"lat": 38.921852333333334, "is_disabled": 0, "type": "electric_scooter", "lon": -76.996904, "bike_id": "0a4dfe90b760d65b46f6293d38bbab25", "fusion_lat": 0.0, "name": "0a4dfe90b760d65b46f6293d38bbab25", "is_reserved": 0, "rental_uris": {"android": "https://dc.lft.to/lastmile_qr_scan", "ios": "https://dc.lft.to/lastmile_qr_scan"}, "fusion_lon": 0.0}, {"lat": 38.903246, "is_disabled": 0, "type": "electric_scooter", "lon": -77.03830283333333, "bike_id": "ab4a587124c625f594990a0d6fa249df", "fusion_lat": 0.0, "name": "ab4a587124c625f594990a0d6fa249df", "is_reserved": 0, "rental_uris": {"android": "https://dc.lft.to/lastmile_qr_scan", "ios": "https://dc.lft.to/lastmile_qr_scan"}, "fusion_lon": 0.0}, {"lat": 38.95747466666667, "is_disabled": 0, "type": "electric_scooter", "lon": -77.02076016666666, "bike_id": "92591c96f4fb64bcfe189988da788a43", "fusion_lat": 0.0, "name": "92591c96f4fb64bcfe189988da788a43", "is_reserved": 0, "rental_uris": {"android": "https://dc.lft.to/lastmile_qr_scan", "ios": "https://dc.lft.to/lastmile_qr_scan"}, "fusion_lon": 0.0}, {"lat": 38.936690166666665, "is_disabled": 0, "type": "electric_scooter", "lon": -77.03595733333333, "bike_id": "c3aa64d19c59a45f94ea449e4e9be55d", "fusion_lat": 0.0, "name": "c3aa64d19c59a45f94ea449e4e9be55d", "is_reserved": 0, "rental_uris": {"android": "https://dc.lft.to/lastmile_qr_scan", "ios": "https://dc.lft.to/lastmile_qr_scan"}, "fusion_lon": 0.0}, {"lat": 38.92199383333333, "is_disabled": 0, "type": "electric_scooter", "lon": -76.98367033333334, "bike_id": "a377cad94f682a85274d24f323c6165b", "fusion_lat": 0.0, "name": "a377cad94f682a85274d24f323c6165b", "is_reserved": 0, "rental_uris": {"android": "https://dc.lft.to/lastmile_qr_scan", "ios": "https://dc.lft.to/lastmile_qr_scan"}, "fusion_lon": 0.0}, {"lat": 38.89960716666667, "is_disabled": 0, "type": "electric_scooter", "lon": -77.03363616666667, "bike_id": "dfa18961c7cbe457a737d0087e73d879", "fusion_lat": 0.0, "name": "dfa18961c7cbe457a737d0087e73d879", "is_reserved": 0, "rental_uris": {"android": "https://dc.lft.to/lastmile_qr_scan", "ios": "https://dc.lft.to/lastmile_qr_scan"}, "fusion_lon": 0.0}, {"lat": 38.918149666666665, "is_disabled": 0, "type": "electric_scooter", "lon": -77.0417285, "bike_id": "9f67a1766c2a32ab8e95160a089550a2", "fusion_lat": 0.0, "name": "9f67a1766c2a32ab8e95160a089550a2", "is_reserved": 0, "rental_uris": {"android": "https://dc.lft.to/lastmile_qr_scan", "ios": "https://dc.lft.to/lastmile_qr_scan"}, "fusion_lon": 0.0}, {"lat": 38.8936785, "is_disabled": 0, "type": "electric_scooter", "lon": -76.95002566666666, "bike_id": "e5d8a29caa674596bc2077a700afb869", "fusion_lat": 0.0, "name": "e5d8a29caa674596bc2077a700afb869", "is_reserved": 0, "rental_uris": {"android": "https://dc.lft.to/lastmile_qr_scan", "ios": "https://dc.lft.to/lastmile_qr_scan"}, "fusion_lon": 0.0}, {"lat": 38.97324483333333, "is_disabled": 0, "type": "electric_bike", "lon": -77.0215025, "bike_id": "f69d83cddd08bbe47a211a0fbdfa0b2e", "fusion_lat": 0.0, "name": "f69d83cddd08bbe47a211a0fbdfa0b2e", "is_reserved": 0, "rental_uris": {"android": "https://dc.lft.to/lastmile_qr_scan", "ios": "https://dc.lft.to/lastmile_qr_scan"}, "fusion_lon": 0.0}, {"lat": 38.856458, "is_disabled": 0, "type": "electric_bike", "lon": -77.1125005, "bike_id": "2c4a95dea099baa2061147193e2b115f", "fusion_lat": 0.0, "name": "2c4a95dea099baa2061147193e2b115f", "is_reserved": 0, "rental_uris": {"android": "https://dc.lft.to/lastmile_qr_scan", "ios": "https://dc.lft.to/lastmile_qr_scan"}, "fusion_lon": 0.0}, {"lat": 38.931114, "is_disabled": 0, "type": "electric_scooter", "lon": -77.0348535, "bike_id": "2ca3b87bb2e7a6dc84b2b7c192cff992", "fusion_lat": 0.0, "name": "2ca3b87bb2e7a6dc84b2b7c192cff992", "is_reserved": 0, "rental_uris": {"android": "https://dc.lft.to/lastmile_qr_scan", "ios": "https://dc.lft.to/lastmile_qr_scan"}, "fusion_lon": 0.0}, {"lat": 38.915777, "is_disabled": 0, "type": "electric_scooter", "lon": -77.01234033333333, "bike_id": "e7d315ec561695927ad5e0d9eb31a39f", "fusion_lat": 0.0, "name": "e7d315ec561695927ad5e0d9eb31a39f", "is_reserved": 0, "rental_uris": {"android": "https://dc.lft.to/lastmile_qr_scan", "ios": "https://dc.lft.to/lastmile_qr_scan"}, "fusion_lon": 0.0}, {"lat": 38.914069, "is_disabled": 0, "type": "electric_scooter", "lon": -77.031431, "bike_id": "edf6e08a130071081802e34ba8438e0f", "fusion_lat": 0.0, "name": "edf6e08a130071081802e34ba8438e0f", "is_reserved": 0, "rental_uris": {"android": "https://dc.lft.to/lastmile_qr_scan", "ios": "https://dc.lft.to/lastmile_qr_scan"}, "fusion_lon": 0.0}, {"lat": 38.903831333333336, "is_disabled": 0, "type": "electric_scooter", "lon": -77.0408915, "bike_id": "54a7047e29adb93f25b45cb23f6dcbf4", "fusion_lat": 0.0, "name": "54a7047e29adb93f25b45cb23f6dcbf4", "is_reserved": 0, "rental_uris": {"android": "https://dc.lft.to/lastmile_qr_scan", "ios": "https://dc.lft.to/lastmile_qr_scan"}, "fusion_lon": 0.0}, {"lat": 38.913995, "is_disabled": 0, "type": "electric_scooter", "lon": -77.03187933333334, "bike_id": "2fd612d2591605af8afcbd09a796a230", "fusion_lat": 0.0, "name": "2fd612d2591605af8afcbd09a796a230", "is_reserved": 0, "rental_uris": {"android": "https://dc.lft.to/lastmile_qr_scan", "ios": "https://dc.lft.to/lastmile_qr_scan"}, "fusion_lon": 0.0}, {"lat": 38.90496133333333, "is_disabled": 0, "type": "electric_scooter", "lon": -77.0448715, "bike_id": "e1da63648e5598f1ce47b39b34404924", "fusion_lat": 0.0, "name": "e1da63648e5598f1ce47b39b34404924", "is_reserved": 0, "rental_uris": {"android": "https://dc.lft.to/lastmile_qr_scan", "ios": "https://dc.lft.to/lastmile_qr_scan"}, "fusion_lon": 0.0}, {"lat": 38.884117333333336, "is_disabled": 0, "type": "electric_scooter", "lon": -77.02414233333333, "bike_id": "8d4d7fdacb56e86051468452d371ba11", "fusion_lat": 0.0, "name": "8d4d7fdacb56e86051468452d371ba11", "is_reserved": 0, "rental_uris": {"android": "https://dc.lft.to/lastmile_qr_scan", "ios": "https://dc.lft.to/lastmile_qr_scan"}, "fusion_lon": 0.0}, {"lat": 38.916691666666665, "is_disabled": 0, "type": "electric_scooter", "lon": -77.02718166666666, "bike_id": "a66c508dbc3d811fcef3034f8a0859c7", "fusion_lat": 0.0, "name": "a66c508dbc3d811fcef3034f8a0859c7", "is_reserved": 0, "rental_uris": {"android": "https://dc.lft.to/lastmile_qr_scan", "ios": "https://dc.lft.to/lastmile_qr_scan"}, "fusion_lon": 0.0}, {"lat": 38.918193333333335, "is_disabled": 0, "type": "electric_scooter", "lon": -77.02580383333333, "bike_id": "ae3f530801e525b5cb4af66b8fffe8bd", "fusion_lat": 0.0, "name": "ae3f530801e525b5cb4af66b8fffe8bd", "is_reserved": 0, "rental_uris": {"android": "https://dc.lft.to/lastmile_qr_scan", "ios": "https://dc.lft.to/lastmile_qr_scan"}, "fusion_lon": 0.0}, {"lat": 38.923693666666665, "is_disabled": 0, "type": "electric_scooter", "lon": -77.05257866666666, "bike_id": "2179bc9c13ab1f05ac9a8d94828da029", "fusion_lat": 0.0, "name": "2179bc9c13ab1f05ac9a8d94828da029", "is_reserved": 0, "rental_uris": {"android": "https://dc.lft.to/lastmile_qr_scan", "ios": "https://dc.lft.to/lastmile_qr_scan"}, "fusion_lon": 0.0}, {"lat": 38.917089833333335, "is_disabled": 0, "type": "electric_scooter", "lon": -77.03883633333334, "bike_id": "39d1edc3a08a3586cd819497b092744a", "fusion_lat": 0.0, "name": "39d1edc3a08a3586cd819497b092744a", "is_reserved": 0, "rental_uris": {"android": "https://dc.lft.to/lastmile_qr_scan", "ios": "https://dc.lft.to/lastmile_qr_scan"}, "fusion_lon": 0.0}, {"lat": 38.92007383333333, "is_disabled": 0, "type": "electric_scooter", "lon": -77.07118433333333, "bike_id": "3c980f42c7e50dbcd42c3bfdcbd9c99e", "fusion_lat": 0.0, "name": "3c980f42c7e50dbcd42c3bfdcbd9c99e", "is_reserved": 0, "rental_uris": {"android": "https://dc.lft.to/lastmile_qr_scan", "ios": "https://dc.lft.to/lastmile_qr_scan"}, "fusion_lon": 0.0}, {"lat": 38.908596833333334, "is_disabled": 0, "type": "electric_scooter", "lon": -77.04432, "bike_id": "cf7912e4302c83cb078f4379d23cae60", "fusion_lat": 0.0, "name": "cf7912e4302c83cb078f4379d23cae60", "is_reserved": 0, "rental_uris": {"android": "https://dc.lft.to/lastmile_qr_scan", "ios": "https://dc.lft.to/lastmile_qr_scan"}, "fusion_lon": 0.0}, {"lat": 38.91258633333333, "is_disabled": 0, "type": "electric_scooter", "lon": -77.04465733333333, "bike_id": "f1ac6bf2de6c0e502b62f00f313070ab", "fusion_lat": 0.0, "name": "f1ac6bf2de6c0e502b62f00f313070ab", "is_reserved": 0, "rental_uris": {"android": "https://dc.lft.to/lastmile_qr_scan", "ios": "https://dc.lft.to/lastmile_qr_scan"}, "fusion_lon": 0.0}, {"lat": 38.87508016666666, "is_disabled": 0, "type": "electric_scooter", "lon": -77.0017705, "bike_id": "bdf5cfc3db02e10af7b234e5e25e0d6f", "fusion_lat": 0.0, "name": "bdf5cfc3db02e10af7b234e5e25e0d6f", "is_reserved": 0, "rental_uris": {"android": "https://dc.lft.to/lastmile_qr_scan", "ios": "https://dc.lft.to/lastmile_qr_scan"}, "fusion_lon": 0.0}, {"lat": 38.89930716666667, "is_disabled": 0, "type": "electric_scooter", "lon": -77.054341, "bike_id": "e4f01dfa7c99e48dbf4e9e58b9f5c002", "fusion_lat": 0.0, "name": "e4f01dfa7c99e48dbf4e9e58b9f5c002", "is_reserved": 0, "rental_uris": {"android": "https://dc.lft.to/lastmile_qr_scan", "ios": "https://dc.lft.to/lastmile_qr_scan"}, "fusion_lon": 0.0}, {"lat": 38.8870685, "is_disabled": 0, "type": "electric_scooter", "lon": -77.032062, "bike_id": "5a50bf6749c8d9d49801bcfa38773cf7", "fusion_lat": 0.0, "name": "5a50bf6749c8d9d49801bcfa38773cf7", "is_reserved": 0, "rental_uris": {"android": "https://dc.lft.to/lastmile_qr_scan", "ios": "https://dc.lft.to/lastmile_qr_scan"}, "fusion_lon": 0.0}, {"lat": 38.863664, "is_disabled": 0, "type": "electric_scooter", "lon": -76.99041, "bike_id": "88b7d582a8d705eb6f88fac550284ea7", "fusion_lat": 0.0, "name": "88b7d582a8d705eb6f88fac550284ea7", "is_reserved": 0, "rental_uris": {"android": "https://dc.lft.to/lastmile_qr_scan", "ios": "https://dc.lft.to/lastmile_qr_scan"}, "fusion_lon": 0.0}, {"lat": 38.909774666666664, "is_disabled": 0, "type": "electric_scooter", "lon": -77.023973, "bike_id": "9392a0e1a77bc11ab9118d108e3dd0d8", "fusion_lat": 0.0, "name": "9392a0e1a77bc11ab9118d108e3dd0d8", "is_reserved": 0, "rental_uris": {"android": "https://dc.lft.to/lastmile_qr_scan", "ios": "https://dc.lft.to/lastmile_qr_scan"}, "fusion_lon": 0.0}, {"lat": 38.917627833333334, "is_disabled": 0, "type": "electric_scooter", "lon": -77.03662816666667, "bike_id": "935db52d50cc53f4ad46822ded578d49", "fusion_lat": 0.0, "name": "935db52d50cc53f4ad46822ded578d49", "is_reserved": 0, "rental_uris": {"android": "https://dc.lft.to/lastmile_qr_scan", "ios": "https://dc.lft.to/lastmile_qr_scan"}, "fusion_lon": 0.0}, {"lat": 38.943239166666665, "is_disabled": 0, "type": "electric_scooter", "lon": -77.07378, "bike_id": "746331fab0e78434c9145026a87d0478", "fusion_lat": 0.0, "name": "746331fab0e78434c9145026a87d0478", "is_reserved": 0, "rental_uris": {"android": "https://dc.lft.to/lastmile_qr_scan", "ios": "https://dc.lft.to/lastmile_qr_scan"}, "fusion_lon": 0.0}, {"lat": 38.9333725, "is_disabled": 0, "type": "electric_scooter", "lon": -76.995009, "bike_id": "95a37ea37e34d51c68dd950d41540067", "fusion_lat": 0.0, "name": "95a37ea37e34d51c68dd950d41540067", "is_reserved": 0, "rental_uris": {"android": "https://dc.lft.to/lastmile_qr_scan", "ios": "https://dc.lft.to/lastmile_qr_scan"}, "fusion_lon": 0.0}, {"lat": 38.8920875, "is_disabled": 0, "type": "electric_scooter", "lon": -77.01701816666667, "bike_id": "adf14a417eb3281086890b9865f1a346", "fusion_lat": 0.0, "name": "adf14a417eb3281086890b9865f1a346", "is_reserved": 0, "rental_uris": {"android": "https://dc.lft.to/lastmile_qr_scan", "ios": "https://dc.lft.to/lastmile_qr_scan"}, "fusion_lon": 0.0}, {"lat": 38.8962735, "is_disabled": 0, "type": "electric_scooter", "lon": -77.0328835, "bike_id": "6edada6681a9bf5c4f47c31b015d8c3d", "fusion_lat": 0.0, "name": "6edada6681a9bf5c4f47c31b015d8c3d", "is_reserved": 0, "rental_uris": {"android": "https://dc.lft.to/lastmile_qr_scan", "ios": "https://dc.lft.to/lastmile_qr_scan"}, "fusion_lon": 0.0}, {"lat": 38.902182333333336, "is_disabled": 0, "type": "electric_scooter", "lon": -77.02365583333334, "bike_id": "f6817cf0baabf10a8271004a3e5865bf", "fusion_lat": 0.0, "name": "f6817cf0baabf10a8271004a3e5865bf", "is_reserved": 0, "rental_uris": {"android": "https://dc.lft.to/lastmile_qr_scan", "ios": "https://dc.lft.to/lastmile_qr_scan"}, "fusion_lon": 0.0}, {"lat": 38.939808666666664, "is_disabled": 0, "type": "electric_scooter", "lon": -77.02890583333334, "bike_id": "f7e8142772ccd4cf325aa0ed25dd2c23", "fusion_lat": 0.0, "name": "f7e8142772ccd4cf325aa0ed25dd2c23", "is_reserved": 0, "rental_uris": {"android": "https://dc.lft.to/lastmile_qr_scan", "ios": "https://dc.lft.to/lastmile_qr_scan"}, "fusion_lon": 0.0}, {"lat": 38.85952916666667, "is_disabled": 0, "type": "electric_scooter", "lon": -76.99107783333334, "bike_id": "030a0da9b137c2d47c618c395aeeb045", "fusion_lat": 0.0, "name": "030a0da9b137c2d47c618c395aeeb045", "is_reserved": 0, "rental_uris": {"android": "https://dc.lft.to/lastmile_qr_scan", "ios": "https://dc.lft.to/lastmile_qr_scan"}, "fusion_lon": 0.0}, {"lat": 38.916967, "is_disabled": 0, "type": "electric_scooter", "lon": -77.04602866666667, "bike_id": "c399eec5ecc0a7b9ef8de2e8226225ef", "fusion_lat": 0.0, "name": "c399eec5ecc0a7b9ef8de2e8226225ef", "is_reserved": 0, "rental_uris": {"android": "https://dc.lft.to/lastmile_qr_scan", "ios": "https://dc.lft.to/lastmile_qr_scan"}, "fusion_lon": 0.0}, {"lat": 38.939802666666665, "is_disabled": 0, "type": "electric_scooter", "lon": -77.03263083333333, "bike_id": "2ab7f915bc436736e127fd01f5451222", "fusion_lat": 0.0, "name": "2ab7f915bc436736e127fd01f5451222", "is_reserved": 0, "rental_uris": {"android": "https://dc.lft.to/lastmile_qr_scan", "ios": "https://dc.lft.to/lastmile_qr_scan"}, "fusion_lon": 0.0}, {"lat": 38.875759333333335, "is_disabled": 0, "type": "electric_scooter", "lon": -77.0061285, "bike_id": "ca70ef5982ffa4c9fd6bfedbfedecd8a", "fusion_lat": 0.0, "name": "ca70ef5982ffa4c9fd6bfedbfedecd8a", "is_reserved": 0, "rental_uris": {"android": "https://dc.lft.to/lastmile_qr_scan", "ios": "https://dc.lft.to/lastmile_qr_scan"}, "fusion_lon": 0.0}, {"lat": 38.892299666666666, "is_disabled": 0, "type": "electric_scooter", "lon": -77.04999816666667, "bike_id": "8fb36f1be4a8b5f7a322e49712548b43", "fusion_lat": 0.0, "name": "8fb36f1be4a8b5f7a322e49712548b43", "is_reserved": 0, "rental_uris": {"android": "https://dc.lft.to/lastmile_qr_scan", "ios": "https://dc.lft.to/lastmile_qr_scan"}, "fusion_lon": 0.0}, {"lat": 38.911380666666666, "is_disabled": 0, "type": "electric_scooter", "lon": -77.0467145, "bike_id": "eeb381efe6d5863ee954ebe42205dca1", "fusion_lat": 0.0, "name": "eeb381efe6d5863ee954ebe42205dca1", "is_reserved": 0, "rental_uris": {"android": "https://dc.lft.to/lastmile_qr_scan", "ios": "https://dc.lft.to/lastmile_qr_scan"}, "fusion_lon": 0.0}, {"lat": 38.92482783333333, "is_disabled": 0, "type": "electric_scooter", "lon": -77.02630783333333, "bike_id": "ffa6d84b2bb799739e588c4e592ba007", "fusion_lat": 0.0, "name": "ffa6d84b2bb799739e588c4e592ba007", "is_reserved": 0, "rental_uris": {"android": "https://dc.lft.to/lastmile_qr_scan", "ios": "https://dc.lft.to/lastmile_qr_scan"}, "fusion_lon": 0.0}, {"lat": 38.91679716666667, "is_disabled": 0, "type": "electric_scooter", "lon": -77.03199266666667, "bike_id": "ac69b56000121c1d89a068d50c373856", "fusion_lat": 0.0, "name": "ac69b56000121c1d89a068d50c373856", "is_reserved": 0, "rental_uris": {"android": "https://dc.lft.to/lastmile_qr_scan", "ios": "https://dc.lft.to/lastmile_qr_scan"}, "fusion_lon": 0.0}, {"lat": 38.898566, "is_disabled": 0, "type": "electric_scooter", "lon": -77.027304, "bike_id": "599c76d2f2100a65b1b1b8d524d4ec89", "fusion_lat": 0.0, "name": "599c76d2f2100a65b1b1b8d524d4ec89", "is_reserved": 0, "rental_uris": {"android": "https://dc.lft.to/lastmile_qr_scan", "ios": "https://dc.lft.to/lastmile_qr_scan"}, "fusion_lon": 0.0}, {"lat": 38.9233395, "is_disabled": 0, "type": "electric_scooter", "lon": -77.0430235, "bike_id": "52b097cd6d31f4bad75b67406f2a03a7", "fusion_lat": 0.0, "name": "52b097cd6d31f4bad75b67406f2a03a7", "is_reserved": 0, "rental_uris": {"android": "https://dc.lft.to/lastmile_qr_scan", "ios": "https://dc.lft.to/lastmile_qr_scan"}, "fusion_lon": 0.0}, {"lat": 38.892204, "is_disabled": 0, "type": "electric_scooter", "lon": -77.04655966666667, "bike_id": "5ead5aa71d2c1553a5592fcdb03591f5", "fusion_lat": 0.0, "name": "5ead5aa71d2c1553a5592fcdb03591f5", "is_reserved": 0, "rental_uris": {"android": "https://dc.lft.to/lastmile_qr_scan", "ios": "https://dc.lft.to/lastmile_qr_scan"}, "fusion_lon": 0.0}, {"lat": 38.911092333333336, "is_disabled": 0, "type": "electric_scooter", "lon": -77.0420565, "bike_id": "93ad07c521028e2711e4209a46903c2f", "fusion_lat": 0.0, "name": "93ad07c521028e2711e4209a46903c2f", "is_reserved": 0, "rental_uris": {"android": "https://dc.lft.to/lastmile_qr_scan", "ios": "https://dc.lft.to/lastmile_qr_scan"}, "fusion_lon": 0.0}, {"lat": 38.928831833333334, "is_disabled": 0, "type": "electric_scooter", "lon": -77.03263683333333, "bike_id": "01b76c90edf61961c5901d00db3173f2", "fusion_lat": 0.0, "name": "01b76c90edf61961c5901d00db3173f2", "is_reserved": 0, "rental_uris": {"android": "https://dc.lft.to/lastmile_qr_scan", "ios": "https://dc.lft.to/lastmile_qr_scan"}, "fusion_lon": 0.0}, {"lat": 38.91116783333333, "is_disabled": 0, "type": "electric_scooter", "lon": -77.04503783333334, "bike_id": "254608ff3fa6568e285d2a9acbc31377", "fusion_lat": 0.0, "name": "254608ff3fa6568e285d2a9acbc31377", "is_reserved": 0, "rental_uris": {"android": "https://dc.lft.to/lastmile_qr_scan", "ios": "https://dc.lft.to/lastmile_qr_scan"}, "fusion_lon": 0.0}, {"lat": 38.91724583333333, "is_disabled": 0, "type": "electric_scooter", "lon": -77.04602816666667, "bike_id": "f2a79d30cd5567ad112e15a61247b93b", "fusion_lat": 0.0, "name": "f2a79d30cd5567ad112e15a61247b93b", "is_reserved": 0, "rental_uris": {"android": "https://dc.lft.to/lastmile_qr_scan", "ios": "https://dc.lft.to/lastmile_qr_scan"}, "fusion_lon": 0.0}, {"lat": 38.897419166666666, "is_disabled": 0, "type": "electric_scooter", "lon": -77.00009983333334, "bike_id": "a7f4ee973d86f3627ab5778420f4cbc0", "fusion_lat": 0.0, "name": "a7f4ee973d86f3627ab5778420f4cbc0", "is_reserved": 0, "rental_uris": {"android": "https://dc.lft.to/lastmile_qr_scan", "ios": "https://dc.lft.to/lastmile_qr_scan"}, "fusion_lon": 0.0}, {"lat": 38.9296875, "is_disabled": 0, "type": "electric_scooter", "lon": -77.03184316666666, "bike_id": "a523e4af0dc18aec809db1906c5ef4aa", "fusion_lat": 0.0, "name": "a523e4af0dc18aec809db1906c5ef4aa", "is_reserved": 0, "rental_uris": {"android": "https://dc.lft.to/lastmile_qr_scan", "ios": "https://dc.lft.to/lastmile_qr_scan"}, "fusion_lon": 0.0}, {"lat": 38.916986333333334, "is_disabled": 0, "type": "electric_scooter", "lon": -77.037684, "bike_id": "39dff01f152a8ce3d8b9b1c995a980e7", "fusion_lat": 0.0, "name": "39dff01f152a8ce3d8b9b1c995a980e7", "is_reserved": 0, "rental_uris": {"android": "https://dc.lft.to/lastmile_qr_scan", "ios": "https://dc.lft.to/lastmile_qr_scan"}, "fusion_lon": 0.0}, {"lat": 38.86663583333333, "is_disabled": 0, "type": "electric_scooter", "lon": -76.98906966666667, "bike_id": "f3105c4c58b119e1911d06c69c5666fd", "fusion_lat": 0.0, "name": "f3105c4c58b119e1911d06c69c5666fd", "is_reserved": 0, "rental_uris": {"android": "https://dc.lft.to/lastmile_qr_scan", "ios": "https://dc.lft.to/lastmile_qr_scan"}, "fusion_lon": 0.0}, {"lat": 38.914166, "is_disabled": 0, "type": "electric_scooter", "lon": -77.03395216666667, "bike_id": "72ef8e3b5d503316c86bc43ce2264fff", "fusion_lat": 0.0, "name": "72ef8e3b5d503316c86bc43ce2264fff", "is_reserved": 0, "rental_uris": {"android": "https://dc.lft.to/lastmile_qr_scan", "ios": "https://dc.lft.to/lastmile_qr_scan"}, "fusion_lon": 0.0}, {"lat": 38.917455, "is_disabled": 0, "type": "electric_scooter", "lon": -77.02599233333333, "bike_id": "930ec7a3df2ffded8ae048b87f492226", "fusion_lat": 0.0, "name": "930ec7a3df2ffded8ae048b87f492226", "is_reserved": 0, "rental_uris": {"android": "https://dc.lft.to/lastmile_qr_scan", "ios": "https://dc.lft.to/lastmile_qr_scan"}, "fusion_lon": 0.0}, {"lat": 38.9073945, "is_disabled": 0, "type": "electric_scooter", "lon": -77.03215983333334, "bike_id": "a48b6ffaae9a1575aafd53b0c4d0551c", "fusion_lat": 0.0, "name": "a48b6ffaae9a1575aafd53b0c4d0551c", "is_reserved": 0, "rental_uris": {"android": "https://dc.lft.to/lastmile_qr_scan", "ios": "https://dc.lft.to/lastmile_qr_scan"}, "fusion_lon": 0.0}, {"lat": 38.90659683333333, "is_disabled": 0, "type": "electric_scooter", "lon": -77.008215, "bike_id": "151935cdb98cc80cdcbd7e237c4cdefe", "fusion_lat": 0.0, "name": "151935cdb98cc80cdcbd7e237c4cdefe", "is_reserved": 0, "rental_uris": {"android": "https://dc.lft.to/lastmile_qr_scan", "ios": "https://dc.lft.to/lastmile_qr_scan"}, "fusion_lon": 0.0}, {"lat": 38.951843833333335, "is_disabled": 0, "type": "electric_bike", "lon": -76.93546933333333, "bike_id": "829c7c04a329398093ca23225e0dfb88", "fusion_lat": 0.0, "name": "829c7c04a329398093ca23225e0dfb88", "is_reserved": 0, "rental_uris": {"android": "https://dc.lft.to/lastmile_qr_scan", "ios": "https://dc.lft.to/lastmile_qr_scan"}, "fusion_lon": 0.0}, {"lat": 38.9393085, "is_disabled": 0, "type": "electric_scooter", "lon": -77.02225066666666, "bike_id": "66303b2871c5328c9fa81d66aa737c58", "fusion_lat": 0.0, "name": "66303b2871c5328c9fa81d66aa737c58", "is_reserved": 0, "rental_uris": {"android": "https://dc.lft.to/lastmile_qr_scan", "ios": "https://dc.lft.to/lastmile_qr_scan"}, "fusion_lon": 0.0}, {"lat": 38.911305666666664, "is_disabled": 0, "type": "electric_scooter", "lon": -77.029699, "bike_id": "25ee5ee4d14aeb76da76e2779ef86f01", "fusion_lat": 0.0, "name": "25ee5ee4d14aeb76da76e2779ef86f01", "is_reserved": 0, "rental_uris": {"android": "https://dc.lft.to/lastmile_qr_scan", "ios": "https://dc.lft.to/lastmile_qr_scan"}, "fusion_lon": 0.0}, {"lat": 38.913463, "is_disabled": 0, "type": "electric_scooter", "lon": -77.04355433333333, "bike_id": "7a5d99276a5eaf99f352745e7a936cec", "fusion_lat": 0.0, "name": "7a5d99276a5eaf99f352745e7a936cec", "is_reserved": 0, "rental_uris": {"android": "https://dc.lft.to/lastmile_qr_scan", "ios": "https://dc.lft.to/lastmile_qr_scan"}, "fusion_lon": 0.0}, {"lat": 38.86368133333333, "is_disabled": 0, "type": "electric_scooter", "lon": -76.99042683333333, "bike_id": "375ce52e29113b6f27bbad796078e4bd", "fusion_lat": 0.0, "name": "375ce52e29113b6f27bbad796078e4bd", "is_reserved": 0, "rental_uris": {"android": "https://dc.lft.to/lastmile_qr_scan", "ios": "https://dc.lft.to/lastmile_qr_scan"}, "fusion_lon": 0.0}, {"lat": 38.939835, "is_disabled": 0, "type": "electric_scooter", "lon": -77.03267783333334, "bike_id": "58cd55d608f13a82771bea6351fc5cab", "fusion_lat": 0.0, "name": "58cd55d608f13a82771bea6351fc5cab", "is_reserved": 0, "rental_uris": {"android": "https://dc.lft.to/lastmile_qr_scan", "ios": "https://dc.lft.to/lastmile_qr_scan"}, "fusion_lon": 0.0}, {"lat": 38.882984, "is_disabled": 0, "type": "electric_scooter", "lon": -76.98216383333333, "bike_id": "bb6e282876d06e36725231fb7831840a", "fusion_lat": 0.0, "name": "bb6e282876d06e36725231fb7831840a", "is_reserved": 0, "rental_uris": {"android": "https://dc.lft.to/lastmile_qr_scan", "ios": "https://dc.lft.to/lastmile_qr_scan"}, "fusion_lon": 0.0}, {"lat": 38.9126735, "is_disabled": 0, "type": "electric_scooter", "lon": -77.03627783333333, "bike_id": "e6b0061def4455c3eb988383c87ae519", "fusion_lat": 0.0, "name": "e6b0061def4455c3eb988383c87ae519", "is_reserved": 0, "rental_uris": {"android": "https://dc.lft.to/lastmile_qr_scan", "ios": "https://dc.lft.to/lastmile_qr_scan"}, "fusion_lon": 0.0}, {"lat": 38.871128, "is_disabled": 0, "type": "electric_scooter", "lon": -77.0107295, "bike_id": "6f6c44ff5b1f5f9e2538938301a85a8d", "fusion_lat": 0.0, "name": "6f6c44ff5b1f5f9e2538938301a85a8d", "is_reserved": 0, "rental_uris": {"android": "https://dc.lft.to/lastmile_qr_scan", "ios": "https://dc.lft.to/lastmile_qr_scan"}, "fusion_lon": 0.0}, {"lat": 38.87947033333333, "is_disabled": 0, "type": "electric_bike", "lon": -77.10740416666667, "bike_id": "6441918dc5458d1c9adc585a363d7a71", "fusion_lat": 0.0, "name": "6441918dc5458d1c9adc585a363d7a71", "is_reserved": 0, "rental_uris": {"android": "https://dc.lft.to/lastmile_qr_scan", "ios": "https://dc.lft.to/lastmile_qr_scan"}, "fusion_lon": 0.0}, {"lat": 38.90705416666667, "is_disabled": 0, "type": "electric_scooter", "lon": -76.98700666666667, "bike_id": "421d4c161d143acb800a81df8459c4f9", "fusion_lat": 0.0, "name": "421d4c161d143acb800a81df8459c4f9", "is_reserved": 0, "rental_uris": {"android": "https://dc.lft.to/lastmile_qr_scan", "ios": "https://dc.lft.to/lastmile_qr_scan"}, "fusion_lon": 0.0}, {"lat": 38.94759083333334, "is_disabled": 0, "type": "electric_scooter", "lon": -77.06565, "bike_id": "1e2a46569bbad9883cf58a1ccb00d58a", "fusion_lat": 0.0, "name": "1e2a46569bbad9883cf58a1ccb00d58a", "is_reserved": 0, "rental_uris": {"android": "https://dc.lft.to/lastmile_qr_scan", "ios": "https://dc.lft.to/lastmile_qr_scan"}, "fusion_lon": 0.0}, {"lat": 38.916858, "is_disabled": 0, "type": "electric_scooter", "lon": -77.02959416666667, "bike_id": "89a99b9cd3dacb56bc465f3132a81e26", "fusion_lat": 0.0, "name": "89a99b9cd3dacb56bc465f3132a81e26", "is_reserved": 0, "rental_uris": {"android": "https://dc.lft.to/lastmile_qr_scan", "ios": "https://dc.lft.to/lastmile_qr_scan"}, "fusion_lon": 0.0}, {"lat": 38.8931625, "is_disabled": 0, "type": "electric_scooter", "lon": -77.0448415, "bike_id": "652f2972d1e7ae0af956223c31e90111", "fusion_lat": 0.0, "name": "652f2972d1e7ae0af956223c31e90111", "is_reserved": 0, "rental_uris": {"android": "https://dc.lft.to/lastmile_qr_scan", "ios": "https://dc.lft.to/lastmile_qr_scan"}, "fusion_lon": 0.0}, {"lat": 38.8874885, "is_disabled": 0, "type": "electric_scooter", "lon": -77.02071283333333, "bike_id": "d9ece8b13d893241770fb9fa96f15c8b", "fusion_lat": 0.0, "name": "d9ece8b13d893241770fb9fa96f15c8b", "is_reserved": 0, "rental_uris": {"android": "https://dc.lft.to/lastmile_qr_scan", "ios": "https://dc.lft.to/lastmile_qr_scan"}, "fusion_lon": 0.0}, {"lat": 38.89221283333333, "is_disabled": 0, "type": "electric_scooter", "lon": -77.02651933333334, "bike_id": "fcceb8dd54855c256c0ad38752e7273f", "fusion_lat": 0.0, "name": "fcceb8dd54855c256c0ad38752e7273f", "is_reserved": 0, "rental_uris": {"android": "https://dc.lft.to/lastmile_qr_scan", "ios": "https://dc.lft.to/lastmile_qr_scan"}, "fusion_lon": 0.0}, {"lat": 38.90374383333333, "is_disabled": 0, "type": "electric_scooter", "lon": -77.00747766666667, "bike_id": "f5edd057326beeed06ee8b99ef25a7ab", "fusion_lat": 0.0, "name": "f5edd057326beeed06ee8b99ef25a7ab", "is_reserved": 0, "rental_uris": {"android": "https://dc.lft.to/lastmile_qr_scan", "ios": "https://dc.lft.to/lastmile_qr_scan"}, "fusion_lon": 0.0}, {"lat": 38.89954016666667, "is_disabled": 0, "type": "electric_scooter", "lon": -77.051768, "bike_id": "362d0ac88789030c080434f36de5dc22", "fusion_lat": 0.0, "name": "362d0ac88789030c080434f36de5dc22", "is_reserved": 0, "rental_uris": {"android": "https://dc.lft.to/lastmile_qr_scan", "ios": "https://dc.lft.to/lastmile_qr_scan"}, "fusion_lon": 0.0}, {"lat": 38.915087, "is_disabled": 0, "type": "electric_scooter", "lon": -77.01907283333334, "bike_id": "1451f1870ebbae1bb38b561738ea7c00", "fusion_lat": 0.0, "name": "1451f1870ebbae1bb38b561738ea7c00", "is_reserved": 0, "rental_uris": {"android": "https://dc.lft.to/lastmile_qr_scan", "ios": "https://dc.lft.to/lastmile_qr_scan"}, "fusion_lon": 0.0}, {"lat": 38.90814866666667, "is_disabled": 0, "type": "electric_scooter", "lon": -76.98565883333333, "bike_id": "0fabb13a097b6ed88fdb202aeac47963", "fusion_lat": 0.0, "name": "0fabb13a097b6ed88fdb202aeac47963", "is_reserved": 0, "rental_uris": {"android": "https://dc.lft.to/lastmile_qr_scan", "ios": "https://dc.lft.to/lastmile_qr_scan"}, "fusion_lon": 0.0}, {"lat": 38.897421, "is_disabled": 0, "type": "electric_scooter", "lon": -77.0468425, "bike_id": "815d7756987301a4fbf927264472de2a", "fusion_lat": 0.0, "name": "815d7756987301a4fbf927264472de2a", "is_reserved": 0, "rental_uris": {"android": "https://dc.lft.to/lastmile_qr_scan", "ios": "https://dc.lft.to/lastmile_qr_scan"}, "fusion_lon": 0.0}, {"lat": 38.962272166666665, "is_disabled": 0, "type": "electric_scooter", "lon": -77.02780416666667, "bike_id": "c3c773dfe5a18a4895dfef5a6ad02ad0", "fusion_lat": 0.0, "name": "c3c773dfe5a18a4895dfef5a6ad02ad0", "is_reserved": 0, "rental_uris": {"android": "https://dc.lft.to/lastmile_qr_scan", "ios": "https://dc.lft.to/lastmile_qr_scan"}, "fusion_lon": 0.0}, {"lat": 38.922558333333335, "is_disabled": 0, "type": "electric_scooter", "lon": -77.04148083333334, "bike_id": "916ce3638d9787a2cd9b6d7280005abc", "fusion_lat": 0.0, "name": "916ce3638d9787a2cd9b6d7280005abc", "is_reserved": 0, "rental_uris": {"android": "https://dc.lft.to/lastmile_qr_scan", "ios": "https://dc.lft.to/lastmile_qr_scan"}, "fusion_lon": 0.0}, {"lat": 38.89998216666667, "is_disabled": 0, "type": "electric_scooter", "lon": -77.05097166666667, "bike_id": "9de76c51a089fd352309beb1b47470f9", "fusion_lat": 0.0, "name": "9de76c51a089fd352309beb1b47470f9", "is_reserved": 0, "rental_uris": {"android": "https://dc.lft.to/lastmile_qr_scan", "ios": "https://dc.lft.to/lastmile_qr_scan"}, "fusion_lon": 0.0}, {"lat": 38.922571833333336, "is_disabled": 0, "type": "electric_scooter", "lon": -77.03405316666667, "bike_id": "bdf5a7e380070715839d182b1da90164", "fusion_lat": 0.0, "name": "bdf5a7e380070715839d182b1da90164", "is_reserved": 0, "rental_uris": {"android": "https://dc.lft.to/lastmile_qr_scan", "ios": "https://dc.lft.to/lastmile_qr_scan"}, "fusion_lon": 0.0}, {"lat": 38.92627916666667, "is_disabled": 0, "type": "electric_scooter", "lon": -77.0378595, "bike_id": "efcd9366cb70a5f4ad38ec5e8d8b02e8", "fusion_lat": 0.0, "name": "efcd9366cb70a5f4ad38ec5e8d8b02e8", "is_reserved": 0, "rental_uris": {"android": "https://dc.lft.to/lastmile_qr_scan", "ios": "https://dc.lft.to/lastmile_qr_scan"}, "fusion_lon": 0.0}, {"lat": 38.8747115, "is_disabled": 0, "type": "electric_scooter", "lon": -77.0107745, "bike_id": "f11609b4a1722beb67d2d5006414ee41", "fusion_lat": 0.0, "name": "f11609b4a1722beb67d2d5006414ee41", "is_reserved": 0, "rental_uris": {"android": "https://dc.lft.to/lastmile_qr_scan", "ios": "https://dc.lft.to/lastmile_qr_scan"}, "fusion_lon": 0.0}, {"lat": 38.8642605, "is_disabled": 0, "type": "electric_scooter", "lon": -76.97389433333333, "bike_id": "5ce7747bf4effae53e2d53d44c571a82", "fusion_lat": 0.0, "name": "5ce7747bf4effae53e2d53d44c571a82", "is_reserved": 0, "rental_uris": {"android": "https://dc.lft.to/lastmile_qr_scan", "ios": "https://dc.lft.to/lastmile_qr_scan"}, "fusion_lon": 0.0}, {"lat": 38.90289383333333, "is_disabled": 0, "type": "electric_scooter", "lon": -77.05331483333333, "bike_id": "564098af525b3fc8313508d08beef8ca", "fusion_lat": 0.0, "name": "564098af525b3fc8313508d08beef8ca", "is_reserved": 0, "rental_uris": {"android": "https://dc.lft.to/lastmile_qr_scan", "ios": "https://dc.lft.to/lastmile_qr_scan"}, "fusion_lon": 0.0}, {"lat": 38.89736583333333, "is_disabled": 0, "type": "electric_scooter", "lon": -77.04991483333333, "bike_id": "105cd56dc8e378e7b099bd51bac499ee", "fusion_lat": 0.0, "name": "105cd56dc8e378e7b099bd51bac499ee", "is_reserved": 0, "rental_uris": {"android": "https://dc.lft.to/lastmile_qr_scan", "ios": "https://dc.lft.to/lastmile_qr_scan"}, "fusion_lon": 0.0}, {"lat": 38.930870666666664, "is_disabled": 0, "type": "electric_scooter", "lon": -77.0313935, "bike_id": "9566b7eceeb23479a50b3146118c8580", "fusion_lat": 0.0, "name": "9566b7eceeb23479a50b3146118c8580", "is_reserved": 0, "rental_uris": {"android": "https://dc.lft.to/lastmile_qr_scan", "ios": "https://dc.lft.to/lastmile_qr_scan"}, "fusion_lon": 0.0}, {"lat": 38.916700166666665, "is_disabled": 0, "type": "electric_scooter", "lon": -77.02721316666667, "bike_id": "872d67f7064c1cd692e2ce56c63f2ac6", "fusion_lat": 0.0, "name": "872d67f7064c1cd692e2ce56c63f2ac6", "is_reserved": 0, "rental_uris": {"android": "https://dc.lft.to/lastmile_qr_scan", "ios": "https://dc.lft.to/lastmile_qr_scan"}, "fusion_lon": 0.0}, {"lat": 38.93091883333334, "is_disabled": 0, "type": "electric_scooter", "lon": -77.025823, "bike_id": "d05a88f70f256e252fb384efaac14bf3", "fusion_lat": 0.0, "name": "d05a88f70f256e252fb384efaac14bf3", "is_reserved": 0, "rental_uris": {"android": "https://dc.lft.to/lastmile_qr_scan", "ios": "https://dc.lft.to/lastmile_qr_scan"}, "fusion_lon": 0.0}, {"lat": 38.94904733333333, "is_disabled": 0, "type": "electric_bike", "lon": -76.97240683333334, "bike_id": "fce49cfeceb60790fef778a029f2a15b", "fusion_lat": 0.0, "name": "fce49cfeceb60790fef778a029f2a15b", "is_reserved": 0, "rental_uris": {"android": "https://dc.lft.to/lastmile_qr_scan", "ios": "https://dc.lft.to/lastmile_qr_scan"}, "fusion_lon": 0.0}, {"lat": 38.91688633333333, "is_disabled": 0, "type": "electric_scooter", "lon": -77.02952316666666, "bike_id": "9eebdac3e2310ac7411a9d4c6c70ea9c", "fusion_lat": 0.0, "name": "9eebdac3e2310ac7411a9d4c6c70ea9c", "is_reserved": 0, "rental_uris": {"android": "https://dc.lft.to/lastmile_qr_scan", "ios": "https://dc.lft.to/lastmile_qr_scan"}, "fusion_lon": 0.0}, {"lat": 38.9423755, "is_disabled": 0, "type": "electric_scooter", "lon": -77.07233683333334, "bike_id": "fa4f80199512f5907add8fd23161acab", "fusion_lat": 0.0, "name": "fa4f80199512f5907add8fd23161acab", "is_reserved": 0, "rental_uris": {"android": "https://dc.lft.to/lastmile_qr_scan", "ios": "https://dc.lft.to/lastmile_qr_scan"}, "fusion_lon": 0.0}, {"lat": 38.93980583333333, "is_disabled": 0, "type": "electric_scooter", "lon": -77.028919, "bike_id": "c410fe531f15cb622831462d457aa70b", "fusion_lat": 0.0, "name": "c410fe531f15cb622831462d457aa70b", "is_reserved": 0, "rental_uris": {"android": "https://dc.lft.to/lastmile_qr_scan", "ios": "https://dc.lft.to/lastmile_qr_scan"}, "fusion_lon": 0.0}, {"lat": 38.898413833333336, "is_disabled": 0, "type": "electric_scooter", "lon": -77.03337216666667, "bike_id": "f275b88b9f8013b0a09a6a6462f6b0bd", "fusion_lat": 0.0, "name": "f275b88b9f8013b0a09a6a6462f6b0bd", "is_reserved": 0, "rental_uris": {"android": "https://dc.lft.to/lastmile_qr_scan", "ios": "https://dc.lft.to/lastmile_qr_scan"}, "fusion_lon": 0.0}, {"lat": 38.88734516666667, "is_disabled": 0, "type": "electric_scooter", "lon": -77.01389583333334, "bike_id": "17a62cbced8b2c465347536adff26fb4", "fusion_lat": 0.0, "name": "17a62cbced8b2c465347536adff26fb4", "is_reserved": 0, "rental_uris": {"android": "https://dc.lft.to/lastmile_qr_scan", "ios": "https://dc.lft.to/lastmile_qr_scan"}, "fusion_lon": 0.0}, {"lat": 38.9156115, "is_disabled": 0, "type": "electric_scooter", "lon": -77.03162066666667, "bike_id": "34d34c7c4b7f531b82d614337cbc1c3e", "fusion_lat": 0.0, "name": "34d34c7c4b7f531b82d614337cbc1c3e", "is_reserved": 0, "rental_uris": {"android": "https://dc.lft.to/lastmile_qr_scan", "ios": "https://dc.lft.to/lastmile_qr_scan"}, "fusion_lon": 0.0}, {"lat": 38.87299183333333, "is_disabled": 0, "type": "electric_bike", "lon": -77.01567266666666, "bike_id": "dc1c5a56914155e9fedcc21a0523d728", "fusion_lat": 0.0, "name": "dc1c5a56914155e9fedcc21a0523d728", "is_reserved": 0, "rental_uris": {"android": "https://dc.lft.to/lastmile_qr_scan", "ios": "https://dc.lft.to/lastmile_qr_scan"}, "fusion_lon": 0.0}, {"lat": 38.949420333333336, "is_disabled": 0, "type": "electric_scooter", "lon": -77.0202065, "bike_id": "499405c663bd5d04731c706a3a34e609", "fusion_lat": 0.0, "name": "499405c663bd5d04731c706a3a34e609", "is_reserved": 0, "rental_uris": {"android": "https://dc.lft.to/lastmile_qr_scan", "ios": "https://dc.lft.to/lastmile_qr_scan"}, "fusion_lon": 0.0}, {"lat": 38.903770333333334, "is_disabled": 0, "type": "electric_scooter", "lon": -77.04868066666667, "bike_id": "9661eb47f6e6fd2a963fa14ed0b97ce3", "fusion_lat": 0.0, "name": "9661eb47f6e6fd2a963fa14ed0b97ce3", "is_reserved": 0, "rental_uris": {"android": "https://dc.lft.to/lastmile_qr_scan", "ios": "https://dc.lft.to/lastmile_qr_scan"}, "fusion_lon": 0.0}, {"lat": 38.86276083333333, "is_disabled": 0, "type": "electric_scooter", "lon": -76.992429, "bike_id": "8ad1b955f209bafea89ad6573eb76f30", "fusion_lat": 0.0, "name": "8ad1b955f209bafea89ad6573eb76f30", "is_reserved": 0, "rental_uris": {"android": "https://dc.lft.to/lastmile_qr_scan", "ios": "https://dc.lft.to/lastmile_qr_scan"}, "fusion_lon": 0.0}, {"lat": 38.918337, "is_disabled": 0, "type": "electric_scooter", "lon": -77.0321875, "bike_id": "cc99a8e673347b953e16d053fc22d096", "fusion_lat": 0.0, "name": "cc99a8e673347b953e16d053fc22d096", "is_reserved": 0, "rental_uris": {"android": "https://dc.lft.to/lastmile_qr_scan", "ios": "https://dc.lft.to/lastmile_qr_scan"}, "fusion_lon": 0.0}, {"lat": 38.91927733333333, "is_disabled": 0, "type": "electric_scooter", "lon": -77.03175616666667, "bike_id": "14526ba4595ed877466669017eab65d8", "fusion_lat": 0.0, "name": "14526ba4595ed877466669017eab65d8", "is_reserved": 0, "rental_uris": {"android": "https://dc.lft.to/lastmile_qr_scan", "ios": "https://dc.lft.to/lastmile_qr_scan"}, "fusion_lon": 0.0}, {"lat": 38.9049855, "is_disabled": 0, "type": "electric_scooter", "lon": -77.06285166666666, "bike_id": "96f0d0abc92a5963f54bff06ada1d233", "fusion_lat": 0.0, "name": "96f0d0abc92a5963f54bff06ada1d233", "is_reserved": 0, "rental_uris": {"android": "https://dc.lft.to/lastmile_qr_scan", "ios": "https://dc.lft.to/lastmile_qr_scan"}, "fusion_lon": 0.0}, {"lat": 38.921443, "is_disabled": 0, "type": "electric_scooter", "lon": -77.01839666666666, "bike_id": "b7df805b7690b034eb619ee4666d9f10", "fusion_lat": 0.0, "name": "b7df805b7690b034eb619ee4666d9f10", "is_reserved": 0, "rental_uris": {"android": "https://dc.lft.to/lastmile_qr_scan", "ios": "https://dc.lft.to/lastmile_qr_scan"}, "fusion_lon": 0.0}, {"lat": 38.917048333333334, "is_disabled": 0, "type": "electric_scooter", "lon": -77.032555, "bike_id": "5ea2477834d12f81d0cdd12bcce76c01", "fusion_lat": 0.0, "name": "5ea2477834d12f81d0cdd12bcce76c01", "is_reserved": 0, "rental_uris": {"android": "https://dc.lft.to/lastmile_qr_scan", "ios": "https://dc.lft.to/lastmile_qr_scan"}, "fusion_lon": 0.0}, {"lat": 38.896796, "is_disabled": 0, "type": "electric_scooter", "lon": -77.00793733333333, "bike_id": "8d50399dfb2c21505b9a6e98c14b263d", "fusion_lat": 0.0, "name": "8d50399dfb2c21505b9a6e98c14b263d", "is_reserved": 0, "rental_uris": {"android": "https://dc.lft.to/lastmile_qr_scan", "ios": "https://dc.lft.to/lastmile_qr_scan"}, "fusion_lon": 0.0}, {"lat": 38.93104183333333, "is_disabled": 0, "type": "electric_scooter", "lon": -76.96727266666667, "bike_id": "2782404437d4290a1f2dfd10cc0a475d", "fusion_lat": 0.0, "name": "2782404437d4290a1f2dfd10cc0a475d", "is_reserved": 0, "rental_uris": {"android": "https://dc.lft.to/lastmile_qr_scan", "ios": "https://dc.lft.to/lastmile_qr_scan"}, "fusion_lon": 0.0}, {"lat": 38.91699916666666, "is_disabled": 0, "type": "electric_scooter", "lon": -77.025538, "bike_id": "b1579759ad3a6ff1a0598660ed99ac42", "fusion_lat": 0.0, "name": "b1579759ad3a6ff1a0598660ed99ac42", "is_reserved": 0, "rental_uris": {"android": "https://dc.lft.to/lastmile_qr_scan", "ios": "https://dc.lft.to/lastmile_qr_scan"}, "fusion_lon": 0.0}, {"lat": 38.921921166666664, "is_disabled": 0, "type": "electric_scooter", "lon": -77.04255233333333, "bike_id": "1bb1b5f69256fc3807368eb4d4712316", "fusion_lat": 0.0, "name": "1bb1b5f69256fc3807368eb4d4712316", "is_reserved": 0, "rental_uris": {"android": "https://dc.lft.to/lastmile_qr_scan", "ios": "https://dc.lft.to/lastmile_qr_scan"}, "fusion_lon": 0.0}, {"lat": 38.901343833333335, "is_disabled": 0, "type": "electric_scooter", "lon": -77.0007255, "bike_id": "02a39c76c923a6cad604f957b34b0a29", "fusion_lat": 0.0, "name": "02a39c76c923a6cad604f957b34b0a29", "is_reserved": 0, "rental_uris": {"android": "https://dc.lft.to/lastmile_qr_scan", "ios": "https://dc.lft.to/lastmile_qr_scan"}, "fusion_lon": 0.0}, {"lat": 38.93665216666667, "is_disabled": 0, "type": "electric_scooter", "lon": -77.03597866666667, "bike_id": "cf2c8e3c5a8ea6a3ecbe0eb3fe803dd8", "fusion_lat": 0.0, "name": "cf2c8e3c5a8ea6a3ecbe0eb3fe803dd8", "is_reserved": 0, "rental_uris": {"android": "https://dc.lft.to/lastmile_qr_scan", "ios": "https://dc.lft.to/lastmile_qr_scan"}, "fusion_lon": 0.0}, {"lat": 38.917129833333334, "is_disabled": 0, "type": "electric_scooter", "lon": -77.02899333333333, "bike_id": "f5a884ccfc1a56ca1e35729c8f6add6b", "fusion_lat": 0.0, "name": "f5a884ccfc1a56ca1e35729c8f6add6b", "is_reserved": 0, "rental_uris": {"android": "https://dc.lft.to/lastmile_qr_scan", "ios": "https://dc.lft.to/lastmile_qr_scan"}, "fusion_lon": 0.0}, {"lat": 39.03050016666667, "is_disabled": 0, "type": "electric_bike", "lon": -77.0948725, "bike_id": "ea4db3dabc17b1e9f391fb6d1fc326c5", "fusion_lat": 0.0, "name": "ea4db3dabc17b1e9f391fb6d1fc326c5", "is_reserved": 0, "rental_uris": {"android": "https://dc.lft.to/lastmile_qr_scan", "ios": "https://dc.lft.to/lastmile_qr_scan"}, "fusion_lon": 0.0}, {"lat": 38.8870465, "is_disabled": 0, "type": "electric_scooter", "lon": -77.001516, "bike_id": "2bec6123a111d2144bb6ad7653c04c06", "fusion_lat": 0.0, "name": "2bec6123a111d2144bb6ad7653c04c06", "is_reserved": 0, "rental_uris": {"android": "https://dc.lft.to/lastmile_qr_scan", "ios": "https://dc.lft.to/lastmile_qr_scan"}, "fusion_lon": 0.0}, {"lat": 38.92326033333333, "is_disabled": 0, "type": "electric_scooter", "lon": -77.03897433333333, "bike_id": "e3c74999da3bcc10fa3703e2957d19f7", "fusion_lat": 0.0, "name": "e3c74999da3bcc10fa3703e2957d19f7", "is_reserved": 0, "rental_uris": {"android": "https://dc.lft.to/lastmile_qr_scan", "ios": "https://dc.lft.to/lastmile_qr_scan"}, "fusion_lon": 0.0}, {"lat": 38.930189, "is_disabled": 0, "type": "electric_scooter", "lon": -77.0279895, "bike_id": "dcdae86fcbc2b0c7a09e3e9a7695aec7", "fusion_lat": 0.0, "name": "dcdae86fcbc2b0c7a09e3e9a7695aec7", "is_reserved": 0, "rental_uris": {"android": "https://dc.lft.to/lastmile_qr_scan", "ios": "https://dc.lft.to/lastmile_qr_scan"}, "fusion_lon": 0.0}, {"lat": 38.917099, "is_disabled": 0, "type": "electric_scooter", "lon": -77.02895366666667, "bike_id": "987cbcb8dd74f883a1bcdfea11ff7956", "fusion_lat": 0.0, "name": "987cbcb8dd74f883a1bcdfea11ff7956", "is_reserved": 0, "rental_uris": {"android": "https://dc.lft.to/lastmile_qr_scan", "ios": "https://dc.lft.to/lastmile_qr_scan"}, "fusion_lon": 0.0}, {"lat": 38.915507833333336, "is_disabled": 0, "type": "electric_scooter", "lon": -77.03513316666667, "bike_id": "384b1a68ffb6d125309092dc349260a7", "fusion_lat": 0.0, "name": "384b1a68ffb6d125309092dc349260a7", "is_reserved": 0, "rental_uris": {"android": "https://dc.lft.to/lastmile_qr_scan", "ios": "https://dc.lft.to/lastmile_qr_scan"}, "fusion_lon": 0.0}, {"lat": 38.89223066666667, "is_disabled": 0, "type": "electric_scooter", "lon": -77.04800116666667, "bike_id": "77d8637efd86ed6479236317faa26833", "fusion_lat": 0.0, "name": "77d8637efd86ed6479236317faa26833", "is_reserved": 0, "rental_uris": {"android": "https://dc.lft.to/lastmile_qr_scan", "ios": "https://dc.lft.to/lastmile_qr_scan"}, "fusion_lon": 0.0}, {"lat": 38.87386583333333, "is_disabled": 0, "type": "electric_scooter", "lon": -77.0007445, "bike_id": "0b4c4fecb432dfa934c491c47611edb8", "fusion_lat": 0.0, "name": "0b4c4fecb432dfa934c491c47611edb8", "is_reserved": 0, "rental_uris": {"android": "https://dc.lft.to/lastmile_qr_scan", "ios": "https://dc.lft.to/lastmile_qr_scan"}, "fusion_lon": 0.0}, {"lat": 38.909716, "is_disabled": 0, "type": "electric_scooter", "lon": -77.0451825, "bike_id": "21e02ede969df46412b62dc02086fcd9", "fusion_lat": 0.0, "name": "21e02ede969df46412b62dc02086fcd9", "is_reserved": 0, "rental_uris": {"android": "https://dc.lft.to/lastmile_qr_scan", "ios": "https://dc.lft.to/lastmile_qr_scan"}, "fusion_lon": 0.0}, {"lat": 38.9048655, "is_disabled": 0, "type": "electric_scooter", "lon": -77.0466905, "bike_id": "bc27711d10faaec53ab977159b51ad04", "fusion_lat": 0.0, "name": "bc27711d10faaec53ab977159b51ad04", "is_reserved": 0, "rental_uris": {"android": "https://dc.lft.to/lastmile_qr_scan", "ios": "https://dc.lft.to/lastmile_qr_scan"}, "fusion_lon": 0.0}, {"lat": 38.92182916666667, "is_disabled": 0, "type": "electric_scooter", "lon": -77.04229733333334, "bike_id": "3ae7ab470aa38d605d635d65741d5987", "fusion_lat": 0.0, "name": "3ae7ab470aa38d605d635d65741d5987", "is_reserved": 0, "rental_uris": {"android": "https://dc.lft.to/lastmile_qr_scan", "ios": "https://dc.lft.to/lastmile_qr_scan"}, "fusion_lon": 0.0}, {"lat": 38.9062055, "is_disabled": 0, "type": "electric_scooter", "lon": -77.07031266666667, "bike_id": "9760a63cbe6f7c54485af3db68a6d37f", "fusion_lat": 0.0, "name": "9760a63cbe6f7c54485af3db68a6d37f", "is_reserved": 0, "rental_uris": {"android": "https://dc.lft.to/lastmile_qr_scan", "ios": "https://dc.lft.to/lastmile_qr_scan"}, "fusion_lon": 0.0}, {"lat": 38.918927333333336, "is_disabled": 0, "type": "electric_scooter", "lon": -77.0391025, "bike_id": "568058557a420e8a41e67ff5c92be500", "fusion_lat": 0.0, "name": "568058557a420e8a41e67ff5c92be500", "is_reserved": 0, "rental_uris": {"android": "https://dc.lft.to/lastmile_qr_scan", "ios": "https://dc.lft.to/lastmile_qr_scan"}, "fusion_lon": 0.0}, {"lat": 38.9198865, "is_disabled": 0, "type": "electric_scooter", "lon": -77.047688, "bike_id": "2319cb46ff6841bdf5c6ae2420c59265", "fusion_lat": 0.0, "name": "2319cb46ff6841bdf5c6ae2420c59265", "is_reserved": 0, "rental_uris": {"android": "https://dc.lft.to/lastmile_qr_scan", "ios": "https://dc.lft.to/lastmile_qr_scan"}, "fusion_lon": 0.0}, {"lat": 38.92146266666666, "is_disabled": 0, "type": "electric_scooter", "lon": -77.043586, "bike_id": "7712672e3cb55d08b699e60daa01a615", "fusion_lat": 0.0, "name": "7712672e3cb55d08b699e60daa01a615", "is_reserved": 0, "rental_uris": {"android": "https://dc.lft.to/lastmile_qr_scan", "ios": "https://dc.lft.to/lastmile_qr_scan"}, "fusion_lon": 0.0}, {"lat": 38.901201666666665, "is_disabled": 0, "type": "electric_scooter", "lon": -77.02590766666667, "bike_id": "a02b76f4ee6ef0c03a34b25f8a1e4101", "fusion_lat": 0.0, "name": "a02b76f4ee6ef0c03a34b25f8a1e4101", "is_reserved": 0, "rental_uris": {"android": "https://dc.lft.to/lastmile_qr_scan", "ios": "https://dc.lft.to/lastmile_qr_scan"}, "fusion_lon": 0.0}, {"lat": 38.902697, "is_disabled": 0, "type": "electric_scooter", "lon": -77.04675316666666, "bike_id": "38a1d3cd0d86fae32dba3396aa710242", "fusion_lat": 0.0, "name": "38a1d3cd0d86fae32dba3396aa710242", "is_reserved": 0, "rental_uris": {"android": "https://dc.lft.to/lastmile_qr_scan", "ios": "https://dc.lft.to/lastmile_qr_scan"}, "fusion_lon": 0.0}, {"lat": 38.91415283333333, "is_disabled": 0, "type": "electric_scooter", "lon": -77.03060066666667, "bike_id": "9cce510e4b93c432eb2ea8146383e0a9", "fusion_lat": 0.0, "name": "9cce510e4b93c432eb2ea8146383e0a9", "is_reserved": 0, "rental_uris": {"android": "https://dc.lft.to/lastmile_qr_scan", "ios": "https://dc.lft.to/lastmile_qr_scan"}, "fusion_lon": 0.0}, {"lat": 38.9231665, "is_disabled": 0, "type": "electric_scooter", "lon": -77.039562, "bike_id": "23ff8ad9314fd885ea769beb1ff3dc0e", "fusion_lat": 0.0, "name": "23ff8ad9314fd885ea769beb1ff3dc0e", "is_reserved": 0, "rental_uris": {"android": "https://dc.lft.to/lastmile_qr_scan", "ios": "https://dc.lft.to/lastmile_qr_scan"}, "fusion_lon": 0.0}, {"lat": 38.89615883333333, "is_disabled": 0, "type": "electric_scooter", "lon": -76.95589516666666, "bike_id": "cc7c8b10236406c4d67c1d818b9fcbb4", "fusion_lat": 0.0, "name": "cc7c8b10236406c4d67c1d818b9fcbb4", "is_reserved": 0, "rental_uris": {"android": "https://dc.lft.to/lastmile_qr_scan", "ios": "https://dc.lft.to/lastmile_qr_scan"}, "fusion_lon": 0.0}, {"lat": 38.915633666666665, "is_disabled": 0, "type": "electric_scooter", "lon": -77.02176516666667, "bike_id": "fa2576de448b23a79eec12f2cf4fb3d0", "fusion_lat": 0.0, "name": "fa2576de448b23a79eec12f2cf4fb3d0", "is_reserved": 0, "rental_uris": {"android": "https://dc.lft.to/lastmile_qr_scan", "ios": "https://dc.lft.to/lastmile_qr_scan"}, "fusion_lon": 0.0}, {"lat": 38.921025666666665, "is_disabled": 0, "type": "electric_scooter", "lon": -77.0176105, "bike_id": "8c68a33601682a7d5316b15b192b6c8c", "fusion_lat": 0.0, "name": "8c68a33601682a7d5316b15b192b6c8c", "is_reserved": 0, "rental_uris": {"android": "https://dc.lft.to/lastmile_qr_scan", "ios": "https://dc.lft.to/lastmile_qr_scan"}, "fusion_lon": 0.0}, {"lat": 38.90464216666667, "is_disabled": 0, "type": "electric_scooter", "lon": -77.00772116666667, "bike_id": "7d9545d710305cb28d3e0076bf5d9503", "fusion_lat": 0.0, "name": "7d9545d710305cb28d3e0076bf5d9503", "is_reserved": 0, "rental_uris": {"android": "https://dc.lft.to/lastmile_qr_scan", "ios": "https://dc.lft.to/lastmile_qr_scan"}, "fusion_lon": 0.0}, {"lat": 38.92757533333333, "is_disabled": 0, "type": "electric_scooter", "lon": -77.032162, "bike_id": "4f7a8e847768965455679c56147c5c74", "fusion_lat": 0.0, "name": "4f7a8e847768965455679c56147c5c74", "is_reserved": 0, "rental_uris": {"android": "https://dc.lft.to/lastmile_qr_scan", "ios": "https://dc.lft.to/lastmile_qr_scan"}, "fusion_lon": 0.0}, {"lat": 38.90344183333333, "is_disabled": 0, "type": "electric_scooter", "lon": -77.020095, "bike_id": "a125bfd49b20c8c2413e21cdc182e5f4", "fusion_lat": 0.0, "name": "a125bfd49b20c8c2413e21cdc182e5f4", "is_reserved": 0, "rental_uris": {"android": "https://dc.lft.to/lastmile_qr_scan", "ios": "https://dc.lft.to/lastmile_qr_scan"}, "fusion_lon": 0.0}, {"lat": 38.88659783333333, "is_disabled": 0, "type": "electric_bike", "lon": -77.16237916666667, "bike_id": "8fe7394f89e97713679cb1f6539b073e", "fusion_lat": 0.0, "name": "8fe7394f89e97713679cb1f6539b073e", "is_reserved": 0, "rental_uris": {"android": "https://dc.lft.to/lastmile_qr_scan", "ios": "https://dc.lft.to/lastmile_qr_scan"}, "fusion_lon": 0.0}, {"lat": 38.921507166666665, "is_disabled": 0, "type": "electric_scooter", "lon": -77.04222933333334, "bike_id": "d591e611c57aca256248cec524030fff", "fusion_lat": 0.0, "name": "d591e611c57aca256248cec524030fff", "is_reserved": 0, "rental_uris": {"android": "https://dc.lft.to/lastmile_qr_scan", "ios": "https://dc.lft.to/lastmile_qr_scan"}, "fusion_lon": 0.0}, {"lat": 38.90132233333333, "is_disabled": 0, "type": "electric_scooter", "lon": -77.04167533333333, "bike_id": "8ba343062d0780e00d8c5f502eae79b1", "fusion_lat": 0.0, "name": "8ba343062d0780e00d8c5f502eae79b1", "is_reserved": 0, "rental_uris": {"android": "https://dc.lft.to/lastmile_qr_scan", "ios": "https://dc.lft.to/lastmile_qr_scan"}, "fusion_lon": 0.0}, {"lat": 38.93732283333333, "is_disabled": 0, "type": "electric_scooter", "lon": -77.032687, "bike_id": "7df8218f44b1ff505cd3ad6ff3b88181", "fusion_lat": 0.0, "name": "7df8218f44b1ff505cd3ad6ff3b88181", "is_reserved": 0, "rental_uris": {"android": "https://dc.lft.to/lastmile_qr_scan", "ios": "https://dc.lft.to/lastmile_qr_scan"}, "fusion_lon": 0.0}, {"lat": 38.9382935, "is_disabled": 0, "type": "electric_scooter", "lon": -77.06045283333333, "bike_id": "b0aee62b9d3e7e6fac7a47c3e7eba57e", "fusion_lat": 0.0, "name": "b0aee62b9d3e7e6fac7a47c3e7eba57e", "is_reserved": 0, "rental_uris": {"android": "https://dc.lft.to/lastmile_qr_scan", "ios": "https://dc.lft.to/lastmile_qr_scan"}, "fusion_lon": 0.0}, {"lat": 38.96605616666667, "is_disabled": 0, "type": "electric_bike", "lon": -76.983343, "bike_id": "5fd0908a199b2c44760083012bfb552f", "fusion_lat": 0.0, "name": "5fd0908a199b2c44760083012bfb552f", "is_reserved": 0, "rental_uris": {"android": "https://dc.lft.to/lastmile_qr_scan", "ios": "https://dc.lft.to/lastmile_qr_scan"}, "fusion_lon": 0.0}, {"lat": 38.8924895, "is_disabled": 0, "type": "electric_scooter", "lon": -77.0487655, "bike_id": "0b5449288efa6d32d9d190c964da1ac3", "fusion_lat": 0.0, "name": "0b5449288efa6d32d9d190c964da1ac3", "is_reserved": 0, "rental_uris": {"android": "https://dc.lft.to/lastmile_qr_scan", "ios": "https://dc.lft.to/lastmile_qr_scan"}, "fusion_lon": 0.0}, {"lat": 38.906918166666664, "is_disabled": 0, "type": "electric_scooter", "lon": -77.03775016666667, "bike_id": "eaa464740fd493abb80dfd70fd2a10f1", "fusion_lat": 0.0, "name": "eaa464740fd493abb80dfd70fd2a10f1", "is_reserved": 0, "rental_uris": {"android": "https://dc.lft.to/lastmile_qr_scan", "ios": "https://dc.lft.to/lastmile_qr_scan"}, "fusion_lon": 0.0}, {"lat": 38.920422, "is_disabled": 0, "type": "electric_scooter", "lon": -77.02622783333334, "bike_id": "a34e94db5607d7b54bb8df1e291b77e7", "fusion_lat": 0.0, "name": "a34e94db5607d7b54bb8df1e291b77e7", "is_reserved": 0, "rental_uris": {"android": "https://dc.lft.to/lastmile_qr_scan", "ios": "https://dc.lft.to/lastmile_qr_scan"}, "fusion_lon": 0.0}, {"lat": 38.898377333333336, "is_disabled": 0, "type": "electric_scooter", "lon": -76.93106233333333, "bike_id": "f3030fdc4ced68648fa7837f1ea586d6", "fusion_lat": 0.0, "name": "f3030fdc4ced68648fa7837f1ea586d6", "is_reserved": 0, "rental_uris": {"android": "https://dc.lft.to/lastmile_qr_scan", "ios": "https://dc.lft.to/lastmile_qr_scan"}, "fusion_lon": 0.0}, {"lat": 38.931214833333335, "is_disabled": 0, "type": "electric_scooter", "lon": -77.02344333333333, "bike_id": "2a5d7eca9e9adcf730b48a36db0feba2", "fusion_lat": 0.0, "name": "2a5d7eca9e9adcf730b48a36db0feba2", "is_reserved": 0, "rental_uris": {"android": "https://dc.lft.to/lastmile_qr_scan", "ios": "https://dc.lft.to/lastmile_qr_scan"}, "fusion_lon": 0.0}, {"lat": 38.92570116666667, "is_disabled": 0, "type": "electric_scooter", "lon": -76.97005466666667, "bike_id": "1b9413711843df77f410980ed355f290", "fusion_lat": 0.0, "name": "1b9413711843df77f410980ed355f290", "is_reserved": 0, "rental_uris": {"android": "https://dc.lft.to/lastmile_qr_scan", "ios": "https://dc.lft.to/lastmile_qr_scan"}, "fusion_lon": 0.0}, {"lat": 38.937391166666664, "is_disabled": 0, "type": "electric_scooter", "lon": -77.03255966666667, "bike_id": "af26d1495c47b5886173f3c9461bde87", "fusion_lat": 0.0, "name": "af26d1495c47b5886173f3c9461bde87", "is_reserved": 0, "rental_uris": {"android": "https://dc.lft.to/lastmile_qr_scan", "ios": "https://dc.lft.to/lastmile_qr_scan"}, "fusion_lon": 0.0}, {"lat": 38.93588916666667, "is_disabled": 0, "type": "electric_bike", "lon": -76.991191, "bike_id": "3da171fd06954d76a6b576ba4ec5742c", "fusion_lat": 0.0, "name": "3da171fd06954d76a6b576ba4ec5742c", "is_reserved": 0, "rental_uris": {"android": "https://dc.lft.to/lastmile_qr_scan", "ios": "https://dc.lft.to/lastmile_qr_scan"}, "fusion_lon": 0.0}, {"lat": 38.846109, "is_disabled": 0, "type": "electric_bike", "lon": -76.97820933333334, "bike_id": "cd79d47bb28890c564a7446fc25152ce", "fusion_lat": 0.0, "name": "cd79d47bb28890c564a7446fc25152ce", "is_reserved": 0, "rental_uris": {"android": "https://dc.lft.to/lastmile_qr_scan", "ios": "https://dc.lft.to/lastmile_qr_scan"}, "fusion_lon": 0.0}, {"lat": 38.90051733333333, "is_disabled": 0, "type": "electric_scooter", "lon": -77.04025666666666, "bike_id": "e8fbd54d0f083198e937982ce78734ee", "fusion_lat": 0.0, "name": "e8fbd54d0f083198e937982ce78734ee", "is_reserved": 0, "rental_uris": {"android": "https://dc.lft.to/lastmile_qr_scan", "ios": "https://dc.lft.to/lastmile_qr_scan"}, "fusion_lon": 0.0}, {"lat": 38.90961333333333, "is_disabled": 0, "type": "electric_scooter", "lon": -77.03210383333334, "bike_id": "bfec699ab96a902fd5e05161bb424720", "fusion_lat": 0.0, "name": "bfec699ab96a902fd5e05161bb424720", "is_reserved": 0, "rental_uris": {"android": "https://dc.lft.to/lastmile_qr_scan", "ios": "https://dc.lft.to/lastmile_qr_scan"}, "fusion_lon": 0.0}, {"lat": 38.9152305, "is_disabled": 0, "type": "electric_scooter", "lon": -77.012208, "bike_id": "e2e0823cf9347673c45a6d11e333f1c4", "fusion_lat": 0.0, "name": "e2e0823cf9347673c45a6d11e333f1c4", "is_reserved": 0, "rental_uris": {"android": "https://dc.lft.to/lastmile_qr_scan", "ios": "https://dc.lft.to/lastmile_qr_scan"}, "fusion_lon": 0.0}, {"lat": 38.9030235, "is_disabled": 0, "type": "electric_scooter", "lon": -77.03466366666666, "bike_id": "4245005f56174f934b2fc306265ab59d", "fusion_lat": 0.0, "name": "4245005f56174f934b2fc306265ab59d", "is_reserved": 0, "rental_uris": {"android": "https://dc.lft.to/lastmile_qr_scan", "ios": "https://dc.lft.to/lastmile_qr_scan"}, "fusion_lon": 0.0}, {"lat": 38.92055383333334, "is_disabled": 0, "type": "electric_scooter", "lon": -77.02417133333333, "bike_id": "f48caf2998ef573127e307d64419a630", "fusion_lat": 0.0, "name": "f48caf2998ef573127e307d64419a630", "is_reserved": 0, "rental_uris": {"android": "https://dc.lft.to/lastmile_qr_scan", "ios": "https://dc.lft.to/lastmile_qr_scan"}, "fusion_lon": 0.0}, {"lat": 38.86108816666667, "is_disabled": 0, "type": "electric_scooter", "lon": -76.98373983333333, "bike_id": "af1a36c164b8b237b4287bf249073534", "fusion_lat": 0.0, "name": "af1a36c164b8b237b4287bf249073534", "is_reserved": 0, "rental_uris": {"android": "https://dc.lft.to/lastmile_qr_scan", "ios": "https://dc.lft.to/lastmile_qr_scan"}, "fusion_lon": 0.0}, {"lat": 38.8460625, "is_disabled": 0, "type": "electric_bike", "lon": -76.96907966666667, "bike_id": "35b29cd67513dbd49b11e60a67a23d38", "fusion_lat": 0.0, "name": "35b29cd67513dbd49b11e60a67a23d38", "is_reserved": 0, "rental_uris": {"android": "https://dc.lft.to/lastmile_qr_scan", "ios": "https://dc.lft.to/lastmile_qr_scan"}, "fusion_lon": 0.0}, {"lat": 38.89553816666667, "is_disabled": 0, "type": "electric_scooter", "lon": -76.93042916666667, "bike_id": "c8cdc12f8434ba5f8be1f4c3569da1c8", "fusion_lat": 0.0, "name": "c8cdc12f8434ba5f8be1f4c3569da1c8", "is_reserved": 0, "rental_uris": {"android": "https://dc.lft.to/lastmile_qr_scan", "ios": "https://dc.lft.to/lastmile_qr_scan"}, "fusion_lon": 0.0}, {"lat": 39.0580865, "is_disabled": 0, "type": "electric_bike", "lon": -77.12626783333333, "bike_id": "817fb9e5b0a007e4e27d2f6654c9aeac", "fusion_lat": 0.0, "name": "817fb9e5b0a007e4e27d2f6654c9aeac", "is_reserved": 0, "rental_uris": {"android": "https://dc.lft.to/lastmile_qr_scan", "ios": "https://dc.lft.to/lastmile_qr_scan"}, "fusion_lon": 0.0}, {"lat": 38.8724965, "is_disabled": 0, "type": "electric_scooter", "lon": -77.0163915, "bike_id": "f9819d34548bc8666d8bc9300ac49363", "fusion_lat": 0.0, "name": "f9819d34548bc8666d8bc9300ac49363", "is_reserved": 0, "rental_uris": {"android": "https://dc.lft.to/lastmile_qr_scan", "ios": "https://dc.lft.to/lastmile_qr_scan"}, "fusion_lon": 0.0}, {"lat": 38.920421166666664, "is_disabled": 0, "type": "electric_bike", "lon": -77.0035635, "bike_id": "73e513265d89eca481be3fde1b7b2773", "fusion_lat": 0.0, "name": "73e513265d89eca481be3fde1b7b2773", "is_reserved": 0, "rental_uris": {"android": "https://dc.lft.to/lastmile_qr_scan", "ios": "https://dc.lft.to/lastmile_qr_scan"}, "fusion_lon": 0.0}, {"lat": 38.9364015, "is_disabled": 0, "type": "electric_scooter", "lon": -77.036581, "bike_id": "975f2ec1c3e6e811735cff5d15969156", "fusion_lat": 0.0, "name": "975f2ec1c3e6e811735cff5d15969156", "is_reserved": 0, "rental_uris": {"android": "https://dc.lft.to/lastmile_qr_scan", "ios": "https://dc.lft.to/lastmile_qr_scan"}, "fusion_lon": 0.0}, {"lat": 38.90029, "is_disabled": 0, "type": "electric_scooter", "lon": -77.02905516666667, "bike_id": "9b462cf24154897423b65afd525596f4", "fusion_lat": 0.0, "name": "9b462cf24154897423b65afd525596f4", "is_reserved": 0, "rental_uris": {"android": "https://dc.lft.to/lastmile_qr_scan", "ios": "https://dc.lft.to/lastmile_qr_scan"}, "fusion_lon": 0.0}, {"lat": 38.90433866666667, "is_disabled": 0, "type": "electric_scooter", "lon": -77.03207666666667, "bike_id": "cc06113c16bb095297356aa3fb538f8b", "fusion_lat": 0.0, "name": "cc06113c16bb095297356aa3fb538f8b", "is_reserved": 0, "rental_uris": {"android": "https://dc.lft.to/lastmile_qr_scan", "ios": "https://dc.lft.to/lastmile_qr_scan"}, "fusion_lon": 0.0}, {"lat": 38.86653166666667, "is_disabled": 0, "type": "electric_scooter", "lon": -76.98885416666667, "bike_id": "a55b10343a781f6e57e6ee9d1a103b97", "fusion_lat": 0.0, "name": "a55b10343a781f6e57e6ee9d1a103b97", "is_reserved": 0, "rental_uris": {"android": "https://dc.lft.to/lastmile_qr_scan", "ios": "https://dc.lft.to/lastmile_qr_scan"}, "fusion_lon": 0.0}, {"lat": 38.8951725, "is_disabled": 0, "type": "electric_scooter", "lon": -76.9773235, "bike_id": "c1a38728d1b32c634da8a93474bf3760", "fusion_lat": 0.0, "name": "c1a38728d1b32c634da8a93474bf3760", "is_reserved": 0, "rental_uris": {"android": "https://dc.lft.to/lastmile_qr_scan", "ios": "https://dc.lft.to/lastmile_qr_scan"}, "fusion_lon": 0.0}, {"lat": 38.9549185, "is_disabled": 0, "type": "electric_scooter", "lon": -77.06562033333333, "bike_id": "4746e212cee4fb9dfe81b70b10dae2ad", "fusion_lat": 0.0, "name": "4746e212cee4fb9dfe81b70b10dae2ad", "is_reserved": 0, "rental_uris": {"android": "https://dc.lft.to/lastmile_qr_scan", "ios": "https://dc.lft.to/lastmile_qr_scan"}, "fusion_lon": 0.0}, {"lat": 38.917039833333334, "is_disabled": 0, "type": "electric_scooter", "lon": -77.0045975, "bike_id": "339aa9cf8624664ac1882011a18f6488", "fusion_lat": 0.0, "name": "339aa9cf8624664ac1882011a18f6488", "is_reserved": 0, "rental_uris": {"android": "https://dc.lft.to/lastmile_qr_scan", "ios": "https://dc.lft.to/lastmile_qr_scan"}, "fusion_lon": 0.0}, {"lat": 38.922424666666664, "is_disabled": 0, "type": "electric_scooter", "lon": -77.04248983333333, "bike_id": "b8b13909dec6128f69424ec2b60ed399", "fusion_lat": 0.0, "name": "b8b13909dec6128f69424ec2b60ed399", "is_reserved": 0, "rental_uris": {"android": "https://dc.lft.to/lastmile_qr_scan", "ios": "https://dc.lft.to/lastmile_qr_scan"}, "fusion_lon": 0.0}, {"lat": 38.902127166666666, "is_disabled": 0, "type": "electric_scooter", "lon": -77.02371766666667, "bike_id": "c2d5fbc8b5c9ee6c3d827d58c3ab56c1", "fusion_lat": 0.0, "name": "c2d5fbc8b5c9ee6c3d827d58c3ab56c1", "is_reserved": 0, "rental_uris": {"android": "https://dc.lft.to/lastmile_qr_scan", "ios": "https://dc.lft.to/lastmile_qr_scan"}, "fusion_lon": 0.0}, {"lat": 38.92231816666666, "is_disabled": 0, "type": "electric_scooter", "lon": -77.04398333333333, "bike_id": "0a56be0dfd49329eec0b8f9cd2e1086e", "fusion_lat": 0.0, "name": "0a56be0dfd49329eec0b8f9cd2e1086e", "is_reserved": 0, "rental_uris": {"android": "https://dc.lft.to/lastmile_qr_scan", "ios": "https://dc.lft.to/lastmile_qr_scan"}, "fusion_lon": 0.0}, {"lat": 38.91836683333333, "is_disabled": 0, "type": "electric_scooter", "lon": -77.03210733333333, "bike_id": "0bfef8cebe4cb498e93de0bd386039ae", "fusion_lat": 0.0, "name": "0bfef8cebe4cb498e93de0bd386039ae", "is_reserved": 0, "rental_uris": {"android": "https://dc.lft.to/lastmile_qr_scan", "ios": "https://dc.lft.to/lastmile_qr_scan"}, "fusion_lon": 0.0}, {"lat": 38.92116866666667, "is_disabled": 0, "type": "electric_scooter", "lon": -77.03189183333333, "bike_id": "41bee4eff13a6b368d39601f49562b52", "fusion_lat": 0.0, "name": "41bee4eff13a6b368d39601f49562b52", "is_reserved": 0, "rental_uris": {"android": "https://dc.lft.to/lastmile_qr_scan", "ios": "https://dc.lft.to/lastmile_qr_scan"}, "fusion_lon": 0.0}, {"lat": 38.866264, "is_disabled": 0, "type": "electric_scooter", "lon": -76.98716783333333, "bike_id": "53a9921567af0f7e2affbbe2a460387c", "fusion_lat": 0.0, "name": "53a9921567af0f7e2affbbe2a460387c", "is_reserved": 0, "rental_uris": {"android": "https://dc.lft.to/lastmile_qr_scan", "ios": "https://dc.lft.to/lastmile_qr_scan"}, "fusion_lon": 0.0}, {"lat": 38.8052455, "is_disabled": 0, "type": "electric_bike", "lon": -77.03960216666667, "bike_id": "3ea6baa03f976adcf35219ca09b3b63a", "fusion_lat": 0.0, "name": "3ea6baa03f976adcf35219ca09b3b63a", "is_reserved": 0, "rental_uris": {"android": "https://dc.lft.to/lastmile_qr_scan", "ios": "https://dc.lft.to/lastmile_qr_scan"}, "fusion_lon": 0.0}, {"lat": 38.89771566666667, "is_disabled": 0, "type": "electric_bike", "lon": -76.90435066666667, "bike_id": "b533b386deb0a6b18f85e9e1d02c628c", "fusion_lat": 0.0, "name": "b533b386deb0a6b18f85e9e1d02c628c", "is_reserved": 0, "rental_uris": {"android": "https://dc.lft.to/lastmile_qr_scan", "ios": "https://dc.lft.to/lastmile_qr_scan"}, "fusion_lon": 0.0}, {"lat": 38.95636366666667, "is_disabled": 0, "type": "electric_bike", "lon": -76.93886166666667, "bike_id": "60b9ca22d85f3c409421df04a533ad0a", "fusion_lat": 0.0, "name": "60b9ca22d85f3c409421df04a533ad0a", "is_reserved": 0, "rental_uris": {"android": "https://dc.lft.to/lastmile_qr_scan", "ios": "https://dc.lft.to/lastmile_qr_scan"}, "fusion_lon": 0.0}, {"lat": 38.84271416666667, "is_disabled": 0, "type": "electric_bike", "lon": -76.98845066666667, "bike_id": "188180ee5615a94774414a748276ba4a", "fusion_lat": 0.0, "name": "188180ee5615a94774414a748276ba4a", "is_reserved": 0, "rental_uris": {"android": "https://dc.lft.to/lastmile_qr_scan", "ios": "https://dc.lft.to/lastmile_qr_scan"}, "fusion_lon": 0.0}, {"lat": 38.884987833333334, "is_disabled": 0, "type": "electric_scooter", "lon": -77.00570966666666, "bike_id": "29215d8f0db8464c18e10568016c00ce", "fusion_lat": 0.0, "name": "29215d8f0db8464c18e10568016c00ce", "is_reserved": 0, "rental_uris": {"android": "https://dc.lft.to/lastmile_qr_scan", "ios": "https://dc.lft.to/lastmile_qr_scan"}, "fusion_lon": 0.0}, {"lat": 38.901436333333336, "is_disabled": 0, "type": "electric_scooter", "lon": -77.00068233333333, "bike_id": "a73d7b81af7e79133c968b38d71eee5a", "fusion_lat": 0.0, "name": "a73d7b81af7e79133c968b38d71eee5a", "is_reserved": 0, "rental_uris": {"android": "https://dc.lft.to/lastmile_qr_scan", "ios": "https://dc.lft.to/lastmile_qr_scan"}, "fusion_lon": 0.0}, {"lat": 38.94431466666666, "is_disabled": 0, "type": "electric_scooter", "lon": -77.06305566666667, "bike_id": "cec55c364f426bc98a4c0893305c5c6b", "fusion_lat": 0.0, "name": "cec55c364f426bc98a4c0893305c5c6b", "is_reserved": 0, "rental_uris": {"android": "https://dc.lft.to/lastmile_qr_scan", "ios": "https://dc.lft.to/lastmile_qr_scan"}, "fusion_lon": 0.0}, {"lat": 38.9053125, "is_disabled": 0, "type": "electric_scooter", "lon": -77.06100816666667, "bike_id": "e090884c5678afc769c5f414ffbfd283", "fusion_lat": 0.0, "name": "e090884c5678afc769c5f414ffbfd283", "is_reserved": 0, "rental_uris": {"android": "https://dc.lft.to/lastmile_qr_scan", "ios": "https://dc.lft.to/lastmile_qr_scan"}, "fusion_lon": 0.0}, {"lat": 38.9166955, "is_disabled": 0, "type": "electric_scooter", "lon": -77.029709, "bike_id": "c0f82ca0dc8ba81058c76f320065ba79", "fusion_lat": 0.0, "name": "c0f82ca0dc8ba81058c76f320065ba79", "is_reserved": 0, "rental_uris": {"android": "https://dc.lft.to/lastmile_qr_scan", "ios": "https://dc.lft.to/lastmile_qr_scan"}, "fusion_lon": 0.0}, {"lat": 38.89233516666667, "is_disabled": 0, "type": "electric_scooter", "lon": -77.02816516666667, "bike_id": "2b9d069bcb958c6db4811861a0bb2e66", "fusion_lat": 0.0, "name": "2b9d069bcb958c6db4811861a0bb2e66", "is_reserved": 0, "rental_uris": {"android": "https://dc.lft.to/lastmile_qr_scan", "ios": "https://dc.lft.to/lastmile_qr_scan"}, "fusion_lon": 0.0}, {"lat": 38.900305333333336, "is_disabled": 0, "type": "electric_scooter", "lon": -76.98832333333333, "bike_id": "3844d07df4ef3e6f6a7fc89168c7fb44", "fusion_lat": 0.0, "name": "3844d07df4ef3e6f6a7fc89168c7fb44", "is_reserved": 0, "rental_uris": {"android": "https://dc.lft.to/lastmile_qr_scan", "ios": "https://dc.lft.to/lastmile_qr_scan"}, "fusion_lon": 0.0}, {"lat": 38.91470133333333, "is_disabled": 0, "type": "electric_scooter", "lon": -77.03183316666667, "bike_id": "69e34fa75f369d59f63186ddf3be60fc", "fusion_lat": 0.0, "name": "69e34fa75f369d59f63186ddf3be60fc", "is_reserved": 0, "rental_uris": {"android": "https://dc.lft.to/lastmile_qr_scan", "ios": "https://dc.lft.to/lastmile_qr_scan"}, "fusion_lon": 0.0}, {"lat": 38.91121966666667, "is_disabled": 0, "type": "electric_scooter", "lon": -77.03133783333334, "bike_id": "c486690fc2bd969dcf80a1c2c6adf8a6", "fusion_lat": 0.0, "name": "c486690fc2bd969dcf80a1c2c6adf8a6", "is_reserved": 0, "rental_uris": {"android": "https://dc.lft.to/lastmile_qr_scan", "ios": "https://dc.lft.to/lastmile_qr_scan"}, "fusion_lon": 0.0}, {"lat": 38.899804833333334, "is_disabled": 0, "type": "electric_scooter", "lon": -77.050932, "bike_id": "8aac09420937d9b6783c9e685a2ad355", "fusion_lat": 0.0, "name": "8aac09420937d9b6783c9e685a2ad355", "is_reserved": 0, "rental_uris": {"android": "https://dc.lft.to/lastmile_qr_scan", "ios": "https://dc.lft.to/lastmile_qr_scan"}, "fusion_lon": 0.0}, {"lat": 38.8851125, "is_disabled": 0, "type": "electric_scooter", "lon": -77.0027765, "bike_id": "d198d8a9198a55f15c01927488a35b58", "fusion_lat": 0.0, "name": "d198d8a9198a55f15c01927488a35b58", "is_reserved": 0, "rental_uris": {"android": "https://dc.lft.to/lastmile_qr_scan", "ios": "https://dc.lft.to/lastmile_qr_scan"}, "fusion_lon": 0.0}, {"lat": 38.905301333333334, "is_disabled": 0, "type": "electric_scooter", "lon": -77.05679783333333, "bike_id": "e2c212c939e056fd44e275a85a721c69", "fusion_lat": 0.0, "name": "e2c212c939e056fd44e275a85a721c69", "is_reserved": 0, "rental_uris": {"android": "https://dc.lft.to/lastmile_qr_scan", "ios": "https://dc.lft.to/lastmile_qr_scan"}, "fusion_lon": 0.0}, {"lat": 38.929063, "is_disabled": 0, "type": "electric_scooter", "lon": -77.06412116666667, "bike_id": "add452ba1d9a876c8f3f8d34b0d6ffb0", "fusion_lat": 0.0, "name": "add452ba1d9a876c8f3f8d34b0d6ffb0", "is_reserved": 0, "rental_uris": {"android": "https://dc.lft.to/lastmile_qr_scan", "ios": "https://dc.lft.to/lastmile_qr_scan"}, "fusion_lon": 0.0}, {"lat": 38.89894483333333, "is_disabled": 0, "type": "electric_scooter", "lon": -77.03350733333333, "bike_id": "801f2056780f8d32049ef9afc44f958e", "fusion_lat": 0.0, "name": "801f2056780f8d32049ef9afc44f958e", "is_reserved": 0, "rental_uris": {"android": "https://dc.lft.to/lastmile_qr_scan", "ios": "https://dc.lft.to/lastmile_qr_scan"}, "fusion_lon": 0.0}, {"lat": 38.86653483333333, "is_disabled": 0, "type": "electric_scooter", "lon": -76.990204, "bike_id": "7547f9c3fa64418cb35006a482ddd2d5", "fusion_lat": 0.0, "name": "7547f9c3fa64418cb35006a482ddd2d5", "is_reserved": 0, "rental_uris": {"android": "https://dc.lft.to/lastmile_qr_scan", "ios": "https://dc.lft.to/lastmile_qr_scan"}, "fusion_lon": 0.0}, {"lat": 38.908312333333335, "is_disabled": 0, "type": "electric_scooter", "lon": -76.94147833333334, "bike_id": "606e032c447c1f93e47a104c23d8906e", "fusion_lat": 0.0, "name": "606e032c447c1f93e47a104c23d8906e", "is_reserved": 0, "rental_uris": {"android": "https://dc.lft.to/lastmile_qr_scan", "ios": "https://dc.lft.to/lastmile_qr_scan"}, "fusion_lon": 0.0}, {"lat": 38.92365983333333, "is_disabled": 0, "type": "electric_scooter", "lon": -77.0191625, "bike_id": "023d4af4bb3379d671a33d42821dfcdc", "fusion_lat": 0.0, "name": "023d4af4bb3379d671a33d42821dfcdc", "is_reserved": 0, "rental_uris": {"android": "https://dc.lft.to/lastmile_qr_scan", "ios": "https://dc.lft.to/lastmile_qr_scan"}, "fusion_lon": 0.0}, {"lat": 38.916857, "is_disabled": 0, "type": "electric_scooter", "lon": -77.02950983333334, "bike_id": "21fde5a8fa7818d67c837e5e4fa82673", "fusion_lat": 0.0, "name": "21fde5a8fa7818d67c837e5e4fa82673", "is_reserved": 0, "rental_uris": {"android": "https://dc.lft.to/lastmile_qr_scan", "ios": "https://dc.lft.to/lastmile_qr_scan"}, "fusion_lon": 0.0}, {"lat": 38.922478166666664, "is_disabled": 0, "type": "electric_scooter", "lon": -77.030866, "bike_id": "5b0a3b90df0c0b9a96e489649997cb22", "fusion_lat": 0.0, "name": "5b0a3b90df0c0b9a96e489649997cb22", "is_reserved": 0, "rental_uris": {"android": "https://dc.lft.to/lastmile_qr_scan", "ios": "https://dc.lft.to/lastmile_qr_scan"}, "fusion_lon": 0.0}, {"lat": 38.88735466666667, "is_disabled": 0, "type": "electric_scooter", "lon": -77.032232, "bike_id": "5bdb85f6868a214bc192b3e334413446", "fusion_lat": 0.0, "name": "5bdb85f6868a214bc192b3e334413446", "is_reserved": 0, "rental_uris": {"android": "https://dc.lft.to/lastmile_qr_scan", "ios": "https://dc.lft.to/lastmile_qr_scan"}, "fusion_lon": 0.0}, {"lat": 38.894213, "is_disabled": 0, "type": "electric_scooter", "lon": -77.02053283333333, "bike_id": "3d1f446beeee52fa25a7dd0c0abb3a72", "fusion_lat": 0.0, "name": "3d1f446beeee52fa25a7dd0c0abb3a72", "is_reserved": 0, "rental_uris": {"android": "https://dc.lft.to/lastmile_qr_scan", "ios": "https://dc.lft.to/lastmile_qr_scan"}, "fusion_lon": 0.0}, {"lat": 38.9033755, "is_disabled": 0, "type": "electric_scooter", "lon": -77.02871316666666, "bike_id": "e4b1f7d528f6477c96c6dfd313993f76", "fusion_lat": 0.0, "name": "e4b1f7d528f6477c96c6dfd313993f76", "is_reserved": 0, "rental_uris": {"android": "https://dc.lft.to/lastmile_qr_scan", "ios": "https://dc.lft.to/lastmile_qr_scan"}, "fusion_lon": 0.0}, {"lat": 38.9161745, "is_disabled": 0, "type": "electric_scooter", "lon": -77.03206516666667, "bike_id": "66a9c13a4e4ab590be525ac87c39ee7d", "fusion_lat": 0.0, "name": "66a9c13a4e4ab590be525ac87c39ee7d", "is_reserved": 0, "rental_uris": {"android": "https://dc.lft.to/lastmile_qr_scan", "ios": "https://dc.lft.to/lastmile_qr_scan"}, "fusion_lon": 0.0}, {"lat": 38.875758166666664, "is_disabled": 0, "type": "electric_bike", "lon": -77.00088016666666, "bike_id": "d12c95aff0bd5cd615ac2622b3604ea3", "fusion_lat": 0.0, "name": "d12c95aff0bd5cd615ac2622b3604ea3", "is_reserved": 0, "rental_uris": {"android": "https://dc.lft.to/lastmile_qr_scan", "ios": "https://dc.lft.to/lastmile_qr_scan"}, "fusion_lon": 0.0}, {"lat": 38.839834, "is_disabled": 0, "type": "electric_bike", "lon": -77.005711, "bike_id": "0b152d636f8983fb10ecaaae51b1ca6e", "fusion_lat": 0.0, "name": "0b152d636f8983fb10ecaaae51b1ca6e", "is_reserved": 0, "rental_uris": {"android": "https://dc.lft.to/lastmile_qr_scan", "ios": "https://dc.lft.to/lastmile_qr_scan"}, "fusion_lon": 0.0}, {"lat": 38.921525, "is_disabled": 0, "type": "electric_scooter", "lon": -77.04243016666666, "bike_id": "6da1ab3ca25c07b5a7a216b47e5b32f4", "fusion_lat": 0.0, "name": "6da1ab3ca25c07b5a7a216b47e5b32f4", "is_reserved": 0, "rental_uris": {"android": "https://dc.lft.to/lastmile_qr_scan", "ios": "https://dc.lft.to/lastmile_qr_scan"}, "fusion_lon": 0.0}, {"lat": 38.892548166666664, "is_disabled": 0, "type": "electric_scooter", "lon": -76.94332716666666, "bike_id": "c9122c59d13ffdc1e9cb47bcb8e7fa99", "fusion_lat": 0.0, "name": "c9122c59d13ffdc1e9cb47bcb8e7fa99", "is_reserved": 0, "rental_uris": {"android": "https://dc.lft.to/lastmile_qr_scan", "ios": "https://dc.lft.to/lastmile_qr_scan"}, "fusion_lon": 0.0}, {"lat": 38.923614666666666, "is_disabled": 0, "type": "electric_scooter", "lon": -77.041466, "bike_id": "f1625db04936688deace099fea220454", "fusion_lat": 0.0, "name": "f1625db04936688deace099fea220454", "is_reserved": 0, "rental_uris": {"android": "https://dc.lft.to/lastmile_qr_scan", "ios": "https://dc.lft.to/lastmile_qr_scan"}, "fusion_lon": 0.0}, {"lat": 38.924304166666666, "is_disabled": 0, "type": "electric_scooter", "lon": -77.04010633333333, "bike_id": "b3f4fa9a34bf96744431e0eda4d159d7", "fusion_lat": 0.0, "name": "b3f4fa9a34bf96744431e0eda4d159d7", "is_reserved": 0, "rental_uris": {"android": "https://dc.lft.to/lastmile_qr_scan", "ios": "https://dc.lft.to/lastmile_qr_scan"}, "fusion_lon": 0.0}, {"lat": 38.91931316666667, "is_disabled": 0, "type": "electric_scooter", "lon": -77.04153233333334, "bike_id": "f396e2c82556c3e0521107cabe2af905", "fusion_lat": 0.0, "name": "f396e2c82556c3e0521107cabe2af905", "is_reserved": 0, "rental_uris": {"android": "https://dc.lft.to/lastmile_qr_scan", "ios": "https://dc.lft.to/lastmile_qr_scan"}, "fusion_lon": 0.0}, {"lat": 38.911215166666665, "is_disabled": 0, "type": "electric_scooter", "lon": -77.02221066666667, "bike_id": "edcc2d10e47db19f67cb5387bd3e4724", "fusion_lat": 0.0, "name": "edcc2d10e47db19f67cb5387bd3e4724", "is_reserved": 0, "rental_uris": {"android": "https://dc.lft.to/lastmile_qr_scan", "ios": "https://dc.lft.to/lastmile_qr_scan"}, "fusion_lon": 0.0}, {"lat": 38.9317475, "is_disabled": 0, "type": "electric_scooter", "lon": -77.02816783333333, "bike_id": "6428ca024004b8ac746bff0c60541d9e", "fusion_lat": 0.0, "name": "6428ca024004b8ac746bff0c60541d9e", "is_reserved": 0, "rental_uris": {"android": "https://dc.lft.to/lastmile_qr_scan", "ios": "https://dc.lft.to/lastmile_qr_scan"}, "fusion_lon": 0.0}, {"lat": 38.944311166666665, "is_disabled": 0, "type": "electric_scooter", "lon": -77.0630835, "bike_id": "91ecce20592d40761c34f7bd49068fbf", "fusion_lat": 0.0, "name": "91ecce20592d40761c34f7bd49068fbf", "is_reserved": 0, "rental_uris": {"android": "https://dc.lft.to/lastmile_qr_scan", "ios": "https://dc.lft.to/lastmile_qr_scan"}, "fusion_lon": 0.0}, {"lat": 38.90816566666667, "is_disabled": 0, "type": "electric_scooter", "lon": -76.99715416666666, "bike_id": "70c4fcd9e6f7849797c8b97510c10088", "fusion_lat": 0.0, "name": "70c4fcd9e6f7849797c8b97510c10088", "is_reserved": 0, "rental_uris": {"android": "https://dc.lft.to/lastmile_qr_scan", "ios": "https://dc.lft.to/lastmile_qr_scan"}, "fusion_lon": 0.0}, {"lat": 38.900081, "is_disabled": 0, "type": "electric_scooter", "lon": -77.00612733333334, "bike_id": "ef47e6fe26d2498f66c320c34ad63ef3", "fusion_lat": 0.0, "name": "ef47e6fe26d2498f66c320c34ad63ef3", "is_reserved": 0, "rental_uris": {"android": "https://dc.lft.to/lastmile_qr_scan", "ios": "https://dc.lft.to/lastmile_qr_scan"}, "fusion_lon": 0.0}, {"lat": 38.874697833333336, "is_disabled": 0, "type": "electric_scooter", "lon": -77.005516, "bike_id": "f6de4b0a2183307bc03a2c8e9faa2c75", "fusion_lat": 0.0, "name": "f6de4b0a2183307bc03a2c8e9faa2c75", "is_reserved": 0, "rental_uris": {"android": "https://dc.lft.to/lastmile_qr_scan", "ios": "https://dc.lft.to/lastmile_qr_scan"}, "fusion_lon": 0.0}, {"lat": 38.88318316666667, "is_disabled": 0, "type": "electric_scooter", "lon": -77.00935916666667, "bike_id": "eab7dce75e9d2abed6d108f38902536e", "fusion_lat": 0.0, "name": "eab7dce75e9d2abed6d108f38902536e", "is_reserved": 0, "rental_uris": {"android": "https://dc.lft.to/lastmile_qr_scan", "ios": "https://dc.lft.to/lastmile_qr_scan"}, "fusion_lon": 0.0}, {"lat": 38.8714835, "is_disabled": 0, "type": "electric_bike", "lon": -76.93670483333334, "bike_id": "ece9c0cdf2acb2eb03d4be2bd22150c4", "fusion_lat": 0.0, "name": "ece9c0cdf2acb2eb03d4be2bd22150c4", "is_reserved": 0, "rental_uris": {"android": "https://dc.lft.to/lastmile_qr_scan", "ios": "https://dc.lft.to/lastmile_qr_scan"}, "fusion_lon": 0.0}, {"lat": 38.94456233333333, "is_disabled": 0, "type": "electric_bike", "lon": -77.0232835, "bike_id": "581b69fee379cf876332c42d41194ce8", "fusion_lat": 0.0, "name": "581b69fee379cf876332c42d41194ce8", "is_reserved": 0, "rental_uris": {"android": "https://dc.lft.to/lastmile_qr_scan", "ios": "https://dc.lft.to/lastmile_qr_scan"}, "fusion_lon": 0.0}, {"lat": 38.919754833333336, "is_disabled": 0, "type": "electric_scooter", "lon": -77.01214466666667, "bike_id": "306109bba7b7125fb50461c513f41849", "fusion_lat": 0.0, "name": "306109bba7b7125fb50461c513f41849", "is_reserved": 0, "rental_uris": {"android": "https://dc.lft.to/lastmile_qr_scan", "ios": "https://dc.lft.to/lastmile_qr_scan"}, "fusion_lon": 0.0}, {"lat": 38.906967, "is_disabled": 0, "type": "electric_scooter", "lon": -77.043605, "bike_id": "d4dc93e3e1da5ba661b000391410c50d", "fusion_lat": 0.0, "name": "d4dc93e3e1da5ba661b000391410c50d", "is_reserved": 0, "rental_uris": {"android": "https://dc.lft.to/lastmile_qr_scan", "ios": "https://dc.lft.to/lastmile_qr_scan"}, "fusion_lon": 0.0}, {"lat": 38.947775666666665, "is_disabled": 0, "type": "electric_scooter", "lon": -77.07943066666667, "bike_id": "081ec25043c83b1208c0e1d61369f12e", "fusion_lat": 0.0, "name": "081ec25043c83b1208c0e1d61369f12e", "is_reserved": 0, "rental_uris": {"android": "https://dc.lft.to/lastmile_qr_scan", "ios": "https://dc.lft.to/lastmile_qr_scan"}, "fusion_lon": 0.0}, {"lat": 38.92057233333333, "is_disabled": 0, "type": "electric_scooter", "lon": -77.0242085, "bike_id": "1c3e5252c654c64c51a0e4dde3626dc4", "fusion_lat": 0.0, "name": "1c3e5252c654c64c51a0e4dde3626dc4", "is_reserved": 0, "rental_uris": {"android": "https://dc.lft.to/lastmile_qr_scan", "ios": "https://dc.lft.to/lastmile_qr_scan"}, "fusion_lon": 0.0}, {"lat": 38.92315716666667, "is_disabled": 0, "type": "electric_bike", "lon": -77.07611983333334, "bike_id": "42b9dbfc73f29be5bc5c1ef44d1c2387", "fusion_lat": 0.0, "name": "42b9dbfc73f29be5bc5c1ef44d1c2387", "is_reserved": 0, "rental_uris": {"android": "https://dc.lft.to/lastmile_qr_scan", "ios": "https://dc.lft.to/lastmile_qr_scan"}, "fusion_lon": 0.0}, {"lat": 38.9021505, "is_disabled": 0, "type": "electric_scooter", "lon": -77.023729, "bike_id": "7d407ccc16a684469f4244e0199d1d08", "fusion_lat": 0.0, "name": "7d407ccc16a684469f4244e0199d1d08", "is_reserved": 0, "rental_uris": {"android": "https://dc.lft.to/lastmile_qr_scan", "ios": "https://dc.lft.to/lastmile_qr_scan"}, "fusion_lon": 0.0}, {"lat": 38.915199333333334, "is_disabled": 0, "type": "electric_scooter", "lon": -77.02181466666667, "bike_id": "0059f38bd7daec360469b37ae7ecc445", "fusion_lat": 0.0, "name": "0059f38bd7daec360469b37ae7ecc445", "is_reserved": 0, "rental_uris": {"android": "https://dc.lft.to/lastmile_qr_scan", "ios": "https://dc.lft.to/lastmile_qr_scan"}, "fusion_lon": 0.0}, {"lat": 38.90519966666667, "is_disabled": 0, "type": "electric_scooter", "lon": -77.06448983333334, "bike_id": "4de2a3b4f439ec01146a3a39634d50ae", "fusion_lat": 0.0, "name": "4de2a3b4f439ec01146a3a39634d50ae", "is_reserved": 0, "rental_uris": {"android": "https://dc.lft.to/lastmile_qr_scan", "ios": "https://dc.lft.to/lastmile_qr_scan"}, "fusion_lon": 0.0}, {"lat": 38.90377016666667, "is_disabled": 0, "type": "electric_scooter", "lon": -77.03846666666666, "bike_id": "7811037cbaa753b2b3f45a803f79ae90", "fusion_lat": 0.0, "name": "7811037cbaa753b2b3f45a803f79ae90", "is_reserved": 0, "rental_uris": {"android": "https://dc.lft.to/lastmile_qr_scan", "ios": "https://dc.lft.to/lastmile_qr_scan"}, "fusion_lon": 0.0}, {"lat": 38.923433333333335, "is_disabled": 0, "type": "electric_bike", "lon": -76.9925195, "bike_id": "5b2d12f7a996ac890fb32b6dd7cbb1d4", "fusion_lat": 0.0, "name": "5b2d12f7a996ac890fb32b6dd7cbb1d4", "is_reserved": 0, "rental_uris": {"android": "https://dc.lft.to/lastmile_qr_scan", "ios": "https://dc.lft.to/lastmile_qr_scan"}, "fusion_lon": 0.0}, {"lat": 38.88754733333333, "is_disabled": 0, "type": "electric_scooter", "lon": -77.02159983333334, "bike_id": "fe012baebef0645b6bc488958b5d6ddc", "fusion_lat": 0.0, "name": "fe012baebef0645b6bc488958b5d6ddc", "is_reserved": 0, "rental_uris": {"android": "https://dc.lft.to/lastmile_qr_scan", "ios": "https://dc.lft.to/lastmile_qr_scan"}, "fusion_lon": 0.0}, {"lat": 38.933463, "is_disabled": 0, "type": "electric_scooter", "lon": -77.071825, "bike_id": "43b6a2e69b77b76f5dfe65e7b0cc4477", "fusion_lat": 0.0, "name": "43b6a2e69b77b76f5dfe65e7b0cc4477", "is_reserved": 0, "rental_uris": {"android": "https://dc.lft.to/lastmile_qr_scan", "ios": "https://dc.lft.to/lastmile_qr_scan"}, "fusion_lon": 0.0}, {"lat": 38.91400433333333, "is_disabled": 0, "type": "electric_scooter", "lon": -77.03265016666667, "bike_id": "0b3d12f819afcb84e44dca865687950a", "fusion_lat": 0.0, "name": "0b3d12f819afcb84e44dca865687950a", "is_reserved": 0, "rental_uris": {"android": "https://dc.lft.to/lastmile_qr_scan", "ios": "https://dc.lft.to/lastmile_qr_scan"}, "fusion_lon": 0.0}, {"lat": 38.92207, "is_disabled": 0, "type": "electric_scooter", "lon": -77.04014866666667, "bike_id": "60b85ab4868f6894dcaa54eefbbcb190", "fusion_lat": 0.0, "name": "60b85ab4868f6894dcaa54eefbbcb190", "is_reserved": 0, "rental_uris": {"android": "https://dc.lft.to/lastmile_qr_scan", "ios": "https://dc.lft.to/lastmile_qr_scan"}, "fusion_lon": 0.0}, {"lat": 38.90087966666667, "is_disabled": 0, "type": "electric_scooter", "lon": -77.02225116666666, "bike_id": "b930598e326fc0bd1ef5a1dfcc5bdcdc", "fusion_lat": 0.0, "name": "b930598e326fc0bd1ef5a1dfcc5bdcdc", "is_reserved": 0, "rental_uris": {"android": "https://dc.lft.to/lastmile_qr_scan", "ios": "https://dc.lft.to/lastmile_qr_scan"}, "fusion_lon": 0.0}, {"lat": 38.914042333333335, "is_disabled": 0, "type": "electric_scooter", "lon": -77.02050066666666, "bike_id": "cb58febb41dd9aeca05792ced11e7958", "fusion_lat": 0.0, "name": "cb58febb41dd9aeca05792ced11e7958", "is_reserved": 0, "rental_uris": {"android": "https://dc.lft.to/lastmile_qr_scan", "ios": "https://dc.lft.to/lastmile_qr_scan"}, "fusion_lon": 0.0}, {"lat": 38.90379383333333, "is_disabled": 0, "type": "electric_scooter", "lon": -77.04183316666666, "bike_id": "fe6617a2fcc372655c8f35b0ce33e81e", "fusion_lat": 0.0, "name": "fe6617a2fcc372655c8f35b0ce33e81e", "is_reserved": 0, "rental_uris": {"android": "https://dc.lft.to/lastmile_qr_scan", "ios": "https://dc.lft.to/lastmile_qr_scan"}, "fusion_lon": 0.0}, {"lat": 38.908817, "is_disabled": 0, "type": "electric_scooter", "lon": -77.034373, "bike_id": "a75058f8c74287924973d183f7b81120", "fusion_lat": 0.0, "name": "a75058f8c74287924973d183f7b81120", "is_reserved": 0, "rental_uris": {"android": "https://dc.lft.to/lastmile_qr_scan", "ios": "https://dc.lft.to/lastmile_qr_scan"}, "fusion_lon": 0.0}, {"lat": 38.914973833333335, "is_disabled": 0, "type": "electric_scooter", "lon": -77.02204816666666, "bike_id": "137d340d9baf193eb02fc10e58801467", "fusion_lat": 0.0, "name": "137d340d9baf193eb02fc10e58801467", "is_reserved": 0, "rental_uris": {"android": "https://dc.lft.to/lastmile_qr_scan", "ios": "https://dc.lft.to/lastmile_qr_scan"}, "fusion_lon": 0.0}, {"lat": 38.887214666666665, "is_disabled": 0, "type": "electric_scooter", "lon": -77.01381883333333, "bike_id": "18440d409012546603b98616c583174a", "fusion_lat": 0.0, "name": "18440d409012546603b98616c583174a", "is_reserved": 0, "rental_uris": {"android": "https://dc.lft.to/lastmile_qr_scan", "ios": "https://dc.lft.to/lastmile_qr_scan"}, "fusion_lon": 0.0}, {"lat": 38.88926333333333, "is_disabled": 0, "type": "electric_scooter", "lon": -76.9737515, "bike_id": "282d7e07a9a8255d8810c1b272d17feb", "fusion_lat": 0.0, "name": "282d7e07a9a8255d8810c1b272d17feb", "is_reserved": 0, "rental_uris": {"android": "https://dc.lft.to/lastmile_qr_scan", "ios": "https://dc.lft.to/lastmile_qr_scan"}, "fusion_lon": 0.0}, {"lat": 38.94201783333333, "is_disabled": 0, "type": "electric_scooter", "lon": -77.018301, "bike_id": "3c1684191926ae82539be9ca12da8128", "fusion_lat": 0.0, "name": "3c1684191926ae82539be9ca12da8128", "is_reserved": 0, "rental_uris": {"android": "https://dc.lft.to/lastmile_qr_scan", "ios": "https://dc.lft.to/lastmile_qr_scan"}, "fusion_lon": 0.0}, {"lat": 38.932571833333334, "is_disabled": 0, "type": "electric_scooter", "lon": -77.03261, "bike_id": "85926dfe304acacd2e4b6054694d583d", "fusion_lat": 0.0, "name": "85926dfe304acacd2e4b6054694d583d", "is_reserved": 0, "rental_uris": {"android": "https://dc.lft.to/lastmile_qr_scan", "ios": "https://dc.lft.to/lastmile_qr_scan"}, "fusion_lon": 0.0}, {"lat": 38.920547666666664, "is_disabled": 0, "type": "electric_scooter", "lon": -77.03287533333334, "bike_id": "4a53dcfce290f49d4d4ca5b90e7bf255", "fusion_lat": 0.0, "name": "4a53dcfce290f49d4d4ca5b90e7bf255", "is_reserved": 0, "rental_uris": {"android": "https://dc.lft.to/lastmile_qr_scan", "ios": "https://dc.lft.to/lastmile_qr_scan"}, "fusion_lon": 0.0}, {"lat": 38.92110983333333, "is_disabled": 0, "type": "electric_scooter", "lon": -77.04219016666667, "bike_id": "ae96b028fb26df69acfbc35434782361", "fusion_lat": 0.0, "name": "ae96b028fb26df69acfbc35434782361", "is_reserved": 0, "rental_uris": {"android": "https://dc.lft.to/lastmile_qr_scan", "ios": "https://dc.lft.to/lastmile_qr_scan"}, "fusion_lon": 0.0}, {"lat": 38.90632183333334, "is_disabled": 0, "type": "electric_scooter", "lon": -77.0628965, "bike_id": "760b1501d52b2c7766c2b194e22fd5a6", "fusion_lat": 0.0, "name": "760b1501d52b2c7766c2b194e22fd5a6", "is_reserved": 0, "rental_uris": {"android": "https://dc.lft.to/lastmile_qr_scan", "ios": "https://dc.lft.to/lastmile_qr_scan"}, "fusion_lon": 0.0}, {"lat": 38.967031, "is_disabled": 0, "type": "electric_bike", "lon": -77.10225283333334, "bike_id": "c5af1ab13813298ae08bfaf6f14fd41b", "fusion_lat": 0.0, "name": "c5af1ab13813298ae08bfaf6f14fd41b", "is_reserved": 0, "rental_uris": {"android": "https://dc.lft.to/lastmile_qr_scan", "ios": "https://dc.lft.to/lastmile_qr_scan"}, "fusion_lon": 0.0}, {"lat": 38.8616105, "is_disabled": 0, "type": "electric_bike", "lon": -77.13094233333334, "bike_id": "64b5bbdfe22f77b0877a652a9669f3d7", "fusion_lat": 0.0, "name": "64b5bbdfe22f77b0877a652a9669f3d7", "is_reserved": 0, "rental_uris": {"android": "https://dc.lft.to/lastmile_qr_scan", "ios": "https://dc.lft.to/lastmile_qr_scan"}, "fusion_lon": 0.0}, {"lat": 38.91638416666667, "is_disabled": 0, "type": "electric_scooter", "lon": -77.02273866666667, "bike_id": "ac4eaa620fbf2265e3b9d31ed726e8f7", "fusion_lat": 0.0, "name": "ac4eaa620fbf2265e3b9d31ed726e8f7", "is_reserved": 0, "rental_uris": {"android": "https://dc.lft.to/lastmile_qr_scan", "ios": "https://dc.lft.to/lastmile_qr_scan"}, "fusion_lon": 0.0},