{"data": {"bikes": [{"rental_uris": {"android": "https://dc.lft.to/lastmile_qr_scan", "ios": "https://dc.lft.to/lastmile_qr_scan"}, "bike_id": "7162235e1c67c826f8a116343de4626e", "name": "7162235e1c67c826f8a116343de4626e", "type": "electric_bike", "lon": -76.94808683333333, "lat": 38.8938785, "is_disabled": 0, "is_reserved": 0, "fusion_lat": 0.0, "fusion_lon": 0.0}, {"rental_uris": {"android": "https://dc.lft.to/lastmile_qr_scan", "ios": "https://dc.lft.to/lastmile_qr_scan"}, "bike_id": "68318c323a8579973287ef357b6ef0ae", "name": "68318c323a8579973287ef357b6ef0ae", "type": "electric_scooter", "lon": -77.0190835, "lat": 38.9150645, "is_disabled": 0, "is_reserved": 0, "fusion_lat": 0.0, "fusion_lon": 0.0}, {"rental_uris": {"android": "https://dc.lft.to/lastmile_qr_scan", "ios": "https://dc.lft.to/lastmile_qr_scan"}, "bike_id": "027d74b05ae6f2b63b3ed6a862ce5b3a", "name": "027d74b05ae6f2b63b3ed6a862ce5b3a", "type": "electric_scooter", "lon": -76.92917233333333, "lat": 38.89297966666667, "is_disabled": 0, "is_reserved": 0, "fusion_lat": 0.0, "fusion_lon": 0.0}, {"rental_uris": {"android": "https://dc.lft.to/lastmile_qr_scan", "ios": "https://dc.lft.to/lastmile_qr_scan"}, "bike_id": "e1b2137a237f01a75adb1918f0dfd69e", "name": "e1b2137a237f01a75adb1918f0dfd69e", "type": "electric_bike", "lon": -76.97829316666666, "lat": 38.870771833333336, "is_disabled": 0, "is_reserved": 0, "fusion_lat": 0.0, "fusion_lon": 0.0}, {"rental_uris": {"android": "https://dc.lft.to/lastmile_qr_scan", "ios": "https://dc.lft.to/lastmile_qr_scan"}, "bike_id": "3620150b18f256fc2470fc0c3dc77a11", "name": "3620150b18f256fc2470fc0c3dc77a11", "type": "electric_bike", "lon": -76.96059166666667, "lat": 38.8840515, "is_disabled": 0, "is_reserved": 0, "fusion_lat": 0.0, "fusion_lon": 0.0}, {"rental_uris": {"android": "https://dc.lft.to/lastmile_qr_scan", "ios": "https://dc.lft.to/lastmile_qr_scan"}, "bike_id": "d4a69fc246f0842e22a0e0ee6766a04f", "name": "d4a69fc246f0842e22a0e0ee6766a04f", "type": "electric_scooter", "lon": -77.03913, "lat": 38.923164166666666, "is_disabled": 0, "is_reserved": 0, "fusion_lat": 0.0, "fusion_lon": 0.0}, {"rental_uris": {"android": "https://dc.lft.to/lastmile_qr_scan", "ios": "https://dc.lft.to/lastmile_qr_scan"}, "bike_id": "ffd36ae3d6925358aaa7b7b6fd759832", "name": "ffd36ae3d6925358aaa7b7b6fd759832", "type": "electric_scooter", "lon": -77.0294135, "lat": 38.9036895, "is_disabled": 0, "is_reserved": 0, "fusion_lat": 0.0, "fusion_lon": 0.0}, {"rental_uris": {"android": "https://dc.lft.to/lastmile_qr_scan", "ios": "https://dc.lft.to/lastmile_qr_scan"}, "bike_id": "f5cf56c742fb114673142183cd92b7d7", "name": "f5cf56c742fb114673142183cd92b7d7", "type": "electric_scooter", "lon": -77.03853866666667, "lat": 38.867498166666664, "is_disabled": 0, "is_reserved": 0, "fusion_lat": 0.0, "fusion_lon": 0.0}, {"rental_uris": {"android": "https://dc.lft.to/lastmile_qr_scan", "ios": "https://dc.lft.to/lastmile_qr_scan"}, "bike_id": "99293182aa4f3a09318183d393fd394e", "name": "99293182aa4f3a09318183d393fd394e", "type": "electric_bike", "lon": -76.98868633333333, "lat": 38.954852, "is_disabled": 0, "is_reserved": 0, "fusion_lat": 0.0, "fusion_lon": 0.0}, {"rental_uris": {"android": "https://dc.lft.to/lastmile_qr_scan", "ios": "https://dc.lft.to/lastmile_qr_scan"}, "bike_id": "239e48344e2367d9c70635668ba4676e", "name": "239e48344e2367d9c70635668ba4676e", "type": "electric_scooter", "lon": -77.0221995, "lat": 38.9105445, "is_disabled": 0, "is_reserved": 0, "fusion_lat": 0.0, "fusion_lon": 0.0}, {"rental_uris": {"android": "https://dc.lft.to/lastmile_qr_scan", "ios": "https://dc.lft.to/lastmile_qr_scan"}, "bike_id": "e4c66d707b204d4462d9d1763658e06d", "name": "e4c66d707b204d4462d9d1763658e06d", "type": "electric_scooter", "lon": -77.0551385, "lat": 38.928408, "is_disabled": 0, "is_reserved": 0, "fusion_lat": 0.0, "fusion_lon": 0.0}, {"rental_uris": {"android": "https://dc.lft.to/lastmile_qr_scan", "ios": "https://dc.lft.to/lastmile_qr_scan"}, "bike_id": "86e2d49b9a1e885477a72a30f2628064", "name": "86e2d49b9a1e885477a72a30f2628064", "type": "electric_scooter", "lon": -76.99334633333333, "lat": 38.871434666666666, "is_disabled": 0, "is_reserved": 0, "fusion_lat": 0.0, "fusion_lon": 0.0}, {"rental_uris": {"android": "https://dc.lft.to/lastmile_qr_scan", "ios": "https://dc.lft.to/lastmile_qr_scan"}, "bike_id": "c76bb14e80924aca708e3d837fd71f25", "name": "c76bb14e80924aca708e3d837fd71f25", "type": "electric_scooter", "lon": -76.93733533333334, "lat": 38.89017916666667, "is_disabled": 0, "is_reserved": 0, "fusion_lat": 0.0, "fusion_lon": 0.0}, {"rental_uris": {"android": "https://dc.lft.to/lastmile_qr_scan", "ios": "https://dc.lft.to/lastmile_qr_scan"}, "bike_id": "4d482a551e4057e360e85f94b4a98635", "name": "4d482a551e4057e360e85f94b4a98635", "type": "electric_scooter", "lon": -77.00215266666666, "lat": 38.911054, "is_disabled": 0, "is_reserved": 0, "fusion_lat": 0.0, "fusion_lon": 0.0}, {"rental_uris": {"android": "https://dc.lft.to/lastmile_qr_scan", "ios": "https://dc.lft.to/lastmile_qr_scan"}, "bike_id": "ba3f5b2af0a611d868c63faf5562eaae", "name": "ba3f5b2af0a611d868c63faf5562eaae", "type": "electric_bike", "lon": -77.02617183333334, "lat": 38.96926, "is_disabled": 0, "is_reserved": 0, "fusion_lat": 0.0, "fusion_lon": 0.0}, {"rental_uris": {"android": "https://dc.lft.to/lastmile_qr_scan", "ios": "https://dc.lft.to/lastmile_qr_scan"}, "bike_id": "98b30b923557d733bd598852f8c9085d", "name": "98b30b923557d733bd598852f8c9085d", "type": "electric_scooter", "lon": -77.03529516666667, "lat": 38.91698216666666, "is_disabled": 0, "is_reserved": 0, "fusion_lat": 0.0, "fusion_lon": 0.0}, {"rental_uris": {"android": "https://dc.lft.to/lastmile_qr_scan", "ios": "https://dc.lft.to/lastmile_qr_scan"}, "bike_id": "8990a5b1626602a5c8b48bd379305afb", "name": "8990a5b1626602a5c8b48bd379305afb", "type": "electric_scooter", "lon": -77.03646116666667, "lat": 38.906352166666665, "is_disabled": 0, "is_reserved": 0, "fusion_lat": 0.0, "fusion_lon": 0.0}, {"rental_uris": {"android": "https://dc.lft.to/lastmile_qr_scan", "ios": "https://dc.lft.to/lastmile_qr_scan"}, "bike_id": "788079db59d416aa784fcef7d18d9ee4", "name": "788079db59d416aa784fcef7d18d9ee4", "type": "electric_scooter", "lon": -77.00662216666667, "lat": 38.87071733333333, "is_disabled": 0, "is_reserved": 0, "fusion_lat": 0.0, "fusion_lon": 0.0}, {"rental_uris": {"android": "https://dc.lft.to/lastmile_qr_scan", "ios": "https://dc.lft.to/lastmile_qr_scan"}, "bike_id": "b663d1c4e6fa3c43c8e91afe843f23e4", "name": "b663d1c4e6fa3c43c8e91afe843f23e4", "type": "electric_scooter", "lon": -76.98267583333333, "lat": 38.915664666666665, "is_disabled": 0, "is_reserved": 0, "fusion_lat": 0.0, "fusion_lon": 0.0}, {"rental_uris": {"android": "https://dc.lft.to/lastmile_qr_scan", "ios": "https://dc.lft.to/lastmile_qr_scan"}, "bike_id": "552a31f33831181bb93c56c46244d0ec", "name": "552a31f33831181bb93c56c46244d0ec", "type": "electric_scooter", "lon": -77.011252, "lat": 38.9158995, "is_disabled": 0, "is_reserved": 0, "fusion_lat": 0.0, "fusion_lon": 0.0}, {"rental_uris": {"android": "https://dc.lft.to/lastmile_qr_scan", "ios": "https://dc.lft.to/lastmile_qr_scan"}, "bike_id": "c395fa25449520d2c45e5ac2107e45d4", "name": "c395fa25449520d2c45e5ac2107e45d4", "type": "electric_scooter", "lon": -77.03427533333333, "lat": 38.90426466666667, "is_disabled": 0, "is_reserved": 0, "fusion_lat": 0.0, "fusion_lon": 0.0}, {"rental_uris": {"android": "https://dc.lft.to/lastmile_qr_scan", "ios": "https://dc.lft.to/lastmile_qr_scan"}, "bike_id": "c4ce5df71874b7029f88629e8c743858", "name": "c4ce5df71874b7029f88629e8c743858", "type": "electric_scooter", "lon": -77.02204666666667, "lat": 38.897384833333334, "is_disabled": 0, "is_reserved": 0, "fusion_lat": 0.0, "fusion_lon": 0.0}, {"rental_uris": {"android": "https://dc.lft.to/lastmile_qr_scan", "ios": "https://dc.lft.to/lastmile_qr_scan"}, "bike_id": "6545cb882d57c17cc1cdfe1f40d883f2", "name": "6545cb882d57c17cc1cdfe1f40d883f2", "type": "electric_scooter", "lon": -76.9652385, "lat": 38.8762835, "is_disabled": 0, "is_reserved": 0, "fusion_lat": 0.0, "fusion_lon": 0.0}, {"rental_uris": {"android": "https://dc.lft.to/lastmile_qr_scan", "ios": "https://dc.lft.to/lastmile_qr_scan"}, "bike_id": "b8dc8c1e07a4cb360b0ad7b608edd524", "name": "b8dc8c1e07a4cb360b0ad7b608edd524", "type": "electric_scooter", "lon": -77.00571183333334, "lat": 38.905524, "is_disabled": 0, "is_reserved": 0, "fusion_lat": 0.0, "fusion_lon": 0.0}, {"rental_uris": {"android": "https://dc.lft.to/lastmile_qr_scan", "ios": "https://dc.lft.to/lastmile_qr_scan"}, "bike_id": "9347eb52646837adc69a0cb5a5386652", "name": "9347eb52646837adc69a0cb5a5386652", "type": "electric_scooter", "lon": -77.0428915, "lat": 38.910339666666665, "is_disabled": 0, "is_reserved": 0, "fusion_lat": 0.0, "fusion_lon": 0.0}, {"rental_uris": {"android": "https://dc.lft.to/lastmile_qr_scan", "ios": "https://dc.lft.to/lastmile_qr_scan"}, "bike_id": "7d0511b844302e7dc815c7989e3c2410", "name": "7d0511b844302e7dc815c7989e3c2410", "type": "electric_bike", "lon": -77.11800733333334, "lat": 38.87374533333333, "is_disabled": 0, "is_reserved": 0, "fusion_lat": 0.0, "fusion_lon": 0.0}, {"rental_uris": {"android": "https://dc.lft.to/lastmile_qr_scan", "ios": "https://dc.lft.to/lastmile_qr_scan"}, "bike_id": "fbf470c3563067d3af59a94114ebf57a", "name": "fbf470c3563067d3af59a94114ebf57a", "type": "electric_scooter", "lon": -77.03081233333333, "lat": 38.911061833333335, "is_disabled": 0, "is_reserved": 0, "fusion_lat": 0.0, "fusion_lon": 0.0}, {"rental_uris": {"android": "https://dc.lft.to/lastmile_qr_scan", "ios": "https://dc.lft.to/lastmile_qr_scan"}, "bike_id": "1736cf1ab9f7e937588ecd0a074fd5d9", "name": "1736cf1ab9f7e937588ecd0a074fd5d9", "type": "electric_scooter", "lon": -77.03185716666667, "lat": 38.924871833333334, "is_disabled": 0, "is_reserved": 0, "fusion_lat": 0.0, "fusion_lon": 0.0}, {"rental_uris": {"android": "https://dc.lft.to/lastmile_qr_scan", "ios": "https://dc.lft.to/lastmile_qr_scan"}, "bike_id": "9a60f3db1f04063847c24b8b8b975e97", "name": "9a60f3db1f04063847c24b8b8b975e97", "type": "electric_scooter", "lon": -76.99385733333334, "lat": 38.87760933333333, "is_disabled": 0, "is_reserved": 0, "fusion_lat": 0.0, "fusion_lon": 0.0}, {"rental_uris": {"android": "https://dc.lft.to/lastmile_qr_scan", "ios": "https://dc.lft.to/lastmile_qr_scan"}, "bike_id": "62e0a79643c6f687ef3cff7c24bcc641", "name": "62e0a79643c6f687ef3cff7c24bcc641", "type": "electric_scooter", "lon": -77.04001216666667, "lat": 38.934315, "is_disabled": 0, "is_reserved": 0, "fusion_lat": 0.0, "fusion_lon": 0.0}, {"rental_uris": {"android": "https://dc.lft.to/lastmile_qr_scan", "ios": "https://dc.lft.to/lastmile_qr_scan"}, "bike_id": "9ed57454d11dbb9563185280aeab3ac0", "name": "9ed57454d11dbb9563185280aeab3ac0", "type": "electric_bike", "lon": -77.0301735, "lat": 38.934835666666665, "is_disabled": 0, "is_reserved": 0, "fusion_lat": 0.0, "fusion_lon": 0.0}, {"rental_uris": {"android": "https://dc.lft.to/lastmile_qr_scan", "ios": "https://dc.lft.to/lastmile_qr_scan"}, "bike_id": "6bb29bf2fd83530047e21616e059045e", "name": "6bb29bf2fd83530047e21616e059045e", "type": "electric_scooter", "lon": -77.00592366666666, "lat": 38.90608533333333, "is_disabled": 0, "is_reserved": 0, "fusion_lat": 0.0, "fusion_lon": 0.0}, {"rental_uris": {"android": "https://dc.lft.to/lastmile_qr_scan", "ios": "https://dc.lft.to/lastmile_qr_scan"}, "bike_id": "da3ce856cb9bd2720f96c5f9c71a749f", "name": "da3ce856cb9bd2720f96c5f9c71a749f", "type": "electric_scooter", "lon": -77.052173, "lat": 38.92488, "is_disabled": 0, "is_reserved": 0, "fusion_lat": 0.0, "fusion_lon": 0.0}, {"rental_uris": {"android": "https://dc.lft.to/lastmile_qr_scan", "ios": "https://dc.lft.to/lastmile_qr_scan"}, "bike_id": "122106b682c3d7dc69cb28729e935041", "name": "122106b682c3d7dc69cb28729e935041", "type": "electric_scooter", "lon": -77.0158105, "lat": 38.91682983333333, "is_disabled": 0, "is_reserved": 0, "fusion_lat": 0.0, "fusion_lon": 0.0}, {"rental_uris": {"android": "https://dc.lft.to/lastmile_qr_scan", "ios": "https://dc.lft.to/lastmile_qr_scan"}, "bike_id": "588ac9e0e96644e7d3497b08aa3d3a6f", "name": "588ac9e0e96644e7d3497b08aa3d3a6f", "type": "electric_scooter", "lon": -77.00917483333333, "lat": 38.827857, "is_disabled": 0, "is_reserved": 0, "fusion_lat": 0.0, "fusion_lon": 0.0}, {"rental_uris": {"android": "https://dc.lft.to/lastmile_qr_scan", "ios": "https://dc.lft.to/lastmile_qr_scan"}, "bike_id": "bd2dca357312b50625ec0d5c6c80bb6b", "name": "bd2dca357312b50625ec0d5c6c80bb6b", "type": "electric_scooter", "lon": -77.03782483333333, "lat": 38.921889166666666, "is_disabled": 0, "is_reserved": 0, "fusion_lat": 0.0, "fusion_lon": 0.0}, {"rental_uris": {"android": "https://dc.lft.to/lastmile_qr_scan", "ios": "https://dc.lft.to/lastmile_qr_scan"}, "bike_id": "ce797b23a27fb561a0a84190b3008afe", "name": "ce797b23a27fb561a0a84190b3008afe", "type": "electric_bike", "lon": -77.131441, "lat": 38.86169233333333, "is_disabled": 0, "is_reserved": 0, "fusion_lat": 0.0, "fusion_lon": 0.0}, {"rental_uris": {"android": "https://dc.lft.to/lastmile_qr_scan", "ios": "https://dc.lft.to/lastmile_qr_scan"}, "bike_id": "c305b831445f834cfcd700df6dca113f", "name": "c305b831445f834cfcd700df6dca113f", "type": "electric_scooter", "lon": -77.05504516666667, "lat": 38.93650783333333, "is_disabled": 0, "is_reserved": 0, "fusion_lat": 0.0, "fusion_lon": 0.0}, {"rental_uris": {"android": "https://dc.lft.to/lastmile_qr_scan", "ios": "https://dc.lft.to/lastmile_qr_scan"}, "bike_id": "8b0ae3a4e4513679e524866cb7a8c102", "name": "8b0ae3a4e4513679e524866cb7a8c102", "type": "electric_bike", "lon": -77.11755633333334, "lat": 39.049100833333334, "is_disabled": 0, "is_reserved": 0, "fusion_lat": 0.0, "fusion_lon": 0.0}, {"rental_uris": {"android": "https://dc.lft.to/lastmile_qr_scan", "ios": "https://dc.lft.to/lastmile_qr_scan"}, "bike_id": "48dda1e8d9a529f4f2081ec6aec0e377", "name": "48dda1e8d9a529f4f2081ec6aec0e377", "type": "electric_scooter", "lon": -77.019191, "lat": 38.923738166666666, "is_disabled": 0, "is_reserved": 0, "fusion_lat": 0.0, "fusion_lon": 0.0}, {"rental_uris": {"android": "https://dc.lft.to/lastmile_qr_scan", "ios": "https://dc.lft.to/lastmile_qr_scan"}, "bike_id": "016c34fbea8e8c4ef609595fed9a1684", "name": "016c34fbea8e8c4ef609595fed9a1684", "type": "electric_scooter", "lon": -76.97306183333333, "lat": 38.919896333333334, "is_disabled": 0, "is_reserved": 0, "fusion_lat": 0.0, "fusion_lon": 0.0}, {"rental_uris": {"android": "https://dc.lft.to/lastmile_qr_scan", "ios": "https://dc.lft.to/lastmile_qr_scan"}, "bike_id": "839cb8bb9fe33c41f604423499aba415", "name": "839cb8bb9fe33c41f604423499aba415", "type": "electric_scooter", "lon": -77.0031165, "lat": 38.903645166666664, "is_disabled": 0, "is_reserved": 0, "fusion_lat": 0.0, "fusion_lon": 0.0}, {"rental_uris": {"android": "https://dc.lft.to/lastmile_qr_scan", "ios": "https://dc.lft.to/lastmile_qr_scan"}, "bike_id": "bd2802853ba7cf05c25021ccee37bde3", "name": "bd2802853ba7cf05c25021ccee37bde3", "type": "electric_scooter", "lon": -77.043092, "lat": 38.881090666666665, "is_disabled": 0, "is_reserved": 0, "fusion_lat": 0.0, "fusion_lon": 0.0}, {"rental_uris": {"android": "https://dc.lft.to/lastmile_qr_scan", "ios": "https://dc.lft.to/lastmile_qr_scan"}, "bike_id": "f57b305b8e19ac0d38f3729e8366a140", "name": "f57b305b8e19ac0d38f3729e8366a140", "type": "electric_scooter", "lon": -77.031108, "lat": 38.894691, "is_disabled": 0, "is_reserved": 0, "fusion_lat": 0.0, "fusion_lon": 0.0}, {"rental_uris": {"android": "https://dc.lft.to/lastmile_qr_scan", "ios": "https://dc.lft.to/lastmile_qr_scan"}, "bike_id": "4c7008151b4f79b097729de59f54f423", "name": "4c7008151b4f79b097729de59f54f423", "type": "electric_bike", "lon": -76.97188, "lat": 38.917972666666664, "is_disabled": 0, "is_reserved": 0, "fusion_lat": 0.0, "fusion_lon": 0.0}, {"rental_uris": {"android": "https://dc.lft.to/lastmile_qr_scan", "ios": "https://dc.lft.to/lastmile_qr_scan"}, "bike_id": "17e395458ad671f842ee77d55b9944f5", "name": "17e395458ad671f842ee77d55b9944f5", "type": "electric_scooter", "lon": -77.04512766666667, "lat": 38.90401766666667, "is_disabled": 0, "is_reserved": 0, "fusion_lat": 0.0, "fusion_lon": 0.0}, {"rental_uris": {"android": "https://dc.lft.to/lastmile_qr_scan", "ios": "https://dc.lft.to/lastmile_qr_scan"}, "bike_id": "ddc4468ef6254ce88cceb6c4679fb1b4", "name": "ddc4468ef6254ce88cceb6c4679fb1b4", "type": "electric_scooter", "lon": -77.0576365, "lat": 38.93388366666667, "is_disabled": 0, "is_reserved": 0, "fusion_lat": 0.0, "fusion_lon": 0.0}, {"rental_uris": {"android": "https://dc.lft.to/lastmile_qr_scan", "ios": "https://dc.lft.to/lastmile_qr_scan"}, "bike_id": "d6ca0757c35bfd15b0d757e9f5835de9", "name": "d6ca0757c35bfd15b0d757e9f5835de9", "type": "electric_scooter", "lon": -77.026176, "lat": 38.91705183333333, "is_disabled": 0, "is_reserved": 0, "fusion_lat": 0.0, "fusion_lon": 0.0}, {"rental_uris": {"android": "https://dc.lft.to/lastmile_qr_scan", "ios": "https://dc.lft.to/lastmile_qr_scan"}, "bike_id": "8a6ed8b93017bec5da5b3e09f25ec205", "name": "8a6ed8b93017bec5da5b3e09f25ec205", "type": "electric_scooter", "lon": -77.01134233333333, "lat": 38.88524266666667, "is_disabled": 0, "is_reserved": 0, "fusion_lat": 0.0, "fusion_lon": 0.0}, {"rental_uris": {"android": "https://dc.lft.to/lastmile_qr_scan", "ios": "https://dc.lft.to/lastmile_qr_scan"}, "bike_id": "14cf43972a9ed93c7573b63a237fad5d", "name": "14cf43972a9ed93c7573b63a237fad5d", "type": "electric_scooter", "lon": -77.0515525, "lat": 38.903799, "is_disabled": 0, "is_reserved": 0, "fusion_lat": 0.0, "fusion_lon": 0.0}, {"rental_uris": {"android": "https://dc.lft.to/lastmile_qr_scan", "ios": "https://dc.lft.to/lastmile_qr_scan"}, "bike_id": "73a9a7679e4c65c0e27c7535e7ad51b8", "name": "73a9a7679e4c65c0e27c7535e7ad51b8", "type": "electric_scooter", "lon": -77.02173683333334, "lat": 38.942963, "is_disabled": 0, "is_reserved": 0, "fusion_lat": 0.0, "fusion_lon": 0.0}, {"rental_uris": {"android": "https://dc.lft.to/lastmile_qr_scan", "ios": "https://dc.lft.to/lastmile_qr_scan"}, "bike_id": "27ead1fe6ee3bd7736bf4934abf1b05a", "name": "27ead1fe6ee3bd7736bf4934abf1b05a", "type": "electric_scooter", "lon": -77.04024116666666, "lat": 38.904091333333334, "is_disabled": 0, "is_reserved": 0, "fusion_lat": 0.0, "fusion_lon": 0.0}, {"rental_uris": {"android": "https://dc.lft.to/lastmile_qr_scan", "ios": "https://dc.lft.to/lastmile_qr_scan"}, "bike_id": "e364ddbc2fed6193dd881407187359ea", "name": "e364ddbc2fed6193dd881407187359ea", "type": "electric_scooter", "lon": -77.02671416666666, "lat": 38.88141433333333, "is_disabled": 0, "is_reserved": 0, "fusion_lat": 0.0, "fusion_lon": 0.0}, {"rental_uris": {"android": "https://dc.lft.to/lastmile_qr_scan", "ios": "https://dc.lft.to/lastmile_qr_scan"}, "bike_id": "1c08772fa4d4bbc2850e1d82df0e3f43", "name": "1c08772fa4d4bbc2850e1d82df0e3f43", "type": "electric_scooter", "lon": -77.03335183333333, "lat": 38.9287425, "is_disabled": 0, "is_reserved": 0, "fusion_lat": 0.0, "fusion_lon": 0.0}, {"rental_uris": {"android": "https://dc.lft.to/lastmile_qr_scan", "ios": "https://dc.lft.to/lastmile_qr_scan"}, "bike_id": "1fc3d531279a206f62927758915facac", "name": "1fc3d531279a206f62927758915facac", "type": "electric_scooter", "lon": -77.041914, "lat": 38.90147483333333, "is_disabled": 0, "is_reserved": 0, "fusion_lat": 0.0, "fusion_lon": 0.0}, {"rental_uris": {"android": "https://dc.lft.to/lastmile_qr_scan", "ios": "https://dc.lft.to/lastmile_qr_scan"}, "bike_id": "8dc557baaf14520c07c95c4cadcf1802", "name": "8dc557baaf14520c07c95c4cadcf1802", "type": "electric_bike", "lon": -76.98092283333334, "lat": 38.921110666666664, "is_disabled": 0, "is_reserved": 0, "fusion_lat": 0.0, "fusion_lon": 0.0}, {"rental_uris": {"android": "https://dc.lft.to/lastmile_qr_scan", "ios": "https://dc.lft.to/lastmile_qr_scan"}, "bike_id": "f17742ca0f4319d0a0fd5e55ebe0ce30", "name": "f17742ca0f4319d0a0fd5e55ebe0ce30", "type": "electric_scooter", "lon": -76.965266, "lat": 38.876291, "is_disabled": 0, "is_reserved": 0, "fusion_lat": 0.0, "fusion_lon": 0.0}, {"rental_uris": {"android": "https://dc.lft.to/lastmile_qr_scan", "ios": "https://dc.lft.to/lastmile_qr_scan"}, "bike_id": "d4e6d24baf5db306da209f149927b00a", "name": "d4e6d24baf5db306da209f149927b00a", "type": "electric_scooter", "lon": -77.02647133333333, "lat": 38.98449816666667, "is_disabled": 0, "is_reserved": 0, "fusion_lat": 0.0, "fusion_lon": 0.0}, {"rental_uris": {"android": "https://dc.lft.to/lastmile_qr_scan", "ios": "https://dc.lft.to/lastmile_qr_scan"}, "bike_id": "953277811669f5aeb531afa0ce7f39fb", "name": "953277811669f5aeb531afa0ce7f39fb", "type": "electric_bike", "lon": -76.90968066666667, "lat": 38.8542615, "is_disabled": 0, "is_reserved": 0, "fusion_lat": 0.0, "fusion_lon": 0.0}, {"rental_uris": {"android": "https://dc.lft.to/lastmile_qr_scan", "ios": "https://dc.lft.to/lastmile_qr_scan"}, "bike_id": "5382ca2870370c2be48c78f0fe280cda", "name": "5382ca2870370c2be48c78f0fe280cda", "type": "electric_scooter", "lon": -77.02814183333334, "lat": 38.910431833333334, "is_disabled": 0, "is_reserved": 0, "fusion_lat": 0.0, "fusion_lon": 0.0}, {"rental_uris": {"android": "https://dc.lft.to/lastmile_qr_scan", "ios": "https://dc.lft.to/lastmile_qr_scan"}, "bike_id": "2c9271fdcf48e2de698b9f091f8c9eac", "name": "2c9271fdcf48e2de698b9f091f8c9eac", "type": "electric_scooter", "lon": -77.0281425, "lat": 38.91688716666667, "is_disabled": 0, "is_reserved": 0, "fusion_lat": 0.0, "fusion_lon": 0.0}, {"rental_uris": {"android": "https://dc.lft.to/lastmile_qr_scan", "ios": "https://dc.lft.to/lastmile_qr_scan"}, "bike_id": "44d72f18b500a6162a79a91608c26406", "name": "44d72f18b500a6162a79a91608c26406", "type": "electric_scooter", "lon": -77.00513416666666, "lat": 38.87458783333334, "is_disabled": 0, "is_reserved": 0, "fusion_lat": 0.0, "fusion_lon": 0.0}, {"rental_uris": {"android": "https://dc.lft.to/lastmile_qr_scan", "ios": "https://dc.lft.to/lastmile_qr_scan"}, "bike_id": "be47c9c5839297dd9eea7e375cda4ed9", "name": "be47c9c5839297dd9eea7e375cda4ed9", "type": "electric_scooter", "lon": -77.0231045, "lat": 38.917772, "is_disabled": 0, "is_reserved": 0, "fusion_lat": 0.0, "fusion_lon": 0.0}, {"rental_uris": {"android": "https://dc.lft.to/lastmile_qr_scan", "ios": "https://dc.lft.to/lastmile_qr_scan"}, "bike_id": "de0e78aa6f1886614fd6afe6fc6179a1", "name": "de0e78aa6f1886614fd6afe6fc6179a1", "type": "electric_scooter", "lon": -77.0409475, "lat": 38.917646500000004, "is_disabled": 0, "is_reserved": 0, "fusion_lat": 0.0, "fusion_lon": 0.0}, {"rental_uris": {"android": "https://dc.lft.to/lastmile_qr_scan", "ios": "https://dc.lft.to/lastmile_qr_scan"}, "bike_id": "2f0b3fcd01120d1e9fea6f59f5ce4978", "name": "2f0b3fcd01120d1e9fea6f59f5ce4978", "type": "electric_scooter", "lon": -77.04331483333333, "lat": 38.89224316666667, "is_disabled": 0, "is_reserved": 0, "fusion_lat": 0.0, "fusion_lon": 0.0}, {"rental_uris": {"android": "https://dc.lft.to/lastmile_qr_scan", "ios": "https://dc.lft.to/lastmile_qr_scan"}, "bike_id": "bd73798ffd8bcebd07bc36dc94e1a340", "name": "bd73798ffd8bcebd07bc36dc94e1a340", "type": "electric_scooter", "lon": -77.03208933333333, "lat": 38.920088666666665, "is_disabled": 0, "is_reserved": 0, "fusion_lat": 0.0, "fusion_lon": 0.0}, {"rental_uris": {"android": "https://dc.lft.to/lastmile_qr_scan", "ios": "https://dc.lft.to/lastmile_qr_scan"}, "bike_id": "76781b4e7943111222f5ffb4a52c36df", "name": "76781b4e7943111222f5ffb4a52c36df", "type": "electric_scooter", "lon": -77.03021983333333, "lat": 38.90507983333333, "is_disabled": 0, "is_reserved": 0, "fusion_lat": 0.0, "fusion_lon": 0.0}, {"rental_uris": {"android": "https://dc.lft.to/lastmile_qr_scan", "ios": "https://dc.lft.to/lastmile_qr_scan"}, "bike_id": "bef423c45ab167da620accbffb3f293b", "name": "bef423c45ab167da620accbffb3f293b", "type": "electric_bike", "lon": -77.04652016666667, "lat": 39.055028, "is_disabled": 0, "is_reserved": 0, "fusion_lat": 0.0, "fusion_lon": 0.0}, {"rental_uris": {"android": "https://dc.lft.to/lastmile_qr_scan", "ios": "https://dc.lft.to/lastmile_qr_scan"}, "bike_id": "571de3fe097094dba39ff32e8ed5615b", "name": "571de3fe097094dba39ff32e8ed5615b", "type": "electric_scooter", "lon": -76.98884166666667, "lat": 38.866401833333335, "is_disabled": 0, "is_reserved": 0, "fusion_lat": 0.0, "fusion_lon": 0.0}, {"rental_uris": {"android": "https://dc.lft.to/lastmile_qr_scan", "ios": "https://dc.lft.to/lastmile_qr_scan"}, "bike_id": "6aa98ad3fa0c71477292c2f2e8317231", "name": "6aa98ad3fa0c71477292c2f2e8317231", "type": "electric_bike", "lon": -77.028999, "lat": 38.998588833333336, "is_disabled": 0, "is_reserved": 0, "fusion_lat": 0.0, "fusion_lon": 0.0}, {"rental_uris": {"android": "https://dc.lft.to/lastmile_qr_scan", "ios": "https://dc.lft.to/lastmile_qr_scan"}, "bike_id": "3fa68b6e3139c24545b180a9abb05df2", "name": "3fa68b6e3139c24545b180a9abb05df2", "type": "electric_scooter", "lon": -77.03162683333333, "lat": 38.903401, "is_disabled": 0, "is_reserved": 0, "fusion_lat": 0.0, "fusion_lon": 0.0}, {"rental_uris": {"android": "https://dc.lft.to/lastmile_qr_scan", "ios": "https://dc.lft.to/lastmile_qr_scan"}, "bike_id": "56354abcbb20b6090646d63163047e49", "name": "56354abcbb20b6090646d63163047e49", "type": "electric_scooter", "lon": -77.003344, "lat": 38.908071666666665, "is_disabled": 0, "is_reserved": 0, "fusion_lat": 0.0, "fusion_lon": 0.0}, {"rental_uris": {"android": "https://dc.lft.to/lastmile_qr_scan", "ios": "https://dc.lft.to/lastmile_qr_scan"}, "bike_id": "84dc8a3ec73d6a41ae2a8f74c71c8d6a", "name": "84dc8a3ec73d6a41ae2a8f74c71c8d6a", "type": "electric_bike", "lon": -77.21648916666666, "lat": 38.93007983333333, "is_disabled": 0, "is_reserved": 0, "fusion_lat": 0.0, "fusion_lon": 0.0}, {"rental_uris": {"android": "https://dc.lft.to/lastmile_qr_scan", "ios": "https://dc.lft.to/lastmile_qr_scan"}, "bike_id": "3afdd33b61474f4584a3cacbf5747f08", "name": "3afdd33b61474f4584a3cacbf5747f08", "type": "electric_scooter", "lon": -77.023793, "lat": 38.919469666666664, "is_disabled": 0, "is_reserved": 0, "fusion_lat": 0.0, "fusion_lon": 0.0}, {"rental_uris": {"android": "https://dc.lft.to/lastmile_qr_scan", "ios": "https://dc.lft.to/lastmile_qr_scan"}, "bike_id": "f11de4d3a87841fe25bbafcabe78c3e0", "name": "f11de4d3a87841fe25bbafcabe78c3e0", "type": "electric_bike", "lon": -77.05875833333333, "lat": 38.9589375, "is_disabled": 0, "is_reserved": 0, "fusion_lat": 0.0, "fusion_lon": 0.0}, {"rental_uris": {"android": "https://dc.lft.to/lastmile_qr_scan", "ios": "https://dc.lft.to/lastmile_qr_scan"}, "bike_id": "4dc6a444310b9d4c4cd1c06cf92cdfbb", "name": "4dc6a444310b9d4c4cd1c06cf92cdfbb", "type": "electric_scooter", "lon": -77.0419905, "lat": 38.90683516666667, "is_disabled": 0, "is_reserved": 0, "fusion_lat": 0.0, "fusion_lon": 0.0}, {"rental_uris": {"android": "https://dc.lft.to/lastmile_qr_scan", "ios": "https://dc.lft.to/lastmile_qr_scan"}, "bike_id": "b3dce8a110fa1445c9384dea056e1f98", "name": "b3dce8a110fa1445c9384dea056e1f98", "type": "electric_scooter", "lon": -76.93745566666666, "lat": 38.8901605, "is_disabled": 0, "is_reserved": 0, "fusion_lat": 0.0, "fusion_lon": 0.0}, {"rental_uris": {"android": "https://dc.lft.to/lastmile_qr_scan", "ios": "https://dc.lft.to/lastmile_qr_scan"}, "bike_id": "615ab975406f2eb5d769010adb28197a", "name": "615ab975406f2eb5d769010adb28197a", "type": "electric_scooter", "lon": -77.03414316666667, "lat": 38.91232866666667, "is_disabled": 0, "is_reserved": 0, "fusion_lat": 0.0, "fusion_lon": 0.0}, {"rental_uris": {"android": "https://dc.lft.to/lastmile_qr_scan", "ios": "https://dc.lft.to/lastmile_qr_scan"}, "bike_id": "f92ad6fdc3daf3353ec733e752ec317b", "name": "f92ad6fdc3daf3353ec733e752ec317b", "type": "electric_scooter", "lon": -77.02295516666666, "lat": 38.927159833333334, "is_disabled": 0, "is_reserved": 0, "fusion_lat": 0.0, "fusion_lon": 0.0}, {"rental_uris": {"android": "https://dc.lft.to/lastmile_qr_scan", "ios": "https://dc.lft.to/lastmile_qr_scan"}, "bike_id": "75df84a547ebc6d0b2b7872741b1a4c1", "name": "75df84a547ebc6d0b2b7872741b1a4c1", "type": "electric_scooter", "lon": -77.019992, "lat": 38.90949233333333, "is_disabled": 0, "is_reserved": 0, "fusion_lat": 0.0, "fusion_lon": 0.0}, {"rental_uris": {"android": "https://dc.lft.to/lastmile_qr_scan", "ios": "https://dc.lft.to/lastmile_qr_scan"}, "bike_id": "c8f988fba74c98092c6f7f747459bad3", "name": "c8f988fba74c98092c6f7f747459bad3", "type": "electric_scooter", "lon": -77.0324085, "lat": 38.92853, "is_disabled": 0, "is_reserved": 0, "fusion_lat": 0.0, "fusion_lon": 0.0}, {"rental_uris": {"android": "https://dc.lft.to/lastmile_qr_scan", "ios": "https://dc.lft.to/lastmile_qr_scan"}, "bike_id": "111eb189b55dc1c9683302fb1eba78de", "name": "111eb189b55dc1c9683302fb1eba78de", "type": "electric_scooter", "lon": -77.03490466666666, "lat": 38.93272266666666, "is_disabled": 0, "is_reserved": 0, "fusion_lat": 0.0, "fusion_lon": 0.0}, {"rental_uris": {"android": "https://dc.lft.to/lastmile_qr_scan", "ios": "https://dc.lft.to/lastmile_qr_scan"}, "bike_id": "ecac6abe41902392e4771cd888dd78ce", "name": "ecac6abe41902392e4771cd888dd78ce", "type": "electric_scooter", "lon": -77.022938, "lat": 38.915633166666666, "is_disabled": 0, "is_reserved": 0, "fusion_lat": 0.0, "fusion_lon": 0.0}, {"rental_uris": {"android": "https://dc.lft.to/lastmile_qr_scan", "ios": "https://dc.lft.to/lastmile_qr_scan"}, "bike_id": "3b58490b0368920dcb8cd2e625561f80", "name": "3b58490b0368920dcb8cd2e625561f80", "type": "electric_scooter", "lon": -77.04246266666667, "lat": 38.906526, "is_disabled": 0, "is_reserved": 0, "fusion_lat": 0.0, "fusion_lon": 0.0}, {"rental_uris": {"android": "https://dc.lft.to/lastmile_qr_scan", "ios": "https://dc.lft.to/lastmile_qr_scan"}, "bike_id": "caab14b6f4ad9055e3947beced4bea34", "name": "caab14b6f4ad9055e3947beced4bea34", "type": "electric_scooter", "lon": -77.05424583333334, "lat": 38.923499, "is_disabled": 0, "is_reserved": 0, "fusion_lat": 0.0, "fusion_lon": 0.0}, {"rental_uris": {"android": "https://dc.lft.to/lastmile_qr_scan", "ios": "https://dc.lft.to/lastmile_qr_scan"}, "bike_id": "ea48d20e047c1e2db362793f96b28c1e", "name": "ea48d20e047c1e2db362793f96b28c1e", "type": "electric_scooter", "lon": -77.04195016666667, "lat": 38.9226625, "is_disabled": 0, "is_reserved": 0, "fusion_lat": 0.0, "fusion_lon": 0.0}, {"rental_uris": {"android": "https://dc.lft.to/lastmile_qr_scan", "ios": "https://dc.lft.to/lastmile_qr_scan"}, "bike_id": "8c37f40378d2ab9b4d49146a83c5230c", "name": "8c37f40378d2ab9b4d49146a83c5230c", "type": "electric_scooter", "lon": -77.0333805, "lat": 38.89946533333333, "is_disabled": 0, "is_reserved": 0, "fusion_lat": 0.0, "fusion_lon": 0.0}, {"rental_uris": {"android": "https://dc.lft.to/lastmile_qr_scan", "ios": "https://dc.lft.to/lastmile_qr_scan"}, "bike_id": "71a591a7a6da76679d138e147376e892", "name": "71a591a7a6da76679d138e147376e892", "type": "electric_scooter", "lon": -77.02746566666667, "lat": 38.924069833333334, "is_disabled": 0, "is_reserved": 0, "fusion_lat": 0.0, "fusion_lon": 0.0}, {"rental_uris": {"android": "https://dc.lft.to/lastmile_qr_scan", "ios": "https://dc.lft.to/lastmile_qr_scan"}, "bike_id": "35ae3b3c5a2f3badf3ea7bbc3addd651", "name": "35ae3b3c5a2f3badf3ea7bbc3addd651", "type": "electric_scooter", "lon": -77.00974733333334, "lat": 38.91563633333333, "is_disabled": 0, "is_reserved": 0, "fusion_lat": 0.0, "fusion_lon": 0.0}, {"rental_uris": {"android": "https://dc.lft.to/lastmile_qr_scan", "ios": "https://dc.lft.to/lastmile_qr_scan"}, "bike_id": "5f66a6318400868535f9d3b65b60398f", "name": "5f66a6318400868535f9d3b65b60398f", "type": "electric_scooter", "lon": -77.0385755, "lat": 38.9177555, "is_disabled": 0, "is_reserved": 0, "fusion_lat": 0.0, "fusion_lon": 0.0}, {"rental_uris": {"android": "https://dc.lft.to/lastmile_qr_scan", "ios": "https://dc.lft.to/lastmile_qr_scan"}, "bike_id": "244b6bf56bedbf885a78f5c23edec908", "name": "244b6bf56bedbf885a78f5c23edec908", "type": "electric_scooter", "lon": -77.035399, "lat": 38.924167, "is_disabled": 0, "is_reserved": 0, "fusion_lat": 0.0, "fusion_lon": 0.0}, {"rental_uris": {"android": "https://dc.lft.to/lastmile_qr_scan", "ios": "https://dc.lft.to/lastmile_qr_scan"}, "bike_id": "700fdec136d363b51e7d41eee99830f5", "name": "700fdec136d363b51e7d41eee99830f5", "type": "electric_scooter", "lon": -77.04349916666666, "lat": 38.907983, "is_disabled": 0, "is_reserved": 0, "fusion_lat": 0.0, "fusion_lon": 0.0}, {"rental_uris": {"android": "https://dc.lft.to/lastmile_qr_scan", "ios": "https://dc.lft.to/lastmile_qr_scan"}, "bike_id": "7d0d1ea6ba2392c73976c196fdc9c15b", "name": "7d0d1ea6ba2392c73976c196fdc9c15b", "type": "electric_bike", "lon": -77.0996425, "lat": 38.8579245, "is_disabled": 0, "is_reserved": 0, "fusion_lat": 0.0, "fusion_lon": 0.0}, {"rental_uris": {"android": "https://dc.lft.to/lastmile_qr_scan", "ios": "https://dc.lft.to/lastmile_qr_scan"}, "bike_id": "96162435c0afb6a9c084c89bbc3e8bf0", "name": "96162435c0afb6a9c084c89bbc3e8bf0", "type": "electric_scooter", "lon": -77.052972, "lat": 38.92778116666667, "is_disabled": 0, "is_reserved": 0, "fusion_lat": 0.0, "fusion_lon": 0.0}, {"rental_uris": {"android": "https://dc.lft.to/lastmile_qr_scan", "ios": "https://dc.lft.to/lastmile_qr_scan"}, "bike_id": "84530510b6bafb294a987f3d668d42e9", "name": "84530510b6bafb294a987f3d668d42e9", "type": "electric_scooter", "lon": -77.03469383333334, "lat": 38.92260616666667, "is_disabled": 0, "is_reserved": 0, "fusion_lat": 0.0, "fusion_lon": 0.0}, {"rental_uris": {"android": "https://dc.lft.to/lastmile_qr_scan", "ios": "https://dc.lft.to/lastmile_qr_scan"}, "bike_id": "11dbf30390aa0164722c697c65d471d7", "name": "11dbf30390aa0164722c697c65d471d7", "type": "electric_scooter", "lon": -76.9375615, "lat": 38.89054216666667, "is_disabled": 0, "is_reserved": 0, "fusion_lat": 0.0, "fusion_lon": 0.0}, {"rental_uris": {"android": "https://dc.lft.to/lastmile_qr_scan", "ios": "https://dc.lft.to/lastmile_qr_scan"}, "bike_id": "de6050e68cee0ad22dc1d46bd4a63674", "name": "de6050e68cee0ad22dc1d46bd4a63674", "type": "electric_scooter", "lon": -77.0096915, "lat": 38.914132333333335, "is_disabled": 0, "is_reserved": 0, "fusion_lat": 0.0, "fusion_lon": 0.0}, {"rental_uris": {"android": "https://dc.lft.to/lastmile_qr_scan", "ios": "https://dc.lft.to/lastmile_qr_scan"}, "bike_id": "916eeeb06dada87055e0f08d0286fac1", "name": "916eeeb06dada87055e0f08d0286fac1", "type": "electric_scooter", "lon": -77.05521016666667, "lat": 38.90942, "is_disabled": 0, "is_reserved": 0, "fusion_lat": 0.0, "fusion_lon": 0.0}, {"rental_uris": {"android": "https://dc.lft.to/lastmile_qr_scan", "ios": "https://dc.lft.to/lastmile_qr_scan"}, "bike_id": "3f44c9162086c0caac6ae1f200db25b0", "name": "3f44c9162086c0caac6ae1f200db25b0", "type": "electric_scooter", "lon": -77.03258866666667, "lat": 38.908605666666666, "is_disabled": 0, "is_reserved": 0, "fusion_lat": 0.0, "fusion_lon": 0.0}, {"rental_uris": {"android": "https://dc.lft.to/lastmile_qr_scan", "ios": "https://dc.lft.to/lastmile_qr_scan"}, "bike_id": "8d0b6f39b3260847caa73a903fcf77d7", "name": "8d0b6f39b3260847caa73a903fcf77d7", "type": "electric_scooter", "lon": -77.0315405, "lat": 38.90333416666667, "is_disabled": 0, "is_reserved": 0, "fusion_lat": 0.0, "fusion_lon": 0.0}, {"rental_uris": {"android": "https://dc.lft.to/lastmile_qr_scan", "ios": "https://dc.lft.to/lastmile_qr_scan"}, "bike_id": "8158dfe6f88d0f921c3469f81b8fb16d", "name": "8158dfe6f88d0f921c3469f81b8fb16d", "type": "electric_scooter", "lon": -76.99850866666667, "lat": 38.88767266666667, "is_disabled": 0, "is_reserved": 0, "fusion_lat": 0.0, "fusion_lon": 0.0}, {"rental_uris": {"android": "https://dc.lft.to/lastmile_qr_scan", "ios": "https://dc.lft.to/lastmile_qr_scan"}, "bike_id": "e2de8f629674e8661f868a2f64595db5", "name": "e2de8f629674e8661f868a2f64595db5", "type": "electric_scooter", "lon": -77.06660616666667, "lat": 38.951939833333334, "is_disabled": 0, "is_reserved": 0, "fusion_lat": 0.0, "fusion_lon": 0.0}, {"rental_uris": {"android": "https://dc.lft.to/lastmile_qr_scan", "ios": "https://dc.lft.to/lastmile_qr_scan"}, "bike_id": "7cf11c0d0486519e583b02d94234f623", "name": "7cf11c0d0486519e583b02d94234f623", "type": "electric_scooter", "lon": -77.00186433333333, "lat": 38.907137, "is_disabled": 0, "is_reserved": 0, "fusion_lat": 0.0, "fusion_lon": 0.0}, {"rental_uris": {"android": "https://dc.lft.to/lastmile_qr_scan", "ios": "https://dc.lft.to/lastmile_qr_scan"}, "bike_id": "3921de839bda4defa376ab74d7489762", "name": "3921de839bda4defa376ab74d7489762", "type": "electric_scooter", "lon": -77.0423245, "lat": 38.91119366666667, "is_disabled": 0, "is_reserved": 0, "fusion_lat": 0.0, "fusion_lon": 0.0}, {"rental_uris": {"android": "https://dc.lft.to/lastmile_qr_scan", "ios": "https://dc.lft.to/lastmile_qr_scan"}, "bike_id": "596102ac5898a92fdb3bd7d33d1a45a3", "name": "596102ac5898a92fdb3bd7d33d1a45a3", "type": "electric_scooter", "lon": -77.02629816666666, "lat": 38.896498333333334, "is_disabled": 0, "is_reserved": 0, "fusion_lat": 0.0, "fusion_lon": 0.0}, {"rental_uris": {"android": "https://dc.lft.to/lastmile_qr_scan", "ios": "https://dc.lft.to/lastmile_qr_scan"}, "bike_id": "7b30e8de65a6aeb9b6bb7760caeb024f", "name": "7b30e8de65a6aeb9b6bb7760caeb024f", "type": "electric_scooter", "lon": -77.0230905, "lat": 38.91781866666667, "is_disabled": 0, "is_reserved": 0, "fusion_lat": 0.0, "fusion_lon": 0.0}, {"rental_uris": {"android": "https://dc.lft.to/lastmile_qr_scan", "ios": "https://dc.lft.to/lastmile_qr_scan"}, "bike_id": "05d2c1b2d5c15453dfbed97f55b55c80", "name": "05d2c1b2d5c15453dfbed97f55b55c80", "type": "electric_scooter", "lon": -77.04664133333333, "lat": 38.90539533333333, "is_disabled": 0, "is_reserved": 0, "fusion_lat": 0.0, "fusion_lon": 0.0}, {"rental_uris": {"android": "https://dc.lft.to/lastmile_qr_scan", "ios": "https://dc.lft.to/lastmile_qr_scan"}, "bike_id": "69d2c73fe7fbff78d053866541ef6bc2", "name": "69d2c73fe7fbff78d053866541ef6bc2", "type": "electric_scooter", "lon": -77.02889583333334, "lat": 38.896944, "is_disabled": 0, "is_reserved": 0, "fusion_lat": 0.0, "fusion_lon": 0.0}, {"rental_uris": {"android": "https://dc.lft.to/lastmile_qr_scan", "ios": "https://dc.lft.to/lastmile_qr_scan"}, "bike_id": "bc3d84c3c7b840f7f5855311e8a0f1fe", "name": "bc3d84c3c7b840f7f5855311e8a0f1fe", "type": "electric_scooter", "lon": -77.03536133333333, "lat": 38.932858333333336, "is_disabled": 0, "is_reserved": 0, "fusion_lat": 0.0, "fusion_lon": 0.0}, {"rental_uris": {"android": "https://dc.lft.to/lastmile_qr_scan", "ios": "https://dc.lft.to/lastmile_qr_scan"}, "bike_id": "1f570918e1445661b319376eaa5661ce", "name": "1f570918e1445661b319376eaa5661ce", "type": "electric_bike", "lon": -77.09959266666667, "lat": 38.857973666666666, "is_disabled": 0, "is_reserved": 0, "fusion_lat": 0.0, "fusion_lon": 0.0}, {"rental_uris": {"android": "https://dc.lft.to/lastmile_qr_scan", "ios": "https://dc.lft.to/lastmile_qr_scan"}, "bike_id": "69f90cec40ecd0f9e703cd55c6a48757", "name": "69f90cec40ecd0f9e703cd55c6a48757", "type": "electric_scooter", "lon": -76.97945016666667, "lat": 38.94529466666667, "is_disabled": 0, "is_reserved": 0, "fusion_lat": 0.0, "fusion_lon": 0.0}, {"rental_uris": {"android": "https://dc.lft.to/lastmile_qr_scan", "ios": "https://dc.lft.to/lastmile_qr_scan"}, "bike_id": "700b63ccb44833f8c462b86360fe708e", "name": "700b63ccb44833f8c462b86360fe708e", "type": "electric_scooter", "lon": -77.02477733333333, "lat": 38.909744333333336, "is_disabled": 0, "is_reserved": 0, "fusion_lat": 0.0, "fusion_lon": 0.0}, {"rental_uris": {"android": "https://dc.lft.to/lastmile_qr_scan", "ios": "https://dc.lft.to/lastmile_qr_scan"}, "bike_id": "0a8e01976f3cbe6dcfa1986aacf98287", "name": "0a8e01976f3cbe6dcfa1986aacf98287", "type": "electric_scooter", "lon": -76.99544866666666, "lat": 38.92663783333333, "is_disabled": 0, "is_reserved": 0, "fusion_lat": 0.0, "fusion_lon": 0.0}, {"rental_uris": {"android": "https://dc.lft.to/lastmile_qr_scan", "ios": "https://dc.lft.to/lastmile_qr_scan"}, "bike_id": "23e18eab8de53ff01fc6e95fceb9fbf2", "name": "23e18eab8de53ff01fc6e95fceb9fbf2", "type": "electric_bike", "lon": -76.9693485, "lat": 38.95196166666667, "is_disabled": 0, "is_reserved": 0, "fusion_lat": 0.0, "fusion_lon": 0.0}, {"rental_uris": {"android": "https://dc.lft.to/lastmile_qr_scan", "ios": "https://dc.lft.to/lastmile_qr_scan"}, "bike_id": "9c5fdee05ce93efffa1af64387f28606", "name": "9c5fdee05ce93efffa1af64387f28606", "type": "electric_scooter", "lon": -77.02959866666667, "lat": 38.9072395, "is_disabled": 0, "is_reserved": 0, "fusion_lat": 0.0, "fusion_lon": 0.0}, {"rental_uris": {"android": "https://dc.lft.to/lastmile_qr_scan", "ios": "https://dc.lft.to/lastmile_qr_scan"}, "bike_id": "ba769e36a98dcf18c931b16e77deb19b", "name": "ba769e36a98dcf18c931b16e77deb19b", "type": "electric_scooter", "lon": -77.04614233333334, "lat": 38.89618266666667, "is_disabled": 0, "is_reserved": 0, "fusion_lat": 0.0, "fusion_lon": 0.0}, {"rental_uris": {"android": "https://dc.lft.to/lastmile_qr_scan", "ios": "https://dc.lft.to/lastmile_qr_scan"}, "bike_id": "1c72dc7c8abdbd82a9dce6a739ba70f4", "name": "1c72dc7c8abdbd82a9dce6a739ba70f4", "type": "electric_bike", "lon": -77.0980495, "lat": 38.8503065, "is_disabled": 0, "is_reserved": 0, "fusion_lat": 0.0, "fusion_lon": 0.0}, {"rental_uris": {"android": "https://dc.lft.to/lastmile_qr_scan", "ios": "https://dc.lft.to/lastmile_qr_scan"}, "bike_id": "43edb642f47e6e83f14ddbcfddbe38c6", "name": "43edb642f47e6e83f14ddbcfddbe38c6", "type": "electric_scooter", "lon": -77.003918, "lat": 38.87641083333333, "is_disabled": 0, "is_reserved": 0, "fusion_lat": 0.0, "fusion_lon": 0.0}, {"rental_uris": {"android": "https://dc.lft.to/lastmile_qr_scan", "ios": "https://dc.lft.to/lastmile_qr_scan"}, "bike_id": "ee2f61b7b49381310264530d13042287", "name": "ee2f61b7b49381310264530d13042287", "type": "electric_scooter", "lon": -77.035385, "lat": 38.9240075, "is_disabled": 0, "is_reserved": 0, "fusion_lat": 0.0, "fusion_lon": 0.0}, {"rental_uris": {"android": "https://dc.lft.to/lastmile_qr_scan", "ios": "https://dc.lft.to/lastmile_qr_scan"}, "bike_id": "29069969e7d82d2b81d724f43d405d14", "name": "29069969e7d82d2b81d724f43d405d14", "type": "electric_scooter", "lon": -77.0419455, "lat": 38.9187935, "is_disabled": 0, "is_reserved": 0, "fusion_lat": 0.0, "fusion_lon": 0.0}, {"rental_uris": {"android": "https://dc.lft.to/lastmile_qr_scan", "ios": "https://dc.lft.to/lastmile_qr_scan"}, "bike_id": "3ab5dabc62d45d0bcb6ee7057ea9b757", "name": "3ab5dabc62d45d0bcb6ee7057ea9b757", "type": "electric_scooter", "lon": -77.0269645, "lat": 38.911374, "is_disabled": 0, "is_reserved": 0, "fusion_lat": 0.0, "fusion_lon": 0.0}, {"rental_uris": {"android": "https://dc.lft.to/lastmile_qr_scan", "ios": "https://dc.lft.to/lastmile_qr_scan"}, "bike_id": "d80fadc525190ac670f3c4ba19eb0bbd", "name": "d80fadc525190ac670f3c4ba19eb0bbd", "type": "electric_scooter", "lon": -76.97741166666667, "lat": 38.86834983333333, "is_disabled": 0, "is_reserved": 0, "fusion_lat": 0.0, "fusion_lon": 0.0}, {"rental_uris": {"android": "https://dc.lft.to/lastmile_qr_scan", "ios": "https://dc.lft.to/lastmile_qr_scan"}, "bike_id": "cb57818eb73a5a345c75076ccbede6d3", "name": "cb57818eb73a5a345c75076ccbede6d3", "type": "electric_scooter", "lon": -77.02976383333333, "lat": 38.951949666666664, "is_disabled": 0, "is_reserved": 0, "fusion_lat": 0.0, "fusion_lon": 0.0}, {"rental_uris": {"android": "https://dc.lft.to/lastmile_qr_scan", "ios": "https://dc.lft.to/lastmile_qr_scan"}, "bike_id": "cf181229be3c844cc21e42dc3622404d", "name": "cf181229be3c844cc21e42dc3622404d", "type": "electric_scooter", "lon": -77.0447705, "lat": 38.92144233333333, "is_disabled": 0, "is_reserved": 0, "fusion_lat": 0.0, "fusion_lon": 0.0}, {"rental_uris": {"android": "https://dc.lft.to/lastmile_qr_scan", "ios": "https://dc.lft.to/lastmile_qr_scan"}, "bike_id": "1a34b27a12a673b882ef84a4de753fab", "name": "1a34b27a12a673b882ef84a4de753fab", "type": "electric_scooter", "lon": -77.02713216666666, "lat": 38.909046000000004, "is_disabled": 0, "is_reserved": 0, "fusion_lat": 0.0, "fusion_lon": 0.0}, {"rental_uris": {"android": "https://dc.lft.to/lastmile_qr_scan", "ios": "https://dc.lft.to/lastmile_qr_scan"}, "bike_id": "8306eb0708a30d6b1f246981099d1a94", "name": "8306eb0708a30d6b1f246981099d1a94", "type": "electric_scooter", "lon": -77.03772383333333, "lat": 38.9169965, "is_disabled": 0, "is_reserved": 0, "fusion_lat": 0.0, "fusion_lon": 0.0}, {"rental_uris": {"android": "https://dc.lft.to/lastmile_qr_scan", "ios": "https://dc.lft.to/lastmile_qr_scan"}, "bike_id": "90a71294ebaae9189b54c72251460ebd", "name": "90a71294ebaae9189b54c72251460ebd", "type": "electric_scooter", "lon": -77.022034, "lat": 38.8955515, "is_disabled": 0, "is_reserved": 0, "fusion_lat": 0.0, "fusion_lon": 0.0}, {"rental_uris": {"android": "https://dc.lft.to/lastmile_qr_scan", "ios": "https://dc.lft.to/lastmile_qr_scan"}, "bike_id": "cbad343fbd1754a6d3b18fbb47a0252d", "name": "cbad343fbd1754a6d3b18fbb47a0252d", "type": "electric_scooter", "lon": -77.03855416666667, "lat": 38.90785266666666, "is_disabled": 0, "is_reserved": 0, "fusion_lat": 0.0, "fusion_lon": 0.0}, {"rental_uris": {"android": "https://dc.lft.to/lastmile_qr_scan", "ios": "https://dc.lft.to/lastmile_qr_scan"}, "bike_id": "bf27f6f5b02965955ae91d12957c5027", "name": "bf27f6f5b02965955ae91d12957c5027", "type": "electric_scooter", "lon": -77.02563716666667, "lat": 38.917945333333336, "is_disabled": 0, "is_reserved": 0, "fusion_lat": 0.0, "fusion_lon": 0.0}, {"rental_uris": {"android": "https://dc.lft.to/lastmile_qr_scan", "ios": "https://dc.lft.to/lastmile_qr_scan"}, "bike_id": "df5b8317320194de955bf02af3351eb6", "name": "df5b8317320194de955bf02af3351eb6", "type": "electric_bike", "lon": -76.98529016666667, "lat": 38.880608, "is_disabled": 0, "is_reserved": 0, "fusion_lat": 0.0, "fusion_lon": 0.0}, {"rental_uris": {"android": "https://dc.lft.to/lastmile_qr_scan", "ios": "https://dc.lft.to/lastmile_qr_scan"}, "bike_id": "c5255be61c06d091c8d158acaab4e9e3", "name": "c5255be61c06d091c8d158acaab4e9e3", "type": "electric_scooter", "lon": -76.98120716666666, "lat": 38.9147035, "is_disabled": 0, "is_reserved": 0, "fusion_lat": 0.0, "fusion_lon": 0.0}, {"rental_uris": {"android": "https://dc.lft.to/lastmile_qr_scan", "ios": "https://dc.lft.to/lastmile_qr_scan"}, "bike_id": "9f553062863ebe58acf978b1af944b39", "name": "9f553062863ebe58acf978b1af944b39", "type": "electric_scooter", "lon": -77.03191766666667, "lat": 38.92379666666667, "is_disabled": 0, "is_reserved": 0, "fusion_lat": 0.0, "fusion_lon": 0.0}, {"rental_uris": {"android": "https://dc.lft.to/lastmile_qr_scan", "ios": "https://dc.lft.to/lastmile_qr_scan"}, "bike_id": "8172bef1230f0343c5516d9c5d2cabc5", "name": "8172bef1230f0343c5516d9c5d2cabc5", "type": "electric_scooter", "lon": -77.072552, "lat": 38.939563, "is_disabled": 0, "is_reserved": 0, "fusion_lat": 0.0, "fusion_lon": 0.0}, {"rental_uris": {"android": "https://dc.lft.to/lastmile_qr_scan", "ios": "https://dc.lft.to/lastmile_qr_scan"}, "bike_id": "f10be3f53f587ebce7284b260f5573d2", "name": "f10be3f53f587ebce7284b260f5573d2", "type": "electric_scooter", "lon": -77.0119975, "lat": 38.900143, "is_disabled": 0, "is_reserved": 0, "fusion_lat": 0.0, "fusion_lon": 0.0}, {"rental_uris": {"android": "https://dc.lft.to/lastmile_qr_scan", "ios": "https://dc.lft.to/lastmile_qr_scan"}, "bike_id": "40d2cf54f711a52c9029683e864a1ef5", "name": "40d2cf54f711a52c9029683e864a1ef5", "type": "electric_scooter", "lon": -77.01798316666667, "lat": 38.876731666666664, "is_disabled": 0, "is_reserved": 0, "fusion_lat": 0.0, "fusion_lon": 0.0}, {"rental_uris": {"android": "https://dc.lft.to/lastmile_qr_scan", "ios": "https://dc.lft.to/lastmile_qr_scan"}, "bike_id": "fa06538d1784b03c3fa93fb9bbccecc5", "name": "fa06538d1784b03c3fa93fb9bbccecc5", "type": "electric_scooter", "lon": -77.03251683333333, "lat": 38.91813033333333, "is_disabled": 0, "is_reserved": 0, "fusion_lat": 0.0, "fusion_lon": 0.0}, {"rental_uris": {"android": "https://dc.lft.to/lastmile_qr_scan", "ios": "https://dc.lft.to/lastmile_qr_scan"}, "bike_id": "898a53b6a64fb5493ab38fffa5d8be69", "name": "898a53b6a64fb5493ab38fffa5d8be69", "type": "electric_scooter", "lon": -76.9771535, "lat": 38.888212833333334, "is_disabled": 0, "is_reserved": 0, "fusion_lat": 0.0, "fusion_lon": 0.0}, {"rental_uris": {"android": "https://dc.lft.to/lastmile_qr_scan", "ios": "https://dc.lft.to/lastmile_qr_scan"}, "bike_id": "4e28841893a06d6b3bee9f4d989062eb", "name": "4e28841893a06d6b3bee9f4d989062eb", "type": "electric_scooter", "lon": -77.041728, "lat": 38.917333, "is_disabled": 0, "is_reserved": 0, "fusion_lat": 0.0, "fusion_lon": 0.0}, {"rental_uris": {"android": "https://dc.lft.to/lastmile_qr_scan", "ios": "https://dc.lft.to/lastmile_qr_scan"}, "bike_id": "f1aeb5c3ed2e81bb0e84b5e3351216aa", "name": "f1aeb5c3ed2e81bb0e84b5e3351216aa", "type": "electric_scooter", "lon": -77.01780983333333, "lat": 38.901286166666665, "is_disabled": 0, "is_reserved": 0, "fusion_lat": 0.0, "fusion_lon": 0.0}, {"rental_uris": {"android": "https://dc.lft.to/lastmile_qr_scan", "ios": "https://dc.lft.to/lastmile_qr_scan"}, "bike_id": "fb5f9d53b1ebbd4b0dcf6f6b353d0789", "name": "fb5f9d53b1ebbd4b0dcf6f6b353d0789", "type": "electric_scooter", "lon": -77.041788, "lat": 38.9187915, "is_disabled": 0, "is_reserved": 0, "fusion_lat": 0.0, "fusion_lon": 0.0}, {"rental_uris": {"android": "https://dc.lft.to/lastmile_qr_scan", "ios": "https://dc.lft.to/lastmile_qr_scan"}, "bike_id": "0d6398f76bcfe178b52d3020ad9d9929", "name": "0d6398f76bcfe178b52d3020ad9d9929", "type": "electric_bike", "lon": -76.960515, "lat": 38.884013833333334, "is_disabled": 0, "is_reserved": 0, "fusion_lat": 0.0, "fusion_lon": 0.0}, {"rental_uris": {"android": "https://dc.lft.to/lastmile_qr_scan", "ios": "https://dc.lft.to/lastmile_qr_scan"}, "bike_id": "5cd56dfb218d53e2859858ff14ef2806", "name": "5cd56dfb218d53e2859858ff14ef2806", "type": "electric_scooter", "lon": -77.03205183333333, "lat": 38.90862416666667, "is_disabled": 0, "is_reserved": 0, "fusion_lat": 0.0, "fusion_lon": 0.0}, {"rental_uris": {"android": "https://dc.lft.to/lastmile_qr_scan", "ios": "https://dc.lft.to/lastmile_qr_scan"}, "bike_id": "4274e9659e01c90cbd0169ffe6b90ed3", "name": "4274e9659e01c90cbd0169ffe6b90ed3", "type": "electric_bike", "lon": -77.06400316666667, "lat": 38.840659333333335, "is_disabled": 0, "is_reserved": 0, "fusion_lat": 0.0, "fusion_lon": 0.0}, {"rental_uris": {"android": "https://dc.lft.to/lastmile_qr_scan", "ios": "https://dc.lft.to/lastmile_qr_scan"}, "bike_id": "b571a1fba6bc741ff16f045a0503fab2", "name": "b571a1fba6bc741ff16f045a0503fab2", "type": "electric_scooter", "lon": -76.9952705, "lat": 38.86249466666666, "is_disabled": 0, "is_reserved": 0, "fusion_lat": 0.0, "fusion_lon": 0.0}, {"rental_uris": {"android": "https://dc.lft.to/lastmile_qr_scan", "ios": "https://dc.lft.to/lastmile_qr_scan"}, "bike_id": "80a25e6f89ccceae13ee28ef4ac79cec", "name": "80a25e6f89ccceae13ee28ef4ac79cec", "type": "electric_scooter", "lon": -76.98383316666667, "lat": 38.861212333333334, "is_disabled": 0, "is_reserved": 0, "fusion_lat": 0.0, "fusion_lon": 0.0}, {"rental_uris": {"android": "https://dc.lft.to/lastmile_qr_scan", "ios": "https://dc.lft.to/lastmile_qr_scan"}, "bike_id": "be4bf8f80892bc2c18cf651b540a8ca4", "name": "be4bf8f80892bc2c18cf651b540a8ca4", "type": "electric_scooter", "lon": -77.00433383333333, "lat": 38.91251066666667, "is_disabled": 0, "is_reserved": 0, "fusion_lat": 0.0, "fusion_lon": 0.0}, {"rental_uris": {"android": "https://dc.lft.to/lastmile_qr_scan", "ios": "https://dc.lft.to/lastmile_qr_scan"}, "bike_id": "861263134d06808b078432113cb47a94", "name": "861263134d06808b078432113cb47a94", "type": "electric_scooter", "lon": -77.03236383333333, "lat": 38.917231666666666, "is_disabled": 0, "is_reserved": 0, "fusion_lat": 0.0, "fusion_lon": 0.0}, {"rental_uris": {"android": "https://dc.lft.to/lastmile_qr_scan", "ios": "https://dc.lft.to/lastmile_qr_scan"}, "bike_id": "4d7a31bec141a3ed256e9fd6ae0cc346", "name": "4d7a31bec141a3ed256e9fd6ae0cc346", "type": "electric_scooter", "lon": -77.002091, "lat": 38.900739333333334, "is_disabled": 0, "is_reserved": 0, "fusion_lat": 0.0, "fusion_lon": 0.0}, {"rental_uris": {"android": "https://dc.lft.to/lastmile_qr_scan", "ios": "https://dc.lft.to/lastmile_qr_scan"}, "bike_id": "ef549a45f816ff47bf56d8975cf758b7", "name": "ef549a45f816ff47bf56d8975cf758b7", "type": "electric_scooter", "lon": -77.0021635, "lat": 38.900291833333334, "is_disabled": 0, "is_reserved": 0, "fusion_lat": 0.0, "fusion_lon": 0.0}, {"rental_uris": {"android": "https://dc.lft.to/lastmile_qr_scan", "ios": "https://dc.lft.to/lastmile_qr_scan"}, "bike_id": "78c6292e4550fc0a53c8b8ce0028f15e", "name": "78c6292e4550fc0a53c8b8ce0028f15e", "type": "electric_scooter", "lon": -77.039077, "lat": 38.918270666666665, "is_disabled": 0, "is_reserved": 0, "fusion_lat": 0.0, "fusion_lon": 0.0}, {"rental_uris": {"android": "https://dc.lft.to/lastmile_qr_scan", "ios": "https://dc.lft.to/lastmile_qr_scan"}, "bike_id": "0a1bbd6908b83fb84af615d624d73c43", "name": "0a1bbd6908b83fb84af615d624d73c43", "type": "electric_scooter", "lon": -77.03404166666667, "lat": 38.916961666666666, "is_disabled": 0, "is_reserved": 0, "fusion_lat": 0.0, "fusion_lon": 0.0}, {"rental_uris": {"android": "https://dc.lft.to/lastmile_qr_scan", "ios": "https://dc.lft.to/lastmile_qr_scan"}, "bike_id": "99819442e6370fa94a1920a45a2dd07a", "name": "99819442e6370fa94a1920a45a2dd07a", "type": "electric_scooter", "lon": -77.0386595, "lat": 38.91709783333334, "is_disabled": 0, "is_reserved": 0, "fusion_lat": 0.0, "fusion_lon": 0.0}, {"rental_uris": {"android": "https://dc.lft.to/lastmile_qr_scan", "ios": "https://dc.lft.to/lastmile_qr_scan"}, "bike_id": "264c390cc0a42d8fd966bbda7ce6d2a4", "name": "264c390cc0a42d8fd966bbda7ce6d2a4", "type": "electric_scooter", "lon": -76.96528, "lat": 38.876302333333335, "is_disabled": 0, "is_reserved": 0, "fusion_lat": 0.0, "fusion_lon": 0.0}, {"rental_uris": {"android": "https://dc.lft.to/lastmile_qr_scan", "ios": "https://dc.lft.to/lastmile_qr_scan"}, "bike_id": "246f7e42d5cb63d55a3b85915ac3e933", "name": "246f7e42d5cb63d55a3b85915ac3e933", "type": "electric_scooter", "lon": -77.03225233333333, "lat": 38.913998666666664, "is_disabled": 0, "is_reserved": 0, "fusion_lat": 0.0, "fusion_lon": 0.0}, {"rental_uris": {"android": "https://dc.lft.to/lastmile_qr_scan", "ios": "https://dc.lft.to/lastmile_qr_scan"}, "bike_id": "4cbed179baef4ea40f211c2699738594", "name": "4cbed179baef4ea40f211c2699738594", "type": "electric_scooter", "lon": -77.0327425, "lat": 38.927527833333336, "is_disabled": 0, "is_reserved": 0, "fusion_lat": 0.0, "fusion_lon": 0.0}, {"rental_uris": {"android": "https://dc.lft.to/lastmile_qr_scan", "ios": "https://dc.lft.to/lastmile_qr_scan"}, "bike_id": "03e7d6d8fc03802b7bb6ae49e699819d", "name": "03e7d6d8fc03802b7bb6ae49e699819d", "type": "electric_scooter", "lon": -76.99948333333333, "lat": 38.842925, "is_disabled": 0, "is_reserved": 0, "fusion_lat": 0.0, "fusion_lon": 0.0}, {"rental_uris": {"android": "https://dc.lft.to/lastmile_qr_scan", "ios": "https://dc.lft.to/lastmile_qr_scan"}, "bike_id": "35e9bfc358c1008284ffbb43fe00a227", "name": "35e9bfc358c1008284ffbb43fe00a227", "type": "electric_scooter", "lon": -77.01609583333334, "lat": 38.89513483333333, "is_disabled": 0, "is_reserved": 0, "fusion_lat": 0.0, "fusion_lon": 0.0}, {"rental_uris": {"android": "https://dc.lft.to/lastmile_qr_scan", "ios": "https://dc.lft.to/lastmile_qr_scan"}, "bike_id": "3f73907b8a0dfb7eabf9bd78266ffacd", "name": "3f73907b8a0dfb7eabf9bd78266ffacd", "type": "electric_scooter", "lon": -77.03324833333333, "lat": 38.92847716666667, "is_disabled": 0, "is_reserved": 0, "fusion_lat": 0.0, "fusion_lon": 0.0}, {"rental_uris": {"android": "https://dc.lft.to/lastmile_qr_scan", "ios": "https://dc.lft.to/lastmile_qr_scan"}, "bike_id": "2b2153c75280ab57e4ccf07b2cb009f0", "name": "2b2153c75280ab57e4ccf07b2cb009f0", "type": "electric_scooter", "lon": -77.0423775, "lat": 38.921606833333335, "is_disabled": 0, "is_reserved": 0, "fusion_lat": 0.0, "fusion_lon": 0.0}, {"rental_uris": {"android": "https://dc.lft.to/lastmile_qr_scan", "ios": "https://dc.lft.to/lastmile_qr_scan"}, "bike_id": "a4296accd3f7f8723356ef7386e64ba9", "name": "a4296accd3f7f8723356ef7386e64ba9", "type": "electric_scooter", "lon": -77.06075833333334, "lat": 38.901417, "is_disabled": 0, "is_reserved": 0, "fusion_lat": 0.0, "fusion_lon": 0.0}, {"rental_uris": {"android": "https://dc.lft.to/lastmile_qr_scan", "ios": "https://dc.lft.to/lastmile_qr_scan"}, "bike_id": "7ac994022f6123bfdf3d6cba81f66a5b", "name": "7ac994022f6123bfdf3d6cba81f66a5b", "type": "electric_scooter", "lon": -77.033534, "lat": 38.88624433333333, "is_disabled": 0, "is_reserved": 0, "fusion_lat": 0.0, "fusion_lon": 0.0}, {"rental_uris": {"android": "https://dc.lft.to/lastmile_qr_scan", "ios": "https://dc.lft.to/lastmile_qr_scan"}, "bike_id": "3c8e00b34a5b343482bfc9fc0e37bd4d", "name": "3c8e00b34a5b343482bfc9fc0e37bd4d", "type": "electric_scooter", "lon": -77.03543, "lat": 38.90335133333333, "is_disabled": 0, "is_reserved": 0, "fusion_lat": 0.0, "fusion_lon": 0.0}, {"rental_uris": {"android": "https://dc.lft.to/lastmile_qr_scan", "ios": "https://dc.lft.to/lastmile_qr_scan"}, "bike_id": "abd850babda205da0943cb1672122c05", "name": "abd850babda205da0943cb1672122c05", "type": "electric_scooter", "lon": -77.0307785, "lat": 38.9174785, "is_disabled": 0, "is_reserved": 0, "fusion_lat": 0.0, "fusion_lon": 0.0}, {"rental_uris": {"android": "https://dc.lft.to/lastmile_qr_scan", "ios": "https://dc.lft.to/lastmile_qr_scan"}, "bike_id": "e3c15994d7cf223fa415b6e93e9beed9", "name": "e3c15994d7cf223fa415b6e93e9beed9", "type": "electric_scooter", "lon": -77.02244466666667, "lat": 38.909654333333336, "is_disabled": 0, "is_reserved": 0, "fusion_lat": 0.0, "fusion_lon": 0.0}, {"rental_uris": {"android": "https://dc.lft.to/lastmile_qr_scan", "ios": "https://dc.lft.to/lastmile_qr_scan"}, "bike_id": "a7b1217a2993f1f2770642aa146f1e3e", "name": "a7b1217a2993f1f2770642aa146f1e3e", "type": "electric_scooter", "lon": -77.02968266666667, "lat": 38.92323916666667, "is_disabled": 0, "is_reserved": 0, "fusion_lat": 0.0, "fusion_lon": 0.0}, {"rental_uris": {"android": "https://dc.lft.to/lastmile_qr_scan", "ios": "https://dc.lft.to/lastmile_qr_scan"}, "bike_id": "c6eecd65422ce3c2fffea298bab40f97", "name": "c6eecd65422ce3c2fffea298bab40f97", "type": "electric_scooter", "lon": -76.98616583333333, "lat": 38.9382635, "is_disabled": 0, "is_reserved": 0, "fusion_lat": 0.0, "fusion_lon": 0.0}, {"rental_uris": {"android": "https://dc.lft.to/lastmile_qr_scan", "ios": "https://dc.lft.to/lastmile_qr_scan"}, "bike_id": "98c9632b0bdc3f033e598806909f81d2", "name": "98c9632b0bdc3f033e598806909f81d2", "type": "electric_scooter", "lon": -76.97667683333333, "lat": 38.898595666666665, "is_disabled": 0, "is_reserved": 0, "fusion_lat": 0.0, "fusion_lon": 0.0}, {"rental_uris": {"android": "https://dc.lft.to/lastmile_qr_scan", "ios": "https://dc.lft.to/lastmile_qr_scan"}, "bike_id": "a68dbc7cd7a7868e14f48b01c1478520", "name": "a68dbc7cd7a7868e14f48b01c1478520", "type": "electric_scooter", "lon": -77.041672, "lat": 38.916417, "is_disabled": 0, "is_reserved": 0, "fusion_lat": 0.0, "fusion_lon": 0.0}, {"rental_uris": {"android": "https://dc.lft.to/lastmile_qr_scan", "ios": "https://dc.lft.to/lastmile_qr_scan"}, "bike_id": "8fd075ca3ac4dcf2ec83aee25b3cba2a", "name": "8fd075ca3ac4dcf2ec83aee25b3cba2a", "type": "electric_scooter", "lon": -77.02720616666667, "lat": 38.949618666666666, "is_disabled": 0, "is_reserved": 0, "fusion_lat": 0.0, "fusion_lon": 0.0}, {"rental_uris": {"android": "https://dc.lft.to/lastmile_qr_scan", "ios": "https://dc.lft.to/lastmile_qr_scan"}, "bike_id": "58bbf0ae130c4e653012a241cb9b2653", "name": "58bbf0ae130c4e653012a241cb9b2653", "type": "electric_scooter", "lon": -76.99388316666666, "lat": 38.897348, "is_disabled": 0, "is_reserved": 0, "fusion_lat": 0.0, "fusion_lon": 0.0}, {"rental_uris": {"android": "https://dc.lft.to/lastmile_qr_scan", "ios": "https://dc.lft.to/lastmile_qr_scan"}, "bike_id": "c864a747155ea62cecae7b7ebb6686c1", "name": "c864a747155ea62cecae7b7ebb6686c1", "type": "electric_scooter", "lon": -77.02095583333333, "lat": 38.92693283333333, "is_disabled": 0, "is_reserved": 0, "fusion_lat": 0.0, "fusion_lon": 0.0}, {"rental_uris": {"android": "https://dc.lft.to/lastmile_qr_scan", "ios": "https://dc.lft.to/lastmile_qr_scan"}, "bike_id": "7bd82050c2632e8c3d88594f7be02722", "name": "7bd82050c2632e8c3d88594f7be02722", "type": "electric_scooter", "lon": -77.05001583333333, "lat": 38.89230366666666, "is_disabled": 0, "is_reserved": 0, "fusion_lat": 0.0, "fusion_lon": 0.0}, {"rental_uris": {"android": "https://dc.lft.to/lastmile_qr_scan", "ios": "https://dc.lft.to/lastmile_qr_scan"}, "bike_id": "8b918f1e223598c77cdc411283452135", "name": "8b918f1e223598c77cdc411283452135", "type": "electric_scooter", "lon": -77.0033615, "lat": 38.8898715, "is_disabled": 0, "is_reserved": 0, "fusion_lat": 0.0, "fusion_lon": 0.0}, {"rental_uris": {"android": "https://dc.lft.to/lastmile_qr_scan", "ios": "https://dc.lft.to/lastmile_qr_scan"}, "bike_id": "40ac081e28ced3bbdc7c38991c73a01b", "name": "40ac081e28ced3bbdc7c38991c73a01b", "type": "electric_scooter", "lon": -76.98836566666667, "lat": 38.90033966666667, "is_disabled": 0, "is_reserved": 0, "fusion_lat": 0.0, "fusion_lon": 0.0}, {"rental_uris": {"android": "https://dc.lft.to/lastmile_qr_scan", "ios": "https://dc.lft.to/lastmile_qr_scan"}, "bike_id": "ae5fe554c1614da75b04bedc9a3af182", "name": "ae5fe554c1614da75b04bedc9a3af182", "type": "electric_scooter", "lon": -76.99310833333334, "lat": 38.9001735, "is_disabled": 0, "is_reserved": 0, "fusion_lat": 0.0, "fusion_lon": 0.0}, {"rental_uris": {"android": "https://dc.lft.to/lastmile_qr_scan", "ios": "https://dc.lft.to/lastmile_qr_scan"}, "bike_id": "411141f631bd86237c13ede5cb2a062d", "name": "411141f631bd86237c13ede5cb2a062d", "type": "electric_scooter", "lon": -77.04125416666666, "lat": 38.921623333333336, "is_disabled": 0, "is_reserved": 0, "fusion_lat": 0.0, "fusion_lon": 0.0}, {"rental_uris": {"android": "https://dc.lft.to/lastmile_qr_scan", "ios": "https://dc.lft.to/lastmile_qr_scan"}, "bike_id": "738f0485ce14b5423e1e67232cbe8ec5", "name": "738f0485ce14b5423e1e67232cbe8ec5", "type": "electric_scooter", "lon": -77.04181666666666, "lat": 38.892234333333334, "is_disabled": 0, "is_reserved": 0, "fusion_lat": 0.0, "fusion_lon": 0.0}, {"rental_uris": {"android": "https://dc.lft.to/lastmile_qr_scan", "ios": "https://dc.lft.to/lastmile_qr_scan"}, "bike_id": "9b6374d8932b03bfb6222065d40de755", "name": "9b6374d8932b03bfb6222065d40de755", "type": "electric_scooter", "lon": -77.03835666666667, "lat": 38.90899916666667, "is_disabled": 0, "is_reserved": 0, "fusion_lat": 0.0, "fusion_lon": 0.0}, {"rental_uris": {"android": "https://dc.lft.to/lastmile_qr_scan", "ios": "https://dc.lft.to/lastmile_qr_scan"}, "bike_id": "d73822b33da755b8a6ca9971b1d0c371", "name": "d73822b33da755b8a6ca9971b1d0c371", "type": "electric_scooter", "lon": -77.0280575, "lat": 38.930819166666666, "is_disabled": 0, "is_reserved": 0, "fusion_lat": 0.0, "fusion_lon": 0.0}, {"rental_uris": {"android": "https://dc.lft.to/lastmile_qr_scan", "ios": "https://dc.lft.to/lastmile_qr_scan"}, "bike_id": "3400a7596a760d9458506d0af9ef1e82", "name": "3400a7596a760d9458506d0af9ef1e82", "type": "electric_bike", "lon": -77.05196966666666, "lat": 38.92458166666667, "is_disabled": 0, "is_reserved": 0, "fusion_lat": 0.0, "fusion_lon": 0.0}, {"rental_uris": {"android": "https://dc.lft.to/lastmile_qr_scan", "ios": "https://dc.lft.to/lastmile_qr_scan"}, "bike_id": "c7d8e388daf49c810d1d7548d5a8b309", "name": "c7d8e388daf49c810d1d7548d5a8b309", "type": "electric_scooter", "lon": -77.02842433333333, "lat": 38.8875205, "is_disabled": 0, "is_reserved": 0, "fusion_lat": 0.0, "fusion_lon": 0.0}, {"rental_uris": {"android": "https://dc.lft.to/lastmile_qr_scan", "ios": "https://dc.lft.to/lastmile_qr_scan"}, "bike_id": "1937258c6458185f1fa51c957dc677f9", "name": "1937258c6458185f1fa51c957dc677f9", "type": "electric_bike", "lon": -76.94804983333333, "lat": 38.861921833333334, "is_disabled": 0, "is_reserved": 0, "fusion_lat": 0.0, "fusion_lon": 0.0}, {"rental_uris": {"android": "https://dc.lft.to/lastmile_qr_scan", "ios": "https://dc.lft.to/lastmile_qr_scan"}, "bike_id": "4716744acc43fff06f102094dee88302", "name": "4716744acc43fff06f102094dee88302", "type": "electric_scooter", "lon": -77.03208966666666, "lat": 38.91716233333333, "is_disabled": 0, "is_reserved": 0, "fusion_lat": 0.0, "fusion_lon": 0.0}, {"rental_uris": {"android": "https://dc.lft.to/lastmile_qr_scan", "ios": "https://dc.lft.to/lastmile_qr_scan"}, "bike_id": "b887c2536c8b891148c4faa152af91cd", "name": "b887c2536c8b891148c4faa152af91cd", "type": "electric_scooter", "lon": -77.03913816666666, "lat": 38.9248805, "is_disabled": 0, "is_reserved": 0, "fusion_lat": 0.0, "fusion_lon": 0.0}, {"rental_uris": {"android": "https://dc.lft.to/lastmile_qr_scan", "ios": "https://dc.lft.to/lastmile_qr_scan"}, "bike_id": "597918cb8ea91c03ef5aaff8cb2437d2", "name": "597918cb8ea91c03ef5aaff8cb2437d2", "type": "electric_scooter", "lon": -76.93740883333334, "lat": 38.890237666666664, "is_disabled": 0, "is_reserved": 0, "fusion_lat": 0.0, "fusion_lon": 0.0}, {"rental_uris": {"android": "https://dc.lft.to/lastmile_qr_scan", "ios": "https://dc.lft.to/lastmile_qr_scan"}, "bike_id": "da99fcde6b1a72581bdeffc27ebc92e6", "name": "da99fcde6b1a72581bdeffc27ebc92e6", "type": "electric_scooter", "lon": -77.03276083333333, "lat": 38.92975216666667, "is_disabled": 0, "is_reserved": 0, "fusion_lat": 0.0, "fusion_lon": 0.0}, {"rental_uris": {"android": "https://dc.lft.to/lastmile_qr_scan", "ios": "https://dc.lft.to/lastmile_qr_scan"}, "bike_id": "e89169536c8d0971ba7d1fb52aa52883", "name": "e89169536c8d0971ba7d1fb52aa52883", "type": "electric_scooter", "lon": -77.01404383333333, "lat": 38.8874465, "is_disabled": 0, "is_reserved": 0, "fusion_lat": 0.0, "fusion_lon": 0.0}, {"rental_uris": {"android": "https://dc.lft.to/lastmile_qr_scan", "ios": "https://dc.lft.to/lastmile_qr_scan"}, "bike_id": "42e1c16840977d5a550e1e56e90e2ecd", "name": "42e1c16840977d5a550e1e56e90e2ecd", "type": "electric_scooter", "lon": -77.0345, "lat": 38.90599183333333, "is_disabled": 0, "is_reserved": 0, "fusion_lat": 0.0, "fusion_lon": 0.0}, {"rental_uris": {"android": "https://dc.lft.to/lastmile_qr_scan", "ios": "https://dc.lft.to/lastmile_qr_scan"}, "bike_id": "2a96f3aaae8dbc7dd3681b4b13cb8fd3", "name": "2a96f3aaae8dbc7dd3681b4b13cb8fd3", "type": "electric_scooter", "lon": -77.03130016666667, "lat": 38.92376066666667, "is_disabled": 0, "is_reserved": 0, "fusion_lat": 0.0, "fusion_lon": 0.0}, {"rental_uris": {"android": "https://dc.lft.to/lastmile_qr_scan", "ios": "https://dc.lft.to/lastmile_qr_scan"}, "bike_id": "a895807ae11d0e9755107cdf3b0cecdb", "name": "a895807ae11d0e9755107cdf3b0cecdb", "type": "electric_scooter", "lon": -77.04090666666667, "lat": 38.910519666666666, "is_disabled": 0, "is_reserved": 0, "fusion_lat": 0.0, "fusion_lon": 0.0}, {"rental_uris": {"android": "https://dc.lft.to/lastmile_qr_scan", "ios": "https://dc.lft.to/lastmile_qr_scan"}, "bike_id": "9e106b9ada76f5bd3f5f0db49ab4b5db", "name": "9e106b9ada76f5bd3f5f0db49ab4b5db", "type": "electric_bike", "lon": -77.07843983333333, "lat": 38.931279333333336, "is_disabled": 0, "is_reserved": 0, "fusion_lat": 0.0, "fusion_lon": 0.0}, {"rental_uris": {"android": "https://dc.lft.to/lastmile_qr_scan", "ios": "https://dc.lft.to/lastmile_qr_scan"}, "bike_id": "1ba10902feeb97b967cb7c81db413082", "name": "1ba10902feeb97b967cb7c81db413082", "type": "electric_scooter", "lon": -77.0229885, "lat": 38.920827333333335, "is_disabled": 0, "is_reserved": 0, "fusion_lat": 0.0, "fusion_lon": 0.0}, {"rental_uris": {"android": "https://dc.lft.to/lastmile_qr_scan", "ios": "https://dc.lft.to/lastmile_qr_scan"}, "bike_id": "655a57200e5594c0faada9b528f1d7c3", "name": "655a57200e5594c0faada9b528f1d7c3", "type": "electric_scooter", "lon": -77.04320733333333, "lat": 38.9084245, "is_disabled": 0, "is_reserved": 0, "fusion_lat": 0.0, "fusion_lon": 0.0}, {"rental_uris": {"android": "https://dc.lft.to/lastmile_qr_scan", "ios": "https://dc.lft.to/lastmile_qr_scan"}, "bike_id": "ca2d08e745ea72bf65863a6d55df8055", "name": "ca2d08e745ea72bf65863a6d55df8055", "type": "electric_scooter", "lon": -77.04827916666666, "lat": 38.911089833333335, "is_disabled": 0, "is_reserved": 0, "fusion_lat": 0.0, "fusion_lon": 0.0}, {"rental_uris": {"android": "https://dc.lft.to/lastmile_qr_scan", "ios": "https://dc.lft.to/lastmile_qr_scan"}, "bike_id": "8d8425f5dcbfd5323680e476d0014856", "name": "8d8425f5dcbfd5323680e476d0014856", "type": "electric_scooter", "lon": -77.05315783333333, "lat": 38.902615833333336, "is_disabled": 0, "is_reserved": 0, "fusion_lat": 0.0, "fusion_lon": 0.0}, {"rental_uris": {"android": "https://dc.lft.to/lastmile_qr_scan", "ios": "https://dc.lft.to/lastmile_qr_scan"}, "bike_id": "42adebb8972d0dade39239dc5682b523", "name": "42adebb8972d0dade39239dc5682b523", "type": "electric_bike", "lon": -77.0952305, "lat": 38.83813466666667, "is_disabled": 0, "is_reserved": 0, "fusion_lat": 0.0, "fusion_lon": 0.0}, {"rental_uris": {"android": "https://dc.lft.to/lastmile_qr_scan", "ios": "https://dc.lft.to/lastmile_qr_scan"}, "bike_id": "029ad43c87f3fb1df191aa90c6378466", "name": "029ad43c87f3fb1df191aa90c6378466", "type": "electric_bike", "lon": -77.228026, "lat": 38.910154, "is_disabled": 0, "is_reserved": 0, "fusion_lat": 0.0, "fusion_lon": 0.0}, {"rental_uris": {"android": "https://dc.lft.to/lastmile_qr_scan", "ios": "https://dc.lft.to/lastmile_qr_scan"}, "bike_id": "e70f092c72e926f2c055b6d9bc7d897d", "name": "e70f092c72e926f2c055b6d9bc7d897d", "type": "electric_scooter", "lon": -76.9985545, "lat": 38.9037, "is_disabled": 0, "is_reserved": 0, "fusion_lat": 0.0, "fusion_lon": 0.0}, {"rental_uris": {"android": "https://dc.lft.to/lastmile_qr_scan", "ios": "https://dc.lft.to/lastmile_qr_scan"}, "bike_id": "2339cb54e4fd304e8b7fe48ff5bd9adb", "name": "2339cb54e4fd304e8b7fe48ff5bd9adb", "type": "electric_scooter", "lon": -77.02218766666667, "lat": 38.9163155, "is_disabled": 0, "is_reserved": 0, "fusion_lat": 0.0, "fusion_lon": 0.0}, {"rental_uris": {"android": "https://dc.lft.to/lastmile_qr_scan", "ios": "https://dc.lft.to/lastmile_qr_scan"}, "bike_id": "9a55dc5facb2eb2ab91c94a6df78827d", "name": "9a55dc5facb2eb2ab91c94a6df78827d", "type": "electric_scooter", "lon": -76.99636383333333, "lat": 38.9003905, "is_disabled": 0, "is_reserved": 0, "fusion_lat": 0.0, "fusion_lon": 0.0}, {"rental_uris": {"android": "https://dc.lft.to/lastmile_qr_scan", "ios": "https://dc.lft.to/lastmile_qr_scan"}, "bike_id": "fcaaf7e3510310fc923d11abed91cd9a", "name": "fcaaf7e3510310fc923d11abed91cd9a", "type": "electric_scooter", "lon": -77.01729166666667, "lat": 38.90355266666667, "is_disabled": 0, "is_reserved": 0, "fusion_lat": 0.0, "fusion_lon": 0.0}, {"rental_uris": {"android": "https://dc.lft.to/lastmile_qr_scan", "ios": "https://dc.lft.to/lastmile_qr_scan"}, "bike_id": "5b6f9aa6a7ae3918ec7816e0702a55fb", "name": "5b6f9aa6a7ae3918ec7816e0702a55fb", "type": "electric_scooter", "lon": -77.01359916666667, "lat": 38.89339566666666, "is_disabled": 0, "is_reserved": 0, "fusion_lat": 0.0, "fusion_lon": 0.0}, {"rental_uris": {"android": "https://dc.lft.to/lastmile_qr_scan", "ios": "https://dc.lft.to/lastmile_qr_scan"}, "bike_id": "f76076e2a61cf5acc551bf20df2f0f91", "name": "f76076e2a61cf5acc551bf20df2f0f91", "type": "electric_scooter", "lon": -77.03720483333333, "lat": 38.9126775, "is_disabled": 0, "is_reserved": 0, "fusion_lat": 0.0, "fusion_lon": 0.0}, {"rental_uris": {"android": "https://dc.lft.to/lastmile_qr_scan", "ios": "https://dc.lft.to/lastmile_qr_scan"}, "bike_id": "43cd9a938e8372a52823ba93fd01facf", "name": "43cd9a938e8372a52823ba93fd01facf", "type": "electric_scooter", "lon": -77.04179, "lat": 38.92011683333333, "is_disabled": 0, "is_reserved": 0, "fusion_lat": 0.0, "fusion_lon": 0.0}, {"rental_uris": {"android": "https://dc.lft.to/lastmile_qr_scan", "ios": "https://dc.lft.to/lastmile_qr_scan"}, "bike_id": "c78508f498f8faef7ab5b5ae572d4816", "name": "c78508f498f8faef7ab5b5ae572d4816", "type": "electric_scooter", "lon": -77.04907783333333, "lat": 38.888363, "is_disabled": 0, "is_reserved": 0, "fusion_lat": 0.0, "fusion_lon": 0.0}, {"rental_uris": {"android": "https://dc.lft.to/lastmile_qr_scan", "ios": "https://dc.lft.to/lastmile_qr_scan"}, "bike_id": "706ad271a17d474121ef460f747d615c", "name": "706ad271a17d474121ef460f747d615c", "type": "electric_scooter", "lon": -77.031055, "lat": 38.946484833333336, "is_disabled": 0, "is_reserved": 0, "fusion_lat": 0.0, "fusion_lon": 0.0}, {"rental_uris": {"android": "https://dc.lft.to/lastmile_qr_scan", "ios": "https://dc.lft.to/lastmile_qr_scan"}, "bike_id": "f90980c6d5a1e41c5acaa1ce2df2e0c5", "name": "f90980c6d5a1e41c5acaa1ce2df2e0c5", "type": "electric_scooter", "lon": -77.03889, "lat": 38.912546666666664, "is_disabled": 0, "is_reserved": 0, "fusion_lat": 0.0, "fusion_lon": 0.0}, {"rental_uris": {"android": "https://dc.lft.to/lastmile_qr_scan", "ios": "https://dc.lft.to/lastmile_qr_scan"}, "bike_id": "d6eff6d8f90060510790303f49fa0691", "name": "d6eff6d8f90060510790303f49fa0691", "type": "electric_scooter", "lon": -77.050565, "lat": 38.90095633333333, "is_disabled": 0, "is_reserved": 0, "fusion_lat": 0.0, "fusion_lon": 0.0}, {"rental_uris": {"android": "https://dc.lft.to/lastmile_qr_scan", "ios": "https://dc.lft.to/lastmile_qr_scan"}, "bike_id": "b3ef871063cc1a82d79dd7f797a79971", "name": "b3ef871063cc1a82d79dd7f797a79971", "type": "electric_bike", "lon": -77.11708633333333, "lat": 38.867486666666665, "is_disabled": 0, "is_reserved": 0, "fusion_lat": 0.0, "fusion_lon": 0.0}, {"rental_uris": {"android": "https://dc.lft.to/lastmile_qr_scan", "ios": "https://dc.lft.to/lastmile_qr_scan"}, "bike_id": "21b25c08c8436ad68ab6728361bdf03c", "name": "21b25c08c8436ad68ab6728361bdf03c", "type": "electric_scooter", "lon": -77.0372715, "lat": 38.903718, "is_disabled": 0, "is_reserved": 0, "fusion_lat": 0.0, "fusion_lon": 0.0}, {"rental_uris": {"android": "https://dc.lft.to/lastmile_qr_scan", "ios": "https://dc.lft.to/lastmile_qr_scan"}, "bike_id": "32893afa3f2119bb6f7f3348d08068b4", "name": "32893afa3f2119bb6f7f3348d08068b4", "type": "electric_scooter", "lon": -77.00371716666666, "lat": 38.8827005, "is_disabled": 0, "is_reserved": 0, "fusion_lat": 0.0, "fusion_lon": 0.0}, {"rental_uris": {"android": "https://dc.lft.to/lastmile_qr_scan", "ios": "https://dc.lft.to/lastmile_qr_scan"}, "bike_id": "48ac29b7729b144bd4f0f20c7361635e", "name": "48ac29b7729b144bd4f0f20c7361635e", "type": "electric_scooter", "lon": -77.0433425, "lat": 38.91401716666667, "is_disabled": 0, "is_reserved": 0, "fusion_lat": 0.0, "fusion_lon": 0.0}, {"rental_uris": {"android": "https://dc.lft.to/lastmile_qr_scan", "ios": "https://dc.lft.to/lastmile_qr_scan"}, "bike_id": "6606b7c3ec8efada4380fc36701f85b1", "name": "6606b7c3ec8efada4380fc36701f85b1", "type": "electric_scooter", "lon": -77.04607983333334, "lat": 38.90273533333333, "is_disabled": 0, "is_reserved": 0, "fusion_lat": 0.0, "fusion_lon": 0.0}, {"rental_uris": {"android": "https://dc.lft.to/lastmile_qr_scan", "ios": "https://dc.lft.to/lastmile_qr_scan"}, "bike_id": "23c8d94b5e857773a7f48fa008eaacd1", "name": "23c8d94b5e857773a7f48fa008eaacd1", "type": "electric_scooter", "lon": -77.00375233333334, "lat": 38.90722983333333, "is_disabled": 0, "is_reserved": 0, "fusion_lat": 0.0, "fusion_lon": 0.0}, {"rental_uris": {"android": "https://dc.lft.to/lastmile_qr_scan", "ios": "https://dc.lft.to/lastmile_qr_scan"}, "bike_id": "8c1ccb9c4b6c281eedb437d67d3c59f6", "name": "8c1ccb9c4b6c281eedb437d67d3c59f6", "type": "electric_bike", "lon": -76.9862805, "lat": 38.8805165, "is_disabled": 0, "is_reserved": 0, "fusion_lat": 0.0, "fusion_lon": 0.0}, {"rental_uris": {"android": "https://dc.lft.to/lastmile_qr_scan", "ios": "https://dc.lft.to/lastmile_qr_scan"}, "bike_id": "a101824d7f6bd5b3f5e01fb768c7be64", "name": "a101824d7f6bd5b3f5e01fb768c7be64", "type": "electric_scooter", "lon": -77.02721916666667, "lat": 38.94963383333333, "is_disabled": 0, "is_reserved": 0, "fusion_lat": 0.0, "fusion_lon": 0.0}, {"rental_uris": {"android": "https://dc.lft.to/lastmile_qr_scan", "ios": "https://dc.lft.to/lastmile_qr_scan"}, "bike_id": "f2796458a3af7f132a522bcaef37c757", "name": "f2796458a3af7f132a522bcaef37c757", "type": "electric_bike", "lon": -77.00200983333333, "lat": 38.819421166666665, "is_disabled": 0, "is_reserved": 0, "fusion_lat": 0.0, "fusion_lon": 0.0}, {"rental_uris": {"android": "https://dc.lft.to/lastmile_qr_scan", "ios": "https://dc.lft.to/lastmile_qr_scan"}, "bike_id": "d114f18ec5b76788ec04b184e3c1e31b", "name": "d114f18ec5b76788ec04b184e3c1e31b", "type": "electric_scooter", "lon": -77.00655883333333, "lat": 38.94471516666667, "is_disabled": 0, "is_reserved": 0, "fusion_lat": 0.0, "fusion_lon": 0.0}, {"rental_uris": {"android": "https://dc.lft.to/lastmile_qr_scan", "ios": "https://dc.lft.to/lastmile_qr_scan"}, "bike_id": "9a2a02192239247a3c8e291c60b877ce", "name": "9a2a02192239247a3c8e291c60b877ce", "type": "electric_scooter", "lon": -77.063274, "lat": 38.94416, "is_disabled": 0, "is_reserved": 0, "fusion_lat": 0.0, "fusion_lon": 0.0}, {"rental_uris": {"android": "https://dc.lft.to/lastmile_qr_scan", "ios": "https://dc.lft.to/lastmile_qr_scan"}, "bike_id": "168d17a23f4c78cda132318f539871dc", "name": "168d17a23f4c78cda132318f539871dc", "type": "electric_scooter", "lon": -77.02170083333333, "lat": 38.897289666666666, "is_disabled": 0, "is_reserved": 0, "fusion_lat": 0.0, "fusion_lon": 0.0}, {"rental_uris": {"android": "https://dc.lft.to/lastmile_qr_scan", "ios": "https://dc.lft.to/lastmile_qr_scan"}, "bike_id": "0b7bdb3ba68c37f82d02b2f6ec5846ac", "name": "0b7bdb3ba68c37f82d02b2f6ec5846ac", "type": "electric_scooter", "lon": -76.98370483333333, "lat": 38.8859695, "is_disabled": 0, "is_reserved": 0, "fusion_lat": 0.0, "fusion_lon": 0.0}, {"rental_uris": {"android": "https://dc.lft.to/lastmile_qr_scan", "ios": "https://dc.lft.to/lastmile_qr_scan"}, "bike_id": "c62819ff109cc9aeac04ede9502f17de", "name": "c62819ff109cc9aeac04ede9502f17de", "type": "electric_scooter", "lon": -77.04156683333333, "lat": 38.91835666666667, "is_disabled": 0, "is_reserved": 0, "fusion_lat": 0.0, "fusion_lon": 0.0}, {"rental_uris": {"android": "https://dc.lft.to/lastmile_qr_scan", "ios": "https://dc.lft.to/lastmile_qr_scan"}, "bike_id": "ac9b327b11681ad90168c2af2d84f4be", "name": "ac9b327b11681ad90168c2af2d84f4be", "type": "electric_scooter", "lon": -77.04172466666667, "lat": 38.918377666666665, "is_disabled": 0, "is_reserved": 0, "fusion_lat": 0.0, "fusion_lon": 0.0}, {"rental_uris": {"android": "https://dc.lft.to/lastmile_qr_scan", "ios": "https://dc.lft.to/lastmile_qr_scan"}, "bike_id": "3fc650f6c3e643255e05e3c3b57d9f0e", "name": "3fc650f6c3e643255e05e3c3b57d9f0e", "type": "electric_scooter", "lon": -77.01574683333334, "lat": 38.91510733333333, "is_disabled": 0, "is_reserved": 0, "fusion_lat": 0.0, "fusion_lon": 0.0}, {"rental_uris": {"android": "https://dc.lft.to/lastmile_qr_scan", "ios": "https://dc.lft.to/lastmile_qr_scan"}, "bike_id": "51c90b2b64169b85b8b2db9256a89025", "name": "51c90b2b64169b85b8b2db9256a89025", "type": "electric_scooter", "lon": -77.00354033333333, "lat": 38.90244416666667, "is_disabled": 0, "is_reserved": 0, "fusion_lat": 0.0, "fusion_lon": 0.0}, {"rental_uris": {"android": "https://dc.lft.to/lastmile_qr_scan", "ios": "https://dc.lft.to/lastmile_qr_scan"}, "bike_id": "411771b3e22f19c738d47933770105f9", "name": "411771b3e22f19c738d47933770105f9", "type": "electric_bike", "lon": -77.0315335, "lat": 38.99946416666667, "is_disabled": 0, "is_reserved": 0, "fusion_lat": 0.0, "fusion_lon": 0.0}, {"rental_uris": {"android": "https://dc.lft.to/lastmile_qr_scan", "ios": "https://dc.lft.to/lastmile_qr_scan"}, "bike_id": "dad69a0cf018eeaf354c3f46873594b8", "name": "dad69a0cf018eeaf354c3f46873594b8", "type": "electric_scooter", "lon": -77.03288933333333, "lat": 38.920476, "is_disabled": 0, "is_reserved": 0, "fusion_lat": 0.0, "fusion_lon": 0.0}, {"rental_uris": {"android": "https://dc.lft.to/lastmile_qr_scan", "ios": "https://dc.lft.to/lastmile_qr_scan"}, "bike_id": "8d86001e0af4789da100246d2a0d2076", "name": "8d86001e0af4789da100246d2a0d2076", "type": "electric_scooter", "lon": -77.05689083333333, "lat": 38.906034166666664, "is_disabled": 0, "is_reserved": 0, "fusion_lat": 0.0, "fusion_lon": 0.0}, {"rental_uris": {"android": "https://dc.lft.to/lastmile_qr_scan", "ios": "https://dc.lft.to/lastmile_qr_scan"}, "bike_id": "b4839de9046fab151a12df0f49238085", "name": "b4839de9046fab151a12df0f49238085", "type": "electric_scooter", "lon": -77.00140866666666, "lat": 38.894812, "is_disabled": 0, "is_reserved": 0, "fusion_lat": 0.0, "fusion_lon": 0.0}, {"rental_uris": {"android": "https://dc.lft.to/lastmile_qr_scan", "ios": "https://dc.lft.to/lastmile_qr_scan"}, "bike_id": "8b940699805089c182b63e2c6b63c643", "name": "8b940699805089c182b63e2c6b63c643", "type": "electric_scooter", "lon": -77.0348115, "lat": 38.902568333333335, "is_disabled": 0, "is_reserved": 0, "fusion_lat": 0.0, "fusion_lon": 0.0}, {"rental_uris": {"android": "https://dc.lft.to/lastmile_qr_scan", "ios": "https://dc.lft.to/lastmile_qr_scan"}, "bike_id": "d63fa4b25c39a9d32bd7aa687ceb6310", "name": "d63fa4b25c39a9d32bd7aa687ceb6310", "type": "electric_scooter", "lon": -76.94637233333333, "lat": 38.89845416666667, "is_disabled": 0, "is_reserved": 0, "fusion_lat": 0.0, "fusion_lon": 0.0}, {"rental_uris": {"android": "https://dc.lft.to/lastmile_qr_scan", "ios": "https://dc.lft.to/lastmile_qr_scan"}, "bike_id": "681fdf6adf389c9842191344abf787c2", "name": "681fdf6adf389c9842191344abf787c2", "type": "electric_scooter", "lon": -76.98611583333333, "lat": 38.865291166666665, "is_disabled": 0, "is_reserved": 0, "fusion_lat": 0.0, "fusion_lon": 0.0}, {"rental_uris": {"android": "https://dc.lft.to/lastmile_qr_scan", "ios": "https://dc.lft.to/lastmile_qr_scan"}, "bike_id": "d00ee3d3a9d93a52345be3b8c1ebc6f1", "name": "d00ee3d3a9d93a52345be3b8c1ebc6f1", "type": "electric_scooter", "lon": -77.04357233333333, "lat": 38.92342716666667, "is_disabled": 0, "is_reserved": 0, "fusion_lat": 0.0, "fusion_lon": 0.0}, {"rental_uris": {"android": "https://dc.lft.to/lastmile_qr_scan", "ios": "https://dc.lft.to/lastmile_qr_scan"}, "bike_id": "887a6ac4ea8f03d00965d8385bd5c007", "name": "887a6ac4ea8f03d00965d8385bd5c007", "type": "electric_scooter", "lon": -77.02375, "lat": 38.91984733333334, "is_disabled": 0, "is_reserved": 0, "fusion_lat": 0.0, "fusion_lon": 0.0}, {"rental_uris": {"android": "https://dc.lft.to/lastmile_qr_scan", "ios": "https://dc.lft.to/lastmile_qr_scan"}, "bike_id": "7a4e2a19b4cca2ae23af80f511eecaa9", "name": "7a4e2a19b4cca2ae23af80f511eecaa9", "type": "electric_bike", "lon": -77.12524366666666, "lat": 39.056361333333335, "is_disabled": 0, "is_reserved": 0, "fusion_lat": 0.0, "fusion_lon": 0.0}, {"rental_uris": {"android": "https://dc.lft.to/lastmile_qr_scan", "ios": "https://dc.lft.to/lastmile_qr_scan"}, "bike_id": "adfdd7f878a089a0522ac03896bc9467", "name": "adfdd7f878a089a0522ac03896bc9467", "type": "electric_scooter", "lon": -77.02694866666667, "lat": 38.918034, "is_disabled": 0, "is_reserved": 0, "fusion_lat": 0.0, "fusion_lon": 0.0}, {"rental_uris": {"android": "https://dc.lft.to/lastmile_qr_scan", "ios": "https://dc.lft.to/lastmile_qr_scan"}, "bike_id": "07610444ea3dfe117fb28fd8c2d21286", "name": "07610444ea3dfe117fb28fd8c2d21286", "type": "electric_scooter", "lon": -77.02592433333334, "lat": 38.96394016666667, "is_disabled": 0, "is_reserved": 0, "fusion_lat": 0.0, "fusion_lon": 0.0}, {"rental_uris": {"android": "https://dc.lft.to/lastmile_qr_scan", "ios": "https://dc.lft.to/lastmile_qr_scan"}, "bike_id": "681c810fafa62d3ae50f8bcf036a395f", "name": "681c810fafa62d3ae50f8bcf036a395f", "type": "electric_scooter", "lon": -77.01127766666667, "lat": 38.9170305, "is_disabled": 0, "is_reserved": 0, "fusion_lat": 0.0, "fusion_lon": 0.0}, {"rental_uris": {"android": "https://dc.lft.to/lastmile_qr_scan", "ios": "https://dc.lft.to/lastmile_qr_scan"}, "bike_id": "aad3310dfc190590ebd1fe173556d855", "name": "aad3310dfc190590ebd1fe173556d855", "type": "electric_scooter", "lon": -77.00742966666667, "lat": 38.898383833333334, "is_disabled": 0, "is_reserved": 0, "fusion_lat": 0.0, "fusion_lon": 0.0}, {"rental_uris": {"android": "https://dc.lft.to/lastmile_qr_scan", "ios": "https://dc.lft.to/lastmile_qr_scan"}, "bike_id": "d4c45d09cb34b7ee8e951d09c6a1588a", "name": "d4c45d09cb34b7ee8e951d09c6a1588a", "type": "electric_scooter", "lon": -77.020943, "lat": 38.926956, "is_disabled": 0, "is_reserved": 0, "fusion_lat": 0.0, "fusion_lon": 0.0}, {"rental_uris": {"android": "https://dc.lft.to/lastmile_qr_scan", "ios": "https://dc.lft.to/lastmile_qr_scan"}, "bike_id": "0ee27f20c31c98da26803c09ae0234b6", "name": "0ee27f20c31c98da26803c09ae0234b6", "type": "electric_scooter", "lon": -76.953677, "lat": 38.8920975, "is_disabled": 0, "is_reserved": 0, "fusion_lat": 0.0, "fusion_lon": 0.0}, {"rental_uris": {"android": "https://dc.lft.to/lastmile_qr_scan", "ios": "https://dc.lft.to/lastmile_qr_scan"}, "bike_id": "463b5db45064a0639a294fe1d9b27fc3", "name": "463b5db45064a0639a294fe1d9b27fc3", "type": "electric_scooter", "lon": -77.02516666666666, "lat": 38.946225, "is_disabled": 0, "is_reserved": 0, "fusion_lat": 0.0, "fusion_lon": 0.0}, {"rental_uris": {"android": "https://dc.lft.to/lastmile_qr_scan", "ios": "https://dc.lft.to/lastmile_qr_scan"}, "bike_id": "4957b00c96331e20b9668ca52d348727", "name": "4957b00c96331e20b9668ca52d348727", "type": "electric_scooter", "lon": -77.03832216666666, "lat": 38.91251333333334, "is_disabled": 0, "is_reserved": 0, "fusion_lat": 0.0, "fusion_lon": 0.0}, {"rental_uris": {"android": "https://dc.lft.to/lastmile_qr_scan", "ios": "https://dc.lft.to/lastmile_qr_scan"}, "bike_id": "33c2794153edf72b270ad84fed7ae5a3", "name": "33c2794153edf72b270ad84fed7ae5a3", "type": "electric_scooter", "lon": -77.02842316666667, "lat": 38.88744633333334, "is_disabled": 0, "is_reserved": 0, "fusion_lat": 0.0, "fusion_lon": 0.0}, {"rental_uris": {"android": "https://dc.lft.to/lastmile_qr_scan", "ios": "https://dc.lft.to/lastmile_qr_scan"}, "bike_id": "2174510edd58fa0f34e672a479e502d3", "name": "2174510edd58fa0f34e672a479e502d3", "type": "electric_scooter", "lon": -77.04178516666667, "lat": 38.918319333333336, "is_disabled": 0, "is_reserved": 0, "fusion_lat": 0.0, "fusion_lon": 0.0}, {"rental_uris": {"android": "https://dc.lft.to/lastmile_qr_scan", "ios": "https://dc.lft.to/lastmile_qr_scan"}, "bike_id": "217755ffcac445fc07ef266673e021b8", "name": "217755ffcac445fc07ef266673e021b8", "type": "electric_scooter", "lon": -77.01190333333334, "lat": 38.915528, "is_disabled": 0, "is_reserved": 0, "fusion_lat": 0.0, "fusion_lon": 0.0}, {"rental_uris": {"android": "https://dc.lft.to/lastmile_qr_scan", "ios": "https://dc.lft.to/lastmile_qr_scan"}, "bike_id": "da6d843d5055b9d11a74abded3f9cae1", "name": "da6d843d5055b9d11a74abded3f9cae1", "type": "electric_scooter", "lon": -77.0236985, "lat": 38.8922135, "is_disabled": 0, "is_reserved": 0, "fusion_lat": 0.0, "fusion_lon": 0.0}, {"rental_uris": {"android": "https://dc.lft.to/lastmile_qr_scan", "ios": "https://dc.lft.to/lastmile_qr_scan"}, "bike_id": "d8e52e39608d3e6e88cb3be3d4d5ef85", "name": "d8e52e39608d3e6e88cb3be3d4d5ef85", "type": "electric_scooter", "lon": -77.03239116666667, "lat": 38.911237, "is_disabled": 0, "is_reserved": 0, "fusion_lat": 0.0, "fusion_lon": 0.0}, {"rental_uris": {"android": "https://dc.lft.to/lastmile_qr_scan", "ios": "https://dc.lft.to/lastmile_qr_scan"}, "bike_id": "126869239ab953cb427432df03978e3a", "name": "126869239ab953cb427432df03978e3a", "type": "electric_scooter", "lon": -76.98709033333333, "lat": 38.867038666666666, "is_disabled": 0, "is_reserved": 0, "fusion_lat": 0.0, "fusion_lon": 0.0}, {"rental_uris": {"android": "https://dc.lft.to/lastmile_qr_scan", "ios": "https://dc.lft.to/lastmile_qr_scan"}, "bike_id": "6ac34a96244abe7be7d4ba245b43f529", "name": "6ac34a96244abe7be7d4ba245b43f529", "type": "electric_scooter", "lon": -77.005718, "lat": 38.905532666666666, "is_disabled": 0, "is_reserved": 0, "fusion_lat": 0.0, "fusion_lon": 0.0}, {"rental_uris": {"android": "https://dc.lft.to/lastmile_qr_scan", "ios": "https://dc.lft.to/lastmile_qr_scan"}, "bike_id": "317646880d8782529d6f7d544a44f568", "name": "317646880d8782529d6f7d544a44f568", "type": "electric_scooter", "lon": -77.05401033333334, "lat": 38.92811783333333, "is_disabled": 0, "is_reserved": 0, "fusion_lat": 0.0, "fusion_lon": 0.0}, {"rental_uris": {"android": "https://dc.lft.to/lastmile_qr_scan", "ios": "https://dc.lft.to/lastmile_qr_scan"}, "bike_id": "1fd851df7e6d8c488ad5948d012c2ad9", "name": "1fd851df7e6d8c488ad5948d012c2ad9", "type": "electric_scooter", "lon": -77.0334995, "lat": 38.928810166666665, "is_disabled": 0, "is_reserved": 0, "fusion_lat": 0.0, "fusion_lon": 0.0}, {"rental_uris": {"android": "https://dc.lft.to/lastmile_qr_scan", "ios": "https://dc.lft.to/lastmile_qr_scan"}, "bike_id": "7cf206018ddd8f539d7718cbbeff43fd", "name": "7cf206018ddd8f539d7718cbbeff43fd", "type": "electric_scooter", "lon": -77.03208083333334, "lat": 38.920089833333336, "is_disabled": 0, "is_reserved": 0, "fusion_lat": 0.0, "fusion_lon": 0.0}, {"rental_uris": {"android": "https://dc.lft.to/lastmile_qr_scan", "ios": "https://dc.lft.to/lastmile_qr_scan"}, "bike_id": "c8d697244a15e7a910b6e9db61721f4e", "name": "c8d697244a15e7a910b6e9db61721f4e", "type": "electric_scooter", "lon": -77.040794, "lat": 38.90563616666667, "is_disabled": 0, "is_reserved": 0, "fusion_lat": 0.0, "fusion_lon": 0.0}, {"rental_uris": {"android": "https://dc.lft.to/lastmile_qr_scan", "ios": "https://dc.lft.to/lastmile_qr_scan"}, "bike_id": "2fcd55c78a45e1857696ddbd1608fd1c", "name": "2fcd55c78a45e1857696ddbd1608fd1c", "type": "electric_scooter", "lon": -77.0464775, "lat": 38.91589, "is_disabled": 0, "is_reserved": 0, "fusion_lat": 0.0, "fusion_lon": 0.0}, {"rental_uris": {"android": "https://dc.lft.to/lastmile_qr_scan", "ios": "https://dc.lft.to/lastmile_qr_scan"}, "bike_id": "a10f9c797672fffa0dbc29f6a1b4223f", "name": "a10f9c797672fffa0dbc29f6a1b4223f", "type": "electric_scooter", "lon": -77.03090233333333, "lat": 38.93167166666667, "is_disabled": 0, "is_reserved": 0, "fusion_lat": 0.0, "fusion_lon": 0.0}, {"rental_uris": {"android": "https://dc.lft.to/lastmile_qr_scan", "ios": "https://dc.lft.to/lastmile_qr_scan"}, "bike_id": "9135125813c685c274712905837074ff", "name": "9135125813c685c274712905837074ff", "type": "electric_bike", "lon": -77.02506216666667, "lat": 38.904165, "is_disabled": 0, "is_reserved": 0, "fusion_lat": 0.0, "fusion_lon": 0.0}, {"rental_uris": {"android": "https://dc.lft.to/lastmile_qr_scan", "ios": "https://dc.lft.to/lastmile_qr_scan"}, "bike_id": "90b4df6c4cd5a7acb6fd7fa204855f1b", "name": "90b4df6c4cd5a7acb6fd7fa204855f1b", "type": "electric_scooter", "lon": -77.0281255, "lat": 38.881847, "is_disabled": 0, "is_reserved": 0, "fusion_lat": 0.0, "fusion_lon": 0.0}, {"rental_uris": {"android": "https://dc.lft.to/lastmile_qr_scan", "ios": "https://dc.lft.to/lastmile_qr_scan"}, "bike_id": "2804c203bb9c8eeb8810daeaf3b9bd2c", "name": "2804c203bb9c8eeb8810daeaf3b9bd2c", "type": "electric_scooter", "lon": -77.005682, "lat": 38.885039166666665, "is_disabled": 0, "is_reserved": 0, "fusion_lat": 0.0, "fusion_lon": 0.0}, {"rental_uris": {"android": "https://dc.lft.to/lastmile_qr_scan", "ios": "https://dc.lft.to/lastmile_qr_scan"}, "bike_id": "e62b1f23b9af1879179c72d0c78acc73", "name": "e62b1f23b9af1879179c72d0c78acc73", "type": "electric_scooter", "lon": -77.0344435, "lat": 38.91823766666667, "is_disabled": 0, "is_reserved": 0, "fusion_lat": 0.0, "fusion_lon": 0.0}, {"rental_uris": {"android": "https://dc.lft.to/lastmile_qr_scan", "ios": "https://dc.lft.to/lastmile_qr_scan"}, "bike_id": "c6ff82b3bd07d43a410b5eefaed2eedf", "name": "c6ff82b3bd07d43a410b5eefaed2eedf", "type": "electric_scooter", "lon": -77.02418266666666, "lat": 38.907277, "is_disabled": 0, "is_reserved": 0, "fusion_lat": 0.0, "fusion_lon": 0.0}, {"rental_uris": {"android": "https://dc.lft.to/lastmile_qr_scan", "ios": "https://dc.lft.to/lastmile_qr_scan"}, "bike_id": "3ce9df6477f151a685db23ba5a47027c", "name": "3ce9df6477f151a685db23ba5a47027c", "type": "electric_scooter", "lon": -77.03985383333334, "lat": 38.91766066666667, "is_disabled": 0, "is_reserved": 0, "fusion_lat": 0.0, "fusion_lon": 0.0}, {"rental_uris": {"android": "https://dc.lft.to/lastmile_qr_scan", "ios": "https://dc.lft.to/lastmile_qr_scan"}, "bike_id": "671b3a9190f92d2da42491ae4082d58b", "name": "671b3a9190f92d2da42491ae4082d58b", "type": "electric_scooter", "lon": -76.986631, "lat": 38.90252016666667, "is_disabled": 0, "is_reserved": 0, "fusion_lat": 0.0, "fusion_lon": 0.0}, {"rental_uris": {"android": "https://dc.lft.to/lastmile_qr_scan", "ios": "https://dc.lft.to/lastmile_qr_scan"}, "bike_id": "836efc419542ab22c32d7ecb21aefe97", "name": "836efc419542ab22c32d7ecb21aefe97", "type": "electric_bike", "lon": -77.13475116666666, "lat": 38.85358516666667, "is_disabled": 0, "is_reserved": 0, "fusion_lat": 0.0, "fusion_lon": 0.0}, {"rental_uris": {"android": "https://dc.lft.to/lastmile_qr_scan", "ios": "https://dc.lft.to/lastmile_qr_scan"}, "bike_id": "077421d1645c3d82ad9f5add94951c6e", "name": "077421d1645c3d82ad9f5add94951c6e", "type": "electric_scooter", "lon": -77.03263816666667, "lat": 38.9371675, "is_disabled": 0, "is_reserved": 0, "fusion_lat": 0.0, "fusion_lon": 0.0}, {"rental_uris": {"android": "https://dc.lft.to/lastmile_qr_scan", "ios": "https://dc.lft.to/lastmile_qr_scan"}, "bike_id": "24bcb172130b6fa7eba465e9b6ee31dd", "name": "24bcb172130b6fa7eba465e9b6ee31dd", "type": "electric_scooter", "lon": -77.03399, "lat": 38.93129883333334, "is_disabled": 0, "is_reserved": 0, "fusion_lat": 0.0, "fusion_lon": 0.0}, {"rental_uris": {"android": "https://dc.lft.to/lastmile_qr_scan", "ios": "https://dc.lft.to/lastmile_qr_scan"}, "bike_id": "fcfce5d1cbdfba68bb5fa4cd91458229", "name": "fcfce5d1cbdfba68bb5fa4cd91458229", "type": "electric_scooter", "lon": -77.01764416666667, "lat": 38.9127105, "is_disabled": 0, "is_reserved": 0, "fusion_lat": 0.0, "fusion_lon": 0.0}, {"rental_uris": {"android": "https://dc.lft.to/lastmile_qr_scan", "ios": "https://dc.lft.to/lastmile_qr_scan"}, "bike_id": "2b7e7c3106e78cf47c17886fba5c9c4c", "name": "2b7e7c3106e78cf47c17886fba5c9c4c", "type": "electric_scooter", "lon": -77.0366075, "lat": 38.91803916666667, "is_disabled": 0, "is_reserved": 0, "fusion_lat": 0.0, "fusion_lon": 0.0}, {"rental_uris": {"android": "https://dc.lft.to/lastmile_qr_scan", "ios": "https://dc.lft.to/lastmile_qr_scan"}, "bike_id": "d2a5cd8c5b5d3fcb97a641ce1b3b2eec", "name": "d2a5cd8c5b5d3fcb97a641ce1b3b2eec", "type": "electric_scooter", "lon": -77.00801183333333, "lat": 38.8971975, "is_disabled": 0, "is_reserved": 0, "fusion_lat": 0.0, "fusion_lon": 0.0}, {"rental_uris": {"android": "https://dc.lft.to/lastmile_qr_scan", "ios": "https://dc.lft.to/lastmile_qr_scan"}, "bike_id": "9df0c13878879abdfd830f001aee3063", "name": "9df0c13878879abdfd830f001aee3063", "type": "electric_scooter", "lon": -77.03071983333334, "lat": 38.89732166666667, "is_disabled": 0, "is_reserved": 0, "fusion_lat": 0.0, "fusion_lon": 0.0}, {"rental_uris": {"android": "https://dc.lft.to/lastmile_qr_scan", "ios": "https://dc.lft.to/lastmile_qr_scan"}, "bike_id": "29e942239f612ae0fc23929497adde82", "name": "29e942239f612ae0fc23929497adde82", "type": "electric_scooter", "lon": -77.0279735, "lat": 38.917246166666665, "is_disabled": 0, "is_reserved": 0, "fusion_lat": 0.0, "fusion_lon": 0.0}, {"rental_uris": {"android": "https://dc.lft.to/lastmile_qr_scan", "ios": "https://dc.lft.to/lastmile_qr_scan"}, "bike_id": "74c6ca7608f24daee6f44e286e130262", "name": "74c6ca7608f24daee6f44e286e130262", "type": "electric_scooter", "lon": -77.04339416666667, "lat": 38.9000275, "is_disabled": 0, "is_reserved": 0, "fusion_lat": 0.0, "fusion_lon": 0.0}, {"rental_uris": {"android": "https://dc.lft.to/lastmile_qr_scan", "ios": "https://dc.lft.to/lastmile_qr_scan"}, "bike_id": "791adc76cb61cd34f3b3cc1da7426f60", "name": "791adc76cb61cd34f3b3cc1da7426f60", "type": "electric_scooter", "lon": -77.04194066666666, "lat": 38.9013495, "is_disabled": 0, "is_reserved": 0, "fusion_lat": 0.0, "fusion_lon": 0.0}, {"rental_uris": {"android": "https://dc.lft.to/lastmile_qr_scan", "ios": "https://dc.lft.to/lastmile_qr_scan"}, "bike_id": "419d67dcaaf8f3e74e8c1caebc2fc4ec", "name": "419d67dcaaf8f3e74e8c1caebc2fc4ec", "type": "electric_scooter", "lon": -77.00136, "lat": 38.905125166666664, "is_disabled": 0, "is_reserved": 0, "fusion_lat": 0.0, "fusion_lon": 0.0}, {"rental_uris": {"android": "https://dc.lft.to/lastmile_qr_scan", "ios": "https://dc.lft.to/lastmile_qr_scan"}, "bike_id": "e79ee5ec0afe7575f858b6ff13280012", "name": "e79ee5ec0afe7575f858b6ff13280012", "type": "electric_scooter", "lon": -77.01774816666666, "lat": 38.9078135, "is_disabled": 0, "is_reserved": 0, "fusion_lat": 0.0, "fusion_lon": 0.0}, {"rental_uris": {"android": "https://dc.lft.to/lastmile_qr_scan", "ios": "https://dc.lft.to/lastmile_qr_scan"}, "bike_id": "d7aafb2c6ea1b663b5e087bb40ab08f0", "name": "d7aafb2c6ea1b663b5e087bb40ab08f0", "type": "electric_scooter", "lon": -76.95183, "lat": 38.9073785, "is_disabled": 0, "is_reserved": 0, "fusion_lat": 0.0, "fusion_lon": 0.0}, {"rental_uris": {"android": "https://dc.lft.to/lastmile_qr_scan", "ios": "https://dc.lft.to/lastmile_qr_scan"}, "bike_id": "8a92692669f2fe76e9607e4e033f00f3", "name": "8a92692669f2fe76e9607e4e033f00f3", "type": "electric_scooter", "lon": -77.04400483333333, "lat": 38.9206785, "is_disabled": 0, "is_reserved": 0, "fusion_lat": 0.0, "fusion_lon": 0.0}, {"rental_uris": {"android": "https://dc.lft.to/lastmile_qr_scan", "ios": "https://dc.lft.to/lastmile_qr_scan"}, "bike_id": "2ee119be018c0a4ea4c1faa1b0501605", "name": "2ee119be018c0a4ea4c1faa1b0501605", "type": "electric_scooter", "lon": -77.04335883333333, "lat": 38.903182, "is_disabled": 0, "is_reserved": 0, "fusion_lat": 0.0, "fusion_lon": 0.0}, {"rental_uris": {"android": "https://dc.lft.to/lastmile_qr_scan", "ios": "https://dc.lft.to/lastmile_qr_scan"}, "bike_id": "3321f5bd5b980e11540a967f9eeb13b8", "name": "3321f5bd5b980e11540a967f9eeb13b8", "type": "electric_bike", "lon": -77.081869, "lat": 38.85566566666667, "is_disabled": 0, "is_reserved": 0, "fusion_lat": 0.0, "fusion_lon": 0.0}, {"rental_uris": {"android": "https://dc.lft.to/lastmile_qr_scan", "ios": "https://dc.lft.to/lastmile_qr_scan"}, "bike_id": "9d0c8066acc85e55e9c3ff5875cd23ca", "name": "9d0c8066acc85e55e9c3ff5875cd23ca", "type": "electric_scooter", "lon": -77.041797, "lat": 38.905802333333334, "is_disabled": 0, "is_reserved": 0, "fusion_lat": 0.0, "fusion_lon": 0.0}, {"rental_uris": {"android": "https://dc.lft.to/lastmile_qr_scan", "ios": "https://dc.lft.to/lastmile_qr_scan"}, "bike_id": "7c8217c41f070f20fb663433c5cb3a04", "name": "7c8217c41f070f20fb663433c5cb3a04", "type": "electric_scooter", "lon": -76.98975866666666, "lat": 38.865152333333334, "is_disabled": 0, "is_reserved": 0, "fusion_lat": 0.0, "fusion_lon": 0.0}, {"rental_uris": {"android": "https://dc.lft.to/lastmile_qr_scan", "ios": "https://dc.lft.to/lastmile_qr_scan"}, "bike_id": "422989b9db0c0b0c033089743b01936b", "name": "422989b9db0c0b0c033089743b01936b", "type": "electric_scooter", "lon": -77.00347133333334, "lat": 38.88704583333333, "is_disabled": 0, "is_reserved": 0, "fusion_lat": 0.0, "fusion_lon": 0.0}, {"rental_uris": {"android": "https://dc.lft.to/lastmile_qr_scan", "ios": "https://dc.lft.to/lastmile_qr_scan"},