{"data": {"bikes": [{"type": "electric_scooter", "lon": -77.01127366666667, "is_disabled": 0, "name": "0d8a596d5bc3836c63a9c88ca24716e1", "lat": 38.900091333333336, "fusion_lat": 0.0, "is_reserved": 0, "rental_uris": {"ios": "https://dc.lft.to/lastmile_qr_scan", "android": "https://dc.lft.to/lastmile_qr_scan"}, "fusion_lon": 0.0, "bike_id": "0d8a596d5bc3836c63a9c88ca24716e1"}, {"type": "electric_scooter", "lon": -77.021709, "is_disabled": 0, "name": "2e5b49fe788de2d0c142b80bd65a8973", "lat": 38.91908766666667, "fusion_lat": 0.0, "is_reserved": 0, "rental_uris": {"ios": "https://dc.lft.to/lastmile_qr_scan", "android": "https://dc.lft.to/lastmile_qr_scan"}, "fusion_lon": 0.0, "bike_id": "2e5b49fe788de2d0c142b80bd65a8973"}, {"type": "electric_scooter", "lon": -77.02229883333334, "is_disabled": 0, "name": "30a296e24235c97855d20935ea735528", "lat": 38.92481633333333, "fusion_lat": 0.0, "is_reserved": 0, "rental_uris": {"ios": "https://dc.lft.to/lastmile_qr_scan", "android": "https://dc.lft.to/lastmile_qr_scan"}, "fusion_lon": 0.0, "bike_id": "30a296e24235c97855d20935ea735528"}, {"type": "electric_scooter", "lon": -77.04561533333333, "is_disabled": 0, "name": "12047d4024c31c3d334e9c94a354fa4e", "lat": 38.903842, "fusion_lat": 0.0, "is_reserved": 0, "rental_uris": {"ios": "https://dc.lft.to/lastmile_qr_scan", "android": "https://dc.lft.to/lastmile_qr_scan"}, "fusion_lon": 0.0, "bike_id": "12047d4024c31c3d334e9c94a354fa4e"}, {"type": "electric_scooter", "lon": -77.01669916666667, "is_disabled": 0, "name": "dda1d3b36aa1a6ec4048313531c9f83a", "lat": 38.910435666666665, "fusion_lat": 0.0, "is_reserved": 0, "rental_uris": {"ios": "https://dc.lft.to/lastmile_qr_scan", "android": "https://dc.lft.to/lastmile_qr_scan"}, "fusion_lon": 0.0, "bike_id": "dda1d3b36aa1a6ec4048313531c9f83a"}, {"type": "electric_scooter", "lon": -77.03266133333334, "is_disabled": 0, "name": "772837a722f17039daee52495502d944", "lat": 38.919988833333335, "fusion_lat": 0.0, "is_reserved": 0, "rental_uris": {"ios": "https://dc.lft.to/lastmile_qr_scan", "android": "https://dc.lft.to/lastmile_qr_scan"}, "fusion_lon": 0.0, "bike_id": "772837a722f17039daee52495502d944"}, {"type": "electric_scooter", "lon": -77.0035015, "is_disabled": 0, "name": "c4b55a4587a4d179204267c65f1a4a1a", "lat": 38.876843666666666, "fusion_lat": 0.0, "is_reserved": 0, "rental_uris": {"ios": "https://dc.lft.to/lastmile_qr_scan", "android": "https://dc.lft.to/lastmile_qr_scan"}, "fusion_lon": 0.0, "bike_id": "c4b55a4587a4d179204267c65f1a4a1a"}, {"type": "electric_scooter", "lon": -77.02164816666667, "is_disabled": 0, "name": "87f1254b573fb0478d161d9567a408fd", "lat": 38.926140833333335, "fusion_lat": 0.0, "is_reserved": 0, "rental_uris": {"ios": "https://dc.lft.to/lastmile_qr_scan", "android": "https://dc.lft.to/lastmile_qr_scan"}, "fusion_lon": 0.0, "bike_id": "87f1254b573fb0478d161d9567a408fd"}, {"type": "electric_scooter", "lon": -77.007687, "is_disabled": 0, "name": "785e6424d0a9983fbcaab4eca2cdd02c", "lat": 38.897882, "fusion_lat": 0.0, "is_reserved": 0, "rental_uris": {"ios": "https://dc.lft.to/lastmile_qr_scan", "android": "https://dc.lft.to/lastmile_qr_scan"}, "fusion_lon": 0.0, "bike_id": "785e6424d0a9983fbcaab4eca2cdd02c"}, {"type": "electric_bike", "lon": -77.02377816666667, "is_disabled": 0, "name": "56da77a8da36329ec36fd186e3a13d96", "lat": 38.8821795, "fusion_lat": 0.0, "is_reserved": 0, "rental_uris": {"ios": "https://dc.lft.to/lastmile_qr_scan", "android": "https://dc.lft.to/lastmile_qr_scan"}, "fusion_lon": 0.0, "bike_id": "56da77a8da36329ec36fd186e3a13d96"}, {"type": "electric_scooter", "lon": -77.03085066666667, "is_disabled": 0, "name": "4a795d9f3f601ea162295a54f4713e31", "lat": 38.88357, "fusion_lat": 0.0, "is_reserved": 0, "rental_uris": {"ios": "https://dc.lft.to/lastmile_qr_scan", "android": "https://dc.lft.to/lastmile_qr_scan"}, "fusion_lon": 0.0, "bike_id": "4a795d9f3f601ea162295a54f4713e31"}, {"type": "electric_scooter", "lon": -77.0257205, "is_disabled": 0, "name": "4f14e3209ae4f06f0af612399d551c40", "lat": 38.91656866666667, "fusion_lat": 0.0, "is_reserved": 0, "rental_uris": {"ios": "https://dc.lft.to/lastmile_qr_scan", "android": "https://dc.lft.to/lastmile_qr_scan"}, "fusion_lon": 0.0, "bike_id": "4f14e3209ae4f06f0af612399d551c40"}, {"type": "electric_scooter", "lon": -77.036652, "is_disabled": 0, "name": "0ec4d6b725999229c3e81d6997402a9e", "lat": 38.90293483333333, "fusion_lat": 0.0, "is_reserved": 0, "rental_uris": {"ios": "https://dc.lft.to/lastmile_qr_scan", "android": "https://dc.lft.to/lastmile_qr_scan"}, "fusion_lon": 0.0, "bike_id": "0ec4d6b725999229c3e81d6997402a9e"}, {"type": "electric_scooter", "lon": -76.98507366666666, "is_disabled": 0, "name": "e9ce8a0e178cab74060decdffc9c1dd8", "lat": 38.9200675, "fusion_lat": 0.0, "is_reserved": 0, "rental_uris": {"ios": "https://dc.lft.to/lastmile_qr_scan", "android": "https://dc.lft.to/lastmile_qr_scan"}, "fusion_lon": 0.0, "bike_id": "e9ce8a0e178cab74060decdffc9c1dd8"}, {"type": "electric_scooter", "lon": -77.032179, "is_disabled": 0, "name": "97b7094481c7984894710d0792f6a5fb", "lat": 38.9191725, "fusion_lat": 0.0, "is_reserved": 0, "rental_uris": {"ios": "https://dc.lft.to/lastmile_qr_scan", "android": "https://dc.lft.to/lastmile_qr_scan"}, "fusion_lon": 0.0, "bike_id": "97b7094481c7984894710d0792f6a5fb"}, {"type": "electric_scooter", "lon": -77.02447016666666, "is_disabled": 0, "name": "166b38ef1f9830655e14220032133140", "lat": 38.949775, "fusion_lat": 0.0, "is_reserved": 0, "rental_uris": {"ios": "https://dc.lft.to/lastmile_qr_scan", "android": "https://dc.lft.to/lastmile_qr_scan"}, "fusion_lon": 0.0, "bike_id": "166b38ef1f9830655e14220032133140"}, {"type": "electric_scooter", "lon": -77.02857616666667, "is_disabled": 0, "name": "e4dae42f1e4ccb4eb1e5dfa4e4fcdf47", "lat": 38.902648, "fusion_lat": 0.0, "is_reserved": 0, "rental_uris": {"ios": "https://dc.lft.to/lastmile_qr_scan", "android": "https://dc.lft.to/lastmile_qr_scan"}, "fusion_lon": 0.0, "bike_id": "e4dae42f1e4ccb4eb1e5dfa4e4fcdf47"}, {"type": "electric_scooter", "lon": -77.03258466666666, "is_disabled": 0, "name": "486de04341ee7d3ffb07d56976ac2c87", "lat": 38.9206005, "fusion_lat": 0.0, "is_reserved": 0, "rental_uris": {"ios": "https://dc.lft.to/lastmile_qr_scan", "android": "https://dc.lft.to/lastmile_qr_scan"}, "fusion_lon": 0.0, "bike_id": "486de04341ee7d3ffb07d56976ac2c87"}, {"type": "electric_scooter", "lon": -77.0221285, "is_disabled": 0, "name": "a52e5613e8f87b0de5a12a79a8d24dcd", "lat": 38.905361, "fusion_lat": 0.0, "is_reserved": 0, "rental_uris": {"ios": "https://dc.lft.to/lastmile_qr_scan", "android": "https://dc.lft.to/lastmile_qr_scan"}, "fusion_lon": 0.0, "bike_id": "a52e5613e8f87b0de5a12a79a8d24dcd"}, {"type": "electric_scooter", "lon": -77.0320105, "is_disabled": 0, "name": "6aee3859bc52bd3683ba881037dc1e2b", "lat": 38.91603716666667, "fusion_lat": 0.0, "is_reserved": 0, "rental_uris": {"ios": "https://dc.lft.to/lastmile_qr_scan", "android": "https://dc.lft.to/lastmile_qr_scan"}, "fusion_lon": 0.0, "bike_id": "6aee3859bc52bd3683ba881037dc1e2b"}, {"type": "electric_scooter", "lon": -77.0448855, "is_disabled": 0, "name": "a6d97638af24a56d4be760aec8761cdb", "lat": 38.9143545, "fusion_lat": 0.0, "is_reserved": 0, "rental_uris": {"ios": "https://dc.lft.to/lastmile_qr_scan", "android": "https://dc.lft.to/lastmile_qr_scan"}, "fusion_lon": 0.0, "bike_id": "a6d97638af24a56d4be760aec8761cdb"}, {"type": "electric_scooter", "lon": -77.0210015, "is_disabled": 0, "name": "d0734fb5f1c31037c25551e151e222ba", "lat": 38.921731, "fusion_lat": 0.0, "is_reserved": 0, "rental_uris": {"ios": "https://dc.lft.to/lastmile_qr_scan", "android": "https://dc.lft.to/lastmile_qr_scan"}, "fusion_lon": 0.0, "bike_id": "d0734fb5f1c31037c25551e151e222ba"}, {"type": "electric_scooter", "lon": -77.04675916666666, "is_disabled": 0, "name": "51db98608b27dfcf895a39bf0ac809bd", "lat": 38.900440833333334, "fusion_lat": 0.0, "is_reserved": 0, "rental_uris": {"ios": "https://dc.lft.to/lastmile_qr_scan", "android": "https://dc.lft.to/lastmile_qr_scan"}, "fusion_lon": 0.0, "bike_id": "51db98608b27dfcf895a39bf0ac809bd"}, {"type": "electric_scooter", "lon": -77.031854, "is_disabled": 0, "name": "a963afe8acc3bfdccdd6fbb800c0ce79", "lat": 38.88735583333333, "fusion_lat": 0.0, "is_reserved": 0, "rental_uris": {"ios": "https://dc.lft.to/lastmile_qr_scan", "android": "https://dc.lft.to/lastmile_qr_scan"}, "fusion_lon": 0.0, "bike_id": "a963afe8acc3bfdccdd6fbb800c0ce79"}, {"type": "electric_scooter", "lon": -77.041738, "is_disabled": 0, "name": "f5fc06a0b61da5467f601c4b2cbe80b4", "lat": 38.9160535, "fusion_lat": 0.0, "is_reserved": 0, "rental_uris": {"ios": "https://dc.lft.to/lastmile_qr_scan", "android": "https://dc.lft.to/lastmile_qr_scan"}, "fusion_lon": 0.0, "bike_id": "f5fc06a0b61da5467f601c4b2cbe80b4"}, {"type": "electric_scooter", "lon": -77.021829, "is_disabled": 0, "name": "e5aedfee3171eb781c45e06f45bb5e6a", "lat": 38.916632166666666, "fusion_lat": 0.0, "is_reserved": 0, "rental_uris": {"ios": "https://dc.lft.to/lastmile_qr_scan", "android": "https://dc.lft.to/lastmile_qr_scan"}, "fusion_lon": 0.0, "bike_id": "e5aedfee3171eb781c45e06f45bb5e6a"}, {"type": "electric_scooter", "lon": -77.02331416666667, "is_disabled": 0, "name": "2dbc76afb9c0b4be2b78763ebaf94fc4", "lat": 38.91172133333333, "fusion_lat": 0.0, "is_reserved": 0, "rental_uris": {"ios": "https://dc.lft.to/lastmile_qr_scan", "android": "https://dc.lft.to/lastmile_qr_scan"}, "fusion_lon": 0.0, "bike_id": "2dbc76afb9c0b4be2b78763ebaf94fc4"}, {"type": "electric_scooter", "lon": -77.02145566666667, "is_disabled": 0, "name": "319290a5b6fcc6f44ee79e7a1ae0d922", "lat": 38.90485966666667, "fusion_lat": 0.0, "is_reserved": 0, "rental_uris": {"ios": "https://dc.lft.to/lastmile_qr_scan", "android": "https://dc.lft.to/lastmile_qr_scan"}, "fusion_lon": 0.0, "bike_id": "319290a5b6fcc6f44ee79e7a1ae0d922"}, {"type": "electric_scooter", "lon": -77.051426, "is_disabled": 0, "name": "e63ccd1411ad2498e876b88d4ab38b11", "lat": 38.90650516666667, "fusion_lat": 0.0, "is_reserved": 0, "rental_uris": {"ios": "https://dc.lft.to/lastmile_qr_scan", "android": "https://dc.lft.to/lastmile_qr_scan"}, "fusion_lon": 0.0, "bike_id": "e63ccd1411ad2498e876b88d4ab38b11"}, {"type": "electric_scooter", "lon": -76.989994, "is_disabled": 0, "name": "e548b093a9676bf4d361b06f580d6cdf", "lat": 38.85810766666667, "fusion_lat": 0.0, "is_reserved": 0, "rental_uris": {"ios": "https://dc.lft.to/lastmile_qr_scan", "android": "https://dc.lft.to/lastmile_qr_scan"}, "fusion_lon": 0.0, "bike_id": "e548b093a9676bf4d361b06f580d6cdf"}, {"type": "electric_scooter", "lon": -77.0269365, "is_disabled": 0, "name": "45c06a3be7b6d1c8b7b7adefc6d9802f", "lat": 38.94980783333333, "fusion_lat": 0.0, "is_reserved": 0, "rental_uris": {"ios": "https://dc.lft.to/lastmile_qr_scan", "android": "https://dc.lft.to/lastmile_qr_scan"}, "fusion_lon": 0.0, "bike_id": "45c06a3be7b6d1c8b7b7adefc6d9802f"}, {"type": "electric_scooter", "lon": -77.0361945, "is_disabled": 0, "name": "f0a3b20910590f19715c71939e512755", "lat": 38.942914, "fusion_lat": 0.0, "is_reserved": 0, "rental_uris": {"ios": "https://dc.lft.to/lastmile_qr_scan", "android": "https://dc.lft.to/lastmile_qr_scan"}, "fusion_lon": 0.0, "bike_id": "f0a3b20910590f19715c71939e512755"}, {"type": "electric_scooter", "lon": -77.02093183333334, "is_disabled": 0, "name": "e8c3f75537159c3a91cf8a2a4458b29e", "lat": 38.92709466666667, "fusion_lat": 0.0, "is_reserved": 0, "rental_uris": {"ios": "https://dc.lft.to/lastmile_qr_scan", "android": "https://dc.lft.to/lastmile_qr_scan"}, "fusion_lon": 0.0, "bike_id": "e8c3f75537159c3a91cf8a2a4458b29e"}, {"type": "electric_scooter", "lon": -76.99136416666667, "is_disabled": 0, "name": "fabe3c07b0dafb8b31cbcaff880e7695", "lat": 38.89484516666667, "fusion_lat": 0.0, "is_reserved": 0, "rental_uris": {"ios": "https://dc.lft.to/lastmile_qr_scan", "android": "https://dc.lft.to/lastmile_qr_scan"}, "fusion_lon": 0.0, "bike_id": "fabe3c07b0dafb8b31cbcaff880e7695"}, {"type": "electric_scooter", "lon": -77.02958866666667, "is_disabled": 0, "name": "a09b6f218672e3404da8e48213c1c68e", "lat": 38.907742, "fusion_lat": 0.0, "is_reserved": 0, "rental_uris": {"ios": "https://dc.lft.to/lastmile_qr_scan", "android": "https://dc.lft.to/lastmile_qr_scan"}, "fusion_lon": 0.0, "bike_id": "a09b6f218672e3404da8e48213c1c68e"}, {"type": "electric_scooter", "lon": -77.0150665, "is_disabled": 0, "name": "6fd6818cf4b1a154a4ebbe4363a0e95d", "lat": 38.8911345, "fusion_lat": 0.0, "is_reserved": 0, "rental_uris": {"ios": "https://dc.lft.to/lastmile_qr_scan", "android": "https://dc.lft.to/lastmile_qr_scan"}, "fusion_lon": 0.0, "bike_id": "6fd6818cf4b1a154a4ebbe4363a0e95d"}, {"type": "electric_bike", "lon": -76.97222466666666, "is_disabled": 0, "name": "3b2b19dc90600dc502f7a983bd9df428", "lat": 38.900316333333336, "fusion_lat": 0.0, "is_reserved": 0, "rental_uris": {"ios": "https://dc.lft.to/lastmile_qr_scan", "android": "https://dc.lft.to/lastmile_qr_scan"}, "fusion_lon": 0.0, "bike_id": "3b2b19dc90600dc502f7a983bd9df428"}, {"type": "electric_scooter", "lon": -77.02590666666667, "is_disabled": 0, "name": "4423e8b8430737aa599ec964f572d509", "lat": 38.90338233333333, "fusion_lat": 0.0, "is_reserved": 0, "rental_uris": {"ios": "https://dc.lft.to/lastmile_qr_scan", "android": "https://dc.lft.to/lastmile_qr_scan"}, "fusion_lon": 0.0, "bike_id": "4423e8b8430737aa599ec964f572d509"}, {"type": "electric_scooter", "lon": -77.03070416666667, "is_disabled": 0, "name": "53001ce6ee413302f1377d556a048810", "lat": 38.905714, "fusion_lat": 0.0, "is_reserved": 0, "rental_uris": {"ios": "https://dc.lft.to/lastmile_qr_scan", "android": "https://dc.lft.to/lastmile_qr_scan"}, "fusion_lon": 0.0, "bike_id": "53001ce6ee413302f1377d556a048810"}, {"type": "electric_scooter", "lon": -76.9243635, "is_disabled": 0, "name": "8f469401f5f61be37db7dc7c216abd68", "lat": 38.88513233333333, "fusion_lat": 0.0, "is_reserved": 0, "rental_uris": {"ios": "https://dc.lft.to/lastmile_qr_scan", "android": "https://dc.lft.to/lastmile_qr_scan"}, "fusion_lon": 0.0, "bike_id": "8f469401f5f61be37db7dc7c216abd68"}, {"type": "electric_scooter", "lon": -77.00753883333333, "is_disabled": 0, "name": "0c8e967585a364e0a0255941d5b92f7e", "lat": 38.89734683333333, "fusion_lat": 0.0, "is_reserved": 0, "rental_uris": {"ios": "https://dc.lft.to/lastmile_qr_scan", "android": "https://dc.lft.to/lastmile_qr_scan"}, "fusion_lon": 0.0, "bike_id": "0c8e967585a364e0a0255941d5b92f7e"}, {"type": "electric_scooter", "lon": -77.01796666666667, "is_disabled": 0, "name": "3a9453e4c667d0c29db81e44c71db301", "lat": 38.90257233333333, "fusion_lat": 0.0, "is_reserved": 0, "rental_uris": {"ios": "https://dc.lft.to/lastmile_qr_scan", "android": "https://dc.lft.to/lastmile_qr_scan"}, "fusion_lon": 0.0, "bike_id": "3a9453e4c667d0c29db81e44c71db301"}, {"type": "electric_scooter", "lon": -77.0295205, "is_disabled": 0, "name": "538ff7357d3c1508bfd7683d784931a2", "lat": 38.90499616666666, "fusion_lat": 0.0, "is_reserved": 0, "rental_uris": {"ios": "https://dc.lft.to/lastmile_qr_scan", "android": "https://dc.lft.to/lastmile_qr_scan"}, "fusion_lon": 0.0, "bike_id": "538ff7357d3c1508bfd7683d784931a2"}, {"type": "electric_scooter", "lon": -77.0561375, "is_disabled": 0, "name": "0fb9fa5775d6a7b1d9c8c67a6a60ef7e", "lat": 38.931182666666665, "fusion_lat": 0.0, "is_reserved": 0, "rental_uris": {"ios": "https://dc.lft.to/lastmile_qr_scan", "android": "https://dc.lft.to/lastmile_qr_scan"}, "fusion_lon": 0.0, "bike_id": "0fb9fa5775d6a7b1d9c8c67a6a60ef7e"}, {"type": "electric_scooter", "lon": -77.02182816666667, "is_disabled": 0, "name": "aca7a95d27a93fa5e779c428d1a8d384", "lat": 38.88718933333333, "fusion_lat": 0.0, "is_reserved": 0, "rental_uris": {"ios": "https://dc.lft.to/lastmile_qr_scan", "android": "https://dc.lft.to/lastmile_qr_scan"}, "fusion_lon": 0.0, "bike_id": "aca7a95d27a93fa5e779c428d1a8d384"}, {"type": "electric_scooter", "lon": -77.01429966666667, "is_disabled": 0, "name": "4d254d56aaefe2fc30644a0a4fd9b6d2", "lat": 38.90644533333333, "fusion_lat": 0.0, "is_reserved": 0, "rental_uris": {"ios": "https://dc.lft.to/lastmile_qr_scan", "android": "https://dc.lft.to/lastmile_qr_scan"}, "fusion_lon": 0.0, "bike_id": "4d254d56aaefe2fc30644a0a4fd9b6d2"}, {"type": "electric_scooter", "lon": -77.02988683333334, "is_disabled": 0, "name": "787f6306734b4b36d89e073196c1e85c", "lat": 38.92055383333334, "fusion_lat": 0.0, "is_reserved": 0, "rental_uris": {"ios": "https://dc.lft.to/lastmile_qr_scan", "android": "https://dc.lft.to/lastmile_qr_scan"}, "fusion_lon": 0.0, "bike_id": "787f6306734b4b36d89e073196c1e85c"}, {"type": "electric_bike", "lon": -76.907536, "is_disabled": 0, "name": "59e9022ccd77e475383d5e7eee16a2c9", "lat": 38.896216, "fusion_lat": 0.0, "is_reserved": 0, "rental_uris": {"ios": "https://dc.lft.to/lastmile_qr_scan", "android": "https://dc.lft.to/lastmile_qr_scan"}, "fusion_lon": 0.0, "bike_id": "59e9022ccd77e475383d5e7eee16a2c9"}, {"type": "electric_scooter", "lon": -77.00605333333333, "is_disabled": 0, "name": "c002396c4814d9dc9f83290543cab056", "lat": 38.9057755, "fusion_lat": 0.0, "is_reserved": 0, "rental_uris": {"ios": "https://dc.lft.to/lastmile_qr_scan", "android": "https://dc.lft.to/lastmile_qr_scan"}, "fusion_lon": 0.0, "bike_id": "c002396c4814d9dc9f83290543cab056"}, {"type": "electric_scooter", "lon": -77.03202416666667, "is_disabled": 0, "name": "a9f23144a0b8c75f0df2dbaf2b7a999e", "lat": 38.915648833333336, "fusion_lat": 0.0, "is_reserved": 0, "rental_uris": {"ios": "https://dc.lft.to/lastmile_qr_scan", "android": "https://dc.lft.to/lastmile_qr_scan"}, "fusion_lon": 0.0, "bike_id": "a9f23144a0b8c75f0df2dbaf2b7a999e"}, {"type": "electric_scooter", "lon": -77.03438, "is_disabled": 0, "name": "eb04d59f8c954f21705f3b4a7628be13", "lat": 38.907371166666664, "fusion_lat": 0.0, "is_reserved": 0, "rental_uris": {"ios": "https://dc.lft.to/lastmile_qr_scan", "android": "https://dc.lft.to/lastmile_qr_scan"}, "fusion_lon": 0.0, "bike_id": "eb04d59f8c954f21705f3b4a7628be13"}, {"type": "electric_scooter", "lon": -77.00607933333333, "is_disabled": 0, "name": "7302548c30d9480dd16a1d62866a8195", "lat": 38.90562966666667, "fusion_lat": 0.0, "is_reserved": 0, "rental_uris": {"ios": "https://dc.lft.to/lastmile_qr_scan", "android": "https://dc.lft.to/lastmile_qr_scan"}, "fusion_lon": 0.0, "bike_id": "7302548c30d9480dd16a1d62866a8195"}, {"type": "electric_scooter", "lon": -77.01613816666666, "is_disabled": 0, "name": "103420c0818477991dfd12a6c8a1a253", "lat": 38.899612833333336, "fusion_lat": 0.0, "is_reserved": 0, "rental_uris": {"ios": "https://dc.lft.to/lastmile_qr_scan", "android": "https://dc.lft.to/lastmile_qr_scan"}, "fusion_lon": 0.0, "bike_id": "103420c0818477991dfd12a6c8a1a253"}, {"type": "electric_scooter", "lon": -77.00352266666667, "is_disabled": 0, "name": "94b8cf23a50ee1661d359e8990f0b7fb", "lat": 38.88712116666667, "fusion_lat": 0.0, "is_reserved": 0, "rental_uris": {"ios": "https://dc.lft.to/lastmile_qr_scan", "android": "https://dc.lft.to/lastmile_qr_scan"}, "fusion_lon": 0.0, "bike_id": "94b8cf23a50ee1661d359e8990f0b7fb"}, {"type": "electric_scooter", "lon": -77.0176595, "is_disabled": 0, "name": "1c58611aad986dddaf4dd19d2325c520", "lat": 38.87684566666667, "fusion_lat": 0.0, "is_reserved": 0, "rental_uris": {"ios": "https://dc.lft.to/lastmile_qr_scan", "android": "https://dc.lft.to/lastmile_qr_scan"}, "fusion_lon": 0.0, "bike_id": "1c58611aad986dddaf4dd19d2325c520"}, {"type": "electric_scooter", "lon": -77.01869, "is_disabled": 0, "name": "b76b43fe0f7b3a5c78d704764c037482", "lat": 38.929147666666665, "fusion_lat": 0.0, "is_reserved": 0, "rental_uris": {"ios": "https://dc.lft.to/lastmile_qr_scan", "android": "https://dc.lft.to/lastmile_qr_scan"}, "fusion_lon": 0.0, "bike_id": "b76b43fe0f7b3a5c78d704764c037482"}, {"type": "electric_scooter", "lon": -77.00629716666667, "is_disabled": 0, "name": "9006f3de10ce72fbac50228a35363a74", "lat": 38.915033333333334, "fusion_lat": 0.0, "is_reserved": 0, "rental_uris": {"ios": "https://dc.lft.to/lastmile_qr_scan", "android": "https://dc.lft.to/lastmile_qr_scan"}, "fusion_lon": 0.0, "bike_id": "9006f3de10ce72fbac50228a35363a74"}, {"type": "electric_scooter", "lon": -77.0032965, "is_disabled": 0, "name": "71d392535d1eb68d2868e97acb8fec8f", "lat": 38.902727666666664, "fusion_lat": 0.0, "is_reserved": 0, "rental_uris": {"ios": "https://dc.lft.to/lastmile_qr_scan", "android": "https://dc.lft.to/lastmile_qr_scan"}, "fusion_lon": 0.0, "bike_id": "71d392535d1eb68d2868e97acb8fec8f"}, {"type": "electric_scooter", "lon": -77.04012066666667, "is_disabled": 0, "name": "e81c2ca3ab490e96e4793eeba6a7734a", "lat": 38.90730516666667, "fusion_lat": 0.0, "is_reserved": 0, "rental_uris": {"ios": "https://dc.lft.to/lastmile_qr_scan", "android": "https://dc.lft.to/lastmile_qr_scan"}, "fusion_lon": 0.0, "bike_id": "e81c2ca3ab490e96e4793eeba6a7734a"}, {"type": "electric_scooter", "lon": -77.051451, "is_disabled": 0, "name": "55fb2e7b5ce970c2e6c259e33f6089a2", "lat": 38.904928166666664, "fusion_lat": 0.0, "is_reserved": 0, "rental_uris": {"ios": "https://dc.lft.to/lastmile_qr_scan", "android": "https://dc.lft.to/lastmile_qr_scan"}, "fusion_lon": 0.0, "bike_id": "55fb2e7b5ce970c2e6c259e33f6089a2"}, {"type": "electric_scooter", "lon": -77.03676066666667, "is_disabled": 0, "name": "3cb7d98678f318828b2d6ee4007132a5", "lat": 38.92265, "fusion_lat": 0.0, "is_reserved": 0, "rental_uris": {"ios": "https://dc.lft.to/lastmile_qr_scan", "android": "https://dc.lft.to/lastmile_qr_scan"}, "fusion_lon": 0.0, "bike_id": "3cb7d98678f318828b2d6ee4007132a5"}, {"type": "electric_scooter", "lon": -77.01952366666667, "is_disabled": 0, "name": "d5badcfe7631f6b860307aeb1f077ab7", "lat": 38.922483666666665, "fusion_lat": 0.0, "is_reserved": 0, "rental_uris": {"ios": "https://dc.lft.to/lastmile_qr_scan", "android": "https://dc.lft.to/lastmile_qr_scan"}, "fusion_lon": 0.0, "bike_id": "d5badcfe7631f6b860307aeb1f077ab7"}, {"type": "electric_scooter", "lon": -77.02814433333333, "is_disabled": 0, "name": "39acc4cbbdd8fddbbe9ba71558f301f9", "lat": 38.8988525, "fusion_lat": 0.0, "is_reserved": 0, "rental_uris": {"ios": "https://dc.lft.to/lastmile_qr_scan", "android": "https://dc.lft.to/lastmile_qr_scan"}, "fusion_lon": 0.0, "bike_id": "39acc4cbbdd8fddbbe9ba71558f301f9"}, {"type": "electric_scooter", "lon": -77.05337266666666, "is_disabled": 0, "name": "ba1aff4290f61b6baa20111465d9242a", "lat": 38.902312, "fusion_lat": 0.0, "is_reserved": 0, "rental_uris": {"ios": "https://dc.lft.to/lastmile_qr_scan", "android": "https://dc.lft.to/lastmile_qr_scan"}, "fusion_lon": 0.0, "bike_id": "ba1aff4290f61b6baa20111465d9242a"}, {"type": "electric_scooter", "lon": -77.05026066666667, "is_disabled": 0, "name": "55750fe55321860df27eea31d42b8687", "lat": 38.898312, "fusion_lat": 0.0, "is_reserved": 0, "rental_uris": {"ios": "https://dc.lft.to/lastmile_qr_scan", "android": "https://dc.lft.to/lastmile_qr_scan"}, "fusion_lon": 0.0, "bike_id": "55750fe55321860df27eea31d42b8687"}, {"type": "electric_bike", "lon": -77.04303, "is_disabled": 0, "name": "2696b7db1d729ad1cec2d9cb8061c956", "lat": 39.03426733333333, "fusion_lat": 0.0, "is_reserved": 0, "rental_uris": {"ios": "https://dc.lft.to/lastmile_qr_scan", "android": "https://dc.lft.to/lastmile_qr_scan"}, "fusion_lon": 0.0, "bike_id": "2696b7db1d729ad1cec2d9cb8061c956"}, {"type": "electric_bike", "lon": -76.99058433333333, "is_disabled": 0, "name": "fd51b85d7da0737257bd695346d07bda", "lat": 38.942501, "fusion_lat": 0.0, "is_reserved": 0, "rental_uris": {"ios": "https://dc.lft.to/lastmile_qr_scan", "android": "https://dc.lft.to/lastmile_qr_scan"}, "fusion_lon": 0.0, "bike_id": "fd51b85d7da0737257bd695346d07bda"}, {"type": "electric_scooter", "lon": -77.00932933333333, "is_disabled": 0, "name": "b0771d5fba793b932cbedf53fb356d90", "lat": 38.8998865, "fusion_lat": 0.0, "is_reserved": 0, "rental_uris": {"ios": "https://dc.lft.to/lastmile_qr_scan", "android": "https://dc.lft.to/lastmile_qr_scan"}, "fusion_lon": 0.0, "bike_id": "b0771d5fba793b932cbedf53fb356d90"}, {"type": "electric_scooter", "lon": -77.07454866666667, "is_disabled": 0, "name": "d379a46d25a262f19abd8bae1ff810f4", "lat": 38.937832, "fusion_lat": 0.0, "is_reserved": 0, "rental_uris": {"ios": "https://dc.lft.to/lastmile_qr_scan", "android": "https://dc.lft.to/lastmile_qr_scan"}, "fusion_lon": 0.0, "bike_id": "d379a46d25a262f19abd8bae1ff810f4"}, {"type": "electric_scooter", "lon": -76.941889, "is_disabled": 0, "name": "b5911656f11c9aff5c18afe1cee62833", "lat": 38.89759266666667, "fusion_lat": 0.0, "is_reserved": 0, "rental_uris": {"ios": "https://dc.lft.to/lastmile_qr_scan", "android": "https://dc.lft.to/lastmile_qr_scan"}, "fusion_lon": 0.0, "bike_id": "b5911656f11c9aff5c18afe1cee62833"}, {"type": "electric_scooter", "lon": -77.0338135, "is_disabled": 0, "name": "ac320f9bf67aca3330d80b14cc53c934", "lat": 38.901408, "fusion_lat": 0.0, "is_reserved": 0, "rental_uris": {"ios": "https://dc.lft.to/lastmile_qr_scan", "android": "https://dc.lft.to/lastmile_qr_scan"}, "fusion_lon": 0.0, "bike_id": "ac320f9bf67aca3330d80b14cc53c934"}, {"type": "electric_scooter", "lon": -77.02404333333334, "is_disabled": 0, "name": "bed0bf0ceaa6e935652c1f0423d2559e", "lat": 38.912677333333335, "fusion_lat": 0.0, "is_reserved": 0, "rental_uris": {"ios": "https://dc.lft.to/lastmile_qr_scan", "android": "https://dc.lft.to/lastmile_qr_scan"}, "fusion_lon": 0.0, "bike_id": "bed0bf0ceaa6e935652c1f0423d2559e"}, {"type": "electric_scooter", "lon": -77.01966333333333, "is_disabled": 0, "name": "ee757667995702d4aee783b2a3acfe80", "lat": 38.9193025, "fusion_lat": 0.0, "is_reserved": 0, "rental_uris": {"ios": "https://dc.lft.to/lastmile_qr_scan", "android": "https://dc.lft.to/lastmile_qr_scan"}, "fusion_lon": 0.0, "bike_id": "ee757667995702d4aee783b2a3acfe80"}, {"type": "electric_scooter", "lon": -77.021746, "is_disabled": 0, "name": "415312fb61c8563f94c1ae7bd53e4754", "lat": 38.92492816666667, "fusion_lat": 0.0, "is_reserved": 0, "rental_uris": {"ios": "https://dc.lft.to/lastmile_qr_scan", "android": "https://dc.lft.to/lastmile_qr_scan"}, "fusion_lon": 0.0, "bike_id": "415312fb61c8563f94c1ae7bd53e4754"}, {"type": "electric_scooter", "lon": -76.97818466666666, "is_disabled": 0, "name": "fc368030396c2eb6518b9854690285fd", "lat": 38.89396633333333, "fusion_lat": 0.0, "is_reserved": 0, "rental_uris": {"ios": "https://dc.lft.to/lastmile_qr_scan", "android": "https://dc.lft.to/lastmile_qr_scan"}, "fusion_lon": 0.0, "bike_id": "fc368030396c2eb6518b9854690285fd"}, {"type": "electric_scooter", "lon": -77.01655516666666, "is_disabled": 0, "name": "3df13582258ef1b2287211d3da9f0cd0", "lat": 38.88118683333333, "fusion_lat": 0.0, "is_reserved": 0, "rental_uris": {"ios": "https://dc.lft.to/lastmile_qr_scan", "android": "https://dc.lft.to/lastmile_qr_scan"}, "fusion_lon": 0.0, "bike_id": "3df13582258ef1b2287211d3da9f0cd0"}, {"type": "electric_scooter", "lon": -77.0486685, "is_disabled": 0, "name": "217fad6ef088879f26f786204b3c9092", "lat": 38.90485316666667, "fusion_lat": 0.0, "is_reserved": 0, "rental_uris": {"ios": "https://dc.lft.to/lastmile_qr_scan", "android": "https://dc.lft.to/lastmile_qr_scan"}, "fusion_lon": 0.0, "bike_id": "217fad6ef088879f26f786204b3c9092"}, {"type": "electric_scooter", "lon": -77.029715, "is_disabled": 0, "name": "f35fdcde8a7563094717efed91b629cd", "lat": 38.903336333333336, "fusion_lat": 0.0, "is_reserved": 0, "rental_uris": {"ios": "https://dc.lft.to/lastmile_qr_scan", "android": "https://dc.lft.to/lastmile_qr_scan"}, "fusion_lon": 0.0, "bike_id": "f35fdcde8a7563094717efed91b629cd"}, {"type": "electric_scooter", "lon": -77.03002666666667, "is_disabled": 0, "name": "1173656efd3a01df407b4d5c63a25864", "lat": 38.924705833333334, "fusion_lat": 0.0, "is_reserved": 0, "rental_uris": {"ios": "https://dc.lft.to/lastmile_qr_scan", "android": "https://dc.lft.to/lastmile_qr_scan"}, "fusion_lon": 0.0, "bike_id": "1173656efd3a01df407b4d5c63a25864"}, {"type": "electric_scooter", "lon": -77.0369955, "is_disabled": 0, "name": "561cebd988b8e202ffdf7b7ccb952452", "lat": 38.92637, "fusion_lat": 0.0, "is_reserved": 0, "rental_uris": {"ios": "https://dc.lft.to/lastmile_qr_scan", "android": "https://dc.lft.to/lastmile_qr_scan"}, "fusion_lon": 0.0, "bike_id": "561cebd988b8e202ffdf7b7ccb952452"}, {"type": "electric_scooter", "lon": -77.0005355, "is_disabled": 0, "name": "fc3f07f523719250f302b3332ac070f8", "lat": 38.878825166666665, "fusion_lat": 0.0, "is_reserved": 0, "rental_uris": {"ios": "https://dc.lft.to/lastmile_qr_scan", "android": "https://dc.lft.to/lastmile_qr_scan"}, "fusion_lon": 0.0, "bike_id": "fc3f07f523719250f302b3332ac070f8"}, {"type": "electric_scooter", "lon": -77.02299516666666, "is_disabled": 0, "name": "4d59459455a78a4acac715f16f7a7bfc", "lat": 38.924188666666666, "fusion_lat": 0.0, "is_reserved": 0, "rental_uris": {"ios": "https://dc.lft.to/lastmile_qr_scan", "android": "https://dc.lft.to/lastmile_qr_scan"}, "fusion_lon": 0.0, "bike_id": "4d59459455a78a4acac715f16f7a7bfc"}, {"type": "electric_scooter", "lon": -77.03556566666667, "is_disabled": 0, "name": "794b7aacf9cf5cde6e52391d7c023f6b", "lat": 38.92476, "fusion_lat": 0.0, "is_reserved": 0, "rental_uris": {"ios": "https://dc.lft.to/lastmile_qr_scan", "android": "https://dc.lft.to/lastmile_qr_scan"}, "fusion_lon": 0.0, "bike_id": "794b7aacf9cf5cde6e52391d7c023f6b"}, {"type": "electric_scooter", "lon": -77.02959616666666, "is_disabled": 0, "name": "73ee0d951f886c5394a65f72d40d3d69", "lat": 38.904992666666665, "fusion_lat": 0.0, "is_reserved": 0, "rental_uris": {"ios": "https://dc.lft.to/lastmile_qr_scan", "android": "https://dc.lft.to/lastmile_qr_scan"}, "fusion_lon": 0.0, "bike_id": "73ee0d951f886c5394a65f72d40d3d69"}, {"type": "electric_scooter", "lon": -77.03422066666667, "is_disabled": 0, "name": "7ccf021efe461bb666cf1597abd7e880", "lat": 38.91927733333333, "fusion_lat": 0.0, "is_reserved": 0, "rental_uris": {"ios": "https://dc.lft.to/lastmile_qr_scan", "android": "https://dc.lft.to/lastmile_qr_scan"}, "fusion_lon": 0.0, "bike_id": "7ccf021efe461bb666cf1597abd7e880"}, {"type": "electric_scooter", "lon": -77.03299666666666, "is_disabled": 0, "name": "7f775bcb3c58c07a328a963bb9edbe57", "lat": 38.923601833333336, "fusion_lat": 0.0, "is_reserved": 0, "rental_uris": {"ios": "https://dc.lft.to/lastmile_qr_scan", "android": "https://dc.lft.to/lastmile_qr_scan"}, "fusion_lon": 0.0, "bike_id": "7f775bcb3c58c07a328a963bb9edbe57"}, {"type": "electric_scooter", "lon": -77.04872866666666, "is_disabled": 0, "name": "20da2eb7a3a0271c0b2784f671ce0a04", "lat": 38.892487, "fusion_lat": 0.0, "is_reserved": 0, "rental_uris": {"ios": "https://dc.lft.to/lastmile_qr_scan", "android": "https://dc.lft.to/lastmile_qr_scan"}, "fusion_lon": 0.0, "bike_id": "20da2eb7a3a0271c0b2784f671ce0a04"}, {"type": "electric_scooter", "lon": -77.03777533333333, "is_disabled": 0, "name": "c78b380b4556d0f5558a6c74eed77f41", "lat": 38.925771166666664, "fusion_lat": 0.0, "is_reserved": 0, "rental_uris": {"ios": "https://dc.lft.to/lastmile_qr_scan", "android": "https://dc.lft.to/lastmile_qr_scan"}, "fusion_lon": 0.0, "bike_id": "c78b380b4556d0f5558a6c74eed77f41"}, {"type": "electric_bike", "lon": -77.0765945, "is_disabled": 0, "name": "609af6659d056e6f6e87747c77937444", "lat": 38.8098235, "fusion_lat": 0.0, "is_reserved": 0, "rental_uris": {"ios": "https://dc.lft.to/lastmile_qr_scan", "android": "https://dc.lft.to/lastmile_qr_scan"}, "fusion_lon": 0.0, "bike_id": "609af6659d056e6f6e87747c77937444"}, {"type": "electric_bike", "lon": -77.10095283333334, "is_disabled": 0, "name": "360ccd6b5131a5110fa152ae045b7555", "lat": 38.98944566666667, "fusion_lat": 0.0, "is_reserved": 0, "rental_uris": {"ios": "https://dc.lft.to/lastmile_qr_scan", "android": "https://dc.lft.to/lastmile_qr_scan"}, "fusion_lon": 0.0, "bike_id": "360ccd6b5131a5110fa152ae045b7555"}, {"type": "electric_scooter", "lon": -77.042402, "is_disabled": 0, "name": "2480a454b0c32b3eee1eb0d5ce94f2c3", "lat": 38.92208333333333, "fusion_lat": 0.0, "is_reserved": 0, "rental_uris": {"ios": "https://dc.lft.to/lastmile_qr_scan", "android": "https://dc.lft.to/lastmile_qr_scan"}, "fusion_lon": 0.0, "bike_id": "2480a454b0c32b3eee1eb0d5ce94f2c3"}, {"type": "electric_scooter", "lon": -77.03055933333333, "is_disabled": 0, "name": "04b0b1f4eea407ad5cbcb8e128a9f4a1", "lat": 38.924685, "fusion_lat": 0.0, "is_reserved": 0, "rental_uris": {"ios": "https://dc.lft.to/lastmile_qr_scan", "android": "https://dc.lft.to/lastmile_qr_scan"}, "fusion_lon": 0.0, "bike_id": "04b0b1f4eea407ad5cbcb8e128a9f4a1"}, {"type": "electric_scooter", "lon": -77.046215, "is_disabled": 0, "name": "a5a89179e7b646a694755c24341b4e82", "lat": 38.9096835, "fusion_lat": 0.0, "is_reserved": 0, "rental_uris": {"ios": "https://dc.lft.to/lastmile_qr_scan", "android": "https://dc.lft.to/lastmile_qr_scan"}, "fusion_lon": 0.0, "bike_id": "a5a89179e7b646a694755c24341b4e82"}, {"type": "electric_scooter", "lon": -77.01773, "is_disabled": 0, "name": "ae38fb3026140469f31e8ae43e6d9d86", "lat": 38.898256833333335, "fusion_lat": 0.0, "is_reserved": 0, "rental_uris": {"ios": "https://dc.lft.to/lastmile_qr_scan", "android": "https://dc.lft.to/lastmile_qr_scan"}, "fusion_lon": 0.0, "bike_id": "ae38fb3026140469f31e8ae43e6d9d86"}, {"type": "electric_scooter", "lon": -77.02029633333333, "is_disabled": 0, "name": "5d9e7b5122990c5a4df9b72fcf6f3f8f", "lat": 38.922118, "fusion_lat": 0.0, "is_reserved": 0, "rental_uris": {"ios": "https://dc.lft.to/lastmile_qr_scan", "android": "https://dc.lft.to/lastmile_qr_scan"}, "fusion_lon": 0.0, "bike_id": "5d9e7b5122990c5a4df9b72fcf6f3f8f"}, {"type": "electric_scooter", "lon": -77.0213695, "is_disabled": 0, "name": "8cd2bfbe088b17aee0c8177599683c8c", "lat": 38.9241195, "fusion_lat": 0.0, "is_reserved": 0, "rental_uris": {"ios": "https://dc.lft.to/lastmile_qr_scan", "android": "https://dc.lft.to/lastmile_qr_scan"}, "fusion_lon": 0.0, "bike_id": "8cd2bfbe088b17aee0c8177599683c8c"}, {"type": "electric_scooter", "lon": -77.0236155, "is_disabled": 0, "name": "74c32e83fefaba5780c5305e848910b3", "lat": 38.915478, "fusion_lat": 0.0, "is_reserved": 0, "rental_uris": {"ios": "https://dc.lft.to/lastmile_qr_scan", "android": "https://dc.lft.to/lastmile_qr_scan"}, "fusion_lon": 0.0, "bike_id": "74c32e83fefaba5780c5305e848910b3"}, {"type": "electric_scooter", "lon": -77.02156216666667, "is_disabled": 0, "name": "9309c6b450c393a090932b4384109b3f", "lat": 38.903409833333335, "fusion_lat": 0.0, "is_reserved": 0, "rental_uris": {"ios": "https://dc.lft.to/lastmile_qr_scan", "android": "https://dc.lft.to/lastmile_qr_scan"}, "fusion_lon": 0.0, "bike_id": "9309c6b450c393a090932b4384109b3f"}, {"type": "electric_scooter", "lon": -77.02765983333333, "is_disabled": 0, "name": "1138000bca60a2d9beb3d05e1e6daafa", "lat": 38.95301083333333, "fusion_lat": 0.0, "is_reserved": 0, "rental_uris": {"ios": "https://dc.lft.to/lastmile_qr_scan", "android": "https://dc.lft.to/lastmile_qr_scan"}, "fusion_lon": 0.0, "bike_id": "1138000bca60a2d9beb3d05e1e6daafa"}, {"type": "electric_scooter", "lon": -77.0424015, "is_disabled": 0, "name": "ae4e889fd824a8aca04f88b77227beb1", "lat": 38.90767816666666, "fusion_lat": 0.0, "is_reserved": 0, "rental_uris": {"ios": "https://dc.lft.to/lastmile_qr_scan", "android": "https://dc.lft.to/lastmile_qr_scan"}, "fusion_lon": 0.0, "bike_id": "ae4e889fd824a8aca04f88b77227beb1"}, {"type": "electric_scooter", "lon": -77.02171116666666, "is_disabled": 0, "name": "7e32d111af81b11cfdc17e8d489f4e0e", "lat": 38.899461333333335, "fusion_lat": 0.0, "is_reserved": 0, "rental_uris": {"ios": "https://dc.lft.to/lastmile_qr_scan", "android": "https://dc.lft.to/lastmile_qr_scan"}, "fusion_lon": 0.0, "bike_id": "7e32d111af81b11cfdc17e8d489f4e0e"}, {"type": "electric_scooter", "lon": -77.04161966666666, "is_disabled": 0, "name": "88343cf7eb6e5173306b49fad342c4f4", "lat": 38.89561033333333, "fusion_lat": 0.0, "is_reserved": 0, "rental_uris": {"ios": "https://dc.lft.to/lastmile_qr_scan", "android": "https://dc.lft.to/lastmile_qr_scan"}, "fusion_lon": 0.0, "bike_id": "88343cf7eb6e5173306b49fad342c4f4"}, {"type": "electric_scooter", "lon": -77.0629425, "is_disabled": 0, "name": "6ee87d086cf898c1db3f6d6393241971", "lat": 38.903974833333336, "fusion_lat": 0.0, "is_reserved": 0, "rental_uris": {"ios": "https://dc.lft.to/lastmile_qr_scan", "android": "https://dc.lft.to/lastmile_qr_scan"}, "fusion_lon": 0.0, "bike_id": "6ee87d086cf898c1db3f6d6393241971"}, {"type": "electric_scooter", "lon": -77.04267716666666, "is_disabled": 0, "name": "79d9aae85316977177bbda06e2fd21b1", "lat": 38.92235066666667, "fusion_lat": 0.0, "is_reserved": 0, "rental_uris": {"ios": "https://dc.lft.to/lastmile_qr_scan", "android": "https://dc.lft.to/lastmile_qr_scan"}, "fusion_lon": 0.0, "bike_id": "79d9aae85316977177bbda06e2fd21b1"}, {"type": "electric_scooter", "lon": -77.032683, "is_disabled": 0, "name": "1aace5f7f764915e7424e79e70d53340", "lat": 38.93939833333334, "fusion_lat": 0.0, "is_reserved": 0, "rental_uris": {"ios": "https://dc.lft.to/lastmile_qr_scan", "android": "https://dc.lft.to/lastmile_qr_scan"}, "fusion_lon": 0.0, "bike_id": "1aace5f7f764915e7424e79e70d53340"}, {"type": "electric_scooter", "lon": -76.98374766666667, "is_disabled": 0, "name": "961af04b53f020d91bf55b6071912349", "lat": 38.91494133333333, "fusion_lat": 0.0, "is_reserved": 0, "rental_uris": {"ios": "https://dc.lft.to/lastmile_qr_scan", "android": "https://dc.lft.to/lastmile_qr_scan"}, "fusion_lon": 0.0, "bike_id": "961af04b53f020d91bf55b6071912349"}, {"type": "electric_scooter", "lon": -77.03206233333333, "is_disabled": 0, "name": "125bf2276fc18c3254a6b4b0b7068f15", "lat": 38.91730366666667, "fusion_lat": 0.0, "is_reserved": 0, "rental_uris": {"ios": "https://dc.lft.to/lastmile_qr_scan", "android": "https://dc.lft.to/lastmile_qr_scan"}, "fusion_lon": 0.0, "bike_id": "125bf2276fc18c3254a6b4b0b7068f15"}, {"type": "electric_scooter", "lon": -77.01508066666666, "is_disabled": 0, "name": "64532f026056837965061024c4e562b7", "lat": 38.89322033333333, "fusion_lat": 0.0, "is_reserved": 0, "rental_uris": {"ios": "https://dc.lft.to/lastmile_qr_scan", "android": "https://dc.lft.to/lastmile_qr_scan"}, "fusion_lon": 0.0, "bike_id": "64532f026056837965061024c4e562b7"}, {"type": "electric_scooter", "lon": -77.01981516666666, "is_disabled": 0, "name": "833daaf30c6129cec0b16100c4284aa0", "lat": 38.887192, "fusion_lat": 0.0, "is_reserved": 0, "rental_uris": {"ios": "https://dc.lft.to/lastmile_qr_scan", "android": "https://dc.lft.to/lastmile_qr_scan"}, "fusion_lon": 0.0, "bike_id": "833daaf30c6129cec0b16100c4284aa0"}, {"type": "electric_scooter", "lon": -77.01593366666667, "is_disabled": 0, "name": "0a35793980056c01df510e34789a56b2", "lat": 38.8746685, "fusion_lat": 0.0, "is_reserved": 0, "rental_uris": {"ios": "https://dc.lft.to/lastmile_qr_scan", "android": "https://dc.lft.to/lastmile_qr_scan"}, "fusion_lon": 0.0, "bike_id": "0a35793980056c01df510e34789a56b2"}, {"type": "electric_scooter", "lon": -77.02396066666667, "is_disabled": 0, "name": "00d3bf02332b5557870878fc686a227b", "lat": 38.916529833333335, "fusion_lat": 0.0, "is_reserved": 0, "rental_uris": {"ios": "https://dc.lft.to/lastmile_qr_scan", "android": "https://dc.lft.to/lastmile_qr_scan"}, "fusion_lon": 0.0, "bike_id": "00d3bf02332b5557870878fc686a227b"}, {"type": "electric_bike", "lon": -77.0120405, "is_disabled": 0, "name": "98a1affb16aefb90341a673525d3db66", "lat": 38.950739666666664, "fusion_lat": 0.0, "is_reserved": 0, "rental_uris": {"ios": "https://dc.lft.to/lastmile_qr_scan", "android": "https://dc.lft.to/lastmile_qr_scan"}, "fusion_lon": 0.0, "bike_id": "98a1affb16aefb90341a673525d3db66"}, {"type": "electric_scooter", "lon": -77.04509083333333, "is_disabled": 0, "name": "c8e2905ab517ca74fb2b7c8cd454889e", "lat": 38.902815833333335, "fusion_lat": 0.0, "is_reserved": 0, "rental_uris": {"ios": "https://dc.lft.to/lastmile_qr_scan", "android": "https://dc.lft.to/lastmile_qr_scan"}, "fusion_lon": 0.0, "bike_id": "c8e2905ab517ca74fb2b7c8cd454889e"}, {"type": "electric_scooter", "lon": -77.04459633333333, "is_disabled": 0, "name": "c318a9562b2956e8c1c66e0242f06807", "lat": 38.924711, "fusion_lat": 0.0, "is_reserved": 0, "rental_uris": {"ios": "https://dc.lft.to/lastmile_qr_scan", "android": "https://dc.lft.to/lastmile_qr_scan"}, "fusion_lon": 0.0, "bike_id": "c318a9562b2956e8c1c66e0242f06807"}, {"type": "electric_bike", "lon": -76.95562083333333, "is_disabled": 0, "name": "bd816c980de52cae0859599ea5e9db45", "lat": 38.9850365, "fusion_lat": 0.0, "is_reserved": 0, "rental_uris": {"ios": "https://dc.lft.to/lastmile_qr_scan", "android": "https://dc.lft.to/lastmile_qr_scan"}, "fusion_lon": 0.0, "bike_id": "bd816c980de52cae0859599ea5e9db45"}, {"type": "electric_scooter", "lon": -77.02981516666667, "is_disabled": 0, "name": "1f7c4b2b1c665a9d80bfba384e3dceee", "lat": 38.94269933333333, "fusion_lat": 0.0, "is_reserved": 0, "rental_uris": {"ios": "https://dc.lft.to/lastmile_qr_scan", "android": "https://dc.lft.to/lastmile_qr_scan"}, "fusion_lon": 0.0, "bike_id": "1f7c4b2b1c665a9d80bfba384e3dceee"}, {"type": "electric_scooter", "lon": -77.04154433333333, "is_disabled": 0, "name": "4a9c29f8611c8b11c185276229f01520", "lat": 38.9164265, "fusion_lat": 0.0, "is_reserved": 0, "rental_uris": {"ios": "https://dc.lft.to/lastmile_qr_scan", "android": "https://dc.lft.to/lastmile_qr_scan"}, "fusion_lon": 0.0, "bike_id": "4a9c29f8611c8b11c185276229f01520"}, {"type": "electric_scooter", "lon": -77.03056283333333, "is_disabled": 0, "name": "90fe17deb6477f2b3855961ace0fd55d", "lat": 38.91259316666667, "fusion_lat": 0.0, "is_reserved": 0, "rental_uris": {"ios": "https://dc.lft.to/lastmile_qr_scan", "android": "https://dc.lft.to/lastmile_qr_scan"}, "fusion_lon": 0.0, "bike_id": "90fe17deb6477f2b3855961ace0fd55d"}, {"type": "electric_scooter", "lon": -77.01903933333334, "is_disabled": 0, "name": "a272d1ceb684376a74b6a876fd932a87", "lat": 38.92175, "fusion_lat": 0.0, "is_reserved": 0, "rental_uris": {"ios": "https://dc.lft.to/lastmile_qr_scan", "android": "https://dc.lft.to/lastmile_qr_scan"}, "fusion_lon": 0.0, "bike_id": "a272d1ceb684376a74b6a876fd932a87"}, {"type": "electric_scooter", "lon": -77.04992666666666, "is_disabled": 0, "name": "512fb7e0b68e1cae5b8c9cd81cfac48d", "lat": 38.898242833333335, "fusion_lat": 0.0, "is_reserved": 0, "rental_uris": {"ios": "https://dc.lft.to/lastmile_qr_scan", "android": "https://dc.lft.to/lastmile_qr_scan"}, "fusion_lon": 0.0, "bike_id": "512fb7e0b68e1cae5b8c9cd81cfac48d"}, {"type": "electric_scooter", "lon": -77.00480866666666, "is_disabled": 0, "name": "fa84912849b497589f95d0f6c000c082", "lat": 38.87457116666667, "fusion_lat": 0.0, "is_reserved": 0, "rental_uris": {"ios": "https://dc.lft.to/lastmile_qr_scan", "android": "https://dc.lft.to/lastmile_qr_scan"}, "fusion_lon": 0.0, "bike_id": "fa84912849b497589f95d0f6c000c082"}, {"type": "electric_scooter", "lon": -77.06267866666667, "is_disabled": 0, "name": "9123565ab7fd05facdd8e65d30450b0e", "lat": 38.905496166666666, "fusion_lat": 0.0, "is_reserved": 0, "rental_uris": {"ios": "https://dc.lft.to/lastmile_qr_scan", "android": "https://dc.lft.to/lastmile_qr_scan"}, "fusion_lon": 0.0, "bike_id": "9123565ab7fd05facdd8e65d30450b0e"}, {"type": "electric_bike", "lon": -77.04352183333333, "is_disabled": 0, "name": "46f555a903be2b556ee21f4865999dc1", "lat": 38.89516033333334, "fusion_lat": 0.0, "is_reserved": 0, "rental_uris": {"ios": "https://dc.lft.to/lastmile_qr_scan", "android": "https://dc.lft.to/lastmile_qr_scan"}, "fusion_lon": 0.0, "bike_id": "46f555a903be2b556ee21f4865999dc1"}, {"type": "electric_scooter", "lon": -77.046675, "is_disabled": 0, "name": "be43b4fe345c7eef9c097802ce256e27", "lat": 38.909395333333336, "fusion_lat": 0.0, "is_reserved": 0, "rental_uris": {"ios": "https://dc.lft.to/lastmile_qr_scan", "android": "https://dc.lft.to/lastmile_qr_scan"}, "fusion_lon": 0.0, "bike_id": "be43b4fe345c7eef9c097802ce256e27"}, {"type": "electric_scooter", "lon": -77.04565333333333, "is_disabled": 0, "name": "bf6e48906ab5024bba02900da1f36e83", "lat": 38.9006055, "fusion_lat": 0.0, "is_reserved": 0, "rental_uris": {"ios": "https://dc.lft.to/lastmile_qr_scan", "android": "https://dc.lft.to/lastmile_qr_scan"}, "fusion_lon": 0.0, "bike_id": "bf6e48906ab5024bba02900da1f36e83"}, {"type": "electric_scooter", "lon": -77.02726616666666, "is_disabled": 0, "name": "9a7d3940d77dd00755dff4cf6b0ccb49", "lat": 38.907277666666666, "fusion_lat": 0.0, "is_reserved": 0, "rental_uris": {"ios": "https://dc.lft.to/lastmile_qr_scan", "android": "https://dc.lft.to/lastmile_qr_scan"}, "fusion_lon": 0.0, "bike_id": "9a7d3940d77dd00755dff4cf6b0ccb49"}, {"type": "electric_scooter", "lon": -77.02344416666666, "is_disabled": 0, "name": "0d3a23c92748fd380c660d887b43dc28", "lat": 38.881355666666664, "fusion_lat": 0.0, "is_reserved": 0, "rental_uris": {"ios": "https://dc.lft.to/lastmile_qr_scan", "android": "https://dc.lft.to/lastmile_qr_scan"}, "fusion_lon": 0.0, "bike_id": "0d3a23c92748fd380c660d887b43dc28"}, {"type": "electric_scooter", "lon": -77.04339883333333, "is_disabled": 0, "name": "0f0876a8d435531d9992bf568b6f43aa", "lat": 38.898934, "fusion_lat": 0.0, "is_reserved": 0, "rental_uris": {"ios": "https://dc.lft.to/lastmile_qr_scan", "android": "https://dc.lft.to/lastmile_qr_scan"}, "fusion_lon": 0.0, "bike_id": "0f0876a8d435531d9992bf568b6f43aa"}, {"type": "electric_scooter", "lon": -77.00201433333334, "is_disabled": 0, "name": "291292f498078adba6d4133d6963f23b", "lat": 38.90237233333333, "fusion_lat": 0.0, "is_reserved": 0, "rental_uris": {"ios": "https://dc.lft.to/lastmile_qr_scan", "android": "https://dc.lft.to/lastmile_qr_scan"}, "fusion_lon": 0.0, "bike_id": "291292f498078adba6d4133d6963f23b"}, {"type": "electric_scooter", "lon": -77.04404616666666, "is_disabled": 0, "name": "cb567f63482c4abc3653b59fe88e66da", "lat": 38.929507, "fusion_lat": 0.0, "is_reserved": 0, "rental_uris": {"ios": "https://dc.lft.to/lastmile_qr_scan", "android": "https://dc.lft.to/lastmile_qr_scan"}, "fusion_lon": 0.0, "bike_id": "cb567f63482c4abc3653b59fe88e66da"}, {"type": "electric_scooter", "lon": -77.04809133333333, "is_disabled": 0, "name": "f7a5d05e2fea6c3b91907708824eae03", "lat": 38.905083833333336, "fusion_lat": 0.0, "is_reserved": 0, "rental_uris": {"ios": "https://dc.lft.to/lastmile_qr_scan", "android": "https://dc.lft.to/lastmile_qr_scan"}, "fusion_lon": 0.0, "bike_id": "f7a5d05e2fea6c3b91907708824eae03"}, {"type": "electric_scooter", "lon": -76.98453183333334, "is_disabled": 0, "name": "d348393956c904e82c49f2daac33b973", "lat": 38.892335333333335, "fusion_lat": 0.0, "is_reserved": 0, "rental_uris": {"ios": "https://dc.lft.to/lastmile_qr_scan", "android": "https://dc.lft.to/lastmile_qr_scan"}, "fusion_lon": 0.0, "bike_id": "d348393956c904e82c49f2daac33b973"}, {"type": "electric_scooter", "lon": -77.00208866666667, "is_disabled": 0, "name": "e5fb22994f62768737ede5458295c278", "lat": 38.90031466666667, "fusion_lat": 0.0, "is_reserved": 0, "rental_uris": {"ios": "https://dc.lft.to/lastmile_qr_scan", "android": "https://dc.lft.to/lastmile_qr_scan"}, "fusion_lon": 0.0, "bike_id": "e5fb22994f62768737ede5458295c278"}, {"type": "electric_scooter", "lon": -77.05682566666667, "is_disabled": 0, "name": "09ae5e9b08aea70bfb997714889f351d", "lat": 38.90606783333333, "fusion_lat": 0.0, "is_reserved": 0, "rental_uris": {"ios": "https://dc.lft.to/lastmile_qr_scan", "android": "https://dc.lft.to/lastmile_qr_scan"}, "fusion_lon": 0.0, "bike_id": "09ae5e9b08aea70bfb997714889f351d"}, {"type": "electric_scooter", "lon": -76.98358566666667, "is_disabled": 0, "name": "8f39b2b846e382cc9a563a829912c644", "lat": 38.8873105, "fusion_lat": 0.0, "is_reserved": 0, "rental_uris": {"ios": "https://dc.lft.to/lastmile_qr_scan", "android": "https://dc.lft.to/lastmile_qr_scan"}, "fusion_lon": 0.0, "bike_id": "8f39b2b846e382cc9a563a829912c644"}, {"type": "electric_scooter", "lon": -77.01408216666667, "is_disabled": 0, "name": "ea02a45b2793f507b9759f54382db787", "lat": 38.92843533333333, "fusion_lat": 0.0, "is_reserved": 0, "rental_uris": {"ios": "https://dc.lft.to/lastmile_qr_scan", "android": "https://dc.lft.to/lastmile_qr_scan"}, "fusion_lon": 0.0, "bike_id": "ea02a45b2793f507b9759f54382db787"}, {"type": "electric_bike", "lon": -77.02838416666667, "is_disabled": 0, "name": "2923ee2314fae235e5485e863e11ca3e", "lat": 38.931896333333334, "fusion_lat": 0.0, "is_reserved": 0, "rental_uris": {"ios": "https://dc.lft.to/lastmile_qr_scan", "android": "https://dc.lft.to/lastmile_qr_scan"}, "fusion_lon": 0.0, "bike_id": "2923ee2314fae235e5485e863e11ca3e"}, {"type": "electric_scooter", "lon": -77.005999, "is_disabled": 0, "name": "89face9abfc3c02f90ac4769ab380105", "lat": 38.87183233333333, "fusion_lat": 0.0, "is_reserved": 0, "rental_uris": {"ios": "https://dc.lft.to/lastmile_qr_scan", "android": "https://dc.lft.to/lastmile_qr_scan"}, "fusion_lon": 0.0, "bike_id": "89face9abfc3c02f90ac4769ab380105"}, {"type": "electric_scooter", "lon": -77.01972166666667, "is_disabled": 0, "name": "31b1278ceb7b408ff11a3e285d144dbb", "lat": 38.92256033333334, "fusion_lat": 0.0, "is_reserved": 0, "rental_uris": {"ios": "https://dc.lft.to/lastmile_qr_scan", "android": "https://dc.lft.to/lastmile_qr_scan"}, "fusion_lon": 0.0, "bike_id": "31b1278ceb7b408ff11a3e285d144dbb"}, {"type": "electric_scooter", "lon": -76.97327483333333, "is_disabled": 0, "name": "997ebe71c3ee01be1eb38775f23212fd", "lat": 38.90411833333334, "fusion_lat": 0.0, "is_reserved": 0, "rental_uris": {"ios": "https://dc.lft.to/lastmile_qr_scan", "android": "https://dc.lft.to/lastmile_qr_scan"}, "fusion_lon": 0.0, "bike_id": "997ebe71c3ee01be1eb38775f23212fd"}, {"type": "electric_scooter", "lon": -77.00595933333334, "is_disabled": 0, "name": "cf121f9552e3adfa171a62415f445ee3", "lat": 38.906453166666665, "fusion_lat": 0.0, "is_reserved": 0, "rental_uris": {"ios": "https://dc.lft.to/lastmile_qr_scan", "android": "https://dc.lft.to/lastmile_qr_scan"}, "fusion_lon": 0.0, "bike_id": "cf121f9552e3adfa171a62415f445ee3"}, {"type": "electric_scooter", "lon": -77.06593916666667, "is_disabled": 0, "name": "b4f87e7be4db0c001e6ba57d36abdc21", "lat": 38.904085, "fusion_lat": 0.0, "is_reserved": 0, "rental_uris": {"ios": "https://dc.lft.to/lastmile_qr_scan", "android": "https://dc.lft.to/lastmile_qr_scan"}, "fusion_lon": 0.0, "bike_id": "b4f87e7be4db0c001e6ba57d36abdc21"}, {"type": "electric_scooter", "lon": -77.06353066666667, "is_disabled": 0, "name": "6026f7fa4066d99861c4eed60f05ea18", "lat": 38.94453133333333, "fusion_lat": 0.0, "is_reserved": 0, "rental_uris": {"ios": "https://dc.lft.to/lastmile_qr_scan", "android": "https://dc.lft.to/lastmile_qr_scan"}, "fusion_lon": 0.0, "bike_id": "6026f7fa4066d99861c4eed60f05ea18"}, {"type": "electric_scooter", "lon": -77.0240895, "is_disabled": 0, "name": "606930370d1de58cdb496b9e267db648", "lat": 38.906120333333334, "fusion_lat": 0.0, "is_reserved": 0, "rental_uris": {"ios": "https://dc.lft.to/lastmile_qr_scan", "android": "https://dc.lft.to/lastmile_qr_scan"}, "fusion_lon": 0.0, "bike_id": "606930370d1de58cdb496b9e267db648"}, {"type": "electric_scooter", "lon": -77.0325565, "is_disabled": 0, "name": "196856efd69c9332e6d6b209b90c7991", "lat": 38.91189266666667, "fusion_lat": 0.0, "is_reserved": 0, "rental_uris": {"ios": "https://dc.lft.to/lastmile_qr_scan", "android": "https://dc.lft.to/lastmile_qr_scan"}, "fusion_lon": 0.0, "bike_id": "196856efd69c9332e6d6b209b90c7991"}, {"type": "electric_scooter", "lon": -77.00194716666667, "is_disabled": 0, "name": "e101eb2bf05bfc39fa00f68c8b041f8a", "lat": 38.902809500000004, "fusion_lat": 0.0, "is_reserved": 0, "rental_uris": {"ios": "https://dc.lft.to/lastmile_qr_scan", "android": "https://dc.lft.to/lastmile_qr_scan"}, "fusion_lon": 0.0, "bike_id": "e101eb2bf05bfc39fa00f68c8b041f8a"}, {"type": "electric_scooter", "lon": -76.98337866666667, "is_disabled": 0, "name": "eb1675eb516a0a2aea9bae4df18fb0b4", "lat": 38.90095933333333, "fusion_lat": 0.0, "is_reserved": 0, "rental_uris": {"ios": "https://dc.lft.to/lastmile_qr_scan", "android": "https://dc.lft.to/lastmile_qr_scan"}, "fusion_lon": 0.0, "bike_id": "eb1675eb516a0a2aea9bae4df18fb0b4"}, {"type": "electric_scooter", "lon": -77.01888133333334, "is_disabled": 0, "name": "05778d43f3f0e26eedec8fab0762861a", "lat": 38.91235533333333, "fusion_lat": 0.0, "is_reserved": 0, "rental_uris": {"ios": "https://dc.lft.to/lastmile_qr_scan", "android": "https://dc.lft.to/lastmile_qr_scan"}, "fusion_lon": 0.0, "bike_id": "05778d43f3f0e26eedec8fab0762861a"}, {"type": "electric_scooter", "lon": -77.05020983333333, "is_disabled": 0, "name": "60929139e6bc8183b2eca5380e22024e", "lat": 38.897544833333335, "fusion_lat": 0.0, "is_reserved": 0, "rental_uris": {"ios": "https://dc.lft.to/lastmile_qr_scan", "android": "https://dc.lft.to/lastmile_qr_scan"}, "fusion_lon": 0.0, "bike_id": "60929139e6bc8183b2eca5380e22024e"}, {"type": "electric_scooter", "lon": -77.07996216666666, "is_disabled": 0, "name": "45c64e197821779f23b301dfc544a0ef", "lat": 38.919241166666666, "fusion_lat": 0.0, "is_reserved": 0, "rental_uris": {"ios": "https://dc.lft.to/lastmile_qr_scan", "android": "https://dc.lft.to/lastmile_qr_scan"}, "fusion_lon": 0.0, "bike_id": "45c64e197821779f23b301dfc544a0ef"}, {"type": "electric_scooter", "lon": -77.03188183333333, "is_disabled": 0, "name": "28f93cf0ca7cc6c46224fc9bba426d08", "lat": 38.91574933333333, "fusion_lat": 0.0, "is_reserved": 0, "rental_uris": {"ios": "https://dc.lft.to/lastmile_qr_scan", "android": "https://dc.lft.to/lastmile_qr_scan"}, "fusion_lon": 0.0, "bike_id": "28f93cf0ca7cc6c46224fc9bba426d08"}, {"type": "electric_scooter", "lon": -77.02199633333333, "is_disabled": 0, "name": "175f8fa69ed8b112d06e197c63ea0672", "lat": 38.90642833333333, "fusion_lat": 0.0, "is_reserved": 0, "rental_uris": {"ios": "https://dc.lft.to/lastmile_qr_scan", "android": "https://dc.lft.to/lastmile_qr_scan"}, "fusion_lon": 0.0, "bike_id": "175f8fa69ed8b112d06e197c63ea0672"}, {"type": "electric_scooter", "lon": -77.04165383333333, "is_disabled": 0, "name": "8a9fcf51b3f3ad05ceae64b22028cd91", "lat": 38.903175833333336, "fusion_lat": 0.0, "is_reserved": 0, "rental_uris": {"ios": "https://dc.lft.to/lastmile_qr_scan", "android": "https://dc.lft.to/lastmile_qr_scan"}, "fusion_lon": 0.0, "bike_id": "8a9fcf51b3f3ad05ceae64b22028cd91"}, {"type": "electric_scooter", "lon": -77.045625, "is_disabled": 0, "name": "0a7cfdcd50cab8d229bdf244d98d2781", "lat": 38.9037375, "fusion_lat": 0.0, "is_reserved": 0, "rental_uris": {"ios": "https://dc.lft.to/lastmile_qr_scan", "android": "https://dc.lft.to/lastmile_qr_scan"}, "fusion_lon": 0.0, "bike_id": "0a7cfdcd50cab8d229bdf244d98d2781"}, {"type": "electric_scooter", "lon": -77.04471366666667, "is_disabled": 0, "name": "667a7855e63a3add0756977a470cdc5d", "lat": 38.90372416666666, "fusion_lat": 0.0, "is_reserved": 0, "rental_uris": {"ios": "https://dc.lft.to/lastmile_qr_scan", "android": "https://dc.lft.to/lastmile_qr_scan"}, "fusion_lon": 0.0, "bike_id": "667a7855e63a3add0756977a470cdc5d"}, {"type": "electric_scooter", "lon": -77.05391, "is_disabled": 0, "name": "e0860da1a3fb8774787a4acf7aa772aa", "lat": 38.92332366666667, "fusion_lat": 0.0, "is_reserved": 0, "rental_uris": {"ios": "https://dc.lft.to/lastmile_qr_scan", "android": "https://dc.lft.to/lastmile_qr_scan"}, "fusion_lon": 0.0, "bike_id": "e0860da1a3fb8774787a4acf7aa772aa"}, {"type": "electric_scooter", "lon": -77.0359405, "is_disabled": 0, "name": "b61ed92d7a11255550ac506336962b06", "lat": 38.928521833333335, "fusion_lat": 0.0, "is_reserved": 0, "rental_uris": {"ios": "https://dc.lft.to/lastmile_qr_scan", "android": "https://dc.lft.to/lastmile_qr_scan"}, "fusion_lon": 0.0, "bike_id": "b61ed92d7a11255550ac506336962b06"}, {"type": "electric_scooter", "lon": -77.023179, "is_disabled": 0, "name": "ace94c0d97b11aac3c4970220db0ef96", "lat": 38.920761666666664, "fusion_lat": 0.0, "is_reserved": 0, "rental_uris": {"ios": "https://dc.lft.to/lastmile_qr_scan", "android": "https://dc.lft.to/lastmile_qr_scan"}, "fusion_lon": 0.0, "bike_id": "ace94c0d97b11aac3c4970220db0ef96"}, {"type": "electric_scooter", "lon": -77.00199983333333, "is_disabled": 0, "name": "12dc1977ae6e9184fcfac6510d9c0abd", "lat": 38.930832833333334, "fusion_lat": 0.0, "is_reserved": 0, "rental_uris": {"ios": "https://dc.lft.to/lastmile_qr_scan", "android": "https://dc.lft.to/lastmile_qr_scan"}, "fusion_lon": 0.0, "bike_id": "12dc1977ae6e9184fcfac6510d9c0abd"}, {"type": "electric_scooter", "lon": -77.02549616666667, "is_disabled": 0, "name": "87f1ccaac5abbaf938089220ff164cd6", "lat": 38.970082166666664, "fusion_lat": 0.0, "is_reserved": 0, "rental_uris": {"ios": "https://dc.lft.to/lastmile_qr_scan", "android": "https://dc.lft.to/lastmile_qr_scan"}, "fusion_lon": 0.0, "bike_id": "87f1ccaac5abbaf938089220ff164cd6"}, {"type": "electric_scooter", "lon": -77.00290183333334, "is_disabled": 0, "name": "6f9dadab4c259db912c8eb402d59863f", "lat": 38.89353533333333, "fusion_lat": 0.0, "is_reserved": 0, "rental_uris": {"ios": "https://dc.lft.to/lastmile_qr_scan", "android": "https://dc.lft.to/lastmile_qr_scan"}, "fusion_lon": 0.0, "bike_id": "6f9dadab4c259db912c8eb402d59863f"}, {"type": "electric_bike", "lon": -76.961547, "is_disabled": 0, "name": "0a51870aa75a328939d35209db0a69a7", "lat": 38.85618983333333, "fusion_lat": 0.0, "is_reserved": 0, "rental_uris": {"ios": "https://dc.lft.to/lastmile_qr_scan", "android": "https://dc.lft.to/lastmile_qr_scan"}, "fusion_lon": 0.0, "bike_id": "0a51870aa75a328939d35209db0a69a7"}, {"type": "electric_scooter", "lon": -77.040847, "is_disabled": 0, "name": "68111b941c06f0ce56683fab7052f24c", "lat": 38.91694316666667, "fusion_lat": 0.0, "is_reserved": 0, "rental_uris": {"ios": "https://dc.lft.to/lastmile_qr_scan", "android": "https://dc.lft.to/lastmile_qr_scan"}, "fusion_lon": 0.0, "bike_id": "68111b941c06f0ce56683fab7052f24c"}, {"type": "electric_scooter", "lon": -77.03980066666666, "is_disabled": 0, "name": "6e6127f5e2a1ea5e248358d60dafc9dc", "lat": 38.90122016666667, "fusion_lat": 0.0, "is_reserved": 0, "rental_uris": {"ios": "https://dc.lft.to/lastmile_qr_scan", "android": "https://dc.lft.to/lastmile_qr_scan"}, "fusion_lon": 0.0, "bike_id": "6e6127f5e2a1ea5e248358d60dafc9dc"}, {"type": "electric_scooter", "lon": -77.01316666666666, "is_disabled": 0, "name": "d5d54fde18a51ebc033f36b5485a2c4d", "lat": 38.9565275, "fusion_lat": 0.0, "is_reserved": 0, "rental_uris": {"ios": "https://dc.lft.to/lastmile_qr_scan", "android": "https://dc.lft.to/lastmile_qr_scan"}, "fusion_lon": 0.0, "bike_id": "d5d54fde18a51ebc033f36b5485a2c4d"}, {"type": "electric_scooter", "lon": -77.00882083333333, "is_disabled": 0, "name": "0a4b92fd8052925a6c5d29842a9fde2c", "lat": 38.92481733333334, "fusion_lat": 0.0, "is_reserved": 0, "rental_uris": {"ios": "https://dc.lft.to/lastmile_qr_scan", "android": "https://dc.lft.to/lastmile_qr_scan"}, "fusion_lon": 0.0, "bike_id": "0a4b92fd8052925a6c5d29842a9fde2c"}, {"type": "electric_scooter", "lon": -77.03475566666667, "is_disabled": 0, "name": "ad2af2d2da26bb440ab98e34d8571b49", "lat": 38.88488516666666, "fusion_lat": 0.0, "is_reserved": 0, "rental_uris": {"ios": "https://dc.lft.to/lastmile_qr_scan", "android": "https://dc.lft.to/lastmile_qr_scan"}, "fusion_lon": 0.0, "bike_id": "ad2af2d2da26bb440ab98e34d8571b49"}, {"type": "electric_scooter", "lon": -77.07567833333333, "is_disabled": 0, "name": "6af3b364ed5831e98ac4a253a64dc027", "lat": 38.90742433333333, "fusion_lat": 0.0, "is_reserved": 0, "rental_uris": {"ios": "https://dc.lft.to/lastmile_qr_scan", "android": "https://dc.lft.to/lastmile_qr_scan"}, "fusion_lon": 0.0, "bike_id": "6af3b364ed5831e98ac4a253a64dc027"}, {"type": "electric_scooter", "lon": -77.02895916666667, "is_disabled": 0, "name": "48556625ab3ca8d05b10cdfae959a349", "lat": 38.9169055, "fusion_lat": 0.0, "is_reserved": 0, "rental_uris": {"ios": "https://dc.lft.to/lastmile_qr_scan", "android": "https://dc.lft.to/lastmile_qr_scan"}, "fusion_lon": 0.0, "bike_id": "48556625ab3ca8d05b10cdfae959a349"}, {"type": "electric_scooter", "lon": -77.03161766666666, "is_disabled": 0, "name": "ce17b468a2bda36f0f3c2e13e3daea04", "lat": 38.909619166666666, "fusion_lat": 0.0, "is_reserved": 0, "rental_uris": {"ios": "https://dc.lft.to/lastmile_qr_scan", "android": "https://dc.lft.to/lastmile_qr_scan"}, "fusion_lon": 0.0, "bike_id": "ce17b468a2bda36f0f3c2e13e3daea04"}, {"type": "electric_scooter", "lon": -77.01987, "is_disabled": 0, "name": "d07431a9c84972e5b4f315cb2574630a", "lat": 38.9307445, "fusion_lat": 0.0, "is_reserved": 0, "rental_uris": {"ios": "https://dc.lft.to/lastmile_qr_scan", "android": "https://dc.lft.to/lastmile_qr_scan"}, "fusion_lon": 0.0, "bike_id": "d07431a9c84972e5b4f315cb2574630a"}, {"type": "electric_scooter", "lon": -77.0269795, "is_disabled": 0, "name": "708a8a65f34b1fd5eaac33c85fc8d36b", "lat": 38.900794, "fusion_lat": 0.0, "is_reserved": 0, "rental_uris": {"ios": "https://dc.lft.to/lastmile_qr_scan", "android": "https://dc.lft.to/lastmile_qr_scan"}, "fusion_lon": 0.0, "bike_id": "708a8a65f34b1fd5eaac33c85fc8d36b"}, {"type": "electric_scooter", "lon": -77.02220983333333, "is_disabled": 0, "name": "2206d96bcc59256790e95c649dd1adb2", "lat": 38.89970783333333, "fusion_lat": 0.0, "is_reserved": 0, "rental_uris": {"ios": "https://dc.lft.to/lastmile_qr_scan", "android": "https://dc.lft.to/lastmile_qr_scan"}, "fusion_lon": 0.0, "bike_id": "2206d96bcc59256790e95c649dd1adb2"}, {"type": "electric_bike", "lon": -76.97746866666667, "is_disabled": 0, "name": "77c15dc23e438ac25a1ea816757ea98f", "lat": 38.86485716666667, "fusion_lat": 0.0, "is_reserved": 0, "rental_uris": {"ios": "https://dc.lft.to/lastmile_qr_scan", "android": "https://dc.lft.to/lastmile_qr_scan"}, "fusion_lon": 0.0, "bike_id": "77c15dc23e438ac25a1ea816757ea98f"}, {"type": "electric_scooter", "lon": -77.045444, "is_disabled": 0, "name": "997a941bd82b2aee3460eb1f10deeca0", "lat": 38.89828133333334, "fusion_lat": 0.0, "is_reserved": 0, "rental_uris": {"ios": "https://dc.lft.to/lastmile_qr_scan", "android": "https://dc.lft.to/lastmile_qr_scan"}, "fusion_lon": 0.0, "bike_id": "997a941bd82b2aee3460eb1f10deeca0"}, {"type": "electric_scooter", "lon": -76.9985055, "is_disabled": 0, "name": "8e213c3fea8e574931c197285c332eea", "lat": 38.896247, "fusion_lat": 0.0, "is_reserved": 0, "rental_uris": {"ios": "https://dc.lft.to/lastmile_qr_scan", "android": "https://dc.lft.to/lastmile_qr_scan"}, "fusion_lon": 0.0, "bike_id": "8e213c3fea8e574931c197285c332eea"}, {"type": "electric_scooter", "lon": -77.052052, "is_disabled": 0, "name": "b497c605f32b11340b8387a641dd6427", "lat": 38.9026185, "fusion_lat": 0.0, "is_reserved": 0, "rental_uris": {"ios": "https://dc.lft.to/lastmile_qr_scan", "android": "https://dc.lft.to/lastmile_qr_scan"}, "fusion_lon": 0.0, "bike_id": "b497c605f32b11340b8387a641dd6427"}, {"type": "electric_scooter", "lon": -76.99518483333334, "is_disabled": 0, "name": "248c71263a1ae549428472ec472a13ce", "lat": 38.883714833333336, "fusion_lat": 0.0, "is_reserved": 0, "rental_uris": {"ios": "https://dc.lft.to/lastmile_qr_scan", "android": "https://dc.lft.to/lastmile_qr_scan"}, "fusion_lon": 0.0, "bike_id": "248c71263a1ae549428472ec472a13ce"}, {"type": "electric_bike", "lon": -77.0656335, "is_disabled": 0, "name": "c45c7338daa1dab29ca2ea18134aa603", "lat": 38.93266633333333, "fusion_lat": 0.0, "is_reserved": 0, "rental_uris": {"ios": "https://dc.lft.to/lastmile_qr_scan", "android": "https://dc.lft.to/lastmile_qr_scan"}, "fusion_lon": 0.0, "bike_id": "c45c7338daa1dab29ca2ea18134aa603"}, {"type": "electric_scooter", "lon": -77.0282195, "is_disabled": 0, "name": "d18c5009ba5d956f096eb0716f638ad6", "lat": 38.902543333333334, "fusion_lat": 0.0, "is_reserved": 0, "rental_uris": {"ios": "https://dc.lft.to/lastmile_qr_scan", "android": "https://dc.lft.to/lastmile_qr_scan"}, "fusion_lon": 0.0, "bike_id": "d18c5009ba5d956f096eb0716f638ad6"}, {"type": "electric_scooter", "lon": -77.03658016666667, "is_disabled": 0, "name": "b1e54befbc2f865c32ae19994b6ab49d", "lat": 38.927646333333335, "fusion_lat": 0.0, "is_reserved": 0, "rental_uris": {"ios": "https://dc.lft.to/lastmile_qr_scan", "android": "https://dc.lft.to/lastmile_qr_scan"}, "fusion_lon": 0.0, "bike_id": "b1e54befbc2f865c32ae19994b6ab49d"}, {"type": "electric_scooter", "lon": -77.0263835, "is_disabled": 0, "name": "dd87ccef124c792c70f684880620b6cb", "lat": 38.93028233333333, "fusion_lat": 0.0, "is_reserved": 0, "rental_uris": {"ios": "https://dc.lft.to/lastmile_qr_scan", "android": "https://dc.lft.to/lastmile_qr_scan"}, "fusion_lon": 0.0, "bike_id": "dd87ccef124c792c70f684880620b6cb"}, {"type": "electric_scooter", "lon": -77.03133766666667, "is_disabled": 0, "name": "b91852384ac49b172af507f90a0bac59", "lat": 38.90367466666667, "fusion_lat": 0.0, "is_reserved": 0, "rental_uris": {"ios": "https://dc.lft.to/lastmile_qr_scan", "android": "https://dc.lft.to/lastmile_qr_scan"}, "fusion_lon": 0.0, "bike_id": "b91852384ac49b172af507f90a0bac59"}, {"type": "electric_scooter", "lon": -77.02837483333333, "is_disabled": 0, "name": "8eb05cfb273de823023ae488e8c20cc3", "lat": 38.924689, "fusion_lat": 0.0, "is_reserved": 0, "rental_uris": {"ios": "https://dc.lft.to/lastmile_qr_scan", "android": "https://dc.lft.to/lastmile_qr_scan"}, "fusion_lon": 0.0, "bike_id": "8eb05cfb273de823023ae488e8c20cc3"}, {"type": "electric_scooter", "lon": -77.0591215, "is_disabled": 0, "name": "dda07bf45682a985b00f849d188cb8ca", "lat": 38.9034845, "fusion_lat": 0.0, "is_reserved": 0, "rental_uris": {"ios": "https://dc.lft.to/lastmile_qr_scan", "android": "https://dc.lft.to/lastmile_qr_scan"}, "fusion_lon": 0.0, "bike_id": "dda07bf45682a985b00f849d188cb8ca"}, {"type": "electric_scooter", "lon": -77.04366433333334, "is_disabled": 0, "name": "b851470915aea10dea183b5548e8e447", "lat": 38.898601, "fusion_lat": 0.0, "is_reserved": 0, "rental_uris": {"ios": "https://dc.lft.to/lastmile_qr_scan", "android": "https://dc.lft.to/lastmile_qr_scan"}, "fusion_lon": 0.0, "bike_id": "b851470915aea10dea183b5548e8e447"}, {"type": "electric_scooter", "lon": -77.03892, "is_disabled": 0, "name": "101cfbec864c4bef8aea992f107bc27d", "lat": 38.922463666666665, "fusion_lat": 0.0, "is_reserved": 0, "rental_uris": {"ios": "https://dc.lft.to/lastmile_qr_scan", "android": "https://dc.lft.to/lastmile_qr_scan"}, "fusion_lon": 0.0, "bike_id": "101cfbec864c4bef8aea992f107bc27d"}, {"type": "electric_scooter", "lon": -77.04285116666667, "is_disabled": 0, "name": "461e4fed05f46cb831bdc2e16f04e665", "lat": 38.92292183333333, "fusion_lat": 0.0, "is_reserved": 0, "rental_uris": {"ios": "https://dc.lft.to/lastmile_qr_scan", "android": "https://dc.lft.to/lastmile_qr_scan"}, "fusion_lon": 0.0, "bike_id": "461e4fed05f46cb831bdc2e16f04e665"}, {"type": "electric_scooter", "lon": -77.01390116666667, "is_disabled": 0, "name": "db5349ab6fc2320d771eee27de88ab71", "lat": 38.8873105, "fusion_lat": 0.0, "is_reserved": 0, "rental_uris": {"ios": "https://dc.lft.to/lastmile_qr_scan", "android": "https://dc.lft.to/lastmile_qr_scan"}, "fusion_lon": 0.0, "bike_id": "db5349ab6fc2320d771eee27de88ab71"}, {"type": "electric_scooter", "lon": -77.04769466666667, "is_disabled": 0, "name": "a8988c7401dbf44f7c3f10f0dde33aab", "lat": 38.91770833333333, "fusion_lat": 0.0, "is_reserved": 0, "rental_uris": {"ios": "https://dc.lft.to/lastmile_qr_scan", "android": "https://dc.lft.to/lastmile_qr_scan"}, "fusion_lon": 0.0, "bike_id": "a8988c7401dbf44f7c3f10f0dde33aab"}, {"type": "electric_scooter", "lon": -77.025147, "is_disabled": 0, "name": "db319ceff925d3582f6dbf31e107abb8", "lat": 38.917609666666664, "fusion_lat": 0.0, "is_reserved": 0, "rental_uris": {"ios": "https://dc.lft.to/lastmile_qr_scan", "android": "https://dc.lft.to/lastmile_qr_scan"}, "fusion_lon": 0.0, "bike_id": "db319ceff925d3582f6dbf31e107abb8"}, {"type": "electric_scooter", "lon": -77.04438133333333, "is_disabled": 0, "name": "f6d08e44d4a7ce720196f15d5eda33d4", "lat": 38.90384916666667, "fusion_lat": 0.0, "is_reserved": 0, "rental_uris": {"ios": "https://dc.lft.to/lastmile_qr_scan", "android": "https://dc.lft.to/lastmile_qr_scan"}, "fusion_lon": 0.0, "bike_id": "f6d08e44d4a7ce720196f15d5eda33d4"}, {"type": "electric_scooter", "lon": -77.01909, "is_disabled": 0, "name": "f4428a68d4198aee1cc483093b72bed4", "lat": 38.93725466666667, "fusion_lat": 0.0, "is_reserved": 0, "rental_uris": {"ios": "https://dc.lft.to/lastmile_qr_scan", "android": "https://dc.lft.to/lastmile_qr_scan"}, "fusion_lon": 0.0, "bike_id": "f4428a68d4198aee1cc483093b72bed4"}, {"type": "electric_scooter", "lon": -77.0175505, "is_disabled": 0, "name": "9fd4fdc5183ea9f483e5491843f441f5", "lat": 38.90252983333333, "fusion_lat": 0.0, "is_reserved": 0, "rental_uris": {"ios": "https://dc.lft.to/lastmile_qr_scan", "android": "https://dc.lft.to/lastmile_qr_scan"}, "fusion_lon": 0.0, "bike_id": "9fd4fdc5183ea9f483e5491843f441f5"}, {"type": "electric_scooter", "lon": -77.03056066666667, "is_disabled": 0, "name": "dbbafc87c5846311da5942d0f19638b5", "lat": 38.90321183333333, "fusion_lat": 0.0, "is_reserved": 0, "rental_uris": {"ios": "https://dc.lft.to/lastmile_qr_scan", "android": "https://dc.lft.to/lastmile_qr_scan"}, "fusion_lon": 0.0, "bike_id": "dbbafc87c5846311da5942d0f19638b5"}, {"type": "electric_scooter", "lon": -77.02234516666667, "is_disabled": 0, "name": "508a39072d262750cf098336d7c3bae6", "lat": 38.91633316666667, "fusion_lat": 0.0, "is_reserved": 0, "rental_uris": {"ios": "https://dc.lft.to/lastmile_qr_scan", "android": "https://dc.lft.to/lastmile_qr_scan"}, "fusion_lon": 0.0, "bike_id": "508a39072d262750cf098336d7c3bae6"}, {"type": "electric_scooter", "lon": -77.0334925, "is_disabled": 0, "name": "9fb537788cebc9186a2ad7e01f13765d", "lat": 38.895273, "fusion_lat": 0.0, "is_reserved": 0, "rental_uris": {"ios": "https://dc.lft.to/lastmile_qr_scan", "android": "https://dc.lft.to/lastmile_qr_scan"}, "fusion_lon": 0.0, "bike_id": "9fb537788cebc9186a2ad7e01f13765d"}, {"type": "electric_scooter", "lon": -77.034076, "is_disabled": 0, "name": "a1ddc4c708a63773047a0659362c9ef6", "lat": 38.90713983333333, "fusion_lat": 0.0, "is_reserved": 0, "rental_uris": {"ios": "https://dc.lft.to/lastmile_qr_scan", "android": "https://dc.lft.to/lastmile_qr_scan"}, "fusion_lon": 0.0, "bike_id": "a1ddc4c708a63773047a0659362c9ef6"}, {"type": "electric_scooter", "lon": -77.031018, "is_disabled": 0, "name": "50e992d64f536b858a19eb9512c7e9a0", "lat": 38.9331365, "fusion_lat": 0.0, "is_reserved": 0, "rental_uris": {"ios": "https://dc.lft.to/lastmile_qr_scan", "android": "https://dc.lft.to/lastmile_qr_scan"}, "fusion_lon": 0.0, "bike_id": "50e992d64f536b858a19eb9512c7e9a0"}, {"type": "electric_bike", "lon": -77.00755883333333, "is_disabled": 0, "name": "75d7c7de001c6ab771c4bbef3d96c5d4", "lat": 38.87907933333334, "fusion_lat": 0.0, "is_reserved": 0, "rental_uris": {"ios": "https://dc.lft.to/lastmile_qr_scan", "android": "https://dc.lft.to/lastmile_qr_scan"}, "fusion_lon": 0.0, "bike_id": "75d7c7de001c6ab771c4bbef3d96c5d4"}, {"type": "electric_scooter", "lon": -77.05335233333334, "is_disabled": 0, "name": "5d2244b2aa8a2cd58627a5f858850640", "lat": 38.923208833333334, "fusion_lat": 0.0, "is_reserved": 0, "rental_uris": {"ios": "https://dc.lft.to/lastmile_qr_scan", "android": "https://dc.lft.to/lastmile_qr_scan"}, "fusion_lon": 0.0, "bike_id": "5d2244b2aa8a2cd58627a5f858850640"}, {"type": "electric_scooter", "lon": -76.996206, "is_disabled": 0, "name": "790b12eac65c92f4743dbfaf7785d259", "lat": 38.881442166666666, "fusion_lat": 0.0, "is_reserved": 0, "rental_uris": {"ios": "https://dc.lft.to/lastmile_qr_scan", "android": "https://dc.lft.to/lastmile_qr_scan"}, "fusion_lon": 0.0, "bike_id": "790b12eac65c92f4743dbfaf7785d259"}, {"type": "electric_scooter", "lon": -77.03093083333333, "is_disabled": 0, "name": "51c86e673cc2f135fad6e4223a082068", "lat": 38.910587166666666, "fusion_lat": 0.0, "is_reserved": 0, "rental_uris": {"ios": "https://dc.lft.to/lastmile_qr_scan", "android": "https://dc.lft.to/lastmile_qr_scan"}, "fusion_lon": 0.0, "bike_id": "51c86e673cc2f135fad6e4223a082068"}, {"type": "electric_scooter", "lon": -77.04213533333333, "is_disabled": 0, "name": "b1527aec1a19d548c25289127789fc92", "lat": 38.907546833333335, "fusion_lat": 0.0, "is_reserved": 0, "rental_uris": {"ios": "https://dc.lft.to/lastmile_qr_scan", "android": "https://dc.lft.to/lastmile_qr_scan"}, "fusion_lon": 0.0, "bike_id": "b1527aec1a19d548c25289127789fc92"}, {"type": "electric_bike", "lon": -77.01909516666667, "is_disabled": 0, "name": "ed2efedf7c318fa62b96ed3fe64b33b7", "lat": 38.937772833333334, "fusion_lat": 0.0, "is_reserved": 0, "rental_uris": {"ios": "https://dc.lft.to/lastmile_qr_scan", "android": "https://dc.lft.to/lastmile_qr_scan"}, "fusion_lon": 0.0, "bike_id": "ed2efedf7c318fa62b96ed3fe64b33b7"}, {"type": "electric_scooter", "lon": -77.04647733333333, "is_disabled": 0, "name": "b6777c3867a0008fd07630e72138eb37", "lat": 38.909661, "fusion_lat": 0.0, "is_reserved": 0, "rental_uris": {"ios": "https://dc.lft.to/lastmile_qr_scan", "android": "https://dc.lft.to/lastmile_qr_scan"}, "fusion_lon": 0.0, "bike_id": "b6777c3867a0008fd07630e72138eb37"}, {"type": "electric_scooter", "lon": -77.0343755, "is_disabled": 0, "name": "4d629973afc29197848d922ee8af54f3", "lat": 38.904807, "fusion_lat": 0.0, "is_reserved": 0, "rental_uris": {"ios": "https://dc.lft.to/lastmile_qr_scan", "android": "https://dc.lft.to/lastmile_qr_scan"}, "fusion_lon": 0.0, "bike_id": "4d629973afc29197848d922ee8af54f3"}, {"type": "electric_bike", "lon": -77.12919633333334, "is_disabled": 0, "name": "43c7fada7140c9e4a79ec580e68d7bca", "lat": 39.06220666666667, "fusion_lat": 0.0, "is_reserved": 0, "rental_uris": {"ios": "https://dc.lft.to/lastmile_qr_scan", "android": "https://dc.lft.to/lastmile_qr_scan"}, "fusion_lon": 0.0, "bike_id": "43c7fada7140c9e4a79ec580e68d7bca"}, {"type": "electric_scooter", "lon": -77.0253585, "is_disabled": 0, "name": "8e8bc0cc85e4753e95793b4ae5709da4", "lat": 38.90651033333333, "fusion_lat": 0.0, "is_reserved": 0, "rental_uris": {"ios": "https://dc.lft.to/lastmile_qr_scan", "android": "https://dc.lft.to/lastmile_qr_scan"}, "fusion_lon": 0.0, "bike_id": "8e8bc0cc85e4753e95793b4ae5709da4"}, {"type": "electric_bike", "lon": -76.97430716666666, "is_disabled": 0, "name": "0a6ae5baea08285a8628cafa93e8d70b", "lat": 38.85587566666667, "fusion_lat": 0.0, "is_reserved": 0, "rental_uris": {"ios": "https://dc.lft.to/lastmile_qr_scan", "android": "https://dc.lft.to/lastmile_qr_scan"}, "fusion_lon": 0.0, "bike_id": "0a6ae5baea08285a8628cafa93e8d70b"}, {"type": "electric_scooter", "lon": -77.01821466666667, "is_disabled": 0, "name": "eba896371a4eea2b29c815fe69e10338", "lat": 38.92141866666667, "fusion_lat": 0.0, "is_reserved": 0, "rental_uris": {"ios": "https://dc.lft.to/lastmile_qr_scan", "android": "https://dc.lft.to/lastmile_qr_scan"}, "fusion_lon": 0.0, "bike_id": "eba896371a4eea2b29c815fe69e10338"}, {"type": "electric_scooter", "lon": -77.0186715, "is_disabled": 0, "name": "ed88dbb3a1a1d95781a3eccffadbb872", "lat": 38.929126333333336, "fusion_lat": 0.0, "is_reserved": 0, "rental_uris": {"ios": "https://dc.lft.to/lastmile_qr_scan", "android": "https://dc.lft.to/lastmile_qr_scan"}, "fusion_lon": 0.0, "bike_id": "ed88dbb3a1a1d95781a3eccffadbb872"}, {"type": "electric_scooter", "lon": -77.02972466666667, "is_disabled": 0, "name": "e44cb196e7dbd0d734491866bff30041", "lat": 38.91230916666667, "fusion_lat": 0.0, "is_reserved": 0, "rental_uris": {"ios": "https://dc.lft.to/lastmile_qr_scan", "android": "https://dc.lft.to/lastmile_qr_scan"}, "fusion_lon": 0.0, "bike_id": "e44cb196e7dbd0d734491866bff30041"}, {"type": "electric_scooter", "lon": -77.02541816666667, "is_disabled": 0, "name": "865bd3f635c6d0d1852b267b8077cafa", "lat": 38.93281283333334, "fusion_lat": 0.0, "is_reserved": 0, "rental_uris": {"ios": "https://dc.lft.to/lastmile_qr_scan", "android": "https://dc.lft.to/lastmile_qr_scan"}, "fusion_lon": 0.0, "bike_id": "865bd3f635c6d0d1852b267b8077cafa"}, {"type": "electric_scooter", "lon": -77.04243083333333, "is_disabled": 0, "name": "1d25893f2c1c77d8719d0af1cbe41567", "lat": 38.924383666666664, "fusion_lat": 0.0, "is_reserved": 0, "rental_uris": {"ios": "https://dc.lft.to/lastmile_qr_scan", "android": "https://dc.lft.to/lastmile_qr_scan"}, "fusion_lon": 0.0, "bike_id": "1d25893f2c1c77d8719d0af1cbe41567"}, {"type": "electric_scooter", "lon": -77.04686816666667, "is_disabled": 0, "name": "4bdcfc2e0b4efcccc562983466ffb4a3", "lat": 38.8996395, "fusion_lat": 0.0, "is_reserved": 0, "rental_uris": {"ios": "https://dc.lft.to/lastmile_qr_scan", "android": "https://dc.lft.to/lastmile_qr_scan"}, "fusion_lon": 0.0, "bike_id": "4bdcfc2e0b4efcccc562983466ffb4a3"}, {"type": "electric_scooter", "lon": -77.0136215, "is_disabled": 0, "name": "74001a30e93def3a2cf0b61836a5171f", "lat": 38.886755, "fusion_lat": 0.0, "is_reserved": 0, "rental_uris": {"ios": "https://dc.lft.to/lastmile_qr_scan", "android": "https://dc.lft.to/lastmile_qr_scan"}, "fusion_lon": 0.0, "bike_id": "74001a30e93def3a2cf0b61836a5171f"}, {"type": "electric_scooter", "lon": -77.02119883333333, "is_disabled": 0, "name": "46037f2e582adee5ed218e135f20b099", "lat": 38.92375166666667, "fusion_lat": 0.0, "is_reserved": 0, "rental_uris": {"ios": "https://dc.lft.to/lastmile_qr_scan", "android": "https://dc.lft.to/lastmile_qr_scan"}, "fusion_lon": 0.0, "bike_id": "46037f2e582adee5ed218e135f20b099"}, {"type": "electric_scooter", "lon": -77.02943183333333, "is_disabled": 0, "name": "ce85948ba6fb3b4b3341ec7692eb1cf0", "lat": 38.905064333333335, "fusion_lat": 0.0, "is_reserved": 0, "rental_uris": {"ios": "https://dc.lft.to/lastmile_qr_scan", "android": "https://dc.lft.to/lastmile_qr_scan"}, "fusion_lon": 0.0, "bike_id": "ce85948ba6fb3b4b3341ec7692eb1cf0"}, {"type": "electric_scooter", "lon": -77.02594183333333, "is_disabled": 0, "name": "a839a8a3904111298b97b94e0218d922", "lat": 38.90344316666667, "fusion_lat": 0.0, "is_reserved": 0, "rental_uris": {"ios": "https://dc.lft.to/lastmile_qr_scan", "android": "https://dc.lft.to/lastmile_qr_scan"}, "fusion_lon": 0.0, "bike_id": "a839a8a3904111298b97b94e0218d922"}, {"type": "electric_scooter", "lon": -77.00210483333333, "is_disabled": 0, "name": "a04b840461aad534f2a394515361231e", "lat": 38.914717833333334, "fusion_lat": 0.0, "is_reserved": 0, "rental_uris": {"ios": "https://dc.lft.to/lastmile_qr_scan", "android": "https://dc.lft.to/lastmile_qr_scan"}, "fusion_lon": 0.0, "bike_id": "a04b840461aad534f2a394515361231e"}, {"type": "electric_scooter", "lon": -77.01955066666666, "is_disabled": 0, "name": "ed19b4263eb214286e088531dfdbaa64", "lat": 38.8848765, "fusion_lat": 0.0, "is_reserved": 0, "rental_uris": {"ios": "https://dc.lft.to/lastmile_qr_scan", "android": "https://dc.lft.to/lastmile_qr_scan"}, "fusion_lon": 0.0, "bike_id": "ed19b4263eb214286e088531dfdbaa64"}, {"type": "electric_scooter", "lon": -77.05918766666667, "is_disabled": 0, "name": "976b78bb027714c0ddffe7a47b565a0b", "lat": 38.901582, "fusion_lat": 0.0, "is_reserved": 0, "rental_uris": {"ios": "https://dc.lft.to/lastmile_qr_scan", "android": "https://dc.lft.to/lastmile_qr_scan"}, "fusion_lon": 0.0, "bike_id": "976b78bb027714c0ddffe7a47b565a0b"}, {"type": "electric_scooter", "lon": -76.9544735, "is_disabled": 0, "name": "f1f3375d5ca49e3db593db866b6e6d00", "lat": 38.8839215, "fusion_lat": 0.0, "is_reserved": 0, "rental_uris": {"ios": "https://dc.lft.to/lastmile_qr_scan", "android": "https://dc.lft.to/lastmile_qr_scan"}, "fusion_lon": 0.0, "bike_id": "f1f3375d5ca49e3db593db866b6e6d00"}, {"type": "electric_scooter", "lon": -77.03099516666667, "is_disabled": 0, "name": "fc497290ebfa2b684316c8bf056d6b01", "lat": 38.9038815, "fusion_lat": 0.0, "is_reserved": 0, "rental_uris": {"ios": "https://dc.lft.to/lastmile_qr_scan", "android": "https://dc.lft.to/lastmile_qr_scan"}, "fusion_lon": 0.0, "bike_id": "fc497290ebfa2b684316c8bf056d6b01"}, {"type": "electric_scooter", "lon": -77.04495133333333, "is_disabled": 0, "name": "c375fae19fb6a936493757878111a912", "lat": 38.91931433333333, "fusion_lat": 0.0, "is_reserved": 0, "rental_uris": {"ios": "https://dc.lft.to/lastmile_qr_scan", "android": "https://dc.lft.to/lastmile_qr_scan"}, "fusion_lon": 0.0, "bike_id": "c375fae19fb6a936493757878111a912"}, {"type": "electric_scooter", "lon": -77.02167066666667, "is_disabled": 0, "name": "cd972744fe78a62dc8847cca3466dbaf", "lat": 38.89400283333333, "fusion_lat": 0.0, "is_reserved": 0, "rental_uris": {"ios": "https://dc.lft.to/lastmile_qr_scan", "android": "https://dc.lft.to/lastmile_qr_scan"}, "fusion_lon": 0.0, "bike_id": "cd972744fe78a62dc8847cca3466dbaf"}, {"type": "electric_scooter", "lon": -77.003066, "is_disabled": 0, "name": "a8fafe1d9329e966a89a3b3960f64750", "lat": 38.876662333333336, "fusion_lat": 0.0, "is_reserved": 0, "rental_uris": {"ios": "https://dc.lft.to/lastmile_qr_scan", "android": "https://dc.lft.to/lastmile_qr_scan"}, "fusion_lon": 0.0, "bike_id": "a8fafe1d9329e966a89a3b3960f64750"}, {"type": "electric_bike", "lon": -76.99223166666667, "is_disabled": 0, "name": "b8cd429db43df8c8bea27491572f915c", "lat": 38.89738066666666, "fusion_lat": 0.0, "is_reserved": 0, "rental_uris": {"ios": "https://dc.lft.to/lastmile_qr_scan", "android": "https://dc.lft.to/lastmile_qr_scan"}, "fusion_lon": 0.0, "bike_id": "b8cd429db43df8c8bea27491572f915c"}, {"type": "electric_scooter", "lon": -77.03445533333333, "is_disabled": 0, "name": "2b5a9dd7eaea9e4d2c978f1b63fdb81d", "lat": 38.92878783333333, "fusion_lat": 0.0, "is_reserved": 0, "rental_uris": {"ios": "https://dc.lft.to/lastmile_qr_scan", "android": "https://dc.lft.to/lastmile_qr_scan"}, "fusion_lon": 0.0, "bike_id": "2b5a9dd7eaea9e4d2c978f1b63fdb81d"}, {"type": "electric_scooter", "lon": -77.03420266666667, "is_disabled": 0, "name": "35aeb4eeb4ced1f460a4e3b56db1fed4", "lat": 38.919259333333336, "fusion_lat": 0.0, "is_reserved": 0, "rental_uris": {"ios": "https://dc.lft.to/lastmile_qr_scan", "android": "https://dc.lft.to/lastmile_qr_scan"}, "fusion_lon": 0.0, "bike_id": "35aeb4eeb4ced1f460a4e3b56db1fed4"}, {"type": "electric_bike", "lon": -77.027086, "is_disabled": 0, "name": "07ebe63ef215f8da8174836900e2df6d", "lat": 38.931227, "fusion_lat": 0.0, "is_reserved": 0, "rental_uris": {"ios": "https://dc.lft.to/lastmile_qr_scan", "android": "https://dc.lft.to/lastmile_qr_scan"}, "fusion_lon": 0.0, "bike_id": "07ebe63ef215f8da8174836900e2df6d"}, {"type": "electric_scooter", "lon": -77.04501316666666, "is_disabled": 0, "name": "931f0f29f12d2bd5d31d94fdb01db4f0", "lat": 38.89945916666667, "fusion_lat": 0.0, "is_reserved": 0, "rental_uris": {"ios": "https://dc.lft.to/lastmile_qr_scan", "android": "https://dc.lft.to/lastmile_qr_scan"}, "fusion_lon": 0.0, "bike_id": "931f0f29f12d2bd5d31d94fdb01db4f0"}, {"type": "electric_scooter", "lon": -76.98702766666666, "is_disabled": 0, "name": "f6bb3d39417662398a26e202a9eb63cc", "lat": 38.85964083333333, "fusion_lat": 0.0, "is_reserved": 0, "rental_uris": {"ios": "https://dc.lft.to/lastmile_qr_scan", "android": "https://dc.lft.to/lastmile_qr_scan"}, "fusion_lon": 0.0, "bike_id": "f6bb3d39417662398a26e202a9eb63cc"}, {"type": "electric_scooter", "lon": -77.03111316666667, "is_disabled": 0, "name": "1401d8176e1a9d43d20e6bcb3a6d1ab5", "lat": 38.919203333333336, "fusion_lat": 0.0, "is_reserved": 0, "rental_uris": {"ios": "https://dc.lft.to/lastmile_qr_scan", "android": "https://dc.lft.to/lastmile_qr_scan"}, "fusion_lon": 0.0, "bike_id": "1401d8176e1a9d43d20e6bcb3a6d1ab5"}, {"type": "electric_scooter", "lon": -77.02406666666667, "is_disabled": 0, "name": "a80d7669d881b200cb8d738b26016616", "lat": 38.8981225, "fusion_lat": 0.0, "is_reserved": 0, "rental_uris": {"ios": "https://dc.lft.to/lastmile_qr_scan", "android": "https://dc.lft.to/lastmile_qr_scan"}, "fusion_lon": 0.0, "bike_id": "a80d7669d881b200cb8d738b26016616"}, {"type": "electric_scooter", "lon": -77.04180416666667, "is_disabled": 0, "name": "52046ca55751a54946b869680e20b25d", "lat": 38.904862666666666, "fusion_lat": 0.0, "is_reserved": 0, "rental_uris": {"ios": "https://dc.lft.to/lastmile_qr_scan", "android": "https://dc.lft.to/lastmile_qr_scan"}, "fusion_lon": 0.0, "bike_id": "52046ca55751a54946b869680e20b25d"}, {"type": "electric_scooter", "lon": -77.02795566666667, "is_disabled": 0, "name": "56e563f68e549eb3afb3229adab48d4e", "lat": 38.899887666666665, "fusion_lat": 0.0, "is_reserved": 0, "rental_uris": {"ios": "https://dc.lft.to/lastmile_qr_scan", "android": "https://dc.lft.to/lastmile_qr_scan"}, "fusion_lon": 0.0, "bike_id": "56e563f68e549eb3afb3229adab48d4e"}, {"type": "electric_scooter", "lon": -77.03391916666666, "is_disabled": 0, "name": "5dff2fe0a779b54353359ae326c79f88", "lat": 38.920516166666665, "fusion_lat": 0.0, "is_reserved": 0, "rental_uris": {"ios": "https://dc.lft.to/lastmile_qr_scan", "android": "https://dc.lft.to/lastmile_qr_scan"}, "fusion_lon": 0.0, "bike_id": "5dff2fe0a779b54353359ae326c79f88"}, {"type": "electric_scooter", "lon": -77.003511, "is_disabled": 0, "name": "df296c4426c778b352f1150ad90222db", "lat": 38.88705916666667, "fusion_lat": 0.0, "is_reserved": 0, "rental_uris": {"ios": "https://dc.lft.to/lastmile_qr_scan", "android": "https://dc.lft.to/lastmile_qr_scan"}, "fusion_lon": 0.0, "bike_id": "df296c4426c778b352f1150ad90222db"}, {"type": "electric_scooter", "lon": -77.02124116666667, "is_disabled": 0, "name": "ec4d812fd15e181f6ff839b4d70f8201", "lat": 38.922349833333335, "fusion_lat": 0.0, "is_reserved": 0, "rental_uris": {"ios": "https://dc.lft.to/lastmile_qr_scan", "android": "https://dc.lft.to/lastmile_qr_scan"}, "fusion_lon": 0.0, "bike_id": "ec4d812fd15e181f6ff839b4d70f8201"}, {"type": "electric_scooter", "lon": -77.01358333333333, "is_disabled": 0, "name": "051de25386e7ac146f1d1d1df9c9e0c2", "lat": 38.89813133333333, "fusion_lat": 0.0, "is_reserved": 0, "rental_uris": {"ios": "https://dc.lft.to/lastmile_qr_scan", "android": "https://dc.lft.to/lastmile_qr_scan"}, "fusion_lon": 0.0, "bike_id": "051de25386e7ac146f1d1d1df9c9e0c2"}, {"type": "electric_scooter", "lon": -77.02403166666667, "is_disabled": 0, "name": "2637a056d6ef7380e2ddbe7376f3e774", "lat": 38.92046533333333, "fusion_lat": 0.0, "is_reserved": 0, "rental_uris": {"ios": "https://dc.lft.to/lastmile_qr_scan", "android": "https://dc.lft.to/lastmile_qr_scan"}, "fusion_lon": 0.0, "bike_id": "2637a056d6ef7380e2ddbe7376f3e774"}, {"type": "electric_bike", "lon": -77.08521566666667, "is_disabled": 0, "name": "6a7b78941625eb0882d8f95c7819ef22", "lat": 38.85859116666666, "fusion_lat": 0.0, "is_reserved": 0, "rental_uris": {"ios": "https://dc.lft.to/lastmile_qr_scan", "android": "https://dc.lft.to/lastmile_qr_scan"}, "fusion_lon": 0.0, "bike_id": "6a7b78941625eb0882d8f95c7819ef22"}, {"type": "electric_scooter", "lon": -77.0213595, "is_disabled": 0, "name": "f230e5b41064c64fac414c8493b26a83", "lat": 38.919079333333336, "fusion_lat": 0.0, "is_reserved": 0, "rental_uris": {"ios": "https://dc.lft.to/lastmile_qr_scan", "android": "https://dc.lft.to/lastmile_qr_scan"}, "fusion_lon": 0.0, "bike_id": "f230e5b41064c64fac414c8493b26a83"}, {"type": "electric_scooter", "lon": -76.99328966666667, "is_disabled": 0, "name": "b2e2f44e74cabfde9d300cd1ffc409b2", "lat": 38.90624183333333, "fusion_lat": 0.0, "is_reserved": 0, "rental_uris": {"ios": "https://dc.lft.to/lastmile_qr_scan", "android": "https://dc.lft.to/lastmile_qr_scan"}, "fusion_lon": 0.0, "bike_id": "b2e2f44e74cabfde9d300cd1ffc409b2"}, {"type": "electric_scooter", "lon": -77.0434685, "is_disabled": 0, "name": "444d33f6a7b99470ddf4d8cdba76b6f2", "lat": 38.9053745, "fusion_lat": 0.0, "is_reserved": 0, "rental_uris": {"ios": "https://dc.lft.to/lastmile_qr_scan", "android": "https://dc.lft.to/lastmile_qr_scan"}, "fusion_lon": 0.0, "bike_id": "444d33f6a7b99470ddf4d8cdba76b6f2"}, {"type": "electric_scooter", "lon": -77.03205966666667, "is_disabled": 0, "name": "7c0f3827b5533ef20de7703f4816d173", "lat": 38.9008075, "fusion_lat": 0.0, "is_reserved": 0, "rental_uris": {"ios": "https://dc.lft.to/lastmile_qr_scan", "android": "https://dc.lft.to/lastmile_qr_scan"}, "fusion_lon": 0.0, "bike_id": "7c0f3827b5533ef20de7703f4816d173"}, {"type": "electric_scooter", "lon": -77.02571666666667, "is_disabled": 0, "name": "93a6a06a6ee604d67a1cf6cb8d797596", "lat": 38.9269425, "fusion_lat": 0.0, "is_reserved": 0, "rental_uris": {"ios": "https://dc.lft.to/lastmile_qr_scan", "android": "https://dc.lft.to/lastmile_qr_scan"}, "fusion_lon": 0.0, "bike_id": "93a6a06a6ee604d67a1cf6cb8d797596"}, {"type": "electric_scooter", "lon": -77.02176816666666, "is_disabled": 0, "name": "e48d45ab404d4a79e6c8f7bb1f8ba165", "lat": 38.88336416666667, "fusion_lat": 0.0, "is_reserved": 0, "rental_uris": {"ios": "https://dc.lft.to/lastmile_qr_scan", "android": "https://dc.lft.to/lastmile_qr_scan"}, "fusion_lon": 0.0, "bike_id": "e48d45ab404d4a79e6c8f7bb1f8ba165"}, {"type": "electric_scooter", "lon": -77.01948383333334, "is_disabled": 0, "name": "104a9d79519144ceb0c90d24d89e9c4d", "lat": 38.92259383333333, "fusion_lat": 0.0, "is_reserved": 0, "rental_uris": {"ios": "https://dc.lft.to/lastmile_qr_scan", "android": "https://dc.lft.to/lastmile_qr_scan"}, "fusion_lon": 0.0, "bike_id": "104a9d79519144ceb0c90d24d89e9c4d"}, {"type": "electric_scooter", "lon": -77.04336983333333, "is_disabled": 0, "name": "9b905f874268959a412c0ad1f289b560", "lat": 38.908749, "fusion_lat": 0.0, "is_reserved": 0, "rental_uris": {"ios": "https://dc.lft.to/lastmile_qr_scan", "android": "https://dc.lft.to/lastmile_qr_scan"}, "fusion_lon": 0.0, "bike_id": "9b905f874268959a412c0ad1f289b560"}, {"type": "electric_scooter", "lon": -77.05437, "is_disabled": 0, "name": "30eda4c28106b86bbe87fe75932d431e", "lat": 38.9285095, "fusion_lat": 0.0, "is_reserved": 0, "rental_uris": {"ios": "https://dc.lft.to/lastmile_qr_scan", "android": "https://dc.lft.to/lastmile_qr_scan"}, "fusion_lon": 0.0, "bike_id": "30eda4c28106b86bbe87fe75932d431e"}, {"type": "electric_scooter", "lon": -77.03194166666667, "is_disabled": 0, "name": "527ee14aa73d72f3d060847921d001ca", "lat": 38.91134383333333, "fusion_lat": 0.0, "is_reserved": 0, "rental_uris": {"ios": "https://dc.lft.to/lastmile_qr_scan", "android": "https://dc.lft.to/lastmile_qr_scan"}, "fusion_lon": 0.0, "bike_id": "527ee14aa73d72f3d060847921d001ca"}, {"type": "electric_scooter", "lon": -77.021242, "is_disabled": 0, "name": "dddc2776d1bf8fe8a876758f60fe6b86", "lat": 38.92376766666667, "fusion_lat": 0.0, "is_reserved": 0, "rental_uris": {"ios": "https://dc.lft.to/lastmile_qr_scan", "android": "https://dc.lft.to/lastmile_qr_scan"}, "fusion_lon": 0.0, "bike_id": "dddc2776d1bf8fe8a876758f60fe6b86"}, {"type": "electric_scooter", "lon": -77.02958816666667, "is_disabled": 0, "name": "d5af674ff577616dafc8d74b802bb9d6", "lat": 38.911771, "fusion_lat": 0.0, "is_reserved": 0, "rental_uris": {"ios": "https://dc.lft.to/lastmile_qr_scan", "android": "https://dc.lft.to/lastmile_qr_scan"}, "fusion_lon": 0.0, "bike_id": "d5af674ff577616dafc8d74b802bb9d6"}, {"type": "electric_scooter", "lon": -77.032209, "is_disabled": 0, "name": "034bce55ca9bd449f52d3bafb2e7710c", "lat": 38.9198285, "fusion_lat": 0.0, "is_reserved": 0, "rental_uris": {"ios": "https://dc.lft.to/lastmile_qr_scan", "android": "https://dc.lft.to/lastmile_qr_scan"}, "fusion_lon": 0.0, "bike_id": "034bce55ca9bd449f52d3bafb2e7710c"}, {"type": "electric_scooter", "lon": -77.02134916666667, "is_disabled": 0, "name": "04fc763937e9036629c816f9b71a5b86", "lat": 38.923732, "fusion_lat": 0.0, "is_reserved": 0, "rental_uris": {"ios": "https://dc.lft.to/lastmile_qr_scan", "android": "https://dc.lft.to/lastmile_qr_scan"}, "fusion_lon": 0.0, "bike_id": "04fc763937e9036629c816f9b71a5b86"}, {"type": "electric_scooter", "lon": -76.98634866666667, "is_disabled": 0, "name": "b0958b00d2ef30cd43e6ad8b618205fd", "lat": 38.906817, "fusion_lat": 0.0, "is_reserved": 0, "rental_uris": {"ios": "https://dc.lft.to/lastmile_qr_scan", "android": "https://dc.lft.to/lastmile_qr_scan"}, "fusion_lon": 0.0, "bike_id": "b0958b00d2ef30cd43e6ad8b618205fd"}, {"type": "electric_scooter", "lon": -77.02489133333333, "is_disabled": 0, "name": "ac9be6fde8e058f734262541939b7910", "lat": 38.91752066666667, "fusion_lat": 0.0, "is_reserved": 0, "rental_uris": {"ios": "https://dc.lft.to/lastmile_qr_scan", "android": "https://dc.lft.to/lastmile_qr_scan"}, "fusion_lon": 0.0, "bike_id": "ac9be6fde8e058f734262541939b7910"}, {"type": "electric_scooter", "lon": -77.01581783333333, "is_disabled": 0, "name": "01af857e6c4a7648aa3047abee060701", "lat": 38.9205175, "fusion_lat": 0.0, "is_reserved": 0, "rental_uris": {"ios": "https://dc.lft.to/lastmile_qr_scan", "android": "https://dc.lft.to/lastmile_qr_scan"}, "fusion_lon": 0.0, "bike_id": "01af857e6c4a7648aa3047abee060701"}, {"type": "electric_scooter", "lon": -77.016214, "is_disabled": 0, "name": "7f994df525748589dc274b7887014008", "lat": 38.903242166666665, "fusion_lat": 0.0, "is_reserved": 0, "rental_uris": {"ios": "https://dc.lft.to/lastmile_qr_scan", "android": "https://dc.lft.to/lastmile_qr_scan"}, "fusion_lon": 0.0, "bike_id": "7f994df525748589dc274b7887014008"}, {"type": "electric_scooter", "lon": -77.032639, "is_disabled": 0, "name": "d7f61ed3c37ca66ae00180c1c54fd2b0", "lat": 38.939417, "fusion_lat": 0.0, "is_reserved": 0, "rental_uris": {"ios": "https://dc.lft.to/lastmile_qr_scan", "android": "https://dc.lft.to/lastmile_qr_scan"}, "fusion_lon": 0.0, "bike_id": "d7f61ed3c37ca66ae00180c1c54fd2b0"}, {"type": "electric_bike", "lon": -77.00417933333334, "is_disabled": 0, "name": "ac0cb89fcf0d1b6c8e4da1361dd99a06", "lat": 38.98526716666667, "fusion_lat": 0.0, "is_reserved": 0, "rental_uris": {"ios": "https://dc.lft.to/lastmile_qr_scan", "android": "https://dc.lft.to/lastmile_qr_scan"}, "fusion_lon": 0.0, "bike_id": "ac0cb89fcf0d1b6c8e4da1361dd99a06"}, {"type": "electric_scooter", "lon": -76.99159483333334, "is_disabled": 0, "name": "da95e831e899686a0e2bdbc4086e2612", "lat": 38.9083115, "fusion_lat": 0.0, "is_reserved": 0, "rental_uris": {"ios": "https://dc.lft.to/lastmile_qr_scan", "android": "https://dc.lft.to/lastmile_qr_scan"}, "fusion_lon": 0.0, "bike_id": "da95e831e899686a0e2bdbc4086e2612"}, {"type": "electric_scooter", "lon": -77.0388005, "is_disabled": 0, "name": "1f51e0b9ec89e76195a4241457327616", "lat": 38.918082166666665, "fusion_lat": 0.0, "is_reserved": 0, "rental_uris": {"ios": "https://dc.lft.to/lastmile_qr_scan", "android": "https://dc.lft.to/lastmile_qr_scan"}, "fusion_lon": 0.0, "bike_id": "1f51e0b9ec89e76195a4241457327616"}, {"type": "electric_scooter", "lon": -77.02814633333334, "is_disabled": 0, "name": "b96bcdf88d0c1909be4d9aed4e10eb1e", "lat": 38.931280666666666, "fusion_lat": 0.0, "is_reserved": 0, "rental_uris": {"ios": "https://dc.lft.to/lastmile_qr_scan", "android": "https://dc.lft.to/lastmile_qr_scan"}, "fusion_lon": 0.0, "bike_id": "b96bcdf88d0c1909be4d9aed4e10eb1e"}, {"type": "electric_scooter", "lon": -77.06234133333334, "is_disabled": 0, "name": "72a1c2c0ac187ac2f629f13c10d190a6", "lat": 38.911575, "fusion_lat": 0.0, "is_reserved": 0, "rental_uris": {"ios": "https://dc.lft.to/lastmile_qr_scan", "android": "https://dc.lft.to/lastmile_qr_scan"}, "fusion_lon": 0.0, "bike_id": "72a1c2c0ac187ac2f629f13c10d190a6"}, {"type": "electric_scooter", "lon": -77.03304666666666, "is_disabled": 0, "name": "ff935d028a000b2f0694e032a2ccaf2f", "lat": 38.9274555, "fusion_lat": 0.0, "is_reserved": 0, "rental_uris": {"ios": "https://dc.lft.to/lastmile_qr_scan", "android": "https://dc.lft.to/lastmile_qr_scan"}, "fusion_lon": 0.0, "bike_id": "ff935d028a000b2f0694e032a2ccaf2f"}, {"type": "electric_scooter", "lon": -77.01959266666667, "is_disabled": 0, "name": "82fa6276197caa28c06d9eb658d9b918", "lat": 38.93423633333333, "fusion_lat": 0.0, "is_reserved": 0, "rental_uris": {"ios": "https://dc.lft.to/lastmile_qr_scan", "android": "https://dc.lft.to/lastmile_qr_scan"}, "fusion_lon": 0.0, "bike_id": "82fa6276197caa28c06d9eb658d9b918"}, {"type": "electric_scooter", "lon": -77.04683533333333, "is_disabled": 0, "name": "860c14927e1c9199d2e920906091de44", "lat": 38.899624, "fusion_lat": 0.0, "is_reserved": 0, "rental_uris": {"ios": "https://dc.lft.to/lastmile_qr_scan", "android": "https://dc.lft.to/lastmile_qr_scan"}, "fusion_lon": 0.0, "bike_id": "860c14927e1c9199d2e920906091de44"}, {"type": "electric_scooter", "lon": -77.04494566666666, "is_disabled": 0, "name": "81139368c960cf030bf92aa19cd3e21f", "lat": 38.90029066666666, "fusion_lat": 0.0, "is_reserved": 0, "rental_uris": {"ios": "https://dc.lft.to/lastmile_qr_scan", "android": "https://dc.lft.to/lastmile_qr_scan"}, "fusion_lon": 0.0, "bike_id": "81139368c960cf030bf92aa19cd3e21f"}, {"type": "electric_scooter", "lon": -77.0117205, "is_disabled": 0, "name": "274fdc6acf9d6731a4674022f29723ea", "lat": 38.900181833333335, "fusion_lat": 0.0, "is_reserved": 0, "rental_uris": {"ios": "https://dc.lft.to/lastmile_qr_scan", "android": "https://dc.lft.to/lastmile_qr_scan"}, "fusion_lon": 0.0, "bike_id": "274fdc6acf9d6731a4674022f29723ea"}, {"type": "electric_bike", "lon": -76.99913266666667, "is_disabled": 0, "name": "f89175f384ef37ed6c8f431d3421e6c9", "lat": 38.864444166666665, "fusion_lat": 0.0, "is_reserved": 0, "rental_uris": {"ios": "https://dc.lft.to/lastmile_qr_scan", "android": "https://dc.lft.to/lastmile_qr_scan"}, "fusion_lon": 0.0, "bike_id": "f89175f384ef37ed6c8f431d3421e6c9"}, {"type": "electric_scooter", "lon": -77.01757666666667, "is_disabled": 0, "name": "c9523f7e499971486b4f462c81ba99c6", "lat": 38.90256633333333, "fusion_lat": 0.0, "is_reserved": 0, "rental_uris": {"ios": "https://dc.lft.to/lastmile_qr_scan", "android": "https://dc.lft.to/lastmile_qr_scan"}, "fusion_lon": 0.0, "bike_id": "c9523f7e499971486b4f462c81ba99c6"}, {"type": "electric_scooter", "lon": -76.93019333333334, "is_disabled": 0, "name": "23a10cf79fce4820ecda8850b1fddc7c", "lat": 38.901271, "fusion_lat": 0.0, "is_reserved": 0, "rental_uris": {"ios": "https://dc.lft.to/lastmile_qr_scan", "android": "https://dc.lft.to/lastmile_qr_scan"}, "fusion_lon": 0.0, "bike_id": "23a10cf79fce4820ecda8850b1fddc7c"}, {"type": "electric_scooter", "lon": -77.01947783333334, "is_disabled": 0, "name": "aaf4a31d9fdbc495c2e604e388de5241", "lat": 38.92419116666667, "fusion_lat": 0.0, "is_reserved": 0, "rental_uris": {"ios": "https://dc.lft.to/lastmile_qr_scan", "android": "https://dc.lft.to/lastmile_qr_scan"}, "fusion_lon": 0.0, "bike_id": "aaf4a31d9fdbc495c2e604e388de5241"}, {"type": "electric_scooter", "lon": -77.05602, "is_disabled": 0, "name": "175844130fcfd4772bd34fb56d0bb782", "lat": 38.9369985, "fusion_lat": 0.0, "is_reserved": 0, "rental_uris": {"ios": "https://dc.lft.to/lastmile_qr_scan", "android": "https://dc.lft.to/lastmile_qr_scan"}, "fusion_lon": 0.0, "bike_id": "175844130fcfd4772bd34fb56d0bb782"}, {"type": "electric_scooter", "lon": -76.98797583333334, "is_disabled": 0, "name": "5a118993917b2f5597e2de6f6f9f0b9f", "lat": 38.900294333333335, "fusion_lat": 0.0, "is_reserved": 0, "rental_uris": {"ios": "https://dc.lft.to/lastmile_qr_scan", "android": "https://dc.lft.to/lastmile_qr_scan"}, "fusion_lon": 0.0, "bike_id": "5a118993917b2f5597e2de6f6f9f0b9f"}, {"type": "electric_scooter", "lon": -77.00106566666666, "is_disabled": 0, "name": "7ab5f1147985d7d4ca77611706f2e7e7", "lat": 38.876295, "fusion_lat": 0.0, "is_reserved": 0, "rental_uris": {"ios": "https://dc.lft.to/lastmile_qr_scan", "android": "https://dc.lft.to/lastmile_qr_scan"}, "fusion_lon": 0.0, "bike_id": "7ab5f1147985d7d4ca77611706f2e7e7"}, {"type": "electric_scooter", "lon": -77.02540116666667, "is_disabled": 0, "name": "bd88cb9c4c9d7ecaecdae029d634b146", "lat": 38.921609333333336, "fusion_lat": 0.0, "is_reserved": 0, "rental_uris": {"ios": "https://dc.lft.to/lastmile_qr_scan", "android": "https://dc.lft.to/lastmile_qr_scan"}, "fusion_lon": 0.0, "bike_id": "bd88cb9c4c9d7ecaecdae029d634b146"}, {"type": "electric_scooter", "lon": -77.03103333333334, "is_disabled": 0, "name": "84ef7b502db81699f2dacabd9717ccae", "lat": 38.9419885, "fusion_lat": 0.0, "is_reserved": 0, "rental_uris": {"ios": "https://dc.lft.to/lastmile_qr_scan", "android": "https://dc.lft.to/lastmile_qr_scan"}, "fusion_lon": 0.0, "bike_id": "84ef7b502db81699f2dacabd9717ccae"},