{"data": {"bikes": [{"is_reserved": 0, "type": "electric_bike", "fusion_lat": 0.0, "is_disabled": 0, "rental_uris": {"ios": "https://dc.lft.to/lastmile_qr_scan", "android": "https://dc.lft.to/lastmile_qr_scan"}, "bike_id": "4566fa76dd1806a958511ad7b6ca8988", "lat": 38.830654, "name": "4566fa76dd1806a958511ad7b6ca8988", "lon": -77.0407755, "fusion_lon": 0.0}, {"is_reserved": 0, "type": "electric_scooter", "fusion_lat": 0.0, "is_disabled": 0, "rental_uris": {"ios": "https://dc.lft.to/lastmile_qr_scan", "android": "https://dc.lft.to/lastmile_qr_scan"}, "bike_id": "ff12301c9a3147b4244a0146e347e8a5", "lat": 38.952335, "name": "ff12301c9a3147b4244a0146e347e8a5", "lon": -77.00953433333333, "fusion_lon": 0.0}, {"is_reserved": 0, "type": "electric_bike", "fusion_lat": 0.0, "is_disabled": 0, "rental_uris": {"ios": "https://dc.lft.to/lastmile_qr_scan", "android": "https://dc.lft.to/lastmile_qr_scan"}, "bike_id": "a31aabe355f3b3c3353aa3779e5787cb", "lat": 39.00379133333333, "name": "a31aabe355f3b3c3353aa3779e5787cb", "lon": -77.01282266666666, "fusion_lon": 0.0}, {"is_reserved": 0, "type": "electric_scooter", "fusion_lat": 0.0, "is_disabled": 0, "rental_uris": {"ios": "https://dc.lft.to/lastmile_qr_scan", "android": "https://dc.lft.to/lastmile_qr_scan"}, "bike_id": "8aa197ff88014be5768dd46260fe03a6", "lat": 38.89834966666667, "name": "8aa197ff88014be5768dd46260fe03a6", "lon": -76.946344, "fusion_lon": 0.0}, {"is_reserved": 0, "type": "electric_scooter", "fusion_lat": 0.0, "is_disabled": 0, "rental_uris": {"ios": "https://dc.lft.to/lastmile_qr_scan", "android": "https://dc.lft.to/lastmile_qr_scan"}, "bike_id": "8bb78f874fad759c357b25b9e6ad582f", "lat": 38.903419666666665, "name": "8bb78f874fad759c357b25b9e6ad582f", "lon": -77.026033, "fusion_lon": 0.0}, {"is_reserved": 0, "type": "electric_scooter", "fusion_lat": 0.0, "is_disabled": 0, "rental_uris": {"ios": "https://dc.lft.to/lastmile_qr_scan", "android": "https://dc.lft.to/lastmile_qr_scan"}, "bike_id": "6e67b25637cb0d844dfe66745e6d82c4", "lat": 38.892282, "name": "6e67b25637cb0d844dfe66745e6d82c4", "lon": -77.04485516666666, "fusion_lon": 0.0}, {"is_reserved": 0, "type": "electric_scooter", "fusion_lat": 0.0, "is_disabled": 0, "rental_uris": {"ios": "https://dc.lft.to/lastmile_qr_scan", "android": "https://dc.lft.to/lastmile_qr_scan"}, "bike_id": "1d7e5fea348b74ffe37de06d450aa0d3", "lat": 38.901047, "name": "1d7e5fea348b74ffe37de06d450aa0d3", "lon": -77.034305, "fusion_lon": 0.0}, {"is_reserved": 0, "type": "electric_scooter", "fusion_lat": 0.0, "is_disabled": 0, "rental_uris": {"ios": "https://dc.lft.to/lastmile_qr_scan", "android": "https://dc.lft.to/lastmile_qr_scan"}, "bike_id": "ce5676e383ba145fb3c18d2a7a44ad79", "lat": 38.89868233333333, "name": "ce5676e383ba145fb3c18d2a7a44ad79", "lon": -76.9463225, "fusion_lon": 0.0}, {"is_reserved": 0, "type": "electric_scooter", "fusion_lat": 0.0, "is_disabled": 0, "rental_uris": {"ios": "https://dc.lft.to/lastmile_qr_scan", "android": "https://dc.lft.to/lastmile_qr_scan"}, "bike_id": "09a8df00bf244022e6b5c1e4c221b5ca", "lat": 38.87069183333333, "name": "09a8df00bf244022e6b5c1e4c221b5ca", "lon": -76.979368, "fusion_lon": 0.0}, {"is_reserved": 0, "type": "electric_scooter", "fusion_lat": 0.0, "is_disabled": 0, "rental_uris": {"ios": "https://dc.lft.to/lastmile_qr_scan", "android": "https://dc.lft.to/lastmile_qr_scan"}, "bike_id": "1be4fc5ea6c6aa3948648decbb4ee4cd", "lat": 38.897671333333335, "name": "1be4fc5ea6c6aa3948648decbb4ee4cd", "lon": -77.04822633333333, "fusion_lon": 0.0}, {"is_reserved": 0, "type": "electric_scooter", "fusion_lat": 0.0, "is_disabled": 0, "rental_uris": {"ios": "https://dc.lft.to/lastmile_qr_scan", "android": "https://dc.lft.to/lastmile_qr_scan"}, "bike_id": "e294ad55aa9e41f9ebacbe47864e1810", "lat": 38.89631333333333, "name": "e294ad55aa9e41f9ebacbe47864e1810", "lon": -77.04014683333334, "fusion_lon": 0.0}, {"is_reserved": 0, "type": "electric_scooter", "fusion_lat": 0.0, "is_disabled": 0, "rental_uris": {"ios": "https://dc.lft.to/lastmile_qr_scan", "android": "https://dc.lft.to/lastmile_qr_scan"}, "bike_id": "36874aa545db591138c12337afe01330", "lat": 38.9356645, "name": "36874aa545db591138c12337afe01330", "lon": -77.028536, "fusion_lon": 0.0}, {"is_reserved": 0, "type": "electric_scooter", "fusion_lat": 0.0, "is_disabled": 0, "rental_uris": {"ios": "https://dc.lft.to/lastmile_qr_scan", "android": "https://dc.lft.to/lastmile_qr_scan"}, "bike_id": "e13723700b181e54046276635f5d91af", "lat": 38.911917, "name": "e13723700b181e54046276635f5d91af", "lon": -77.01765166666667, "fusion_lon": 0.0}, {"is_reserved": 0, "type": "electric_bike", "fusion_lat": 0.0, "is_disabled": 0, "rental_uris": {"ios": "https://dc.lft.to/lastmile_qr_scan", "android": "https://dc.lft.to/lastmile_qr_scan"}, "bike_id": "8ba74c14ac400eb6e3303233700ea98c", "lat": 38.998306, "name": "8ba74c14ac400eb6e3303233700ea98c", "lon": -76.997255, "fusion_lon": 0.0}, {"is_reserved": 0, "type": "electric_scooter", "fusion_lat": 0.0, "is_disabled": 0, "rental_uris": {"ios": "https://dc.lft.to/lastmile_qr_scan", "android": "https://dc.lft.to/lastmile_qr_scan"}, "bike_id": "2b246172c96d08ae2371d84d340c2328", "lat": 38.92887483333333, "name": "2b246172c96d08ae2371d84d340c2328", "lon": -77.03876, "fusion_lon": 0.0}, {"is_reserved": 0, "type": "electric_scooter", "fusion_lat": 0.0, "is_disabled": 0, "rental_uris": {"ios": "https://dc.lft.to/lastmile_qr_scan", "android": "https://dc.lft.to/lastmile_qr_scan"}, "bike_id": "d86f5c52e82c788b41f709480ed652a3", "lat": 38.9215115, "name": "d86f5c52e82c788b41f709480ed652a3", "lon": -77.0338065, "fusion_lon": 0.0}, {"is_reserved": 0, "type": "electric_scooter", "fusion_lat": 0.0, "is_disabled": 0, "rental_uris": {"ios": "https://dc.lft.to/lastmile_qr_scan", "android": "https://dc.lft.to/lastmile_qr_scan"}, "bike_id": "2491f0246b9bf9f9a6bd79e3d6a94306", "lat": 38.902894833333335, "name": "2491f0246b9bf9f9a6bd79e3d6a94306", "lon": -77.03362316666667, "fusion_lon": 0.0}, {"is_reserved": 0, "type": "electric_scooter", "fusion_lat": 0.0, "is_disabled": 0, "rental_uris": {"ios": "https://dc.lft.to/lastmile_qr_scan", "android": "https://dc.lft.to/lastmile_qr_scan"}, "bike_id": "cb807d5387aff1d345075cced00e9031", "lat": 38.883815, "name": "cb807d5387aff1d345075cced00e9031", "lon": -77.046057, "fusion_lon": 0.0}, {"is_reserved": 0, "type": "electric_scooter", "fusion_lat": 0.0, "is_disabled": 0, "rental_uris": {"ios": "https://dc.lft.to/lastmile_qr_scan", "android": "https://dc.lft.to/lastmile_qr_scan"}, "bike_id": "e8447c318cf016c94d5e4cf0c0eac9cf", "lat": 38.9595675, "name": "e8447c318cf016c94d5e4cf0c0eac9cf", "lon": -77.03324166666667, "fusion_lon": 0.0}, {"is_reserved": 0, "type": "electric_scooter", "fusion_lat": 0.0, "is_disabled": 0, "rental_uris": {"ios": "https://dc.lft.to/lastmile_qr_scan", "android": "https://dc.lft.to/lastmile_qr_scan"}, "bike_id": "36f9eab9516be59849bdf5c4e9b7d887", "lat": 38.9127585, "name": "36f9eab9516be59849bdf5c4e9b7d887", "lon": -77.046618, "fusion_lon": 0.0}, {"is_reserved": 0, "type": "electric_scooter", "fusion_lat": 0.0, "is_disabled": 0, "rental_uris": {"ios": "https://dc.lft.to/lastmile_qr_scan", "android": "https://dc.lft.to/lastmile_qr_scan"}, "bike_id": "6d052d8438805b7b519c04a13bd4a900", "lat": 38.89210533333333, "name": "6d052d8438805b7b519c04a13bd4a900", "lon": -76.961167, "fusion_lon": 0.0}, {"is_reserved": 0, "type": "electric_bike", "fusion_lat": 0.0, "is_disabled": 0, "rental_uris": {"ios": "https://dc.lft.to/lastmile_qr_scan", "android": "https://dc.lft.to/lastmile_qr_scan"}, "bike_id": "3787f732318f1768fde6f22430ece562", "lat": 38.875702, "name": "3787f732318f1768fde6f22430ece562", "lon": -77.0470515, "fusion_lon": 0.0}, {"is_reserved": 0, "type": "electric_scooter", "fusion_lat": 0.0, "is_disabled": 0, "rental_uris": {"ios": "https://dc.lft.to/lastmile_qr_scan", "android": "https://dc.lft.to/lastmile_qr_scan"}, "bike_id": "bc5ad0a090d6d315d6a4e7cc273e242f", "lat": 38.912505833333334, "name": "bc5ad0a090d6d315d6a4e7cc273e242f", "lon": -76.98676416666666, "fusion_lon": 0.0}, {"is_reserved": 0, "type": "electric_scooter", "fusion_lat": 0.0, "is_disabled": 0, "rental_uris": {"ios": "https://dc.lft.to/lastmile_qr_scan", "android": "https://dc.lft.to/lastmile_qr_scan"}, "bike_id": "325e1868573fec1b7093547d6b307e41", "lat": 38.91662216666667, "name": "325e1868573fec1b7093547d6b307e41", "lon": -77.0230935, "fusion_lon": 0.0}, {"is_reserved": 0, "type": "electric_bike", "fusion_lat": 0.0, "is_disabled": 0, "rental_uris": {"ios": "https://dc.lft.to/lastmile_qr_scan", "android": "https://dc.lft.to/lastmile_qr_scan"}, "bike_id": "5193d2b1168af0b450e90511a6141eef", "lat": 38.80524183333333, "name": "5193d2b1168af0b450e90511a6141eef", "lon": -77.04336633333334, "fusion_lon": 0.0}, {"is_reserved": 0, "type": "electric_scooter", "fusion_lat": 0.0, "is_disabled": 0, "rental_uris": {"ios": "https://dc.lft.to/lastmile_qr_scan", "android": "https://dc.lft.to/lastmile_qr_scan"}, "bike_id": "0ed89bae8c8d6d05b98109373b8ac140", "lat": 38.93174033333333, "name": "0ed89bae8c8d6d05b98109373b8ac140", "lon": -77.03147466666667, "fusion_lon": 0.0}, {"is_reserved": 0, "type": "electric_scooter", "fusion_lat": 0.0, "is_disabled": 0, "rental_uris": {"ios": "https://dc.lft.to/lastmile_qr_scan", "android": "https://dc.lft.to/lastmile_qr_scan"}, "bike_id": "65b20322dbc57c3dbc6a696a26a6a092", "lat": 38.91075083333333, "name": "65b20322dbc57c3dbc6a696a26a6a092", "lon": -77.01614416666666, "fusion_lon": 0.0}, {"is_reserved": 0, "type": "electric_scooter", "fusion_lat": 0.0, "is_disabled": 0, "rental_uris": {"ios": "https://dc.lft.to/lastmile_qr_scan", "android": "https://dc.lft.to/lastmile_qr_scan"}, "bike_id": "733291e7f091ea186ca4f2bf1673b58b", "lat": 38.975016, "name": "733291e7f091ea186ca4f2bf1673b58b", "lon": -77.01700016666666, "fusion_lon": 0.0}, {"is_reserved": 0, "type": "electric_scooter", "fusion_lat": 0.0, "is_disabled": 0, "rental_uris": {"ios": "https://dc.lft.to/lastmile_qr_scan", "android": "https://dc.lft.to/lastmile_qr_scan"}, "bike_id": "010aef902e5d06aafe8559bc1776829f", "lat": 38.92171233333333, "name": "010aef902e5d06aafe8559bc1776829f", "lon": -77.03828133333333, "fusion_lon": 0.0}, {"is_reserved": 0, "type": "electric_scooter", "fusion_lat": 0.0, "is_disabled": 0, "rental_uris": {"ios": "https://dc.lft.to/lastmile_qr_scan", "android": "https://dc.lft.to/lastmile_qr_scan"}, "bike_id": "e96119261c5f9cd5f630948bacc23d84", "lat": 38.9011625, "name": "e96119261c5f9cd5f630948bacc23d84", "lon": -77.01818533333334, "fusion_lon": 0.0}, {"is_reserved": 0, "type": "electric_bike", "fusion_lat": 0.0, "is_disabled": 0, "rental_uris": {"ios": "https://dc.lft.to/lastmile_qr_scan", "android": "https://dc.lft.to/lastmile_qr_scan"}, "bike_id": "f02577b6962e2e24416fafcd7cf6a757", "lat": 38.86555383333334, "name": "f02577b6962e2e24416fafcd7cf6a757", "lon": -76.94148966666667, "fusion_lon": 0.0}, {"is_reserved": 0, "type": "electric_bike", "fusion_lat": 0.0, "is_disabled": 0, "rental_uris": {"ios": "https://dc.lft.to/lastmile_qr_scan", "android": "https://dc.lft.to/lastmile_qr_scan"}, "bike_id": "3d914b7bf1890d93cf114594aa711e94", "lat": 38.81336666666667, "name": "3d914b7bf1890d93cf114594aa711e94", "lon": -77.0509295, "fusion_lon": 0.0}, {"is_reserved": 0, "type": "electric_scooter", "fusion_lat": 0.0, "is_disabled": 0, "rental_uris": {"ios": "https://dc.lft.to/lastmile_qr_scan", "android": "https://dc.lft.to/lastmile_qr_scan"}, "bike_id": "9e0147aba9f1675b055f683a7b80a53a", "lat": 38.91733133333334, "name": "9e0147aba9f1675b055f683a7b80a53a", "lon": -77.0360585, "fusion_lon": 0.0}, {"is_reserved": 0, "type": "electric_scooter", "fusion_lat": 0.0, "is_disabled": 0, "rental_uris": {"ios": "https://dc.lft.to/lastmile_qr_scan", "android": "https://dc.lft.to/lastmile_qr_scan"}, "bike_id": "7ac25edf595b38e03d6beee7455a1646", "lat": 38.92180966666667, "name": "7ac25edf595b38e03d6beee7455a1646", "lon": -77.04598766666666, "fusion_lon": 0.0}, {"is_reserved": 0, "type": "electric_scooter", "fusion_lat": 0.0, "is_disabled": 0, "rental_uris": {"ios": "https://dc.lft.to/lastmile_qr_scan", "android": "https://dc.lft.to/lastmile_qr_scan"}, "bike_id": "3fb132ea583e118604df1274d27f83da", "lat": 38.89772766666667, "name": "3fb132ea583e118604df1274d27f83da", "lon": -77.04784416666666, "fusion_lon": 0.0}, {"is_reserved": 0, "type": "electric_scooter", "fusion_lat": 0.0, "is_disabled": 0, "rental_uris": {"ios": "https://dc.lft.to/lastmile_qr_scan", "android": "https://dc.lft.to/lastmile_qr_scan"}, "bike_id": "676be57d188924fa97c21573d005eb5d", "lat": 38.923634666666665, "name": "676be57d188924fa97c21573d005eb5d", "lon": -77.0297805, "fusion_lon": 0.0}, {"is_reserved": 0, "type": "electric_scooter", "fusion_lat": 0.0, "is_disabled": 0, "rental_uris": {"ios": "https://dc.lft.to/lastmile_qr_scan", "android": "https://dc.lft.to/lastmile_qr_scan"}, "bike_id": "b03f9b4b1e15393ea87a5486d9c1cc63", "lat": 38.90667633333333, "name": "b03f9b4b1e15393ea87a5486d9c1cc63", "lon": -77.02708483333333, "fusion_lon": 0.0}, {"is_reserved": 0, "type": "electric_scooter", "fusion_lat": 0.0, "is_disabled": 0, "rental_uris": {"ios": "https://dc.lft.to/lastmile_qr_scan", "android": "https://dc.lft.to/lastmile_qr_scan"}, "bike_id": "f01b2fb312b5a374bdcdd379eefc1f5a", "lat": 38.898528166666665, "name": "f01b2fb312b5a374bdcdd379eefc1f5a", "lon": -76.99027, "fusion_lon": 0.0}, {"is_reserved": 0, "type": "electric_bike", "fusion_lat": 0.0, "is_disabled": 0, "rental_uris": {"ios": "https://dc.lft.to/lastmile_qr_scan", "android": "https://dc.lft.to/lastmile_qr_scan"}, "bike_id": "9e36e2f275b88f9a9ae69d40c25f313e", "lat": 38.85786016666667, "name": "9e36e2f275b88f9a9ae69d40c25f313e", "lon": -77.09964616666667, "fusion_lon": 0.0}, {"is_reserved": 0, "type": "electric_scooter", "fusion_lat": 0.0, "is_disabled": 0, "rental_uris": {"ios": "https://dc.lft.to/lastmile_qr_scan", "android": "https://dc.lft.to/lastmile_qr_scan"}, "bike_id": "7f94fe7a09d3b9cfb4ac9fca012392b5", "lat": 38.92804266666667, "name": "7f94fe7a09d3b9cfb4ac9fca012392b5", "lon": -77.02387516666667, "fusion_lon": 0.0}, {"is_reserved": 0, "type": "electric_scooter", "fusion_lat": 0.0, "is_disabled": 0, "rental_uris": {"ios": "https://dc.lft.to/lastmile_qr_scan", "android": "https://dc.lft.to/lastmile_qr_scan"}, "bike_id": "8a4ac73a7d71050001d210cfeea728ef", "lat": 38.901207666666664, "name": "8a4ac73a7d71050001d210cfeea728ef", "lon": -77.05145333333333, "fusion_lon": 0.0}, {"is_reserved": 0, "type": "electric_scooter", "fusion_lat": 0.0, "is_disabled": 0, "rental_uris": {"ios": "https://dc.lft.to/lastmile_qr_scan", "android": "https://dc.lft.to/lastmile_qr_scan"}, "bike_id": "8f233e06b702f8a5ad95101fa5dc04f5", "lat": 38.926861833333334, "name": "8f233e06b702f8a5ad95101fa5dc04f5", "lon": -77.0087585, "fusion_lon": 0.0}, {"is_reserved": 0, "type": "electric_scooter", "fusion_lat": 0.0, "is_disabled": 0, "rental_uris": {"ios": "https://dc.lft.to/lastmile_qr_scan", "android": "https://dc.lft.to/lastmile_qr_scan"}, "bike_id": "d049b41d9540c253393f1bc9dfcd70fd", "lat": 38.93161683333334, "name": "d049b41d9540c253393f1bc9dfcd70fd", "lon": -77.05609066666666, "fusion_lon": 0.0}, {"is_reserved": 0, "type": "electric_scooter", "fusion_lat": 0.0, "is_disabled": 0, "rental_uris": {"ios": "https://dc.lft.to/lastmile_qr_scan", "android": "https://dc.lft.to/lastmile_qr_scan"}, "bike_id": "e9c3bd12bb48bf252f2f0256d558d494", "lat": 38.92421616666667, "name": "e9c3bd12bb48bf252f2f0256d558d494", "lon": -77.01945566666667, "fusion_lon": 0.0}, {"is_reserved": 0, "type": "electric_scooter", "fusion_lat": 0.0, "is_disabled": 0, "rental_uris": {"ios": "https://dc.lft.to/lastmile_qr_scan", "android": "https://dc.lft.to/lastmile_qr_scan"}, "bike_id": "ff74fce432e09d02bcda50b2aef387bd", "lat": 38.907343833333336, "name": "ff74fce432e09d02bcda50b2aef387bd", "lon": -77.04520783333334, "fusion_lon": 0.0}, {"is_reserved": 0, "type": "electric_bike", "fusion_lat": 0.0, "is_disabled": 0, "rental_uris": {"ios": "https://dc.lft.to/lastmile_qr_scan", "android": "https://dc.lft.to/lastmile_qr_scan"}, "bike_id": "c9bba6fd7fe18ab114ba5949f687e598", "lat": 39.0843385, "name": "c9bba6fd7fe18ab114ba5949f687e598", "lon": -76.95139333333333, "fusion_lon": 0.0}, {"is_reserved": 0, "type": "electric_scooter", "fusion_lat": 0.0, "is_disabled": 0, "rental_uris": {"ios": "https://dc.lft.to/lastmile_qr_scan", "android": "https://dc.lft.to/lastmile_qr_scan"}, "bike_id": "fdcf0f8151a87a8bafa950852bcff8df", "lat": 38.90382733333333, "name": "fdcf0f8151a87a8bafa950852bcff8df", "lon": -77.0507605, "fusion_lon": 0.0}, {"is_reserved": 0, "type": "electric_scooter", "fusion_lat": 0.0, "is_disabled": 0, "rental_uris": {"ios": "https://dc.lft.to/lastmile_qr_scan", "android": "https://dc.lft.to/lastmile_qr_scan"}, "bike_id": "e2eee7b8485bc241fff4cc12a9717b18", "lat": 38.88390316666667, "name": "e2eee7b8485bc241fff4cc12a9717b18", "lon": -76.93033533333333, "fusion_lon": 0.0}, {"is_reserved": 0, "type": "electric_scooter", "fusion_lat": 0.0, "is_disabled": 0, "rental_uris": {"ios": "https://dc.lft.to/lastmile_qr_scan", "android": "https://dc.lft.to/lastmile_qr_scan"}, "bike_id": "00e7c3f2c53ebf56e8de4bf667c04092", "lat": 38.92052666666667, "name": "00e7c3f2c53ebf56e8de4bf667c04092", "lon": -77.02298316666666, "fusion_lon": 0.0}, {"is_reserved": 0, "type": "electric_bike", "fusion_lat": 0.0, "is_disabled": 0, "rental_uris": {"ios": "https://dc.lft.to/lastmile_qr_scan", "android": "https://dc.lft.to/lastmile_qr_scan"}, "bike_id": "8c3f840fde2af15d9c6b3db9bc947f6d", "lat": 38.9587915, "name": "8c3f840fde2af15d9c6b3db9bc947f6d", "lon": -76.970503, "fusion_lon": 0.0}, {"is_reserved": 0, "type": "electric_scooter", "fusion_lat": 0.0, "is_disabled": 0, "rental_uris": {"ios": "https://dc.lft.to/lastmile_qr_scan", "android": "https://dc.lft.to/lastmile_qr_scan"}, "bike_id": "b87dba4fd3ddec91f66b0509621d59aa", "lat": 38.920769666666665, "name": "b87dba4fd3ddec91f66b0509621d59aa", "lon": -77.02413733333333, "fusion_lon": 0.0}, {"is_reserved": 0, "type": "electric_scooter", "fusion_lat": 0.0, "is_disabled": 0, "rental_uris": {"ios": "https://dc.lft.to/lastmile_qr_scan", "android": "https://dc.lft.to/lastmile_qr_scan"}, "bike_id": "6131c01e95ee6bef3045088d5197a94c", "lat": 38.92793916666667, "name": "6131c01e95ee6bef3045088d5197a94c", "lon": -77.02124783333333, "fusion_lon": 0.0}, {"is_reserved": 0, "type": "electric_scooter", "fusion_lat": 0.0, "is_disabled": 0, "rental_uris": {"ios": "https://dc.lft.to/lastmile_qr_scan", "android": "https://dc.lft.to/lastmile_qr_scan"}, "bike_id": "c83080de72f7a2f4bcb889522671a61b", "lat": 38.8922735, "name": "c83080de72f7a2f4bcb889522671a61b", "lon": -77.025761, "fusion_lon": 0.0}, {"is_reserved": 0, "type": "electric_scooter", "fusion_lat": 0.0, "is_disabled": 0, "rental_uris": {"ios": "https://dc.lft.to/lastmile_qr_scan", "android": "https://dc.lft.to/lastmile_qr_scan"}, "bike_id": "29bb9155456ece0e4573afd260619730", "lat": 38.90601383333333, "name": "29bb9155456ece0e4573afd260619730", "lon": -77.06291966666667, "fusion_lon": 0.0}, {"is_reserved": 0, "type": "electric_scooter", "fusion_lat": 0.0, "is_disabled": 0, "rental_uris": {"ios": "https://dc.lft.to/lastmile_qr_scan", "android": "https://dc.lft.to/lastmile_qr_scan"}, "bike_id": "c8d3f13d01c0a554aff2125cc1ee8aeb", "lat": 38.899812833333336, "name": "c8d3f13d01c0a554aff2125cc1ee8aeb", "lon": -77.00931383333334, "fusion_lon": 0.0}, {"is_reserved": 0, "type": "electric_scooter", "fusion_lat": 0.0, "is_disabled": 0, "rental_uris": {"ios": "https://dc.lft.to/lastmile_qr_scan", "android": "https://dc.lft.to/lastmile_qr_scan"}, "bike_id": "87ff7387904d2762e3b13e886f1da621", "lat": 38.9014615, "name": "87ff7387904d2762e3b13e886f1da621", "lon": -77.01506816666667, "fusion_lon": 0.0}, {"is_reserved": 0, "type": "electric_scooter", "fusion_lat": 0.0, "is_disabled": 0, "rental_uris": {"ios": "https://dc.lft.to/lastmile_qr_scan", "android": "https://dc.lft.to/lastmile_qr_scan"}, "bike_id": "1c3e835c070084b24d9be84b96c1e8a0", "lat": 38.9213275, "name": "1c3e835c070084b24d9be84b96c1e8a0", "lon": -77.0040155, "fusion_lon": 0.0}, {"is_reserved": 0, "type": "electric_scooter", "fusion_lat": 0.0, "is_disabled": 0, "rental_uris": {"ios": "https://dc.lft.to/lastmile_qr_scan", "android": "https://dc.lft.to/lastmile_qr_scan"}, "bike_id": "a61143169a8c87fcb9c5b09b22e85668", "lat": 38.906509666666665, "name": "a61143169a8c87fcb9c5b09b22e85668", "lon": -77.02477233333333, "fusion_lon": 0.0}, {"is_reserved": 0, "type": "electric_scooter", "fusion_lat": 0.0, "is_disabled": 0, "rental_uris": {"ios": "https://dc.lft.to/lastmile_qr_scan", "android": "https://dc.lft.to/lastmile_qr_scan"}, "bike_id": "b92fd528bb10e42529be68f49b6a50c4", "lat": 38.920463833333336, "name": "b92fd528bb10e42529be68f49b6a50c4", "lon": -77.02599766666667, "fusion_lon": 0.0}, {"is_reserved": 0, "type": "electric_bike", "fusion_lat": 0.0, "is_disabled": 0, "rental_uris": {"ios": "https://dc.lft.to/lastmile_qr_scan", "android": "https://dc.lft.to/lastmile_qr_scan"}, "bike_id": "a2580b7502d53a2fb7f6d0c4d6548cf4", "lat": 38.95241733333334, "name": "a2580b7502d53a2fb7f6d0c4d6548cf4", "lon": -76.9824465, "fusion_lon": 0.0}, {"is_reserved": 0, "type": "electric_scooter", "fusion_lat": 0.0, "is_disabled": 0, "rental_uris": {"ios": "https://dc.lft.to/lastmile_qr_scan", "android": "https://dc.lft.to/lastmile_qr_scan"}, "bike_id": "615e0b7261def2720850d8e79abd2d27", "lat": 38.903924, "name": "615e0b7261def2720850d8e79abd2d27", "lon": -76.9900115, "fusion_lon": 0.0}, {"is_reserved": 0, "type": "electric_scooter", "fusion_lat": 0.0, "is_disabled": 0, "rental_uris": {"ios": "https://dc.lft.to/lastmile_qr_scan", "android": "https://dc.lft.to/lastmile_qr_scan"}, "bike_id": "7f2dbccb183d6f4c9a905d7c86b7fc22", "lat": 38.9099975, "name": "7f2dbccb183d6f4c9a905d7c86b7fc22", "lon": -77.02694333333334, "fusion_lon": 0.0}, {"is_reserved": 0, "type": "electric_scooter", "fusion_lat": 0.0, "is_disabled": 0, "rental_uris": {"ios": "https://dc.lft.to/lastmile_qr_scan", "android": "https://dc.lft.to/lastmile_qr_scan"}, "bike_id": "4df89d0bd525c0be31b079a07525ca06", "lat": 38.9295525, "name": "4df89d0bd525c0be31b079a07525ca06", "lon": -77.04400283333334, "fusion_lon": 0.0}, {"is_reserved": 0, "type": "electric_scooter", "fusion_lat": 0.0, "is_disabled": 0, "rental_uris": {"ios": "https://dc.lft.to/lastmile_qr_scan", "android": "https://dc.lft.to/lastmile_qr_scan"}, "bike_id": "ae4b777441202bb961f34b055e1860fa", "lat": 38.9210635, "name": "ae4b777441202bb961f34b055e1860fa", "lon": -77.0364405, "fusion_lon": 0.0}, {"is_reserved": 0, "type": "electric_scooter", "fusion_lat": 0.0, "is_disabled": 0, "rental_uris": {"ios": "https://dc.lft.to/lastmile_qr_scan", "android": "https://dc.lft.to/lastmile_qr_scan"}, "bike_id": "edc86ce25788bed3067dd89a7f97c3a8", "lat": 38.922254333333335, "name": "edc86ce25788bed3067dd89a7f97c3a8", "lon": -77.0283185, "fusion_lon": 0.0}, {"is_reserved": 0, "type": "electric_bike", "fusion_lat": 0.0, "is_disabled": 0, "rental_uris": {"ios": "https://dc.lft.to/lastmile_qr_scan", "android": "https://dc.lft.to/lastmile_qr_scan"}, "bike_id": "af21ae3b05365f68271719c439c7fa8a", "lat": 38.83590516666667, "name": "af21ae3b05365f68271719c439c7fa8a", "lon": -76.990146, "fusion_lon": 0.0}, {"is_reserved": 0, "type": "electric_scooter", "fusion_lat": 0.0, "is_disabled": 0, "rental_uris": {"ios": "https://dc.lft.to/lastmile_qr_scan", "android": "https://dc.lft.to/lastmile_qr_scan"}, "bike_id": "89f2d6ffcf476ce607333d8f9a0c0544", "lat": 38.933296166666665, "name": "89f2d6ffcf476ce607333d8f9a0c0544", "lon": -77.029181, "fusion_lon": 0.0}, {"is_reserved": 0, "type": "electric_bike", "fusion_lat": 0.0, "is_disabled": 0, "rental_uris": {"ios": "https://dc.lft.to/lastmile_qr_scan", "android": "https://dc.lft.to/lastmile_qr_scan"}, "bike_id": "195453e97f150c2a726eef7bf0dc0a0b", "lat": 38.85086483333333, "name": "195453e97f150c2a726eef7bf0dc0a0b", "lon": -76.98158133333334, "fusion_lon": 0.0}, {"is_reserved": 0, "type": "electric_scooter", "fusion_lat": 0.0, "is_disabled": 0, "rental_uris": {"ios": "https://dc.lft.to/lastmile_qr_scan", "android": "https://dc.lft.to/lastmile_qr_scan"}, "bike_id": "5ba30f6eed987af43dc1262e2efa62a7", "lat": 38.92216583333333, "name": "5ba30f6eed987af43dc1262e2efa62a7", "lon": -77.02030683333334, "fusion_lon": 0.0}, {"is_reserved": 0, "type": "electric_scooter", "fusion_lat": 0.0, "is_disabled": 0, "rental_uris": {"ios": "https://dc.lft.to/lastmile_qr_scan", "android": "https://dc.lft.to/lastmile_qr_scan"}, "bike_id": "4b72d24dc7f167ccbe982a4cfc43d90d", "lat": 38.91746533333333, "name": "4b72d24dc7f167ccbe982a4cfc43d90d", "lon": -77.01083033333333, "fusion_lon": 0.0}, {"is_reserved": 0, "type": "electric_bike", "fusion_lat": 0.0, "is_disabled": 0, "rental_uris": {"ios": "https://dc.lft.to/lastmile_qr_scan", "android": "https://dc.lft.to/lastmile_qr_scan"}, "bike_id": "9d5f8c3f4b70acbe0c043fab2049e2e3", "lat": 38.914466, "name": "9d5f8c3f4b70acbe0c043fab2049e2e3", "lon": -76.97274783333333, "fusion_lon": 0.0}, {"is_reserved": 0, "type": "electric_bike", "fusion_lat": 0.0, "is_disabled": 0, "rental_uris": {"ios": "https://dc.lft.to/lastmile_qr_scan", "android": "https://dc.lft.to/lastmile_qr_scan"}, "bike_id": "dd604d70df0ea37c3b98a50eede36bb7", "lat": 38.95505716666667, "name": "dd604d70df0ea37c3b98a50eede36bb7", "lon": -77.0276845, "fusion_lon": 0.0}, {"is_reserved": 0, "type": "electric_scooter", "fusion_lat": 0.0, "is_disabled": 0, "rental_uris": {"ios": "https://dc.lft.to/lastmile_qr_scan", "android": "https://dc.lft.to/lastmile_qr_scan"}, "bike_id": "dbb6c79bee4e47b5c2c04a98aa430a4a", "lat": 38.888378333333335, "name": "dbb6c79bee4e47b5c2c04a98aa430a4a", "lon": -76.977317, "fusion_lon": 0.0}, {"is_reserved": 0, "type": "electric_bike", "fusion_lat": 0.0, "is_disabled": 0, "rental_uris": {"ios": "https://dc.lft.to/lastmile_qr_scan", "android": "https://dc.lft.to/lastmile_qr_scan"}, "bike_id": "bc0ed8d773c81c86485e11382e7b21b0", "lat": 38.96733733333333, "name": "bc0ed8d773c81c86485e11382e7b21b0", "lon": -77.08907183333334, "fusion_lon": 0.0}, {"is_reserved": 0, "type": "electric_scooter", "fusion_lat": 0.0, "is_disabled": 0, "rental_uris": {"ios": "https://dc.lft.to/lastmile_qr_scan", "android": "https://dc.lft.to/lastmile_qr_scan"}, "bike_id": "33368212e9854a84ebdbb77503da8af9", "lat": 38.8950715, "name": "33368212e9854a84ebdbb77503da8af9", "lon": -77.02287216666667, "fusion_lon": 0.0}, {"is_reserved": 0, "type": "electric_scooter", "fusion_lat": 0.0, "is_disabled": 0, "rental_uris": {"ios": "https://dc.lft.to/lastmile_qr_scan", "android": "https://dc.lft.to/lastmile_qr_scan"}, "bike_id": "c96b44da8306559d8db966b93dec4bae", "lat": 38.8876715, "name": "c96b44da8306559d8db966b93dec4bae", "lon": -77.000492, "fusion_lon": 0.0}, {"is_reserved": 0, "type": "electric_scooter", "fusion_lat": 0.0, "is_disabled": 0, "rental_uris": {"ios": "https://dc.lft.to/lastmile_qr_scan", "android": "https://dc.lft.to/lastmile_qr_scan"}, "bike_id": "315c54391044de5a93cad7bffe07961a", "lat": 38.90093933333333, "name": "315c54391044de5a93cad7bffe07961a", "lon": -77.04490483333333, "fusion_lon": 0.0}, {"is_reserved": 0, "type": "electric_scooter", "fusion_lat": 0.0, "is_disabled": 0, "rental_uris": {"ios": "https://dc.lft.to/lastmile_qr_scan", "android": "https://dc.lft.to/lastmile_qr_scan"}, "bike_id": "a107f82209665b594ba3ec957127a37f", "lat": 38.881517333333335, "name": "a107f82209665b594ba3ec957127a37f", "lon": -77.01316483333333, "fusion_lon": 0.0}, {"is_reserved": 0, "type": "electric_scooter", "fusion_lat": 0.0, "is_disabled": 0, "rental_uris": {"ios": "https://dc.lft.to/lastmile_qr_scan", "android": "https://dc.lft.to/lastmile_qr_scan"}, "bike_id": "75b3807831d06f6ea402623bc98778dc", "lat": 38.91946683333333, "name": "75b3807831d06f6ea402623bc98778dc", "lon": -77.031882, "fusion_lon": 0.0}, {"is_reserved": 0, "type": "electric_scooter", "fusion_lat": 0.0, "is_disabled": 0, "rental_uris": {"ios": "https://dc.lft.to/lastmile_qr_scan", "android": "https://dc.lft.to/lastmile_qr_scan"}, "bike_id": "3fcc66ea9f5d8e7dc95e91fb548bbe1b", "lat": 38.916768833333336, "name": "3fcc66ea9f5d8e7dc95e91fb548bbe1b", "lon": -77.01579983333333, "fusion_lon": 0.0}, {"is_reserved": 0, "type": "electric_bike", "fusion_lat": 0.0, "is_disabled": 0, "rental_uris": {"ios": "https://dc.lft.to/lastmile_qr_scan", "android": "https://dc.lft.to/lastmile_qr_scan"}, "bike_id": "b403c5c907b6a5e2c204db30d6a49361", "lat": 38.94262633333334, "name": "b403c5c907b6a5e2c204db30d6a49361", "lon": -76.99069583333333, "fusion_lon": 0.0}, {"is_reserved": 0, "type": "electric_scooter", "fusion_lat": 0.0, "is_disabled": 0, "rental_uris": {"ios": "https://dc.lft.to/lastmile_qr_scan", "android": "https://dc.lft.to/lastmile_qr_scan"}, "bike_id": "5d38d7d7fa17cd5e1d085a654c4cb9ab", "lat": 38.9034295, "name": "5d38d7d7fa17cd5e1d085a654c4cb9ab", "lon": -77.029096, "fusion_lon": 0.0}, {"is_reserved": 0, "type": "electric_scooter", "fusion_lat": 0.0, "is_disabled": 0, "rental_uris": {"ios": "https://dc.lft.to/lastmile_qr_scan", "android": "https://dc.lft.to/lastmile_qr_scan"}, "bike_id": "98290a39b6486974b76b1fd11bf19d6c", "lat": 38.91726966666667, "name": "98290a39b6486974b76b1fd11bf19d6c", "lon": -77.02972466666667, "fusion_lon": 0.0}, {"is_reserved": 0, "type": "electric_scooter", "fusion_lat": 0.0, "is_disabled": 0, "rental_uris": {"ios": "https://dc.lft.to/lastmile_qr_scan", "android": "https://dc.lft.to/lastmile_qr_scan"}, "bike_id": "a620d4ada7a6c4b5146afe237be045de", "lat": 38.92465983333334, "name": "a620d4ada7a6c4b5146afe237be045de", "lon": -77.02236666666667, "fusion_lon": 0.0}, {"is_reserved": 0, "type": "electric_scooter", "fusion_lat": 0.0, "is_disabled": 0, "rental_uris": {"ios": "https://dc.lft.to/lastmile_qr_scan", "android": "https://dc.lft.to/lastmile_qr_scan"}, "bike_id": "6fa5afdd46b9fdd8c3e0c3abd89d5e8d", "lat": 38.91731816666667, "name": "6fa5afdd46b9fdd8c3e0c3abd89d5e8d", "lon": -77.068888, "fusion_lon": 0.0}, {"is_reserved": 0, "type": "electric_scooter", "fusion_lat": 0.0, "is_disabled": 0, "rental_uris": {"ios": "https://dc.lft.to/lastmile_qr_scan", "android": "https://dc.lft.to/lastmile_qr_scan"}, "bike_id": "19ed42a3876b3f0781efdbce07b5226b", "lat": 38.898525, "name": "19ed42a3876b3f0781efdbce07b5226b", "lon": -76.99493533333333, "fusion_lon": 0.0}, {"is_reserved": 0, "type": "electric_scooter", "fusion_lat": 0.0, "is_disabled": 0, "rental_uris": {"ios": "https://dc.lft.to/lastmile_qr_scan", "android": "https://dc.lft.to/lastmile_qr_scan"}, "bike_id": "fc10c548dbbcd3310fc72e99fc4f6d15", "lat": 38.9166345, "name": "fc10c548dbbcd3310fc72e99fc4f6d15", "lon": -77.022977, "fusion_lon": 0.0}, {"is_reserved": 0, "type": "electric_scooter", "fusion_lat": 0.0, "is_disabled": 0, "rental_uris": {"ios": "https://dc.lft.to/lastmile_qr_scan", "android": "https://dc.lft.to/lastmile_qr_scan"}, "bike_id": "d2fc366e725a871b4fc72f9fbcb4f94c", "lat": 38.9057005, "name": "d2fc366e725a871b4fc72f9fbcb4f94c", "lon": -77.027641, "fusion_lon": 0.0}, {"is_reserved": 0, "type": "electric_scooter", "fusion_lat": 0.0, "is_disabled": 0, "rental_uris": {"ios": "https://dc.lft.to/lastmile_qr_scan", "android": "https://dc.lft.to/lastmile_qr_scan"}, "bike_id": "56583767473d7c3303478f11aed07f97", "lat": 38.92144583333334, "name": "56583767473d7c3303478f11aed07f97", "lon": -77.04584816666667, "fusion_lon": 0.0}, {"is_reserved": 0, "type": "electric_scooter", "fusion_lat": 0.0, "is_disabled": 0, "rental_uris": {"ios": "https://dc.lft.to/lastmile_qr_scan", "android": "https://dc.lft.to/lastmile_qr_scan"}, "bike_id": "9a6e054f0ba83efbcd0326945bf9c27d", "lat": 38.896675333333334, "name": "9a6e054f0ba83efbcd0326945bf9c27d", "lon": -76.94904633333333, "fusion_lon": 0.0}, {"is_reserved": 0, "type": "electric_scooter", "fusion_lat": 0.0, "is_disabled": 0, "rental_uris": {"ios": "https://dc.lft.to/lastmile_qr_scan", "android": "https://dc.lft.to/lastmile_qr_scan"}, "bike_id": "2c30f8cd057820637654c8aea49b6d48", "lat": 38.8861325, "name": "2c30f8cd057820637654c8aea49b6d48", "lon": -77.02202966666667, "fusion_lon": 0.0}, {"is_reserved": 0, "type": "electric_scooter", "fusion_lat": 0.0, "is_disabled": 0, "rental_uris": {"ios": "https://dc.lft.to/lastmile_qr_scan", "android": "https://dc.lft.to/lastmile_qr_scan"}, "bike_id": "4efe944c9ddf3bf0832307ac2c704923", "lat": 38.903021333333335, "name": "4efe944c9ddf3bf0832307ac2c704923", "lon": -76.99841833333333, "fusion_lon": 0.0}, {"is_reserved": 0, "type": "electric_scooter", "fusion_lat": 0.0, "is_disabled": 0, "rental_uris": {"ios": "https://dc.lft.to/lastmile_qr_scan", "android": "https://dc.lft.to/lastmile_qr_scan"}, "bike_id": "791ab750b4e2ca4bf0d8d942d557994b", "lat": 38.894582166666666, "name": "791ab750b4e2ca4bf0d8d942d557994b", "lon": -77.0220085, "fusion_lon": 0.0}, {"is_reserved": 0, "type": "electric_scooter", "fusion_lat": 0.0, "is_disabled": 0, "rental_uris": {"ios": "https://dc.lft.to/lastmile_qr_scan", "android": "https://dc.lft.to/lastmile_qr_scan"}, "bike_id": "cba2cfa7ff5e8bdc5719fdbc234d2f37", "lat": 38.872919, "name": "cba2cfa7ff5e8bdc5719fdbc234d2f37", "lon": -77.00985133333333, "fusion_lon": 0.0}, {"is_reserved": 0, "type": "electric_bike", "fusion_lat": 0.0, "is_disabled": 0, "rental_uris": {"ios": "https://dc.lft.to/lastmile_qr_scan", "android": "https://dc.lft.to/lastmile_qr_scan"}, "bike_id": "d9c8fdba78832618a346461b7264a63b", "lat": 38.882749833333335, "name": "d9c8fdba78832618a346461b7264a63b", "lon": -76.93235183333333, "fusion_lon": 0.0}, {"is_reserved": 0, "type": "electric_scooter", "fusion_lat": 0.0, "is_disabled": 0, "rental_uris": {"ios": "https://dc.lft.to/lastmile_qr_scan", "android": "https://dc.lft.to/lastmile_qr_scan"}, "bike_id": "0e50f8ca34a11ce67754d8db9c4d9712", "lat": 38.91262283333333, "name": "0e50f8ca34a11ce67754d8db9c4d9712", "lon": -77.0386845, "fusion_lon": 0.0}, {"is_reserved": 0, "type": "electric_scooter", "fusion_lat": 0.0, "is_disabled": 0, "rental_uris": {"ios": "https://dc.lft.to/lastmile_qr_scan", "android": "https://dc.lft.to/lastmile_qr_scan"}, "bike_id": "f0bb20ea09f3ad8586513749b59faacd", "lat": 38.91968816666667, "name": "f0bb20ea09f3ad8586513749b59faacd", "lon": -77.0712205, "fusion_lon": 0.0}, {"is_reserved": 0, "type": "electric_scooter", "fusion_lat": 0.0, "is_disabled": 0, "rental_uris": {"ios": "https://dc.lft.to/lastmile_qr_scan", "android": "https://dc.lft.to/lastmile_qr_scan"}, "bike_id": "cdbae0ae3099ec4c4b03a8f611ae05e6", "lat": 38.92822433333333, "name": "cdbae0ae3099ec4c4b03a8f611ae05e6", "lon": -77.02157016666666, "fusion_lon": 0.0}, {"is_reserved": 0, "type": "electric_scooter", "fusion_lat": 0.0, "is_disabled": 0, "rental_uris": {"ios": "https://dc.lft.to/lastmile_qr_scan", "android": "https://dc.lft.to/lastmile_qr_scan"}, "bike_id": "d5887d00bda5b47ebeb9ee0872dd56f9", "lat": 38.90725616666667, "name": "d5887d00bda5b47ebeb9ee0872dd56f9", "lon": -77.0241905, "fusion_lon": 0.0}, {"is_reserved": 0, "type": "electric_scooter", "fusion_lat": 0.0, "is_disabled": 0, "rental_uris": {"ios": "https://dc.lft.to/lastmile_qr_scan", "android": "https://dc.lft.to/lastmile_qr_scan"}, "bike_id": "d0fc5978e1858f4b572c1263901339bf", "lat": 38.939917, "name": "d0fc5978e1858f4b572c1263901339bf", "lon": -77.02888566666667, "fusion_lon": 0.0}, {"is_reserved": 0, "type": "electric_scooter", "fusion_lat": 0.0, "is_disabled": 0, "rental_uris": {"ios": "https://dc.lft.to/lastmile_qr_scan", "android": "https://dc.lft.to/lastmile_qr_scan"}, "bike_id": "b3464135125490ecab9b1bb7fd8b0b29", "lat": 38.930833166666666, "name": "b3464135125490ecab9b1bb7fd8b0b29", "lon": -77.03210183333333, "fusion_lon": 0.0}, {"is_reserved": 0, "type": "electric_scooter", "fusion_lat": 0.0, "is_disabled": 0, "rental_uris": {"ios": "https://dc.lft.to/lastmile_qr_scan", "android": "https://dc.lft.to/lastmile_qr_scan"}, "bike_id": "a55a242b5ee7572f5c1521fc25909aaf", "lat": 38.89384166666667, "name": "a55a242b5ee7572f5c1521fc25909aaf", "lon": -76.92306183333334, "fusion_lon": 0.0}, {"is_reserved": 0, "type": "electric_scooter", "fusion_lat": 0.0, "is_disabled": 0, "rental_uris": {"ios": "https://dc.lft.to/lastmile_qr_scan", "android": "https://dc.lft.to/lastmile_qr_scan"}, "bike_id": "db74e694bdf56ecc55e6a4c0c1e817b5", "lat": 38.916929333333336, "name": "db74e694bdf56ecc55e6a4c0c1e817b5", "lon": -77.03235666666667, "fusion_lon": 0.0}, {"is_reserved": 0, "type": "electric_scooter", "fusion_lat": 0.0, "is_disabled": 0, "rental_uris": {"ios": "https://dc.lft.to/lastmile_qr_scan", "android": "https://dc.lft.to/lastmile_qr_scan"}, "bike_id": "c76ec0f5cebbfdf81d1083013dae2267", "lat": 38.894668333333335, "name": "c76ec0f5cebbfdf81d1083013dae2267", "lon": -77.02723783333333, "fusion_lon": 0.0}, {"is_reserved": 0, "type": "electric_scooter", "fusion_lat": 0.0, "is_disabled": 0, "rental_uris": {"ios": "https://dc.lft.to/lastmile_qr_scan", "android": "https://dc.lft.to/lastmile_qr_scan"}, "bike_id": "476c9a8b7d20f8a246094c15f3ee54dd", "lat": 38.92433033333333, "name": "476c9a8b7d20f8a246094c15f3ee54dd", "lon": -77.04234266666667, "fusion_lon": 0.0}, {"is_reserved": 0, "type": "electric_scooter", "fusion_lat": 0.0, "is_disabled": 0, "rental_uris": {"ios": "https://dc.lft.to/lastmile_qr_scan", "android": "https://dc.lft.to/lastmile_qr_scan"}, "bike_id": "9c11202892f616dcf457854d6ebb5226", "lat": 38.89330916666667, "name": "9c11202892f616dcf457854d6ebb5226", "lon": -76.939284, "fusion_lon": 0.0}, {"is_reserved": 0, "type": "electric_scooter", "fusion_lat": 0.0, "is_disabled": 0, "rental_uris": {"ios": "https://dc.lft.to/lastmile_qr_scan", "android": "https://dc.lft.to/lastmile_qr_scan"}, "bike_id": "c94b22cd80718522b26fd402bb545151", "lat": 38.91600283333333, "name": "c94b22cd80718522b26fd402bb545151", "lon": -77.02298033333334, "fusion_lon": 0.0}, {"is_reserved": 0, "type": "electric_bike", "fusion_lat": 0.0, "is_disabled": 0, "rental_uris": {"ios": "https://dc.lft.to/lastmile_qr_scan", "android": "https://dc.lft.to/lastmile_qr_scan"}, "bike_id": "ddad497fd667e88333ca2fbcdee5e8bc", "lat": 38.876684, "name": "ddad497fd667e88333ca2fbcdee5e8bc", "lon": -77.0208505, "fusion_lon": 0.0}, {"is_reserved": 0, "type": "electric_scooter", "fusion_lat": 0.0, "is_disabled": 0, "rental_uris": {"ios": "https://dc.lft.to/lastmile_qr_scan", "android": "https://dc.lft.to/lastmile_qr_scan"}, "bike_id": "f64237b14059237e6738d7b421449d68", "lat": 38.870734, "name": "f64237b14059237e6738d7b421449d68", "lon": -76.9812915, "fusion_lon": 0.0}, {"is_reserved": 0, "type": "electric_scooter", "fusion_lat": 0.0, "is_disabled": 0, "rental_uris": {"ios": "https://dc.lft.to/lastmile_qr_scan", "android": "https://dc.lft.to/lastmile_qr_scan"}, "bike_id": "d6e56f68e8081990a551994c1573f5f8", "lat": 38.90254733333333, "name": "d6e56f68e8081990a551994c1573f5f8", "lon": -77.01716966666666, "fusion_lon": 0.0}, {"is_reserved": 0, "type": "electric_bike", "fusion_lat": 0.0, "is_disabled": 0, "rental_uris": {"ios": "https://dc.lft.to/lastmile_qr_scan", "android": "https://dc.lft.to/lastmile_qr_scan"}, "bike_id": "0053d4ce31e487eaffd5076d8cc44aaf", "lat": 38.875799666666666, "name": "0053d4ce31e487eaffd5076d8cc44aaf", "lon": -77.23410983333333, "fusion_lon": 0.0}, {"is_reserved": 0, "type": "electric_scooter", "fusion_lat": 0.0, "is_disabled": 0, "rental_uris": {"ios": "https://dc.lft.to/lastmile_qr_scan", "android": "https://dc.lft.to/lastmile_qr_scan"}, "bike_id": "611f5ba5f486ab2b847925abfd63b98e", "lat": 38.917814166666666, "name": "611f5ba5f486ab2b847925abfd63b98e", "lon": -77.02297066666667, "fusion_lon": 0.0}, {"is_reserved": 0, "type": "electric_scooter", "fusion_lat": 0.0, "is_disabled": 0, "rental_uris": {"ios": "https://dc.lft.to/lastmile_qr_scan", "android": "https://dc.lft.to/lastmile_qr_scan"}, "bike_id": "70291737e8c88f1ae384e7ef490c7ddb", "lat": 38.90846366666667, "name": "70291737e8c88f1ae384e7ef490c7ddb", "lon": -77.02462266666667, "fusion_lon": 0.0}, {"is_reserved": 0, "type": "electric_scooter", "fusion_lat": 0.0, "is_disabled": 0, "rental_uris": {"ios": "https://dc.lft.to/lastmile_qr_scan", "android": "https://dc.lft.to/lastmile_qr_scan"}, "bike_id": "6decf2929f3227853344ca47715d35a7", "lat": 38.894818666666666, "name": "6decf2929f3227853344ca47715d35a7", "lon": -76.94868916666667, "fusion_lon": 0.0}, {"is_reserved": 0, "type": "electric_scooter", "fusion_lat": 0.0, "is_disabled": 0, "rental_uris": {"ios": "https://dc.lft.to/lastmile_qr_scan", "android": "https://dc.lft.to/lastmile_qr_scan"}, "bike_id": "07a079b00c624ecc501d075924aaf024", "lat": 38.917607333333336, "name": "07a079b00c624ecc501d075924aaf024", "lon": -77.004491, "fusion_lon": 0.0}, {"is_reserved": 0, "type": "electric_scooter", "fusion_lat": 0.0, "is_disabled": 0, "rental_uris": {"ios": "https://dc.lft.to/lastmile_qr_scan", "android": "https://dc.lft.to/lastmile_qr_scan"}, "bike_id": "100b666c8fb0faaa380ba8a67ae2f810", "lat": 38.926669833333335, "name": "100b666c8fb0faaa380ba8a67ae2f810", "lon": -77.02711883333333, "fusion_lon": 0.0}, {"is_reserved": 0, "type": "electric_scooter", "fusion_lat": 0.0, "is_disabled": 0, "rental_uris": {"ios": "https://dc.lft.to/lastmile_qr_scan", "android": "https://dc.lft.to/lastmile_qr_scan"}, "bike_id": "0a98510ccecc08e8afe606f7fa633f76", "lat": 38.930945, "name": "0a98510ccecc08e8afe606f7fa633f76", "lon": -77.0361775, "fusion_lon": 0.0}, {"is_reserved": 0, "type": "electric_scooter", "fusion_lat": 0.0, "is_disabled": 0, "rental_uris": {"ios": "https://dc.lft.to/lastmile_qr_scan", "android": "https://dc.lft.to/lastmile_qr_scan"}, "bike_id": "e5cdd4959df346ce193e3bbbaf7bc507", "lat": 38.93860866666667, "name": "e5cdd4959df346ce193e3bbbaf7bc507", "lon": -77.07819183333334, "fusion_lon": 0.0}, {"is_reserved": 0, "type": "electric_scooter", "fusion_lat": 0.0, "is_disabled": 0, "rental_uris": {"ios": "https://dc.lft.to/lastmile_qr_scan", "android": "https://dc.lft.to/lastmile_qr_scan"}, "bike_id": "26647e1ad65c2e8a57f2105cd5f20040", "lat": 38.92695916666667, "name": "26647e1ad65c2e8a57f2105cd5f20040", "lon": -77.0228225, "fusion_lon": 0.0}, {"is_reserved": 0, "type": "electric_scooter", "fusion_lat": 0.0, "is_disabled": 0, "rental_uris": {"ios": "https://dc.lft.to/lastmile_qr_scan", "android": "https://dc.lft.to/lastmile_qr_scan"}, "bike_id": "0aaffb426d3797be504a4f73711368b1", "lat": 38.901218666666665, "name": "0aaffb426d3797be504a4f73711368b1", "lon": -77.04985383333333, "fusion_lon": 0.0}, {"is_reserved": 0, "type": "electric_scooter", "fusion_lat": 0.0, "is_disabled": 0, "rental_uris": {"ios": "https://dc.lft.to/lastmile_qr_scan", "android": "https://dc.lft.to/lastmile_qr_scan"}, "bike_id": "ecd959f2a9e72cfefa5b64048b0ed667", "lat": 38.917852833333335, "name": "ecd959f2a9e72cfefa5b64048b0ed667", "lon": -77.02396083333333, "fusion_lon": 0.0}, {"is_reserved": 0, "type": "electric_scooter", "fusion_lat": 0.0, "is_disabled": 0, "rental_uris": {"ios": "https://dc.lft.to/lastmile_qr_scan", "android": "https://dc.lft.to/lastmile_qr_scan"}, "bike_id": "e3db620eaabc88cdf3ba2b0cd728bb3b", "lat": 38.900823, "name": "e3db620eaabc88cdf3ba2b0cd728bb3b", "lon": -77.04343466666667, "fusion_lon": 0.0}, {"is_reserved": 0, "type": "electric_scooter", "fusion_lat": 0.0, "is_disabled": 0, "rental_uris": {"ios": "https://dc.lft.to/lastmile_qr_scan", "android": "https://dc.lft.to/lastmile_qr_scan"}, "bike_id": "d3377f5003caf446e8ed96da1ce3c2c2", "lat": 38.933890833333336, "name": "d3377f5003caf446e8ed96da1ce3c2c2", "lon": -77.0738905, "fusion_lon": 0.0}, {"is_reserved": 0, "type": "electric_scooter", "fusion_lat": 0.0, "is_disabled": 0, "rental_uris": {"ios": "https://dc.lft.to/lastmile_qr_scan", "android": "https://dc.lft.to/lastmile_qr_scan"}, "bike_id": "8f35f26496c028f7fc6549ba99b981e1", "lat": 38.9222895, "name": "8f35f26496c028f7fc6549ba99b981e1", "lon": -76.97529366666667, "fusion_lon": 0.0}, {"is_reserved": 0, "type": "electric_scooter", "fusion_lat": 0.0, "is_disabled": 0, "rental_uris": {"ios": "https://dc.lft.to/lastmile_qr_scan", "android": "https://dc.lft.to/lastmile_qr_scan"}, "bike_id": "f13e92abf74e3c8524e9e62ddbda55b7", "lat": 38.8921755, "name": "f13e92abf74e3c8524e9e62ddbda55b7", "lon": -77.0436355, "fusion_lon": 0.0}, {"is_reserved": 0, "type": "electric_scooter", "fusion_lat": 0.0, "is_disabled": 0, "rental_uris": {"ios": "https://dc.lft.to/lastmile_qr_scan", "android": "https://dc.lft.to/lastmile_qr_scan"}, "bike_id": "0b0beb7e91a109ec49140226b73d6cb9", "lat": 38.891970666666666, "name": "0b0beb7e91a109ec49140226b73d6cb9", "lon": -77.01548533333333, "fusion_lon": 0.0}, {"is_reserved": 0, "type": "electric_scooter", "fusion_lat": 0.0, "is_disabled": 0, "rental_uris": {"ios": "https://dc.lft.to/lastmile_qr_scan", "android": "https://dc.lft.to/lastmile_qr_scan"}, "bike_id": "dfab4f589470a2800320b7e55b9ef9dc", "lat": 38.9180085, "name": "dfab4f589470a2800320b7e55b9ef9dc", "lon": -77.04433966666667, "fusion_lon": 0.0}, {"is_reserved": 0, "type": "electric_scooter", "fusion_lat": 0.0, "is_disabled": 0, "rental_uris": {"ios": "https://dc.lft.to/lastmile_qr_scan", "android": "https://dc.lft.to/lastmile_qr_scan"}, "bike_id": "0545a9c92a5906768938efc04afafde6", "lat": 38.902359, "name": "0545a9c92a5906768938efc04afafde6", "lon": -77.0006215, "fusion_lon": 0.0}, {"is_reserved": 0, "type": "electric_scooter", "fusion_lat": 0.0, "is_disabled": 0, "rental_uris": {"ios": "https://dc.lft.to/lastmile_qr_scan", "android": "https://dc.lft.to/lastmile_qr_scan"}, "bike_id": "b19e2d38033ae5ab588a9ec3054058db", "lat": 38.924113166666665, "name": "b19e2d38033ae5ab588a9ec3054058db", "lon": -77.021269, "fusion_lon": 0.0}, {"is_reserved": 0, "type": "electric_bike", "fusion_lat": 0.0, "is_disabled": 0, "rental_uris": {"ios": "https://dc.lft.to/lastmile_qr_scan", "android": "https://dc.lft.to/lastmile_qr_scan"}, "bike_id": "b8ec3cd9d4e9a3a1cd6896b93b4b573e", "lat": 38.81332733333333, "name": "b8ec3cd9d4e9a3a1cd6896b93b4b573e", "lon": -77.05118166666666, "fusion_lon": 0.0}, {"is_reserved": 0, "type": "electric_scooter", "fusion_lat": 0.0, "is_disabled": 0, "rental_uris": {"ios": "https://dc.lft.to/lastmile_qr_scan", "android": "https://dc.lft.to/lastmile_qr_scan"}, "bike_id": "fff079bfcb9b8cacc00139d280d54092", "lat": 38.899876, "name": "fff079bfcb9b8cacc00139d280d54092", "lon": -77.04489016666666, "fusion_lon": 0.0}, {"is_reserved": 0, "type": "electric_scooter", "fusion_lat": 0.0, "is_disabled": 0, "rental_uris": {"ios": "https://dc.lft.to/lastmile_qr_scan", "android": "https://dc.lft.to/lastmile_qr_scan"}, "bike_id": "4ef6d677a845ea9d723a6fb0ab0fab19", "lat": 38.89918566666667, "name": "4ef6d677a845ea9d723a6fb0ab0fab19", "lon": -77.032219, "fusion_lon": 0.0}, {"is_reserved": 0, "type": "electric_scooter", "fusion_lat": 0.0, "is_disabled": 0, "rental_uris": {"ios": "https://dc.lft.to/lastmile_qr_scan", "android": "https://dc.lft.to/lastmile_qr_scan"}, "bike_id": "7c87d58131cdb7c7fbe5702121f5f189", "lat": 38.948266833333335, "name": "7c87d58131cdb7c7fbe5702121f5f189", "lon": -77.02614216666667, "fusion_lon": 0.0}, {"is_reserved": 0, "type": "electric_scooter", "fusion_lat": 0.0, "is_disabled": 0, "rental_uris": {"ios": "https://dc.lft.to/lastmile_qr_scan", "android": "https://dc.lft.to/lastmile_qr_scan"}, "bike_id": "47ab8ed21cd2f658bc2d018cec0ba5e0", "lat": 38.876577166666664, "name": "47ab8ed21cd2f658bc2d018cec0ba5e0", "lon": -77.0006875, "fusion_lon": 0.0}, {"is_reserved": 0, "type": "electric_scooter", "fusion_lat": 0.0, "is_disabled": 0, "rental_uris": {"ios": "https://dc.lft.to/lastmile_qr_scan", "android": "https://dc.lft.to/lastmile_qr_scan"}, "bike_id": "7452216aee097173a980ea4dfa4b6e36", "lat": 38.9236755, "name": "7452216aee097173a980ea4dfa4b6e36", "lon": -77.0512395, "fusion_lon": 0.0}, {"is_reserved": 0, "type": "electric_scooter", "fusion_lat": 0.0, "is_disabled": 0, "rental_uris": {"ios": "https://dc.lft.to/lastmile_qr_scan", "android": "https://dc.lft.to/lastmile_qr_scan"}, "bike_id": "f8d276cb0faa63e7de5ed4efcf735525", "lat": 38.899890666666664, "name": "f8d276cb0faa63e7de5ed4efcf735525", "lon": -77.02579783333333, "fusion_lon": 0.0}, {"is_reserved": 0, "type": "electric_scooter", "fusion_lat": 0.0, "is_disabled": 0, "rental_uris": {"ios": "https://dc.lft.to/lastmile_qr_scan", "android": "https://dc.lft.to/lastmile_qr_scan"}, "bike_id": "536d3e77cf2dbbe0b3337fa4ab8716ec", "lat": 38.952541, "name": "536d3e77cf2dbbe0b3337fa4ab8716ec", "lon": -77.02072183333334, "fusion_lon": 0.0}, {"is_reserved": 0, "type": "electric_scooter", "fusion_lat": 0.0, "is_disabled": 0, "rental_uris": {"ios": "https://dc.lft.to/lastmile_qr_scan", "android": "https://dc.lft.to/lastmile_qr_scan"}, "bike_id": "01978d94c405a98acd9855f8483e8cc7", "lat": 38.923616333333335, "name": "01978d94c405a98acd9855f8483e8cc7", "lon": -77.0523675, "fusion_lon": 0.0}, {"is_reserved": 0, "type": "electric_scooter", "fusion_lat": 0.0, "is_disabled": 0, "rental_uris": {"ios": "https://dc.lft.to/lastmile_qr_scan", "android": "https://dc.lft.to/lastmile_qr_scan"}, "bike_id": "76ba9c7735ba2a9fac45035da8d3aebe", "lat": 38.91561683333333, "name": "76ba9c7735ba2a9fac45035da8d3aebe", "lon": -77.04010866666667, "fusion_lon": 0.0}, {"is_reserved": 0, "type": "electric_scooter", "fusion_lat": 0.0, "is_disabled": 0, "rental_uris": {"ios": "https://dc.lft.to/lastmile_qr_scan", "android": "https://dc.lft.to/lastmile_qr_scan"}, "bike_id": "0604992c9f34c152f3a210f972c6172c", "lat": 38.899069833333336, "name": "0604992c9f34c152f3a210f972c6172c", "lon": -77.02317883333333, "fusion_lon": 0.0}, {"is_reserved": 0, "type": "electric_scooter", "fusion_lat": 0.0, "is_disabled": 0, "rental_uris": {"ios": "https://dc.lft.to/lastmile_qr_scan", "android": "https://dc.lft.to/lastmile_qr_scan"}, "bike_id": "68f7f744629b79aa67f172b5b5b82599", "lat": 38.94325383333333, "name": "68f7f744629b79aa67f172b5b5b82599", "lon": -77.01312733333333, "fusion_lon": 0.0}, {"is_reserved": 0, "type": "electric_scooter", "fusion_lat": 0.0, "is_disabled": 0, "rental_uris": {"ios": "https://dc.lft.to/lastmile_qr_scan", "android": "https://dc.lft.to/lastmile_qr_scan"}, "bike_id": "ad558f29f19c0d7d9c69a9363e2eb2f8", "lat": 38.893299, "name": "ad558f29f19c0d7d9c69a9363e2eb2f8", "lon": -76.93925166666666, "fusion_lon": 0.0}, {"is_reserved": 0, "type": "electric_scooter", "fusion_lat": 0.0, "is_disabled": 0, "rental_uris": {"ios": "https://dc.lft.to/lastmile_qr_scan", "android": "https://dc.lft.to/lastmile_qr_scan"}, "bike_id": "3ba1ef71111ee55dd50127a094ec45cf", "lat": 38.92076316666667, "name": "3ba1ef71111ee55dd50127a094ec45cf", "lon": -77.02417083333333, "fusion_lon": 0.0}, {"is_reserved": 0, "type": "electric_scooter", "fusion_lat": 0.0, "is_disabled": 0, "rental_uris": {"ios": "https://dc.lft.to/lastmile_qr_scan", "android": "https://dc.lft.to/lastmile_qr_scan"}, "bike_id": "ac4e0da8c9bcea8d6d89037a8db1109a", "lat": 38.9370055, "name": "ac4e0da8c9bcea8d6d89037a8db1109a", "lon": -77.05598966666666, "fusion_lon": 0.0}, {"is_reserved": 0, "type": "electric_scooter", "fusion_lat": 0.0, "is_disabled": 0, "rental_uris": {"ios": "https://dc.lft.to/lastmile_qr_scan", "android": "https://dc.lft.to/lastmile_qr_scan"}, "bike_id": "42af9dab2411192a87e14d40673ff25e", "lat": 38.91260233333333, "name": "42af9dab2411192a87e14d40673ff25e", "lon": -77.01019216666667, "fusion_lon": 0.0}, {"is_reserved": 0, "type": "electric_bike", "fusion_lat": 0.0, "is_disabled": 0, "rental_uris": {"ios": "https://dc.lft.to/lastmile_qr_scan", "android": "https://dc.lft.to/lastmile_qr_scan"}, "bike_id": "7f7a5cbc3abd0d0a7067ee01c7bde055", "lat": 38.9568275, "name": "7f7a5cbc3abd0d0a7067ee01c7bde055", "lon": -77.02234866666667, "fusion_lon": 0.0}, {"is_reserved": 0, "type": "electric_scooter", "fusion_lat": 0.0, "is_disabled": 0, "rental_uris": {"ios": "https://dc.lft.to/lastmile_qr_scan", "android": "https://dc.lft.to/lastmile_qr_scan"}, "bike_id": "7ceb85e88d03950dc418cb9ecbf0d818", "lat": 38.885827166666665, "name": "7ceb85e88d03950dc418cb9ecbf0d818", "lon": -77.01225083333334, "fusion_lon": 0.0}, {"is_reserved": 0, "type": "electric_scooter", "fusion_lat": 0.0, "is_disabled": 0, "rental_uris": {"ios": "https://dc.lft.to/lastmile_qr_scan", "android": "https://dc.lft.to/lastmile_qr_scan"}, "bike_id": "d25133ab82db89f17c14fb49e8474647", "lat": 38.920391, "name": "d25133ab82db89f17c14fb49e8474647", "lon": -77.025934, "fusion_lon": 0.0}, {"is_reserved": 0, "type": "electric_scooter", "fusion_lat": 0.0, "is_disabled": 0, "rental_uris": {"ios": "https://dc.lft.to/lastmile_qr_scan", "android": "https://dc.lft.to/lastmile_qr_scan"}, "bike_id": "d0682cf09e63bea385017ea86bb5964b", "lat": 38.924204833333334, "name": "d0682cf09e63bea385017ea86bb5964b", "lon": -77.02010983333334, "fusion_lon": 0.0}, {"is_reserved": 0, "type": "electric_scooter", "fusion_lat": 0.0, "is_disabled": 0, "rental_uris": {"ios": "https://dc.lft.to/lastmile_qr_scan", "android": "https://dc.lft.to/lastmile_qr_scan"}, "bike_id": "fd9f24de6a356515baee2ac630bef226", "lat": 38.913529833333335, "name": "fd9f24de6a356515baee2ac630bef226", "lon": -76.97138233333334, "fusion_lon": 0.0}, {"is_reserved": 0, "type": "electric_scooter", "fusion_lat": 0.0, "is_disabled": 0, "rental_uris": {"ios": "https://dc.lft.to/lastmile_qr_scan", "android": "https://dc.lft.to/lastmile_qr_scan"}, "bike_id": "86d66c7394561b7a051f001b66f20db5", "lat": 38.892577333333335, "name": "86d66c7394561b7a051f001b66f20db5", "lon": -77.025888, "fusion_lon": 0.0}, {"is_reserved": 0, "type": "electric_scooter", "fusion_lat": 0.0, "is_disabled": 0, "rental_uris": {"ios": "https://dc.lft.to/lastmile_qr_scan", "android": "https://dc.lft.to/lastmile_qr_scan"}, "bike_id": "4dc7fce48276a7a65d6cb6993a8f759e", "lat": 38.9146495, "name": "4dc7fce48276a7a65d6cb6993a8f759e", "lon": -77.02194133333333, "fusion_lon": 0.0}, {"is_reserved": 0, "type": "electric_scooter", "fusion_lat": 0.0, "is_disabled": 0, "rental_uris": {"ios": "https://dc.lft.to/lastmile_qr_scan", "android": "https://dc.lft.to/lastmile_qr_scan"}, "bike_id": "23b6be842abef1ca294be7bd32749ca7", "lat": 38.89989416666667, "name": "23b6be842abef1ca294be7bd32749ca7", "lon": -77.00666566666666, "fusion_lon": 0.0}, {"is_reserved": 0, "type": "electric_scooter", "fusion_lat": 0.0, "is_disabled": 0, "rental_uris": {"ios": "https://dc.lft.to/lastmile_qr_scan", "android": "https://dc.lft.to/lastmile_qr_scan"}, "bike_id": "7ca91c4b894339c50b29734961739d78", "lat": 38.934111, "name": "7ca91c4b894339c50b29734961739d78", "lon": -77.045482, "fusion_lon": 0.0}, {"is_reserved": 0, "type": "electric_scooter", "fusion_lat": 0.0, "is_disabled": 0, "rental_uris": {"ios": "https://dc.lft.to/lastmile_qr_scan", "android": "https://dc.lft.to/lastmile_qr_scan"}, "bike_id": "e9172a600d0c9eaa7b1235490c68a586", "lat": 38.923864333333334, "name": "e9172a600d0c9eaa7b1235490c68a586", "lon": -77.03656883333333, "fusion_lon": 0.0}, {"is_reserved": 0, "type": "electric_scooter", "fusion_lat": 0.0, "is_disabled": 0, "rental_uris": {"ios": "https://dc.lft.to/lastmile_qr_scan", "android": "https://dc.lft.to/lastmile_qr_scan"}, "bike_id": "c811e150790faa692b0cf18868e5723b", "lat": 38.902390833333335, "name": "c811e150790faa692b0cf18868e5723b", "lon": -77.03962883333334, "fusion_lon": 0.0}, {"is_reserved": 0, "type": "electric_scooter", "fusion_lat": 0.0, "is_disabled": 0, "rental_uris": {"ios": "https://dc.lft.to/lastmile_qr_scan", "android": "https://dc.lft.to/lastmile_qr_scan"}, "bike_id": "a96f8a46596bd9ed02f086a4955696b5", "lat": 38.88426166666667, "name": "a96f8a46596bd9ed02f086a4955696b5", "lon": -77.02897333333334, "fusion_lon": 0.0}, {"is_reserved": 0, "type": "electric_scooter", "fusion_lat": 0.0, "is_disabled": 0, "rental_uris": {"ios": "https://dc.lft.to/lastmile_qr_scan", "android": "https://dc.lft.to/lastmile_qr_scan"}, "bike_id": "dd712a508838f7df7b3a2744d911dc6e", "lat": 38.93005733333333, "name": "dd712a508838f7df7b3a2744d911dc6e", "lon": -77.03784833333333, "fusion_lon": 0.0}, {"is_reserved": 0, "type": "electric_scooter", "fusion_lat": 0.0, "is_disabled": 0, "rental_uris": {"ios": "https://dc.lft.to/lastmile_qr_scan", "android": "https://dc.lft.to/lastmile_qr_scan"}, "bike_id": "5c84fd4428651f245620bc3276a41797", "lat": 38.9411545, "name": "5c84fd4428651f245620bc3276a41797", "lon": -77.0253965, "fusion_lon": 0.0}, {"is_reserved": 0, "type": "electric_bike", "fusion_lat": 0.0, "is_disabled": 0, "rental_uris": {"ios": "https://dc.lft.to/lastmile_qr_scan", "android": "https://dc.lft.to/lastmile_qr_scan"}, "bike_id": "19d772e59a12a603e487fb7c95d3fb8e", "lat": 38.9102975, "name": "19d772e59a12a603e487fb7c95d3fb8e", "lon": -76.92329016666666, "fusion_lon": 0.0}, {"is_reserved": 0, "type": "electric_scooter", "fusion_lat": 0.0, "is_disabled": 0, "rental_uris": {"ios": "https://dc.lft.to/lastmile_qr_scan", "android": "https://dc.lft.to/lastmile_qr_scan"}, "bike_id": "b21b2fc2d876800975502e3feaefadf3", "lat": 38.921919833333334, "name": "b21b2fc2d876800975502e3feaefadf3", "lon": -77.042503, "fusion_lon": 0.0}, {"is_reserved": 0, "type": "electric_scooter", "fusion_lat": 0.0, "is_disabled": 0, "rental_uris": {"ios": "https://dc.lft.to/lastmile_qr_scan", "android": "https://dc.lft.to/lastmile_qr_scan"}, "bike_id": "33e9ba3440b575a4c075b14a26899473", "lat": 38.91889233333333, "name": "33e9ba3440b575a4c075b14a26899473", "lon": -77.03733683333333, "fusion_lon": 0.0}, {"is_reserved": 0, "type": "electric_scooter", "fusion_lat": 0.0, "is_disabled": 0, "rental_uris": {"ios": "https://dc.lft.to/lastmile_qr_scan", "android": "https://dc.lft.to/lastmile_qr_scan"}, "bike_id": "dafc36c2fd4dfdedce9a960758f07e20", "lat": 38.9091355, "name": "dafc36c2fd4dfdedce9a960758f07e20", "lon": -77.0494255, "fusion_lon": 0.0}, {"is_reserved": 0, "type": "electric_scooter", "fusion_lat": 0.0, "is_disabled": 0, "rental_uris": {"ios": "https://dc.lft.to/lastmile_qr_scan", "android": "https://dc.lft.to/lastmile_qr_scan"}, "bike_id": "6e18329e6396b63a9e0efa9fc62e3832", "lat": 38.926125666666664, "name": "6e18329e6396b63a9e0efa9fc62e3832", "lon": -77.0241145, "fusion_lon": 0.0}, {"is_reserved": 0, "type": "electric_scooter", "fusion_lat": 0.0, "is_disabled": 0, "rental_uris": {"ios": "https://dc.lft.to/lastmile_qr_scan", "android": "https://dc.lft.to/lastmile_qr_scan"}, "bike_id": "8e9cafbd49139ce67014370fccd4abfe", "lat": 38.88713833333333, "name": "8e9cafbd49139ce67014370fccd4abfe", "lon": -76.983805, "fusion_lon": 0.0}, {"is_reserved": 0, "type": "electric_scooter", "fusion_lat": 0.0, "is_disabled": 0, "rental_uris": {"ios": "https://dc.lft.to/lastmile_qr_scan", "android": "https://dc.lft.to/lastmile_qr_scan"}, "bike_id": "4a60115bbb17f98c543be44a67d7c9c7", "lat": 38.91676233333333, "name": "4a60115bbb17f98c543be44a67d7c9c7", "lon": -77.015785, "fusion_lon": 0.0}, {"is_reserved": 0, "type": "electric_scooter", "fusion_lat": 0.0, "is_disabled": 0, "rental_uris": {"ios": "https://dc.lft.to/lastmile_qr_scan", "android": "https://dc.lft.to/lastmile_qr_scan"}, "bike_id": "b873fed74f35fac5a453b36d289659b2", "lat": 38.890108833333336, "name": "b873fed74f35fac5a453b36d289659b2", "lon": -76.937457, "fusion_lon": 0.0}, {"is_reserved": 0, "type": "electric_scooter", "fusion_lat": 0.0, "is_disabled": 0, "rental_uris": {"ios": "https://dc.lft.to/lastmile_qr_scan", "android": "https://dc.lft.to/lastmile_qr_scan"}, "bike_id": "0be236c6c5929ead3cfd3382b7cadd96", "lat": 38.890602333333334, "name": "0be236c6c5929ead3cfd3382b7cadd96", "lon": -76.99197916666667, "fusion_lon": 0.0}, {"is_reserved": 0, "type": "electric_scooter", "fusion_lat": 0.0, "is_disabled": 0, "rental_uris": {"ios": "https://dc.lft.to/lastmile_qr_scan", "android": "https://dc.lft.to/lastmile_qr_scan"}, "bike_id": "3d967b72b36b4498aa0e1c4131a5fc06", "lat": 38.9018465, "name": "3d967b72b36b4498aa0e1c4131a5fc06", "lon": -76.9766965, "fusion_lon": 0.0}, {"is_reserved": 0, "type": "electric_scooter", "fusion_lat": 0.0, "is_disabled": 0, "rental_uris": {"ios": "https://dc.lft.to/lastmile_qr_scan", "android": "https://dc.lft.to/lastmile_qr_scan"}, "bike_id": "927a73ccbcb406d3492cd1f8c5501139", "lat": 38.8769115, "name": "927a73ccbcb406d3492cd1f8c5501139", "lon": -76.99625866666666, "fusion_lon": 0.0}, {"is_reserved": 0, "type": "electric_scooter", "fusion_lat": 0.0, "is_disabled": 0, "rental_uris": {"ios": "https://dc.lft.to/lastmile_qr_scan", "android": "https://dc.lft.to/lastmile_qr_scan"}, "bike_id": "348ae8ff1a7a70d13619ebc345f7e99d", "lat": 38.90393316666667, "name": "348ae8ff1a7a70d13619ebc345f7e99d", "lon": -77.03271833333334, "fusion_lon": 0.0}, {"is_reserved": 0, "type": "electric_scooter", "fusion_lat": 0.0, "is_disabled": 0, "rental_uris": {"ios": "https://dc.lft.to/lastmile_qr_scan", "android": "https://dc.lft.to/lastmile_qr_scan"}, "bike_id": "c261f7e5ebe790ba62393498259004e4", "lat": 38.89365566666667, "name": "c261f7e5ebe790ba62393498259004e4", "lon": -77.04472066666666, "fusion_lon": 0.0}, {"is_reserved": 0, "type": "electric_scooter", "fusion_lat": 0.0, "is_disabled": 0, "rental_uris": {"ios": "https://dc.lft.to/lastmile_qr_scan", "android": "https://dc.lft.to/lastmile_qr_scan"}, "bike_id": "f8cc09828fd9ad1431732654ce2dd179", "lat": 38.90418566666666, "name": "f8cc09828fd9ad1431732654ce2dd179", "lon": -77.0295945, "fusion_lon": 0.0}, {"is_reserved": 0, "type": "electric_scooter", "fusion_lat": 0.0, "is_disabled": 0, "rental_uris": {"ios": "https://dc.lft.to/lastmile_qr_scan", "android": "https://dc.lft.to/lastmile_qr_scan"}, "bike_id": "e6eeb9776e1889157741a3f90ea4c9c5", "lat": 38.9125465, "name": "e6eeb9776e1889157741a3f90ea4c9c5", "lon": -77.047868, "fusion_lon": 0.0}, {"is_reserved": 0, "type": "electric_scooter", "fusion_lat": 0.0, "is_disabled": 0, "rental_uris": {"ios": "https://dc.lft.to/lastmile_qr_scan", "android": "https://dc.lft.to/lastmile_qr_scan"}, "bike_id": "1e8e0f1848a3925adcdcd3aa57a27c94", "lat": 38.875755166666664, "name": "1e8e0f1848a3925adcdcd3aa57a27c94", "lon": -77.00590983333333, "fusion_lon": 0.0}, {"is_reserved": 0, "type": "electric_bike", "fusion_lat": 0.0, "is_disabled": 0, "rental_uris": {"ios": "https://dc.lft.to/lastmile_qr_scan", "android": "https://dc.lft.to/lastmile_qr_scan"}, "bike_id": "ec71d5d653cbc8e1fe54d2dddab369bd", "lat": 38.95037583333333, "name": "ec71d5d653cbc8e1fe54d2dddab369bd", "lon": -77.01270883333333, "fusion_lon": 0.0}, {"is_reserved": 0, "type": "electric_scooter", "fusion_lat": 0.0, "is_disabled": 0, "rental_uris": {"ios": "https://dc.lft.to/lastmile_qr_scan", "android": "https://dc.lft.to/lastmile_qr_scan"}, "bike_id": "989c1891f20dac412d16d7a8881c0353", "lat": 38.91240633333334, "name": "989c1891f20dac412d16d7a8881c0353", "lon": -77.06607983333333, "fusion_lon": 0.0}, {"is_reserved": 0, "type": "electric_scooter", "fusion_lat": 0.0, "is_disabled": 0, "rental_uris": {"ios": "https://dc.lft.to/lastmile_qr_scan", "android": "https://dc.lft.to/lastmile_qr_scan"}, "bike_id": "f511757cac160ddc686b56b47770f183", "lat": 38.936423166666664, "name": "f511757cac160ddc686b56b47770f183", "lon": -77.02131916666667, "fusion_lon": 0.0}, {"is_reserved": 0, "type": "electric_scooter", "fusion_lat": 0.0, "is_disabled": 0, "rental_uris": {"ios": "https://dc.lft.to/lastmile_qr_scan", "android": "https://dc.lft.to/lastmile_qr_scan"}, "bike_id": "cdc2e7e74204bf25bf88934eb3c2de3f", "lat": 38.93975533333333, "name": "cdc2e7e74204bf25bf88934eb3c2de3f", "lon": -77.0325515, "fusion_lon": 0.0}, {"is_reserved": 0, "type": "electric_scooter", "fusion_lat": 0.0, "is_disabled": 0, "rental_uris": {"ios": "https://dc.lft.to/lastmile_qr_scan", "android": "https://dc.lft.to/lastmile_qr_scan"}, "bike_id": "37f5c06c0ce2263e9bfdeb7f4593efad", "lat": 38.939803166666664, "name": "37f5c06c0ce2263e9bfdeb7f4593efad", "lon": -77.01917016666667, "fusion_lon": 0.0}, {"is_reserved": 0, "type": "electric_scooter", "fusion_lat": 0.0, "is_disabled": 0, "rental_uris": {"ios": "https://dc.lft.to/lastmile_qr_scan", "android": "https://dc.lft.to/lastmile_qr_scan"}, "bike_id": "3b59676d93b0150d779a9837f4d02d87", "lat": 38.92613683333333, "name": "3b59676d93b0150d779a9837f4d02d87", "lon": -77.02157916666667, "fusion_lon": 0.0}, {"is_reserved": 0, "type": "electric_scooter", "fusion_lat": 0.0, "is_disabled": 0, "rental_uris": {"ios": "https://dc.lft.to/lastmile_qr_scan", "android": "https://dc.lft.to/lastmile_qr_scan"}, "bike_id": "8755e548b3230b44b1d28ba185887a11", "lat": 38.95739616666667, "name": "8755e548b3230b44b1d28ba185887a11", "lon": -77.023199, "fusion_lon": 0.0}, {"is_reserved": 0, "type": "electric_bike", "fusion_lat": 0.0, "is_disabled": 0, "rental_uris": {"ios": "https://dc.lft.to/lastmile_qr_scan", "android": "https://dc.lft.to/lastmile_qr_scan"}, "bike_id": "7e8e82b6c52dc9b5875abab68bbcc6a5", "lat": 38.94166716666667, "name": "7e8e82b6c52dc9b5875abab68bbcc6a5", "lon": -76.99407866666667, "fusion_lon": 0.0}, {"is_reserved": 0, "type": "electric_scooter", "fusion_lat": 0.0, "is_disabled": 0, "rental_uris": {"ios": "https://dc.lft.to/lastmile_qr_scan", "android": "https://dc.lft.to/lastmile_qr_scan"}, "bike_id": "5ff633b5bcfab5347bb8502afe3eee77", "lat": 38.90544516666667, "name": "5ff633b5bcfab5347bb8502afe3eee77", "lon": -76.97546816666667, "fusion_lon": 0.0}, {"is_reserved": 0, "type": "electric_scooter", "fusion_lat": 0.0, "is_disabled": 0, "rental_uris": {"ios": "https://dc.lft.to/lastmile_qr_scan", "android": "https://dc.lft.to/lastmile_qr_scan"}, "bike_id": "0b6b0ead79f110c73538b6f1163f90c3", "lat": 38.8984925, "name": "0b6b0ead79f110c73538b6f1163f90c3", "lon": -77.0215465, "fusion_lon": 0.0}, {"is_reserved": 0, "type": "electric_scooter", "fusion_lat": 0.0, "is_disabled": 0, "rental_uris": {"ios": "https://dc.lft.to/lastmile_qr_scan", "android": "https://dc.lft.to/lastmile_qr_scan"}, "bike_id": "b2b5bf89c3a7c23736a04dd659de3e42", "lat": 38.92343916666667, "name": "b2b5bf89c3a7c23736a04dd659de3e42", "lon": -77.03489416666666, "fusion_lon": 0.0}, {"is_reserved": 0, "type": "electric_scooter", "fusion_lat": 0.0, "is_disabled": 0, "rental_uris": {"ios": "https://dc.lft.to/lastmile_qr_scan", "android": "https://dc.lft.to/lastmile_qr_scan"}, "bike_id": "af5653c28ed0dac520dcf30dbc103a53", "lat": 38.8999795, "name": "af5653c28ed0dac520dcf30dbc103a53", "lon": -77.027111, "fusion_lon": 0.0}, {"is_reserved": 0, "type": "electric_scooter", "fusion_lat": 0.0, "is_disabled": 0, "rental_uris": {"ios": "https://dc.lft.to/lastmile_qr_scan", "android": "https://dc.lft.to/lastmile_qr_scan"}, "bike_id": "93b0dc6082ef5e0039c627adee30ccdf", "lat": 38.937121, "name": "93b0dc6082ef5e0039c627adee30ccdf", "lon": -77.03632716666667, "fusion_lon": 0.0}, {"is_reserved": 0, "type": "electric_scooter", "fusion_lat": 0.0, "is_disabled": 0, "rental_uris": {"ios": "https://dc.lft.to/lastmile_qr_scan", "android": "https://dc.lft.to/lastmile_qr_scan"}, "bike_id": "7af876fd254c8932dcf855fbf62e2a4f", "lat": 38.91732016666667, "name": "7af876fd254c8932dcf855fbf62e2a4f", "lon": -77.0260325, "fusion_lon": 0.0}, {"is_reserved": 0, "type": "electric_scooter", "fusion_lat": 0.0, "is_disabled": 0, "rental_uris": {"ios": "https://dc.lft.to/lastmile_qr_scan", "android": "https://dc.lft.to/lastmile_qr_scan"}, "bike_id": "e86c40d2c1deffb35f71b7718d298de0", "lat": 38.928726166666664, "name": "e86c40d2c1deffb35f71b7718d298de0", "lon": -77.03474716666666, "fusion_lon": 0.0}, {"is_reserved": 0, "type": "electric_scooter", "fusion_lat": 0.0, "is_disabled": 0, "rental_uris": {"ios": "https://dc.lft.to/lastmile_qr_scan", "android": "https://dc.lft.to/lastmile_qr_scan"}, "bike_id": "e919770a0ac4c95b7126a5195115782d", "lat": 38.899838833333334, "name": "e919770a0ac4c95b7126a5195115782d", "lon": -77.02159733333333, "fusion_lon": 0.0}, {"is_reserved": 0, "type": "electric_scooter", "fusion_lat": 0.0, "is_disabled": 0, "rental_uris": {"ios": "https://dc.lft.to/lastmile_qr_scan", "android": "https://dc.lft.to/lastmile_qr_scan"}, "bike_id": "e5c80205eadaf386060ac37af1b532da", "lat": 38.924031666666664, "name": "e5c80205eadaf386060ac37af1b532da", "lon": -77.03533366666667, "fusion_lon": 0.0}, {"is_reserved": 0, "type": "electric_scooter", "fusion_lat": 0.0, "is_disabled": 0, "rental_uris": {"ios": "https://dc.lft.to/lastmile_qr_scan", "android": "https://dc.lft.to/lastmile_qr_scan"}, "bike_id": "1126f33edfd27199424e02cbfe220472", "lat": 38.92074, "name": "1126f33edfd27199424e02cbfe220472", "lon": -77.02389783333334, "fusion_lon": 0.0}, {"is_reserved": 0, "type": "electric_scooter", "fusion_lat": 0.0, "is_disabled": 0, "rental_uris": {"ios": "https://dc.lft.to/lastmile_qr_scan", "android": "https://dc.lft.to/lastmile_qr_scan"}, "bike_id": "62372555d3ef02ab44c1ea2d5d1bf47e", "lat": 38.921202, "name": "62372555d3ef02ab44c1ea2d5d1bf47e", "lon": -77.01209566666667, "fusion_lon": 0.0}, {"is_reserved": 0, "type": "electric_scooter", "fusion_lat": 0.0, "is_disabled": 0, "rental_uris": {"ios": "https://dc.lft.to/lastmile_qr_scan", "android": "https://dc.lft.to/lastmile_qr_scan"}, "bike_id": "7f11957332f3c1434692948b786d9c83", "lat": 38.937577, "name": "7f11957332f3c1434692948b786d9c83", "lon": -77.032819, "fusion_lon": 0.0}, {"is_reserved": 0, "type": "electric_scooter", "fusion_lat": 0.0, "is_disabled": 0, "rental_uris": {"ios": "https://dc.lft.to/lastmile_qr_scan", "android": "https://dc.lft.to/lastmile_qr_scan"}, "bike_id": "f7741511281ace0c02d669f44ab866d8", "lat": 38.929973333333336, "name": "f7741511281ace0c02d669f44ab866d8", "lon": -77.02170383333333, "fusion_lon": 0.0}, {"is_reserved": 0, "type": "electric_scooter", "fusion_lat": 0.0, "is_disabled": 0, "rental_uris": {"ios": "https://dc.lft.to/lastmile_qr_scan", "android": "https://dc.lft.to/lastmile_qr_scan"}, "bike_id": "bf49459d8f79a94d8ba9ab1a19c465a9", "lat": 38.95751333333333, "name": "bf49459d8f79a94d8ba9ab1a19c465a9", "lon": -77.02208233333333, "fusion_lon": 0.0}, {"is_reserved": 0, "type": "electric_scooter", "fusion_lat": 0.0, "is_disabled": 0, "rental_uris": {"ios": "https://dc.lft.to/lastmile_qr_scan", "android": "https://dc.lft.to/lastmile_qr_scan"}, "bike_id": "09285eca6579a8f7b0dd7a2d05ecab3d", "lat": 38.901210166666665, "name": "09285eca6579a8f7b0dd7a2d05ecab3d", "lon": -77.023245, "fusion_lon": 0.0}, {"is_reserved": 0, "type": "electric_bike", "fusion_lat": 0.0, "is_disabled": 0, "rental_uris": {"ios": "https://dc.lft.to/lastmile_qr_scan", "android": "https://dc.lft.to/lastmile_qr_scan"}, "bike_id": "8a8bbbf779a52ff960239979b263142b", "lat": 38.896164666666664, "name": "8a8bbbf779a52ff960239979b263142b", "lon": -76.90743583333334, "fusion_lon": 0.0}, {"is_reserved": 0, "type": "electric_scooter", "fusion_lat": 0.0, "is_disabled": 0, "rental_uris": {"ios": "https://dc.lft.to/lastmile_qr_scan", "android": "https://dc.lft.to/lastmile_qr_scan"}, "bike_id": "fff9941da6ebc866bf7f7316fbcc8a93", "lat": 38.885327833333335, "name": "fff9941da6ebc866bf7f7316fbcc8a93", "lon": -76.98055083333334, "fusion_lon": 0.0}, {"is_reserved": 0, "type": "electric_scooter", "fusion_lat": 0.0, "is_disabled": 0, "rental_uris": {"ios": "https://dc.lft.to/lastmile_qr_scan", "android": "https://dc.lft.to/lastmile_qr_scan"}, "bike_id": "44940d5326bd797b3da5a15ad9f04913", "lat": 38.89221833333333, "name": "44940d5326bd797b3da5a15ad9f04913", "lon": -77.0463775, "fusion_lon": 0.0}, {"is_reserved": 0, "type": "electric_scooter", "fusion_lat": 0.0, "is_disabled": 0, "rental_uris": {"ios": "https://dc.lft.to/lastmile_qr_scan", "android": "https://dc.lft.to/lastmile_qr_scan"}, "bike_id": "a705f3a94a7281b045061fded9d564e7", "lat": 38.921721833333336, "name": "a705f3a94a7281b045061fded9d564e7", "lon": -77.04017433333334, "fusion_lon": 0.0}, {"is_reserved": 0, "type": "electric_scooter", "fusion_lat": 0.0, "is_disabled": 0, "rental_uris": {"ios": "https://dc.lft.to/lastmile_qr_scan", "android": "https://dc.lft.to/lastmile_qr_scan"}, "bike_id": "d4f5fd292be7d84c55c6a6379d71b1f5", "lat": 38.9241625, "name": "d4f5fd292be7d84c55c6a6379d71b1f5", "lon": -77.02007616666667, "fusion_lon": 0.0}, {"is_reserved": 0, "type": "electric_scooter", "fusion_lat": 0.0, "is_disabled": 0, "rental_uris": {"ios": "https://dc.lft.to/lastmile_qr_scan", "android": "https://dc.lft.to/lastmile_qr_scan"}, "bike_id": "4f0e6e800cf54e707006f8d4d11b2cb7", "lat": 38.8851275, "name": "4f0e6e800cf54e707006f8d4d11b2cb7", "lon": -76.92441216666667, "fusion_lon": 0.0}, {"is_reserved": 0, "type": "electric_scooter", "fusion_lat": 0.0, "is_disabled": 0, "rental_uris": {"ios": "https://dc.lft.to/lastmile_qr_scan", "android": "https://dc.lft.to/lastmile_qr_scan"}, "bike_id": "13de3e910824889c4a7e1fdb6e8b4ceb", "lat": 38.9025985, "name": "13de3e910824889c4a7e1fdb6e8b4ceb", "lon": -77.03469616666666, "fusion_lon": 0.0}, {"is_reserved": 0, "type": "electric_scooter", "fusion_lat": 0.0, "is_disabled": 0, "rental_uris": {"ios": "https://dc.lft.to/lastmile_qr_scan", "android": "https://dc.lft.to/lastmile_qr_scan"}, "bike_id": "26c8e49fefe63b559cecda362bfb42ee", "lat": 38.904638166666665, "name": "26c8e49fefe63b559cecda362bfb42ee", "lon": -77.05333933333333, "fusion_lon": 0.0}, {"is_reserved": 0, "type": "electric_scooter", "fusion_lat": 0.0, "is_disabled": 0, "rental_uris": {"ios": "https://dc.lft.to/lastmile_qr_scan", "android": "https://dc.lft.to/lastmile_qr_scan"}, "bike_id": "6bd36ada0dd5890c641a43b3f249ac33", "lat": 38.8985495, "name": "6bd36ada0dd5890c641a43b3f249ac33", "lon": -77.03959866666666, "fusion_lon": 0.0}, {"is_reserved": 0, "type": "electric_scooter", "fusion_lat": 0.0, "is_disabled": 0, "rental_uris": {"ios": "https://dc.lft.to/lastmile_qr_scan", "android": "https://dc.lft.to/lastmile_qr_scan"}, "bike_id": "92f8d5bd07ebe2a4b678cd6683d69ac3", "lat": 38.93845966666667, "name": "92f8d5bd07ebe2a4b678cd6683d69ac3", "lon": -77.01951083333333, "fusion_lon": 0.0}, {"is_reserved": 0, "type": "electric_scooter", "fusion_lat": 0.0, "is_disabled": 0, "rental_uris": {"ios": "https://dc.lft.to/lastmile_qr_scan", "android": "https://dc.lft.to/lastmile_qr_scan"}, "bike_id": "73b35481284c980e01f99e142760d987", "lat": 38.8972715, "name": "73b35481284c980e01f99e142760d987", "lon": -77.01912833333333, "fusion_lon": 0.0}, {"is_reserved": 0, "type": "electric_scooter", "fusion_lat": 0.0, "is_disabled": 0, "rental_uris": {"ios": "https://dc.lft.to/lastmile_qr_scan", "android": "https://dc.lft.to/lastmile_qr_scan"}, "bike_id": "824b1b780d2dca4382698a9bc969760f", "lat": 38.89901583333334, "name": "824b1b780d2dca4382698a9bc969760f", "lon": -77.031699, "fusion_lon": 0.0}, {"is_reserved": 0, "type": "electric_scooter", "fusion_lat": 0.0, "is_disabled": 0, "rental_uris": {"ios": "https://dc.lft.to/lastmile_qr_scan", "android": "https://dc.lft.to/lastmile_qr_scan"}, "bike_id": "77fdebf01cc2987221238d05a14a5435", "lat": 38.880815, "name": "77fdebf01cc2987221238d05a14a5435", "lon": -76.98503266666667, "fusion_lon": 0.0}, {"is_reserved": 0, "type": "electric_scooter", "fusion_lat": 0.0, "is_disabled": 0, "rental_uris": {"ios": "https://dc.lft.to/lastmile_qr_scan", "android": "https://dc.lft.to/lastmile_qr_scan"}, "bike_id": "fca41ca25deeeb8b3acfab637ad297bc", "lat": 38.89668183333333, "name": "fca41ca25deeeb8b3acfab637ad297bc", "lon": -76.93214783333333, "fusion_lon": 0.0}, {"is_reserved": 0, "type": "electric_scooter", "fusion_lat": 0.0, "is_disabled": 0, "rental_uris": {"ios": "https://dc.lft.to/lastmile_qr_scan", "android": "https://dc.lft.to/lastmile_qr_scan"}, "bike_id": "62ed34c3bcf6ffa4ca289d91cb8ac2e7", "lat": 38.9050795, "name": "62ed34c3bcf6ffa4ca289d91cb8ac2e7", "lon": -76.95201733333333, "fusion_lon": 0.0}, {"is_reserved": 0, "type": "electric_scooter", "fusion_lat": 0.0, "is_disabled": 0, "rental_uris": {"ios": "https://dc.lft.to/lastmile_qr_scan", "android": "https://dc.lft.to/lastmile_qr_scan"}, "bike_id": "a86c937a057cd53146bd662a4c3fd37d", "lat": 38.91951133333333, "name": "a86c937a057cd53146bd662a4c3fd37d", "lon": -77.0139325, "fusion_lon": 0.0}, {"is_reserved": 0, "type": "electric_scooter", "fusion_lat": 0.0, "is_disabled": 0, "rental_uris": {"ios": "https://dc.lft.to/lastmile_qr_scan", "android": "https://dc.lft.to/lastmile_qr_scan"}, "bike_id": "7cd78868afb96fb51b8b94d312fe48e2", "lat": 38.924817166666664, "name": "7cd78868afb96fb51b8b94d312fe48e2", "lon": -77.0271055, "fusion_lon": 0.0}, {"is_reserved": 0, "type": "electric_scooter", "fusion_lat": 0.0, "is_disabled": 0, "rental_uris": {"ios": "https://dc.lft.to/lastmile_qr_scan", "android": "https://dc.lft.to/lastmile_qr_scan"}, "bike_id": "cb7ea5955c494f8a59e1dc03419611fc", "lat": 38.91926466666666, "name": "cb7ea5955c494f8a59e1dc03419611fc", "lon": -77.03171816666666, "fusion_lon": 0.0}, {"is_reserved": 0, "type": "electric_scooter", "fusion_lat": 0.0, "is_disabled": 0, "rental_uris": {"ios": "https://dc.lft.to/lastmile_qr_scan", "android": "https://dc.lft.to/lastmile_qr_scan"}, "bike_id": "f2f5e5aa64bbadaf10c21c1b79bdafac", "lat": 38.88359666666667, "name": "f2f5e5aa64bbadaf10c21c1b79bdafac", "lon": -76.9576945, "fusion_lon": 0.0}, {"is_reserved": 0, "type": "electric_scooter", "fusion_lat": 0.0, "is_disabled": 0, "rental_uris": {"ios": "https://dc.lft.to/lastmile_qr_scan", "android": "https://dc.lft.to/lastmile_qr_scan"}, "bike_id": "acd55201ec7bf5f355159f05904de4fd", "lat": 38.8830825, "name": "acd55201ec7bf5f355159f05904de4fd", "lon": -76.99369083333333, "fusion_lon": 0.0}, {"is_reserved": 0, "type": "electric_bike", "fusion_lat": 0.0, "is_disabled": 0, "rental_uris": {"ios": "https://dc.lft.to/lastmile_qr_scan", "android": "https://dc.lft.to/lastmile_qr_scan"}, "bike_id": "da0ca4caab94d5710e389fc03640f745", "lat": 38.86010666666667, "name": "da0ca4caab94d5710e389fc03640f745", "lon": -77.06524016666667, "fusion_lon": 0.0}, {"is_reserved": 0, "type": "electric_scooter", "fusion_lat": 0.0, "is_disabled": 0, "rental_uris": {"ios": "https://dc.lft.to/lastmile_qr_scan", "android": "https://dc.lft.to/lastmile_qr_scan"}, "bike_id": "8918b3b00e062eda896d338e4d9db3e0", "lat": 38.90751683333333, "name": "8918b3b00e062eda896d338e4d9db3e0", "lon": -76.9991985, "fusion_lon": 0.0}, {"is_reserved": 0, "type": "electric_scooter", "fusion_lat": 0.0, "is_disabled": 0, "rental_uris": {"ios": "https://dc.lft.to/lastmile_qr_scan", "android": "https://dc.lft.to/lastmile_qr_scan"}, "bike_id": "13c42ecba96ee60cd76da32018ba23b1", "lat": 38.899563, "name": "13c42ecba96ee60cd76da32018ba23b1", "lon": -77.04835316666667, "fusion_lon": 0.0}, {"is_reserved": 0, "type": "electric_scooter", "fusion_lat": 0.0, "is_disabled": 0, "rental_uris": {"ios": "https://dc.lft.to/lastmile_qr_scan", "android": "https://dc.lft.to/lastmile_qr_scan"}, "bike_id": "8314de6defa13625561f03d7fe96b484", "lat": 38.91363583333333, "name": "8314de6defa13625561f03d7fe96b484", "lon": -77.04651933333334, "fusion_lon": 0.0}, {"is_reserved": 0, "type": "electric_scooter", "fusion_lat": 0.0, "is_disabled": 0, "rental_uris": {"ios": "https://dc.lft.to/lastmile_qr_scan", "android": "https://dc.lft.to/lastmile_qr_scan"}, "bike_id": "6e385899689c1ed9b10493d4a7f6053a", "lat": 38.90960666666667, "name": "6e385899689c1ed9b10493d4a7f6053a", "lon": -77.02389833333334, "fusion_lon": 0.0}, {"is_reserved": 0, "type": "electric_scooter", "fusion_lat": 0.0, "is_disabled": 0, "rental_uris": {"ios": "https://dc.lft.to/lastmile_qr_scan", "android": "https://dc.lft.to/lastmile_qr_scan"}, "bike_id": "838814ea0ddfcf60a48ef5184b08cdf0", "lat": 38.90476266666667, "name": "838814ea0ddfcf60a48ef5184b08cdf0", "lon": -77.0487035, "fusion_lon": 0.0}, {"is_reserved": 0, "type": "electric_scooter", "fusion_lat": 0.0, "is_disabled": 0, "rental_uris": {"ios": "https://dc.lft.to/lastmile_qr_scan", "android": "https://dc.lft.to/lastmile_qr_scan"}, "bike_id": "f6a4f47520e6eb6713d44936036d3fe6", "lat": 38.935294999999996, "name": "f6a4f47520e6eb6713d44936036d3fe6", "lon": -77.0544505, "fusion_lon": 0.0}, {"is_reserved": 0, "type": "electric_scooter", "fusion_lat": 0.0, "is_disabled": 0, "rental_uris": {"ios": "https://dc.lft.to/lastmile_qr_scan", "android": "https://dc.lft.to/lastmile_qr_scan"}, "bike_id": "8975ea830d0179cb18fe1681b819b32d", "lat": 38.870732833333335, "name": "8975ea830d0179cb18fe1681b819b32d", "lon": -76.98127283333334, "fusion_lon": 0.0}, {"is_reserved": 0, "type": "electric_scooter", "fusion_lat": 0.0, "is_disabled": 0, "rental_uris": {"ios": "https://dc.lft.to/lastmile_qr_scan", "android": "https://dc.lft.to/lastmile_qr_scan"}, "bike_id": "9bc431ae5de71686e629d674ee690bd8", "lat": 38.902505, "name": "9bc431ae5de71686e629d674ee690bd8", "lon": -77.017592, "fusion_lon": 0.0}, {"is_reserved": 0, "type": "electric_scooter", "fusion_lat": 0.0, "is_disabled": 0, "rental_uris": {"ios": "https://dc.lft.to/lastmile_qr_scan", "android": "https://dc.lft.to/lastmile_qr_scan"}, "bike_id": "010fd7ee3b8a68112361bddade422313", "lat": 38.89903433333333, "name": "010fd7ee3b8a68112361bddade422313", "lon": -77.03172833333333, "fusion_lon": 0.0}, {"is_reserved": 0, "type": "electric_scooter", "fusion_lat": 0.0, "is_disabled": 0, "rental_uris": {"ios": "https://dc.lft.to/lastmile_qr_scan", "android": "https://dc.lft.to/lastmile_qr_scan"}, "bike_id": "b8e5c373048d2a2306889dcbe128c611", "lat": 38.91817983333333, "name": "b8e5c373048d2a2306889dcbe128c611", "lon": -77.0312435, "fusion_lon": 0.0}, {"is_reserved": 0, "type": "electric_scooter", "fusion_lat": 0.0, "is_disabled": 0, "rental_uris": {"ios": "https://dc.lft.to/lastmile_qr_scan", "android": "https://dc.lft.to/lastmile_qr_scan"}, "bike_id": "3da496e9c084391c6040938a9353cab6", "lat": 38.92323416666667, "name": "3da496e9c084391c6040938a9353cab6", "lon": -76.999084, "fusion_lon": 0.0}, {"is_reserved": 0, "type": "electric_scooter", "fusion_lat": 0.0, "is_disabled": 0, "rental_uris": {"ios": "https://dc.lft.to/lastmile_qr_scan", "android": "https://dc.lft.to/lastmile_qr_scan"}, "bike_id": "cb8e87742e50cfd60e84e964382baa81", "lat": 38.9265505, "name": "cb8e87742e50cfd60e84e964382baa81", "lon": -77.0243155, "fusion_lon": 0.0}, {"is_reserved": 0, "type": "electric_scooter", "fusion_lat": 0.0, "is_disabled": 0, "rental_uris": {"ios": "https://dc.lft.to/lastmile_qr_scan", "android": "https://dc.lft.to/lastmile_qr_scan"}, "bike_id": "3944793ac830f462b5149d313433e653", "lat": 38.90256483333334, "name": "3944793ac830f462b5149d313433e653", "lon": -77.0270915, "fusion_lon": 0.0}, {"is_reserved": 0, "type": "electric_bike", "fusion_lat": 0.0, "is_disabled": 0, "rental_uris": {"ios": "https://dc.lft.to/lastmile_qr_scan", "android": "https://dc.lft.to/lastmile_qr_scan"}, "bike_id": "6eceb0d511038515ac25c53df187e82b", "lat": 38.96433916666667, "name": "6eceb0d511038515ac25c53df187e82b", "lon": -77.0318185, "fusion_lon": 0.0}, {"is_reserved": 0, "type": "electric_scooter", "fusion_lat": 0.0, "is_disabled": 0, "rental_uris": {"ios": "https://dc.lft.to/lastmile_qr_scan", "android": "https://dc.lft.to/lastmile_qr_scan"}, "bike_id": "6d36f4aeeaca3d2ea21e291af00b8f16", "lat": 38.89975483333333, "name": "6d36f4aeeaca3d2ea21e291af00b8f16", "lon": -77.0160535, "fusion_lon": 0.0}, {"is_reserved": 0, "type": "electric_scooter", "fusion_lat": 0.0, "is_disabled": 0, "rental_uris": {"ios": "https://dc.lft.to/lastmile_qr_scan", "android": "https://dc.lft.to/lastmile_qr_scan"}, "bike_id": "08d50d9a6f68f32dc79f165e617cb295", "lat": 38.915635, "name": "08d50d9a6f68f32dc79f165e617cb295", "lon": -77.03675083333333, "fusion_lon": 0.0}, {"is_reserved": 0, "type": "electric_scooter", "fusion_lat": 0.0, "is_disabled": 0, "rental_uris": {"ios": "https://dc.lft.to/lastmile_qr_scan", "android": "https://dc.lft.to/lastmile_qr_scan"}, "bike_id": "5995509e2104b6135b27807a795a83a4", "lat": 38.936650666666665, "name": "5995509e2104b6135b27807a795a83a4", "lon": -77.06604983333334, "fusion_lon": 0.0}, {"is_reserved": 0, "type": "electric_scooter", "fusion_lat": 0.0, "is_disabled": 0, "rental_uris": {"ios": "https://dc.lft.to/lastmile_qr_scan", "android": "https://dc.lft.to/lastmile_qr_scan"}, "bike_id": "d0f361b1e05555b639b8aadfebd3c418", "lat": 38.89509616666667, "name": "d0f361b1e05555b639b8aadfebd3c418", "lon": -77.02287066666666, "fusion_lon": 0.0}, {"is_reserved": 0, "type": "electric_scooter", "fusion_lat": 0.0, "is_disabled": 0, "rental_uris": {"ios": "https://dc.lft.to/lastmile_qr_scan", "android": "https://dc.lft.to/lastmile_qr_scan"}, "bike_id": "afd714fe0ccb67818e57092335552059", "lat": 38.892178, "name": "afd714fe0ccb67818e57092335552059", "lon": -77.02031716666667, "fusion_lon": 0.0}, {"is_reserved": 0, "type": "electric_scooter", "fusion_lat": 0.0, "is_disabled": 0, "rental_uris": {"ios": "https://dc.lft.to/lastmile_qr_scan", "android": "https://dc.lft.to/lastmile_qr_scan"}, "bike_id": "6a5a24997630a500208b2dd054afb45c", "lat": 38.90315433333333, "name": "6a5a24997630a500208b2dd054afb45c", "lon": -76.97803966666666, "fusion_lon": 0.0}, {"is_reserved": 0, "type": "electric_scooter", "fusion_lat": 0.0, "is_disabled": 0, "rental_uris": {"ios": "https://dc.lft.to/lastmile_qr_scan", "android": "https://dc.lft.to/lastmile_qr_scan"}, "bike_id": "81bf51745ec07f7bd25a910fa983b7f1", "lat": 38.900519, "name": "81bf51745ec07f7bd25a910fa983b7f1", "lon": -76.99336716666667, "fusion_lon": 0.0}, {"is_reserved": 0, "type": "electric_scooter", "fusion_lat": 0.0, "is_disabled": 0, "rental_uris": {"ios": "https://dc.lft.to/lastmile_qr_scan", "android": "https://dc.lft.to/lastmile_qr_scan"}, "bike_id": "b5f6e1d341eea3f12cb4fb9d17ab2a41", "lat": 38.88369383333333, "name": "b5f6e1d341eea3f12cb4fb9d17ab2a41", "lon": -76.99515566666666, "fusion_lon": 0.0}, {"is_reserved": 0, "type": "electric_scooter", "fusion_lat": 0.0, "is_disabled": 0, "rental_uris": {"ios": "https://dc.lft.to/lastmile_qr_scan", "android": "https://dc.lft.to/lastmile_qr_scan"}, "bike_id": "f287c108f8686a59a52cc88d4489a2bc", "lat": 38.905003666666666, "name": "f287c108f8686a59a52cc88d4489a2bc", "lon": -77.02949466666666, "fusion_lon": 0.0}, {"is_reserved": 0, "type": "electric_scooter", "fusion_lat": 0.0, "is_disabled": 0, "rental_uris": {"ios": "https://dc.lft.to/lastmile_qr_scan", "android": "https://dc.lft.to/lastmile_qr_scan"}, "bike_id": "759c918d576e9fa288d375ded43acc00", "lat": 38.8922155, "name": "759c918d576e9fa288d375ded43acc00", "lon": -77.02219766666667, "fusion_lon": 0.0}, {"is_reserved": 0, "type": "electric_scooter", "fusion_lat": 0.0, "is_disabled": 0, "rental_uris": {"ios": "https://dc.lft.to/lastmile_qr_scan", "android": "https://dc.lft.to/lastmile_qr_scan"}, "bike_id": "d3fb71195013dde7d7367bb421bf8560", "lat": 38.90697733333333, "name": "d3fb71195013dde7d7367bb421bf8560", "lon": -77.009939, "fusion_lon": 0.0}, {"is_reserved": 0, "type": "electric_scooter", "fusion_lat": 0.0, "is_disabled": 0, "rental_uris": {"ios": "https://dc.lft.to/lastmile_qr_scan", "android": "https://dc.lft.to/lastmile_qr_scan"}, "bike_id": "bbf22cdb79f76814a504e5a6ac0a387c", "lat": 38.92469883333333, "name": "bbf22cdb79f76814a504e5a6ac0a387c", "lon": -77.027113, "fusion_lon": 0.0}, {"is_reserved": 0, "type": "electric_scooter", "fusion_lat": 0.0, "is_disabled": 0, "rental_uris": {"ios": "https://dc.lft.to/lastmile_qr_scan", "android": "https://dc.lft.to/lastmile_qr_scan"}, "bike_id": "83462caa722d526719025bc5253ffae8", "lat": 38.95645833333333, "name": "83462caa722d526719025bc5253ffae8", "lon": -77.028171, "fusion_lon": 0.0}, {"is_reserved": 0, "type": "electric_scooter", "fusion_lat": 0.0, "is_disabled": 0, "rental_uris": {"ios": "https://dc.lft.to/lastmile_qr_scan", "android": "https://dc.lft.to/lastmile_qr_scan"}, "bike_id": "5a27d3cb8df18e47e77685241906dd3c", "lat": 38.902718666666665, "name": "5a27d3cb8df18e47e77685241906dd3c", "lon": -77.018018, "fusion_lon": 0.0}, {"is_reserved": 0, "type": "electric_scooter", "fusion_lat": 0.0, "is_disabled": 0, "rental_uris": {"ios": "https://dc.lft.to/lastmile_qr_scan", "android": "https://dc.lft.to/lastmile_qr_scan"}, "bike_id": "4cf35f0f82466131d759050ecd03da48", "lat": 38.84275316666667, "name": "4cf35f0f82466131d759050ecd03da48", "lon": -76.98843916666667, "fusion_lon": 0.0}, {"is_reserved": 0, "type": "electric_scooter", "fusion_lat": 0.0, "is_disabled": 0, "rental_uris": {"ios": "https://dc.lft.to/lastmile_qr_scan", "android": "https://dc.lft.to/lastmile_qr_scan"}, "bike_id": "0f7d9684e2f194e5b08f8996073f5e4c", "lat": 38.85564133333333, "name": "0f7d9684e2f194e5b08f8996073f5e4c", "lon": -76.99075483333333, "fusion_lon": 0.0}, {"is_reserved": 0, "type": "electric_scooter", "fusion_lat": 0.0, "is_disabled": 0, "rental_uris": {"ios": "https://dc.lft.to/lastmile_qr_scan", "android": "https://dc.lft.to/lastmile_qr_scan"}, "bike_id": "0e4e3c05af15f7eaa2912f788d01e802", "lat": 38.8992225, "name": "0e4e3c05af15f7eaa2912f788d01e802", "lon": -77.03217833333333, "fusion_lon": 0.0}, {"is_reserved": 0, "type": "electric_scooter", "fusion_lat": 0.0, "is_disabled": 0, "rental_uris": {"ios": "https://dc.lft.to/lastmile_qr_scan", "android": "https://dc.lft.to/lastmile_qr_scan"}, "bike_id": "1052451b618f21b341ce9fd415825d7f", "lat": 38.893676666666664, "name": "1052451b618f21b341ce9fd415825d7f", "lon": -77.0205425, "fusion_lon": 0.0}, {"is_reserved": 0, "type": "electric_scooter", "fusion_lat": 0.0, "is_disabled": 0, "rental_uris": {"ios": "https://dc.lft.to/lastmile_qr_scan", "android": "https://dc.lft.to/lastmile_qr_scan"}, "bike_id": "a7eb0abd6e27eed6227ee049940b2846", "lat": 38.929108, "name": "a7eb0abd6e27eed6227ee049940b2846", "lon": -77.02095383333334, "fusion_lon": 0.0}, {"is_reserved": 0, "type": "electric_scooter", "fusion_lat": 0.0, "is_disabled": 0, "rental_uris": {"ios": "https://dc.lft.to/lastmile_qr_scan", "android": "https://dc.lft.to/lastmile_qr_scan"}, "bike_id": "2b4973848e4189e0040a66efc0171195", "lat": 38.9311455, "name": "2b4973848e4189e0040a66efc0171195", "lon": -77.0209655, "fusion_lon": 0.0}, {"is_reserved": 0, "type": "electric_scooter", "fusion_lat": 0.0, "is_disabled": 0, "rental_uris": {"ios": "https://dc.lft.to/lastmile_qr_scan", "android": "https://dc.lft.to/lastmile_qr_scan"}, "bike_id": "464fe0da6a297627b5dad5e723f33961", "lat": 38.91779983333333, "name": "464fe0da6a297627b5dad5e723f33961", "lon": -77.0230925, "fusion_lon": 0.0}, {"is_reserved": 0, "type": "electric_scooter", "fusion_lat": 0.0, "is_disabled": 0, "rental_uris": {"ios": "https://dc.lft.to/lastmile_qr_scan", "android": "https://dc.lft.to/lastmile_qr_scan"}, "bike_id": "cb81183943f3de81cd8b17a185042403", "lat": 38.903382, "name": "cb81183943f3de81cd8b17a185042403", "lon": -77.0261125, "fusion_lon": 0.0}, {"is_reserved": 0, "type": "electric_scooter", "fusion_lat": 0.0, "is_disabled": 0, "rental_uris": {"ios": "https://dc.lft.to/lastmile_qr_scan", "android": "https://dc.lft.to/lastmile_qr_scan"}, "bike_id": "68759019a2e3ca69eeb5b35a7af39e7a", "lat": 38.8757085, "name": "68759019a2e3ca69eeb5b35a7af39e7a", "lon": -77.005961, "fusion_lon": 0.0}, {"is_reserved": 0, "type": "electric_scooter", "fusion_lat": 0.0, "is_disabled": 0, "rental_uris": {"ios": "https://dc.lft.to/lastmile_qr_scan", "android": "https://dc.lft.to/lastmile_qr_scan"}, "bike_id": "e398b25cdc036e75f316c71351e7cd64", "lat": 38.936055, "name": "e398b25cdc036e75f316c71351e7cd64", "lon": -77.024236, "fusion_lon": 0.0}, {"is_reserved": 0, "type": "electric_scooter", "fusion_lat": 0.0, "is_disabled": 0, "rental_uris": {"ios": "https://dc.lft.to/lastmile_qr_scan", "android": "https://dc.lft.to/lastmile_qr_scan"}, "bike_id": "34b8b69615babda529f341d934205fa0", "lat": 38.88235666666667, "name": "34b8b69615babda529f341d934205fa0", "lon": -76.93323233333334, "fusion_lon": 0.0}, {"is_reserved": 0, "type": "electric_scooter", "fusion_lat": 0.0, "is_disabled": 0, "rental_uris": {"ios": "https://dc.lft.to/lastmile_qr_scan", "android": "https://dc.lft.to/lastmile_qr_scan"}, "bike_id": "4e8641a768c4feb6ac59c5f3f9e02321", "lat": 38.91673483333334, "name": "4e8641a768c4feb6ac59c5f3f9e02321", "lon": -77.02281966666666, "fusion_lon": 0.0}, {"is_reserved": 0, "type": "electric_scooter", "fusion_lat": 0.0, "is_disabled": 0, "rental_uris": {"ios": "https://dc.lft.to/lastmile_qr_scan", "android": "https://dc.lft.to/lastmile_qr_scan"}, "bike_id": "6a06e43fd3523c33535773a24f8ea66e", "lat": 38.932277, "name": "6a06e43fd3523c33535773a24f8ea66e", "lon": -77.02961983333333, "fusion_lon": 0.0}, {"is_reserved": 0, "type": "electric_scooter", "fusion_lat": 0.0, "is_disabled": 0, "rental_uris": {"ios": "https://dc.lft.to/lastmile_qr_scan", "android": "https://dc.lft.to/lastmile_qr_scan"}, "bike_id": "97ff6c6892ea051d9288fd52efe2b932", "lat": 38.944622, "name": "97ff6c6892ea051d9288fd52efe2b932", "lon": -77.0065785, "fusion_lon": 0.0}, {"is_reserved": 0, "type": "electric_scooter", "fusion_lat": 0.0, "is_disabled": 0, "rental_uris": {"ios": "https://dc.lft.to/lastmile_qr_scan", "android": "https://dc.lft.to/lastmile_qr_scan"}, "bike_id": "e694d7e9f2ecc191d7a421274d2b02ff", "lat": 38.88137833333333, "name": "e694d7e9f2ecc191d7a421274d2b02ff", "lon": -76.99617816666667, "fusion_lon": 0.0}, {"is_reserved": 0, "type": "electric_scooter", "fusion_lat": 0.0, "is_disabled": 0, "rental_uris": {"ios": "https://dc.lft.to/lastmile_qr_scan", "android": "https://dc.lft.to/lastmile_qr_scan"}, "bike_id": "a90ea808d87b21a5a07e1f72017a4bfd", "lat": 38.898217, "name": "a90ea808d87b21a5a07e1f72017a4bfd", "lon": -76.99829283333334, "fusion_lon": 0.0}, {"is_reserved": 0, "type": "electric_scooter", "fusion_lat": 0.0, "is_disabled": 0, "rental_uris": {"ios": "https://dc.lft.to/lastmile_qr_scan", "android": "https://dc.lft.to/lastmile_qr_scan"}, "bike_id": "7b8abef4673edf045d9c195c4ee5bf73", "lat": 38.896127166666666, "name": "7b8abef4673edf045d9c195c4ee5bf73", "lon": -77.01082883333333, "fusion_lon": 0.0}, {"is_reserved": 0, "type": "electric_scooter", "fusion_lat": 0.0, "is_disabled": 0, "rental_uris": {"ios": "https://dc.lft.to/lastmile_qr_scan", "android": "https://dc.lft.to/lastmile_qr_scan"}, "bike_id": "5945223452b763c6e955b29b94c5edff", "lat": 38.878271833333336, "name": "5945223452b763c6e955b29b94c5edff", "lon": -77.00857366666666, "fusion_lon": 0.0}, {"is_reserved": 0, "type": "electric_scooter", "fusion_lat": 0.0, "is_disabled": 0, "rental_uris": {"ios": "https://dc.lft.to/lastmile_qr_scan", "android": "https://dc.lft.to/lastmile_qr_scan"}, "bike_id": "1e7d065908b581881a3286b7af682dc0", "lat": 38.920623666666664, "name": "1e7d065908b581881a3286b7af682dc0", "lon": -77.00042483333333, "fusion_lon": 0.0}, {"is_reserved": 0, "type": "electric_bike", "fusion_lat": 0.0, "is_disabled": 0, "rental_uris": {"ios": "https://dc.lft.to/lastmile_qr_scan", "android": "https://dc.lft.to/lastmile_qr_scan"}, "bike_id": "f5b2f2d09d8c16ef27ce2aafabbf71b1", "lat": 38.819373, "name": "f5b2f2d09d8c16ef27ce2aafabbf71b1", "lon": -77.0020475, "fusion_lon": 0.0}, {"is_reserved": 0, "type": "electric_scooter", "fusion_lat": 0.0, "is_disabled": 0, "rental_uris": {"ios": "https://dc.lft.to/lastmile_qr_scan", "android": "https://dc.lft.to/lastmile_qr_scan"}, "bike_id": "8b0c0c51c647c6acfee38bb72e3e6923", "lat": 38.93539483333333, "name": "8b0c0c51c647c6acfee38bb72e3e6923", "lon": -77.02349233333334, "fusion_lon": 0.0}, {"is_reserved": 0, "type": "electric_scooter", "fusion_lat": 0.0, "is_disabled": 0, "rental_uris": {"ios": "https://dc.lft.to/lastmile_qr_scan", "android": "https://dc.lft.to/lastmile_qr_scan"}, "bike_id": "0005aa9a5200ac6972b0b5fd7609dfb7", "lat": 38.924448, "name": "0005aa9a5200ac6972b0b5fd7609dfb7", "lon": -77.020414, "fusion_lon": 0.0}, {"is_reserved": 0, "type": "electric_scooter", "fusion_lat": 0.0, "is_disabled": 0, "rental_uris": {"ios": "https://dc.lft.to/lastmile_qr_scan", "android": "https://dc.lft.to/lastmile_qr_scan"}, "bike_id": "f664ded312b2929dc59169529c397c95", "lat": 38.899348, "name": "f664ded312b2929dc59169529c397c95", "lon": -76.93759366666667, "fusion_lon": 0.0}, {"is_reserved": 0, "type": "electric_scooter", "fusion_lat": 0.0, "is_disabled": 0, "rental_uris": {"ios": "https://dc.lft.to/lastmile_qr_scan", "android": "https://dc.lft.to/lastmile_qr_scan"}, "bike_id": "fbd3936ce2c8965f15f72b0748e33a56", "lat": 38.909163, "name": "fbd3936ce2c8965f15f72b0748e33a56", "lon": -77.04937383333333, "fusion_lon": 0.0}, {"is_reserved": 0, "type": "electric_scooter", "fusion_lat": 0.0, "is_disabled": 0, "rental_uris": {"ios": "https://dc.lft.to/lastmile_qr_scan", "android": "https://dc.lft.to/lastmile_qr_scan"}, "bike_id": "21dc23927029d9b219c3629af587b73a", "lat": 38.917472833333335, "name": "21dc23927029d9b219c3629af587b73a", "lon": -77.01084916666667, "fusion_lon": 0.0}, {"is_reserved": 0, "type": "electric_scooter", "fusion_lat": 0.0, "is_disabled": 0, "rental_uris": {"ios": "https://dc.lft.to/lastmile_qr_scan", "android": "https://dc.lft.to/lastmile_qr_scan"}, "bike_id": "42059bc7f29cab7f3984ad4f11c056ba", "lat": 38.88768116666667, "name": "42059bc7f29cab7f3984ad4f11c056ba", "lon": -76.97732316666666, "fusion_lon": 0.0}, {"is_reserved": 0, "type": "electric_scooter", "fusion_lat": 0.0, "is_disabled": 0, "rental_uris": {"ios": "https://dc.lft.to/lastmile_qr_scan", "android": "https://dc.lft.to/lastmile_qr_scan"}, "bike_id": "d8f6bccbd6f73f3960c31bf57d7c3db2", "lat": 38.920658833333334, "name": "d8f6bccbd6f73f3960c31bf57d7c3db2", "lon": -77.04396566666667, "fusion_lon": 0.0}, {"is_reserved": 0, "type": "electric_scooter", "fusion_lat": 0.0, "is_disabled": 0, "rental_uris": {"ios": "https://dc.lft.to/lastmile_qr_scan", "android": "https://dc.lft.to/lastmile_qr_scan"}, "bike_id": "e03b4b3a3006a71cd01f2e9611d6050b", "lat": 38.876490833333335, "name": "e03b4b3a3006a71cd01f2e9611d6050b", "lon": -77.00192566666666, "fusion_lon": 0.0}, {"is_reserved": 0, "type": "electric_scooter", "fusion_lat": 0.0, "is_disabled": 0, "rental_uris": {"ios": "https://dc.lft.to/lastmile_qr_scan", "android": "https://dc.lft.to/lastmile_qr_scan"}, "bike_id": "f2d4b00863a4cec1d1dbb05a30d321e9", "lat": 38.947071666666666, "name": "f2d4b00863a4cec1d1dbb05a30d321e9", "lon": -77.01936066666667, "fusion_lon": 0.0}, {"is_reserved": 0, "type": "electric_scooter", "fusion_lat": 0.0, "is_disabled": 0, "rental_uris": {"ios": "https://dc.lft.to/lastmile_qr_scan", "android": "https://dc.lft.to/lastmile_qr_scan"}, "bike_id": "793ca21a8151405b57b4f4ecfcbad6a0", "lat": 38.91880733333333, "name": "793ca21a8151405b57b4f4ecfcbad6a0", "lon": -77.07313583333334, "fusion_lon": 0.0}, {"is_reserved": 0, "type": "electric_scooter", "fusion_lat": 0.0, "is_disabled": 0, "rental_uris": {"ios": "https://dc.lft.to/lastmile_qr_scan", "android": "https://dc.lft.to/lastmile_qr_scan"}, "bike_id": "497dfb2af57908944249270cc692e524", "lat": 38.914207166666664, "name": "497dfb2af57908944249270cc692e524", "lon": -77.06926066666666, "fusion_lon": 0.0}, {"is_reserved": 0, "type": "electric_scooter", "fusion_lat": 0.0, "is_disabled": 0, "rental_uris": {"ios": "https://dc.lft.to/lastmile_qr_scan", "android": "https://dc.lft.to/lastmile_qr_scan"}, "bike_id": "f354d780e4a44d81e9c19864959dc442", "lat": 38.92431333333333, "name": "f354d780e4a44d81e9c19864959dc442", "lon": -77.0194555, "fusion_lon": 0.0}, {"is_reserved": 0, "type": "electric_scooter", "fusion_lat": 0.0, "is_disabled": 0, "rental_uris": {"ios": "https://dc.lft.to/lastmile_qr_scan", "android": "https://dc.lft.to/lastmile_qr_scan"}, "bike_id": "780ea10162418c5d294aab26edea61b2", "lat": 38.88769533333333, "name": "780ea10162418c5d294aab26edea61b2", "lon": -76.97729733333334, "fusion_lon": 0.0}, {"is_reserved": 0, "type": "electric_scooter", "fusion_lat": 0.0, "is_disabled": 0, "rental_uris": {"ios": "https://dc.lft.to/lastmile_qr_scan", "android": "https://dc.lft.to/lastmile_qr_scan"}, "bike_id": "47d4aaa9c2082949660128f9e098dca7", "lat": 38.87355766666667, "name": "47d4aaa9c2082949660128f9e098dca7", "lon": -77.00192483333333, "fusion_lon": 0.0}, {"is_reserved": 0, "type": "electric_scooter", "fusion_lat": 0.0, "is_disabled": 0, "rental_uris": {"ios": "https://dc.lft.to/lastmile_qr_scan", "android": "https://dc.lft.to/lastmile_qr_scan"}, "bike_id": "9a513b8a0baa868b184698fe603ed423", "lat": 38.9130045, "name": "9a513b8a0baa868b184698fe603ed423", "lon": -77.04542483333333, "fusion_lon": 0.0}, {"is_reserved": 0, "type": "electric_scooter", "fusion_lat": 0.0, "is_disabled": 0, "rental_uris": {"ios": "https://dc.lft.to/lastmile_qr_scan", "android": "https://dc.lft.to/lastmile_qr_scan"},