{"data": {"bikes": [{"type": "electric_scooter", "rental_uris": {"ios": "https://dc.lft.to/lastmile_qr_scan", "android": "https://dc.lft.to/lastmile_qr_scan"}, "lon": -77.03163166666667, "fusion_lon": 0.0, "is_disabled": 0, "lat": 38.89226016666667, "bike_id": "90c3dbb594f321d6f5fd32d387b2c560", "name": "90c3dbb594f321d6f5fd32d387b2c560", "is_reserved": 0, "fusion_lat": 0.0}, {"type": "electric_scooter", "rental_uris": {"ios": "https://dc.lft.to/lastmile_qr_scan", "android": "https://dc.lft.to/lastmile_qr_scan"}, "lon": -77.03219033333333, "fusion_lon": 0.0, "is_disabled": 0, "lat": 38.892214333333335, "bike_id": "739dd3fe89d78bfc33344d0db275a8e8", "name": "739dd3fe89d78bfc33344d0db275a8e8", "is_reserved": 0, "fusion_lat": 0.0}, {"type": "electric_scooter", "rental_uris": {"ios": "https://dc.lft.to/lastmile_qr_scan", "android": "https://dc.lft.to/lastmile_qr_scan"}, "lon": -77.0449025, "fusion_lon": 0.0, "is_disabled": 0, "lat": 38.90793866666667, "bike_id": "04a3db3bc16d52023fdf3fc545a60e39", "name": "04a3db3bc16d52023fdf3fc545a60e39", "is_reserved": 0, "fusion_lat": 0.0}, {"type": "electric_scooter", "rental_uris": {"ios": "https://dc.lft.to/lastmile_qr_scan", "android": "https://dc.lft.to/lastmile_qr_scan"}, "lon": -77.03412633333333, "fusion_lon": 0.0, "is_disabled": 0, "lat": 38.927453, "bike_id": "2eda4384bf01b887f9cf060410af6964", "name": "2eda4384bf01b887f9cf060410af6964", "is_reserved": 0, "fusion_lat": 0.0}, {"type": "electric_scooter", "rental_uris": {"ios": "https://dc.lft.to/lastmile_qr_scan", "android": "https://dc.lft.to/lastmile_qr_scan"}, "lon": -76.99364183333333, "fusion_lon": 0.0, "is_disabled": 0, "lat": 38.928419, "bike_id": "e3d3010c4849f17b9618dada5ab7c247", "name": "e3d3010c4849f17b9618dada5ab7c247", "is_reserved": 0, "fusion_lat": 0.0}, {"type": "electric_scooter", "rental_uris": {"ios": "https://dc.lft.to/lastmile_qr_scan", "android": "https://dc.lft.to/lastmile_qr_scan"}, "lon": -76.97924733333333, "fusion_lon": 0.0, "is_disabled": 0, "lat": 38.904998, "bike_id": "89dda8b3de581bf2736aca0a23707b85", "name": "89dda8b3de581bf2736aca0a23707b85", "is_reserved": 0, "fusion_lat": 0.0}, {"type": "electric_scooter", "rental_uris": {"ios": "https://dc.lft.to/lastmile_qr_scan", "android": "https://dc.lft.to/lastmile_qr_scan"}, "lon": -77.03221683333334, "fusion_lon": 0.0, "is_disabled": 0, "lat": 38.892229, "bike_id": "f2c95a05320cd9d4a5785ffe7b32b316", "name": "f2c95a05320cd9d4a5785ffe7b32b316", "is_reserved": 0, "fusion_lat": 0.0}, {"type": "electric_scooter", "rental_uris": {"ios": "https://dc.lft.to/lastmile_qr_scan", "android": "https://dc.lft.to/lastmile_qr_scan"}, "lon": -77.03186783333334, "fusion_lon": 0.0, "is_disabled": 0, "lat": 38.918706666666665, "bike_id": "ec899fd689880c5b6be3e7de871dbf27", "name": "ec899fd689880c5b6be3e7de871dbf27", "is_reserved": 0, "fusion_lat": 0.0}, {"type": "electric_scooter", "rental_uris": {"ios": "https://dc.lft.to/lastmile_qr_scan", "android": "https://dc.lft.to/lastmile_qr_scan"}, "lon": -77.03188233333333, "fusion_lon": 0.0, "is_disabled": 0, "lat": 38.921243833333335, "bike_id": "d3f5fa82765b5bfba408956bbc5ce4cc", "name": "d3f5fa82765b5bfba408956bbc5ce4cc", "is_reserved": 0, "fusion_lat": 0.0}, {"type": "electric_scooter", "rental_uris": {"ios": "https://dc.lft.to/lastmile_qr_scan", "android": "https://dc.lft.to/lastmile_qr_scan"}, "lon": -77.03835816666667, "fusion_lon": 0.0, "is_disabled": 0, "lat": 38.911171, "bike_id": "89dd3f17d1bb178bd7c06066e6f95943", "name": "89dd3f17d1bb178bd7c06066e6f95943", "is_reserved": 0, "fusion_lat": 0.0}, {"type": "electric_scooter", "rental_uris": {"ios": "https://dc.lft.to/lastmile_qr_scan", "android": "https://dc.lft.to/lastmile_qr_scan"}, "lon": -77.011357, "fusion_lon": 0.0, "is_disabled": 0, "lat": 38.88526866666667, "bike_id": "550368f8935bc1354e860ef2bbb6ee43", "name": "550368f8935bc1354e860ef2bbb6ee43", "is_reserved": 0, "fusion_lat": 0.0}, {"type": "electric_scooter", "rental_uris": {"ios": "https://dc.lft.to/lastmile_qr_scan", "android": "https://dc.lft.to/lastmile_qr_scan"}, "lon": -77.03507283333333, "fusion_lon": 0.0, "is_disabled": 0, "lat": 38.921518, "bike_id": "4369561f13a448656b5c3be98326cc7f", "name": "4369561f13a448656b5c3be98326cc7f", "is_reserved": 0, "fusion_lat": 0.0}, {"type": "electric_scooter", "rental_uris": {"ios": "https://dc.lft.to/lastmile_qr_scan", "android": "https://dc.lft.to/lastmile_qr_scan"}, "lon": -77.04160066666667, "fusion_lon": 0.0, "is_disabled": 0, "lat": 38.91618483333333, "bike_id": "9495f49067d92b6938229d74e5543ac5", "name": "9495f49067d92b6938229d74e5543ac5", "is_reserved": 0, "fusion_lat": 0.0}, {"type": "electric_scooter", "rental_uris": {"ios": "https://dc.lft.to/lastmile_qr_scan", "android": "https://dc.lft.to/lastmile_qr_scan"}, "lon": -77.0177255, "fusion_lon": 0.0, "is_disabled": 0, "lat": 38.9056055, "bike_id": "ac06e040286bb11c9085db2ee67fdcf6", "name": "ac06e040286bb11c9085db2ee67fdcf6", "is_reserved": 0, "fusion_lat": 0.0}, {"type": "electric_scooter", "rental_uris": {"ios": "https://dc.lft.to/lastmile_qr_scan", "android": "https://dc.lft.to/lastmile_qr_scan"}, "lon": -77.0317625, "fusion_lon": 0.0, "is_disabled": 0, "lat": 38.9141865, "bike_id": "8235bb351e185acca1e7a7f14daf6274", "name": "8235bb351e185acca1e7a7f14daf6274", "is_reserved": 0, "fusion_lat": 0.0}, {"type": "electric_scooter", "rental_uris": {"ios": "https://dc.lft.to/lastmile_qr_scan", "android": "https://dc.lft.to/lastmile_qr_scan"}, "lon": -77.024096, "fusion_lon": 0.0, "is_disabled": 0, "lat": 38.891960833333336, "bike_id": "44e01768af9220f264ea227c09920467", "name": "44e01768af9220f264ea227c09920467", "is_reserved": 0, "fusion_lat": 0.0}, {"type": "electric_scooter", "rental_uris": {"ios": "https://dc.lft.to/lastmile_qr_scan", "android": "https://dc.lft.to/lastmile_qr_scan"}, "lon": -77.055016, "fusion_lon": 0.0, "is_disabled": 0, "lat": 38.936615833333335, "bike_id": "34a794801a6934291387bed1381c42c8", "name": "34a794801a6934291387bed1381c42c8", "is_reserved": 0, "fusion_lat": 0.0}, {"type": "electric_scooter", "rental_uris": {"ios": "https://dc.lft.to/lastmile_qr_scan", "android": "https://dc.lft.to/lastmile_qr_scan"}, "lon": -77.02966766666667, "fusion_lon": 0.0, "is_disabled": 0, "lat": 38.93474466666667, "bike_id": "3290e439d7a0d44287cf5113e6290b49", "name": "3290e439d7a0d44287cf5113e6290b49", "is_reserved": 0, "fusion_lat": 0.0}, {"type": "electric_bike", "rental_uris": {"ios": "https://dc.lft.to/lastmile_qr_scan", "android": "https://dc.lft.to/lastmile_qr_scan"}, "lon": -77.13143533333333, "fusion_lon": 0.0, "is_disabled": 0, "lat": 38.861715333333336, "bike_id": "073ac0ea443cd7309c39d5229b265c12", "name": "073ac0ea443cd7309c39d5229b265c12", "is_reserved": 0, "fusion_lat": 0.0}, {"type": "electric_scooter", "rental_uris": {"ios": "https://dc.lft.to/lastmile_qr_scan", "android": "https://dc.lft.to/lastmile_qr_scan"}, "lon": -77.02629616666667, "fusion_lon": 0.0, "is_disabled": 0, "lat": 38.8874595, "bike_id": "579eed3e825a038eabfddca53265d272", "name": "579eed3e825a038eabfddca53265d272", "is_reserved": 0, "fusion_lat": 0.0}, {"type": "electric_scooter", "rental_uris": {"ios": "https://dc.lft.to/lastmile_qr_scan", "android": "https://dc.lft.to/lastmile_qr_scan"}, "lon": -77.0249245, "fusion_lon": 0.0, "is_disabled": 0, "lat": 38.94185616666667, "bike_id": "8f0f4ea5f3e76f3ba156c09fe7f01be1", "name": "8f0f4ea5f3e76f3ba156c09fe7f01be1", "is_reserved": 0, "fusion_lat": 0.0}, {"type": "electric_scooter", "rental_uris": {"ios": "https://dc.lft.to/lastmile_qr_scan", "android": "https://dc.lft.to/lastmile_qr_scan"}, "lon": -77.02691, "fusion_lon": 0.0, "is_disabled": 0, "lat": 38.90679816666667, "bike_id": "15ef059bbf1efdd4df939311c94cb3fc", "name": "15ef059bbf1efdd4df939311c94cb3fc", "is_reserved": 0, "fusion_lat": 0.0}, {"type": "electric_scooter", "rental_uris": {"ios": "https://dc.lft.to/lastmile_qr_scan", "android": "https://dc.lft.to/lastmile_qr_scan"}, "lon": -76.9870755, "fusion_lon": 0.0, "is_disabled": 0, "lat": 38.86534183333333, "bike_id": "f93f7cf266e1f7b5eda0cc15b2050c9b", "name": "f93f7cf266e1f7b5eda0cc15b2050c9b", "is_reserved": 0, "fusion_lat": 0.0}, {"type": "electric_bike", "rental_uris": {"ios": "https://dc.lft.to/lastmile_qr_scan", "android": "https://dc.lft.to/lastmile_qr_scan"}, "lon": -76.9718455, "fusion_lon": 0.0, "is_disabled": 0, "lat": 38.91791666666667, "bike_id": "d55aba0a15b1b274fa703175034e23f7", "name": "d55aba0a15b1b274fa703175034e23f7", "is_reserved": 0, "fusion_lat": 0.0}, {"type": "electric_scooter", "rental_uris": {"ios": "https://dc.lft.to/lastmile_qr_scan", "android": "https://dc.lft.to/lastmile_qr_scan"}, "lon": -77.04227716666666, "fusion_lon": 0.0, "is_disabled": 0, "lat": 38.921981833333334, "bike_id": "7540719f2822e4ba95f5115f18f02cca", "name": "7540719f2822e4ba95f5115f18f02cca", "is_reserved": 0, "fusion_lat": 0.0}, {"type": "electric_scooter", "rental_uris": {"ios": "https://dc.lft.to/lastmile_qr_scan", "android": "https://dc.lft.to/lastmile_qr_scan"}, "lon": -77.04147966666666, "fusion_lon": 0.0, "is_disabled": 0, "lat": 38.892210166666665, "bike_id": "042e2b8efa7fc762b19a3fd865b32957", "name": "042e2b8efa7fc762b19a3fd865b32957", "is_reserved": 0, "fusion_lat": 0.0}, {"type": "electric_scooter", "rental_uris": {"ios": "https://dc.lft.to/lastmile_qr_scan", "android": "https://dc.lft.to/lastmile_qr_scan"}, "lon": -77.02694633333333, "fusion_lon": 0.0, "is_disabled": 0, "lat": 38.9112235, "bike_id": "16a1c56fbf29f6edb4e4330b6439ede3", "name": "16a1c56fbf29f6edb4e4330b6439ede3", "is_reserved": 0, "fusion_lat": 0.0}, {"type": "electric_scooter", "rental_uris": {"ios": "https://dc.lft.to/lastmile_qr_scan", "android": "https://dc.lft.to/lastmile_qr_scan"}, "lon": -76.9888965, "fusion_lon": 0.0, "is_disabled": 0, "lat": 38.8665145, "bike_id": "c6b73ed3d6e046d5e46c35e32dcb85e4", "name": "c6b73ed3d6e046d5e46c35e32dcb85e4", "is_reserved": 0, "fusion_lat": 0.0}, {"type": "electric_scooter", "rental_uris": {"ios": "https://dc.lft.to/lastmile_qr_scan", "android": "https://dc.lft.to/lastmile_qr_scan"}, "lon": -77.032992, "fusion_lon": 0.0, "is_disabled": 0, "lat": 38.956412, "bike_id": "454aed48fdd4953c388c9d6c90e9c1cd", "name": "454aed48fdd4953c388c9d6c90e9c1cd", "is_reserved": 0, "fusion_lat": 0.0}, {"type": "electric_scooter", "rental_uris": {"ios": "https://dc.lft.to/lastmile_qr_scan", "android": "https://dc.lft.to/lastmile_qr_scan"}, "lon": -77.05261816666666, "fusion_lon": 0.0, "is_disabled": 0, "lat": 38.925415, "bike_id": "4ba003b95f7b75996dcec9c877725b8f", "name": "4ba003b95f7b75996dcec9c877725b8f", "is_reserved": 0, "fusion_lat": 0.0}, {"type": "electric_bike", "rental_uris": {"ios": "https://dc.lft.to/lastmile_qr_scan", "android": "https://dc.lft.to/lastmile_qr_scan"}, "lon": -77.12730633333334, "fusion_lon": 0.0, "is_disabled": 0, "lat": 38.895609666666665, "bike_id": "b9e2aa817be03ebda7e0842b0fdfa480", "name": "b9e2aa817be03ebda7e0842b0fdfa480", "is_reserved": 0, "fusion_lat": 0.0}, {"type": "electric_scooter", "rental_uris": {"ios": "https://dc.lft.to/lastmile_qr_scan", "android": "https://dc.lft.to/lastmile_qr_scan"}, "lon": -77.05237266666667, "fusion_lon": 0.0, "is_disabled": 0, "lat": 38.92340216666667, "bike_id": "1e2ef4ef71e0a9846c723456b025b53c", "name": "1e2ef4ef71e0a9846c723456b025b53c", "is_reserved": 0, "fusion_lat": 0.0}, {"type": "electric_scooter", "rental_uris": {"ios": "https://dc.lft.to/lastmile_qr_scan", "android": "https://dc.lft.to/lastmile_qr_scan"}, "lon": -77.03433566666666, "fusion_lon": 0.0, "is_disabled": 0, "lat": 38.930825166666665, "bike_id": "99aa0227ad21538380bc61dfec653baa", "name": "99aa0227ad21538380bc61dfec653baa", "is_reserved": 0, "fusion_lat": 0.0}, {"type": "electric_scooter", "rental_uris": {"ios": "https://dc.lft.to/lastmile_qr_scan", "android": "https://dc.lft.to/lastmile_qr_scan"}, "lon": -76.980803, "fusion_lon": 0.0, "is_disabled": 0, "lat": 38.919503666666664, "bike_id": "6960d04456f97f10cc571b657833d0aa", "name": "6960d04456f97f10cc571b657833d0aa", "is_reserved": 0, "fusion_lat": 0.0}, {"type": "electric_scooter", "rental_uris": {"ios": "https://dc.lft.to/lastmile_qr_scan", "android": "https://dc.lft.to/lastmile_qr_scan"}, "lon": -76.977046, "fusion_lon": 0.0, "is_disabled": 0, "lat": 38.902536, "bike_id": "e5457bccee521160e5bba572d40e024a", "name": "e5457bccee521160e5bba572d40e024a", "is_reserved": 0, "fusion_lat": 0.0}, {"type": "electric_scooter", "rental_uris": {"ios": "https://dc.lft.to/lastmile_qr_scan", "android": "https://dc.lft.to/lastmile_qr_scan"}, "lon": -77.0432665, "fusion_lon": 0.0, "is_disabled": 0, "lat": 38.91117416666667, "bike_id": "2b06da63c63f839c88ea433d877e2a9d", "name": "2b06da63c63f839c88ea433d877e2a9d", "is_reserved": 0, "fusion_lat": 0.0}, {"type": "electric_bike", "rental_uris": {"ios": "https://dc.lft.to/lastmile_qr_scan", "android": "https://dc.lft.to/lastmile_qr_scan"}, "lon": -77.01012166666666, "fusion_lon": 0.0, "is_disabled": 0, "lat": 38.95599266666667, "bike_id": "9f38f08d3a32e2bf84b8283327569a76", "name": "9f38f08d3a32e2bf84b8283327569a76", "is_reserved": 0, "fusion_lat": 0.0}, {"type": "electric_scooter", "rental_uris": {"ios": "https://dc.lft.to/lastmile_qr_scan", "android": "https://dc.lft.to/lastmile_qr_scan"}, "lon": -77.03882633333333, "fusion_lon": 0.0, "is_disabled": 0, "lat": 38.90246966666667, "bike_id": "0ba39f39de90ebf329560400edc62eb7", "name": "0ba39f39de90ebf329560400edc62eb7", "is_reserved": 0, "fusion_lat": 0.0}, {"type": "electric_scooter", "rental_uris": {"ios": "https://dc.lft.to/lastmile_qr_scan", "android": "https://dc.lft.to/lastmile_qr_scan"}, "lon": -77.039569, "fusion_lon": 0.0, "is_disabled": 0, "lat": 38.89245733333333, "bike_id": "c08815de0248562bfe9a352d59c48ceb", "name": "c08815de0248562bfe9a352d59c48ceb", "is_reserved": 0, "fusion_lat": 0.0}, {"type": "electric_scooter", "rental_uris": {"ios": "https://dc.lft.to/lastmile_qr_scan", "android": "https://dc.lft.to/lastmile_qr_scan"}, "lon": -77.04368366666667, "fusion_lon": 0.0, "is_disabled": 0, "lat": 38.933244, "bike_id": "cc50430196979e5ebec14cae55f875f7", "name": "cc50430196979e5ebec14cae55f875f7", "is_reserved": 0, "fusion_lat": 0.0}, {"type": "electric_scooter", "rental_uris": {"ios": "https://dc.lft.to/lastmile_qr_scan", "android": "https://dc.lft.to/lastmile_qr_scan"}, "lon": -77.04229366666667, "fusion_lon": 0.0, "is_disabled": 0, "lat": 38.92173783333333, "bike_id": "984c442df91a22130b7607187b22a7ae", "name": "984c442df91a22130b7607187b22a7ae", "is_reserved": 0, "fusion_lat": 0.0}, {"type": "electric_scooter", "rental_uris": {"ios": "https://dc.lft.to/lastmile_qr_scan", "android": "https://dc.lft.to/lastmile_qr_scan"}, "lon": -77.011352, "fusion_lon": 0.0, "is_disabled": 0, "lat": 38.885257, "bike_id": "55f614bed2687cd056ef53a52dac1c16", "name": "55f614bed2687cd056ef53a52dac1c16", "is_reserved": 0, "fusion_lat": 0.0}, {"type": "electric_scooter", "rental_uris": {"ios": "https://dc.lft.to/lastmile_qr_scan", "android": "https://dc.lft.to/lastmile_qr_scan"}, "lon": -77.0298775, "fusion_lon": 0.0, "is_disabled": 0, "lat": 38.9050795, "bike_id": "4b9e1561a25c1f7f2ec9d8ea61f756d1", "name": "4b9e1561a25c1f7f2ec9d8ea61f756d1", "is_reserved": 0, "fusion_lat": 0.0}, {"type": "electric_scooter", "rental_uris": {"ios": "https://dc.lft.to/lastmile_qr_scan", "android": "https://dc.lft.to/lastmile_qr_scan"}, "lon": -77.03433733333334, "fusion_lon": 0.0, "is_disabled": 0, "lat": 38.90725166666667, "bike_id": "83f8a40c29fee251b6a75f946fed9d7f", "name": "83f8a40c29fee251b6a75f946fed9d7f", "is_reserved": 0, "fusion_lat": 0.0}, {"type": "electric_scooter", "rental_uris": {"ios": "https://dc.lft.to/lastmile_qr_scan", "android": "https://dc.lft.to/lastmile_qr_scan"}, "lon": -77.0223045, "fusion_lon": 0.0, "is_disabled": 0, "lat": 38.91253916666667, "bike_id": "3e2aa14fc990de546f9ab213af83192f", "name": "3e2aa14fc990de546f9ab213af83192f", "is_reserved": 0, "fusion_lat": 0.0}, {"type": "electric_bike", "rental_uris": {"ios": "https://dc.lft.to/lastmile_qr_scan", "android": "https://dc.lft.to/lastmile_qr_scan"}, "lon": -76.97831383333333, "fusion_lon": 0.0, "is_disabled": 0, "lat": 38.87070933333333, "bike_id": "518cba5d2f601774f983837214b59ad1", "name": "518cba5d2f601774f983837214b59ad1", "is_reserved": 0, "fusion_lat": 0.0}, {"type": "electric_scooter", "rental_uris": {"ios": "https://dc.lft.to/lastmile_qr_scan", "android": "https://dc.lft.to/lastmile_qr_scan"}, "lon": -77.04389516666667, "fusion_lon": 0.0, "is_disabled": 0, "lat": 38.910726833333335, "bike_id": "a54d86c0fa52018834fe1321750a7566", "name": "a54d86c0fa52018834fe1321750a7566", "is_reserved": 0, "fusion_lat": 0.0}, {"type": "electric_bike", "rental_uris": {"ios": "https://dc.lft.to/lastmile_qr_scan", "android": "https://dc.lft.to/lastmile_qr_scan"}, "lon": -76.9479295, "fusion_lon": 0.0, "is_disabled": 0, "lat": 38.89400766666667, "bike_id": "5563bc2e0a88e2918e92cdd6ad2b2ef0", "name": "5563bc2e0a88e2918e92cdd6ad2b2ef0", "is_reserved": 0, "fusion_lat": 0.0}, {"type": "electric_bike", "rental_uris": {"ios": "https://dc.lft.to/lastmile_qr_scan", "android": "https://dc.lft.to/lastmile_qr_scan"}, "lon": -76.99017583333334, "fusion_lon": 0.0, "is_disabled": 0, "lat": 38.95477966666667, "bike_id": "2a481e78c07d64f6f0dbf67286ab7fdf", "name": "2a481e78c07d64f6f0dbf67286ab7fdf", "is_reserved": 0, "fusion_lat": 0.0}, {"type": "electric_bike", "rental_uris": {"ios": "https://dc.lft.to/lastmile_qr_scan", "android": "https://dc.lft.to/lastmile_qr_scan"}, "lon": -77.00669516666666, "fusion_lon": 0.0, "is_disabled": 0, "lat": 38.94504466666667, "bike_id": "1da9f8566f745de0fbcc98a295780f7f", "name": "1da9f8566f745de0fbcc98a295780f7f", "is_reserved": 0, "fusion_lat": 0.0}, {"type": "electric_bike", "rental_uris": {"ios": "https://dc.lft.to/lastmile_qr_scan", "android": "https://dc.lft.to/lastmile_qr_scan"}, "lon": -76.96261266666667, "fusion_lon": 0.0, "is_disabled": 0, "lat": 38.882462333333336, "bike_id": "ea0af60522c4935e987cd63bdaf6e3e8", "name": "ea0af60522c4935e987cd63bdaf6e3e8", "is_reserved": 0, "fusion_lat": 0.0}, {"type": "electric_scooter", "rental_uris": {"ios": "https://dc.lft.to/lastmile_qr_scan", "android": "https://dc.lft.to/lastmile_qr_scan"}, "lon": -77.03187683333333, "fusion_lon": 0.0, "is_disabled": 0, "lat": 38.9171865, "bike_id": "251c0178631ee150ee44e3e1c1b12592", "name": "251c0178631ee150ee44e3e1c1b12592", "is_reserved": 0, "fusion_lat": 0.0}, {"type": "electric_scooter", "rental_uris": {"ios": "https://dc.lft.to/lastmile_qr_scan", "android": "https://dc.lft.to/lastmile_qr_scan"}, "lon": -76.95417816666667, "fusion_lon": 0.0, "is_disabled": 0, "lat": 38.890666833333334, "bike_id": "a7e493cdd2f14c25eb1c068b2de35b03", "name": "a7e493cdd2f14c25eb1c068b2de35b03", "is_reserved": 0, "fusion_lat": 0.0}, {"type": "electric_scooter", "rental_uris": {"ios": "https://dc.lft.to/lastmile_qr_scan", "android": "https://dc.lft.to/lastmile_qr_scan"}, "lon": -76.98348216666666, "fusion_lon": 0.0, "is_disabled": 0, "lat": 38.9074475, "bike_id": "6fa3727a51cb8c2062e6ec77c74fb430", "name": "6fa3727a51cb8c2062e6ec77c74fb430", "is_reserved": 0, "fusion_lat": 0.0}, {"type": "electric_scooter", "rental_uris": {"ios": "https://dc.lft.to/lastmile_qr_scan", "android": "https://dc.lft.to/lastmile_qr_scan"}, "lon": -77.00610116666667, "fusion_lon": 0.0, "is_disabled": 0, "lat": 38.87179883333334, "bike_id": "efa639ba7f72d0990da940ed255928f2", "name": "efa639ba7f72d0990da940ed255928f2", "is_reserved": 0, "fusion_lat": 0.0}, {"type": "electric_scooter", "rental_uris": {"ios": "https://dc.lft.to/lastmile_qr_scan", "android": "https://dc.lft.to/lastmile_qr_scan"}, "lon": -77.04444016666666, "fusion_lon": 0.0, "is_disabled": 0, "lat": 38.912526166666666, "bike_id": "7e6635ee34fb024f901c5c95622dc7e1", "name": "7e6635ee34fb024f901c5c95622dc7e1", "is_reserved": 0, "fusion_lat": 0.0}, {"type": "electric_scooter", "rental_uris": {"ios": "https://dc.lft.to/lastmile_qr_scan", "android": "https://dc.lft.to/lastmile_qr_scan"}, "lon": -77.03213283333334, "fusion_lon": 0.0, "is_disabled": 0, "lat": 38.91994866666667, "bike_id": "f8d221b6ff63eeafdeae2cec34623d90", "name": "f8d221b6ff63eeafdeae2cec34623d90", "is_reserved": 0, "fusion_lat": 0.0}, {"type": "electric_scooter", "rental_uris": {"ios": "https://dc.lft.to/lastmile_qr_scan", "android": "https://dc.lft.to/lastmile_qr_scan"}, "lon": -77.03857166666667, "fusion_lon": 0.0, "is_disabled": 0, "lat": 38.86753083333333, "bike_id": "1d8fef3ca677e1c5e50a65bc40a31de5", "name": "1d8fef3ca677e1c5e50a65bc40a31de5", "is_reserved": 0, "fusion_lat": 0.0}, {"type": "electric_scooter", "rental_uris": {"ios": "https://dc.lft.to/lastmile_qr_scan", "android": "https://dc.lft.to/lastmile_qr_scan"}, "lon": -77.02969516666667, "fusion_lon": 0.0, "is_disabled": 0, "lat": 38.91682983333333, "bike_id": "56b7ae1ba10cae53eed7a128620d30a8", "name": "56b7ae1ba10cae53eed7a128620d30a8", "is_reserved": 0, "fusion_lat": 0.0}, {"type": "electric_scooter", "rental_uris": {"ios": "https://dc.lft.to/lastmile_qr_scan", "android": "https://dc.lft.to/lastmile_qr_scan"}, "lon": -76.97437, "fusion_lon": 0.0, "is_disabled": 0, "lat": 38.864132166666664, "bike_id": "0dc3bf95c305f0fb396cbec78ca6cf8d", "name": "0dc3bf95c305f0fb396cbec78ca6cf8d", "is_reserved": 0, "fusion_lat": 0.0}, {"type": "electric_scooter", "rental_uris": {"ios": "https://dc.lft.to/lastmile_qr_scan", "android": "https://dc.lft.to/lastmile_qr_scan"}, "lon": -77.00224133333333, "fusion_lon": 0.0, "is_disabled": 0, "lat": 38.925073, "bike_id": "f256bbbfaaf1336417f94007c2dc74bf", "name": "f256bbbfaaf1336417f94007c2dc74bf", "is_reserved": 0, "fusion_lat": 0.0}, {"type": "electric_bike", "rental_uris": {"ios": "https://dc.lft.to/lastmile_qr_scan", "android": "https://dc.lft.to/lastmile_qr_scan"}, "lon": -76.93651066666666, "fusion_lon": 0.0, "is_disabled": 0, "lat": 38.87154783333333, "bike_id": "4648c02d756baee4153407eca1f6d3c2", "name": "4648c02d756baee4153407eca1f6d3c2", "is_reserved": 0, "fusion_lat": 0.0}, {"type": "electric_scooter", "rental_uris": {"ios": "https://dc.lft.to/lastmile_qr_scan", "android": "https://dc.lft.to/lastmile_qr_scan"}, "lon": -77.02655, "fusion_lon": 0.0, "is_disabled": 0, "lat": 38.89225066666667, "bike_id": "cc9f16a8b10559810368562f2801aff8", "name": "cc9f16a8b10559810368562f2801aff8", "is_reserved": 0, "fusion_lat": 0.0}, {"type": "electric_scooter", "rental_uris": {"ios": "https://dc.lft.to/lastmile_qr_scan", "android": "https://dc.lft.to/lastmile_qr_scan"}, "lon": -77.03442816666667, "fusion_lon": 0.0, "is_disabled": 0, "lat": 38.90417683333333, "bike_id": "4ff2f55396861e97d1d100d40ce98d8b", "name": "4ff2f55396861e97d1d100d40ce98d8b", "is_reserved": 0, "fusion_lat": 0.0}, {"type": "electric_scooter", "rental_uris": {"ios": "https://dc.lft.to/lastmile_qr_scan", "android": "https://dc.lft.to/lastmile_qr_scan"}, "lon": -76.926236, "fusion_lon": 0.0, "is_disabled": 0, "lat": 38.884580666666665, "bike_id": "aa0a7c67b278743983b141f4f2a94bb6", "name": "aa0a7c67b278743983b141f4f2a94bb6", "is_reserved": 0, "fusion_lat": 0.0}, {"type": "electric_scooter", "rental_uris": {"ios": "https://dc.lft.to/lastmile_qr_scan", "android": "https://dc.lft.to/lastmile_qr_scan"}, "lon": -77.04664566666666, "fusion_lon": 0.0, "is_disabled": 0, "lat": 38.8924295, "bike_id": "39fa0138bbef24d7e1b1e2eace3bee9a", "name": "39fa0138bbef24d7e1b1e2eace3bee9a", "is_reserved": 0, "fusion_lat": 0.0}, {"type": "electric_scooter", "rental_uris": {"ios": "https://dc.lft.to/lastmile_qr_scan", "android": "https://dc.lft.to/lastmile_qr_scan"}, "lon": -77.0232355, "fusion_lon": 0.0, "is_disabled": 0, "lat": 38.916874666666665, "bike_id": "0f7c99a18184a7cfcc8bd35744c99d69", "name": "0f7c99a18184a7cfcc8bd35744c99d69", "is_reserved": 0, "fusion_lat": 0.0}, {"type": "electric_scooter", "rental_uris": {"ios": "https://dc.lft.to/lastmile_qr_scan", "android": "https://dc.lft.to/lastmile_qr_scan"}, "lon": -77.0452015, "fusion_lon": 0.0, "is_disabled": 0, "lat": 38.91823216666667, "bike_id": "04e4d889620ab7704f037af3c7dfd350", "name": "04e4d889620ab7704f037af3c7dfd350", "is_reserved": 0, "fusion_lat": 0.0}, {"type": "electric_scooter", "rental_uris": {"ios": "https://dc.lft.to/lastmile_qr_scan", "android": "https://dc.lft.to/lastmile_qr_scan"}, "lon": -76.96870133333333, "fusion_lon": 0.0, "is_disabled": 0, "lat": 38.870914, "bike_id": "b061f7167b828ab95736c250e509eae0", "name": "b061f7167b828ab95736c250e509eae0", "is_reserved": 0, "fusion_lat": 0.0}, {"type": "electric_scooter", "rental_uris": {"ios": "https://dc.lft.to/lastmile_qr_scan", "android": "https://dc.lft.to/lastmile_qr_scan"}, "lon": -77.04505516666667, "fusion_lon": 0.0, "is_disabled": 0, "lat": 38.89220366666667, "bike_id": "a9ed30decc6a3529114bf04459cbeb2c", "name": "a9ed30decc6a3529114bf04459cbeb2c", "is_reserved": 0, "fusion_lat": 0.0}, {"type": "electric_scooter", "rental_uris": {"ios": "https://dc.lft.to/lastmile_qr_scan", "android": "https://dc.lft.to/lastmile_qr_scan"}, "lon": -76.99505416666666, "fusion_lon": 0.0, "is_disabled": 0, "lat": 38.894924, "bike_id": "0e37053dfaeb0bab629e19c08f61abf2", "name": "0e37053dfaeb0bab629e19c08f61abf2", "is_reserved": 0, "fusion_lat": 0.0}, {"type": "electric_scooter", "rental_uris": {"ios": "https://dc.lft.to/lastmile_qr_scan", "android": "https://dc.lft.to/lastmile_qr_scan"}, "lon": -77.04011083333333, "fusion_lon": 0.0, "is_disabled": 0, "lat": 38.92167, "bike_id": "ffdb69ce1977f87c190f5984e4ec25d6", "name": "ffdb69ce1977f87c190f5984e4ec25d6", "is_reserved": 0, "fusion_lat": 0.0}, {"type": "electric_scooter", "rental_uris": {"ios": "https://dc.lft.to/lastmile_qr_scan", "android": "https://dc.lft.to/lastmile_qr_scan"}, "lon": -77.0336305, "fusion_lon": 0.0, "is_disabled": 0, "lat": 38.887602666666666, "bike_id": "f2e8acbc9379ed86bf013c83e4121536", "name": "f2e8acbc9379ed86bf013c83e4121536", "is_reserved": 0, "fusion_lat": 0.0}, {"type": "electric_scooter", "rental_uris": {"ios": "https://dc.lft.to/lastmile_qr_scan", "android": "https://dc.lft.to/lastmile_qr_scan"}, "lon": -77.02775233333334, "fusion_lon": 0.0, "is_disabled": 0, "lat": 38.89223583333333, "bike_id": "5cd38894e933db50b759c9f6322188e9", "name": "5cd38894e933db50b759c9f6322188e9", "is_reserved": 0, "fusion_lat": 0.0}, {"type": "electric_scooter", "rental_uris": {"ios": "https://dc.lft.to/lastmile_qr_scan", "android": "https://dc.lft.to/lastmile_qr_scan"}, "lon": -77.03794283333333, "fusion_lon": 0.0, "is_disabled": 0, "lat": 38.92623783333333, "bike_id": "bd29583f62977f39e27b407df569bccd", "name": "bd29583f62977f39e27b407df569bccd", "is_reserved": 0, "fusion_lat": 0.0}, {"type": "electric_scooter", "rental_uris": {"ios": "https://dc.lft.to/lastmile_qr_scan", "android": "https://dc.lft.to/lastmile_qr_scan"}, "lon": -76.96598983333334, "fusion_lon": 0.0, "is_disabled": 0, "lat": 38.873877, "bike_id": "dea0253a77ef6d8fa23ff27976dfeffd", "name": "dea0253a77ef6d8fa23ff27976dfeffd", "is_reserved": 0, "fusion_lat": 0.0}, {"type": "electric_scooter", "rental_uris": {"ios": "https://dc.lft.to/lastmile_qr_scan", "android": "https://dc.lft.to/lastmile_qr_scan"}, "lon": -77.0437635, "fusion_lon": 0.0, "is_disabled": 0, "lat": 38.921141666666664, "bike_id": "97058af8f61c7fd42ed59187dd3c3abb", "name": "97058af8f61c7fd42ed59187dd3c3abb", "is_reserved": 0, "fusion_lat": 0.0}, {"type": "electric_scooter", "rental_uris": {"ios": "https://dc.lft.to/lastmile_qr_scan", "android": "https://dc.lft.to/lastmile_qr_scan"}, "lon": -77.0387305, "fusion_lon": 0.0, "is_disabled": 0, "lat": 38.93255283333333, "bike_id": "792253a4b09126ea5861976843e477bb", "name": "792253a4b09126ea5861976843e477bb", "is_reserved": 0, "fusion_lat": 0.0}, {"type": "electric_scooter", "rental_uris": {"ios": "https://dc.lft.to/lastmile_qr_scan", "android": "https://dc.lft.to/lastmile_qr_scan"}, "lon": -77.031912, "fusion_lon": 0.0, "is_disabled": 0, "lat": 38.90788383333334, "bike_id": "4773b09ebffe73475d583b57a8f6796a", "name": "4773b09ebffe73475d583b57a8f6796a", "is_reserved": 0, "fusion_lat": 0.0}, {"type": "electric_scooter", "rental_uris": {"ios": "https://dc.lft.to/lastmile_qr_scan", "android": "https://dc.lft.to/lastmile_qr_scan"}, "lon": -77.031203, "fusion_lon": 0.0, "is_disabled": 0, "lat": 38.93766516666667, "bike_id": "a3e9b4132bdc4520cb0f84cba5b64822", "name": "a3e9b4132bdc4520cb0f84cba5b64822", "is_reserved": 0, "fusion_lat": 0.0}, {"type": "electric_scooter", "rental_uris": {"ios": "https://dc.lft.to/lastmile_qr_scan", "android": "https://dc.lft.to/lastmile_qr_scan"}, "lon": -77.02588866666666, "fusion_lon": 0.0, "is_disabled": 0, "lat": 38.914151, "bike_id": "2df92e2ea09fd1960b412d53cf2f7533", "name": "2df92e2ea09fd1960b412d53cf2f7533", "is_reserved": 0, "fusion_lat": 0.0}, {"type": "electric_scooter", "rental_uris": {"ios": "https://dc.lft.to/lastmile_qr_scan", "android": "https://dc.lft.to/lastmile_qr_scan"}, "lon": -76.9983045, "fusion_lon": 0.0, "is_disabled": 0, "lat": 38.8853545, "bike_id": "999b90f30f59eeb80038c81b10ee5af7", "name": "999b90f30f59eeb80038c81b10ee5af7", "is_reserved": 0, "fusion_lat": 0.0}, {"type": "electric_scooter", "rental_uris": {"ios": "https://dc.lft.to/lastmile_qr_scan", "android": "https://dc.lft.to/lastmile_qr_scan"}, "lon": -77.05276283333333, "fusion_lon": 0.0, "is_disabled": 0, "lat": 38.925505333333334, "bike_id": "ceb16cf322f9866fb7ac1b123da3ca6a", "name": "ceb16cf322f9866fb7ac1b123da3ca6a", "is_reserved": 0, "fusion_lat": 0.0}, {"type": "electric_bike", "rental_uris": {"ios": "https://dc.lft.to/lastmile_qr_scan", "android": "https://dc.lft.to/lastmile_qr_scan"}, "lon": -76.99352016666667, "fusion_lon": 0.0, "is_disabled": 0, "lat": 38.845073, "bike_id": "cb42f47ed948b0084b453797a116746c", "name": "cb42f47ed948b0084b453797a116746c", "is_reserved": 0, "fusion_lat": 0.0}, {"type": "electric_scooter", "rental_uris": {"ios": "https://dc.lft.to/lastmile_qr_scan", "android": "https://dc.lft.to/lastmile_qr_scan"}, "lon": -77.02952933333333, "fusion_lon": 0.0, "is_disabled": 0, "lat": 38.93248083333334, "bike_id": "406dc892bb761648836de015250a91d5", "name": "406dc892bb761648836de015250a91d5", "is_reserved": 0, "fusion_lat": 0.0}, {"type": "electric_bike", "rental_uris": {"ios": "https://dc.lft.to/lastmile_qr_scan", "android": "https://dc.lft.to/lastmile_qr_scan"}, "lon": -77.03650683333333, "fusion_lon": 0.0, "is_disabled": 0, "lat": 38.95635716666666, "bike_id": "b7913e4aa070d338d9f3112c7ca7780e", "name": "b7913e4aa070d338d9f3112c7ca7780e", "is_reserved": 0, "fusion_lat": 0.0}, {"type": "electric_scooter", "rental_uris": {"ios": "https://dc.lft.to/lastmile_qr_scan", "android": "https://dc.lft.to/lastmile_qr_scan"}, "lon": -77.02718633333333, "fusion_lon": 0.0, "is_disabled": 0, "lat": 38.90688166666666, "bike_id": "3e87d88add89fbc5b9b9d5af891b6639", "name": "3e87d88add89fbc5b9b9d5af891b6639", "is_reserved": 0, "fusion_lat": 0.0}, {"type": "electric_scooter", "rental_uris": {"ios": "https://dc.lft.to/lastmile_qr_scan", "android": "https://dc.lft.to/lastmile_qr_scan"}, "lon": -77.03366683333333, "fusion_lon": 0.0, "is_disabled": 0, "lat": 38.887586, "bike_id": "a392fe8cbe0a622ec20fdb6964eefe88", "name": "a392fe8cbe0a622ec20fdb6964eefe88", "is_reserved": 0, "fusion_lat": 0.0}, {"type": "electric_scooter", "rental_uris": {"ios": "https://dc.lft.to/lastmile_qr_scan", "android": "https://dc.lft.to/lastmile_qr_scan"}, "lon": -77.03179183333333, "fusion_lon": 0.0, "is_disabled": 0, "lat": 38.91920533333333, "bike_id": "42fa0b775973b79b325d026b2e6ff518", "name": "42fa0b775973b79b325d026b2e6ff518", "is_reserved": 0, "fusion_lat": 0.0}, {"type": "electric_scooter", "rental_uris": {"ios": "https://dc.lft.to/lastmile_qr_scan", "android": "https://dc.lft.to/lastmile_qr_scan"}, "lon": -77.03471683333333, "fusion_lon": 0.0, "is_disabled": 0, "lat": 38.916932, "bike_id": "813cf9d449bceac7786576c958a0f853", "name": "813cf9d449bceac7786576c958a0f853", "is_reserved": 0, "fusion_lat": 0.0}, {"type": "electric_scooter", "rental_uris": {"ios": "https://dc.lft.to/lastmile_qr_scan", "android": "https://dc.lft.to/lastmile_qr_scan"}, "lon": -77.03849633333333, "fusion_lon": 0.0, "is_disabled": 0, "lat": 38.910139, "bike_id": "6b0d7cf13807a5248ef2237c81e5c8b3", "name": "6b0d7cf13807a5248ef2237c81e5c8b3", "is_reserved": 0, "fusion_lat": 0.0}, {"type": "electric_scooter", "rental_uris": {"ios": "https://dc.lft.to/lastmile_qr_scan", "android": "https://dc.lft.to/lastmile_qr_scan"}, "lon": -77.02279083333333, "fusion_lon": 0.0, "is_disabled": 0, "lat": 38.916442, "bike_id": "8f6b0ae1187720712537aa982698a759", "name": "8f6b0ae1187720712537aa982698a759", "is_reserved": 0, "fusion_lat": 0.0}, {"type": "electric_scooter", "rental_uris": {"ios": "https://dc.lft.to/lastmile_qr_scan", "android": "https://dc.lft.to/lastmile_qr_scan"}, "lon": -77.03264116666666, "fusion_lon": 0.0, "is_disabled": 0, "lat": 38.9072445, "bike_id": "cde9f55be492a7a19eabde4e4ab1cae3", "name": "cde9f55be492a7a19eabde4e4ab1cae3", "is_reserved": 0, "fusion_lat": 0.0}, {"type": "electric_scooter", "rental_uris": {"ios": "https://dc.lft.to/lastmile_qr_scan", "android": "https://dc.lft.to/lastmile_qr_scan"}, "lon": -77.016548, "fusion_lon": 0.0, "is_disabled": 0, "lat": 38.910563333333336, "bike_id": "2ffa5b8595d2966e743fdbd05f7f15af", "name": "2ffa5b8595d2966e743fdbd05f7f15af", "is_reserved": 0, "fusion_lat": 0.0}, {"type": "electric_bike", "rental_uris": {"ios": "https://dc.lft.to/lastmile_qr_scan", "android": "https://dc.lft.to/lastmile_qr_scan"}, "lon": -77.13469683333334, "fusion_lon": 0.0, "is_disabled": 0, "lat": 38.8535645, "bike_id": "d01c97f5fa9c88612f7fe09c00681d6a", "name": "d01c97f5fa9c88612f7fe09c00681d6a", "is_reserved": 0, "fusion_lat": 0.0}, {"type": "electric_bike", "rental_uris": {"ios": "https://dc.lft.to/lastmile_qr_scan", "android": "https://dc.lft.to/lastmile_qr_scan"}, "lon": -76.92483, "fusion_lon": 0.0, "is_disabled": 0, "lat": 38.95895616666667, "bike_id": "52b301b44daf455bca82d86f53d870a9", "name": "52b301b44daf455bca82d86f53d870a9", "is_reserved": 0, "fusion_lat": 0.0}, {"type": "electric_scooter", "rental_uris": {"ios": "https://dc.lft.to/lastmile_qr_scan", "android": "https://dc.lft.to/lastmile_qr_scan"}, "lon": -76.93183316666666, "fusion_lon": 0.0, "is_disabled": 0, "lat": 38.898867833333334, "bike_id": "b85906eff4c74509de4850b5b9c1b1ba", "name": "b85906eff4c74509de4850b5b9c1b1ba", "is_reserved": 0, "fusion_lat": 0.0}, {"type": "electric_scooter", "rental_uris": {"ios": "https://dc.lft.to/lastmile_qr_scan", "android": "https://dc.lft.to/lastmile_qr_scan"}, "lon": -77.03406916666667, "fusion_lon": 0.0, "is_disabled": 0, "lat": 38.93127066666667, "bike_id": "2327e82763dde357ee511fe672286f87", "name": "2327e82763dde357ee511fe672286f87", "is_reserved": 0, "fusion_lat": 0.0}, {"type": "electric_scooter", "rental_uris": {"ios": "https://dc.lft.to/lastmile_qr_scan", "android": "https://dc.lft.to/lastmile_qr_scan"}, "lon": -77.0122655, "fusion_lon": 0.0, "is_disabled": 0, "lat": 38.91498966666666, "bike_id": "5eca4942ac58896b0ba2508d3383d896", "name": "5eca4942ac58896b0ba2508d3383d896", "is_reserved": 0, "fusion_lat": 0.0}, {"type": "electric_bike", "rental_uris": {"ios": "https://dc.lft.to/lastmile_qr_scan", "android": "https://dc.lft.to/lastmile_qr_scan"}, "lon": -76.98023516666666, "fusion_lon": 0.0, "is_disabled": 0, "lat": 38.95753716666667, "bike_id": "c7a0b846fdd9ed6eea7cedef8288e43e", "name": "c7a0b846fdd9ed6eea7cedef8288e43e", "is_reserved": 0, "fusion_lat": 0.0}, {"type": "electric_scooter", "rental_uris": {"ios": "https://dc.lft.to/lastmile_qr_scan", "android": "https://dc.lft.to/lastmile_qr_scan"}, "lon": -77.01367216666667, "fusion_lon": 0.0, "is_disabled": 0, "lat": 38.92861333333333, "bike_id": "65c1e5d36c610c3a0659b7e693824ccb", "name": "65c1e5d36c610c3a0659b7e693824ccb", "is_reserved": 0, "fusion_lat": 0.0}, {"type": "electric_scooter", "rental_uris": {"ios": "https://dc.lft.to/lastmile_qr_scan", "android": "https://dc.lft.to/lastmile_qr_scan"}, "lon": -77.024958, "fusion_lon": 0.0, "is_disabled": 0, "lat": 38.91805166666666, "bike_id": "38293a570a03844ecde2361240762c05", "name": "38293a570a03844ecde2361240762c05", "is_reserved": 0, "fusion_lat": 0.0}, {"type": "electric_scooter", "rental_uris": {"ios": "https://dc.lft.to/lastmile_qr_scan", "android": "https://dc.lft.to/lastmile_qr_scan"}, "lon": -77.03474933333334, "fusion_lon": 0.0, "is_disabled": 0, "lat": 38.909583833333336, "bike_id": "0ddcdc98186442fa44284e38cd43d0d9", "name": "0ddcdc98186442fa44284e38cd43d0d9", "is_reserved": 0, "fusion_lat": 0.0}, {"type": "electric_scooter", "rental_uris": {"ios": "https://dc.lft.to/lastmile_qr_scan", "android": "https://dc.lft.to/lastmile_qr_scan"}, "lon": -77.04003916666667, "fusion_lon": 0.0, "is_disabled": 0, "lat": 38.90793166666667, "bike_id": "68b2d846efe62a6c4b9ffd723e7369be", "name": "68b2d846efe62a6c4b9ffd723e7369be", "is_reserved": 0, "fusion_lat": 0.0}, {"type": "electric_scooter", "rental_uris": {"ios": "https://dc.lft.to/lastmile_qr_scan", "android": "https://dc.lft.to/lastmile_qr_scan"}, "lon": -77.0341125, "fusion_lon": 0.0, "is_disabled": 0, "lat": 38.919269666666665, "bike_id": "1b2fe5f123d7e187026fbfb7ce5a64a8", "name": "1b2fe5f123d7e187026fbfb7ce5a64a8", "is_reserved": 0, "fusion_lat": 0.0}, {"type": "electric_scooter", "rental_uris": {"ios": "https://dc.lft.to/lastmile_qr_scan", "android": "https://dc.lft.to/lastmile_qr_scan"}, "lon": -77.05756833333334, "fusion_lon": 0.0, "is_disabled": 0, "lat": 38.92380416666666, "bike_id": "32edd4f402fc9559f1c8aff57e40006f", "name": "32edd4f402fc9559f1c8aff57e40006f", "is_reserved": 0, "fusion_lat": 0.0}, {"type": "electric_bike", "rental_uris": {"ios": "https://dc.lft.to/lastmile_qr_scan", "android": "https://dc.lft.to/lastmile_qr_scan"}, "lon": -77.0262725, "fusion_lon": 0.0, "is_disabled": 0, "lat": 38.96229366666667, "bike_id": "03dfb1a8efb8bcf3c79a64b4419a11ae", "name": "03dfb1a8efb8bcf3c79a64b4419a11ae", "is_reserved": 0, "fusion_lat": 0.0}, {"type": "electric_scooter", "rental_uris": {"ios": "https://dc.lft.to/lastmile_qr_scan", "android": "https://dc.lft.to/lastmile_qr_scan"}, "lon": -77.03665283333333, "fusion_lon": 0.0, "is_disabled": 0, "lat": 38.9224915, "bike_id": "db9f8884553fbffcbf505d3f7f1d367e", "name": "db9f8884553fbffcbf505d3f7f1d367e", "is_reserved": 0, "fusion_lat": 0.0}, {"type": "electric_scooter", "rental_uris": {"ios": "https://dc.lft.to/lastmile_qr_scan", "android": "https://dc.lft.to/lastmile_qr_scan"}, "lon": -77.01357316666666, "fusion_lon": 0.0, "is_disabled": 0, "lat": 38.88661483333333, "bike_id": "4992a108828c2d7f2e231bc8c1dfe4e8", "name": "4992a108828c2d7f2e231bc8c1dfe4e8", "is_reserved": 0, "fusion_lat": 0.0}, {"type": "electric_scooter", "rental_uris": {"ios": "https://dc.lft.to/lastmile_qr_scan", "android": "https://dc.lft.to/lastmile_qr_scan"}, "lon": -77.020094, "fusion_lon": 0.0, "is_disabled": 0, "lat": 38.924111833333335, "bike_id": "32c42751444230f02b2ef021df25b1aa", "name": "32c42751444230f02b2ef021df25b1aa", "is_reserved": 0, "fusion_lat": 0.0}, {"type": "electric_scooter", "rental_uris": {"ios": "https://dc.lft.to/lastmile_qr_scan", "android": "https://dc.lft.to/lastmile_qr_scan"}, "lon": -77.047883, "fusion_lon": 0.0, "is_disabled": 0, "lat": 38.893691, "bike_id": "baa0a83c047f53b14c44458ec73d6b9a", "name": "baa0a83c047f53b14c44458ec73d6b9a", "is_reserved": 0, "fusion_lat": 0.0}, {"type": "electric_bike", "rental_uris": {"ios": "https://dc.lft.to/lastmile_qr_scan", "android": "https://dc.lft.to/lastmile_qr_scan"}, "lon": -77.107777, "fusion_lon": 0.0, "is_disabled": 0, "lat": 38.89222733333333, "bike_id": "a71f247b84729ea3eca6674c80b73309", "name": "a71f247b84729ea3eca6674c80b73309", "is_reserved": 0, "fusion_lat": 0.0}, {"type": "electric_scooter", "rental_uris": {"ios": "https://dc.lft.to/lastmile_qr_scan", "android": "https://dc.lft.to/lastmile_qr_scan"}, "lon": -76.96528, "fusion_lon": 0.0, "is_disabled": 0, "lat": 38.876281166666665, "bike_id": "2ee123463c22e9a97608004b4e72046a", "name": "2ee123463c22e9a97608004b4e72046a", "is_reserved": 0, "fusion_lat": 0.0}, {"type": "electric_scooter", "rental_uris": {"ios": "https://dc.lft.to/lastmile_qr_scan", "android": "https://dc.lft.to/lastmile_qr_scan"}, "lon": -77.00459483333333, "fusion_lon": 0.0, "is_disabled": 0, "lat": 38.911415166666664, "bike_id": "42d21d29070013c59b44305d15836e27", "name": "42d21d29070013c59b44305d15836e27", "is_reserved": 0, "fusion_lat": 0.0}, {"type": "electric_scooter", "rental_uris": {"ios": "https://dc.lft.to/lastmile_qr_scan", "android": "https://dc.lft.to/lastmile_qr_scan"}, "lon": -77.03845266666667, "fusion_lon": 0.0, "is_disabled": 0, "lat": 38.910143833333336, "bike_id": "16b226299d3b7cc5589d63b9c2560d74", "name": "16b226299d3b7cc5589d63b9c2560d74", "is_reserved": 0, "fusion_lat": 0.0}, {"type": "electric_scooter", "rental_uris": {"ios": "https://dc.lft.to/lastmile_qr_scan", "android": "https://dc.lft.to/lastmile_qr_scan"}, "lon": -77.00607, "fusion_lon": 0.0, "is_disabled": 0, "lat": 38.90655616666667, "bike_id": "49f9a049d7e625ebebe80960635bdf12", "name": "49f9a049d7e625ebebe80960635bdf12", "is_reserved": 0, "fusion_lat": 0.0}, {"type": "electric_scooter", "rental_uris": {"ios": "https://dc.lft.to/lastmile_qr_scan", "android": "https://dc.lft.to/lastmile_qr_scan"}, "lon": -77.02322633333333, "fusion_lon": 0.0, "is_disabled": 0, "lat": 38.90209733333333, "bike_id": "937b36ddb7df381c1119899d30e78911", "name": "937b36ddb7df381c1119899d30e78911", "is_reserved": 0, "fusion_lat": 0.0}, {"type": "electric_scooter", "rental_uris": {"ios": "https://dc.lft.to/lastmile_qr_scan", "android": "https://dc.lft.to/lastmile_qr_scan"}, "lon": -77.02177283333333, "fusion_lon": 0.0, "is_disabled": 0, "lat": 38.9429175, "bike_id": "15705535f7cd685da2883bee832d15c4", "name": "15705535f7cd685da2883bee832d15c4", "is_reserved": 0, "fusion_lat": 0.0}, {"type": "electric_scooter", "rental_uris": {"ios": "https://dc.lft.to/lastmile_qr_scan", "android": "https://dc.lft.to/lastmile_qr_scan"}, "lon": -76.93141966666667, "fusion_lon": 0.0, "is_disabled": 0, "lat": 38.89342633333333, "bike_id": "8f2d312927ec0d6de6785498791937e9", "name": "8f2d312927ec0d6de6785498791937e9", "is_reserved": 0, "fusion_lat": 0.0}, {"type": "electric_scooter", "rental_uris": {"ios": "https://dc.lft.to/lastmile_qr_scan", "android": "https://dc.lft.to/lastmile_qr_scan"}, "lon": -77.03196366666667, "fusion_lon": 0.0, "is_disabled": 0, "lat": 38.911707666666665, "bike_id": "fdc6401abf93bf878389109c6ae47224", "name": "fdc6401abf93bf878389109c6ae47224", "is_reserved": 0, "fusion_lat": 0.0}, {"type": "electric_bike", "rental_uris": {"ios": "https://dc.lft.to/lastmile_qr_scan", "android": "https://dc.lft.to/lastmile_qr_scan"}, "lon": -77.0334945, "fusion_lon": 0.0, "is_disabled": 0, "lat": 38.96941533333333, "bike_id": "5a4abb0e8d05398af6f49db57fa6bdb4", "name": "5a4abb0e8d05398af6f49db57fa6bdb4", "is_reserved": 0, "fusion_lat": 0.0}, {"type": "electric_scooter", "rental_uris": {"ios": "https://dc.lft.to/lastmile_qr_scan", "android": "https://dc.lft.to/lastmile_qr_scan"}, "lon": -77.00577966666667, "fusion_lon": 0.0, "is_disabled": 0, "lat": 38.908869833333334, "bike_id": "b9baee02f099ea324fbdf389c8a207a0", "name": "b9baee02f099ea324fbdf389c8a207a0", "is_reserved": 0, "fusion_lat": 0.0}, {"type": "electric_scooter", "rental_uris": {"ios": "https://dc.lft.to/lastmile_qr_scan", "android": "https://dc.lft.to/lastmile_qr_scan"}, "lon": -76.98583466666666, "fusion_lon": 0.0, "is_disabled": 0, "lat": 38.85450433333333, "bike_id": "50a1b87914f787e112fc84cd5c1e8e1b", "name": "50a1b87914f787e112fc84cd5c1e8e1b", "is_reserved": 0, "fusion_lat": 0.0}, {"type": "electric_scooter", "rental_uris": {"ios": "https://dc.lft.to/lastmile_qr_scan", "android": "https://dc.lft.to/lastmile_qr_scan"}, "lon": -77.01942633333333, "fusion_lon": 0.0, "is_disabled": 0, "lat": 38.94852866666667, "bike_id": "f42b4ed0233e74f28e4ddd28163ff17b", "name": "f42b4ed0233e74f28e4ddd28163ff17b", "is_reserved": 0, "fusion_lat": 0.0}, {"type": "electric_scooter", "rental_uris": {"ios": "https://dc.lft.to/lastmile_qr_scan", "android": "https://dc.lft.to/lastmile_qr_scan"}, "lon": -77.039735, "fusion_lon": 0.0, "is_disabled": 0, "lat": 38.899054666666665, "bike_id": "1247663b77bb3671f8faa5a7d7995e6c", "name": "1247663b77bb3671f8faa5a7d7995e6c", "is_reserved": 0, "fusion_lat": 0.0}, {"type": "electric_scooter", "rental_uris": {"ios": "https://dc.lft.to/lastmile_qr_scan", "android": "https://dc.lft.to/lastmile_qr_scan"}, "lon": -77.0243435, "fusion_lon": 0.0, "is_disabled": 0, "lat": 38.918526, "bike_id": "fa81513d0bf576bceff23a2def3b0165", "name": "fa81513d0bf576bceff23a2def3b0165", "is_reserved": 0, "fusion_lat": 0.0}, {"type": "electric_scooter", "rental_uris": {"ios": "https://dc.lft.to/lastmile_qr_scan", "android": "https://dc.lft.to/lastmile_qr_scan"}, "lon": -77.0215805, "fusion_lon": 0.0, "is_disabled": 0, "lat": 38.9249335, "bike_id": "f2e3f764c72604162365588ad64b8eb2", "name": "f2e3f764c72604162365588ad64b8eb2", "is_reserved": 0, "fusion_lat": 0.0}, {"type": "electric_bike", "rental_uris": {"ios": "https://dc.lft.to/lastmile_qr_scan", "android": "https://dc.lft.to/lastmile_qr_scan"}, "lon": -77.031434, "fusion_lon": 0.0, "is_disabled": 0, "lat": 38.99449633333333, "bike_id": "b503990d074166bfbbb9182ae772ebae", "name": "b503990d074166bfbbb9182ae772ebae", "is_reserved": 0, "fusion_lat": 0.0}, {"type": "electric_bike", "rental_uris": {"ios": "https://dc.lft.to/lastmile_qr_scan", "android": "https://dc.lft.to/lastmile_qr_scan"}, "lon": -77.21653083333334, "fusion_lon": 0.0, "is_disabled": 0, "lat": 38.930115666666666, "bike_id": "992d5e567547da31ad7237298d57e7d3", "name": "992d5e567547da31ad7237298d57e7d3", "is_reserved": 0, "fusion_lat": 0.0}, {"type": "electric_scooter", "rental_uris": {"ios": "https://dc.lft.to/lastmile_qr_scan", "android": "https://dc.lft.to/lastmile_qr_scan"}, "lon": -77.0366445, "fusion_lon": 0.0, "is_disabled": 0, "lat": 38.90324, "bike_id": "2c7337f7aa531e3fdd0bfa809ee7718b", "name": "2c7337f7aa531e3fdd0bfa809ee7718b", "is_reserved": 0, "fusion_lat": 0.0}, {"type": "electric_bike", "rental_uris": {"ios": "https://dc.lft.to/lastmile_qr_scan", "android": "https://dc.lft.to/lastmile_qr_scan"}, "lon": -76.96062033333334, "fusion_lon": 0.0, "is_disabled": 0, "lat": 38.88406583333333, "bike_id": "bdc50cd055824c5fd18d9dc1cc204756", "name": "bdc50cd055824c5fd18d9dc1cc204756", "is_reserved": 0, "fusion_lat": 0.0}, {"type": "electric_bike", "rental_uris": {"ios": "https://dc.lft.to/lastmile_qr_scan", "android": "https://dc.lft.to/lastmile_qr_scan"}, "lon": -77.05866416666667, "fusion_lon": 0.0, "is_disabled": 0, "lat": 38.9589565, "bike_id": "556a7e4e99160d0e10f265a2f2d591ab", "name": "556a7e4e99160d0e10f265a2f2d591ab", "is_reserved": 0, "fusion_lat": 0.0}, {"type": "electric_scooter", "rental_uris": {"ios": "https://dc.lft.to/lastmile_qr_scan", "android": "https://dc.lft.to/lastmile_qr_scan"}, "lon": -77.04135716666667, "fusion_lon": 0.0, "is_disabled": 0, "lat": 38.899289333333336, "bike_id": "206e0f1eaff6c3fd1578ecdfea4ca8cf", "name": "206e0f1eaff6c3fd1578ecdfea4ca8cf", "is_reserved": 0, "fusion_lat": 0.0}, {"type": "electric_scooter", "rental_uris": {"ios": "https://dc.lft.to/lastmile_qr_scan", "android": "https://dc.lft.to/lastmile_qr_scan"}, "lon": -77.00071816666667, "fusion_lon": 0.0, "is_disabled": 0, "lat": 38.92552366666666, "bike_id": "c1fb509eb9b1d5dfcb5efd43a1201e0f", "name": "c1fb509eb9b1d5dfcb5efd43a1201e0f", "is_reserved": 0, "fusion_lat": 0.0}, {"type": "electric_scooter", "rental_uris": {"ios": "https://dc.lft.to/lastmile_qr_scan", "android": "https://dc.lft.to/lastmile_qr_scan"}, "lon": -77.02620766666666, "fusion_lon": 0.0, "is_disabled": 0, "lat": 38.94824533333333, "bike_id": "f648e64adcf2d191aa7b237c569cd735", "name": "f648e64adcf2d191aa7b237c569cd735", "is_reserved": 0, "fusion_lat": 0.0}, {"type": "electric_bike", "rental_uris": {"ios": "https://dc.lft.to/lastmile_qr_scan", "android": "https://dc.lft.to/lastmile_qr_scan"}, "lon": -76.952021, "fusion_lon": 0.0, "is_disabled": 0, "lat": 38.936779666666666, "bike_id": "21c4d01f03332ac1776c166b35ceba9e", "name": "21c4d01f03332ac1776c166b35ceba9e", "is_reserved": 0, "fusion_lat": 0.0}, {"type": "electric_scooter", "rental_uris": {"ios": "https://dc.lft.to/lastmile_qr_scan", "android": "https://dc.lft.to/lastmile_qr_scan"}, "lon": -77.02987066666667, "fusion_lon": 0.0, "is_disabled": 0, "lat": 38.907254, "bike_id": "63ed2938a7b720cd30872552aa5e6f14", "name": "63ed2938a7b720cd30872552aa5e6f14", "is_reserved": 0, "fusion_lat": 0.0}, {"type": "electric_bike", "rental_uris": {"ios": "https://dc.lft.to/lastmile_qr_scan", "android": "https://dc.lft.to/lastmile_qr_scan"}, "lon": -76.97268416666667, "fusion_lon": 0.0, "is_disabled": 0, "lat": 38.9195995, "bike_id": "a3ec007ab3d53cd52fd0fa92d00bb6c7", "name": "a3ec007ab3d53cd52fd0fa92d00bb6c7", "is_reserved": 0, "fusion_lat": 0.0}, {"type": "electric_scooter", "rental_uris": {"ios": "https://dc.lft.to/lastmile_qr_scan", "android": "https://dc.lft.to/lastmile_qr_scan"}, "lon": -77.00988866666667, "fusion_lon": 0.0, "is_disabled": 0, "lat": 38.87290316666667, "bike_id": "63f187ae0d50b946596c8d2224083af0", "name": "63f187ae0d50b946596c8d2224083af0", "is_reserved": 0, "fusion_lat": 0.0}, {"type": "electric_scooter", "rental_uris": {"ios": "https://dc.lft.to/lastmile_qr_scan", "android": "https://dc.lft.to/lastmile_qr_scan"}, "lon": -77.0638115, "fusion_lon": 0.0, "is_disabled": 0, "lat": 38.94457883333333, "bike_id": "ef3e8689a7c5a3dd3e471da5566f4e92", "name": "ef3e8689a7c5a3dd3e471da5566f4e92", "is_reserved": 0, "fusion_lat": 0.0}, {"type": "electric_scooter", "rental_uris": {"ios": "https://dc.lft.to/lastmile_qr_scan", "android": "https://dc.lft.to/lastmile_qr_scan"}, "lon": -77.03866733333334, "fusion_lon": 0.0, "is_disabled": 0, "lat": 38.90971916666667, "bike_id": "317df55477ead6294896086744f4b995", "name": "317df55477ead6294896086744f4b995", "is_reserved": 0, "fusion_lat": 0.0}, {"type": "electric_scooter", "rental_uris": {"ios": "https://dc.lft.to/lastmile_qr_scan", "android": "https://dc.lft.to/lastmile_qr_scan"}, "lon": -77.077078, "fusion_lon": 0.0, "is_disabled": 0, "lat": 38.943880666666665, "bike_id": "a8ef5c8dc3991d2a8ba90a05f98c95e7", "name": "a8ef5c8dc3991d2a8ba90a05f98c95e7", "is_reserved": 0, "fusion_lat": 0.0}, {"type": "electric_scooter", "rental_uris": {"ios": "https://dc.lft.to/lastmile_qr_scan", "android": "https://dc.lft.to/lastmile_qr_scan"}, "lon": -77.035099, "fusion_lon": 0.0, "is_disabled": 0, "lat": 38.9215195, "bike_id": "2b32732e44631fa2f186afc5aa69facb", "name": "2b32732e44631fa2f186afc5aa69facb", "is_reserved": 0, "fusion_lat": 0.0}, {"type": "electric_bike", "rental_uris": {"ios": "https://dc.lft.to/lastmile_qr_scan", "android": "https://dc.lft.to/lastmile_qr_scan"}, "lon": -77.039033, "fusion_lon": 0.0, "is_disabled": 0, "lat": 38.922167, "bike_id": "ecb06e67b0e29c0c0d2f327b3396e15c", "name": "ecb06e67b0e29c0c0d2f327b3396e15c", "is_reserved": 0, "fusion_lat": 0.0}, {"type": "electric_scooter", "rental_uris": {"ios": "https://dc.lft.to/lastmile_qr_scan", "android": "https://dc.lft.to/lastmile_qr_scan"}, "lon": -77.04197333333333, "fusion_lon": 0.0, "is_disabled": 0, "lat": 38.90751316666667, "bike_id": "e99abf8496af8c98538be9d0d933edf2", "name": "e99abf8496af8c98538be9d0d933edf2", "is_reserved": 0, "fusion_lat": 0.0}, {"type": "electric_scooter", "rental_uris": {"ios": "https://dc.lft.to/lastmile_qr_scan", "android": "https://dc.lft.to/lastmile_qr_scan"}, "lon": -77.02688666666667, "fusion_lon": 0.0, "is_disabled": 0, "lat": 38.9060245, "bike_id": "a47ecc9dc3620c4f6c7fb276f9cf72ca", "name": "a47ecc9dc3620c4f6c7fb276f9cf72ca", "is_reserved": 0, "fusion_lat": 0.0}, {"type": "electric_bike", "rental_uris": {"ios": "https://dc.lft.to/lastmile_qr_scan", "android": "https://dc.lft.to/lastmile_qr_scan"}, "lon": -77.04926833333333, "fusion_lon": 0.0, "is_disabled": 0, "lat": 39.029348666666664, "bike_id": "56533dadea3f800a05cbdf1143defb26", "name": "56533dadea3f800a05cbdf1143defb26", "is_reserved": 0, "fusion_lat": 0.0}, {"type": "electric_scooter", "rental_uris": {"ios": "https://dc.lft.to/lastmile_qr_scan", "android": "https://dc.lft.to/lastmile_qr_scan"}, "lon": -77.04435783333334, "fusion_lon": 0.0, "is_disabled": 0, "lat": 38.921277833333335, "bike_id": "ca9c1864b062d99d3bb04cf7c27f0636", "name": "ca9c1864b062d99d3bb04cf7c27f0636", "is_reserved": 0, "fusion_lat": 0.0}, {"type": "electric_scooter", "rental_uris": {"ios": "https://dc.lft.to/lastmile_qr_scan", "android": "https://dc.lft.to/lastmile_qr_scan"}, "lon": -76.998253, "fusion_lon": 0.0, "is_disabled": 0, "lat": 38.90019083333333, "bike_id": "13cdc415047226a6f13437b453c65c11", "name": "13cdc415047226a6f13437b453c65c11", "is_reserved": 0, "fusion_lat": 0.0}, {"type": "electric_scooter", "rental_uris": {"ios": "https://dc.lft.to/lastmile_qr_scan", "android": "https://dc.lft.to/lastmile_qr_scan"}, "lon": -77.03888466666666, "fusion_lon": 0.0, "is_disabled": 0, "lat": 38.90244216666667, "bike_id": "c943f8b508783005244abef4deb592fe", "name": "c943f8b508783005244abef4deb592fe", "is_reserved": 0, "fusion_lat": 0.0}, {"type": "electric_scooter", "rental_uris": {"ios": "https://dc.lft.to/lastmile_qr_scan", "android": "https://dc.lft.to/lastmile_qr_scan"}, "lon": -76.93357183333333, "fusion_lon": 0.0, "is_disabled": 0, "lat": 38.89905233333333, "bike_id": "26a57e80f70d565a5ed26771f1d929ac", "name": "26a57e80f70d565a5ed26771f1d929ac", "is_reserved": 0, "fusion_lat": 0.0}, {"type": "electric_scooter", "rental_uris": {"ios": "https://dc.lft.to/lastmile_qr_scan", "android": "https://dc.lft.to/lastmile_qr_scan"}, "lon": -77.04457183333334, "fusion_lon": 0.0, "is_disabled": 0, "lat": 38.91190016666667, "bike_id": "93edd9f87711ee28d84511ad950d4496", "name": "93edd9f87711ee28d84511ad950d4496", "is_reserved": 0, "fusion_lat": 0.0}, {"type": "electric_scooter", "rental_uris": {"ios": "https://dc.lft.to/lastmile_qr_scan", "android": "https://dc.lft.to/lastmile_qr_scan"}, "lon": -77.02434333333333, "fusion_lon": 0.0, "is_disabled": 0, "lat": 38.95638733333333, "bike_id": "d78a4ad479cd8fd66fd5c8f1f478d72e", "name": "d78a4ad479cd8fd66fd5c8f1f478d72e", "is_reserved": 0, "fusion_lat": 0.0}, {"type": "electric_scooter", "rental_uris": {"ios": "https://dc.lft.to/lastmile_qr_scan", "android": "https://dc.lft.to/lastmile_qr_scan"}, "lon": -77.04337866666667, "fusion_lon": 0.0, "is_disabled": 0, "lat": 38.89525666666667, "bike_id": "adda46454a22822c7c2a517f5c603f2a", "name": "adda46454a22822c7c2a517f5c603f2a", "is_reserved": 0, "fusion_lat": 0.0}, {"type": "electric_scooter", "rental_uris": {"ios": "https://dc.lft.to/lastmile_qr_scan", "android": "https://dc.lft.to/lastmile_qr_scan"}, "lon": -77.07300683333334, "fusion_lon": 0.0, "is_disabled": 0, "lat": 38.928817, "bike_id": "c5fbb6b85697ac15156e8ce0098a3ba4", "name": "c5fbb6b85697ac15156e8ce0098a3ba4", "is_reserved": 0, "fusion_lat": 0.0}, {"type": "electric_scooter", "rental_uris": {"ios": "https://dc.lft.to/lastmile_qr_scan", "android": "https://dc.lft.to/lastmile_qr_scan"}, "lon": -77.0234985, "fusion_lon": 0.0, "is_disabled": 0, "lat": 38.91783566666667, "bike_id": "8c6e081640be360974f230f09d66b249", "name": "8c6e081640be360974f230f09d66b249", "is_reserved": 0, "fusion_lat": 0.0}, {"type": "electric_scooter", "rental_uris": {"ios": "https://dc.lft.to/lastmile_qr_scan", "android": "https://dc.lft.to/lastmile_qr_scan"}, "lon": -77.03191883333334, "fusion_lon": 0.0, "is_disabled": 0, "lat": 38.91739416666667, "bike_id": "c7fdabf2fb377d41935311017c983e91", "name": "c7fdabf2fb377d41935311017c983e91", "is_reserved": 0, "fusion_lat": 0.0}, {"type": "electric_scooter", "rental_uris": {"ios": "https://dc.lft.to/lastmile_qr_scan", "android": "https://dc.lft.to/lastmile_qr_scan"}, "lon": -76.98880983333333, "fusion_lon": 0.0, "is_disabled": 0, "lat": 38.86656633333333, "bike_id": "17bec8408b0cda997d26b735e9760bb8", "name": "17bec8408b0cda997d26b735e9760bb8", "is_reserved": 0, "fusion_lat": 0.0}, {"type": "electric_scooter", "rental_uris": {"ios": "https://dc.lft.to/lastmile_qr_scan", "android": "https://dc.lft.to/lastmile_qr_scan"}, "lon": -77.0375045, "fusion_lon": 0.0, "is_disabled": 0, "lat": 38.912751666666665, "bike_id": "f45b6588dc2f76d57531cd5279e7c568", "name": "f45b6588dc2f76d57531cd5279e7c568", "is_reserved": 0, "fusion_lat": 0.0}, {"type": "electric_scooter", "rental_uris": {"ios": "https://dc.lft.to/lastmile_qr_scan", "android": "https://dc.lft.to/lastmile_qr_scan"}, "lon": -77.0435245, "fusion_lon": 0.0, "is_disabled": 0, "lat": 38.91298666666667, "bike_id": "d0864f89ceccfe2ec26feb521d4fddf1", "name": "d0864f89ceccfe2ec26feb521d4fddf1", "is_reserved": 0, "fusion_lat": 0.0}, {"type": "electric_scooter", "rental_uris": {"ios": "https://dc.lft.to/lastmile_qr_scan", "android": "https://dc.lft.to/lastmile_qr_scan"}, "lon": -77.02989416666667, "fusion_lon": 0.0, "is_disabled": 0, "lat": 38.90722916666667, "bike_id": "35b2c12b74d96d9b83571d3109ddccea", "name": "35b2c12b74d96d9b83571d3109ddccea", "is_reserved": 0, "fusion_lat": 0.0}, {"type": "electric_bike", "rental_uris": {"ios": "https://dc.lft.to/lastmile_qr_scan", "android": "https://dc.lft.to/lastmile_qr_scan"}, "lon": -77.026195, "fusion_lon": 0.0, "is_disabled": 0, "lat": 38.9692885, "bike_id": "876f659035ab1f6ed5283d988e1e39a3", "name": "876f659035ab1f6ed5283d988e1e39a3", "is_reserved": 0, "fusion_lat": 0.0}, {"type": "electric_bike", "rental_uris": {"ios": "https://dc.lft.to/lastmile_qr_scan", "android": "https://dc.lft.to/lastmile_qr_scan"}, "lon": -77.11800866666667, "fusion_lon": 0.0, "is_disabled": 0, "lat": 38.873767, "bike_id": "d286dd38da6758bf333582d2c64e1db6", "name": "d286dd38da6758bf333582d2c64e1db6", "is_reserved": 0, "fusion_lat": 0.0}, {"type": "electric_scooter", "rental_uris": {"ios": "https://dc.lft.to/lastmile_qr_scan", "android": "https://dc.lft.to/lastmile_qr_scan"}, "lon": -77.0229005, "fusion_lon": 0.0, "is_disabled": 0, "lat": 38.9144565, "bike_id": "f29a674e70c72c6603eb841aad6bc9de", "name": "f29a674e70c72c6603eb841aad6bc9de", "is_reserved": 0, "fusion_lat": 0.0}, {"type": "electric_scooter", "rental_uris": {"ios": "https://dc.lft.to/lastmile_qr_scan", "android": "https://dc.lft.to/lastmile_qr_scan"}, "lon": -76.965267, "fusion_lon": 0.0, "is_disabled": 0, "lat": 38.876280666666666, "bike_id": "d7677d89e25537f2f301039b8c23e895", "name": "d7677d89e25537f2f301039b8c23e895", "is_reserved": 0, "fusion_lat": 0.0}, {"type": "electric_scooter", "rental_uris": {"ios": "https://dc.lft.to/lastmile_qr_scan", "android": "https://dc.lft.to/lastmile_qr_scan"}, "lon": -77.03888083333334, "fusion_lon": 0.0, "is_disabled": 0, "lat": 38.90637483333333, "bike_id": "c5e035bdeba3ef3c39b60a1741f8c2ab", "name": "c5e035bdeba3ef3c39b60a1741f8c2ab", "is_reserved": 0, "fusion_lat": 0.0}, {"type": "electric_scooter", "rental_uris": {"ios": "https://dc.lft.to/lastmile_qr_scan", "android": "https://dc.lft.to/lastmile_qr_scan"}, "lon": -76.96523516666667, "fusion_lon": 0.0, "is_disabled": 0, "lat": 38.8763265, "bike_id": "bb188fa12e88df078a9b80d0a4397481", "name": "bb188fa12e88df078a9b80d0a4397481", "is_reserved": 0, "fusion_lat": 0.0}, {"type": "electric_scooter", "rental_uris": {"ios": "https://dc.lft.to/lastmile_qr_scan", "android": "https://dc.lft.to/lastmile_qr_scan"}, "lon": -77.04531433333334, "fusion_lon": 0.0, "is_disabled": 0, "lat": 38.91601466666667, "bike_id": "77f567c001724d12765337d3d1ef2324", "name": "77f567c001724d12765337d3d1ef2324", "is_reserved": 0, "fusion_lat": 0.0}, {"type": "electric_scooter", "rental_uris": {"ios": "https://dc.lft.to/lastmile_qr_scan", "android": "https://dc.lft.to/lastmile_qr_scan"}, "lon": -77.0155755, "fusion_lon": 0.0, "is_disabled": 0, "lat": 38.9268015, "bike_id": "117322b77025d637d2668f6f0ec4e4e6", "name": "117322b77025d637d2668f6f0ec4e4e6", "is_reserved": 0, "fusion_lat": 0.0}, {"type": "electric_scooter", "rental_uris": {"ios": "https://dc.lft.to/lastmile_qr_scan", "android": "https://dc.lft.to/lastmile_qr_scan"}, "lon": -77.04466316666667, "fusion_lon": 0.0, "is_disabled": 0, "lat": 38.91109266666667, "bike_id": "82007bcdda5d9d6beb7d5919aa0d27de", "name": "82007bcdda5d9d6beb7d5919aa0d27de", "is_reserved": 0, "fusion_lat": 0.0}, {"type": "electric_scooter", "rental_uris": {"ios": "https://dc.lft.to/lastmile_qr_scan", "android": "https://dc.lft.to/lastmile_qr_scan"}, "lon": -77.04987166666666, "fusion_lon": 0.0, "is_disabled": 0, "lat": 38.90131233333334, "bike_id": "7cccad9f3cd745fe7a6b7aad03ca9d40", "name": "7cccad9f3cd745fe7a6b7aad03ca9d40", "is_reserved": 0, "fusion_lat": 0.0}, {"type": "electric_bike", "rental_uris": {"ios": "https://dc.lft.to/lastmile_qr_scan", "android": "https://dc.lft.to/lastmile_qr_scan"}, "lon": -77.02532783333334, "fusion_lon": 0.0, "is_disabled": 0, "lat": 38.93978933333333, "bike_id": "edfed99b5132082df38df75e8d3105e2", "name": "edfed99b5132082df38df75e8d3105e2", "is_reserved": 0, "fusion_lat": 0.0}, {"type": "electric_scooter", "rental_uris": {"ios": "https://dc.lft.to/lastmile_qr_scan", "android": "https://dc.lft.to/lastmile_qr_scan"}, "lon": -76.93737083333333, "fusion_lon": 0.0, "is_disabled": 0, "lat": 38.8901485, "bike_id": "04d4b335d37092c512bc6415191e8b5b", "name": "04d4b335d37092c512bc6415191e8b5b", "is_reserved": 0, "fusion_lat": 0.0}, {"type": "electric_scooter", "rental_uris": {"ios": "https://dc.lft.to/lastmile_qr_scan", "android": "https://dc.lft.to/lastmile_qr_scan"}, "lon": -77.016594, "fusion_lon": 0.0, "is_disabled": 0, "lat": 38.881120833333334, "bike_id": "559fd2b99ebd7db30195cccf1cda09eb", "name": "559fd2b99ebd7db30195cccf1cda09eb", "is_reserved": 0, "fusion_lat": 0.0}, {"type": "electric_scooter", "rental_uris": {"ios": "https://dc.lft.to/lastmile_qr_scan", "android": "https://dc.lft.to/lastmile_qr_scan"}, "lon": -76.96866816666666, "fusion_lon": 0.0, "is_disabled": 0, "lat": 38.8708275, "bike_id": "44189d2abbf906dcb6f83ea2d057467c", "name": "44189d2abbf906dcb6f83ea2d057467c", "is_reserved": 0, "fusion_lat": 0.0}, {"type": "electric_scooter", "rental_uris": {"ios": "https://dc.lft.to/lastmile_qr_scan", "android": "https://dc.lft.to/lastmile_qr_scan"}, "lon": -77.0215215, "fusion_lon": 0.0, "is_disabled": 0, "lat": 38.91441783333333, "bike_id": "e2f7f041474a15e695e13cb37306d1f2", "name": "e2f7f041474a15e695e13cb37306d1f2", "is_reserved": 0, "fusion_lat": 0.0}, {"type": "electric_scooter", "rental_uris": {"ios": "https://dc.lft.to/lastmile_qr_scan", "android": "https://dc.lft.to/lastmile_qr_scan"}, "lon": -77.03280183333334, "fusion_lon": 0.0, "is_disabled": 0, "lat": 38.92740166666667, "bike_id": "e4446a88a4b671c05b05d252095c5ecb", "name": "e4446a88a4b671c05b05d252095c5ecb", "is_reserved": 0, "fusion_lat": 0.0}, {"type": "electric_scooter", "rental_uris": {"ios": "https://dc.lft.to/lastmile_qr_scan", "android": "https://dc.lft.to/lastmile_qr_scan"}, "lon": -76.97721366666667, "fusion_lon": 0.0, "is_disabled": 0, "lat": 38.872455333333335, "bike_id": "5f91cfcdeeac9d0e754daec00d357f38", "name": "5f91cfcdeeac9d0e754daec00d357f38", "is_reserved": 0, "fusion_lat": 0.0}, {"type": "electric_scooter", "rental_uris": {"ios": "https://dc.lft.to/lastmile_qr_scan", "android": "https://dc.lft.to/lastmile_qr_scan"}, "lon": -77.00961633333333, "fusion_lon": 0.0, "is_disabled": 0, "lat": 38.907905166666666, "bike_id": "267b4bee8399094eb2c89c7282174fbd", "name": "267b4bee8399094eb2c89c7282174fbd", "is_reserved": 0, "fusion_lat": 0.0}, {"type": "electric_scooter", "rental_uris": {"ios": "https://dc.lft.to/lastmile_qr_scan", "android": "https://dc.lft.to/lastmile_qr_scan"}, "lon": -76.99777183333333, "fusion_lon": 0.0, "is_disabled": 0, "lat": 38.8443375, "bike_id": "2e904a05a4425fcdec8704d1fc7ce275", "name": "2e904a05a4425fcdec8704d1fc7ce275", "is_reserved": 0, "fusion_lat": 0.0}, {"type": "electric_scooter", "rental_uris": {"ios": "https://dc.lft.to/lastmile_qr_scan", "android": "https://dc.lft.to/lastmile_qr_scan"}, "lon": -77.03443283333333, "fusion_lon": 0.0, "is_disabled": 0, "lat": 38.907887333333335, "bike_id": "dfd8786096cd63054a14fa82d7f11a91", "name": "dfd8786096cd63054a14fa82d7f11a91", "is_reserved": 0, "fusion_lat": 0.0}, {"type": "electric_scooter", "rental_uris": {"ios": "https://dc.lft.to/lastmile_qr_scan", "android": "https://dc.lft.to/lastmile_qr_scan"}, "lon": -76.99849833333333, "fusion_lon": 0.0, "is_disabled": 0, "lat": 38.88112666666667, "bike_id": "5b85bd2b3d4a7624f681ee39a05502dd", "name": "5b85bd2b3d4a7624f681ee39a05502dd", "is_reserved": 0, "fusion_lat": 0.0}, {"type": "electric_scooter", "rental_uris": {"ios": "https://dc.lft.to/lastmile_qr_scan", "android": "https://dc.lft.to/lastmile_qr_scan"}, "lon": -77.04619333333333, "fusion_lon": 0.0, "is_disabled": 0, "lat": 38.90859966666667, "bike_id": "6f3f0a6f03fb34f07b0e4d54c2761ade", "name": "6f3f0a6f03fb34f07b0e4d54c2761ade", "is_reserved": 0, "fusion_lat": 0.0}, {"type": "electric_scooter", "rental_uris": {"ios": "https://dc.lft.to/lastmile_qr_scan", "android": "https://dc.lft.to/lastmile_qr_scan"}, "lon": -76.98962933333334, "fusion_lon": 0.0, "is_disabled": 0, "lat": 38.90945033333333, "bike_id": "aac0b0e33db2b9612469233157f3fe3c", "name": "aac0b0e33db2b9612469233157f3fe3c", "is_reserved": 0, "fusion_lat": 0.0}, {"type": "electric_scooter", "rental_uris": {"ios": "https://dc.lft.to/lastmile_qr_scan", "android": "https://dc.lft.to/lastmile_qr_scan"}, "lon": -76.93768266666666, "fusion_lon": 0.0, "is_disabled": 0, "lat": 38.89037416666667, "bike_id": "5021727940ea0b9ac7cb6862542cece7", "name": "5021727940ea0b9ac7cb6862542cece7", "is_reserved": 0, "fusion_lat": 0.0}, {"type": "electric_scooter", "rental_uris": {"ios": "https://dc.lft.to/lastmile_qr_scan", "android": "https://dc.lft.to/lastmile_qr_scan"}, "lon": -77.0269615, "fusion_lon": 0.0, "is_disabled": 0, "lat": 38.900811166666664, "bike_id": "c35e02bd8f3632b5e8281f8c60ac5e81", "name": "c35e02bd8f3632b5e8281f8c60ac5e81", "is_reserved": 0, "fusion_lat": 0.0}, {"type": "electric_scooter", "rental_uris": {"ios": "https://dc.lft.to/lastmile_qr_scan", "android": "https://dc.lft.to/lastmile_qr_scan"}, "lon": -77.072986, "fusion_lon": 0.0, "is_disabled": 0, "lat": 38.935247, "bike_id": "d9bb1fbd0663a4e0c09bde9269cae542", "name": "d9bb1fbd0663a4e0c09bde9269cae542", "is_reserved": 0, "fusion_lat": 0.0}, {"type": "electric_scooter", "rental_uris": {"ios": "https://dc.lft.to/lastmile_qr_scan", "android": "https://dc.lft.to/lastmile_qr_scan"}, "lon": -77.0110985, "fusion_lon": 0.0, "is_disabled": 0, "lat": 38.903504833333336, "bike_id": "72cdd9ba94e0272f215e0302767f19a5", "name": "72cdd9ba94e0272f215e0302767f19a5", "is_reserved": 0, "fusion_lat": 0.0}, {"type": "electric_scooter", "rental_uris": {"ios": "https://dc.lft.to/lastmile_qr_scan", "android": "https://dc.lft.to/lastmile_qr_scan"}, "lon": -77.03456016666667, "fusion_lon": 0.0, "is_disabled": 0, "lat": 38.90736416666667, "bike_id": "2ab6ce957c8328d467aef04cf953c39d", "name": "2ab6ce957c8328d467aef04cf953c39d", "is_reserved": 0, "fusion_lat": 0.0}, {"type": "electric_scooter", "rental_uris": {"ios": "https://dc.lft.to/lastmile_qr_scan", "android": "https://dc.lft.to/lastmile_qr_scan"}, "lon": -76.983585, "fusion_lon": 0.0, "is_disabled": 0, "lat": 38.88745616666667, "bike_id": "95de8c4b7842c18bc8dabdfd5b7a48f8", "name": "95de8c4b7842c18bc8dabdfd5b7a48f8", "is_reserved": 0, "fusion_lat": 0.0}, {"type": "electric_scooter", "rental_uris": {"ios": "https://dc.lft.to/lastmile_qr_scan", "android": "https://dc.lft.to/lastmile_qr_scan"}, "lon": -77.025632, "fusion_lon": 0.0, "is_disabled": 0, "lat": 38.9237875, "bike_id": "f75b20df5d6573380a119c644b8d0300", "name": "f75b20df5d6573380a119c644b8d0300", "is_reserved": 0, "fusion_lat": 0.0}, {"type": "electric_scooter", "rental_uris": {"ios": "https://dc.lft.to/lastmile_qr_scan", "android": "https://dc.lft.to/lastmile_qr_scan"}, "lon": -77.05811133333333, "fusion_lon": 0.0, "is_disabled": 0, "lat": 38.9027945, "bike_id": "07ccdf02dee9f8dbc1f33a3a0b9e3d95", "name": "07ccdf02dee9f8dbc1f33a3a0b9e3d95", "is_reserved": 0, "fusion_lat": 0.0}, {"type": "electric_scooter", "rental_uris": {"ios": "https://dc.lft.to/lastmile_qr_scan", "android": "https://dc.lft.to/lastmile_qr_scan"}, "lon": -77.0402825, "fusion_lon": 0.0, "is_disabled": 0, "lat": 38.924428166666665, "bike_id": "30418579f73b573f0de9239836a6df0c", "name": "30418579f73b573f0de9239836a6df0c", "is_reserved": 0, "fusion_lat": 0.0}, {"type": "electric_bike", "rental_uris": {"ios": "https://dc.lft.to/lastmile_qr_scan", "android": "https://dc.lft.to/lastmile_qr_scan"}, "lon": -76.9758945, "fusion_lon": 0.0, "is_disabled": 0, "lat": 38.840255666666664, "bike_id": "ce9f57bac05c4d4f111f33fc4121019f", "name": "ce9f57bac05c4d4f111f33fc4121019f", "is_reserved": 0, "fusion_lat": 0.0}, {"type": "electric_scooter", "rental_uris": {"ios": "https://dc.lft.to/lastmile_qr_scan", "android": "https://dc.lft.to/lastmile_qr_scan"}, "lon": -77.032478, "fusion_lon": 0.0, "is_disabled": 0, "lat": 38.904561666666666, "bike_id": "729e7f47203f050ebd500fb66dd24105", "name": "729e7f47203f050ebd500fb66dd24105", "is_reserved": 0, "fusion_lat": 0.0}, {"type": "electric_scooter", "rental_uris": {"ios": "https://dc.lft.to/lastmile_qr_scan", "android": "https://dc.lft.to/lastmile_qr_scan"}, "lon": -77.02633716666666, "fusion_lon": 0.0, "is_disabled": 0, "lat": 38.899666833333335, "bike_id": "26e73d77744a94f9cb51c25bf87d71ff", "name": "26e73d77744a94f9cb51c25bf87d71ff", "is_reserved": 0, "fusion_lat": 0.0}, {"type": "electric_scooter", "rental_uris": {"ios": "https://dc.lft.to/lastmile_qr_scan", "android": "https://dc.lft.to/lastmile_qr_scan"}, "lon": -77.03295416666667, "fusion_lon": 0.0, "is_disabled": 0, "lat": 38.94714666666667, "bike_id": "f7552f0136ac2ee3ce99f265361e8dbf", "name": "f7552f0136ac2ee3ce99f265361e8dbf", "is_reserved": 0, "fusion_lat": 0.0}, {"type": "electric_scooter", "rental_uris": {"ios": "https://dc.lft.to/lastmile_qr_scan", "android": "https://dc.lft.to/lastmile_qr_scan"}, "lon": -77.00996816666667, "fusion_lon": 0.0, "is_disabled": 0, "lat": 38.9026095, "bike_id": "aae40bce30574fba987ea1687329abe1", "name": "aae40bce30574fba987ea1687329abe1", "is_reserved": 0, "fusion_lat": 0.0}, {"type": "electric_scooter", "rental_uris": {"ios": "https://dc.lft.to/lastmile_qr_scan", "android": "https://dc.lft.to/lastmile_qr_scan"}, "lon": -77.00606783333333, "fusion_lon": 0.0, "is_disabled": 0, "lat": 38.87182133333334, "bike_id": "9f24cffe3ca9ad014cd799d47c7cd67e", "name": "9f24cffe3ca9ad014cd799d47c7cd67e", "is_reserved": 0, "fusion_lat": 0.0}, {"type": "electric_scooter", "rental_uris": {"ios": "https://dc.lft.to/lastmile_qr_scan", "android": "https://dc.lft.to/lastmile_qr_scan"}, "lon": -77.04183566666667, "fusion_lon": 0.0, "is_disabled": 0, "lat": 38.89289516666667, "bike_id": "65d1aeb47ce79c904343890f2868020f", "name": "65d1aeb47ce79c904343890f2868020f", "is_reserved": 0, "fusion_lat": 0.0}, {"type": "electric_scooter", "rental_uris": {"ios": "https://dc.lft.to/lastmile_qr_scan", "android": "https://dc.lft.to/lastmile_qr_scan"}, "lon": -76.9329445, "fusion_lon": 0.0, "is_disabled": 0, "lat": 38.892223, "bike_id": "f58dde9e1ab2a2e2ab4af1c4413d21b7", "name": "f58dde9e1ab2a2e2ab4af1c4413d21b7", "is_reserved": 0, "fusion_lat": 0.0}, {"type": "electric_scooter", "rental_uris": {"ios": "https://dc.lft.to/lastmile_qr_scan", "android": "https://dc.lft.to/lastmile_qr_scan"}, "lon": -77.05593016666667, "fusion_lon": 0.0, "is_disabled": 0, "lat": 38.900950333333334, "bike_id": "ced4c25a6642eb5b3249d8f957326c3b", "name": "ced4c25a6642eb5b3249d8f957326c3b", "is_reserved": 0, "fusion_lat": 0.0}, {"type": "electric_scooter", "rental_uris": {"ios": "https://dc.lft.to/lastmile_qr_scan", "android": "https://dc.lft.to/lastmile_qr_scan"}, "lon": -77.01374233333334, "fusion_lon": 0.0, "is_disabled": 0, "lat": 38.89223766666667, "bike_id": "e891ba0c4414d9344d1fc31b53b7cd2e", "name": "e891ba0c4414d9344d1fc31b53b7cd2e", "is_reserved": 0, "fusion_lat": 0.0}, {"type": "electric_scooter", "rental_uris": {"ios": "https://dc.lft.to/lastmile_qr_scan", "android": "https://dc.lft.to/lastmile_qr_scan"}, "lon": -77.05094383333333, "fusion_lon": 0.0, "is_disabled": 0, "lat": 38.896495333333334, "bike_id": "9fbc2d2c98dc627d121a7ca6e7c83d15", "name": "9fbc2d2c98dc627d121a7ca6e7c83d15", "is_reserved": 0, "fusion_lat": 0.0}, {"type": "electric_scooter", "rental_uris": {"ios": "https://dc.lft.to/lastmile_qr_scan", "android": "https://dc.lft.to/lastmile_qr_scan"}, "lon": -77.02209133333334, "fusion_lon": 0.0, "is_disabled": 0, "lat": 38.887491, "bike_id": "824d887d4c7892cd77153506b96d8617", "name": "824d887d4c7892cd77153506b96d8617", "is_reserved": 0, "fusion_lat": 0.0}, {"type": "electric_scooter", "rental_uris": {"ios": "https://dc.lft.to/lastmile_qr_scan", "android": "https://dc.lft.to/lastmile_qr_scan"}, "lon": -77.03416683333333, "fusion_lon": 0.0, "is_disabled": 0, "lat": 38.91930516666667, "bike_id": "17371d845d1c62d8c321e7fc17824306", "name": "17371d845d1c62d8c321e7fc17824306", "is_reserved": 0, "fusion_lat": 0.0}, {"type": "electric_scooter", "rental_uris": {"ios": "https://dc.lft.to/lastmile_qr_scan", "android": "https://dc.lft.to/lastmile_qr_scan"}, "lon": -77.02492316666667, "fusion_lon": 0.0, "is_disabled": 0, "lat": 38.94185066666667, "bike_id": "d4439044033250acb451724b35751de9", "name": "d4439044033250acb451724b35751de9", "is_reserved": 0, "fusion_lat": 0.0}, {"type": "electric_scooter", "rental_uris": {"ios": "https://dc.lft.to/lastmile_qr_scan", "android": "https://dc.lft.to/lastmile_qr_scan"}, "lon": -77.04288233333334, "fusion_lon": 0.0, "is_disabled": 0, "lat": 38.920649166666664, "bike_id": "74fa5927f11ed932a7fd71359d3d4df2", "name": "74fa5927f11ed932a7fd71359d3d4df2", "is_reserved": 0, "fusion_lat": 0.0}, {"type": "electric_scooter", "rental_uris": {"ios": "https://dc.lft.to/lastmile_qr_scan", "android": "https://dc.lft.to/lastmile_qr_scan"}, "lon": -77.03361216666667, "fusion_lon": 0.0, "is_disabled": 0, "lat": 38.91354616666667, "bike_id": "0c618291737f17ed3c1858f496ac09f8", "name": "0c618291737f17ed3c1858f496ac09f8", "is_reserved": 0, "fusion_lat": 0.0}, {"type": "electric_scooter", "rental_uris": {"ios": "https://dc.lft.to/lastmile_qr_scan", "android": "https://dc.lft.to/lastmile_qr_scan"}, "lon": -77.02626116666667, "fusion_lon": 0.0, "is_disabled": 0, "lat": 38.892215666666665, "bike_id": "b81121f9fcb3f0ac51ba6e7a907de27b", "name": "b81121f9fcb3f0ac51ba6e7a907de27b", "is_reserved": 0, "fusion_lat": 0.0}, {"type": "electric_scooter", "rental_uris": {"ios": "https://dc.lft.to/lastmile_qr_scan", "android": "https://dc.lft.to/lastmile_qr_scan"}, "lon": -76.99946066666666, "fusion_lon": 0.0, "is_disabled": 0, "lat": 38.842974166666664, "bike_id": "c6ee5580c58c5afaa58edd751a5f2d36", "name": "c6ee5580c58c5afaa58edd751a5f2d36", "is_reserved": 0, "fusion_lat": 0.0}, {"type": "electric_scooter", "rental_uris": {"ios": "https://dc.lft.to/lastmile_qr_scan", "android": "https://dc.lft.to/lastmile_qr_scan"}, "lon": -77.05131433333334, "fusion_lon": 0.0, "is_disabled": 0, "lat": 38.923666, "bike_id": "7249bd00e9df9f322970103df7b55f56", "name": "7249bd00e9df9f322970103df7b55f56", "is_reserved": 0, "fusion_lat": 0.0}, {"type": "electric_scooter", "rental_uris": {"ios": "https://dc.lft.to/lastmile_qr_scan", "android": "https://dc.lft.to/lastmile_qr_scan"}, "lon": -77.02428466666667, "fusion_lon": 0.0, "is_disabled": 0, "lat": 38.9059735, "bike_id": "c15cc019f02d0cad07b80d0015b97df2", "name": "c15cc019f02d0cad07b80d0015b97df2", "is_reserved": 0, "fusion_lat": 0.0}, {"type": "electric_scooter", "rental_uris": {"ios": "https://dc.lft.to/lastmile_qr_scan", "android": "https://dc.lft.to/lastmile_qr_scan"}, "lon": -77.042522, "fusion_lon": 0.0, "is_disabled": 0, "lat": 38.9220065, "bike_id": "15dcab2b817e927efc9d771dfb40b65b", "name": "15dcab2b817e927efc9d771dfb40b65b", "is_reserved": 0, "fusion_lat": 0.0}, {"type": "electric_scooter", "rental_uris": {"ios": "https://dc.lft.to/lastmile_qr_scan", "android": "https://dc.lft.to/lastmile_qr_scan"}, "lon": -77.04650866666667, "fusion_lon": 0.0, "is_disabled": 0, "lat": 38.9054795, "bike_id": "614d8e84b79241383527022b54893956", "name": "614d8e84b79241383527022b54893956", "is_reserved": 0, "fusion_lat": 0.0}, {"type": "electric_scooter", "rental_uris": {"ios": "https://dc.lft.to/lastmile_qr_scan", "android": "https://dc.lft.to/lastmile_qr_scan"}, "lon": -77.03842166666666, "fusion_lon": 0.0, "is_disabled": 0, "lat": 38.917596333333336, "bike_id": "57bd8d777650a980a9212522eafa092f", "name": "57bd8d777650a980a9212522eafa092f", "is_reserved": 0, "fusion_lat": 0.0}, {"type": "electric_scooter", "rental_uris": {"ios": "https://dc.lft.to/lastmile_qr_scan", "android": "https://dc.lft.to/lastmile_qr_scan"}, "lon": -77.055141, "fusion_lon": 0.0, "is_disabled": 0, "lat": 38.94413466666666, "bike_id": "374317b8be8473ccc3624818ae9a525d", "name": "374317b8be8473ccc3624818ae9a525d", "is_reserved": 0, "fusion_lat": 0.0}, {"type": "electric_scooter", "rental_uris": {"ios": "https://dc.lft.to/lastmile_qr_scan", "android": "https://dc.lft.to/lastmile_qr_scan"}, "lon": -77.04033616666666, "fusion_lon": 0.0, "is_disabled": 0, "lat": 38.918073, "bike_id": "4ae1a6c4b69fae4a79b5b4dbd1d4730a", "name": "4ae1a6c4b69fae4a79b5b4dbd1d4730a", "is_reserved": 0, "fusion_lat": 0.0}, {"type": "electric_scooter", "rental_uris": {"ios": "https://dc.lft.to/lastmile_qr_scan", "android": "https://dc.lft.to/lastmile_qr_scan"}, "lon": -77.0447255, "fusion_lon": 0.0, "is_disabled": 0, "lat": 38.91107016666667, "bike_id": "8d9e565528e0fb0859a0f83a48a7cd27", "name": "8d9e565528e0fb0859a0f83a48a7cd27", "is_reserved": 0, "fusion_lat": 0.0}, {"type": "electric_scooter", "rental_uris": {"ios": "https://dc.lft.to/lastmile_qr_scan", "android": "https://dc.lft.to/lastmile_qr_scan"}, "lon": -77.03146733333334, "fusion_lon": 0.0, "is_disabled": 0, "lat": 38.911064833333334, "bike_id": "e0fc55dd073ae975deca0a2ec9708167", "name": "e0fc55dd073ae975deca0a2ec9708167", "is_reserved": 0, "fusion_lat": 0.0}, {"type": "electric_scooter", "rental_uris": {"ios": "https://dc.lft.to/lastmile_qr_scan", "android": "https://dc.lft.to/lastmile_qr_scan"}, "lon": -77.042141, "fusion_lon": 0.0, "is_disabled": 0, "lat": 38.91120816666667, "bike_id": "7498d22880a77aeeb09213937aa9d75f", "name": "7498d22880a77aeeb09213937aa9d75f", "is_reserved": 0, "fusion_lat": 0.0}, {"type": "electric_scooter", "rental_uris": {"ios": "https://dc.lft.to/lastmile_qr_scan", "android": "https://dc.lft.to/lastmile_qr_scan"}, "lon": -77.027942, "fusion_lon": 0.0, "is_disabled": 0, "lat": 38.8923685, "bike_id": "16ea30a2ec8ed9b5804f24497fcd53d2", "name": "16ea30a2ec8ed9b5804f24497fcd53d2", "is_reserved": 0, "fusion_lat": 0.0}, {"type": "electric_scooter", "rental_uris": {"ios": "https://dc.lft.to/lastmile_qr_scan", "android": "https://dc.lft.to/lastmile_qr_scan"}, "lon": -77.033777, "fusion_lon": 0.0, "is_disabled": 0, "lat": 38.9096965, "bike_id": "6bd393213a344b600dcced174f5cb8ef", "name": "6bd393213a344b600dcced174f5cb8ef", "is_reserved": 0, "fusion_lat": 0.0}, {"type": "electric_scooter", "rental_uris": {"ios": "https://dc.lft.to/lastmile_qr_scan", "android": "https://dc.lft.to/lastmile_qr_scan"}, "lon": -77.0218405, "fusion_lon": 0.0, "is_disabled": 0, "lat": 38.906182333333334, "bike_id": "15e8ee420c53e9caeb00a0b7c424525f", "name": "15e8ee420c53e9caeb00a0b7c424525f", "is_reserved": 0, "fusion_lat": 0.0}, {"type": "electric_scooter", "rental_uris": {"ios": "https://dc.lft.to/lastmile_qr_scan", "android": "https://dc.lft.to/lastmile_qr_scan"}, "lon": -76.91149016666667, "fusion_lon": 0.0, "is_disabled": 0, "lat": 38.8940665, "bike_id": "6073126a9d16aaea0dcfbcb4542243a1", "name": "6073126a9d16aaea0dcfbcb4542243a1", "is_reserved": 0, "fusion_lat": 0.0}, {"type": "electric_scooter", "rental_uris": {"ios": "https://dc.lft.to/lastmile_qr_scan", "android": "https://dc.lft.to/lastmile_qr_scan"}, "lon": -77.02004016666666, "fusion_lon": 0.0, "is_disabled": 0, "lat": 38.915612833333334, "bike_id": "2c99dd7dd5d529a9570440017d4d464b", "name": "2c99dd7dd5d529a9570440017d4d464b", "is_reserved": 0, "fusion_lat": 0.0}, {"type": "electric_scooter", "rental_uris": {"ios": "https://dc.lft.to/lastmile_qr_scan", "android": "https://dc.lft.to/lastmile_qr_scan"}, "lon": -77.02970416666666, "fusion_lon": 0.0, "is_disabled": 0, "lat": 38.922767, "bike_id": "d855f70c26a1390cf21219f8f47b7e4d", "name": "d855f70c26a1390cf21219f8f47b7e4d", "is_reserved": 0, "fusion_lat": 0.0}, {"type": "electric_scooter", "rental_uris": {"ios": "https://dc.lft.to/lastmile_qr_scan", "android": "https://dc.lft.to/lastmile_qr_scan"}, "lon": -77.03147083333333, "fusion_lon": 0.0, "is_disabled": 0, "lat": 38.88756683333333, "bike_id": "e1e1b5735cce76e5174b7a07766762f5", "name": "e1e1b5735cce76e5174b7a07766762f5", "is_reserved": 0, "fusion_lat": 0.0}, {"type": "electric_bike", "rental_uris": {"ios": "https://dc.lft.to/lastmile_qr_scan", "android": "https://dc.lft.to/lastmile_qr_scan"}, "lon": -77.02168816666666, "fusion_lon": 0.0, "is_disabled": 0, "lat": 38.95742716666667, "bike_id": "bffeae06da9127e4e7c5316bf84dec5a", "name": "bffeae06da9127e4e7c5316bf84dec5a", "is_reserved": 0, "fusion_lat": 0.0}, {"type": "electric_scooter", "rental_uris": {"ios": "https://dc.lft.to/lastmile_qr_scan", "android": "https://dc.lft.to/lastmile_qr_scan"}, "lon": -77.03446233333334, "fusion_lon": 0.0, "is_disabled": 0, "lat": 38.91849066666666, "bike_id": "8d2be257fe96f54a7209602872b4b871", "name": "8d2be257fe96f54a7209602872b4b871", "is_reserved": 0, "fusion_lat": 0.0}, {"type": "electric_scooter", "rental_uris": {"ios": "https://dc.lft.to/lastmile_qr_scan", "android": "https://dc.lft.to/lastmile_qr_scan"}, "lon": -77.0177645, "fusion_lon": 0.0, "is_disabled": 0, "lat": 38.88716183333333, "bike_id": "dc51bce1d09f8826675bd50445535510", "name": "dc51bce1d09f8826675bd50445535510", "is_reserved": 0, "fusion_lat": 0.0}, {"type": "electric_bike", "rental_uris": {"ios": "https://dc.lft.to/lastmile_qr_scan", "android": "https://dc.lft.to/lastmile_qr_scan"}, "lon": -76.93544733333333, "fusion_lon": 0.0, "is_disabled": 0, "lat": 38.95556366666667, "bike_id": "032787287745e314db9ff8ac395a7bb2", "name": "032787287745e314db9ff8ac395a7bb2", "is_reserved": 0, "fusion_lat": 0.0}, {"type": "electric_scooter", "rental_uris": {"ios": "https://dc.lft.to/lastmile_qr_scan", "android": "https://dc.lft.to/lastmile_qr_scan"}, "lon": -77.02706616666667, "fusion_lon": 0.0, "is_disabled": 0, "lat": 38.906770333333334, "bike_id": "fa2b8d7030c77ab1a3309abf8ae7bdbf", "name": "fa2b8d7030c77ab1a3309abf8ae7bdbf", "is_reserved": 0, "fusion_lat": 0.0}, {"type": "electric_bike", "rental_uris": {"ios": "https://dc.lft.to/lastmile_qr_scan", "android": "https://dc.lft.to/lastmile_qr_scan"}, "lon": -77.03061066666666, "fusion_lon": 0.0, "is_disabled": 0, "lat": 38.95958683333333, "bike_id": "51e0782e0e4c32ae6df25f15b48189dc", "name": "51e0782e0e4c32ae6df25f15b48189dc", "is_reserved": 0, "fusion_lat": 0.0}, {"type": "electric_scooter", "rental_uris": {"ios": "https://dc.lft.to/lastmile_qr_scan", "android": "https://dc.lft.to/lastmile_qr_scan"}, "lon": -77.034705, "fusion_lon": 0.0, "is_disabled": 0, "lat": 38.9291755, "bike_id": "bdbbc42890585a1ca58cde4bcd22bb2f", "name": "bdbbc42890585a1ca58cde4bcd22bb2f", "is_reserved": 0, "fusion_lat": 0.0}, {"type": "electric_bike", "rental_uris": {"ios": "https://dc.lft.to/lastmile_qr_scan", "android": "https://dc.lft.to/lastmile_qr_scan"}, "lon": -77.04023433333333, "fusion_lon": 0.0, "is_disabled": 0, "lat": 38.79328116666667, "bike_id": "11cad15559e587e1dec1179daa1141fe", "name": "11cad15559e587e1dec1179daa1141fe", "is_reserved": 0, "fusion_lat": 0.0}, {"type": "electric_scooter", "rental_uris": {"ios": "https://dc.lft.to/lastmile_qr_scan", "android": "https://dc.lft.to/lastmile_qr_scan"}, "lon": -77.00931616666666, "fusion_lon": 0.0, "is_disabled": 0, "lat": 38.88337116666667, "bike_id": "fc96dc3794bd40952b23d48b95f99de0", "name": "fc96dc3794bd40952b23d48b95f99de0", "is_reserved": 0, "fusion_lat": 0.0}, {"type": "electric_scooter", "rental_uris": {"ios": "https://dc.lft.to/lastmile_qr_scan", "android": "https://dc.lft.to/lastmile_qr_scan"}, "lon": -77.031866, "fusion_lon": 0.0, "is_disabled": 0, "lat": 38.914230333333336, "bike_id": "b27e1d7ded277754a8edfe947057ceda", "name": "b27e1d7ded277754a8edfe947057ceda", "is_reserved": 0, "fusion_lat": 0.0}, {"type": "electric_scooter", "rental_uris": {"ios": "https://dc.lft.to/lastmile_qr_scan", "android": "https://dc.lft.to/lastmile_qr_scan"}, "lon": -77.026972, "fusion_lon": 0.0, "is_disabled": 0, "lat": 38.906885333333335, "bike_id": "c64261cb26e1df50727e8a7e7e112733", "name": "c64261cb26e1df50727e8a7e7e112733", "is_reserved": 0, "fusion_lat": 0.0}, {"type": "electric_scooter", "rental_uris": {"ios": "https://dc.lft.to/lastmile_qr_scan", "android": "https://dc.lft.to/lastmile_qr_scan"}, "lon": -77.02629, "fusion_lon": 0.0, "is_disabled": 0, "lat": 38.8922555, "bike_id": "40af2b9c5d4d08e2dba37363009eba7b", "name": "40af2b9c5d4d08e2dba37363009eba7b", "is_reserved": 0, "fusion_lat": 0.0}, {"type": "electric_bike", "rental_uris": {"ios": "https://dc.lft.to/lastmile_qr_scan", "android": "https://dc.lft.to/lastmile_qr_scan"}, "lon": -77.11804383333333, "fusion_lon": 0.0, "is_disabled": 0, "lat": 38.873703666666664, "bike_id": "2d2ce003eff8b0071111fa4e6a210c56", "name": "2d2ce003eff8b0071111fa4e6a210c56", "is_reserved": 0, "fusion_lat": 0.0}, {"type": "electric_scooter", "rental_uris": {"ios": "https://dc.lft.to/lastmile_qr_scan", "android": "https://dc.lft.to/lastmile_qr_scan"}, "lon": -77.02110366666666, "fusion_lon": 0.0, "is_disabled": 0, "lat": 38.9409855, "bike_id": "e558422999a26028f85c09409532002d", "name": "e558422999a26028f85c09409532002d", "is_reserved": 0, "fusion_lat": 0.0}, {"type": "electric_scooter", "rental_uris": {"ios": "https://dc.lft.to/lastmile_qr_scan", "android": "https://dc.lft.to/lastmile_qr_scan"}, "lon": -76.9951545, "fusion_lon": 0.0, "is_disabled": 0, "lat": 38.89729666666667, "bike_id": "f40a695803597685880daa3edee8c632", "name": "f40a695803597685880daa3edee8c632", "is_reserved": 0, "fusion_lat": 0.0}, {"type": "electric_bike", "rental_uris": {"ios": "https://dc.lft.to/lastmile_qr_scan", "android": "https://dc.lft.to/lastmile_qr_scan"}, "lon": -76.97238033333333, "fusion_lon": 0.0, "is_disabled": 0, "lat": 38.9490505, "bike_id": "625a213e96d534af5d114fcac4820689", "name": "625a213e96d534af5d114fcac4820689", "is_reserved": 0, "fusion_lat": 0.0}, {"type": "electric_bike", "rental_uris": {"ios": "https://dc.lft.to/lastmile_qr_scan", "android": "https://dc.lft.to/lastmile_qr_scan"}, "lon": -77.03686216666667, "fusion_lon": 0.0, "is_disabled": 0, "lat": 38.9302205, "bike_id": "2f977a6ffc66e7235f36a76759787bd6", "name": "2f977a6ffc66e7235f36a76759787bd6", "is_reserved": 0, "fusion_lat": 0.0}, {"type": "electric_scooter", "rental_uris": {"ios": "https://dc.lft.to/lastmile_qr_scan", "android": "https://dc.lft.to/lastmile_qr_scan"}, "lon": -77.03186533333333, "fusion_lon": 0.0, "is_disabled": 0, "lat": 38.91328266666667, "bike_id": "0da795a3dcf8433093c27d832c57265b", "name": "0da795a3dcf8433093c27d832c57265b", "is_reserved": 0, "fusion_lat": 0.0}, {"type": "electric_scooter", "rental_uris": {"ios": "https://dc.lft.to/lastmile_qr_scan", "android": "https://dc.lft.to/lastmile_qr_scan"}, "lon": -77.02835266666666, "fusion_lon": 0.0, "is_disabled": 0, "lat": 38.9318885, "bike_id": "6e7610dcf9e304684d0ceff2d259e69a", "name": "6e7610dcf9e304684d0ceff2d259e69a", "is_reserved": 0, "fusion_lat": 0.0}, {"type": "electric_scooter", "rental_uris": {"ios": "https://dc.lft.to/lastmile_qr_scan", "android": "https://dc.lft.to/lastmile_qr_scan"}, "lon": -77.0328625, "fusion_lon": 0.0, "is_disabled": 0, "lat": 38.8989695, "bike_id": "67cf6fffb9059e6e6b6cfd212f246e3e", "name": "67cf6fffb9059e6e6b6cfd212f246e3e", "is_reserved": 0, "fusion_lat": 0.0}, {"type": "electric_scooter", "rental_uris": {"ios": "https://dc.lft.to/lastmile_qr_scan", "android": "https://dc.lft.to/lastmile_qr_scan"}, "lon": -77.0319675, "fusion_lon": 0.0, "is_disabled": 0, "lat": 38.91791816666667, "bike_id": "3f54e87eebd49d50af29de57014bcd16", "name": "3f54e87eebd49d50af29de57014bcd16", "is_reserved": 0, "fusion_lat": 0.0}, {"type": "electric_scooter", "rental_uris": {"ios": "https://dc.lft.to/lastmile_qr_scan", "android": "https://dc.lft.to/lastmile_qr_scan"}, "lon": -77.03342633333334, "fusion_lon": 0.0, "is_disabled": 0, "lat": 38.92872333333333, "bike_id": "5e40993e869c753b6584207cf701ad96", "name": "5e40993e869c753b6584207cf701ad96", "is_reserved": 0, "fusion_lat": 0.0}, {"type": "electric_scooter", "rental_uris": {"ios": "https://dc.lft.to/lastmile_qr_scan", "android": "https://dc.lft.to/lastmile_qr_scan"}, "lon": -77.029032, "fusion_lon": 0.0, "is_disabled": 0, "lat": 38.9026015, "bike_id": "0bdb3509388f41db855626fca7f339cf", "name": "0bdb3509388f41db855626fca7f339cf", "is_reserved": 0, "fusion_lat": 0.0}, {"type": "electric_scooter", "rental_uris": {"ios": "https://dc.lft.to/lastmile_qr_scan", "android": "https://dc.lft.to/lastmile_qr_scan"}, "lon": -77.03176516666667, "fusion_lon": 0.0, "is_disabled": 0, "lat": 38.921121666666664, "bike_id": "42999bdff575bf1c02f8dad76e6bbb9f", "name": "42999bdff575bf1c02f8dad76e6bbb9f", "is_reserved": 0, "fusion_lat": 0.0}, {"type": "electric_scooter", "rental_uris": {"ios": "https://dc.lft.to/lastmile_qr_scan", "android": "https://dc.lft.to/lastmile_qr_scan"}, "lon": -77.05141233333333, "fusion_lon": 0.0, "is_disabled": 0, "lat": 38.900550333333335, "bike_id": "4cc32db73f9ec04a1c45d1d8c6177b2f", "name": "4cc32db73f9ec04a1c45d1d8c6177b2f", "is_reserved": 0, "fusion_lat": 0.0}, {"type": "electric_scooter", "rental_uris": {"ios": "https://dc.lft.to/lastmile_qr_scan", "android": "https://dc.lft.to/lastmile_qr_scan"}, "lon": -77.0297845, "fusion_lon": 0.0, "is_disabled": 0, "lat": 38.916892833333335, "bike_id": "d506949e796d4ebf99c8d10ce1bd44bd", "name": "d506949e796d4ebf99c8d10ce1bd44bd", "is_reserved": 0, "fusion_lat": 0.0}, {"type": "electric_scooter", "rental_uris": {"ios": "https://dc.lft.to/lastmile_qr_scan", "android": "https://dc.lft.to/lastmile_qr_scan"}, "lon": -77.03222333333333, "fusion_lon": 0.0, "is_disabled": 0, "lat": 38.89220016666667, "bike_id": "2b8694b9f7ba95b2803d02603718b740", "name": "2b8694b9f7ba95b2803d02603718b740", "is_reserved": 0, "fusion_lat": 0.0}, {"type": "electric_scooter", "rental_uris": {"ios": "https://dc.lft.to/lastmile_qr_scan", "android": "https://dc.lft.to/lastmile_qr_scan"}, "lon": -77.0315075, "fusion_lon": 0.0, "is_disabled": 0, "lat": 38.91698616666667, "bike_id": "706c445dd2681df3afd3c92c12debff4", "name": "706c445dd2681df3afd3c92c12debff4", "is_reserved": 0, "fusion_lat": 0.0}, {"type": "electric_scooter", "rental_uris": {"ios": "https://dc.lft.to/lastmile_qr_scan", "android": "https://dc.lft.to/lastmile_qr_scan"}, "lon": -77.03236033333333, "fusion_lon": 0.0, "is_disabled": 0, "lat": 38.928063333333334, "bike_id": "23ac4fa63437fa66dc4d0c82a336741b", "name": "23ac4fa63437fa66dc4d0c82a336741b", "is_reserved": 0, "fusion_lat": 0.0}, {"type": "electric_scooter", "rental_uris": {"ios": "https://dc.lft.to/lastmile_qr_scan", "android": "https://dc.lft.to/lastmile_qr_scan"}, "lon": -77.02238766666666, "fusion_lon": 0.0, "is_disabled": 0, "lat": 38.922353333333334, "bike_id": "c8f0af6eed1f25e4861cdc1008b0944f", "name": "c8f0af6eed1f25e4861cdc1008b0944f", "is_reserved": 0, "fusion_lat": 0.0}, {"type": "electric_scooter", "rental_uris": {"ios": "https://dc.lft.to/lastmile_qr_scan", "android": "https://dc.lft.to/lastmile_qr_scan"}, "lon": -77.00070633333333, "fusion_lon": 0.0, "is_disabled": 0, "lat": 38.87399333333333, "bike_id": "43e5553affb71b332f51f9a1091e5a25", "name": "43e5553affb71b332f51f9a1091e5a25", "is_reserved": 0, "fusion_lat": 0.0}, {"type": "electric_scooter", "rental_uris": {"ios": "https://dc.lft.to/lastmile_qr_scan", "android": "https://dc.lft.to/lastmile_qr_scan"}, "lon": -77.034505, "fusion_lon": 0.0, "is_disabled": 0, "lat": 38.918687, "bike_id": "1ef08a56e2b014f62b33d43563948c11", "name": "1ef08a56e2b014f62b33d43563948c11", "is_reserved": 0, "fusion_lat": 0.0}, {"type": "electric_scooter", "rental_uris": {"ios": "https://dc.lft.to/lastmile_qr_scan", "android": "https://dc.lft.to/lastmile_qr_scan"}, "lon": -77.03526183333334, "fusion_lon": 0.0, "is_disabled": 0, "lat": 38.918279166666665, "bike_id": "040102e780b0e183985aaf0a3fd29cdb", "name": "040102e780b0e183985aaf0a3fd29cdb", "is_reserved": 0, "fusion_lat": 0.0}, {"type": "electric_bike", "rental_uris": {"ios": "https://dc.lft.to/lastmile_qr_scan", "android": "https://dc.lft.to/lastmile_qr_scan"}, "lon": -77.22339316666667, "fusion_lon": 0.0, "is_disabled": 0, "lat": 38.91807716666667, "bike_id": "bcecf4c315c4255a95004c86c453dde2", "name": "bcecf4c315c4255a95004c86c453dde2", "is_reserved": 0, "fusion_lat": 0.0}, {"type": "electric_scooter", "rental_uris": {"ios": "https://dc.lft.to/lastmile_qr_scan", "android": "https://dc.lft.to/lastmile_qr_scan"}, "lon": -77.03864416666667, "fusion_lon": 0.0, "is_disabled": 0, "lat": 38.915649333333334, "bike_id": "aca34ac082df99dcc06d185d0f097d56", "name": "aca34ac082df99dcc06d185d0f097d56", "is_reserved": 0, "fusion_lat": 0.0}, {"type": "electric_scooter", "rental_uris": {"ios": "https://dc.lft.to/lastmile_qr_scan", "android": "https://dc.lft.to/lastmile_qr_scan"}, "lon": -77.02659216666666, "fusion_lon": 0.0, "is_disabled": 0, "lat": 38.917004666666664, "bike_id": "105dd186808fc7507646142cccadcda3", "name": "105dd186808fc7507646142cccadcda3", "is_reserved": 0, "fusion_lat": 0.0}, {"type": "electric_scooter", "rental_uris": {"ios": "https://dc.lft.to/lastmile_qr_scan", "android": "https://dc.lft.to/lastmile_qr_scan"}, "lon": -77.01118, "fusion_lon": 0.0, "is_disabled": 0, "lat": 38.92030666666667, "bike_id": "ac51a33a12f8c9d4b20fad7bb5c6f5a6", "name": "ac51a33a12f8c9d4b20fad7bb5c6f5a6", "is_reserved": 0, "fusion_lat": 0.0}, {"type": "electric_bike", "rental_uris": {"ios": "https://dc.lft.to/lastmile_qr_scan", "android": "https://dc.lft.to/lastmile_qr_scan"}, "lon": -77.00870833333333, "fusion_lon": 0.0, "is_disabled": 0, "lat": 38.87513033333333, "bike_id": "c832032b8fbdaf7976960e30d02e507b", "name": "c832032b8fbdaf7976960e30d02e507b", "is_reserved": 0, "fusion_lat": 0.0}, {"type": "electric_scooter", "rental_uris": {"ios": "https://dc.lft.to/lastmile_qr_scan", "android": "https://dc.lft.to/lastmile_qr_scan"}, "lon": -77.0485425, "fusion_lon": 0.0, "is_disabled": 0, "lat": 38.904821166666665, "bike_id": "c4fc75210bc79c7fea76da0662c7a8d3", "name": "c4fc75210bc79c7fea76da0662c7a8d3", "is_reserved": 0, "fusion_lat": 0.0}, {"type": "electric_scooter", "rental_uris": {"ios": "https://dc.lft.to/lastmile_qr_scan", "android": "https://dc.lft.to/lastmile_qr_scan"}, "lon": -76.936115, "fusion_lon": 0.0, "is_disabled": 0, "lat": 38.886772, "bike_id": "7260ed33b445dabdb41cca69a35c783e", "name": "7260ed33b445dabdb41cca69a35c783e", "is_reserved": 0, "fusion_lat": 0.0}, {"type": "electric_scooter", "rental_uris": {"ios": "https://dc.lft.to/lastmile_qr_scan", "android": "https://dc.lft.to/lastmile_qr_scan"}, "lon": -76.96528333333333, "fusion_lon": 0.0, "is_disabled": 0, "lat": 38.876259166666664, "bike_id": "99a6df0090d6a98d1ffe71a411aa2894", "name": "99a6df0090d6a98d1ffe71a411aa2894", "is_reserved": 0, "fusion_lat": 0.0}, {"type": "electric_scooter", "rental_uris": {"ios": "https://dc.lft.to/lastmile_qr_scan", "android": "https://dc.lft.to/lastmile_qr_scan"}, "lon": -77.03965283333334, "fusion_lon": 0.0, "is_disabled": 0, "lat": 38.898851666666665, "bike_id": "5ae7ad2268d66edbcc6bcf983e8ef1c6", "name": "5ae7ad2268d66edbcc6bcf983e8ef1c6", "is_reserved": 0, "fusion_lat": 0.0}, {"type": "electric_scooter", "rental_uris": {"ios": "https://dc.lft.to/lastmile_qr_scan", "android": "https://dc.lft.to/lastmile_qr_scan"}, "lon": -77.081021, "fusion_lon": 0.0, "is_disabled": 0, "lat": 38.9069875, "bike_id": "ae16267e39769f9b104e35870a4ad76d", "name": "ae16267e39769f9b104e35870a4ad76d", "is_reserved": 0, "fusion_lat": 0.0}, {"type": "electric_scooter", "rental_uris": {"ios": "https://dc.lft.to/lastmile_qr_scan", "android": "https://dc.lft.to/lastmile_qr_scan"}, "lon": -76.94155433333333, "fusion_lon": 0.0, "is_disabled": 0, "lat": 38.8836445, "bike_id": "eacfd075f9e20b9e5a7daf650d339cb9", "name": "eacfd075f9e20b9e5a7daf650d339cb9", "is_reserved": 0, "fusion_lat": 0.0}, {"type": "electric_bike", "rental_uris": {"ios": "https://dc.lft.to/lastmile_qr_scan", "android": "https://dc.lft.to/lastmile_qr_scan"}, "lon": -76.924879, "fusion_lon": 0.0, "is_disabled": 0, "lat": 38.958904833333335, "bike_id": "6460439fb1408730d61a70071b3fad07", "name": "6460439fb1408730d61a70071b3fad07", "is_reserved": 0, "fusion_lat": 0.0}, {"type": "electric_scooter", "rental_uris": {"ios": "https://dc.lft.to/lastmile_qr_scan", "android": "https://dc.lft.to/lastmile_qr_scan"}, "lon": -77.02637466666667, "fusion_lon": 0.0, "is_disabled": 0, "lat": 38.925418, "bike_id": "eb1e313dce7c1b4e5c33cce5fe2bdd82", "name": "eb1e313dce7c1b4e5c33cce5fe2bdd82", "is_reserved": 0, "fusion_lat": 0.0}, {"type": "electric_scooter", "rental_uris": {"ios": "https://dc.lft.to/lastmile_qr_scan", "android": "https://dc.lft.to/lastmile_qr_scan"}, "lon": -77.0060065, "fusion_lon": 0.0, "is_disabled": 0, "lat": 38.90557033333333, "bike_id": "f52f6c5aeff1dbd263392deada1687e3", "name": "f52f6c5aeff1dbd263392deada1687e3", "is_reserved": 0, "fusion_lat": 0.0}, {"type": "electric_scooter", "rental_uris": {"ios": "https://dc.lft.to/lastmile_qr_scan", "android": "https://dc.lft.to/lastmile_qr_scan"}, "lon": -77.029691, "fusion_lon": 0.0, "is_disabled": 0, "lat": 38.91686083333333, "bike_id": "d902f20aab5844b6d802d54574be4c4d", "name": "d902f20aab5844b6d802d54574be4c4d", "is_reserved": 0, "fusion_lat": 0.0}, {"type": "electric_scooter", "rental_uris": {"ios": "https://dc.lft.to/lastmile_qr_scan", "android": "https://dc.lft.to/lastmile_qr_scan"}, "lon": -77.00592133333333, "fusion_lon": 0.0, "is_disabled": 0, "lat": 38.90562583333333, "bike_id": "699d69a3f7a053ea76847edeca3df341", "name": "699d69a3f7a053ea76847edeca3df341", "is_reserved": 0, "fusion_lat": 0.0}, {"type": "electric_scooter", "rental_uris": {"ios": "https://dc.lft.to/lastmile_qr_scan", "android": "https://dc.lft.to/lastmile_qr_scan"}, "lon": -77.05859033333333, "fusion_lon": 0.0, "is_disabled": 0, "lat": 38.9361155, "bike_id": "300e53cfdd6f395021eac245732f93c5", "name": "300e53cfdd6f395021eac245732f93c5", "is_reserved": 0, "fusion_lat": 0.0}, {"type": "electric_scooter", "rental_uris": {"ios": "https://dc.lft.to/lastmile_qr_scan", "android": "https://dc.lft.to/lastmile_qr_scan"}, "lon": -77.017624, "fusion_lon": 0.0, "is_disabled": 0, "lat": 38.9025995, "bike_id": "1744938d7028e8e02c7a3bf1acf02fb2", "name": "1744938d7028e8e02c7a3bf1acf02fb2", "is_reserved": 0, "fusion_lat": 0.0}, {"type": "electric_scooter", "rental_uris": {"ios": "https://dc.lft.to/lastmile_qr_scan", "android": "https://dc.lft.to/lastmile_qr_scan"}, "lon": -77.02173866666666, "fusion_lon": 0.0, "is_disabled": 0, "lat": 38.942891333333336, "bike_id": "269e33d3ac67876530117625d8b0125a", "name": "269e33d3ac67876530117625d8b0125a", "is_reserved": 0, "fusion_lat": 0.0}, {"type": "electric_scooter", "rental_uris": {"ios": "https://dc.lft.to/lastmile_qr_scan", "android": "https://dc.lft.to/lastmile_qr_scan"}, "lon": -76.93737733333333, "fusion_lon": 0.0, "is_disabled": 0, "lat": 38.890178666666664, "bike_id": "76c463b8527768a78ce59f7b800df6d8", "name": "76c463b8527768a78ce59f7b800df6d8", "is_reserved": 0, "fusion_lat": 0.0}, {"type": "electric_scooter", "rental_uris": {"ios": "https://dc.lft.to/lastmile_qr_scan", "android": "https://dc.lft.to/lastmile_qr_scan"}, "lon": -77.0137645, "fusion_lon": 0.0, "is_disabled": 0, "lat": 38.89221533333333, "bike_id": "ce979385237c65193f4ca900d479d47c", "name": "ce979385237c65193f4ca900d479d47c", "is_reserved": 0, "fusion_lat": 0.0}, {"type": "electric_bike", "rental_uris": {"ios": "https://dc.lft.to/lastmile_qr_scan", "android": "https://dc.lft.to/lastmile_qr_scan"},