{"data": {"bikes": [{"name": "d0e940e48eff5971f7b090cc29f3b5a8", "fusion_lat": 0.0, "type": "electric_scooter", "lat": 38.919329166666664, "is_reserved": 0, "is_disabled": 0, "fusion_lon": 0.0, "bike_id": "d0e940e48eff5971f7b090cc29f3b5a8", "lon": -77.02360566666667, "rental_uris": {"ios": "https://dc.lft.to/lastmile_qr_scan", "android": "https://dc.lft.to/lastmile_qr_scan"}}, {"name": "6ec822c8f7edf3e709035a430a5d40d0", "fusion_lat": 0.0, "type": "electric_scooter", "lat": 38.90716233333333, "is_reserved": 0, "is_disabled": 0, "fusion_lon": 0.0, "bike_id": "6ec822c8f7edf3e709035a430a5d40d0", "lon": -77.03456433333334, "rental_uris": {"ios": "https://dc.lft.to/lastmile_qr_scan", "android": "https://dc.lft.to/lastmile_qr_scan"}}, {"name": "df76cda7c33df06a6d968477c1e288c6", "fusion_lat": 0.0, "type": "electric_scooter", "lat": 38.93401683333333, "is_reserved": 0, "is_disabled": 0, "fusion_lon": 0.0, "bike_id": "df76cda7c33df06a6d968477c1e288c6", "lon": -77.02732116666667, "rental_uris": {"ios": "https://dc.lft.to/lastmile_qr_scan", "android": "https://dc.lft.to/lastmile_qr_scan"}}, {"name": "eb7514e386447b0f257082868976d4bc", "fusion_lat": 0.0, "type": "electric_scooter", "lat": 38.880401, "is_reserved": 0, "is_disabled": 0, "fusion_lon": 0.0, "bike_id": "eb7514e386447b0f257082868976d4bc", "lon": -76.92722366666666, "rental_uris": {"ios": "https://dc.lft.to/lastmile_qr_scan", "android": "https://dc.lft.to/lastmile_qr_scan"}}, {"name": "acce058fec98455a4c4b887f655e0413", "fusion_lat": 0.0, "type": "electric_bike", "lat": 38.85230416666667, "is_reserved": 0, "is_disabled": 0, "fusion_lon": 0.0, "bike_id": "acce058fec98455a4c4b887f655e0413", "lon": -77.10335783333333, "rental_uris": {"ios": "https://dc.lft.to/lastmile_qr_scan", "android": "https://dc.lft.to/lastmile_qr_scan"}}, {"name": "a10d3939791d9a0a4d203ca239d79f8d", "fusion_lat": 0.0, "type": "electric_scooter", "lat": 38.9041385, "is_reserved": 0, "is_disabled": 0, "fusion_lon": 0.0, "bike_id": "a10d3939791d9a0a4d203ca239d79f8d", "lon": -77.0014035, "rental_uris": {"ios": "https://dc.lft.to/lastmile_qr_scan", "android": "https://dc.lft.to/lastmile_qr_scan"}}, {"name": "bc8302e174d6e70ab7bf440bbd031c83", "fusion_lat": 0.0, "type": "electric_scooter", "lat": 38.9062685, "is_reserved": 0, "is_disabled": 0, "fusion_lon": 0.0, "bike_id": "bc8302e174d6e70ab7bf440bbd031c83", "lon": -77.03465366666667, "rental_uris": {"ios": "https://dc.lft.to/lastmile_qr_scan", "android": "https://dc.lft.to/lastmile_qr_scan"}}, {"name": "f8cde44afb1c4bcefa5cb6bf4d314e76", "fusion_lat": 0.0, "type": "electric_bike", "lat": 38.88045616666667, "is_reserved": 0, "is_disabled": 0, "fusion_lon": 0.0, "bike_id": "f8cde44afb1c4bcefa5cb6bf4d314e76", "lon": -77.0132415, "rental_uris": {"ios": "https://dc.lft.to/lastmile_qr_scan", "android": "https://dc.lft.to/lastmile_qr_scan"}}, {"name": "ccbd889325564b5d4ed9c7e7779399aa", "fusion_lat": 0.0, "type": "electric_bike", "lat": 38.988213, "is_reserved": 0, "is_disabled": 0, "fusion_lon": 0.0, "bike_id": "ccbd889325564b5d4ed9c7e7779399aa", "lon": -77.0265, "rental_uris": {"ios": "https://dc.lft.to/lastmile_qr_scan", "android": "https://dc.lft.to/lastmile_qr_scan"}}, {"name": "f6ed6d7cacb7b37241f088f7b9d86f4b", "fusion_lat": 0.0, "type": "electric_bike", "lat": 38.90973, "is_reserved": 0, "is_disabled": 0, "fusion_lon": 0.0, "bike_id": "f6ed6d7cacb7b37241f088f7b9d86f4b", "lon": -77.08824116666666, "rental_uris": {"ios": "https://dc.lft.to/lastmile_qr_scan", "android": "https://dc.lft.to/lastmile_qr_scan"}}, {"name": "47a25132597dcf6b5763cb1fb3b8f4ac", "fusion_lat": 0.0, "type": "electric_scooter", "lat": 38.899529333333334, "is_reserved": 0, "is_disabled": 0, "fusion_lon": 0.0, "bike_id": "47a25132597dcf6b5763cb1fb3b8f4ac", "lon": -77.01776883333334, "rental_uris": {"ios": "https://dc.lft.to/lastmile_qr_scan", "android": "https://dc.lft.to/lastmile_qr_scan"}}, {"name": "d217fdf5229de73db4b302ed127beb21", "fusion_lat": 0.0, "type": "electric_scooter", "lat": 38.91193333333333, "is_reserved": 0, "is_disabled": 0, "fusion_lon": 0.0, "bike_id": "d217fdf5229de73db4b302ed127beb21", "lon": -77.05961883333333, "rental_uris": {"ios": "https://dc.lft.to/lastmile_qr_scan", "android": "https://dc.lft.to/lastmile_qr_scan"}}, {"name": "cf32edbf1fdafbf1a0d52a98e8fab9f8", "fusion_lat": 0.0, "type": "electric_scooter", "lat": 38.9000915, "is_reserved": 0, "is_disabled": 0, "fusion_lon": 0.0, "bike_id": "cf32edbf1fdafbf1a0d52a98e8fab9f8", "lon": -77.0117465, "rental_uris": {"ios": "https://dc.lft.to/lastmile_qr_scan", "android": "https://dc.lft.to/lastmile_qr_scan"}}, {"name": "d6e86cfc99fa32db69acbdd402963ab9", "fusion_lat": 0.0, "type": "electric_scooter", "lat": 38.91572133333333, "is_reserved": 0, "is_disabled": 0, "fusion_lon": 0.0, "bike_id": "d6e86cfc99fa32db69acbdd402963ab9", "lon": -77.048828, "rental_uris": {"ios": "https://dc.lft.to/lastmile_qr_scan", "android": "https://dc.lft.to/lastmile_qr_scan"}}, {"name": "a45fa49624571d05a7d41a83b263d486", "fusion_lat": 0.0, "type": "electric_scooter", "lat": 38.8763155, "is_reserved": 0, "is_disabled": 0, "fusion_lon": 0.0, "bike_id": "a45fa49624571d05a7d41a83b263d486", "lon": -76.96529983333333, "rental_uris": {"ios": "https://dc.lft.to/lastmile_qr_scan", "android": "https://dc.lft.to/lastmile_qr_scan"}}, {"name": "5f1bd734572af5d808c98a89354ffdfe", "fusion_lat": 0.0, "type": "electric_scooter", "lat": 38.91832766666667, "is_reserved": 0, "is_disabled": 0, "fusion_lon": 0.0, "bike_id": "5f1bd734572af5d808c98a89354ffdfe", "lon": -77.02701033333334, "rental_uris": {"ios": "https://dc.lft.to/lastmile_qr_scan", "android": "https://dc.lft.to/lastmile_qr_scan"}}, {"name": "784a427cbbc6ed2297b5cf9c8d0fc97a", "fusion_lat": 0.0, "type": "electric_scooter", "lat": 38.9169535, "is_reserved": 0, "is_disabled": 0, "fusion_lon": 0.0, "bike_id": "784a427cbbc6ed2297b5cf9c8d0fc97a", "lon": -77.02600716666667, "rental_uris": {"ios": "https://dc.lft.to/lastmile_qr_scan", "android": "https://dc.lft.to/lastmile_qr_scan"}}, {"name": "ae0b13c736eca06071087f15ae8a2895", "fusion_lat": 0.0, "type": "electric_scooter", "lat": 38.900417166666664, "is_reserved": 0, "is_disabled": 0, "fusion_lon": 0.0, "bike_id": "ae0b13c736eca06071087f15ae8a2895", "lon": -76.99159566666667, "rental_uris": {"ios": "https://dc.lft.to/lastmile_qr_scan", "android": "https://dc.lft.to/lastmile_qr_scan"}}, {"name": "43dcdaabbc8dbca6b776fd39cc5b6a59", "fusion_lat": 0.0, "type": "electric_scooter", "lat": 38.923840166666665, "is_reserved": 0, "is_disabled": 0, "fusion_lon": 0.0, "bike_id": "43dcdaabbc8dbca6b776fd39cc5b6a59", "lon": -77.04103283333333, "rental_uris": {"ios": "https://dc.lft.to/lastmile_qr_scan", "android": "https://dc.lft.to/lastmile_qr_scan"}}, {"name": "64734627c3f2c5789e8653c4bd3adc1b", "fusion_lat": 0.0, "type": "electric_scooter", "lat": 38.9182805, "is_reserved": 0, "is_disabled": 0, "fusion_lon": 0.0, "bike_id": "64734627c3f2c5789e8653c4bd3adc1b", "lon": -77.02303, "rental_uris": {"ios": "https://dc.lft.to/lastmile_qr_scan", "android": "https://dc.lft.to/lastmile_qr_scan"}}, {"name": "08ef9d3f85516ce4599d9443c6fdc861", "fusion_lat": 0.0, "type": "electric_scooter", "lat": 38.862640166666665, "is_reserved": 0, "is_disabled": 0, "fusion_lon": 0.0, "bike_id": "08ef9d3f85516ce4599d9443c6fdc861", "lon": -76.98713116666667, "rental_uris": {"ios": "https://dc.lft.to/lastmile_qr_scan", "android": "https://dc.lft.to/lastmile_qr_scan"}}, {"name": "7419c216df5b829f31d46d0fbf865970", "fusion_lat": 0.0, "type": "electric_scooter", "lat": 38.88997166666667, "is_reserved": 0, "is_disabled": 0, "fusion_lon": 0.0, "bike_id": "7419c216df5b829f31d46d0fbf865970", "lon": -76.95418066666667, "rental_uris": {"ios": "https://dc.lft.to/lastmile_qr_scan", "android": "https://dc.lft.to/lastmile_qr_scan"}}, {"name": "924d2bbd2d7a320f28fce05f03a70dae", "fusion_lat": 0.0, "type": "electric_scooter", "lat": 38.92475433333333, "is_reserved": 0, "is_disabled": 0, "fusion_lon": 0.0, "bike_id": "924d2bbd2d7a320f28fce05f03a70dae", "lon": -77.030573, "rental_uris": {"ios": "https://dc.lft.to/lastmile_qr_scan", "android": "https://dc.lft.to/lastmile_qr_scan"}}, {"name": "e2805f10d3f8a6ce5fc2479984d2f1d7", "fusion_lat": 0.0, "type": "electric_scooter", "lat": 38.90976033333333, "is_reserved": 0, "is_disabled": 0, "fusion_lon": 0.0, "bike_id": "e2805f10d3f8a6ce5fc2479984d2f1d7", "lon": -77.04677016666666, "rental_uris": {"ios": "https://dc.lft.to/lastmile_qr_scan", "android": "https://dc.lft.to/lastmile_qr_scan"}}, {"name": "d1939314325a4c6ca85a926ef653a7b1", "fusion_lat": 0.0, "type": "electric_scooter", "lat": 38.88222416666667, "is_reserved": 0, "is_disabled": 0, "fusion_lon": 0.0, "bike_id": "d1939314325a4c6ca85a926ef653a7b1", "lon": -76.94181783333333, "rental_uris": {"ios": "https://dc.lft.to/lastmile_qr_scan", "android": "https://dc.lft.to/lastmile_qr_scan"}}, {"name": "dcbb80859cbb1d36df5b4a8442176879", "fusion_lat": 0.0, "type": "electric_scooter", "lat": 38.92141, "is_reserved": 0, "is_disabled": 0, "fusion_lon": 0.0, "bike_id": "dcbb80859cbb1d36df5b4a8442176879", "lon": -77.04560216666667, "rental_uris": {"ios": "https://dc.lft.to/lastmile_qr_scan", "android": "https://dc.lft.to/lastmile_qr_scan"}}, {"name": "9b6c5c5f70fe88f5aa3daa0190d7e4a4", "fusion_lat": 0.0, "type": "electric_scooter", "lat": 38.920175666666665, "is_reserved": 0, "is_disabled": 0, "fusion_lon": 0.0, "bike_id": "9b6c5c5f70fe88f5aa3daa0190d7e4a4", "lon": -77.03167866666666, "rental_uris": {"ios": "https://dc.lft.to/lastmile_qr_scan", "android": "https://dc.lft.to/lastmile_qr_scan"}}, {"name": "023f508666376012ed6762619f1bc87e", "fusion_lat": 0.0, "type": "electric_scooter", "lat": 38.921045166666666, "is_reserved": 0, "is_disabled": 0, "fusion_lon": 0.0, "bike_id": "023f508666376012ed6762619f1bc87e", "lon": -77.05476116666667, "rental_uris": {"ios": "https://dc.lft.to/lastmile_qr_scan", "android": "https://dc.lft.to/lastmile_qr_scan"}}, {"name": "d665e565ee9d96cab538a4e6f578eb9b", "fusion_lat": 0.0, "type": "electric_scooter", "lat": 38.8735885, "is_reserved": 0, "is_disabled": 0, "fusion_lon": 0.0, "bike_id": "d665e565ee9d96cab538a4e6f578eb9b", "lon": -77.0009415, "rental_uris": {"ios": "https://dc.lft.to/lastmile_qr_scan", "android": "https://dc.lft.to/lastmile_qr_scan"}}, {"name": "41e55d5ed0b8921ab09d0f265048f008", "fusion_lat": 0.0, "type": "electric_scooter", "lat": 38.937334166666666, "is_reserved": 0, "is_disabled": 0, "fusion_lon": 0.0, "bike_id": "41e55d5ed0b8921ab09d0f265048f008", "lon": -77.032693, "rental_uris": {"ios": "https://dc.lft.to/lastmile_qr_scan", "android": "https://dc.lft.to/lastmile_qr_scan"}}, {"name": "cabbe615036849344960115e12ad0ffe", "fusion_lat": 0.0, "type": "electric_scooter", "lat": 38.9129685, "is_reserved": 0, "is_disabled": 0, "fusion_lon": 0.0, "bike_id": "cabbe615036849344960115e12ad0ffe", "lon": -77.06112783333333, "rental_uris": {"ios": "https://dc.lft.to/lastmile_qr_scan", "android": "https://dc.lft.to/lastmile_qr_scan"}}, {"name": "6b3b9528879486131985c4c5cbe3bfa7", "fusion_lat": 0.0, "type": "electric_scooter", "lat": 38.9425605, "is_reserved": 0, "is_disabled": 0, "fusion_lon": 0.0, "bike_id": "6b3b9528879486131985c4c5cbe3bfa7", "lon": -77.04136066666666, "rental_uris": {"ios": "https://dc.lft.to/lastmile_qr_scan", "android": "https://dc.lft.to/lastmile_qr_scan"}}, {"name": "0b8dd60b48d5364e748788e4888ddaed", "fusion_lat": 0.0, "type": "electric_scooter", "lat": 38.9181735, "is_reserved": 0, "is_disabled": 0, "fusion_lon": 0.0, "bike_id": "0b8dd60b48d5364e748788e4888ddaed", "lon": -77.01276866666667, "rental_uris": {"ios": "https://dc.lft.to/lastmile_qr_scan", "android": "https://dc.lft.to/lastmile_qr_scan"}}, {"name": "f30d4790403e339717f01739e24ac271", "fusion_lat": 0.0, "type": "electric_scooter", "lat": 38.86507783333333, "is_reserved": 0, "is_disabled": 0, "fusion_lon": 0.0, "bike_id": "f30d4790403e339717f01739e24ac271", "lon": -76.99001983333333, "rental_uris": {"ios": "https://dc.lft.to/lastmile_qr_scan", "android": "https://dc.lft.to/lastmile_qr_scan"}}, {"name": "65438104d73f22b632073e538f38cdd1", "fusion_lat": 0.0, "type": "electric_scooter", "lat": 38.924696833333336, "is_reserved": 0, "is_disabled": 0, "fusion_lon": 0.0, "bike_id": "65438104d73f22b632073e538f38cdd1", "lon": -77.027124, "rental_uris": {"ios": "https://dc.lft.to/lastmile_qr_scan", "android": "https://dc.lft.to/lastmile_qr_scan"}}, {"name": "daca6f27669742a9136bc1c7550e0c8a", "fusion_lat": 0.0, "type": "electric_scooter", "lat": 38.90150333333333, "is_reserved": 0, "is_disabled": 0, "fusion_lon": 0.0, "bike_id": "daca6f27669742a9136bc1c7550e0c8a", "lon": -76.97425466666667, "rental_uris": {"ios": "https://dc.lft.to/lastmile_qr_scan", "android": "https://dc.lft.to/lastmile_qr_scan"}}, {"name": "1bbc689e1316ac68ed71fe8134af7b97", "fusion_lat": 0.0, "type": "electric_scooter", "lat": 38.90730716666667, "is_reserved": 0, "is_disabled": 0, "fusion_lon": 0.0, "bike_id": "1bbc689e1316ac68ed71fe8134af7b97", "lon": -77.0106945, "rental_uris": {"ios": "https://dc.lft.to/lastmile_qr_scan", "android": "https://dc.lft.to/lastmile_qr_scan"}}, {"name": "12902f6728e98d461a91b93c13714bed", "fusion_lat": 0.0, "type": "electric_scooter", "lat": 38.9182715, "is_reserved": 0, "is_disabled": 0, "fusion_lon": 0.0, "bike_id": "12902f6728e98d461a91b93c13714bed", "lon": -77.0241965, "rental_uris": {"ios": "https://dc.lft.to/lastmile_qr_scan", "android": "https://dc.lft.to/lastmile_qr_scan"}}, {"name": "8d1c2d9b2d6c3d08b2ee5a6da4690ed4", "fusion_lat": 0.0, "type": "electric_scooter", "lat": 38.92535516666667, "is_reserved": 0, "is_disabled": 0, "fusion_lon": 0.0, "bike_id": "8d1c2d9b2d6c3d08b2ee5a6da4690ed4", "lon": -77.05554566666666, "rental_uris": {"ios": "https://dc.lft.to/lastmile_qr_scan", "android": "https://dc.lft.to/lastmile_qr_scan"}}, {"name": "73e8a50a656d32ef187c2b64e0fbc1d7", "fusion_lat": 0.0, "type": "electric_scooter", "lat": 38.899702833333336, "is_reserved": 0, "is_disabled": 0, "fusion_lon": 0.0, "bike_id": "73e8a50a656d32ef187c2b64e0fbc1d7", "lon": -76.93961166666666, "rental_uris": {"ios": "https://dc.lft.to/lastmile_qr_scan", "android": "https://dc.lft.to/lastmile_qr_scan"}}, {"name": "b037b22e765df064db036aa284817ec0", "fusion_lat": 0.0, "type": "electric_scooter", "lat": 38.88427266666667, "is_reserved": 0, "is_disabled": 0, "fusion_lon": 0.0, "bike_id": "b037b22e765df064db036aa284817ec0", "lon": -76.9575975, "rental_uris": {"ios": "https://dc.lft.to/lastmile_qr_scan", "android": "https://dc.lft.to/lastmile_qr_scan"}}, {"name": "67bb6955e9fb0f7310d1b65ba96f827f", "fusion_lat": 0.0, "type": "electric_scooter", "lat": 38.89762416666667, "is_reserved": 0, "is_disabled": 0, "fusion_lon": 0.0, "bike_id": "67bb6955e9fb0f7310d1b65ba96f827f", "lon": -77.03111266666667, "rental_uris": {"ios": "https://dc.lft.to/lastmile_qr_scan", "android": "https://dc.lft.to/lastmile_qr_scan"}}, {"name": "9462755399fcfec5a1560a33ae6ce6b6", "fusion_lat": 0.0, "type": "electric_bike", "lat": 38.848500666666666, "is_reserved": 0, "is_disabled": 0, "fusion_lon": 0.0, "bike_id": "9462755399fcfec5a1560a33ae6ce6b6", "lon": -77.08042366666666, "rental_uris": {"ios": "https://dc.lft.to/lastmile_qr_scan", "android": "https://dc.lft.to/lastmile_qr_scan"}}, {"name": "b71d8cc21a5fa87981dd50c10fbc552b", "fusion_lat": 0.0, "type": "electric_scooter", "lat": 38.85712633333333, "is_reserved": 0, "is_disabled": 0, "fusion_lon": 0.0, "bike_id": "b71d8cc21a5fa87981dd50c10fbc552b", "lon": -76.98131783333334, "rental_uris": {"ios": "https://dc.lft.to/lastmile_qr_scan", "android": "https://dc.lft.to/lastmile_qr_scan"}}, {"name": "2fd77003aec87766613385fc3e5a2afb", "fusion_lat": 0.0, "type": "electric_scooter", "lat": 38.899672, "is_reserved": 0, "is_disabled": 0, "fusion_lon": 0.0, "bike_id": "2fd77003aec87766613385fc3e5a2afb", "lon": -77.03946416666666, "rental_uris": {"ios": "https://dc.lft.to/lastmile_qr_scan", "android": "https://dc.lft.to/lastmile_qr_scan"}}, {"name": "8e2e696aa84dfd45e36b8217529a29fb", "fusion_lat": 0.0, "type": "electric_scooter", "lat": 38.939722, "is_reserved": 0, "is_disabled": 0, "fusion_lon": 0.0, "bike_id": "8e2e696aa84dfd45e36b8217529a29fb", "lon": -77.03561016666667, "rental_uris": {"ios": "https://dc.lft.to/lastmile_qr_scan", "android": "https://dc.lft.to/lastmile_qr_scan"}}, {"name": "9700fcf2a733408cd967870ae8e836a4", "fusion_lat": 0.0, "type": "electric_scooter", "lat": 38.9104615, "is_reserved": 0, "is_disabled": 0, "fusion_lon": 0.0, "bike_id": "9700fcf2a733408cd967870ae8e836a4", "lon": -76.996955, "rental_uris": {"ios": "https://dc.lft.to/lastmile_qr_scan", "android": "https://dc.lft.to/lastmile_qr_scan"}}, {"name": "4a903602a5c49680fb03899de864b9d1", "fusion_lat": 0.0, "type": "electric_scooter", "lat": 38.907263, "is_reserved": 0, "is_disabled": 0, "fusion_lon": 0.0, "bike_id": "4a903602a5c49680fb03899de864b9d1", "lon": -77.02985983333333, "rental_uris": {"ios": "https://dc.lft.to/lastmile_qr_scan", "android": "https://dc.lft.to/lastmile_qr_scan"}}, {"name": "fdbaa657451789252bda652787bf3cb0", "fusion_lat": 0.0, "type": "electric_scooter", "lat": 38.88746166666667, "is_reserved": 0, "is_disabled": 0, "fusion_lon": 0.0, "bike_id": "fdbaa657451789252bda652787bf3cb0", "lon": -77.0213455, "rental_uris": {"ios": "https://dc.lft.to/lastmile_qr_scan", "android": "https://dc.lft.to/lastmile_qr_scan"}}, {"name": "86eca2774ef49a4ec0182046fdee6cfb", "fusion_lat": 0.0, "type": "electric_bike", "lat": 38.962897, "is_reserved": 0, "is_disabled": 0, "fusion_lon": 0.0, "bike_id": "86eca2774ef49a4ec0182046fdee6cfb", "lon": -77.032486, "rental_uris": {"ios": "https://dc.lft.to/lastmile_qr_scan", "android": "https://dc.lft.to/lastmile_qr_scan"}}, {"name": "e3b52dc78075552daa34e916e23cc3bf", "fusion_lat": 0.0, "type": "electric_scooter", "lat": 38.92899366666666, "is_reserved": 0, "is_disabled": 0, "fusion_lon": 0.0, "bike_id": "e3b52dc78075552daa34e916e23cc3bf", "lon": -77.00520133333333, "rental_uris": {"ios": "https://dc.lft.to/lastmile_qr_scan", "android": "https://dc.lft.to/lastmile_qr_scan"}}, {"name": "1cb2a00fc78de91e2fe0ae6b5d85c3de", "fusion_lat": 0.0, "type": "electric_bike", "lat": 38.945952, "is_reserved": 0, "is_disabled": 0, "fusion_lon": 0.0, "bike_id": "1cb2a00fc78de91e2fe0ae6b5d85c3de", "lon": -77.34411616666667, "rental_uris": {"ios": "https://dc.lft.to/lastmile_qr_scan", "android": "https://dc.lft.to/lastmile_qr_scan"}}, {"name": "05919ce7e153c6a4315175f2172ac894", "fusion_lat": 0.0, "type": "electric_scooter", "lat": 38.897364833333334, "is_reserved": 0, "is_disabled": 0, "fusion_lon": 0.0, "bike_id": "05919ce7e153c6a4315175f2172ac894", "lon": -77.0474625, "rental_uris": {"ios": "https://dc.lft.to/lastmile_qr_scan", "android": "https://dc.lft.to/lastmile_qr_scan"}}, {"name": "6b030118905d625d7f2069091fb7f2ce", "fusion_lat": 0.0, "type": "electric_scooter", "lat": 38.89958583333333, "is_reserved": 0, "is_disabled": 0, "fusion_lon": 0.0, "bike_id": "6b030118905d625d7f2069091fb7f2ce", "lon": -76.99507466666667, "rental_uris": {"ios": "https://dc.lft.to/lastmile_qr_scan", "android": "https://dc.lft.to/lastmile_qr_scan"}}, {"name": "1f5dc103723f809b16a084337c03f4fa", "fusion_lat": 0.0, "type": "electric_scooter", "lat": 38.89888783333333, "is_reserved": 0, "is_disabled": 0, "fusion_lon": 0.0, "bike_id": "1f5dc103723f809b16a084337c03f4fa", "lon": -76.93175866666667, "rental_uris": {"ios": "https://dc.lft.to/lastmile_qr_scan", "android": "https://dc.lft.to/lastmile_qr_scan"}}, {"name": "a8aa1c94fbc1b45f9bff80325af72d82", "fusion_lat": 0.0, "type": "electric_scooter", "lat": 38.879211, "is_reserved": 0, "is_disabled": 0, "fusion_lon": 0.0, "bike_id": "a8aa1c94fbc1b45f9bff80325af72d82", "lon": -77.0210735, "rental_uris": {"ios": "https://dc.lft.to/lastmile_qr_scan", "android": "https://dc.lft.to/lastmile_qr_scan"}}, {"name": "7854842f2e2b46847a53b6af586f2d92", "fusion_lat": 0.0, "type": "electric_scooter", "lat": 38.92497983333333, "is_reserved": 0, "is_disabled": 0, "fusion_lon": 0.0, "bike_id": "7854842f2e2b46847a53b6af586f2d92", "lon": -77.05221, "rental_uris": {"ios": "https://dc.lft.to/lastmile_qr_scan", "android": "https://dc.lft.to/lastmile_qr_scan"}}, {"name": "65e1fd7b85e53628c5dedb1ff1512b28", "fusion_lat": 0.0, "type": "electric_scooter", "lat": 38.905634, "is_reserved": 0, "is_disabled": 0, "fusion_lon": 0.0, "bike_id": "65e1fd7b85e53628c5dedb1ff1512b28", "lon": -77.05732166666667, "rental_uris": {"ios": "https://dc.lft.to/lastmile_qr_scan", "android": "https://dc.lft.to/lastmile_qr_scan"}}, {"name": "20b5f3c058fcca9c2667669f4c932c91", "fusion_lat": 0.0, "type": "electric_scooter", "lat": 38.93328866666667, "is_reserved": 0, "is_disabled": 0, "fusion_lon": 0.0, "bike_id": "20b5f3c058fcca9c2667669f4c932c91", "lon": -77.081957, "rental_uris": {"ios": "https://dc.lft.to/lastmile_qr_scan", "android": "https://dc.lft.to/lastmile_qr_scan"}}, {"name": "afecb8f58777e2c19ea705e1805b2e43", "fusion_lat": 0.0, "type": "electric_scooter", "lat": 38.86919866666667, "is_reserved": 0, "is_disabled": 0, "fusion_lon": 0.0, "bike_id": "afecb8f58777e2c19ea705e1805b2e43", "lon": -76.9749705, "rental_uris": {"ios": "https://dc.lft.to/lastmile_qr_scan", "android": "https://dc.lft.to/lastmile_qr_scan"}}, {"name": "89442aebe9347ca05b526775fbb0b736", "fusion_lat": 0.0, "type": "electric_scooter", "lat": 38.914025, "is_reserved": 0, "is_disabled": 0, "fusion_lon": 0.0, "bike_id": "89442aebe9347ca05b526775fbb0b736", "lon": -77.013238, "rental_uris": {"ios": "https://dc.lft.to/lastmile_qr_scan", "android": "https://dc.lft.to/lastmile_qr_scan"}}, {"name": "0bac9e5be725b7b0dcc738be5fda4c06", "fusion_lat": 0.0, "type": "electric_scooter", "lat": 38.92213866666667, "is_reserved": 0, "is_disabled": 0, "fusion_lon": 0.0, "bike_id": "0bac9e5be725b7b0dcc738be5fda4c06", "lon": -77.04315733333334, "rental_uris": {"ios": "https://dc.lft.to/lastmile_qr_scan", "android": "https://dc.lft.to/lastmile_qr_scan"}}, {"name": "8a9e100be90017081eedd7ab48a31867", "fusion_lat": 0.0, "type": "electric_scooter", "lat": 38.917031, "is_reserved": 0, "is_disabled": 0, "fusion_lon": 0.0, "bike_id": "8a9e100be90017081eedd7ab48a31867", "lon": -77.03142466666667, "rental_uris": {"ios": "https://dc.lft.to/lastmile_qr_scan", "android": "https://dc.lft.to/lastmile_qr_scan"}}, {"name": "187b4aae972a0c8c480e0c1c407e3287", "fusion_lat": 0.0, "type": "electric_scooter", "lat": 38.93251016666667, "is_reserved": 0, "is_disabled": 0, "fusion_lon": 0.0, "bike_id": "187b4aae972a0c8c480e0c1c407e3287", "lon": -77.02018366666667, "rental_uris": {"ios": "https://dc.lft.to/lastmile_qr_scan", "android": "https://dc.lft.to/lastmile_qr_scan"}}, {"name": "1c5111587a4111aa6b8022737fe374b2", "fusion_lat": 0.0, "type": "electric_scooter", "lat": 38.885989333333335, "is_reserved": 0, "is_disabled": 0, "fusion_lon": 0.0, "bike_id": "1c5111587a4111aa6b8022737fe374b2", "lon": -77.02200916666666, "rental_uris": {"ios": "https://dc.lft.to/lastmile_qr_scan", "android": "https://dc.lft.to/lastmile_qr_scan"}}, {"name": "1eb3906f52618c4a3649cf7f8477912e", "fusion_lat": 0.0, "type": "electric_scooter", "lat": 38.93457683333333, "is_reserved": 0, "is_disabled": 0, "fusion_lon": 0.0, "bike_id": "1eb3906f52618c4a3649cf7f8477912e", "lon": -77.02913966666667, "rental_uris": {"ios": "https://dc.lft.to/lastmile_qr_scan", "android": "https://dc.lft.to/lastmile_qr_scan"}}, {"name": "22713efa76a3f2baccc1067287b87569", "fusion_lat": 0.0, "type": "electric_scooter", "lat": 38.90246333333333, "is_reserved": 0, "is_disabled": 0, "fusion_lon": 0.0, "bike_id": "22713efa76a3f2baccc1067287b87569", "lon": -77.04362216666667, "rental_uris": {"ios": "https://dc.lft.to/lastmile_qr_scan", "android": "https://dc.lft.to/lastmile_qr_scan"}}, {"name": "bdc6adcf6b5f9e15d041bd2663122eb6", "fusion_lat": 0.0, "type": "electric_scooter", "lat": 38.9236525, "is_reserved": 0, "is_disabled": 0, "fusion_lon": 0.0, "bike_id": "bdc6adcf6b5f9e15d041bd2663122eb6", "lon": -77.05129766666667, "rental_uris": {"ios": "https://dc.lft.to/lastmile_qr_scan", "android": "https://dc.lft.to/lastmile_qr_scan"}}, {"name": "58c0729aed79e0890c458d4aa6ae8977", "fusion_lat": 0.0, "type": "electric_scooter", "lat": 38.860759, "is_reserved": 0, "is_disabled": 0, "fusion_lon": 0.0, "bike_id": "58c0729aed79e0890c458d4aa6ae8977", "lon": -76.96747883333333, "rental_uris": {"ios": "https://dc.lft.to/lastmile_qr_scan", "android": "https://dc.lft.to/lastmile_qr_scan"}}, {"name": "8ee51ae540320f23e9d44d58bdff7a18", "fusion_lat": 0.0, "type": "electric_scooter", "lat": 38.868312833333334, "is_reserved": 0, "is_disabled": 0, "fusion_lon": 0.0, "bike_id": "8ee51ae540320f23e9d44d58bdff7a18", "lon": -76.9861365, "rental_uris": {"ios": "https://dc.lft.to/lastmile_qr_scan", "android": "https://dc.lft.to/lastmile_qr_scan"}}, {"name": "a27d628691d5b35538bee0693cb279ae", "fusion_lat": 0.0, "type": "electric_scooter", "lat": 38.91418, "is_reserved": 0, "is_disabled": 0, "fusion_lon": 0.0, "bike_id": "a27d628691d5b35538bee0693cb279ae", "lon": -77.03104766666667, "rental_uris": {"ios": "https://dc.lft.to/lastmile_qr_scan", "android": "https://dc.lft.to/lastmile_qr_scan"}}, {"name": "b146ca9f87f0dfdff2b367a058f53c0f", "fusion_lat": 0.0, "type": "electric_scooter", "lat": 38.911936, "is_reserved": 0, "is_disabled": 0, "fusion_lon": 0.0, "bike_id": "b146ca9f87f0dfdff2b367a058f53c0f", "lon": -77.04492533333334, "rental_uris": {"ios": "https://dc.lft.to/lastmile_qr_scan", "android": "https://dc.lft.to/lastmile_qr_scan"}}, {"name": "fd5b70a7929c19f529c9bb8677594922", "fusion_lat": 0.0, "type": "electric_scooter", "lat": 38.91589583333333, "is_reserved": 0, "is_disabled": 0, "fusion_lon": 0.0, "bike_id": "fd5b70a7929c19f529c9bb8677594922", "lon": -77.04255016666667, "rental_uris": {"ios": "https://dc.lft.to/lastmile_qr_scan", "android": "https://dc.lft.to/lastmile_qr_scan"}}, {"name": "6ed79edfcbc7d9d7ad050d1124e71e3f", "fusion_lat": 0.0, "type": "electric_scooter", "lat": 38.92089983333334, "is_reserved": 0, "is_disabled": 0, "fusion_lon": 0.0, "bike_id": "6ed79edfcbc7d9d7ad050d1124e71e3f", "lon": -77.0136665, "rental_uris": {"ios": "https://dc.lft.to/lastmile_qr_scan", "android": "https://dc.lft.to/lastmile_qr_scan"}}, {"name": "cf73e8da5365666995aedec3c29e56de", "fusion_lat": 0.0, "type": "electric_scooter", "lat": 38.938705, "is_reserved": 0, "is_disabled": 0, "fusion_lon": 0.0, "bike_id": "cf73e8da5365666995aedec3c29e56de", "lon": -77.0222145, "rental_uris": {"ios": "https://dc.lft.to/lastmile_qr_scan", "android": "https://dc.lft.to/lastmile_qr_scan"}}, {"name": "47e6e8892a70f72ffffc01c97723ec21", "fusion_lat": 0.0, "type": "electric_scooter", "lat": 38.876392333333335, "is_reserved": 0, "is_disabled": 0, "fusion_lon": 0.0, "bike_id": "47e6e8892a70f72ffffc01c97723ec21", "lon": -77.01478933333334, "rental_uris": {"ios": "https://dc.lft.to/lastmile_qr_scan", "android": "https://dc.lft.to/lastmile_qr_scan"}}, {"name": "f91cf78fff01cb6ec137b9a441c7cda7", "fusion_lat": 0.0, "type": "electric_scooter", "lat": 38.900195333333336, "is_reserved": 0, "is_disabled": 0, "fusion_lon": 0.0, "bike_id": "f91cf78fff01cb6ec137b9a441c7cda7", "lon": -76.998491, "rental_uris": {"ios": "https://dc.lft.to/lastmile_qr_scan", "android": "https://dc.lft.to/lastmile_qr_scan"}}, {"name": "81e60b9f2ee184b0d7358510f720302c", "fusion_lat": 0.0, "type": "electric_scooter", "lat": 38.91405316666667, "is_reserved": 0, "is_disabled": 0, "fusion_lon": 0.0, "bike_id": "81e60b9f2ee184b0d7358510f720302c", "lon": -77.03949283333333, "rental_uris": {"ios": "https://dc.lft.to/lastmile_qr_scan", "android": "https://dc.lft.to/lastmile_qr_scan"}}, {"name": "881dddf456737e8b8eed6ea6f6cfcf54", "fusion_lat": 0.0, "type": "electric_scooter", "lat": 38.93633, "is_reserved": 0, "is_disabled": 0, "fusion_lon": 0.0, "bike_id": "881dddf456737e8b8eed6ea6f6cfcf54", "lon": -77.036648, "rental_uris": {"ios": "https://dc.lft.to/lastmile_qr_scan", "android": "https://dc.lft.to/lastmile_qr_scan"}}, {"name": "c561b6080f4161ef0d2230b0fe30705a", "fusion_lat": 0.0, "type": "electric_scooter", "lat": 38.90584333333334, "is_reserved": 0, "is_disabled": 0, "fusion_lon": 0.0, "bike_id": "c561b6080f4161ef0d2230b0fe30705a", "lon": -77.03721166666666, "rental_uris": {"ios": "https://dc.lft.to/lastmile_qr_scan", "android": "https://dc.lft.to/lastmile_qr_scan"}}, {"name": "318411145312a114699cbd7984aa9b3a", "fusion_lat": 0.0, "type": "electric_scooter", "lat": 38.92065266666667, "is_reserved": 0, "is_disabled": 0, "fusion_lon": 0.0, "bike_id": "318411145312a114699cbd7984aa9b3a", "lon": -77.03468566666666, "rental_uris": {"ios": "https://dc.lft.to/lastmile_qr_scan", "android": "https://dc.lft.to/lastmile_qr_scan"}}, {"name": "cae96fc2f0392aefbcc84ddf10e711df", "fusion_lat": 0.0, "type": "electric_scooter", "lat": 38.871156166666665, "is_reserved": 0, "is_disabled": 0, "fusion_lon": 0.0, "bike_id": "cae96fc2f0392aefbcc84ddf10e711df", "lon": -76.96595983333333, "rental_uris": {"ios": "https://dc.lft.to/lastmile_qr_scan", "android": "https://dc.lft.to/lastmile_qr_scan"}}, {"name": "3275e1ec3bcdc38e593405a51b11f207", "fusion_lat": 0.0, "type": "electric_scooter", "lat": 38.903241, "is_reserved": 0, "is_disabled": 0, "fusion_lon": 0.0, "bike_id": "3275e1ec3bcdc38e593405a51b11f207", "lon": -77.02890716666667, "rental_uris": {"ios": "https://dc.lft.to/lastmile_qr_scan", "android": "https://dc.lft.to/lastmile_qr_scan"}}, {"name": "d6c08ef3423394727432cdb88cce7d90", "fusion_lat": 0.0, "type": "electric_bike", "lat": 38.956899666666665, "is_reserved": 0, "is_disabled": 0, "fusion_lon": 0.0, "bike_id": "d6c08ef3423394727432cdb88cce7d90", "lon": -77.02225566666667, "rental_uris": {"ios": "https://dc.lft.to/lastmile_qr_scan", "android": "https://dc.lft.to/lastmile_qr_scan"}}, {"name": "becf63b57ef8d88c4b873b90d547827f", "fusion_lat": 0.0, "type": "electric_scooter", "lat": 38.89415566666667, "is_reserved": 0, "is_disabled": 0, "fusion_lon": 0.0, "bike_id": "becf63b57ef8d88c4b873b90d547827f", "lon": -76.939625, "rental_uris": {"ios": "https://dc.lft.to/lastmile_qr_scan", "android": "https://dc.lft.to/lastmile_qr_scan"}}, {"name": "4851045dbc217b3cf07f74a7dbe89acb", "fusion_lat": 0.0, "type": "electric_scooter", "lat": 38.9015865, "is_reserved": 0, "is_disabled": 0, "fusion_lon": 0.0, "bike_id": "4851045dbc217b3cf07f74a7dbe89acb", "lon": -77.01610066666667, "rental_uris": {"ios": "https://dc.lft.to/lastmile_qr_scan", "android": "https://dc.lft.to/lastmile_qr_scan"}}, {"name": "5397839f1c59e6ce19baadb8be9eab41", "fusion_lat": 0.0, "type": "electric_bike", "lat": 38.936726666666665, "is_reserved": 0, "is_disabled": 0, "fusion_lon": 0.0, "bike_id": "5397839f1c59e6ce19baadb8be9eab41", "lon": -76.95210716666666, "rental_uris": {"ios": "https://dc.lft.to/lastmile_qr_scan", "android": "https://dc.lft.to/lastmile_qr_scan"}}, {"name": "e4b4bbe3f18d9f5e32463697030771e3", "fusion_lat": 0.0, "type": "electric_scooter", "lat": 38.89652566666667, "is_reserved": 0, "is_disabled": 0, "fusion_lon": 0.0, "bike_id": "e4b4bbe3f18d9f5e32463697030771e3", "lon": -77.00916383333333, "rental_uris": {"ios": "https://dc.lft.to/lastmile_qr_scan", "android": "https://dc.lft.to/lastmile_qr_scan"}}, {"name": "ae45848b450e4e0d784dcf506ebc0c61", "fusion_lat": 0.0, "type": "electric_scooter", "lat": 38.9178355, "is_reserved": 0, "is_disabled": 0, "fusion_lon": 0.0, "bike_id": "ae45848b450e4e0d784dcf506ebc0c61", "lon": -77.02313583333333, "rental_uris": {"ios": "https://dc.lft.to/lastmile_qr_scan", "android": "https://dc.lft.to/lastmile_qr_scan"}}, {"name": "b80259e75b25fe0064db29da0cbf57bf", "fusion_lat": 0.0, "type": "electric_scooter", "lat": 38.874683833333336, "is_reserved": 0, "is_disabled": 0, "fusion_lon": 0.0, "bike_id": "b80259e75b25fe0064db29da0cbf57bf", "lon": -77.00615, "rental_uris": {"ios": "https://dc.lft.to/lastmile_qr_scan", "android": "https://dc.lft.to/lastmile_qr_scan"}}, {"name": "ebe51177082281be16f896997c19933c", "fusion_lat": 0.0, "type": "electric_bike", "lat": 38.887992833333335, "is_reserved": 0, "is_disabled": 0, "fusion_lon": 0.0, "bike_id": "ebe51177082281be16f896997c19933c", "lon": -76.9299355, "rental_uris": {"ios": "https://dc.lft.to/lastmile_qr_scan", "android": "https://dc.lft.to/lastmile_qr_scan"}}, {"name": "c372e2add0ef60d697dfbbf4c4079665", "fusion_lat": 0.0, "type": "electric_scooter", "lat": 38.900448, "is_reserved": 0, "is_disabled": 0, "fusion_lon": 0.0, "bike_id": "c372e2add0ef60d697dfbbf4c4079665", "lon": -77.00203116666667, "rental_uris": {"ios": "https://dc.lft.to/lastmile_qr_scan", "android": "https://dc.lft.to/lastmile_qr_scan"}}, {"name": "9ecc8e18de63f6b11eb80709f1352018", "fusion_lat": 0.0, "type": "electric_scooter", "lat": 38.91744633333333, "is_reserved": 0, "is_disabled": 0, "fusion_lon": 0.0, "bike_id": "9ecc8e18de63f6b11eb80709f1352018", "lon": -77.0233505, "rental_uris": {"ios": "https://dc.lft.to/lastmile_qr_scan", "android": "https://dc.lft.to/lastmile_qr_scan"}}, {"name": "b81ccf221c3a40d793aa45b572f8f68f", "fusion_lat": 0.0, "type": "electric_scooter", "lat": 38.92430783333333, "is_reserved": 0, "is_disabled": 0, "fusion_lon": 0.0, "bike_id": "b81ccf221c3a40d793aa45b572f8f68f", "lon": -77.04246333333333, "rental_uris": {"ios": "https://dc.lft.to/lastmile_qr_scan", "android": "https://dc.lft.to/lastmile_qr_scan"}}, {"name": "54b33f21cac36a2f1416e72004f3fd1e", "fusion_lat": 0.0, "type": "electric_scooter", "lat": 38.9243505, "is_reserved": 0, "is_disabled": 0, "fusion_lon": 0.0, "bike_id": "54b33f21cac36a2f1416e72004f3fd1e", "lon": -77.042204, "rental_uris": {"ios": "https://dc.lft.to/lastmile_qr_scan", "android": "https://dc.lft.to/lastmile_qr_scan"}}, {"name": "fca3a1f0de25547ba49fc4352d3a3ef1", "fusion_lat": 0.0, "type": "electric_bike", "lat": 38.91189383333333, "is_reserved": 0, "is_disabled": 0, "fusion_lon": 0.0, "bike_id": "fca3a1f0de25547ba49fc4352d3a3ef1", "lon": -77.0114315, "rental_uris": {"ios": "https://dc.lft.to/lastmile_qr_scan", "android": "https://dc.lft.to/lastmile_qr_scan"}}, {"name": "f30f75353e73622f8e71de38e1a70b1e", "fusion_lat": 0.0, "type": "electric_scooter", "lat": 38.91705683333333, "is_reserved": 0, "is_disabled": 0, "fusion_lon": 0.0, "bike_id": "f30f75353e73622f8e71de38e1a70b1e", "lon": -77.030705, "rental_uris": {"ios": "https://dc.lft.to/lastmile_qr_scan", "android": "https://dc.lft.to/lastmile_qr_scan"}}, {"name": "5ade51c15dc1ef8a02b5a56f722697d5", "fusion_lat": 0.0, "type": "electric_scooter", "lat": 38.91904133333333, "is_reserved": 0, "is_disabled": 0, "fusion_lon": 0.0, "bike_id": "5ade51c15dc1ef8a02b5a56f722697d5", "lon": -77.00046883333333, "rental_uris": {"ios": "https://dc.lft.to/lastmile_qr_scan", "android": "https://dc.lft.to/lastmile_qr_scan"}}, {"name": "6ce961c14cd05f783fe9ccd4b6a53232", "fusion_lat": 0.0, "type": "electric_scooter", "lat": 38.866618833333334, "is_reserved": 0, "is_disabled": 0, "fusion_lon": 0.0, "bike_id": "6ce961c14cd05f783fe9ccd4b6a53232", "lon": -76.98888033333333, "rental_uris": {"ios": "https://dc.lft.to/lastmile_qr_scan", "android": "https://dc.lft.to/lastmile_qr_scan"}}, {"name": "39bbcf3bd65d7ac08c5bcc476a7bac65", "fusion_lat": 0.0, "type": "electric_bike", "lat": 38.88594066666667, "is_reserved": 0, "is_disabled": 0, "fusion_lon": 0.0, "bike_id": "39bbcf3bd65d7ac08c5bcc476a7bac65", "lon": -77.00066066666666, "rental_uris": {"ios": "https://dc.lft.to/lastmile_qr_scan", "android": "https://dc.lft.to/lastmile_qr_scan"}}, {"name": "d58df9d45b9eb4af24a33720ae4d3193", "fusion_lat": 0.0, "type": "electric_scooter", "lat": 38.931103, "is_reserved": 0, "is_disabled": 0, "fusion_lon": 0.0, "bike_id": "d58df9d45b9eb4af24a33720ae4d3193", "lon": -77.038401, "rental_uris": {"ios": "https://dc.lft.to/lastmile_qr_scan", "android": "https://dc.lft.to/lastmile_qr_scan"}}, {"name": "02af7bbc2982b06632391f22d38227f6", "fusion_lat": 0.0, "type": "electric_scooter", "lat": 38.90505316666667, "is_reserved": 0, "is_disabled": 0, "fusion_lon": 0.0, "bike_id": "02af7bbc2982b06632391f22d38227f6", "lon": -77.02952733333333, "rental_uris": {"ios": "https://dc.lft.to/lastmile_qr_scan", "android": "https://dc.lft.to/lastmile_qr_scan"}}, {"name": "6786b828405d43c4139235722ae331a3", "fusion_lat": 0.0, "type": "electric_scooter", "lat": 38.917865, "is_reserved": 0, "is_disabled": 0, "fusion_lon": 0.0, "bike_id": "6786b828405d43c4139235722ae331a3", "lon": -77.0233965, "rental_uris": {"ios": "https://dc.lft.to/lastmile_qr_scan", "android": "https://dc.lft.to/lastmile_qr_scan"}}, {"name": "b3f4145430f537b1ec95729b5be9a248", "fusion_lat": 0.0, "type": "electric_scooter", "lat": 38.911170166666665, "is_reserved": 0, "is_disabled": 0, "fusion_lon": 0.0, "bike_id": "b3f4145430f537b1ec95729b5be9a248", "lon": -77.0106085, "rental_uris": {"ios": "https://dc.lft.to/lastmile_qr_scan", "android": "https://dc.lft.to/lastmile_qr_scan"}}, {"name": "06e8ad17d9555caf7c64cf8397664a7f", "fusion_lat": 0.0, "type": "electric_scooter", "lat": 38.9394475, "is_reserved": 0, "is_disabled": 0, "fusion_lon": 0.0, "bike_id": "06e8ad17d9555caf7c64cf8397664a7f", "lon": -77.03623016666667, "rental_uris": {"ios": "https://dc.lft.to/lastmile_qr_scan", "android": "https://dc.lft.to/lastmile_qr_scan"}}, {"name": "8b54c7c50036400446467e4cf6c74b55", "fusion_lat": 0.0, "type": "electric_scooter", "lat": 38.906816166666665, "is_reserved": 0, "is_disabled": 0, "fusion_lon": 0.0, "bike_id": "8b54c7c50036400446467e4cf6c74b55", "lon": -76.9800035, "rental_uris": {"ios": "https://dc.lft.to/lastmile_qr_scan", "android": "https://dc.lft.to/lastmile_qr_scan"}}, {"name": "b888bf779500d611f9041975d95b3f13", "fusion_lat": 0.0, "type": "electric_scooter", "lat": 38.91192433333333, "is_reserved": 0, "is_disabled": 0, "fusion_lon": 0.0, "bike_id": "b888bf779500d611f9041975d95b3f13", "lon": -77.007324, "rental_uris": {"ios": "https://dc.lft.to/lastmile_qr_scan", "android": "https://dc.lft.to/lastmile_qr_scan"}}, {"name": "32e58ae5b0316ad3f99b4224d3fb1a2b", "fusion_lat": 0.0, "type": "electric_scooter", "lat": 38.9105475, "is_reserved": 0, "is_disabled": 0, "fusion_lon": 0.0, "bike_id": "32e58ae5b0316ad3f99b4224d3fb1a2b", "lon": -77.0413155, "rental_uris": {"ios": "https://dc.lft.to/lastmile_qr_scan", "android": "https://dc.lft.to/lastmile_qr_scan"}}, {"name": "b7223ca1116e31f1eb951e140b210a4a", "fusion_lat": 0.0, "type": "electric_scooter", "lat": 38.9116515, "is_reserved": 0, "is_disabled": 0, "fusion_lon": 0.0, "bike_id": "b7223ca1116e31f1eb951e140b210a4a", "lon": -77.019992, "rental_uris": {"ios": "https://dc.lft.to/lastmile_qr_scan", "android": "https://dc.lft.to/lastmile_qr_scan"}}, {"name": "2e7c9bc1c9b2086fb1d192d34ea490fe", "fusion_lat": 0.0, "type": "electric_bike", "lat": 38.93544716666667, "is_reserved": 0, "is_disabled": 0, "fusion_lon": 0.0, "bike_id": "2e7c9bc1c9b2086fb1d192d34ea490fe", "lon": -77.0824445, "rental_uris": {"ios": "https://dc.lft.to/lastmile_qr_scan", "android": "https://dc.lft.to/lastmile_qr_scan"}}, {"name": "7eef5a34131d373b7e5421cbdaf92172", "fusion_lat": 0.0, "type": "electric_scooter", "lat": 38.898440666666666, "is_reserved": 0, "is_disabled": 0, "fusion_lon": 0.0, "bike_id": "7eef5a34131d373b7e5421cbdaf92172", "lon": -77.03324833333333, "rental_uris": {"ios": "https://dc.lft.to/lastmile_qr_scan", "android": "https://dc.lft.to/lastmile_qr_scan"}}, {"name": "29e3dfa86f36570d209f80822920897b", "fusion_lat": 0.0, "type": "electric_scooter", "lat": 38.90509383333333, "is_reserved": 0, "is_disabled": 0, "fusion_lon": 0.0, "bike_id": "29e3dfa86f36570d209f80822920897b", "lon": -77.06940033333333, "rental_uris": {"ios": "https://dc.lft.to/lastmile_qr_scan", "android": "https://dc.lft.to/lastmile_qr_scan"}}, {"name": "ca5b574928b8dc7c7b8838d71d679ee2", "fusion_lat": 0.0, "type": "electric_scooter", "lat": 38.9057235, "is_reserved": 0, "is_disabled": 0, "fusion_lon": 0.0, "bike_id": "ca5b574928b8dc7c7b8838d71d679ee2", "lon": -77.024312, "rental_uris": {"ios": "https://dc.lft.to/lastmile_qr_scan", "android": "https://dc.lft.to/lastmile_qr_scan"}}, {"name": "9045ae2b583339a613b0e588b16904c4", "fusion_lat": 0.0, "type": "electric_scooter", "lat": 38.91711316666667, "is_reserved": 0, "is_disabled": 0, "fusion_lon": 0.0, "bike_id": "9045ae2b583339a613b0e588b16904c4", "lon": -77.03571733333334, "rental_uris": {"ios": "https://dc.lft.to/lastmile_qr_scan", "android": "https://dc.lft.to/lastmile_qr_scan"}}, {"name": "3fafe1f504aeab9d417dea96806071a0", "fusion_lat": 0.0, "type": "electric_scooter", "lat": 38.938201166666666, "is_reserved": 0, "is_disabled": 0, "fusion_lon": 0.0, "bike_id": "3fafe1f504aeab9d417dea96806071a0", "lon": -77.0249245, "rental_uris": {"ios": "https://dc.lft.to/lastmile_qr_scan", "android": "https://dc.lft.to/lastmile_qr_scan"}}, {"name": "eb506c90ff2ff4e476b9d3193a0785dc", "fusion_lat": 0.0, "type": "electric_scooter", "lat": 38.90640766666667, "is_reserved": 0, "is_disabled": 0, "fusion_lon": 0.0, "bike_id": "eb506c90ff2ff4e476b9d3193a0785dc", "lon": -77.00607116666667, "rental_uris": {"ios": "https://dc.lft.to/lastmile_qr_scan", "android": "https://dc.lft.to/lastmile_qr_scan"}}, {"name": "5c373afbd9bbc41d51a96f2cb85026a5", "fusion_lat": 0.0, "type": "electric_scooter", "lat": 38.91765016666667, "is_reserved": 0, "is_disabled": 0, "fusion_lon": 0.0, "bike_id": "5c373afbd9bbc41d51a96f2cb85026a5", "lon": -77.047414, "rental_uris": {"ios": "https://dc.lft.to/lastmile_qr_scan", "android": "https://dc.lft.to/lastmile_qr_scan"}}, {"name": "bafbe7289af871d490a4c8d695bb1665", "fusion_lat": 0.0, "type": "electric_scooter", "lat": 38.89221233333333, "is_reserved": 0, "is_disabled": 0, "fusion_lon": 0.0, "bike_id": "bafbe7289af871d490a4c8d695bb1665", "lon": -77.01374366666667, "rental_uris": {"ios": "https://dc.lft.to/lastmile_qr_scan", "android": "https://dc.lft.to/lastmile_qr_scan"}}, {"name": "65bd9693014f33951c9db4784c836d93", "fusion_lat": 0.0, "type": "electric_scooter", "lat": 38.878185333333334, "is_reserved": 0, "is_disabled": 0, "fusion_lon": 0.0, "bike_id": "65bd9693014f33951c9db4784c836d93", "lon": -77.00347216666667, "rental_uris": {"ios": "https://dc.lft.to/lastmile_qr_scan", "android": "https://dc.lft.to/lastmile_qr_scan"}}, {"name": "191988730bf948f98d7fc3fd32e59014", "fusion_lat": 0.0, "type": "electric_scooter", "lat": 38.918207, "is_reserved": 0, "is_disabled": 0, "fusion_lon": 0.0, "bike_id": "191988730bf948f98d7fc3fd32e59014", "lon": -77.03678666666667, "rental_uris": {"ios": "https://dc.lft.to/lastmile_qr_scan", "android": "https://dc.lft.to/lastmile_qr_scan"}}, {"name": "fb56bfb3c523e3399ed01f2f7a3d199d", "fusion_lat": 0.0, "type": "electric_bike", "lat": 38.8537415, "is_reserved": 0, "is_disabled": 0, "fusion_lon": 0.0, "bike_id": "fb56bfb3c523e3399ed01f2f7a3d199d", "lon": -77.0987185, "rental_uris": {"ios": "https://dc.lft.to/lastmile_qr_scan", "android": "https://dc.lft.to/lastmile_qr_scan"}}, {"name": "67b5fe67c09a38f7d662555131385b54", "fusion_lat": 0.0, "type": "electric_scooter", "lat": 38.90517083333334, "is_reserved": 0, "is_disabled": 0, "fusion_lon": 0.0, "bike_id": "67b5fe67c09a38f7d662555131385b54", "lon": -77.06890816666667, "rental_uris": {"ios": "https://dc.lft.to/lastmile_qr_scan", "android": "https://dc.lft.to/lastmile_qr_scan"}}, {"name": "729a2e91732185eb192841972a94d613", "fusion_lat": 0.0, "type": "electric_scooter", "lat": 38.910205166666664, "is_reserved": 0, "is_disabled": 0, "fusion_lon": 0.0, "bike_id": "729a2e91732185eb192841972a94d613", "lon": -77.04446966666667, "rental_uris": {"ios": "https://dc.lft.to/lastmile_qr_scan", "android": "https://dc.lft.to/lastmile_qr_scan"}}, {"name": "2637b35184aadd9462a8181ada99fbd5", "fusion_lat": 0.0, "type": "electric_scooter", "lat": 38.9366225, "is_reserved": 0, "is_disabled": 0, "fusion_lon": 0.0, "bike_id": "2637b35184aadd9462a8181ada99fbd5", "lon": -77.0326525, "rental_uris": {"ios": "https://dc.lft.to/lastmile_qr_scan", "android": "https://dc.lft.to/lastmile_qr_scan"}}, {"name": "d8a6e13e1d17eab260c96f64fdaa5c59", "fusion_lat": 0.0, "type": "electric_scooter", "lat": 38.916465, "is_reserved": 0, "is_disabled": 0, "fusion_lon": 0.0, "bike_id": "d8a6e13e1d17eab260c96f64fdaa5c59", "lon": -77.01585616666667, "rental_uris": {"ios": "https://dc.lft.to/lastmile_qr_scan", "android": "https://dc.lft.to/lastmile_qr_scan"}}, {"name": "acd44b753b8fafe1a74914369a40d46c", "fusion_lat": 0.0, "type": "electric_scooter", "lat": 38.930891, "is_reserved": 0, "is_disabled": 0, "fusion_lon": 0.0, "bike_id": "acd44b753b8fafe1a74914369a40d46c", "lon": -77.0241755, "rental_uris": {"ios": "https://dc.lft.to/lastmile_qr_scan", "android": "https://dc.lft.to/lastmile_qr_scan"}}, {"name": "79f3969dc33e6a054630ca0c93760bb5", "fusion_lat": 0.0, "type": "electric_scooter", "lat": 38.90959816666667, "is_reserved": 0, "is_disabled": 0, "fusion_lon": 0.0, "bike_id": "79f3969dc33e6a054630ca0c93760bb5", "lon": -77.01138183333333, "rental_uris": {"ios": "https://dc.lft.to/lastmile_qr_scan", "android": "https://dc.lft.to/lastmile_qr_scan"}}, {"name": "bf85c49677668ed27a244811ebb4707f", "fusion_lat": 0.0, "type": "electric_scooter", "lat": 38.906426833333335, "is_reserved": 0, "is_disabled": 0, "fusion_lon": 0.0, "bike_id": "bf85c49677668ed27a244811ebb4707f", "lon": -77.02946666666666, "rental_uris": {"ios": "https://dc.lft.to/lastmile_qr_scan", "android": "https://dc.lft.to/lastmile_qr_scan"}}, {"name": "0e3a63a5cb7eb8581f183a4515e686ee", "fusion_lat": 0.0, "type": "electric_scooter", "lat": 38.901285, "is_reserved": 0, "is_disabled": 0, "fusion_lon": 0.0, "bike_id": "0e3a63a5cb7eb8581f183a4515e686ee", "lon": -76.99185116666666, "rental_uris": {"ios": "https://dc.lft.to/lastmile_qr_scan", "android": "https://dc.lft.to/lastmile_qr_scan"}}, {"name": "6cd5d052aa96c05f14bbd4d9a3f38d7b", "fusion_lat": 0.0, "type": "electric_scooter", "lat": 38.90958233333333, "is_reserved": 0, "is_disabled": 0, "fusion_lon": 0.0, "bike_id": "6cd5d052aa96c05f14bbd4d9a3f38d7b", "lon": -77.0238595, "rental_uris": {"ios": "https://dc.lft.to/lastmile_qr_scan", "android": "https://dc.lft.to/lastmile_qr_scan"}}, {"name": "84cc1f27dbfd48d3257eb47d9c90518d", "fusion_lat": 0.0, "type": "electric_scooter", "lat": 38.8984875, "is_reserved": 0, "is_disabled": 0, "fusion_lon": 0.0, "bike_id": "84cc1f27dbfd48d3257eb47d9c90518d", "lon": -77.03317316666667, "rental_uris": {"ios": "https://dc.lft.to/lastmile_qr_scan", "android": "https://dc.lft.to/lastmile_qr_scan"}}, {"name": "a42b12bc7e12aaac711dba5f2a7756ce", "fusion_lat": 0.0, "type": "electric_scooter", "lat": 38.9008205, "is_reserved": 0, "is_disabled": 0, "fusion_lon": 0.0, "bike_id": "a42b12bc7e12aaac711dba5f2a7756ce", "lon": -77.0505745, "rental_uris": {"ios": "https://dc.lft.to/lastmile_qr_scan", "android": "https://dc.lft.to/lastmile_qr_scan"}}, {"name": "fe730e7faa3280fb473f079c5531f9b7", "fusion_lat": 0.0, "type": "electric_scooter", "lat": 38.91560966666667, "is_reserved": 0, "is_disabled": 0, "fusion_lon": 0.0, "bike_id": "fe730e7faa3280fb473f079c5531f9b7", "lon": -77.01414116666666, "rental_uris": {"ios": "https://dc.lft.to/lastmile_qr_scan", "android": "https://dc.lft.to/lastmile_qr_scan"}}, {"name": "864e8485b1129d540871060e71594b87", "fusion_lat": 0.0, "type": "electric_scooter", "lat": 38.89389966666667, "is_reserved": 0, "is_disabled": 0, "fusion_lon": 0.0, "bike_id": "864e8485b1129d540871060e71594b87", "lon": -77.0547385, "rental_uris": {"ios": "https://dc.lft.to/lastmile_qr_scan", "android": "https://dc.lft.to/lastmile_qr_scan"}}, {"name": "d8bc80a719f84da4576639d27ea8a048", "fusion_lat": 0.0, "type": "electric_scooter", "lat": 38.88384216666667, "is_reserved": 0, "is_disabled": 0, "fusion_lon": 0.0, "bike_id": "d8bc80a719f84da4576639d27ea8a048", "lon": -76.98542433333333, "rental_uris": {"ios": "https://dc.lft.to/lastmile_qr_scan", "android": "https://dc.lft.to/lastmile_qr_scan"}}, {"name": "39abf7b65807386947bed696e07687c0", "fusion_lat": 0.0, "type": "electric_scooter", "lat": 38.90036216666667, "is_reserved": 0, "is_disabled": 0, "fusion_lon": 0.0, "bike_id": "39abf7b65807386947bed696e07687c0", "lon": -77.0020115, "rental_uris": {"ios": "https://dc.lft.to/lastmile_qr_scan", "android": "https://dc.lft.to/lastmile_qr_scan"}}, {"name": "9b168c21a4f14fc4d9d4e142ff000102", "fusion_lat": 0.0, "type": "electric_bike", "lat": 38.8521835, "is_reserved": 0, "is_disabled": 0, "fusion_lon": 0.0, "bike_id": "9b168c21a4f14fc4d9d4e142ff000102", "lon": -77.12958283333333, "rental_uris": {"ios": "https://dc.lft.to/lastmile_qr_scan", "android": "https://dc.lft.to/lastmile_qr_scan"}}, {"name": "974813f58ecb804465e246675d19b7b6", "fusion_lat": 0.0, "type": "electric_scooter", "lat": 38.89554366666667, "is_reserved": 0, "is_disabled": 0, "fusion_lon": 0.0, "bike_id": "974813f58ecb804465e246675d19b7b6", "lon": -76.9837955, "rental_uris": {"ios": "https://dc.lft.to/lastmile_qr_scan", "android": "https://dc.lft.to/lastmile_qr_scan"}}, {"name": "18d395f4c0bbaa30f01287f50bd3dc27", "fusion_lat": 0.0, "type": "electric_scooter", "lat": 38.88045266666666, "is_reserved": 0, "is_disabled": 0, "fusion_lon": 0.0, "bike_id": "18d395f4c0bbaa30f01287f50bd3dc27", "lon": -76.95991733333334, "rental_uris": {"ios": "https://dc.lft.to/lastmile_qr_scan", "android": "https://dc.lft.to/lastmile_qr_scan"}}, {"name": "cabef40fa5be995bf7a8cf28c5cb1cda", "fusion_lat": 0.0, "type": "electric_scooter", "lat": 38.878457833333336, "is_reserved": 0, "is_disabled": 0, "fusion_lon": 0.0, "bike_id": "cabef40fa5be995bf7a8cf28c5cb1cda", "lon": -77.022814, "rental_uris": {"ios": "https://dc.lft.to/lastmile_qr_scan", "android": "https://dc.lft.to/lastmile_qr_scan"}}, {"name": "e7a5abb435c1e221632530507d00ed9b", "fusion_lat": 0.0, "type": "electric_scooter", "lat": 38.878464, "is_reserved": 0, "is_disabled": 0, "fusion_lon": 0.0, "bike_id": "e7a5abb435c1e221632530507d00ed9b", "lon": -77.02251883333334, "rental_uris": {"ios": "https://dc.lft.to/lastmile_qr_scan", "android": "https://dc.lft.to/lastmile_qr_scan"}}, {"name": "ff1a022b528b7eec33204137486881cb", "fusion_lat": 0.0, "type": "electric_scooter", "lat": 38.939149, "is_reserved": 0, "is_disabled": 0, "fusion_lon": 0.0, "bike_id": "ff1a022b528b7eec33204137486881cb", "lon": -77.03670033333333, "rental_uris": {"ios": "https://dc.lft.to/lastmile_qr_scan", "android": "https://dc.lft.to/lastmile_qr_scan"}}, {"name": "0219151f40598cd8a60d2ebd2c761da5", "fusion_lat": 0.0, "type": "electric_scooter", "lat": 38.930597666666664, "is_reserved": 0, "is_disabled": 0, "fusion_lon": 0.0, "bike_id": "0219151f40598cd8a60d2ebd2c761da5", "lon": -77.023223, "rental_uris": {"ios": "https://dc.lft.to/lastmile_qr_scan", "android": "https://dc.lft.to/lastmile_qr_scan"}}, {"name": "ec7f1d44eda4f41d3ebb87a0319a52fe", "fusion_lat": 0.0, "type": "electric_bike", "lat": 38.9846365, "is_reserved": 0, "is_disabled": 0, "fusion_lon": 0.0, "bike_id": "ec7f1d44eda4f41d3ebb87a0319a52fe", "lon": -76.955306, "rental_uris": {"ios": "https://dc.lft.to/lastmile_qr_scan", "android": "https://dc.lft.to/lastmile_qr_scan"}}, {"name": "bf9ac60c00ca7490e1ac1546a60ec9ab", "fusion_lat": 0.0, "type": "electric_bike", "lat": 38.866007333333336, "is_reserved": 0, "is_disabled": 0, "fusion_lon": 0.0, "bike_id": "bf9ac60c00ca7490e1ac1546a60ec9ab", "lon": -76.93226766666666, "rental_uris": {"ios": "https://dc.lft.to/lastmile_qr_scan", "android": "https://dc.lft.to/lastmile_qr_scan"}}, {"name": "ed03fe4960cdb1aa35649ab11439bd79", "fusion_lat": 0.0, "type": "electric_scooter", "lat": 38.90060483333333, "is_reserved": 0, "is_disabled": 0, "fusion_lon": 0.0, "bike_id": "ed03fe4960cdb1aa35649ab11439bd79", "lon": -76.94757, "rental_uris": {"ios": "https://dc.lft.to/lastmile_qr_scan", "android": "https://dc.lft.to/lastmile_qr_scan"}}, {"name": "47b694620174ec8c67ced2c9ba2d338e", "fusion_lat": 0.0, "type": "electric_bike", "lat": 38.9420205, "is_reserved": 0, "is_disabled": 0, "fusion_lon": 0.0, "bike_id": "47b694620174ec8c67ced2c9ba2d338e", "lon": -76.96626816666667, "rental_uris": {"ios": "https://dc.lft.to/lastmile_qr_scan", "android": "https://dc.lft.to/lastmile_qr_scan"}}, {"name": "8b730a0a7605ee625d73cb197bcad347", "fusion_lat": 0.0, "type": "electric_scooter", "lat": 38.91875983333333, "is_reserved": 0, "is_disabled": 0, "fusion_lon": 0.0, "bike_id": "8b730a0a7605ee625d73cb197bcad347", "lon": -77.035044, "rental_uris": {"ios": "https://dc.lft.to/lastmile_qr_scan", "android": "https://dc.lft.to/lastmile_qr_scan"}}, {"name": "a8c3343d4d1d061f19684cd3a4d7a909", "fusion_lat": 0.0, "type": "electric_scooter", "lat": 38.905669833333334, "is_reserved": 0, "is_disabled": 0, "fusion_lon": 0.0, "bike_id": "a8c3343d4d1d061f19684cd3a4d7a909", "lon": -77.03458583333334, "rental_uris": {"ios": "https://dc.lft.to/lastmile_qr_scan", "android": "https://dc.lft.to/lastmile_qr_scan"}}, {"name": "e9feddfec335074f028e073a8eec426c", "fusion_lat": 0.0, "type": "electric_scooter", "lat": 38.931296833333334, "is_reserved": 0, "is_disabled": 0, "fusion_lon": 0.0, "bike_id": "e9feddfec335074f028e073a8eec426c", "lon": -77.02823133333334, "rental_uris": {"ios": "https://dc.lft.to/lastmile_qr_scan", "android": "https://dc.lft.to/lastmile_qr_scan"}}, {"name": "238ae10d0332bed0fe9771b7dfaf0a1c", "fusion_lat": 0.0, "type": "electric_scooter", "lat": 38.91710166666667, "is_reserved": 0, "is_disabled": 0, "fusion_lon": 0.0, "bike_id": "238ae10d0332bed0fe9771b7dfaf0a1c", "lon": -77.03863, "rental_uris": {"ios": "https://dc.lft.to/lastmile_qr_scan", "android": "https://dc.lft.to/lastmile_qr_scan"}}, {"name": "54aff348a1c15afcf956c56d269e2762", "fusion_lat": 0.0, "type": "electric_scooter", "lat": 38.8933085, "is_reserved": 0, "is_disabled": 0, "fusion_lon": 0.0, "bike_id": "54aff348a1c15afcf956c56d269e2762", "lon": -76.92890516666667, "rental_uris": {"ios": "https://dc.lft.to/lastmile_qr_scan", "android": "https://dc.lft.to/lastmile_qr_scan"}}, {"name": "e99fb0b22af25a9eb60ad3199d934dcf", "fusion_lat": 0.0, "type": "electric_scooter", "lat": 38.87425783333333, "is_reserved": 0, "is_disabled": 0, "fusion_lon": 0.0, "bike_id": "e99fb0b22af25a9eb60ad3199d934dcf", "lon": -77.02060616666667, "rental_uris": {"ios": "https://dc.lft.to/lastmile_qr_scan", "android": "https://dc.lft.to/lastmile_qr_scan"}}, {"name": "7db1338b2e5713b21c6929186b8af430", "fusion_lat": 0.0, "type": "electric_scooter", "lat": 38.918683, "is_reserved": 0, "is_disabled": 0, "fusion_lon": 0.0, "bike_id": "7db1338b2e5713b21c6929186b8af430", "lon": -77.04602716666666, "rental_uris": {"ios": "https://dc.lft.to/lastmile_qr_scan", "android": "https://dc.lft.to/lastmile_qr_scan"}}, {"name": "88eef70141441c7be9f2812c3ec02c2c", "fusion_lat": 0.0, "type": "electric_scooter", "lat": 38.885343166666665, "is_reserved": 0, "is_disabled": 0, "fusion_lon": 0.0, "bike_id": "88eef70141441c7be9f2812c3ec02c2c", "lon": -77.0336445, "rental_uris": {"ios": "https://dc.lft.to/lastmile_qr_scan", "android": "https://dc.lft.to/lastmile_qr_scan"}}, {"name": "c3f410f546bf8d3b5035bec3ea68a595", "fusion_lat": 0.0, "type": "electric_scooter", "lat": 38.900162333333334, "is_reserved": 0, "is_disabled": 0, "fusion_lon": 0.0, "bike_id": "c3f410f546bf8d3b5035bec3ea68a595", "lon": -76.99691166666666, "rental_uris": {"ios": "https://dc.lft.to/lastmile_qr_scan", "android": "https://dc.lft.to/lastmile_qr_scan"}}, {"name": "901e86de733740f6488318a8a824de2c", "fusion_lat": 0.0, "type": "electric_scooter", "lat": 38.8638125, "is_reserved": 0, "is_disabled": 0, "fusion_lon": 0.0, "bike_id": "901e86de733740f6488318a8a824de2c", "lon": -77.01356983333334, "rental_uris": {"ios": "https://dc.lft.to/lastmile_qr_scan", "android": "https://dc.lft.to/lastmile_qr_scan"}}, {"name": "752fcb492bc3b7355ce1fceb9c0616b2", "fusion_lat": 0.0, "type": "electric_scooter", "lat": 38.87925666666667, "is_reserved": 0, "is_disabled": 0, "fusion_lon": 0.0, "bike_id": "752fcb492bc3b7355ce1fceb9c0616b2", "lon": -77.0076785, "rental_uris": {"ios": "https://dc.lft.to/lastmile_qr_scan", "android": "https://dc.lft.to/lastmile_qr_scan"}}, {"name": "44bd5ba5971b474c25fdd0953d6110a2", "fusion_lat": 0.0, "type": "electric_scooter", "lat": 38.936696166666664, "is_reserved": 0, "is_disabled": 0, "fusion_lon": 0.0, "bike_id": "44bd5ba5971b474c25fdd0953d6110a2", "lon": -77.0363385, "rental_uris": {"ios": "https://dc.lft.to/lastmile_qr_scan", "android": "https://dc.lft.to/lastmile_qr_scan"}}, {"name": "d5020e0e10b7a9b29a1a99f2beb1bfde", "fusion_lat": 0.0, "type": "electric_scooter", "lat": 38.907989666666666, "is_reserved": 0, "is_disabled": 0, "fusion_lon": 0.0, "bike_id": "d5020e0e10b7a9b29a1a99f2beb1bfde", "lon": -77.04189366666667, "rental_uris": {"ios": "https://dc.lft.to/lastmile_qr_scan", "android": "https://dc.lft.to/lastmile_qr_scan"}}, {"name": "18ed0349520261d8e978c96dbd425a48", "fusion_lat": 0.0, "type": "electric_scooter", "lat": 38.88335033333333, "is_reserved": 0, "is_disabled": 0, "fusion_lon": 0.0, "bike_id": "18ed0349520261d8e978c96dbd425a48", "lon": -77.01646716666667, "rental_uris": {"ios": "https://dc.lft.to/lastmile_qr_scan", "android": "https://dc.lft.to/lastmile_qr_scan"}}, {"name": "aaffec683cf5cd67b788c23ce65501a9", "fusion_lat": 0.0, "type": "electric_scooter", "lat": 38.90024916666667, "is_reserved": 0, "is_disabled": 0, "fusion_lon": 0.0, "bike_id": "aaffec683cf5cd67b788c23ce65501a9", "lon": -77.02400116666666, "rental_uris": {"ios": "https://dc.lft.to/lastmile_qr_scan", "android": "https://dc.lft.to/lastmile_qr_scan"}}, {"name": "384b292c4ae8a2ea3e50aaf79ac23181", "fusion_lat": 0.0, "type": "electric_bike", "lat": 38.8815725, "is_reserved": 0, "is_disabled": 0, "fusion_lon": 0.0, "bike_id": "384b292c4ae8a2ea3e50aaf79ac23181", "lon": -77.027455, "rental_uris": {"ios": "https://dc.lft.to/lastmile_qr_scan", "android": "https://dc.lft.to/lastmile_qr_scan"}}, {"name": "20c38ae457cdf32c0fbc943d0cef2685", "fusion_lat": 0.0, "type": "electric_scooter", "lat": 38.898555, "is_reserved": 0, "is_disabled": 0, "fusion_lon": 0.0, "bike_id": "20c38ae457cdf32c0fbc943d0cef2685", "lon": -76.97659216666666, "rental_uris": {"ios": "https://dc.lft.to/lastmile_qr_scan", "android": "https://dc.lft.to/lastmile_qr_scan"}}, {"name": "8b1dcbb65f11f660ec97852c93fbab03", "fusion_lat": 0.0, "type": "electric_scooter", "lat": 38.920094, "is_reserved": 0, "is_disabled": 0, "fusion_lon": 0.0, "bike_id": "8b1dcbb65f11f660ec97852c93fbab03", "lon": -77.0317775, "rental_uris": {"ios": "https://dc.lft.to/lastmile_qr_scan", "android": "https://dc.lft.to/lastmile_qr_scan"}}, {"name": "2e689a68177290c4956ca0d3a8e57257", "fusion_lat": 0.0, "type": "electric_scooter", "lat": 38.905945833333334, "is_reserved": 0, "is_disabled": 0, "fusion_lon": 0.0, "bike_id": "2e689a68177290c4956ca0d3a8e57257", "lon": -77.01614316666667, "rental_uris": {"ios": "https://dc.lft.to/lastmile_qr_scan", "android": "https://dc.lft.to/lastmile_qr_scan"}}, {"name": "2d5d6a918324b6d5e020cfb72dc9b153", "fusion_lat": 0.0, "type": "electric_scooter", "lat": 38.88506683333333, "is_reserved": 0, "is_disabled": 0, "fusion_lon": 0.0, "bike_id": "2d5d6a918324b6d5e020cfb72dc9b153", "lon": -77.01589333333334, "rental_uris": {"ios": "https://dc.lft.to/lastmile_qr_scan", "android": "https://dc.lft.to/lastmile_qr_scan"}}, {"name": "6bf1f863912f00aa3fd5d04ff9e710ee", "fusion_lat": 0.0, "type": "electric_scooter", "lat": 38.932717, "is_reserved": 0, "is_disabled": 0, "fusion_lon": 0.0, "bike_id": "6bf1f863912f00aa3fd5d04ff9e710ee", "lon": -77.03899216666667, "rental_uris": {"ios": "https://dc.lft.to/lastmile_qr_scan", "android": "https://dc.lft.to/lastmile_qr_scan"}}, {"name": "c685585d15a825176d5f6915e701e892", "fusion_lat": 0.0, "type": "electric_bike", "lat": 38.99062283333333, "is_reserved": 0, "is_disabled": 0, "fusion_lon": 0.0, "bike_id": "c685585d15a825176d5f6915e701e892", "lon": -77.10031866666667, "rental_uris": {"ios": "https://dc.lft.to/lastmile_qr_scan", "android": "https://dc.lft.to/lastmile_qr_scan"}}, {"name": "fca65a1486b429c9513c3190c959e97e", "fusion_lat": 0.0, "type": "electric_scooter", "lat": 38.858064, "is_reserved": 0, "is_disabled": 0, "fusion_lon": 0.0, "bike_id": "fca65a1486b429c9513c3190c959e97e", "lon": -76.98653783333333, "rental_uris": {"ios": "https://dc.lft.to/lastmile_qr_scan", "android": "https://dc.lft.to/lastmile_qr_scan"}}, {"name": "ffcede7f0783dae068d08b1e5b4b9d27", "fusion_lat": 0.0, "type": "electric_scooter", "lat": 38.85160966666667, "is_reserved": 0, "is_disabled": 0, "fusion_lon": 0.0, "bike_id": "ffcede7f0783dae068d08b1e5b4b9d27", "lon": -76.9880155, "rental_uris": {"ios": "https://dc.lft.to/lastmile_qr_scan", "android": "https://dc.lft.to/lastmile_qr_scan"}}, {"name": "cccdd0a67aaed88e4646fc188cd4a9b4", "fusion_lat": 0.0, "type": "electric_scooter", "lat": 38.84686083333333, "is_reserved": 0, "is_disabled": 0, "fusion_lon": 0.0, "bike_id": "cccdd0a67aaed88e4646fc188cd4a9b4", "lon": -76.99205416666666, "rental_uris": {"ios": "https://dc.lft.to/lastmile_qr_scan", "android": "https://dc.lft.to/lastmile_qr_scan"}}, {"name": "dc18444239ae8c80910277e2e86e2f85", "fusion_lat": 0.0, "type": "electric_scooter", "lat": 38.93824083333333, "is_reserved": 0, "is_disabled": 0, "fusion_lon": 0.0, "bike_id": "dc18444239ae8c80910277e2e86e2f85", "lon": -77.0248305, "rental_uris": {"ios": "https://dc.lft.to/lastmile_qr_scan", "android": "https://dc.lft.to/lastmile_qr_scan"}}, {"name": "393358381846bf0b3f2a957535b7d460", "fusion_lat": 0.0, "type": "electric_scooter", "lat": 38.85727116666666, "is_reserved": 0, "is_disabled": 0, "fusion_lon": 0.0, "bike_id": "393358381846bf0b3f2a957535b7d460", "lon": -76.98093, "rental_uris": {"ios": "https://dc.lft.to/lastmile_qr_scan", "android": "https://dc.lft.to/lastmile_qr_scan"}}, {"name": "b45d7692f0d2e26ae62e92ba28c6d602", "fusion_lat": 0.0, "type": "electric_scooter", "lat": 38.91820366666666, "is_reserved": 0, "is_disabled": 0, "fusion_lon": 0.0, "bike_id": "b45d7692f0d2e26ae62e92ba28c6d602", "lon": -77.04007883333334, "rental_uris": {"ios": "https://dc.lft.to/lastmile_qr_scan", "android": "https://dc.lft.to/lastmile_qr_scan"}}, {"name": "c1deedf6eb2c8e5107c2a1364f6483f8", "fusion_lat": 0.0, "type": "electric_bike", "lat": 38.828771, "is_reserved": 0, "is_disabled": 0, "fusion_lon": 0.0, "bike_id": "c1deedf6eb2c8e5107c2a1364f6483f8", "lon": -77.11216916666666, "rental_uris": {"ios": "https://dc.lft.to/lastmile_qr_scan", "android": "https://dc.lft.to/lastmile_qr_scan"}}, {"name": "7547b1cf7ea7d7a7e013bde90ec33dc5", "fusion_lat": 0.0, "type": "electric_scooter", "lat": 38.930997833333336, "is_reserved": 0, "is_disabled": 0, "fusion_lon": 0.0, "bike_id": "7547b1cf7ea7d7a7e013bde90ec33dc5", "lon": -77.03431333333333, "rental_uris": {"ios": "https://dc.lft.to/lastmile_qr_scan", "android": "https://dc.lft.to/lastmile_qr_scan"}}, {"name": "1224ca8b59f93f68aae93b08ee455f02", "fusion_lat": 0.0, "type": "electric_bike", "lat": 38.9909275, "is_reserved": 0, "is_disabled": 0, "fusion_lon": 0.0, "bike_id": "1224ca8b59f93f68aae93b08ee455f02", "lon": -76.87494383333333, "rental_uris": {"ios": "https://dc.lft.to/lastmile_qr_scan", "android": "https://dc.lft.to/lastmile_qr_scan"}}, {"name": "743f9a0b7fb30799c897debad2873eee", "fusion_lat": 0.0, "type": "electric_scooter", "lat": 38.90964533333333, "is_reserved": 0, "is_disabled": 0, "fusion_lon": 0.0, "bike_id": "743f9a0b7fb30799c897debad2873eee", "lon": -77.02743916666667, "rental_uris": {"ios": "https://dc.lft.to/lastmile_qr_scan", "android": "https://dc.lft.to/lastmile_qr_scan"}}, {"name": "4fa2dbe34415394b195d0b8dc0c54ccb", "fusion_lat": 0.0, "type": "electric_scooter", "lat": 38.876496, "is_reserved": 0, "is_disabled": 0, "fusion_lon": 0.0, "bike_id": "4fa2dbe34415394b195d0b8dc0c54ccb", "lon": -77.00810766666666, "rental_uris": {"ios": "https://dc.lft.to/lastmile_qr_scan", "android": "https://dc.lft.to/lastmile_qr_scan"}}, {"name": "356998a02a4f12d722b7bacce9cb0fed", "fusion_lat": 0.0, "type": "electric_scooter", "lat": 38.88404583333333, "is_reserved": 0, "is_disabled": 0, "fusion_lon": 0.0, "bike_id": "356998a02a4f12d722b7bacce9cb0fed", "lon": -77.01951566666666, "rental_uris": {"ios": "https://dc.lft.to/lastmile_qr_scan", "android": "https://dc.lft.to/lastmile_qr_scan"}}, {"name": "3d8d581e7b42a34a0d31888661b969e7", "fusion_lat": 0.0, "type": "electric_scooter", "lat": 38.925090833333336, "is_reserved": 0, "is_disabled": 0, "fusion_lon": 0.0, "bike_id": "3d8d581e7b42a34a0d31888661b969e7", "lon": -77.0216755, "rental_uris": {"ios": "https://dc.lft.to/lastmile_qr_scan", "android": "https://dc.lft.to/lastmile_qr_scan"}}, {"name": "40dd3bc95597c6b77b3fa175e23fbaa1", "fusion_lat": 0.0, "type": "electric_scooter", "lat": 38.89974983333333, "is_reserved": 0, "is_disabled": 0, "fusion_lon": 0.0, "bike_id": "40dd3bc95597c6b77b3fa175e23fbaa1", "lon": -77.05699566666667, "rental_uris": {"ios": "https://dc.lft.to/lastmile_qr_scan", "android": "https://dc.lft.to/lastmile_qr_scan"}}, {"name": "251bb0adb4381f6ce781661c45d14280", "fusion_lat": 0.0, "type": "electric_scooter", "lat": 38.918081, "is_reserved": 0, "is_disabled": 0, "fusion_lon": 0.0, "bike_id": "251bb0adb4381f6ce781661c45d14280", "lon": -77.03445983333333, "rental_uris": {"ios": "https://dc.lft.to/lastmile_qr_scan", "android": "https://dc.lft.to/lastmile_qr_scan"}}, {"name": "dd9bd16a1b7130d7185a8a5c55636316", "fusion_lat": 0.0, "type": "electric_scooter", "lat": 38.876634833333334, "is_reserved": 0, "is_disabled": 0, "fusion_lon": 0.0, "bike_id": "dd9bd16a1b7130d7185a8a5c55636316", "lon": -77.00768566666666, "rental_uris": {"ios": "https://dc.lft.to/lastmile_qr_scan", "android": "https://dc.lft.to/lastmile_qr_scan"}}, {"name": "dae6779bdc38dc59e00c49f29d4ff81b", "fusion_lat": 0.0, "type": "electric_scooter", "lat": 38.896085166666666, "is_reserved": 0, "is_disabled": 0, "fusion_lon": 0.0, "bike_id": "dae6779bdc38dc59e00c49f29d4ff81b", "lon": -77.04755733333333, "rental_uris": {"ios": "https://dc.lft.to/lastmile_qr_scan", "android": "https://dc.lft.to/lastmile_qr_scan"}}, {"name": "36205dd4bcb4fcdd6e092ff718d9b798", "fusion_lat": 0.0, "type": "electric_scooter", "lat": 38.90162516666667, "is_reserved": 0, "is_disabled": 0, "fusion_lon": 0.0, "bike_id": "36205dd4bcb4fcdd6e092ff718d9b798", "lon": -77.054109, "rental_uris": {"ios": "https://dc.lft.to/lastmile_qr_scan", "android": "https://dc.lft.to/lastmile_qr_scan"}}, {"name": "ee00dd648b216de011b14f21d9282a4c", "fusion_lat": 0.0, "type": "electric_scooter", "lat": 38.93890916666667, "is_reserved": 0, "is_disabled": 0, "fusion_lon": 0.0, "bike_id": "ee00dd648b216de011b14f21d9282a4c", "lon": -77.03265466666667, "rental_uris": {"ios": "https://dc.lft.to/lastmile_qr_scan", "android": "https://dc.lft.to/lastmile_qr_scan"}}, {"name": "c37c647884f66a0df1733fd456c70d44", "fusion_lat": 0.0, "type": "electric_scooter", "lat": 38.90544883333333, "is_reserved": 0, "is_disabled": 0, "fusion_lon": 0.0, "bike_id": "c37c647884f66a0df1733fd456c70d44", "lon": -77.06263883333334, "rental_uris": {"ios": "https://dc.lft.to/lastmile_qr_scan", "android": "https://dc.lft.to/lastmile_qr_scan"}}, {"name": "5a10e2b4fb38eb668613ff6a0466d4ee", "fusion_lat": 0.0, "type": "electric_scooter", "lat": 38.91819266666667, "is_reserved": 0, "is_disabled": 0, "fusion_lon": 0.0, "bike_id": "5a10e2b4fb38eb668613ff6a0466d4ee", "lon": -77.01014083333334, "rental_uris": {"ios": "https://dc.lft.to/lastmile_qr_scan", "android": "https://dc.lft.to/lastmile_qr_scan"}}, {"name": "c0192b1055324acdaf92b88a4b3b21fe", "fusion_lat": 0.0, "type": "electric_scooter", "lat": 38.93904716666667, "is_reserved": 0, "is_disabled": 0, "fusion_lon": 0.0, "bike_id": "c0192b1055324acdaf92b88a4b3b21fe", "lon": -77.06043016666666, "rental_uris": {"ios": "https://dc.lft.to/lastmile_qr_scan", "android": "https://dc.lft.to/lastmile_qr_scan"}}, {"name": "67e20ab529dfb266731cf7997d7f0e73", "fusion_lat": 0.0, "type": "electric_scooter", "lat": 38.90933883333334, "is_reserved": 0, "is_disabled": 0, "fusion_lon": 0.0, "bike_id": "67e20ab529dfb266731cf7997d7f0e73", "lon": -77.03865066666667, "rental_uris": {"ios": "https://dc.lft.to/lastmile_qr_scan", "android": "https://dc.lft.to/lastmile_qr_scan"}}, {"name": "89d30068908c33e9e173db48cf0e3764", "fusion_lat": 0.0, "type": "electric_bike", "lat": 39.033462166666666, "is_reserved": 0, "is_disabled": 0, "fusion_lon": 0.0, "bike_id": "89d30068908c33e9e173db48cf0e3764", "lon": -77.04913233333333, "rental_uris": {"ios": "https://dc.lft.to/lastmile_qr_scan", "android": "https://dc.lft.to/lastmile_qr_scan"}}, {"name": "b46f4a3078b72bfddb1e137b50bc88b4", "fusion_lat": 0.0, "type": "electric_scooter", "lat": 38.91274516666667, "is_reserved": 0, "is_disabled": 0, "fusion_lon": 0.0, "bike_id": "b46f4a3078b72bfddb1e137b50bc88b4", "lon": -77.02688683333334, "rental_uris": {"ios": "https://dc.lft.to/lastmile_qr_scan", "android": "https://dc.lft.to/lastmile_qr_scan"}}, {"name": "e6d479015e1dedb1b5b841270129ae3d", "fusion_lat": 0.0, "type": "electric_scooter", "lat": 38.937019, "is_reserved": 0, "is_disabled": 0, "fusion_lon": 0.0, "bike_id": "e6d479015e1dedb1b5b841270129ae3d", "lon": -77.05690766666666, "rental_uris": {"ios": "https://dc.lft.to/lastmile_qr_scan", "android": "https://dc.lft.to/lastmile_qr_scan"}}, {"name": "4c931f38bf755489b596ec5300453f21", "fusion_lat": 0.0, "type": "electric_bike", "lat": 38.99993633333333, "is_reserved": 0, "is_disabled": 0, "fusion_lon": 0.0, "bike_id": "4c931f38bf755489b596ec5300453f21", "lon": -76.99520566666666, "rental_uris": {"ios": "https://dc.lft.to/lastmile_qr_scan", "android": "https://dc.lft.to/lastmile_qr_scan"}}, {"name": "17d62d2f5f0c65fe89df9996a39757b8", "fusion_lat": 0.0, "type": "electric_scooter", "lat": 38.90941316666667, "is_reserved": 0, "is_disabled": 0, "fusion_lon": 0.0, "bike_id": "17d62d2f5f0c65fe89df9996a39757b8", "lon": -76.98489266666667, "rental_uris": {"ios": "https://dc.lft.to/lastmile_qr_scan", "android": "https://dc.lft.to/lastmile_qr_scan"}}, {"name": "ff70439e1940be1223971b753f6d99ef", "fusion_lat": 0.0, "type": "electric_scooter", "lat": 38.908690166666666, "is_reserved": 0, "is_disabled": 0, "fusion_lon": 0.0, "bike_id": "ff70439e1940be1223971b753f6d99ef", "lon": -77.0238725, "rental_uris": {"ios": "https://dc.lft.to/lastmile_qr_scan", "android": "https://dc.lft.to/lastmile_qr_scan"}}, {"name": "af79a727f08476e11bfdf1e2da197d2c", "fusion_lat": 0.0, "type": "electric_scooter", "lat": 38.873275166666666, "is_reserved": 0, "is_disabled": 0, "fusion_lon": 0.0, "bike_id": "af79a727f08476e11bfdf1e2da197d2c", "lon": -77.00105716666667, "rental_uris": {"ios": "https://dc.lft.to/lastmile_qr_scan", "android": "https://dc.lft.to/lastmile_qr_scan"}}, {"name": "4ba609b782faedbca57442e05271986b", "fusion_lat": 0.0, "type": "electric_scooter", "lat": 38.903875, "is_reserved": 0, "is_disabled": 0, "fusion_lon": 0.0, "bike_id": "4ba609b782faedbca57442e05271986b", "lon": -77.04821066666666, "rental_uris": {"ios": "https://dc.lft.to/lastmile_qr_scan", "android": "https://dc.lft.to/lastmile_qr_scan"}}, {"name": "52892d7ec709e96111b8bb13bf24e020", "fusion_lat": 0.0, "type": "electric_bike", "lat": 38.951874, "is_reserved": 0, "is_disabled": 0, "fusion_lon": 0.0, "bike_id": "52892d7ec709e96111b8bb13bf24e020", "lon": -76.935464, "rental_uris": {"ios": "https://dc.lft.to/lastmile_qr_scan", "android": "https://dc.lft.to/lastmile_qr_scan"}}, {"name": "9f3bc380669f21292eccbd504e7bf4a3", "fusion_lat": 0.0, "type": "electric_scooter", "lat": 38.92383516666666, "is_reserved": 0, "is_disabled": 0, "fusion_lon": 0.0, "bike_id": "9f3bc380669f21292eccbd504e7bf4a3", "lon": -77.03131816666667, "rental_uris": {"ios": "https://dc.lft.to/lastmile_qr_scan", "android": "https://dc.lft.to/lastmile_qr_scan"}}, {"name": "ef6eac9f0f8d038f35ac620bd3c32d5b", "fusion_lat": 0.0, "type": "electric_scooter", "lat": 38.904824166666664, "is_reserved": 0, "is_disabled": 0, "fusion_lon": 0.0, "bike_id": "ef6eac9f0f8d038f35ac620bd3c32d5b", "lon": -76.97331183333333, "rental_uris": {"ios": "https://dc.lft.to/lastmile_qr_scan", "android": "https://dc.lft.to/lastmile_qr_scan"}}, {"name": "eedf7e83fe4150fdaec09a0a9a74489f", "fusion_lat": 0.0, "type": "electric_bike", "lat": 38.93414966666667, "is_reserved": 0, "is_disabled": 0, "fusion_lon": 0.0, "bike_id": "eedf7e83fe4150fdaec09a0a9a74489f", "lon": -77.02511733333333, "rental_uris": {"ios": "https://dc.lft.to/lastmile_qr_scan", "android": "https://dc.lft.to/lastmile_qr_scan"}}, {"name": "0d7b67682e7b0a5b996c135fbc18f0be", "fusion_lat": 0.0, "type": "electric_scooter", "lat": 38.90447183333333, "is_reserved": 0, "is_disabled": 0, "fusion_lon": 0.0, "bike_id": "0d7b67682e7b0a5b996c135fbc18f0be", "lon": -76.97561933333333, "rental_uris": {"ios": "https://dc.lft.to/lastmile_qr_scan", "android": "https://dc.lft.to/lastmile_qr_scan"}}, {"name": "8d5735274503d6b5c6e869f3539ddc33", "fusion_lat": 0.0, "type": "electric_scooter", "lat": 38.91774916666667, "is_reserved": 0, "is_disabled": 0, "fusion_lon": 0.0, "bike_id": "8d5735274503d6b5c6e869f3539ddc33", "lon": -77.02313316666667, "rental_uris": {"ios": "https://dc.lft.to/lastmile_qr_scan", "android": "https://dc.lft.to/lastmile_qr_scan"}}, {"name": "57accfd89d2e645d1f26048cb991f4cb", "fusion_lat": 0.0, "type": "electric_scooter", "lat": 38.881209, "is_reserved": 0, "is_disabled": 0, "fusion_lon": 0.0, "bike_id": "57accfd89d2e645d1f26048cb991f4cb", "lon": -77.0134115, "rental_uris": {"ios": "https://dc.lft.to/lastmile_qr_scan", "android": "https://dc.lft.to/lastmile_qr_scan"}}, {"name": "75b4fd6faa3600d56decd41966cb58cd", "fusion_lat": 0.0, "type": "electric_scooter", "lat": 38.866597166666665, "is_reserved": 0, "is_disabled": 0, "fusion_lon": 0.0, "bike_id": "75b4fd6faa3600d56decd41966cb58cd", "lon": -76.98887366666666, "rental_uris": {"ios": "https://dc.lft.to/lastmile_qr_scan", "android": "https://dc.lft.to/lastmile_qr_scan"}}, {"name": "72ad7c608e86ca268791f36c11814600", "fusion_lat": 0.0, "type": "electric_scooter", "lat": 38.913108666666666, "is_reserved": 0, "is_disabled": 0, "fusion_lon": 0.0, "bike_id": "72ad7c608e86ca268791f36c11814600", "lon": -77.0202935, "rental_uris": {"ios": "https://dc.lft.to/lastmile_qr_scan", "android": "https://dc.lft.to/lastmile_qr_scan"}}, {"name": "57ee908abda30f20318e0db378ef75f3", "fusion_lat": 0.0, "type": "electric_scooter", "lat": 38.89727533333333, "is_reserved": 0, "is_disabled": 0, "fusion_lon": 0.0, "bike_id": "57ee908abda30f20318e0db378ef75f3", "lon": -77.00950383333333, "rental_uris": {"ios": "https://dc.lft.to/lastmile_qr_scan", "android": "https://dc.lft.to/lastmile_qr_scan"}}, {"name": "0839b141141fb2951810f8dc9988334e", "fusion_lat": 0.0, "type": "electric_scooter", "lat": 38.9031615, "is_reserved": 0, "is_disabled": 0, "fusion_lon": 0.0, "bike_id": "0839b141141fb2951810f8dc9988334e", "lon": -76.978043, "rental_uris": {"ios": "https://dc.lft.to/lastmile_qr_scan", "android": "https://dc.lft.to/lastmile_qr_scan"}}, {"name": "3d11d92cde0ece96d22691ebf49f1b84", "fusion_lat": 0.0, "type": "electric_scooter", "lat": 38.89232783333333, "is_reserved": 0, "is_disabled": 0, "fusion_lon": 0.0, "bike_id": "3d11d92cde0ece96d22691ebf49f1b84", "lon": -77.046584, "rental_uris": {"ios": "https://dc.lft.to/lastmile_qr_scan", "android": "https://dc.lft.to/lastmile_qr_scan"}}, {"name": "4644e6eb3eedb83313dba29e39c44b7e", "fusion_lat": 0.0, "type": "electric_scooter", "lat": 38.90505, "is_reserved": 0, "is_disabled": 0, "fusion_lon": 0.0, "bike_id": "4644e6eb3eedb83313dba29e39c44b7e", "lon": -77.02957916666666, "rental_uris": {"ios": "https://dc.lft.to/lastmile_qr_scan", "android": "https://dc.lft.to/lastmile_qr_scan"}}, {"name": "df214e5020b2d2865176196a8c7f690f", "fusion_lat": 0.0, "type": "electric_bike", "lat": 38.939726666666665, "is_reserved": 0, "is_disabled": 0, "fusion_lon": 0.0, "bike_id": "df214e5020b2d2865176196a8c7f690f", "lon": -77.02772233333333, "rental_uris": {"ios": "https://dc.lft.to/lastmile_qr_scan", "android": "https://dc.lft.to/lastmile_qr_scan"}}, {"name": "d3cd965eb4d3f51e5047e62827aa8edb", "fusion_lat": 0.0, "type": "electric_scooter", "lat": 38.90318366666666, "is_reserved": 0, "is_disabled": 0, "fusion_lon": 0.0, "bike_id": "d3cd965eb4d3f51e5047e62827aa8edb", "lon": -77.03657283333334, "rental_uris": {"ios": "https://dc.lft.to/lastmile_qr_scan", "android": "https://dc.lft.to/lastmile_qr_scan"}}, {"name": "680dffd0d3f93b272bde7def7512ce0c", "fusion_lat": 0.0, "type": "electric_scooter", "lat": 38.907240333333334, "is_reserved": 0, "is_disabled": 0, "fusion_lon": 0.0, "bike_id": "680dffd0d3f93b272bde7def7512ce0c", "lon": -77.00797366666667, "rental_uris": {"ios": "https://dc.lft.to/lastmile_qr_scan", "android": "https://dc.lft.to/lastmile_qr_scan"}}, {"name": "5d4fcd1603a0a8ef6a100dfa2f29191c", "fusion_lat": 0.0, "type": "electric_scooter", "lat": 38.893697333333336, "is_reserved": 0, "is_disabled": 0, "fusion_lon": 0.0, "bike_id": "5d4fcd1603a0a8ef6a100dfa2f29191c", "lon": -77.01179633333334, "rental_uris": {"ios": "https://dc.lft.to/lastmile_qr_scan", "android": "https://dc.lft.to/lastmile_qr_scan"}}, {"name": "af965860dbc057dcc19ba5b86ebfc903", "fusion_lat": 0.0, "type": "electric_bike", "lat": 38.9049765, "is_reserved": 0, "is_disabled": 0, "fusion_lon": 0.0, "bike_id": "af965860dbc057dcc19ba5b86ebfc903", "lon": -77.02970716666667, "rental_uris": {"ios": "https://dc.lft.to/lastmile_qr_scan", "android": "https://dc.lft.to/lastmile_qr_scan"}}, {"name": "e143c2bd50cf0ff1dda9ec4fb5bf53ff", "fusion_lat": 0.0, "type": "electric_bike", "lat": 38.85624466666667, "is_reserved": 0, "is_disabled": 0, "fusion_lon": 0.0, "bike_id": "e143c2bd50cf0ff1dda9ec4fb5bf53ff", "lon": -77.0853255, "rental_uris": {"ios": "https://dc.lft.to/lastmile_qr_scan", "android": "https://dc.lft.to/lastmile_qr_scan"}}, {"name": "77911ef28a2cdb4df047f3097988cbd8", "fusion_lat": 0.0, "type": "electric_scooter", "lat": 38.90033716666667, "is_reserved": 0, "is_disabled": 0, "fusion_lon": 0.0, "bike_id": "77911ef28a2cdb4df047f3097988cbd8", "lon": -77.01223233333333, "rental_uris": {"ios": "https://dc.lft.to/lastmile_qr_scan", "android": "https://dc.lft.to/lastmile_qr_scan"}}, {"name": "760ed2b123195b53ee2b2e11655c4743", "fusion_lat": 0.0, "type": "electric_scooter", "lat": 38.912606, "is_reserved": 0, "is_disabled": 0, "fusion_lon": 0.0, "bike_id": "760ed2b123195b53ee2b2e11655c4743", "lon": -77.0386835, "rental_uris": {"ios": "https://dc.lft.to/lastmile_qr_scan", "android": "https://dc.lft.to/lastmile_qr_scan"}}, {"name": "0b654ca82c0fec88971403244ba2d7cd", "fusion_lat": 0.0, "type": "electric_scooter", "lat": 38.86659433333333, "is_reserved": 0, "is_disabled": 0, "fusion_lon": 0.0, "bike_id": "0b654ca82c0fec88971403244ba2d7cd", "lon": -76.98882433333333, "rental_uris": {"ios": "https://dc.lft.to/lastmile_qr_scan", "android": "https://dc.lft.to/lastmile_qr_scan"}}, {"name": "2426ad1645bf09227b0f9cad4928492b", "fusion_lat": 0.0, "type": "electric_scooter", "lat": 38.90287583333333, "is_reserved": 0, "is_disabled": 0, "fusion_lon": 0.0, "bike_id": "2426ad1645bf09227b0f9cad4928492b", "lon": -77.03935116666666, "rental_uris": {"ios": "https://dc.lft.to/lastmile_qr_scan", "android": "https://dc.lft.to/lastmile_qr_scan"}}, {"name": "824a87e6e773bb1d69740f27087a2d0f", "fusion_lat": 0.0, "type": "electric_scooter", "lat": 38.91855433333333, "is_reserved": 0, "is_disabled": 0, "fusion_lon": 0.0, "bike_id": "824a87e6e773bb1d69740f27087a2d0f", "lon": -77.04501966666666, "rental_uris": {"ios": "https://dc.lft.to/lastmile_qr_scan", "android": "https://dc.lft.to/lastmile_qr_scan"}}, {"name": "6aa5564206355c5feaddba58321712c9", "fusion_lat": 0.0, "type": "electric_scooter", "lat": 38.905428666666666, "is_reserved": 0, "is_disabled": 0, "fusion_lon": 0.0, "bike_id": "6aa5564206355c5feaddba58321712c9", "lon": -77.0627185, "rental_uris": {"ios": "https://dc.lft.to/lastmile_qr_scan", "android": "https://dc.lft.to/lastmile_qr_scan"}}, {"name": "ea2fc949f6513012403e966924d09db9", "fusion_lat": 0.0, "type": "electric_scooter", "lat": 38.930827666666666, "is_reserved": 0, "is_disabled": 0, "fusion_lon": 0.0, "bike_id": "ea2fc949f6513012403e966924d09db9", "lon": -77.02795216666667, "rental_uris": {"ios": "https://dc.lft.to/lastmile_qr_scan", "android": "https://dc.lft.to/lastmile_qr_scan"}}, {"name": "560a61a476d0a2ba36a29b4a6b25a653", "fusion_lat": 0.0, "type": "electric_scooter", "lat": 38.931311, "is_reserved": 0, "is_disabled": 0, "fusion_lon": 0.0, "bike_id": "560a61a476d0a2ba36a29b4a6b25a653", "lon": -77.02199683333333, "rental_uris": {"ios": "https://dc.lft.to/lastmile_qr_scan", "android": "https://dc.lft.to/lastmile_qr_scan"}}, {"name": "b2b67ba13d737c731af0042ff7c97600", "fusion_lat": 0.0, "type": "electric_scooter", "lat": 38.8974915, "is_reserved": 0, "is_disabled": 0, "fusion_lon": 0.0, "bike_id": "b2b67ba13d737c731af0042ff7c97600", "lon": -76.99610633333333, "rental_uris": {"ios": "https://dc.lft.to/lastmile_qr_scan", "android": "https://dc.lft.to/lastmile_qr_scan"}}, {"name": "a11768d11451a5cceb81bf4701e820ca", "fusion_lat": 0.0, "type": "electric_bike", "lat": 38.882806333333335, "is_reserved": 0, "is_disabled": 0, "fusion_lon": 0.0, "bike_id": "a11768d11451a5cceb81bf4701e820ca", "lon": -76.93239266666667, "rental_uris": {"ios": "https://dc.lft.to/lastmile_qr_scan", "android": "https://dc.lft.to/lastmile_qr_scan"}}, {"name": "c74e9715d3c7788684d76d0a84423e1e", "fusion_lat": 0.0, "type": "electric_scooter", "lat": 38.920704666666666, "is_reserved": 0, "is_disabled": 0, "fusion_lon": 0.0, "bike_id": "c74e9715d3c7788684d76d0a84423e1e", "lon": -77.03217683333334, "rental_uris": {"ios": "https://dc.lft.to/lastmile_qr_scan", "android": "https://dc.lft.to/lastmile_qr_scan"}}, {"name": "1472e4d6cec8f4c235366a84074c4b38", "fusion_lat": 0.0, "type": "electric_bike", "lat": 38.89901283333333, "is_reserved": 0, "is_disabled": 0, "fusion_lon": 0.0, "bike_id": "1472e4d6cec8f4c235366a84074c4b38", "lon": -76.98959266666667, "rental_uris": {"ios": "https://dc.lft.to/lastmile_qr_scan", "android": "https://dc.lft.to/lastmile_qr_scan"}}, {"name": "8ca1528a681801170031e1e52165bec8", "fusion_lat": 0.0, "type": "electric_scooter", "lat": 38.92469233333333, "is_reserved": 0, "is_disabled": 0, "fusion_lon": 0.0, "bike_id": "8ca1528a681801170031e1e52165bec8", "lon": -77.02712016666666, "rental_uris": {"ios": "https://dc.lft.to/lastmile_qr_scan", "android": "https://dc.lft.to/lastmile_qr_scan"}}, {"name": "f2fca94df6df302335cafcdd28774e03", "fusion_lat": 0.0, "type": "electric_scooter", "lat": 38.915572833333336, "is_reserved": 0, "is_disabled": 0, "fusion_lon": 0.0, "bike_id": "f2fca94df6df302335cafcdd28774e03", "lon": -77.03832633333333, "rental_uris": {"ios": "https://dc.lft.to/lastmile_qr_scan", "android": "https://dc.lft.to/lastmile_qr_scan"}}, {"name": "6febfb14eb8545a8207422713ef5130b", "fusion_lat": 0.0, "type": "electric_scooter", "lat": 38.900462, "is_reserved": 0, "is_disabled": 0, "fusion_lon": 0.0, "bike_id": "6febfb14eb8545a8207422713ef5130b", "lon": -76.98827983333334, "rental_uris": {"ios": "https://dc.lft.to/lastmile_qr_scan", "android": "https://dc.lft.to/lastmile_qr_scan"}}, {"name": "6383b87bf5bcb12a525620f076702fd8", "fusion_lat": 0.0, "type": "electric_scooter", "lat": 38.89224266666667, "is_reserved": 0, "is_disabled": 0, "fusion_lon": 0.0, "bike_id": "6383b87bf5bcb12a525620f076702fd8", "lon": -77.03985883333333, "rental_uris": {"ios": "https://dc.lft.to/lastmile_qr_scan", "android": "https://dc.lft.to/lastmile_qr_scan"}}, {"name": "dd1857559d5f5eecac6b6a43d16a09b0", "fusion_lat": 0.0, "type": "electric_scooter", "lat": 38.924622, "is_reserved": 0, "is_disabled": 0, "fusion_lon": 0.0, "bike_id": "dd1857559d5f5eecac6b6a43d16a09b0", "lon": -77.05234883333334, "rental_uris": {"ios": "https://dc.lft.to/lastmile_qr_scan", "android": "https://dc.lft.to/lastmile_qr_scan"}}, {"name": "1cbe442401b6d5e37857ad1824249603", "fusion_lat": 0.0, "type": "electric_scooter", "lat": 38.9347235, "is_reserved": 0, "is_disabled": 0, "fusion_lon": 0.0, "bike_id": "1cbe442401b6d5e37857ad1824249603", "lon": -77.03514266666667, "rental_uris": {"ios": "https://dc.lft.to/lastmile_qr_scan", "android": "https://dc.lft.to/lastmile_qr_scan"}}, {"name": "8840a724f8ee3ffa528c549c9ad99067", "fusion_lat": 0.0, "type": "electric_scooter", "lat": 38.92824816666667, "is_reserved": 0, "is_disabled": 0, "fusion_lon": 0.0, "bike_id": "8840a724f8ee3ffa528c549c9ad99067", "lon": -77.0225915, "rental_uris": {"ios": "https://dc.lft.to/lastmile_qr_scan", "android": "https://dc.lft.to/lastmile_qr_scan"}}, {"name": "84e4a4f67dd158dcba5774b8151ba374", "fusion_lat": 0.0, "type": "electric_scooter", "lat": 38.909754166666666, "is_reserved": 0, "is_disabled": 0, "fusion_lon": 0.0, "bike_id": "84e4a4f67dd158dcba5774b8151ba374", "lon": -77.04868816666666, "rental_uris": {"ios": "https://dc.lft.to/lastmile_qr_scan", "android": "https://dc.lft.to/lastmile_qr_scan"}}, {"name": "eca8cf4dcb3a0e20a7e491e6e0bb05e8", "fusion_lat": 0.0, "type": "electric_scooter", "lat": 38.92244066666667, "is_reserved": 0, "is_disabled": 0, "fusion_lon": 0.0, "bike_id": "eca8cf4dcb3a0e20a7e491e6e0bb05e8", "lon": -77.04718633333333, "rental_uris": {"ios": "https://dc.lft.to/lastmile_qr_scan", "android": "https://dc.lft.to/lastmile_qr_scan"}}, {"name": "450b7e2d62e86562b2eda8a4e53e35e0", "fusion_lat": 0.0, "type": "electric_scooter", "lat": 38.962292833333336, "is_reserved": 0, "is_disabled": 0, "fusion_lon": 0.0, "bike_id": "450b7e2d62e86562b2eda8a4e53e35e0", "lon": -77.02981133333333, "rental_uris": {"ios": "https://dc.lft.to/lastmile_qr_scan", "android": "https://dc.lft.to/lastmile_qr_scan"}}, {"name": "4dcbbe7488844943aeda9d0002ad7bb5", "fusion_lat": 0.0, "type": "electric_scooter", "lat": 38.88230216666667, "is_reserved": 0, "is_disabled": 0, "fusion_lon": 0.0, "bike_id": "4dcbbe7488844943aeda9d0002ad7bb5", "lon": -77.02581883333333, "rental_uris": {"ios": "https://dc.lft.to/lastmile_qr_scan", "android": "https://dc.lft.to/lastmile_qr_scan"}}, {"name": "182b539598052f232c93937092f67284", "fusion_lat": 0.0, "type": "electric_scooter", "lat": 38.92580383333333, "is_reserved": 0, "is_disabled": 0, "fusion_lon": 0.0, "bike_id": "182b539598052f232c93937092f67284", "lon": -76.9949125, "rental_uris": {"ios": "https://dc.lft.to/lastmile_qr_scan", "android": "https://dc.lft.to/lastmile_qr_scan"}}, {"name": "fb53f97798af26c27668f7f85685c3ea", "fusion_lat": 0.0, "type": "electric_scooter", "lat": 38.9255255, "is_reserved": 0, "is_disabled": 0, "fusion_lon": 0.0, "bike_id": "fb53f97798af26c27668f7f85685c3ea", "lon": -77.03223516666667, "rental_uris": {"ios": "https://dc.lft.to/lastmile_qr_scan", "android": "https://dc.lft.to/lastmile_qr_scan"}}, {"name": "865985961c1f775bc0776df92d891b34", "fusion_lat": 0.0, "type": "electric_scooter", "lat": 38.905735666666665, "is_reserved": 0, "is_disabled": 0, "fusion_lon": 0.0, "bike_id": "865985961c1f775bc0776df92d891b34", "lon": -77.04880766666666, "rental_uris": {"ios": "https://dc.lft.to/lastmile_qr_scan", "android": "https://dc.lft.to/lastmile_qr_scan"}}, {"name": "a7efd4751117fde6463cfe08c0124252", "fusion_lat": 0.0, "type": "electric_scooter", "lat": 38.9113585, "is_reserved": 0, "is_disabled": 0, "fusion_lon": 0.0, "bike_id": "a7efd4751117fde6463cfe08c0124252", "lon": -77.04194233333334, "rental_uris": {"ios": "https://dc.lft.to/lastmile_qr_scan", "android": "https://dc.lft.to/lastmile_qr_scan"}}, {"name": "62b345826e37c90479c89968fbaa45e1", "fusion_lat": 0.0, "type": "electric_scooter", "lat": 38.861132, "is_reserved": 0, "is_disabled": 0, "fusion_lon": 0.0, "bike_id": "62b345826e37c90479c89968fbaa45e1", "lon": -76.98896183333333, "rental_uris": {"ios": "https://dc.lft.to/lastmile_qr_scan", "android": "https://dc.lft.to/lastmile_qr_scan"}}, {"name": "5e46d7883133e104106e5f36ceb28d10", "fusion_lat": 0.0, "type": "electric_scooter", "lat": 38.93875233333333, "is_reserved": 0, "is_disabled": 0, "fusion_lon": 0.0, "bike_id": "5e46d7883133e104106e5f36ceb28d10", "lon": -77.03255833333333, "rental_uris": {"ios": "https://dc.lft.to/lastmile_qr_scan", "android": "https://dc.lft.to/lastmile_qr_scan"}}, {"name": "f61ab2b9e8199cbe1fedabb8058edbe2", "fusion_lat": 0.0, "type": "electric_scooter", "lat": 38.880370666666664, "is_reserved": 0, "is_disabled": 0, "fusion_lon": 0.0, "bike_id": "f61ab2b9e8199cbe1fedabb8058edbe2", "lon": -77.030786, "rental_uris": {"ios": "https://dc.lft.to/lastmile_qr_scan", "android": "https://dc.lft.to/lastmile_qr_scan"}}, {"name": "990201f8ba212a61bab9d3659b35b437", "fusion_lat": 0.0, "type": "electric_scooter", "lat": 38.900342, "is_reserved": 0, "is_disabled": 0, "fusion_lon": 0.0, "bike_id": "990201f8ba212a61bab9d3659b35b437", "lon": -77.02614816666667, "rental_uris": {"ios": "https://dc.lft.to/lastmile_qr_scan", "android": "https://dc.lft.to/lastmile_qr_scan"}}, {"name": "111b2a6fed4a38591e03754c2806c177", "fusion_lat": 0.0, "type": "electric_bike", "lat": 38.906256, "is_reserved": 0, "is_disabled": 0, "fusion_lon": 0.0, "bike_id": "111b2a6fed4a38591e03754c2806c177", "lon": -76.98609, "rental_uris": {"ios": "https://dc.lft.to/lastmile_qr_scan", "android": "https://dc.lft.to/lastmile_qr_scan"}}, {"name": "dca63717d6099c548f07f7cce2031bea", "fusion_lat": 0.0, "type": "electric_scooter", "lat": 38.919186833333335, "is_reserved": 0, "is_disabled": 0, "fusion_lon": 0.0, "bike_id": "dca63717d6099c548f07f7cce2031bea", "lon": -77.036238, "rental_uris": {"ios": "https://dc.lft.to/lastmile_qr_scan", "android": "https://dc.lft.to/lastmile_qr_scan"}}, {"name": "2a32e6c728d248f95549f5a6219b664e", "fusion_lat": 0.0, "type": "electric_bike", "lat": 38.960169666666665, "is_reserved": 0, "is_disabled": 0, "fusion_lon": 0.0, "bike_id": "2a32e6c728d248f95549f5a6219b664e", "lon": -76.99867833333333, "rental_uris": {"ios": "https://dc.lft.to/lastmile_qr_scan", "android": "https://dc.lft.to/lastmile_qr_scan"}}, {"name": "0f9b520764420df980b8d8100b248f1d", "fusion_lat": 0.0, "type": "electric_scooter", "lat": 38.93499083333333, "is_reserved": 0, "is_disabled": 0, "fusion_lon": 0.0, "bike_id": "0f9b520764420df980b8d8100b248f1d", "lon": -77.02547783333333, "rental_uris": {"ios": "https://dc.lft.to/lastmile_qr_scan", "android": "https://dc.lft.to/lastmile_qr_scan"}}, {"name": "50fc9a95db9e491a7c678be1f4a1161b", "fusion_lat": 0.0, "type": "electric_scooter", "lat": 38.898952333333334, "is_reserved": 0, "is_disabled": 0, "fusion_lon": 0.0, "bike_id": "50fc9a95db9e491a7c678be1f4a1161b", "lon": -77.02177666666667, "rental_uris": {"ios": "https://dc.lft.to/lastmile_qr_scan", "android": "https://dc.lft.to/lastmile_qr_scan"}}, {"name": "47c1c58a57c4f0c34edba15b626771b8", "fusion_lat": 0.0, "type": "electric_scooter", "lat": 38.90549866666667, "is_reserved": 0, "is_disabled": 0, "fusion_lon": 0.0, "bike_id": "47c1c58a57c4f0c34edba15b626771b8", "lon": -77.0474765, "rental_uris": {"ios": "https://dc.lft.to/lastmile_qr_scan", "android": "https://dc.lft.to/lastmile_qr_scan"}}, {"name": "9fc80fbfe3655195b34290fd0dce1174", "fusion_lat": 0.0, "type": "electric_scooter", "lat": 38.88917816666667, "is_reserved": 0, "is_disabled": 0, "fusion_lon": 0.0, "bike_id": "9fc80fbfe3655195b34290fd0dce1174", "lon": -76.953726, "rental_uris": {"ios": "https://dc.lft.to/lastmile_qr_scan", "android": "https://dc.lft.to/lastmile_qr_scan"}}, {"name": "cf6083baf6ca4fc8ebee738650979583", "fusion_lat": 0.0, "type": "electric_scooter", "lat": 38.92110066666667, "is_reserved": 0, "is_disabled": 0, "fusion_lon": 0.0, "bike_id": "cf6083baf6ca4fc8ebee738650979583", "lon": -77.0438985, "rental_uris": {"ios": "https://dc.lft.to/lastmile_qr_scan", "android": "https://dc.lft.to/lastmile_qr_scan"}}, {"name": "3447055c00cc99ff2418a8b79bb1384c", "fusion_lat": 0.0, "type": "electric_scooter", "lat": 38.928921833333334, "is_reserved": 0, "is_disabled": 0, "fusion_lon": 0.0, "bike_id": "3447055c00cc99ff2418a8b79bb1384c", "lon": -77.02311633333333, "rental_uris": {"ios": "https://dc.lft.to/lastmile_qr_scan", "android": "https://dc.lft.to/lastmile_qr_scan"}}, {"name": "324b30030bbc862e2bb81f26bd99066d", "fusion_lat": 0.0, "type": "electric_scooter", "lat": 38.89838366666667, "is_reserved": 0, "is_disabled": 0, "fusion_lon": 0.0, "bike_id": "324b30030bbc862e2bb81f26bd99066d", "lon": -77.03314333333333, "rental_uris": {"ios": "https://dc.lft.to/lastmile_qr_scan", "android": "https://dc.lft.to/lastmile_qr_scan"}}, {"name": "1f9991a9b4dbebbe5dfde0a2b15d842a", "fusion_lat": 0.0, "type": "electric_scooter", "lat": 38.96563233333333, "is_reserved": 0, "is_disabled": 0, "fusion_lon": 0.0, "bike_id": "1f9991a9b4dbebbe5dfde0a2b15d842a", "lon": -77.0162695, "rental_uris": {"ios": "https://dc.lft.to/lastmile_qr_scan", "android": "https://dc.lft.to/lastmile_qr_scan"}}, {"name": "68802d812c5bcd733a90179b0d08b0a1", "fusion_lat": 0.0, "type": "electric_scooter", "lat": 38.938773833333336, "is_reserved": 0, "is_disabled": 0, "fusion_lon": 0.0, "bike_id": "68802d812c5bcd733a90179b0d08b0a1", "lon": -77.032581, "rental_uris": {"ios": "https://dc.lft.to/lastmile_qr_scan", "android": "https://dc.lft.to/lastmile_qr_scan"}}, {"name": "59294246a57f64aca61446b54cc33f0d", "fusion_lat": 0.0, "type": "electric_bike", "lat": 38.91311233333333, "is_reserved": 0, "is_disabled": 0, "fusion_lon": 0.0, "bike_id": "59294246a57f64aca61446b54cc33f0d", "lon": -76.97611483333333, "rental_uris": {"ios": "https://dc.lft.to/lastmile_qr_scan", "android": "https://dc.lft.to/lastmile_qr_scan"}}, {"name": "fd4d5d0612ab24f5eb8d25609a09ec9c", "fusion_lat": 0.0, "type": "electric_scooter", "lat": 38.930145333333336, "is_reserved": 0, "is_disabled": 0, "fusion_lon": 0.0, "bike_id": "fd4d5d0612ab24f5eb8d25609a09ec9c", "lon": -77.03778166666666, "rental_uris": {"ios": "https://dc.lft.to/lastmile_qr_scan", "android": "https://dc.lft.to/lastmile_qr_scan"}}, {"name": "769f5ad852c9464beb53e2ec4d358548", "fusion_lat": 0.0, "type": "electric_scooter", "lat": 38.8987075, "is_reserved": 0, "is_disabled": 0, "fusion_lon": 0.0, "bike_id": "769f5ad852c9464beb53e2ec4d358548", "lon": -77.01993883333333, "rental_uris": {"ios": "https://dc.lft.to/lastmile_qr_scan", "android": "https://dc.lft.to/lastmile_qr_scan"}}, {"name": "1cdb815ae33e5763bb4020a58ee12cfc", "fusion_lat": 0.0, "type": "electric_scooter", "lat": 38.90573933333334, "is_reserved": 0, "is_disabled": 0, "fusion_lon": 0.0, "bike_id": "1cdb815ae33e5763bb4020a58ee12cfc", "lon": -77.04865916666667, "rental_uris": {"ios": "https://dc.lft.to/lastmile_qr_scan", "android": "https://dc.lft.to/lastmile_qr_scan"}}, {"name": "df78ac66316d1bad91f46044751b98f2", "fusion_lat": 0.0, "type": "electric_scooter", "lat": 38.9097055, "is_reserved": 0, "is_disabled": 0, "fusion_lon": 0.0, "bike_id": "df78ac66316d1bad91f46044751b98f2", "lon": -77.017128, "rental_uris": {"ios": "https://dc.lft.to/lastmile_qr_scan", "android": "https://dc.lft.to/lastmile_qr_scan"}}, {"name": "584889994fc4dd7bd8d57883fab6dc15", "fusion_lat": 0.0, "type": "electric_scooter", "lat": 38.93530616666666, "is_reserved": 0, "is_disabled": 0, "fusion_lon": 0.0, "bike_id": "584889994fc4dd7bd8d57883fab6dc15", "lon": -77.03270983333333, "rental_uris": {"ios": "https://dc.lft.to/lastmile_qr_scan", "android": "https://dc.lft.to/lastmile_qr_scan"}}, {"name": "1f2b9518f94ca3f565aa66b347dde87e", "fusion_lat": 0.0, "type": "electric_scooter", "lat": 38.902792833333336, "is_reserved": 0, "is_disabled": 0, "fusion_lon": 0.0, "bike_id": "1f2b9518f94ca3f565aa66b347dde87e", "lon": -77.032111, "rental_uris": {"ios": "https://dc.lft.to/lastmile_qr_scan", "android": "https://dc.lft.to/lastmile_qr_scan"}}, {"name": "dbc3b1bc4e77ae9e414836922bc25bb6", "fusion_lat": 0.0, "type": "electric_scooter", "lat": 38.918143, "is_reserved": 0, "is_disabled": 0, "fusion_lon": 0.0, "bike_id": "dbc3b1bc4e77ae9e414836922bc25bb6", "lon": -77.011492, "rental_uris": {"ios": "https://dc.lft.to/lastmile_qr_scan", "android": "https://dc.lft.to/lastmile_qr_scan"}}, {"name": "c8881f2a290aff7039ff7da2a6e8631b", "fusion_lat": 0.0, "type": "electric_scooter", "lat": 38.92510883333333, "is_reserved": 0, "is_disabled": 0, "fusion_lon": 0.0, "bike_id": "c8881f2a290aff7039ff7da2a6e8631b", "lon": -77.0238955, "rental_uris": {"ios": "https://dc.lft.to/lastmile_qr_scan", "android": "https://dc.lft.to/lastmile_qr_scan"}}, {"name": "0e19df8cedb601fbee0623af00d48218", "fusion_lat": 0.0, "type": "electric_scooter", "lat": 38.90467916666667, "is_reserved": 0, "is_disabled": 0, "fusion_lon": 0.0, "bike_id": "0e19df8cedb601fbee0623af00d48218", "lon": -77.0416155, "rental_uris": {"ios": "https://dc.lft.to/lastmile_qr_scan", "android": "https://dc.lft.to/lastmile_qr_scan"}}, {"name": "69c18ee64805b99d1423f92ddee0cb08", "fusion_lat": 0.0, "type": "electric_bike", "lat": 38.95366833333333, "is_reserved": 0, "is_disabled": 0, "fusion_lon": 0.0, "bike_id": "69c18ee64805b99d1423f92ddee0cb08", "lon": -77.088584, "rental_uris": {"ios": "https://dc.lft.to/lastmile_qr_scan", "android": "https://dc.lft.to/lastmile_qr_scan"}}, {"name": "fb3a1f47e29163d733a87e8dbf9b7e36", "fusion_lat": 0.0, "type": "electric_scooter", "lat": 38.89735483333333, "is_reserved": 0, "is_disabled": 0, "fusion_lon": 0.0, "bike_id": "fb3a1f47e29163d733a87e8dbf9b7e36", "lon": -77.04656816666666, "rental_uris": {"ios": "https://dc.lft.to/lastmile_qr_scan", "android": "https://dc.lft.to/lastmile_qr_scan"}}, {"name": "d6be2f6b21d3898f9d85e1dd1d68fa16", "fusion_lat": 0.0, "type": "electric_scooter", "lat": 38.896724166666665, "is_reserved": 0, "is_disabled": 0, "fusion_lon": 0.0, "bike_id": "d6be2f6b21d3898f9d85e1dd1d68fa16", "lon": -77.04877416666666, "rental_uris": {"ios": "https://dc.lft.to/lastmile_qr_scan", "android": "https://dc.lft.to/lastmile_qr_scan"}}, {"name": "15031f3702bba44f1f5ae0545522d07f", "fusion_lat": 0.0, "type": "electric_scooter", "lat": 38.8922725, "is_reserved": 0, "is_disabled": 0, "fusion_lon": 0.0, "bike_id": "15031f3702bba44f1f5ae0545522d07f", "lon": -77.0450835, "rental_uris": {"ios": "https://dc.lft.to/lastmile_qr_scan", "android": "https://dc.lft.to/lastmile_qr_scan"}}, {"name": "097e1d98b8df2119d1525ec535e8d775", "fusion_lat": 0.0, "type": "electric_scooter", "lat": 38.924281, "is_reserved": 0, "is_disabled": 0, "fusion_lon": 0.0, "bike_id": "097e1d98b8df2119d1525ec535e8d775", "lon": -77.05179116666666, "rental_uris": {"ios": "https://dc.lft.to/lastmile_qr_scan", "android": "https://dc.lft.to/lastmile_qr_scan"}}, {"name": "24a631507eff31361634240fbcc24ee6", "fusion_lat": 0.0, "type": "electric_scooter", "lat": 38.9498035, "is_reserved": 0, "is_disabled": 0, "fusion_lon": 0.0, "bike_id": "24a631507eff31361634240fbcc24ee6", "lon": -77.03497366666667, "rental_uris": {"ios": "https://dc.lft.to/lastmile_qr_scan", "android": "https://dc.lft.to/lastmile_qr_scan"}}, {"name": "a3fabceaa74eff4e726d36f7c3a6fa3a", "fusion_lat": 0.0, "type": "electric_scooter", "lat": 38.90465533333333, "is_reserved": 0, "is_disabled": 0, "fusion_lon": 0.0, "bike_id": "a3fabceaa74eff4e726d36f7c3a6fa3a", "lon": -77.04171366666667, "rental_uris": {"ios": "https://dc.lft.to/lastmile_qr_scan", "android": "https://dc.lft.to/lastmile_qr_scan"}}, {"name": "0f41218b8726c65bbfc59f4b1a06ead2", "fusion_lat": 0.0, "type": "electric_scooter", "lat": 38.89552533333333, "is_reserved": 0, "is_disabled": 0, "fusion_lon": 0.0, "bike_id": "0f41218b8726c65bbfc59f4b1a06ead2", "lon": -77.030994, "rental_uris": {"ios": "https://dc.lft.to/lastmile_qr_scan", "android": "https://dc.lft.to/lastmile_qr_scan"}}, {"name": "4206d1f1aa106486b6ff31aeb822a495", "fusion_lat": 0.0, "type": "electric_scooter", "lat": 38.90969783333333, "is_reserved": 0, "is_disabled": 0, "fusion_lon": 0.0, "bike_id": "4206d1f1aa106486b6ff31aeb822a495", "lon": -77.0447565, "rental_uris": {"ios": "https://dc.lft.to/lastmile_qr_scan", "android": "https://dc.lft.to/lastmile_qr_scan"}}, {"name": "b0c3fb6291e6048ee178e63bf31280dc", "fusion_lat": 0.0, "type": "electric_scooter", "lat": 38.919302, "is_reserved": 0, "is_disabled": 0, "fusion_lon": 0.0, "bike_id": "b0c3fb6291e6048ee178e63bf31280dc", "lon": -77.02366233333333, "rental_uris": {"ios": "https://dc.lft.to/lastmile_qr_scan", "android": "https://dc.lft.to/lastmile_qr_scan"}},