{"data": {"bikes": [{"name": "2ea63edd55d8cf8e2a49e3ddfe654cd4", "is_reserved": 0, "type": "electric_scooter", "rental_uris": {"ios": "https://dc.lft.to/lastmile_qr_scan", "android": "https://dc.lft.to/lastmile_qr_scan"}, "lat": 38.93574066666667, "lon": -77.037379, "bike_id": "2ea63edd55d8cf8e2a49e3ddfe654cd4", "fusion_lat": 0.0, "is_disabled": 0, "fusion_lon": 0.0}, {"name": "99cdb74800c31c34051df6564c427b29", "is_reserved": 0, "type": "electric_scooter", "rental_uris": {"ios": "https://dc.lft.to/lastmile_qr_scan", "android": "https://dc.lft.to/lastmile_qr_scan"}, "lat": 38.92056516666667, "lon": -76.99884366666667, "bike_id": "99cdb74800c31c34051df6564c427b29", "fusion_lat": 0.0, "is_disabled": 0, "fusion_lon": 0.0}, {"name": "37e765876a8f363b00983761a877e9b0", "is_reserved": 0, "type": "electric_scooter", "rental_uris": {"ios": "https://dc.lft.to/lastmile_qr_scan", "android": "https://dc.lft.to/lastmile_qr_scan"}, "lat": 38.90313166666667, "lon": -77.05910716666666, "bike_id": "37e765876a8f363b00983761a877e9b0", "fusion_lat": 0.0, "is_disabled": 0, "fusion_lon": 0.0}, {"name": "da9e4fa4fef1e2f248821465a07db458", "is_reserved": 0, "type": "electric_scooter", "rental_uris": {"ios": "https://dc.lft.to/lastmile_qr_scan", "android": "https://dc.lft.to/lastmile_qr_scan"}, "lat": 38.9271175, "lon": -77.0209925, "bike_id": "da9e4fa4fef1e2f248821465a07db458", "fusion_lat": 0.0, "is_disabled": 0, "fusion_lon": 0.0}, {"name": "8c9ea811529d58cfe35b5064ce3e566c", "is_reserved": 0, "type": "electric_bike", "rental_uris": {"ios": "https://dc.lft.to/lastmile_qr_scan", "android": "https://dc.lft.to/lastmile_qr_scan"}, "lat": 38.82802316666667, "lon": -77.12489, "bike_id": "8c9ea811529d58cfe35b5064ce3e566c", "fusion_lat": 0.0, "is_disabled": 0, "fusion_lon": 0.0}, {"name": "3eae1d9b6e7dc1eb44458b77ffe5cdbf", "is_reserved": 0, "type": "electric_scooter", "rental_uris": {"ios": "https://dc.lft.to/lastmile_qr_scan", "android": "https://dc.lft.to/lastmile_qr_scan"}, "lat": 38.919488333333334, "lon": -77.0342615, "bike_id": "3eae1d9b6e7dc1eb44458b77ffe5cdbf", "fusion_lat": 0.0, "is_disabled": 0, "fusion_lon": 0.0}, {"name": "13f6787e82eca708cb35f8616975f259", "is_reserved": 0, "type": "electric_scooter", "rental_uris": {"ios": "https://dc.lft.to/lastmile_qr_scan", "android": "https://dc.lft.to/lastmile_qr_scan"}, "lat": 38.898867833333334, "lon": -77.02174833333333, "bike_id": "13f6787e82eca708cb35f8616975f259", "fusion_lat": 0.0, "is_disabled": 0, "fusion_lon": 0.0}, {"name": "643651299284f8ae8c4edf4d4fe6262c", "is_reserved": 0, "type": "electric_scooter", "rental_uris": {"ios": "https://dc.lft.to/lastmile_qr_scan", "android": "https://dc.lft.to/lastmile_qr_scan"}, "lat": 38.9011765, "lon": -77.02979416666666, "bike_id": "643651299284f8ae8c4edf4d4fe6262c", "fusion_lat": 0.0, "is_disabled": 0, "fusion_lon": 0.0}, {"name": "064b0c388c6d71c5d0ad88403c23faa8", "is_reserved": 0, "type": "electric_scooter", "rental_uris": {"ios": "https://dc.lft.to/lastmile_qr_scan", "android": "https://dc.lft.to/lastmile_qr_scan"}, "lat": 38.90381033333333, "lon": -76.93753583333333, "bike_id": "064b0c388c6d71c5d0ad88403c23faa8", "fusion_lat": 0.0, "is_disabled": 0, "fusion_lon": 0.0}, {"name": "ea36a6987530271007ede20a9a9f9d45", "is_reserved": 0, "type": "electric_scooter", "rental_uris": {"ios": "https://dc.lft.to/lastmile_qr_scan", "android": "https://dc.lft.to/lastmile_qr_scan"}, "lat": 38.915575833333335, "lon": -77.0382765, "bike_id": "ea36a6987530271007ede20a9a9f9d45", "fusion_lat": 0.0, "is_disabled": 0, "fusion_lon": 0.0}, {"name": "42762c91bee61eafbf6f4c0d3a72e413", "is_reserved": 0, "type": "electric_scooter", "rental_uris": {"ios": "https://dc.lft.to/lastmile_qr_scan", "android": "https://dc.lft.to/lastmile_qr_scan"}, "lat": 38.931164, "lon": -77.03608216666667, "bike_id": "42762c91bee61eafbf6f4c0d3a72e413", "fusion_lat": 0.0, "is_disabled": 0, "fusion_lon": 0.0}, {"name": "aadfede1630883fe96f715608e11f887", "is_reserved": 0, "type": "electric_scooter", "rental_uris": {"ios": "https://dc.lft.to/lastmile_qr_scan", "android": "https://dc.lft.to/lastmile_qr_scan"}, "lat": 38.907667333333336, "lon": -77.05650233333333, "bike_id": "aadfede1630883fe96f715608e11f887", "fusion_lat": 0.0, "is_disabled": 0, "fusion_lon": 0.0}, {"name": "27d448a54c3b0c4e0a25cef6e501a32f", "is_reserved": 0, "type": "electric_bike", "rental_uris": {"ios": "https://dc.lft.to/lastmile_qr_scan", "android": "https://dc.lft.to/lastmile_qr_scan"}, "lat": 38.92466816666666, "lon": -77.20844866666667, "bike_id": "27d448a54c3b0c4e0a25cef6e501a32f", "fusion_lat": 0.0, "is_disabled": 0, "fusion_lon": 0.0}, {"name": "58b9d135284d740ec12229c6bc81af39", "is_reserved": 0, "type": "electric_scooter", "rental_uris": {"ios": "https://dc.lft.to/lastmile_qr_scan", "android": "https://dc.lft.to/lastmile_qr_scan"}, "lat": 38.90033283333333, "lon": -76.987662, "bike_id": "58b9d135284d740ec12229c6bc81af39", "fusion_lat": 0.0, "is_disabled": 0, "fusion_lon": 0.0}, {"name": "fb4b46cb4b9705da50b6739554c1eb80", "is_reserved": 0, "type": "electric_scooter", "rental_uris": {"ios": "https://dc.lft.to/lastmile_qr_scan", "android": "https://dc.lft.to/lastmile_qr_scan"}, "lat": 38.909757166666665, "lon": -77.03275016666667, "bike_id": "fb4b46cb4b9705da50b6739554c1eb80", "fusion_lat": 0.0, "is_disabled": 0, "fusion_lon": 0.0}, {"name": "9f610070022b3a4bb8d0ac0a758ba968", "is_reserved": 0, "type": "electric_scooter", "rental_uris": {"ios": "https://dc.lft.to/lastmile_qr_scan", "android": "https://dc.lft.to/lastmile_qr_scan"}, "lat": 38.91101466666667, "lon": -77.03191133333333, "bike_id": "9f610070022b3a4bb8d0ac0a758ba968", "fusion_lat": 0.0, "is_disabled": 0, "fusion_lon": 0.0}, {"name": "dbab429c2964ee97f214e5fb55807c8e", "is_reserved": 0, "type": "electric_scooter", "rental_uris": {"ios": "https://dc.lft.to/lastmile_qr_scan", "android": "https://dc.lft.to/lastmile_qr_scan"}, "lat": 38.924678666666665, "lon": -77.0271695, "bike_id": "dbab429c2964ee97f214e5fb55807c8e", "fusion_lat": 0.0, "is_disabled": 0, "fusion_lon": 0.0}, {"name": "acae5902de63a9b00040a47c76f2b6a6", "is_reserved": 0, "type": "electric_scooter", "rental_uris": {"ios": "https://dc.lft.to/lastmile_qr_scan", "android": "https://dc.lft.to/lastmile_qr_scan"}, "lat": 38.900155, "lon": -77.04654383333333, "bike_id": "acae5902de63a9b00040a47c76f2b6a6", "fusion_lat": 0.0, "is_disabled": 0, "fusion_lon": 0.0}, {"name": "434dd23ef699a5300a68d5eea230de64", "is_reserved": 0, "type": "electric_scooter", "rental_uris": {"ios": "https://dc.lft.to/lastmile_qr_scan", "android": "https://dc.lft.to/lastmile_qr_scan"}, "lat": 38.9037615, "lon": -77.01103416666666, "bike_id": "434dd23ef699a5300a68d5eea230de64", "fusion_lat": 0.0, "is_disabled": 0, "fusion_lon": 0.0}, {"name": "250b9fb0ec0684ca3068fb1e458d1e1f", "is_reserved": 0, "type": "electric_scooter", "rental_uris": {"ios": "https://dc.lft.to/lastmile_qr_scan", "android": "https://dc.lft.to/lastmile_qr_scan"}, "lat": 38.90234566666667, "lon": -77.04602133333333, "bike_id": "250b9fb0ec0684ca3068fb1e458d1e1f", "fusion_lat": 0.0, "is_disabled": 0, "fusion_lon": 0.0}, {"name": "8588d0ac901be98235098d7864f5ae31", "is_reserved": 0, "type": "electric_scooter", "rental_uris": {"ios": "https://dc.lft.to/lastmile_qr_scan", "android": "https://dc.lft.to/lastmile_qr_scan"}, "lat": 38.9051975, "lon": -77.05998216666667, "bike_id": "8588d0ac901be98235098d7864f5ae31", "fusion_lat": 0.0, "is_disabled": 0, "fusion_lon": 0.0}, {"name": "f1216a07b2aaba209d1923190de25c04", "is_reserved": 0, "type": "electric_scooter", "rental_uris": {"ios": "https://dc.lft.to/lastmile_qr_scan", "android": "https://dc.lft.to/lastmile_qr_scan"}, "lat": 38.91693083333333, "lon": -77.00505633333333, "bike_id": "f1216a07b2aaba209d1923190de25c04", "fusion_lat": 0.0, "is_disabled": 0, "fusion_lon": 0.0}, {"name": "3c39ba6d5e86a149bc980486953a5c3b", "is_reserved": 0, "type": "electric_scooter", "rental_uris": {"ios": "https://dc.lft.to/lastmile_qr_scan", "android": "https://dc.lft.to/lastmile_qr_scan"}, "lat": 38.924724833333336, "lon": -77.021548, "bike_id": "3c39ba6d5e86a149bc980486953a5c3b", "fusion_lat": 0.0, "is_disabled": 0, "fusion_lon": 0.0}, {"name": "b3a7a78c5a0286bd5b7ac12692bc156e", "is_reserved": 0, "type": "electric_scooter", "rental_uris": {"ios": "https://dc.lft.to/lastmile_qr_scan", "android": "https://dc.lft.to/lastmile_qr_scan"}, "lat": 38.89822383333333, "lon": -77.02945266666667, "bike_id": "b3a7a78c5a0286bd5b7ac12692bc156e", "fusion_lat": 0.0, "is_disabled": 0, "fusion_lon": 0.0}, {"name": "0aa5f29a4d2d194620c9de433af26123", "is_reserved": 0, "type": "electric_scooter", "rental_uris": {"ios": "https://dc.lft.to/lastmile_qr_scan", "android": "https://dc.lft.to/lastmile_qr_scan"}, "lat": 38.916951, "lon": -77.0460115, "bike_id": "0aa5f29a4d2d194620c9de433af26123", "fusion_lat": 0.0, "is_disabled": 0, "fusion_lon": 0.0}, {"name": "dc8f6c7761471cf3f345dc7a2bb6e86f", "is_reserved": 0, "type": "electric_scooter", "rental_uris": {"ios": "https://dc.lft.to/lastmile_qr_scan", "android": "https://dc.lft.to/lastmile_qr_scan"}, "lat": 38.88307316666667, "lon": -76.99368033333333, "bike_id": "dc8f6c7761471cf3f345dc7a2bb6e86f", "fusion_lat": 0.0, "is_disabled": 0, "fusion_lon": 0.0}, {"name": "30a90196cffe5737e6b6797edfa9885e", "is_reserved": 0, "type": "electric_scooter", "rental_uris": {"ios": "https://dc.lft.to/lastmile_qr_scan", "android": "https://dc.lft.to/lastmile_qr_scan"}, "lat": 38.90042783333333, "lon": -77.005527, "bike_id": "30a90196cffe5737e6b6797edfa9885e", "fusion_lat": 0.0, "is_disabled": 0, "fusion_lon": 0.0}, {"name": "4275ac0da2c4d26a9d47b3ddb09f36bd", "is_reserved": 0, "type": "electric_scooter", "rental_uris": {"ios": "https://dc.lft.to/lastmile_qr_scan", "android": "https://dc.lft.to/lastmile_qr_scan"}, "lat": 38.89885566666667, "lon": -76.93358866666667, "bike_id": "4275ac0da2c4d26a9d47b3ddb09f36bd", "fusion_lat": 0.0, "is_disabled": 0, "fusion_lon": 0.0}, {"name": "c08775a65975875418bb4d7607401b3d", "is_reserved": 0, "type": "electric_scooter", "rental_uris": {"ios": "https://dc.lft.to/lastmile_qr_scan", "android": "https://dc.lft.to/lastmile_qr_scan"}, "lat": 38.922732, "lon": -77.0198505, "bike_id": "c08775a65975875418bb4d7607401b3d", "fusion_lat": 0.0, "is_disabled": 0, "fusion_lon": 0.0}, {"name": "a6c03e74c92b93607809057536a23030", "is_reserved": 0, "type": "electric_scooter", "rental_uris": {"ios": "https://dc.lft.to/lastmile_qr_scan", "android": "https://dc.lft.to/lastmile_qr_scan"}, "lat": 38.954279166666666, "lon": -77.0276375, "bike_id": "a6c03e74c92b93607809057536a23030", "fusion_lat": 0.0, "is_disabled": 0, "fusion_lon": 0.0}, {"name": "e23a79593eea9ff3b6aba373e3d58a12", "is_reserved": 0, "type": "electric_scooter", "rental_uris": {"ios": "https://dc.lft.to/lastmile_qr_scan", "android": "https://dc.lft.to/lastmile_qr_scan"}, "lat": 38.91599216666667, "lon": -77.01208416666667, "bike_id": "e23a79593eea9ff3b6aba373e3d58a12", "fusion_lat": 0.0, "is_disabled": 0, "fusion_lon": 0.0}, {"name": "5c05e36e51229976a3a425c135a619cd", "is_reserved": 0, "type": "electric_scooter", "rental_uris": {"ios": "https://dc.lft.to/lastmile_qr_scan", "android": "https://dc.lft.to/lastmile_qr_scan"}, "lat": 38.88083916666667, "lon": -77.0257015, "bike_id": "5c05e36e51229976a3a425c135a619cd", "fusion_lat": 0.0, "is_disabled": 0, "fusion_lon": 0.0}, {"name": "80c32fa85d6bc23dbb88879fab50a685", "is_reserved": 0, "type": "electric_scooter", "rental_uris": {"ios": "https://dc.lft.to/lastmile_qr_scan", "android": "https://dc.lft.to/lastmile_qr_scan"}, "lat": 38.96629633333333, "lon": -77.0199545, "bike_id": "80c32fa85d6bc23dbb88879fab50a685", "fusion_lat": 0.0, "is_disabled": 0, "fusion_lon": 0.0}, {"name": "19e66c717f07c8f2a983f1272ec7ee17", "is_reserved": 0, "type": "electric_scooter", "rental_uris": {"ios": "https://dc.lft.to/lastmile_qr_scan", "android": "https://dc.lft.to/lastmile_qr_scan"}, "lat": 38.9029075, "lon": -76.981943, "bike_id": "19e66c717f07c8f2a983f1272ec7ee17", "fusion_lat": 0.0, "is_disabled": 0, "fusion_lon": 0.0}, {"name": "d65e73920bb66b03f73c9b26878a1c84", "is_reserved": 0, "type": "electric_scooter", "rental_uris": {"ios": "https://dc.lft.to/lastmile_qr_scan", "android": "https://dc.lft.to/lastmile_qr_scan"}, "lat": 38.8967275, "lon": -77.03224466666667, "bike_id": "d65e73920bb66b03f73c9b26878a1c84", "fusion_lat": 0.0, "is_disabled": 0, "fusion_lon": 0.0}, {"name": "b9c033959e7294c3ddb86f5af1266a93", "is_reserved": 0, "type": "electric_scooter", "rental_uris": {"ios": "https://dc.lft.to/lastmile_qr_scan", "android": "https://dc.lft.to/lastmile_qr_scan"}, "lat": 38.9026755, "lon": -77.03967216666666, "bike_id": "b9c033959e7294c3ddb86f5af1266a93", "fusion_lat": 0.0, "is_disabled": 0, "fusion_lon": 0.0}, {"name": "4c4abb092a5d935977ce0c24bab07fda", "is_reserved": 0, "type": "electric_scooter", "rental_uris": {"ios": "https://dc.lft.to/lastmile_qr_scan", "android": "https://dc.lft.to/lastmile_qr_scan"}, "lat": 38.91963, "lon": -77.02396433333334, "bike_id": "4c4abb092a5d935977ce0c24bab07fda", "fusion_lat": 0.0, "is_disabled": 0, "fusion_lon": 0.0}, {"name": "9262d261a01552be70e31a07f6f37e83", "is_reserved": 0, "type": "electric_scooter", "rental_uris": {"ios": "https://dc.lft.to/lastmile_qr_scan", "android": "https://dc.lft.to/lastmile_qr_scan"}, "lat": 38.895244166666664, "lon": -76.992092, "bike_id": "9262d261a01552be70e31a07f6f37e83", "fusion_lat": 0.0, "is_disabled": 0, "fusion_lon": 0.0}, {"name": "785708e7504678deca818e0c7815b414", "is_reserved": 0, "type": "electric_scooter", "rental_uris": {"ios": "https://dc.lft.to/lastmile_qr_scan", "android": "https://dc.lft.to/lastmile_qr_scan"}, "lat": 38.913362666666664, "lon": -77.0288775, "bike_id": "785708e7504678deca818e0c7815b414", "fusion_lat": 0.0, "is_disabled": 0, "fusion_lon": 0.0}, {"name": "7337978c1437499184d4b2644e2ad562", "is_reserved": 0, "type": "electric_scooter", "rental_uris": {"ios": "https://dc.lft.to/lastmile_qr_scan", "android": "https://dc.lft.to/lastmile_qr_scan"}, "lat": 38.99441366666667, "lon": -77.029279, "bike_id": "7337978c1437499184d4b2644e2ad562", "fusion_lat": 0.0, "is_disabled": 0, "fusion_lon": 0.0}, {"name": "47820d8ab2a0b647340385d2f2e7560e", "is_reserved": 0, "type": "electric_scooter", "rental_uris": {"ios": "https://dc.lft.to/lastmile_qr_scan", "android": "https://dc.lft.to/lastmile_qr_scan"}, "lat": 38.93490366666666, "lon": -77.0725645, "bike_id": "47820d8ab2a0b647340385d2f2e7560e", "fusion_lat": 0.0, "is_disabled": 0, "fusion_lon": 0.0}, {"name": "7aebffab557f6449a4d620b56c09f8eb", "is_reserved": 0, "type": "electric_scooter", "rental_uris": {"ios": "https://dc.lft.to/lastmile_qr_scan", "android": "https://dc.lft.to/lastmile_qr_scan"}, "lat": 38.90190483333333, "lon": -76.979408, "bike_id": "7aebffab557f6449a4d620b56c09f8eb", "fusion_lat": 0.0, "is_disabled": 0, "fusion_lon": 0.0}, {"name": "fbe867da040deb2bbe04cf28873657dd", "is_reserved": 0, "type": "electric_scooter", "rental_uris": {"ios": "https://dc.lft.to/lastmile_qr_scan", "android": "https://dc.lft.to/lastmile_qr_scan"}, "lat": 38.94892, "lon": -77.0268875, "bike_id": "fbe867da040deb2bbe04cf28873657dd", "fusion_lat": 0.0, "is_disabled": 0, "fusion_lon": 0.0}, {"name": "57e823ad8b18d20c1905bc5d2af439a5", "is_reserved": 0, "type": "electric_scooter", "rental_uris": {"ios": "https://dc.lft.to/lastmile_qr_scan", "android": "https://dc.lft.to/lastmile_qr_scan"}, "lat": 38.893178, "lon": -77.017911, "bike_id": "57e823ad8b18d20c1905bc5d2af439a5", "fusion_lat": 0.0, "is_disabled": 0, "fusion_lon": 0.0}, {"name": "f49fd7bf9dba51833482b2a34fb28df8", "is_reserved": 0, "type": "electric_scooter", "rental_uris": {"ios": "https://dc.lft.to/lastmile_qr_scan", "android": "https://dc.lft.to/lastmile_qr_scan"}, "lat": 38.9525955, "lon": -77.02540016666667, "bike_id": "f49fd7bf9dba51833482b2a34fb28df8", "fusion_lat": 0.0, "is_disabled": 0, "fusion_lon": 0.0}, {"name": "db49368ed427e442246ab6c51a69a127", "is_reserved": 0, "type": "electric_scooter", "rental_uris": {"ios": "https://dc.lft.to/lastmile_qr_scan", "android": "https://dc.lft.to/lastmile_qr_scan"}, "lat": 38.908697333333336, "lon": -77.08595483333333, "bike_id": "db49368ed427e442246ab6c51a69a127", "fusion_lat": 0.0, "is_disabled": 0, "fusion_lon": 0.0}, {"name": "1ee02b3f6b92de5a981fb2e7bdc832ec", "is_reserved": 0, "type": "electric_scooter", "rental_uris": {"ios": "https://dc.lft.to/lastmile_qr_scan", "android": "https://dc.lft.to/lastmile_qr_scan"}, "lat": 38.893831666666664, "lon": -76.9502335, "bike_id": "1ee02b3f6b92de5a981fb2e7bdc832ec", "fusion_lat": 0.0, "is_disabled": 0, "fusion_lon": 0.0}, {"name": "e532f2f9636013d22914fa963cdc2a08", "is_reserved": 0, "type": "electric_scooter", "rental_uris": {"ios": "https://dc.lft.to/lastmile_qr_scan", "android": "https://dc.lft.to/lastmile_qr_scan"}, "lat": 38.8842175, "lon": -77.0317185, "bike_id": "e532f2f9636013d22914fa963cdc2a08", "fusion_lat": 0.0, "is_disabled": 0, "fusion_lon": 0.0}, {"name": "647a93fe2fe10f9d3256488de0dc59b1", "is_reserved": 0, "type": "electric_scooter", "rental_uris": {"ios": "https://dc.lft.to/lastmile_qr_scan", "android": "https://dc.lft.to/lastmile_qr_scan"}, "lat": 38.91030816666667, "lon": -76.9853785, "bike_id": "647a93fe2fe10f9d3256488de0dc59b1", "fusion_lat": 0.0, "is_disabled": 0, "fusion_lon": 0.0}, {"name": "5da73bd79557c0c06593f0ac7e36c694", "is_reserved": 0, "type": "electric_bike", "rental_uris": {"ios": "https://dc.lft.to/lastmile_qr_scan", "android": "https://dc.lft.to/lastmile_qr_scan"}, "lat": 38.97576466666666, "lon": -77.019598, "bike_id": "5da73bd79557c0c06593f0ac7e36c694", "fusion_lat": 0.0, "is_disabled": 0, "fusion_lon": 0.0}, {"name": "b9c44cffaf26167535a0616131640016", "is_reserved": 0, "type": "electric_scooter", "rental_uris": {"ios": "https://dc.lft.to/lastmile_qr_scan", "android": "https://dc.lft.to/lastmile_qr_scan"}, "lat": 38.934513333333335, "lon": -76.9646705, "bike_id": "b9c44cffaf26167535a0616131640016", "fusion_lat": 0.0, "is_disabled": 0, "fusion_lon": 0.0}, {"name": "22285b18b5ec54c4ad4d4f096b09d915", "is_reserved": 0, "type": "electric_scooter", "rental_uris": {"ios": "https://dc.lft.to/lastmile_qr_scan", "android": "https://dc.lft.to/lastmile_qr_scan"}, "lat": 38.91637266666667, "lon": -77.046218, "bike_id": "22285b18b5ec54c4ad4d4f096b09d915", "fusion_lat": 0.0, "is_disabled": 0, "fusion_lon": 0.0}, {"name": "3d6ef50bf86304e98da29372ac3eee0a", "is_reserved": 0, "type": "electric_scooter", "rental_uris": {"ios": "https://dc.lft.to/lastmile_qr_scan", "android": "https://dc.lft.to/lastmile_qr_scan"}, "lat": 38.84475116666667, "lon": -76.98735783333333, "bike_id": "3d6ef50bf86304e98da29372ac3eee0a", "fusion_lat": 0.0, "is_disabled": 0, "fusion_lon": 0.0}, {"name": "5ba11f4c33c4166ef885451aa9d99bc7", "is_reserved": 0, "type": "electric_scooter", "rental_uris": {"ios": "https://dc.lft.to/lastmile_qr_scan", "android": "https://dc.lft.to/lastmile_qr_scan"}, "lat": 38.908370166666664, "lon": -76.99700066666666, "bike_id": "5ba11f4c33c4166ef885451aa9d99bc7", "fusion_lat": 0.0, "is_disabled": 0, "fusion_lon": 0.0}, {"name": "4c5ca64856e61d739db500201f0579b7", "is_reserved": 0, "type": "electric_scooter", "rental_uris": {"ios": "https://dc.lft.to/lastmile_qr_scan", "android": "https://dc.lft.to/lastmile_qr_scan"}, "lat": 38.9277675, "lon": -77.02680816666667, "bike_id": "4c5ca64856e61d739db500201f0579b7", "fusion_lat": 0.0, "is_disabled": 0, "fusion_lon": 0.0}, {"name": "48343732306bc1c14670191c4f3f9d7d", "is_reserved": 0, "type": "electric_scooter", "rental_uris": {"ios": "https://dc.lft.to/lastmile_qr_scan", "android": "https://dc.lft.to/lastmile_qr_scan"}, "lat": 38.8763025, "lon": -76.96529333333334, "bike_id": "48343732306bc1c14670191c4f3f9d7d", "fusion_lat": 0.0, "is_disabled": 0, "fusion_lon": 0.0}, {"name": "53b19e8329c8ebec09ec11e11e81f6d8", "is_reserved": 0, "type": "electric_scooter", "rental_uris": {"ios": "https://dc.lft.to/lastmile_qr_scan", "android": "https://dc.lft.to/lastmile_qr_scan"}, "lat": 38.94565816666667, "lon": -77.07136733333333, "bike_id": "53b19e8329c8ebec09ec11e11e81f6d8", "fusion_lat": 0.0, "is_disabled": 0, "fusion_lon": 0.0}, {"name": "b473c0b06a09aece1e4ae14ddc3e073f", "is_reserved": 0, "type": "electric_scooter", "rental_uris": {"ios": "https://dc.lft.to/lastmile_qr_scan", "android": "https://dc.lft.to/lastmile_qr_scan"}, "lat": 38.92156833333333, "lon": -77.038715, "bike_id": "b473c0b06a09aece1e4ae14ddc3e073f", "fusion_lat": 0.0, "is_disabled": 0, "fusion_lon": 0.0}, {"name": "e9a84978eacfa01199c4e7e165695092", "is_reserved": 0, "type": "electric_scooter", "rental_uris": {"ios": "https://dc.lft.to/lastmile_qr_scan", "android": "https://dc.lft.to/lastmile_qr_scan"}, "lat": 38.90943633333333, "lon": -77.042446, "bike_id": "e9a84978eacfa01199c4e7e165695092", "fusion_lat": 0.0, "is_disabled": 0, "fusion_lon": 0.0}, {"name": "18af79e12610ba4225f7d4fc48ac9480", "is_reserved": 0, "type": "electric_scooter", "rental_uris": {"ios": "https://dc.lft.to/lastmile_qr_scan", "android": "https://dc.lft.to/lastmile_qr_scan"}, "lat": 38.908962833333334, "lon": -77.03211416666667, "bike_id": "18af79e12610ba4225f7d4fc48ac9480", "fusion_lat": 0.0, "is_disabled": 0, "fusion_lon": 0.0}, {"name": "90693b194d1fbea4dc0b62d9a5914e50", "is_reserved": 0, "type": "electric_scooter", "rental_uris": {"ios": "https://dc.lft.to/lastmile_qr_scan", "android": "https://dc.lft.to/lastmile_qr_scan"}, "lat": 38.914199333333336, "lon": -77.04394033333334, "bike_id": "90693b194d1fbea4dc0b62d9a5914e50", "fusion_lat": 0.0, "is_disabled": 0, "fusion_lon": 0.0}, {"name": "f24962f3859e069a98d30268f713e7d4", "is_reserved": 0, "type": "electric_scooter", "rental_uris": {"ios": "https://dc.lft.to/lastmile_qr_scan", "android": "https://dc.lft.to/lastmile_qr_scan"}, "lat": 38.921418333333335, "lon": -77.04359616666666, "bike_id": "f24962f3859e069a98d30268f713e7d4", "fusion_lat": 0.0, "is_disabled": 0, "fusion_lon": 0.0}, {"name": "39788c5c9bee45b2622d5e5d930bf3cf", "is_reserved": 0, "type": "electric_scooter", "rental_uris": {"ios": "https://dc.lft.to/lastmile_qr_scan", "android": "https://dc.lft.to/lastmile_qr_scan"}, "lat": 38.918118, "lon": -77.034409, "bike_id": "39788c5c9bee45b2622d5e5d930bf3cf", "fusion_lat": 0.0, "is_disabled": 0, "fusion_lon": 0.0}, {"name": "a191c8300e0e9569d9fbfdaa8c35ab73", "is_reserved": 0, "type": "electric_bike", "rental_uris": {"ios": "https://dc.lft.to/lastmile_qr_scan", "android": "https://dc.lft.to/lastmile_qr_scan"}, "lat": 38.9622315, "lon": -77.02627033333333, "bike_id": "a191c8300e0e9569d9fbfdaa8c35ab73", "fusion_lat": 0.0, "is_disabled": 0, "fusion_lon": 0.0}, {"name": "f1804c2c58309141db09af0b56d391aa", "is_reserved": 0, "type": "electric_scooter", "rental_uris": {"ios": "https://dc.lft.to/lastmile_qr_scan", "android": "https://dc.lft.to/lastmile_qr_scan"}, "lat": 38.8937625, "lon": -77.0478435, "bike_id": "f1804c2c58309141db09af0b56d391aa", "fusion_lat": 0.0, "is_disabled": 0, "fusion_lon": 0.0}, {"name": "076881b66cc4734407be878b16a9223a", "is_reserved": 0, "type": "electric_scooter", "rental_uris": {"ios": "https://dc.lft.to/lastmile_qr_scan", "android": "https://dc.lft.to/lastmile_qr_scan"}, "lat": 38.90531033333333, "lon": -77.0652035, "bike_id": "076881b66cc4734407be878b16a9223a", "fusion_lat": 0.0, "is_disabled": 0, "fusion_lon": 0.0}, {"name": "cab7dfe278919e79332621690fc44722", "is_reserved": 0, "type": "electric_scooter", "rental_uris": {"ios": "https://dc.lft.to/lastmile_qr_scan", "android": "https://dc.lft.to/lastmile_qr_scan"}, "lat": 38.94293733333333, "lon": -77.021738, "bike_id": "cab7dfe278919e79332621690fc44722", "fusion_lat": 0.0, "is_disabled": 0, "fusion_lon": 0.0}, {"name": "3fbc04805ce99e0c60fc97c26ec2f378", "is_reserved": 0, "type": "electric_scooter", "rental_uris": {"ios": "https://dc.lft.to/lastmile_qr_scan", "android": "https://dc.lft.to/lastmile_qr_scan"}, "lat": 38.908484333333334, "lon": -77.033112, "bike_id": "3fbc04805ce99e0c60fc97c26ec2f378", "fusion_lat": 0.0, "is_disabled": 0, "fusion_lon": 0.0}, {"name": "5e8d221dd4f7ff26f935aace410fbea8", "is_reserved": 0, "type": "electric_scooter", "rental_uris": {"ios": "https://dc.lft.to/lastmile_qr_scan", "android": "https://dc.lft.to/lastmile_qr_scan"}, "lat": 38.899271666666664, "lon": -77.02172083333333, "bike_id": "5e8d221dd4f7ff26f935aace410fbea8", "fusion_lat": 0.0, "is_disabled": 0, "fusion_lon": 0.0}, {"name": "9378bc3ef7da43aefaed6653783fc9bf", "is_reserved": 0, "type": "electric_scooter", "rental_uris": {"ios": "https://dc.lft.to/lastmile_qr_scan", "android": "https://dc.lft.to/lastmile_qr_scan"}, "lat": 38.954352166666666, "lon": -77.02765016666666, "bike_id": "9378bc3ef7da43aefaed6653783fc9bf", "fusion_lat": 0.0, "is_disabled": 0, "fusion_lon": 0.0}, {"name": "9e6b68f42ac98fc958145de86bcf3035", "is_reserved": 0, "type": "electric_scooter", "rental_uris": {"ios": "https://dc.lft.to/lastmile_qr_scan", "android": "https://dc.lft.to/lastmile_qr_scan"}, "lat": 38.90245516666667, "lon": -77.0454725, "bike_id": "9e6b68f42ac98fc958145de86bcf3035", "fusion_lat": 0.0, "is_disabled": 0, "fusion_lon": 0.0}, {"name": "ffbec1d05ace811703e38b9007554ea6", "is_reserved": 0, "type": "electric_scooter", "rental_uris": {"ios": "https://dc.lft.to/lastmile_qr_scan", "android": "https://dc.lft.to/lastmile_qr_scan"}, "lat": 38.9170605, "lon": -77.041898, "bike_id": "ffbec1d05ace811703e38b9007554ea6", "fusion_lat": 0.0, "is_disabled": 0, "fusion_lon": 0.0}, {"name": "24da667514b80480728a6167642490c3", "is_reserved": 0, "type": "electric_scooter", "rental_uris": {"ios": "https://dc.lft.to/lastmile_qr_scan", "android": "https://dc.lft.to/lastmile_qr_scan"}, "lat": 38.90019783333334, "lon": -77.03294666666666, "bike_id": "24da667514b80480728a6167642490c3", "fusion_lat": 0.0, "is_disabled": 0, "fusion_lon": 0.0}, {"name": "5a3d601dc40aedd3b353a456c4b77d18", "is_reserved": 0, "type": "electric_bike", "rental_uris": {"ios": "https://dc.lft.to/lastmile_qr_scan", "android": "https://dc.lft.to/lastmile_qr_scan"}, "lat": 38.9491955, "lon": -76.97705366666666, "bike_id": "5a3d601dc40aedd3b353a456c4b77d18", "fusion_lat": 0.0, "is_disabled": 0, "fusion_lon": 0.0}, {"name": "fe0ce8160aed73de1cf8de487dcc1683", "is_reserved": 0, "type": "electric_scooter", "rental_uris": {"ios": "https://dc.lft.to/lastmile_qr_scan", "android": "https://dc.lft.to/lastmile_qr_scan"}, "lat": 38.89042083333333, "lon": -76.95148816666666, "bike_id": "fe0ce8160aed73de1cf8de487dcc1683", "fusion_lat": 0.0, "is_disabled": 0, "fusion_lon": 0.0}, {"name": "f92fb43b1323d078bc470e13b02ff49f", "is_reserved": 0, "type": "electric_bike", "rental_uris": {"ios": "https://dc.lft.to/lastmile_qr_scan", "android": "https://dc.lft.to/lastmile_qr_scan"}, "lat": 38.939626833333335, "lon": -77.36089916666667, "bike_id": "f92fb43b1323d078bc470e13b02ff49f", "fusion_lat": 0.0, "is_disabled": 0, "fusion_lon": 0.0}, {"name": "c4f36e6a47d4601703d6cda354498935", "is_reserved": 0, "type": "electric_scooter", "rental_uris": {"ios": "https://dc.lft.to/lastmile_qr_scan", "android": "https://dc.lft.to/lastmile_qr_scan"}, "lat": 38.92129416666667, "lon": -76.99387066666667, "bike_id": "c4f36e6a47d4601703d6cda354498935", "fusion_lat": 0.0, "is_disabled": 0, "fusion_lon": 0.0}, {"name": "1f6a33635d8f55c1fec24d77b125aa32", "is_reserved": 0, "type": "electric_scooter", "rental_uris": {"ios": "https://dc.lft.to/lastmile_qr_scan", "android": "https://dc.lft.to/lastmile_qr_scan"}, "lat": 38.899930166666664, "lon": -77.02902766666666, "bike_id": "1f6a33635d8f55c1fec24d77b125aa32", "fusion_lat": 0.0, "is_disabled": 0, "fusion_lon": 0.0}, {"name": "b1d38e4c5ca5a1b42bdbc9ad554431f7", "is_reserved": 0, "type": "electric_scooter", "rental_uris": {"ios": "https://dc.lft.to/lastmile_qr_scan", "android": "https://dc.lft.to/lastmile_qr_scan"}, "lat": 38.931968499999996, "lon": -77.03859933333334, "bike_id": "b1d38e4c5ca5a1b42bdbc9ad554431f7", "fusion_lat": 0.0, "is_disabled": 0, "fusion_lon": 0.0}, {"name": "e9fe713dc484b7f7952a6dcd5f6a33c5", "is_reserved": 0, "type": "electric_bike", "rental_uris": {"ios": "https://dc.lft.to/lastmile_qr_scan", "android": "https://dc.lft.to/lastmile_qr_scan"}, "lat": 38.998347, "lon": -76.88372216666667, "bike_id": "e9fe713dc484b7f7952a6dcd5f6a33c5", "fusion_lat": 0.0, "is_disabled": 0, "fusion_lon": 0.0}, {"name": "b17a53487b6863412465d3e3ffad03f0", "is_reserved": 0, "type": "electric_scooter", "rental_uris": {"ios": "https://dc.lft.to/lastmile_qr_scan", "android": "https://dc.lft.to/lastmile_qr_scan"}, "lat": 38.911908333333336, "lon": -77.03974566666666, "bike_id": "b17a53487b6863412465d3e3ffad03f0", "fusion_lat": 0.0, "is_disabled": 0, "fusion_lon": 0.0}, {"name": "63611b0af1e741becb77b789a7ae19be", "is_reserved": 0, "type": "electric_scooter", "rental_uris": {"ios": "https://dc.lft.to/lastmile_qr_scan", "android": "https://dc.lft.to/lastmile_qr_scan"}, "lat": 38.923062333333334, "lon": -77.03524966666667, "bike_id": "63611b0af1e741becb77b789a7ae19be", "fusion_lat": 0.0, "is_disabled": 0, "fusion_lon": 0.0}, {"name": "0a376fbb27508280769ad74080fd041b", "is_reserved": 0, "type": "electric_bike", "rental_uris": {"ios": "https://dc.lft.to/lastmile_qr_scan", "android": "https://dc.lft.to/lastmile_qr_scan"}, "lat": 38.962347333333334, "lon": -77.02631833333334, "bike_id": "0a376fbb27508280769ad74080fd041b", "fusion_lat": 0.0, "is_disabled": 0, "fusion_lon": 0.0}, {"name": "5d55b58b1495eb84d91ef825d791c03f", "is_reserved": 0, "type": "electric_scooter", "rental_uris": {"ios": "https://dc.lft.to/lastmile_qr_scan", "android": "https://dc.lft.to/lastmile_qr_scan"}, "lat": 38.92684066666666, "lon": -77.0074435, "bike_id": "5d55b58b1495eb84d91ef825d791c03f", "fusion_lat": 0.0, "is_disabled": 0, "fusion_lon": 0.0}, {"name": "28acd4bf94c1e3dc94ee20b9fd68ccbd", "is_reserved": 0, "type": "electric_scooter", "rental_uris": {"ios": "https://dc.lft.to/lastmile_qr_scan", "android": "https://dc.lft.to/lastmile_qr_scan"}, "lat": 38.966435, "lon": -77.01996183333333, "bike_id": "28acd4bf94c1e3dc94ee20b9fd68ccbd", "fusion_lat": 0.0, "is_disabled": 0, "fusion_lon": 0.0}, {"name": "55df742ad4ea45ce110fb9068738476d", "is_reserved": 0, "type": "electric_scooter", "rental_uris": {"ios": "https://dc.lft.to/lastmile_qr_scan", "android": "https://dc.lft.to/lastmile_qr_scan"}, "lat": 38.88339766666667, "lon": -77.01744166666667, "bike_id": "55df742ad4ea45ce110fb9068738476d", "fusion_lat": 0.0, "is_disabled": 0, "fusion_lon": 0.0}, {"name": "e520262c032b014b0ab7ed6bd3a1517a", "is_reserved": 0, "type": "electric_scooter", "rental_uris": {"ios": "https://dc.lft.to/lastmile_qr_scan", "android": "https://dc.lft.to/lastmile_qr_scan"}, "lat": 38.92026366666666, "lon": -77.03982783333333, "bike_id": "e520262c032b014b0ab7ed6bd3a1517a", "fusion_lat": 0.0, "is_disabled": 0, "fusion_lon": 0.0}, {"name": "f21349d3329f6d506b00eef0d169fb75", "is_reserved": 0, "type": "electric_scooter", "rental_uris": {"ios": "https://dc.lft.to/lastmile_qr_scan", "android": "https://dc.lft.to/lastmile_qr_scan"}, "lat": 38.92725633333333, "lon": -77.02285816666667, "bike_id": "f21349d3329f6d506b00eef0d169fb75", "fusion_lat": 0.0, "is_disabled": 0, "fusion_lon": 0.0}, {"name": "4bee0b5f3ab21be9e57fb955415609ea", "is_reserved": 0, "type": "electric_scooter", "rental_uris": {"ios": "https://dc.lft.to/lastmile_qr_scan", "android": "https://dc.lft.to/lastmile_qr_scan"}, "lat": 38.902227833333335, "lon": -77.04337733333334, "bike_id": "4bee0b5f3ab21be9e57fb955415609ea", "fusion_lat": 0.0, "is_disabled": 0, "fusion_lon": 0.0}, {"name": "9bc9c852466856fb090e7bdf7f69cdc9", "is_reserved": 0, "type": "electric_scooter", "rental_uris": {"ios": "https://dc.lft.to/lastmile_qr_scan", "android": "https://dc.lft.to/lastmile_qr_scan"}, "lat": 38.917326833333334, "lon": -77.04180566666666, "bike_id": "9bc9c852466856fb090e7bdf7f69cdc9", "fusion_lat": 0.0, "is_disabled": 0, "fusion_lon": 0.0}, {"name": "a672db699997979ce70c5f57eb4a8a3b", "is_reserved": 0, "type": "electric_scooter", "rental_uris": {"ios": "https://dc.lft.to/lastmile_qr_scan", "android": "https://dc.lft.to/lastmile_qr_scan"}, "lat": 38.903139833333334, "lon": -77.04335716666667, "bike_id": "a672db699997979ce70c5f57eb4a8a3b", "fusion_lat": 0.0, "is_disabled": 0, "fusion_lon": 0.0}, {"name": "2700e99dcdd5d0771c4475ea516402be", "is_reserved": 0, "type": "electric_scooter", "rental_uris": {"ios": "https://dc.lft.to/lastmile_qr_scan", "android": "https://dc.lft.to/lastmile_qr_scan"}, "lat": 38.89604766666667, "lon": -77.00929283333333, "bike_id": "2700e99dcdd5d0771c4475ea516402be", "fusion_lat": 0.0, "is_disabled": 0, "fusion_lon": 0.0}, {"name": "71b387c60d02e8be6c7d94aa05f6b026", "is_reserved": 0, "type": "electric_bike", "rental_uris": {"ios": "https://dc.lft.to/lastmile_qr_scan", "android": "https://dc.lft.to/lastmile_qr_scan"}, "lat": 38.8409545, "lon": -77.07701383333334, "bike_id": "71b387c60d02e8be6c7d94aa05f6b026", "fusion_lat": 0.0, "is_disabled": 0, "fusion_lon": 0.0}, {"name": "a1f102329a63735924e295c268fb6850", "is_reserved": 0, "type": "electric_scooter", "rental_uris": {"ios": "https://dc.lft.to/lastmile_qr_scan", "android": "https://dc.lft.to/lastmile_qr_scan"}, "lat": 38.88373716666667, "lon": -76.995175, "bike_id": "a1f102329a63735924e295c268fb6850", "fusion_lat": 0.0, "is_disabled": 0, "fusion_lon": 0.0}, {"name": "21cab6682ba9ca3134016ae00daa7a1b", "is_reserved": 0, "type": "electric_scooter", "rental_uris": {"ios": "https://dc.lft.to/lastmile_qr_scan", "android": "https://dc.lft.to/lastmile_qr_scan"}, "lat": 38.907686166666664, "lon": -76.99931966666666, "bike_id": "21cab6682ba9ca3134016ae00daa7a1b", "fusion_lat": 0.0, "is_disabled": 0, "fusion_lon": 0.0}, {"name": "947c68e8c723a69e5c54c070cd0c492d", "is_reserved": 0, "type": "electric_scooter", "rental_uris": {"ios": "https://dc.lft.to/lastmile_qr_scan", "android": "https://dc.lft.to/lastmile_qr_scan"}, "lat": 38.89735016666667, "lon": -76.99510866666667, "bike_id": "947c68e8c723a69e5c54c070cd0c492d", "fusion_lat": 0.0, "is_disabled": 0, "fusion_lon": 0.0}, {"name": "210b5b0f3804e29a040321cb597c251b", "is_reserved": 0, "type": "electric_scooter", "rental_uris": {"ios": "https://dc.lft.to/lastmile_qr_scan", "android": "https://dc.lft.to/lastmile_qr_scan"}, "lat": 38.920431666666666, "lon": -77.03007316666667, "bike_id": "210b5b0f3804e29a040321cb597c251b", "fusion_lat": 0.0, "is_disabled": 0, "fusion_lon": 0.0}, {"name": "0d727a4f38996b86522debf146466d24", "is_reserved": 0, "type": "electric_scooter", "rental_uris": {"ios": "https://dc.lft.to/lastmile_qr_scan", "android": "https://dc.lft.to/lastmile_qr_scan"}, "lat": 38.8922975, "lon": -77.04336, "bike_id": "0d727a4f38996b86522debf146466d24", "fusion_lat": 0.0, "is_disabled": 0, "fusion_lon": 0.0}, {"name": "9a775bcd07658da936b8d0b188a742f1", "is_reserved": 0, "type": "electric_scooter", "rental_uris": {"ios": "https://dc.lft.to/lastmile_qr_scan", "android": "https://dc.lft.to/lastmile_qr_scan"}, "lat": 38.882623333333335, "lon": -76.99503616666667, "bike_id": "9a775bcd07658da936b8d0b188a742f1", "fusion_lat": 0.0, "is_disabled": 0, "fusion_lon": 0.0}, {"name": "a358499a4980c7c2beaf1f8acc416b2e", "is_reserved": 0, "type": "electric_bike", "rental_uris": {"ios": "https://dc.lft.to/lastmile_qr_scan", "android": "https://dc.lft.to/lastmile_qr_scan"}, "lat": 38.8682905, "lon": -76.98024733333334, "bike_id": "a358499a4980c7c2beaf1f8acc416b2e", "fusion_lat": 0.0, "is_disabled": 0, "fusion_lon": 0.0}, {"name": "454800434774056ebb8643aa403970cd", "is_reserved": 0, "type": "electric_scooter", "rental_uris": {"ios": "https://dc.lft.to/lastmile_qr_scan", "android": "https://dc.lft.to/lastmile_qr_scan"}, "lat": 38.91554416666666, "lon": -77.05324283333333, "bike_id": "454800434774056ebb8643aa403970cd", "fusion_lat": 0.0, "is_disabled": 0, "fusion_lon": 0.0}, {"name": "a4a6f1ee820d7f6e1c87d9d6885c78cc", "is_reserved": 0, "type": "electric_scooter", "rental_uris": {"ios": "https://dc.lft.to/lastmile_qr_scan", "android": "https://dc.lft.to/lastmile_qr_scan"}, "lat": 38.95252583333333, "lon": -77.06976916666666, "bike_id": "a4a6f1ee820d7f6e1c87d9d6885c78cc", "fusion_lat": 0.0, "is_disabled": 0, "fusion_lon": 0.0}, {"name": "8926f192e2e59ef48e85ba9eaa1557c7", "is_reserved": 0, "type": "electric_bike", "rental_uris": {"ios": "https://dc.lft.to/lastmile_qr_scan", "android": "https://dc.lft.to/lastmile_qr_scan"}, "lat": 38.94558583333333, "lon": -76.89540466666666, "bike_id": "8926f192e2e59ef48e85ba9eaa1557c7", "fusion_lat": 0.0, "is_disabled": 0, "fusion_lon": 0.0}, {"name": "d153f15c1eaf9314e384d4828cdaed1b", "is_reserved": 0, "type": "electric_scooter", "rental_uris": {"ios": "https://dc.lft.to/lastmile_qr_scan", "android": "https://dc.lft.to/lastmile_qr_scan"}, "lat": 38.91739583333333, "lon": -77.03447683333333, "bike_id": "d153f15c1eaf9314e384d4828cdaed1b", "fusion_lat": 0.0, "is_disabled": 0, "fusion_lon": 0.0}, {"name": "1ba52277b8788609019045d469ea38c0", "is_reserved": 0, "type": "electric_scooter", "rental_uris": {"ios": "https://dc.lft.to/lastmile_qr_scan", "android": "https://dc.lft.to/lastmile_qr_scan"}, "lat": 38.892397833333334, "lon": -77.0152155, "bike_id": "1ba52277b8788609019045d469ea38c0", "fusion_lat": 0.0, "is_disabled": 0, "fusion_lon": 0.0}, {"name": "c33bfe184ede5edb9735533042588dd9", "is_reserved": 0, "type": "electric_scooter", "rental_uris": {"ios": "https://dc.lft.to/lastmile_qr_scan", "android": "https://dc.lft.to/lastmile_qr_scan"}, "lat": 38.944233833333335, "lon": -77.06331233333333, "bike_id": "c33bfe184ede5edb9735533042588dd9", "fusion_lat": 0.0, "is_disabled": 0, "fusion_lon": 0.0}, {"name": "fc3cbe95e8fbf06339fd211ec3686333", "is_reserved": 0, "type": "electric_scooter", "rental_uris": {"ios": "https://dc.lft.to/lastmile_qr_scan", "android": "https://dc.lft.to/lastmile_qr_scan"}, "lat": 38.897835, "lon": -77.01090966666666, "bike_id": "fc3cbe95e8fbf06339fd211ec3686333", "fusion_lat": 0.0, "is_disabled": 0, "fusion_lon": 0.0}, {"name": "e8f6a6a280299186df22a915375c6f7c", "is_reserved": 0, "type": "electric_scooter", "rental_uris": {"ios": "https://dc.lft.to/lastmile_qr_scan", "android": "https://dc.lft.to/lastmile_qr_scan"}, "lat": 38.890189, "lon": -76.9373585, "bike_id": "e8f6a6a280299186df22a915375c6f7c", "fusion_lat": 0.0, "is_disabled": 0, "fusion_lon": 0.0}, {"name": "821f73f89b0c6c8e82aafc1bb37d6d4f", "is_reserved": 0, "type": "electric_scooter", "rental_uris": {"ios": "https://dc.lft.to/lastmile_qr_scan", "android": "https://dc.lft.to/lastmile_qr_scan"}, "lat": 38.939730833333336, "lon": -77.03257516666666, "bike_id": "821f73f89b0c6c8e82aafc1bb37d6d4f", "fusion_lat": 0.0, "is_disabled": 0, "fusion_lon": 0.0}, {"name": "c7c10315771591f33ea6fa2bea845b53", "is_reserved": 0, "type": "electric_scooter", "rental_uris": {"ios": "https://dc.lft.to/lastmile_qr_scan", "android": "https://dc.lft.to/lastmile_qr_scan"}, "lat": 38.91581333333333, "lon": -77.03186883333333, "bike_id": "c7c10315771591f33ea6fa2bea845b53", "fusion_lat": 0.0, "is_disabled": 0, "fusion_lon": 0.0}, {"name": "c8f8f7c64a68f71b33a79da214a14ad7", "is_reserved": 0, "type": "electric_scooter", "rental_uris": {"ios": "https://dc.lft.to/lastmile_qr_scan", "android": "https://dc.lft.to/lastmile_qr_scan"}, "lat": 38.893479166666665, "lon": -76.99151116666667, "bike_id": "c8f8f7c64a68f71b33a79da214a14ad7", "fusion_lat": 0.0, "is_disabled": 0, "fusion_lon": 0.0}, {"name": "e449f1ee19290e7241af8ea517ab0d87", "is_reserved": 0, "type": "electric_scooter", "rental_uris": {"ios": "https://dc.lft.to/lastmile_qr_scan", "android": "https://dc.lft.to/lastmile_qr_scan"}, "lat": 38.90279366666667, "lon": -77.04522666666666, "bike_id": "e449f1ee19290e7241af8ea517ab0d87", "fusion_lat": 0.0, "is_disabled": 0, "fusion_lon": 0.0}, {"name": "d06408e57b8dcc4b9f29388228158369", "is_reserved": 0, "type": "electric_scooter", "rental_uris": {"ios": "https://dc.lft.to/lastmile_qr_scan", "android": "https://dc.lft.to/lastmile_qr_scan"}, "lat": 38.94097216666667, "lon": -77.02729783333334, "bike_id": "d06408e57b8dcc4b9f29388228158369", "fusion_lat": 0.0, "is_disabled": 0, "fusion_lon": 0.0}, {"name": "0254f7590bdac82463c3e2de29f2497a", "is_reserved": 0, "type": "electric_bike", "rental_uris": {"ios": "https://dc.lft.to/lastmile_qr_scan", "android": "https://dc.lft.to/lastmile_qr_scan"}, "lat": 38.8058075, "lon": -77.06865433333333, "bike_id": "0254f7590bdac82463c3e2de29f2497a", "fusion_lat": 0.0, "is_disabled": 0, "fusion_lon": 0.0}, {"name": "7090ebd232255d00d48b089103de280a", "is_reserved": 0, "type": "electric_scooter", "rental_uris": {"ios": "https://dc.lft.to/lastmile_qr_scan", "android": "https://dc.lft.to/lastmile_qr_scan"}, "lat": 38.916837666666666, "lon": -77.036666, "bike_id": "7090ebd232255d00d48b089103de280a", "fusion_lat": 0.0, "is_disabled": 0, "fusion_lon": 0.0}, {"name": "45ebc46fb64367548154653c9b7b43c1", "is_reserved": 0, "type": "electric_scooter", "rental_uris": {"ios": "https://dc.lft.to/lastmile_qr_scan", "android": "https://dc.lft.to/lastmile_qr_scan"}, "lat": 38.85811416666667, "lon": -76.98926066666667, "bike_id": "45ebc46fb64367548154653c9b7b43c1", "fusion_lat": 0.0, "is_disabled": 0, "fusion_lon": 0.0}, {"name": "c93380b24c657fbd22b53e67a2ba98ad", "is_reserved": 0, "type": "electric_bike", "rental_uris": {"ios": "https://dc.lft.to/lastmile_qr_scan", "android": "https://dc.lft.to/lastmile_qr_scan"}, "lat": 38.896007, "lon": -76.9070865, "bike_id": "c93380b24c657fbd22b53e67a2ba98ad", "fusion_lat": 0.0, "is_disabled": 0, "fusion_lon": 0.0}, {"name": "491295185abb9eb65e30b48e82628105", "is_reserved": 0, "type": "electric_scooter", "rental_uris": {"ios": "https://dc.lft.to/lastmile_qr_scan", "android": "https://dc.lft.to/lastmile_qr_scan"}, "lat": 38.918086333333335, "lon": -77.03446333333333, "bike_id": "491295185abb9eb65e30b48e82628105", "fusion_lat": 0.0, "is_disabled": 0, "fusion_lon": 0.0}, {"name": "82a87e14941ddd5e83b75e83ab645e87", "is_reserved": 0, "type": "electric_scooter", "rental_uris": {"ios": "https://dc.lft.to/lastmile_qr_scan", "android": "https://dc.lft.to/lastmile_qr_scan"}, "lat": 38.9040485, "lon": -77.02007166666667, "bike_id": "82a87e14941ddd5e83b75e83ab645e87", "fusion_lat": 0.0, "is_disabled": 0, "fusion_lon": 0.0}, {"name": "845c957aacab896a432d6e5ce87dae2c", "is_reserved": 0, "type": "electric_scooter", "rental_uris": {"ios": "https://dc.lft.to/lastmile_qr_scan", "android": "https://dc.lft.to/lastmile_qr_scan"}, "lat": 38.844367, "lon": -76.99812666666666, "bike_id": "845c957aacab896a432d6e5ce87dae2c", "fusion_lat": 0.0, "is_disabled": 0, "fusion_lon": 0.0}, {"name": "485cd1345d76fd1d4ecacb2b751a61fb", "is_reserved": 0, "type": "electric_scooter", "rental_uris": {"ios": "https://dc.lft.to/lastmile_qr_scan", "android": "https://dc.lft.to/lastmile_qr_scan"}, "lat": 38.896959833333334, "lon": -77.00497433333334, "bike_id": "485cd1345d76fd1d4ecacb2b751a61fb", "fusion_lat": 0.0, "is_disabled": 0, "fusion_lon": 0.0}, {"name": "4f77e8fd833679e91114528afab64353", "is_reserved": 0, "type": "electric_bike", "rental_uris": {"ios": "https://dc.lft.to/lastmile_qr_scan", "android": "https://dc.lft.to/lastmile_qr_scan"}, "lat": 38.9491655, "lon": -77.007998, "bike_id": "4f77e8fd833679e91114528afab64353", "fusion_lat": 0.0, "is_disabled": 0, "fusion_lon": 0.0}, {"name": "18bb134f06a6ae6dab24630f8f63fdb4", "is_reserved": 0, "type": "electric_scooter", "rental_uris": {"ios": "https://dc.lft.to/lastmile_qr_scan", "android": "https://dc.lft.to/lastmile_qr_scan"}, "lat": 38.9235185, "lon": -77.03199816666667, "bike_id": "18bb134f06a6ae6dab24630f8f63fdb4", "fusion_lat": 0.0, "is_disabled": 0, "fusion_lon": 0.0}, {"name": "eff343cf2585dc1ca486f4e6d94626a6", "is_reserved": 0, "type": "electric_scooter", "rental_uris": {"ios": "https://dc.lft.to/lastmile_qr_scan", "android": "https://dc.lft.to/lastmile_qr_scan"}, "lat": 38.898543, "lon": -76.990309, "bike_id": "eff343cf2585dc1ca486f4e6d94626a6", "fusion_lat": 0.0, "is_disabled": 0, "fusion_lon": 0.0}, {"name": "498ddba4d8a8fc78fd0f2bd8df72ee1f", "is_reserved": 0, "type": "electric_scooter", "rental_uris": {"ios": "https://dc.lft.to/lastmile_qr_scan", "android": "https://dc.lft.to/lastmile_qr_scan"}, "lat": 38.927944, "lon": -77.0541465, "bike_id": "498ddba4d8a8fc78fd0f2bd8df72ee1f", "fusion_lat": 0.0, "is_disabled": 0, "fusion_lon": 0.0}, {"name": "985fc3d3a6c6f2473f477db374d1638f", "is_reserved": 0, "type": "electric_scooter", "rental_uris": {"ios": "https://dc.lft.to/lastmile_qr_scan", "android": "https://dc.lft.to/lastmile_qr_scan"}, "lat": 38.926175, "lon": -77.02222833333333, "bike_id": "985fc3d3a6c6f2473f477db374d1638f", "fusion_lat": 0.0, "is_disabled": 0, "fusion_lon": 0.0}, {"name": "7c109bd081baeb1622f6b0cfc71f202f", "is_reserved": 0, "type": "electric_scooter", "rental_uris": {"ios": "https://dc.lft.to/lastmile_qr_scan", "android": "https://dc.lft.to/lastmile_qr_scan"}, "lat": 38.907008166666664, "lon": -77.0099495, "bike_id": "7c109bd081baeb1622f6b0cfc71f202f", "fusion_lat": 0.0, "is_disabled": 0, "fusion_lon": 0.0}, {"name": "05ffe75e2154466961e99038be47b4e1", "is_reserved": 0, "type": "electric_bike", "rental_uris": {"ios": "https://dc.lft.to/lastmile_qr_scan", "android": "https://dc.lft.to/lastmile_qr_scan"}, "lat": 38.92275566666667, "lon": -77.019856, "bike_id": "05ffe75e2154466961e99038be47b4e1", "fusion_lat": 0.0, "is_disabled": 0, "fusion_lon": 0.0}, {"name": "779d8d775ef86a4d97336eb4ff5e2de2", "is_reserved": 0, "type": "electric_scooter", "rental_uris": {"ios": "https://dc.lft.to/lastmile_qr_scan", "android": "https://dc.lft.to/lastmile_qr_scan"}, "lat": 38.92664766666667, "lon": -77.05315033333333, "bike_id": "779d8d775ef86a4d97336eb4ff5e2de2", "fusion_lat": 0.0, "is_disabled": 0, "fusion_lon": 0.0}, {"name": "569a706955fd9062e179a06660c632f0", "is_reserved": 0, "type": "electric_scooter", "rental_uris": {"ios": "https://dc.lft.to/lastmile_qr_scan", "android": "https://dc.lft.to/lastmile_qr_scan"}, "lat": 38.92312733333333, "lon": -77.03412683333333, "bike_id": "569a706955fd9062e179a06660c632f0", "fusion_lat": 0.0, "is_disabled": 0, "fusion_lon": 0.0}, {"name": "fecf38a51a1310c2cfd0cd880a836bc5", "is_reserved": 0, "type": "electric_scooter", "rental_uris": {"ios": "https://dc.lft.to/lastmile_qr_scan", "android": "https://dc.lft.to/lastmile_qr_scan"}, "lat": 38.89509916666667, "lon": -77.01618416666666, "bike_id": "fecf38a51a1310c2cfd0cd880a836bc5", "fusion_lat": 0.0, "is_disabled": 0, "fusion_lon": 0.0}, {"name": "0afe8bfa906dd42bd6956ed4d07f301f", "is_reserved": 0, "type": "electric_scooter", "rental_uris": {"ios": "https://dc.lft.to/lastmile_qr_scan", "android": "https://dc.lft.to/lastmile_qr_scan"}, "lat": 38.910574833333335, "lon": -77.03088266666667, "bike_id": "0afe8bfa906dd42bd6956ed4d07f301f", "fusion_lat": 0.0, "is_disabled": 0, "fusion_lon": 0.0}, {"name": "5a64d1a5be48f85017e276e32fe9ee29", "is_reserved": 0, "type": "electric_scooter", "rental_uris": {"ios": "https://dc.lft.to/lastmile_qr_scan", "android": "https://dc.lft.to/lastmile_qr_scan"}, "lat": 38.8902105, "lon": -76.93732766666666, "bike_id": "5a64d1a5be48f85017e276e32fe9ee29", "fusion_lat": 0.0, "is_disabled": 0, "fusion_lon": 0.0}, {"name": "c96e5657872d63361c3885509d9a53cc", "is_reserved": 0, "type": "electric_bike", "rental_uris": {"ios": "https://dc.lft.to/lastmile_qr_scan", "android": "https://dc.lft.to/lastmile_qr_scan"}, "lat": 38.874215, "lon": -77.10327716666667, "bike_id": "c96e5657872d63361c3885509d9a53cc", "fusion_lat": 0.0, "is_disabled": 0, "fusion_lon": 0.0}, {"name": "884f1d1b2108016229739c829e67bd3a", "is_reserved": 0, "type": "electric_scooter", "rental_uris": {"ios": "https://dc.lft.to/lastmile_qr_scan", "android": "https://dc.lft.to/lastmile_qr_scan"}, "lat": 38.897300333333334, "lon": -76.993902, "bike_id": "884f1d1b2108016229739c829e67bd3a", "fusion_lat": 0.0, "is_disabled": 0, "fusion_lon": 0.0}, {"name": "7337ac6949adb493eea53dae4ac2c180", "is_reserved": 0, "type": "electric_scooter", "rental_uris": {"ios": "https://dc.lft.to/lastmile_qr_scan", "android": "https://dc.lft.to/lastmile_qr_scan"}, "lat": 38.84470116666667, "lon": -76.987776, "bike_id": "7337ac6949adb493eea53dae4ac2c180", "fusion_lat": 0.0, "is_disabled": 0, "fusion_lon": 0.0}, {"name": "322367e179c721ffdf63fab537a60a63", "is_reserved": 0, "type": "electric_scooter", "rental_uris": {"ios": "https://dc.lft.to/lastmile_qr_scan", "android": "https://dc.lft.to/lastmile_qr_scan"}, "lat": 38.909608666666664, "lon": -77.02006216666666, "bike_id": "322367e179c721ffdf63fab537a60a63", "fusion_lat": 0.0, "is_disabled": 0, "fusion_lon": 0.0}, {"name": "3ec58bd2e3d054740cb0b21112eb551d", "is_reserved": 0, "type": "electric_scooter", "rental_uris": {"ios": "https://dc.lft.to/lastmile_qr_scan", "android": "https://dc.lft.to/lastmile_qr_scan"}, "lat": 38.900983333333336, "lon": -77.0254055, "bike_id": "3ec58bd2e3d054740cb0b21112eb551d", "fusion_lat": 0.0, "is_disabled": 0, "fusion_lon": 0.0}, {"name": "019fe1424f7588fc0f58cc4bdffee9f6", "is_reserved": 0, "type": "electric_scooter", "rental_uris": {"ios": "https://dc.lft.to/lastmile_qr_scan", "android": "https://dc.lft.to/lastmile_qr_scan"}, "lat": 38.91694616666667, "lon": -77.0376165, "bike_id": "019fe1424f7588fc0f58cc4bdffee9f6", "fusion_lat": 0.0, "is_disabled": 0, "fusion_lon": 0.0}, {"name": "587b219f344ecd864cbc2f1295f2033d", "is_reserved": 0, "type": "electric_scooter", "rental_uris": {"ios": "https://dc.lft.to/lastmile_qr_scan", "android": "https://dc.lft.to/lastmile_qr_scan"}, "lat": 38.957122166666664, "lon": -77.02405166666667, "bike_id": "587b219f344ecd864cbc2f1295f2033d", "fusion_lat": 0.0, "is_disabled": 0, "fusion_lon": 0.0}, {"name": "4d06109e6d3bc9c962567e32a4208fd1", "is_reserved": 0, "type": "electric_scooter", "rental_uris": {"ios": "https://dc.lft.to/lastmile_qr_scan", "android": "https://dc.lft.to/lastmile_qr_scan"}, "lat": 38.917595666666664, "lon": -77.03075166666666, "bike_id": "4d06109e6d3bc9c962567e32a4208fd1", "fusion_lat": 0.0, "is_disabled": 0, "fusion_lon": 0.0}, {"name": "48b1d13a41e4242eab9c8ff2d8fc739f", "is_reserved": 0, "type": "electric_scooter", "rental_uris": {"ios": "https://dc.lft.to/lastmile_qr_scan", "android": "https://dc.lft.to/lastmile_qr_scan"}, "lat": 38.918009833333336, "lon": -77.03204566666666, "bike_id": "48b1d13a41e4242eab9c8ff2d8fc739f", "fusion_lat": 0.0, "is_disabled": 0, "fusion_lon": 0.0}, {"name": "209cb0ccfd981d0e7ff00d62e836923f", "is_reserved": 0, "type": "electric_scooter", "rental_uris": {"ios": "https://dc.lft.to/lastmile_qr_scan", "android": "https://dc.lft.to/lastmile_qr_scan"}, "lat": 38.90453016666667, "lon": -77.0404085, "bike_id": "209cb0ccfd981d0e7ff00d62e836923f", "fusion_lat": 0.0, "is_disabled": 0, "fusion_lon": 0.0}, {"name": "3b020493dccdd10e107280442ea1841d", "is_reserved": 0, "type": "electric_scooter", "rental_uris": {"ios": "https://dc.lft.to/lastmile_qr_scan", "android": "https://dc.lft.to/lastmile_qr_scan"}, "lat": 38.89296066666667, "lon": -76.92918633333333, "bike_id": "3b020493dccdd10e107280442ea1841d", "fusion_lat": 0.0, "is_disabled": 0, "fusion_lon": 0.0}, {"name": "34083cc8a5f82ed0a4f91b45771de821", "is_reserved": 0, "type": "electric_scooter", "rental_uris": {"ios": "https://dc.lft.to/lastmile_qr_scan", "android": "https://dc.lft.to/lastmile_qr_scan"}, "lat": 38.900132666666664, "lon": -77.031164, "bike_id": "34083cc8a5f82ed0a4f91b45771de821", "fusion_lat": 0.0, "is_disabled": 0, "fusion_lon": 0.0}, {"name": "371f5104536e33fd21f92ec3e23a4d53", "is_reserved": 0, "type": "electric_scooter", "rental_uris": {"ios": "https://dc.lft.to/lastmile_qr_scan", "android": "https://dc.lft.to/lastmile_qr_scan"}, "lat": 38.92419966666667, "lon": -77.03915316666667, "bike_id": "371f5104536e33fd21f92ec3e23a4d53", "fusion_lat": 0.0, "is_disabled": 0, "fusion_lon": 0.0}, {"name": "db234241d19233c5ca8d78c5cadcd85c", "is_reserved": 0, "type": "electric_scooter", "rental_uris": {"ios": "https://dc.lft.to/lastmile_qr_scan", "android": "https://dc.lft.to/lastmile_qr_scan"}, "lat": 38.924238333333335, "lon": -77.04550516666667, "bike_id": "db234241d19233c5ca8d78c5cadcd85c", "fusion_lat": 0.0, "is_disabled": 0, "fusion_lon": 0.0}, {"name": "e37fb24eb673623f7d0c6f43b54ca161", "is_reserved": 0, "type": "electric_scooter", "rental_uris": {"ios": "https://dc.lft.to/lastmile_qr_scan", "android": "https://dc.lft.to/lastmile_qr_scan"}, "lat": 38.83275733333333, "lon": -77.006274, "bike_id": "e37fb24eb673623f7d0c6f43b54ca161", "fusion_lat": 0.0, "is_disabled": 0, "fusion_lon": 0.0}, {"name": "bcc3e5f3ff5e9efa760bec120f54227c", "is_reserved": 0, "type": "electric_scooter", "rental_uris": {"ios": "https://dc.lft.to/lastmile_qr_scan", "android": "https://dc.lft.to/lastmile_qr_scan"}, "lat": 38.90040533333333, "lon": -77.046694, "bike_id": "bcc3e5f3ff5e9efa760bec120f54227c", "fusion_lat": 0.0, "is_disabled": 0, "fusion_lon": 0.0}, {"name": "7550cdb5053dda297db45e42b8f0f784", "is_reserved": 0, "type": "electric_scooter", "rental_uris": {"ios": "https://dc.lft.to/lastmile_qr_scan", "android": "https://dc.lft.to/lastmile_qr_scan"}, "lat": 38.90915716666667, "lon": -77.02288816666666, "bike_id": "7550cdb5053dda297db45e42b8f0f784", "fusion_lat": 0.0, "is_disabled": 0, "fusion_lon": 0.0}, {"name": "f07fd6865981008a931ad9ee6effbcf3", "is_reserved": 0, "type": "electric_scooter", "rental_uris": {"ios": "https://dc.lft.to/lastmile_qr_scan", "android": "https://dc.lft.to/lastmile_qr_scan"}, "lat": 38.903602666666664, "lon": -77.03713166666667, "bike_id": "f07fd6865981008a931ad9ee6effbcf3", "fusion_lat": 0.0, "is_disabled": 0, "fusion_lon": 0.0}, {"name": "a8fc3b0a52becd5accc80b83f20c9cfd", "is_reserved": 0, "type": "electric_scooter", "rental_uris": {"ios": "https://dc.lft.to/lastmile_qr_scan", "android": "https://dc.lft.to/lastmile_qr_scan"}, "lat": 38.9015585, "lon": -76.930628, "bike_id": "a8fc3b0a52becd5accc80b83f20c9cfd", "fusion_lat": 0.0, "is_disabled": 0, "fusion_lon": 0.0}, {"name": "a3ac0c1f6af88f85c6d840bf395d421a", "is_reserved": 0, "type": "electric_scooter", "rental_uris": {"ios": "https://dc.lft.to/lastmile_qr_scan", "android": "https://dc.lft.to/lastmile_qr_scan"}, "lat": 38.90659083333333, "lon": -77.0347305, "bike_id": "a3ac0c1f6af88f85c6d840bf395d421a", "fusion_lat": 0.0, "is_disabled": 0, "fusion_lon": 0.0}, {"name": "2ea90d88edf46e60c0d80819e29cb64e", "is_reserved": 0, "type": "electric_scooter", "rental_uris": {"ios": "https://dc.lft.to/lastmile_qr_scan", "android": "https://dc.lft.to/lastmile_qr_scan"}, "lat": 38.902145166666664, "lon": -77.04333216666667, "bike_id": "2ea90d88edf46e60c0d80819e29cb64e", "fusion_lat": 0.0, "is_disabled": 0, "fusion_lon": 0.0}, {"name": "5ace3ea7b2e9fe7e0878cfc9c0bb6df2", "is_reserved": 0, "type": "electric_scooter", "rental_uris": {"ios": "https://dc.lft.to/lastmile_qr_scan", "android": "https://dc.lft.to/lastmile_qr_scan"}, "lat": 38.8670035, "lon": -76.98400033333333, "bike_id": "5ace3ea7b2e9fe7e0878cfc9c0bb6df2", "fusion_lat": 0.0, "is_disabled": 0, "fusion_lon": 0.0}, {"name": "249ab28c3e738331de6a59141086a970", "is_reserved": 0, "type": "electric_scooter", "rental_uris": {"ios": "https://dc.lft.to/lastmile_qr_scan", "android": "https://dc.lft.to/lastmile_qr_scan"}, "lat": 38.8950105, "lon": -77.00286716666666, "bike_id": "249ab28c3e738331de6a59141086a970", "fusion_lat": 0.0, "is_disabled": 0, "fusion_lon": 0.0}, {"name": "2b5b11a4ccf67a87cc9a1ec13b8f44f6", "is_reserved": 0, "type": "electric_scooter", "rental_uris": {"ios": "https://dc.lft.to/lastmile_qr_scan", "android": "https://dc.lft.to/lastmile_qr_scan"}, "lat": 38.90787533333334, "lon": -77.03544316666667, "bike_id": "2b5b11a4ccf67a87cc9a1ec13b8f44f6", "fusion_lat": 0.0, "is_disabled": 0, "fusion_lon": 0.0}, {"name": "473a34ed86aaeac3c4cd41bd76104b2f", "is_reserved": 0, "type": "electric_scooter", "rental_uris": {"ios": "https://dc.lft.to/lastmile_qr_scan", "android": "https://dc.lft.to/lastmile_qr_scan"}, "lat": 38.896272, "lon": -77.0117745, "bike_id": "473a34ed86aaeac3c4cd41bd76104b2f", "fusion_lat": 0.0, "is_disabled": 0, "fusion_lon": 0.0}, {"name": "4615c4d98ba51486825fc74a3a53f674", "is_reserved": 0, "type": "electric_scooter", "rental_uris": {"ios": "https://dc.lft.to/lastmile_qr_scan", "android": "https://dc.lft.to/lastmile_qr_scan"}, "lat": 38.8857735, "lon": -77.01739683333334, "bike_id": "4615c4d98ba51486825fc74a3a53f674", "fusion_lat": 0.0, "is_disabled": 0, "fusion_lon": 0.0}, {"name": "ef8c9efd33b8781a93f55f0aa8823e03", "is_reserved": 0, "type": "electric_scooter", "rental_uris": {"ios": "https://dc.lft.to/lastmile_qr_scan", "android": "https://dc.lft.to/lastmile_qr_scan"}, "lat": 38.921586833333336, "lon": -77.042051, "bike_id": "ef8c9efd33b8781a93f55f0aa8823e03", "fusion_lat": 0.0, "is_disabled": 0, "fusion_lon": 0.0}, {"name": "d5a33fe6d70ca93531814a34f8aecbd5", "is_reserved": 0, "type": "electric_scooter", "rental_uris": {"ios": "https://dc.lft.to/lastmile_qr_scan", "android": "https://dc.lft.to/lastmile_qr_scan"}, "lat": 38.89048233333333, "lon": -76.93748133333334, "bike_id": "d5a33fe6d70ca93531814a34f8aecbd5", "fusion_lat": 0.0, "is_disabled": 0, "fusion_lon": 0.0}, {"name": "26e0ca3c9f64042f737b232ee643381a", "is_reserved": 0, "type": "electric_scooter", "rental_uris": {"ios": "https://dc.lft.to/lastmile_qr_scan", "android": "https://dc.lft.to/lastmile_qr_scan"}, "lat": 38.92080133333333, "lon": -77.02945183333334, "bike_id": "26e0ca3c9f64042f737b232ee643381a", "fusion_lat": 0.0, "is_disabled": 0, "fusion_lon": 0.0}, {"name": "74492dc6e4becced6875a0f8dc84d557", "is_reserved": 0, "type": "electric_scooter", "rental_uris": {"ios": "https://dc.lft.to/lastmile_qr_scan", "android": "https://dc.lft.to/lastmile_qr_scan"}, "lat": 38.90014716666667, "lon": -76.99303133333333, "bike_id": "74492dc6e4becced6875a0f8dc84d557", "fusion_lat": 0.0, "is_disabled": 0, "fusion_lon": 0.0}, {"name": "b3cb90fdcb95db4f194961623f0ecf18", "is_reserved": 0, "type": "electric_bike", "rental_uris": {"ios": "https://dc.lft.to/lastmile_qr_scan", "android": "https://dc.lft.to/lastmile_qr_scan"}, "lat": 38.886235666666664, "lon": -77.0947725, "bike_id": "b3cb90fdcb95db4f194961623f0ecf18", "fusion_lat": 0.0, "is_disabled": 0, "fusion_lon": 0.0}, {"name": "c527c110f92cf1766336c889efc34083", "is_reserved": 0, "type": "electric_scooter", "rental_uris": {"ios": "https://dc.lft.to/lastmile_qr_scan", "android": "https://dc.lft.to/lastmile_qr_scan"}, "lat": 38.915746666666664, "lon": -77.04700383333333, "bike_id": "c527c110f92cf1766336c889efc34083", "fusion_lat": 0.0, "is_disabled": 0, "fusion_lon": 0.0}, {"name": "a6c096a864478d0884c00368f43c1c94", "is_reserved": 0, "type": "electric_scooter", "rental_uris": {"ios": "https://dc.lft.to/lastmile_qr_scan", "android": "https://dc.lft.to/lastmile_qr_scan"}, "lat": 38.90256516666667, "lon": -77.03427583333334, "bike_id": "a6c096a864478d0884c00368f43c1c94", "fusion_lat": 0.0, "is_disabled": 0, "fusion_lon": 0.0}, {"name": "84ccf191d6ec21098e194e5aa29dbb43", "is_reserved": 0, "type": "electric_scooter", "rental_uris": {"ios": "https://dc.lft.to/lastmile_qr_scan", "android": "https://dc.lft.to/lastmile_qr_scan"}, "lat": 38.911940333333334, "lon": -77.03833966666667, "bike_id": "84ccf191d6ec21098e194e5aa29dbb43", "fusion_lat": 0.0, "is_disabled": 0, "fusion_lon": 0.0}, {"name": "96b0b796cea48af292528897e3421ff3", "is_reserved": 0, "type": "electric_bike", "rental_uris": {"ios": "https://dc.lft.to/lastmile_qr_scan", "android": "https://dc.lft.to/lastmile_qr_scan"}, "lat": 38.8619795, "lon": -76.9480005, "bike_id": "96b0b796cea48af292528897e3421ff3", "fusion_lat": 0.0, "is_disabled": 0, "fusion_lon": 0.0}, {"name": "9765647333ac539fcac827b4f0674bd2", "is_reserved": 0, "type": "electric_scooter", "rental_uris": {"ios": "https://dc.lft.to/lastmile_qr_scan", "android": "https://dc.lft.to/lastmile_qr_scan"}, "lat": 38.8899065, "lon": -77.0033695, "bike_id": "9765647333ac539fcac827b4f0674bd2", "fusion_lat": 0.0, "is_disabled": 0, "fusion_lon": 0.0}, {"name": "2b3a20197c24e86125423c9e1d8374cc", "is_reserved": 0, "type": "electric_scooter", "rental_uris": {"ios": "https://dc.lft.to/lastmile_qr_scan", "android": "https://dc.lft.to/lastmile_qr_scan"}, "lat": 38.921968, "lon": -77.04717216666667, "bike_id": "2b3a20197c24e86125423c9e1d8374cc", "fusion_lat": 0.0, "is_disabled": 0, "fusion_lon": 0.0}, {"name": "48ade017f49159e1ad938e5f31336d86", "is_reserved": 0, "type": "electric_scooter", "rental_uris": {"ios": "https://dc.lft.to/lastmile_qr_scan", "android": "https://dc.lft.to/lastmile_qr_scan"}, "lat": 38.91564833333333, "lon": -77.0312475, "bike_id": "48ade017f49159e1ad938e5f31336d86", "fusion_lat": 0.0, "is_disabled": 0, "fusion_lon": 0.0}, {"name": "b91bb81db19fcf784653a1f383d09550", "is_reserved": 0, "type": "electric_scooter", "rental_uris": {"ios": "https://dc.lft.to/lastmile_qr_scan", "android": "https://dc.lft.to/lastmile_qr_scan"}, "lat": 38.9130235, "lon": -77.03171066666667, "bike_id": "b91bb81db19fcf784653a1f383d09550", "fusion_lat": 0.0, "is_disabled": 0, "fusion_lon": 0.0}, {"name": "32e738e08c687a2c7b7f10d9f28e0470", "is_reserved": 0, "type": "electric_scooter", "rental_uris": {"ios": "https://dc.lft.to/lastmile_qr_scan", "android": "https://dc.lft.to/lastmile_qr_scan"}, "lat": 38.917407, "lon": -77.03838416666666, "bike_id": "32e738e08c687a2c7b7f10d9f28e0470", "fusion_lat": 0.0, "is_disabled": 0, "fusion_lon": 0.0}, {"name": "983adb2133d4984df5a049d8917ce9fc", "is_reserved": 0, "type": "electric_scooter", "rental_uris": {"ios": "https://dc.lft.to/lastmile_qr_scan", "android": "https://dc.lft.to/lastmile_qr_scan"}, "lat": 38.8961015, "lon": -76.99522033333334, "bike_id": "983adb2133d4984df5a049d8917ce9fc", "fusion_lat": 0.0, "is_disabled": 0, "fusion_lon": 0.0}, {"name": "7d6af33902608c52b075d8f2629f918b", "is_reserved": 0, "type": "electric_scooter", "rental_uris": {"ios": "https://dc.lft.to/lastmile_qr_scan", "android": "https://dc.lft.to/lastmile_qr_scan"}, "lat": 38.92416466666667, "lon": -77.03538366666666, "bike_id": "7d6af33902608c52b075d8f2629f918b", "fusion_lat": 0.0, "is_disabled": 0, "fusion_lon": 0.0}, {"name": "72998657a97acab7f9c52bfb413d662e", "is_reserved": 0, "type": "electric_scooter", "rental_uris": {"ios": "https://dc.lft.to/lastmile_qr_scan", "android": "https://dc.lft.to/lastmile_qr_scan"}, "lat": 38.91024316666667, "lon": -77.06908966666667, "bike_id": "72998657a97acab7f9c52bfb413d662e", "fusion_lat": 0.0, "is_disabled": 0, "fusion_lon": 0.0}, {"name": "d50b2bbc59e82005c69d2eabc293e208", "is_reserved": 0, "type": "electric_scooter", "rental_uris": {"ios": "https://dc.lft.to/lastmile_qr_scan", "android": "https://dc.lft.to/lastmile_qr_scan"}, "lat": 38.9171015, "lon": -77.03478116666666, "bike_id": "d50b2bbc59e82005c69d2eabc293e208", "fusion_lat": 0.0, "is_disabled": 0, "fusion_lon": 0.0}, {"name": "784cdbab790fb453dfb495b2616d8aa1", "is_reserved": 0, "type": "electric_scooter", "rental_uris": {"ios": "https://dc.lft.to/lastmile_qr_scan", "android": "https://dc.lft.to/lastmile_qr_scan"}, "lat": 38.92586466666667, "lon": -77.04004583333334, "bike_id": "784cdbab790fb453dfb495b2616d8aa1", "fusion_lat": 0.0, "is_disabled": 0, "fusion_lon": 0.0}, {"name": "a39d601de1b2cd98c89b65973af77f8f", "is_reserved": 0, "type": "electric_scooter", "rental_uris": {"ios": "https://dc.lft.to/lastmile_qr_scan", "android": "https://dc.lft.to/lastmile_qr_scan"}, "lat": 38.92347183333333, "lon": -77.05124316666667, "bike_id": "a39d601de1b2cd98c89b65973af77f8f", "fusion_lat": 0.0, "is_disabled": 0, "fusion_lon": 0.0}, {"name": "31914b2d36223c0614821f17c98b901c", "is_reserved": 0, "type": "electric_scooter", "rental_uris": {"ios": "https://dc.lft.to/lastmile_qr_scan", "android": "https://dc.lft.to/lastmile_qr_scan"}, "lat": 38.921229333333336, "lon": -77.024228, "bike_id": "31914b2d36223c0614821f17c98b901c", "fusion_lat": 0.0, "is_disabled": 0, "fusion_lon": 0.0}, {"name": "05ed57de28dd1a941342b044d40cbb46", "is_reserved": 0, "type": "electric_scooter", "rental_uris": {"ios": "https://dc.lft.to/lastmile_qr_scan", "android": "https://dc.lft.to/lastmile_qr_scan"}, "lat": 38.86658033333333, "lon": -76.98882566666667, "bike_id": "05ed57de28dd1a941342b044d40cbb46", "fusion_lat": 0.0, "is_disabled": 0, "fusion_lon": 0.0}, {"name": "166ebb1d060bfc2bc37faac8b1b4bfbe", "is_reserved": 0, "type": "electric_scooter", "rental_uris": {"ios": "https://dc.lft.to/lastmile_qr_scan", "android": "https://dc.lft.to/lastmile_qr_scan"}, "lat": 38.90561266666667, "lon": -77.02172783333333, "bike_id": "166ebb1d060bfc2bc37faac8b1b4bfbe", "fusion_lat": 0.0, "is_disabled": 0, "fusion_lon": 0.0}, {"name": "b22c56aa0737744ba1fe4f80f7deb4fa", "is_reserved": 0, "type": "electric_bike", "rental_uris": {"ios": "https://dc.lft.to/lastmile_qr_scan", "android": "https://dc.lft.to/lastmile_qr_scan"}, "lat": 38.88690366666667, "lon": -77.16086166666666, "bike_id": "b22c56aa0737744ba1fe4f80f7deb4fa", "fusion_lat": 0.0, "is_disabled": 0, "fusion_lon": 0.0}, {"name": "1040e174b57ee06cf69326c02f29b161", "is_reserved": 0, "type": "electric_scooter", "rental_uris": {"ios": "https://dc.lft.to/lastmile_qr_scan", "android": "https://dc.lft.to/lastmile_qr_scan"}, "lat": 38.906243333333336, "lon": -77.028215, "bike_id": "1040e174b57ee06cf69326c02f29b161", "fusion_lat": 0.0, "is_disabled": 0, "fusion_lon": 0.0}, {"name": "74b48addf0b6adbb0934e309608fc347", "is_reserved": 0, "type": "electric_scooter", "rental_uris": {"ios": "https://dc.lft.to/lastmile_qr_scan", "android": "https://dc.lft.to/lastmile_qr_scan"}, "lat": 38.892225833333335, "lon": -77.02649216666667, "bike_id": "74b48addf0b6adbb0934e309608fc347", "fusion_lat": 0.0, "is_disabled": 0, "fusion_lon": 0.0}, {"name": "bfb41d10a41ce40c889a6873239004ed", "is_reserved": 0, "type": "electric_scooter", "rental_uris": {"ios": "https://dc.lft.to/lastmile_qr_scan", "android": "https://dc.lft.to/lastmile_qr_scan"}, "lat": 38.859129333333335, "lon": -76.99710516666667, "bike_id": "bfb41d10a41ce40c889a6873239004ed", "fusion_lat": 0.0, "is_disabled": 0, "fusion_lon": 0.0}, {"name": "95e752a68efb562733f203ae674c5143", "is_reserved": 0, "type": "electric_scooter", "rental_uris": {"ios": "https://dc.lft.to/lastmile_qr_scan", "android": "https://dc.lft.to/lastmile_qr_scan"}, "lat": 38.917607833333335, "lon": -77.036619, "bike_id": "95e752a68efb562733f203ae674c5143", "fusion_lat": 0.0, "is_disabled": 0, "fusion_lon": 0.0}, {"name": "c1d9e081744653211f129faffb7ad68f", "is_reserved": 0, "type": "electric_scooter", "rental_uris": {"ios": "https://dc.lft.to/lastmile_qr_scan", "android": "https://dc.lft.to/lastmile_qr_scan"}, "lat": 38.90704183333333, "lon": -77.043652, "bike_id": "c1d9e081744653211f129faffb7ad68f", "fusion_lat": 0.0, "is_disabled": 0, "fusion_lon": 0.0}, {"name": "d4ecaaf918f3e23a34a8cd1311a5c755", "is_reserved": 0, "type": "electric_scooter", "rental_uris": {"ios": "https://dc.lft.to/lastmile_qr_scan", "android": "https://dc.lft.to/lastmile_qr_scan"}, "lat": 38.912716333333336, "lon": -77.026823, "bike_id": "d4ecaaf918f3e23a34a8cd1311a5c755", "fusion_lat": 0.0, "is_disabled": 0, "fusion_lon": 0.0}, {"name": "53207a66517a9b6f57d1f05700e46a86", "is_reserved": 0, "type": "electric_scooter", "rental_uris": {"ios": "https://dc.lft.to/lastmile_qr_scan", "android": "https://dc.lft.to/lastmile_qr_scan"}, "lat": 38.903236, "lon": -77.05224233333334, "bike_id": "53207a66517a9b6f57d1f05700e46a86", "fusion_lat": 0.0, "is_disabled": 0, "fusion_lon": 0.0}, {"name": "539fa39c23ca8ab372d2e00c8b188b5c", "is_reserved": 0, "type": "electric_scooter", "rental_uris": {"ios": "https://dc.lft.to/lastmile_qr_scan", "android": "https://dc.lft.to/lastmile_qr_scan"}, "lat": 38.9183585, "lon": -77.03904716666666, "bike_id": "539fa39c23ca8ab372d2e00c8b188b5c", "fusion_lat": 0.0, "is_disabled": 0, "fusion_lon": 0.0}, {"name": "7912f4332307b258c42d2feaff026027", "is_reserved": 0, "type": "electric_scooter", "rental_uris": {"ios": "https://dc.lft.to/lastmile_qr_scan", "android": "https://dc.lft.to/lastmile_qr_scan"}, "lat": 38.93066983333333, "lon": -77.0396125, "bike_id": "7912f4332307b258c42d2feaff026027", "fusion_lat": 0.0, "is_disabled": 0, "fusion_lon": 0.0}, {"name": "97e7e0055de1fe956280828d95c6c401", "is_reserved": 0, "type": "electric_scooter", "rental_uris": {"ios": "https://dc.lft.to/lastmile_qr_scan", "android": "https://dc.lft.to/lastmile_qr_scan"}, "lat": 38.931804, "lon": -77.02849216666667, "bike_id": "97e7e0055de1fe956280828d95c6c401", "fusion_lat": 0.0, "is_disabled": 0, "fusion_lon": 0.0}, {"name": "d527e175d53532847cbf42ceb6cb2ece", "is_reserved": 0, "type": "electric_scooter", "rental_uris": {"ios": "https://dc.lft.to/lastmile_qr_scan", "android": "https://dc.lft.to/lastmile_qr_scan"}, "lat": 38.91545, "lon": -76.98364083333334, "bike_id": "d527e175d53532847cbf42ceb6cb2ece", "fusion_lat": 0.0, "is_disabled": 0, "fusion_lon": 0.0}, {"name": "08629a95469c7b6588cda05d58675184", "is_reserved": 0, "type": "electric_scooter", "rental_uris": {"ios": "https://dc.lft.to/lastmile_qr_scan", "android": "https://dc.lft.to/lastmile_qr_scan"}, "lat": 38.89227, "lon": -77.04505233333333, "bike_id": "08629a95469c7b6588cda05d58675184", "fusion_lat": 0.0, "is_disabled": 0, "fusion_lon": 0.0}, {"name": "d87a518105b58b1841c9a1a074f140f1", "is_reserved": 0, "type": "electric_scooter", "rental_uris": {"ios": "https://dc.lft.to/lastmile_qr_scan", "android": "https://dc.lft.to/lastmile_qr_scan"}, "lat": 38.91043616666666, "lon": -77.0367765, "bike_id": "d87a518105b58b1841c9a1a074f140f1", "fusion_lat": 0.0, "is_disabled": 0, "fusion_lon": 0.0}, {"name": "126aadb5d6aaa2d1d064468264d6ceca", "is_reserved": 0, "type": "electric_bike", "rental_uris": {"ios": "https://dc.lft.to/lastmile_qr_scan", "android": "https://dc.lft.to/lastmile_qr_scan"}, "lat": 38.98819366666667, "lon": -76.99655633333333, "bike_id": "126aadb5d6aaa2d1d064468264d6ceca", "fusion_lat": 0.0, "is_disabled": 0, "fusion_lon": 0.0}, {"name": "987a38df4a9b81688ef6c9f624eda63b", "is_reserved": 0, "type": "electric_scooter", "rental_uris": {"ios": "https://dc.lft.to/lastmile_qr_scan", "android": "https://dc.lft.to/lastmile_qr_scan"}, "lat": 38.92205216666667, "lon": -77.02096933333333, "bike_id": "987a38df4a9b81688ef6c9f624eda63b", "fusion_lat": 0.0, "is_disabled": 0, "fusion_lon": 0.0}, {"name": "f7e9d211353607e78e47c4380d02049f", "is_reserved": 0, "type": "electric_scooter", "rental_uris": {"ios": "https://dc.lft.to/lastmile_qr_scan", "android": "https://dc.lft.to/lastmile_qr_scan"}, "lat": 38.921571, "lon": -77.0331865, "bike_id": "f7e9d211353607e78e47c4380d02049f", "fusion_lat": 0.0, "is_disabled": 0, "fusion_lon": 0.0}, {"name": "e4eda32d03b651515ea17a921f64f42a", "is_reserved": 0, "type": "electric_scooter", "rental_uris": {"ios": "https://dc.lft.to/lastmile_qr_scan", "android": "https://dc.lft.to/lastmile_qr_scan"}, "lat": 38.936811166666665, "lon": -77.0327545, "bike_id": "e4eda32d03b651515ea17a921f64f42a", "fusion_lat": 0.0, "is_disabled": 0, "fusion_lon": 0.0}, {"name": "6856d25841ff54116f5a01f3f2a6c51e", "is_reserved": 0, "type": "electric_scooter", "rental_uris": {"ios": "https://dc.lft.to/lastmile_qr_scan", "android": "https://dc.lft.to/lastmile_qr_scan"}, "lat": 38.928327333333336, "lon": -77.0542925, "bike_id": "6856d25841ff54116f5a01f3f2a6c51e", "fusion_lat": 0.0, "is_disabled": 0, "fusion_lon": 0.0}, {"name": "b21906e0c72f63e51bd9aa207e4d6391", "is_reserved": 0, "type": "electric_scooter", "rental_uris": {"ios": "https://dc.lft.to/lastmile_qr_scan", "android": "https://dc.lft.to/lastmile_qr_scan"}, "lat": 38.914124, "lon": -77.01811683333334, "bike_id": "b21906e0c72f63e51bd9aa207e4d6391", "fusion_lat": 0.0, "is_disabled": 0, "fusion_lon": 0.0}, {"name": "94c02c1192e7ee32febf06cf0204bb08", "is_reserved": 0, "type": "electric_scooter", "rental_uris": {"ios": "https://dc.lft.to/lastmile_qr_scan", "android": "https://dc.lft.to/lastmile_qr_scan"}, "lat": 38.90035966666667, "lon": -77.01163383333333, "bike_id": "94c02c1192e7ee32febf06cf0204bb08", "fusion_lat": 0.0, "is_disabled": 0, "fusion_lon": 0.0}, {"name": "d693f9d35310742aba0d2bc8010e021d", "is_reserved": 0, "type": "electric_scooter", "rental_uris": {"ios": "https://dc.lft.to/lastmile_qr_scan", "android": "https://dc.lft.to/lastmile_qr_scan"}, "lat": 38.923236, "lon": -77.02144516666667, "bike_id": "d693f9d35310742aba0d2bc8010e021d", "fusion_lat": 0.0, "is_disabled": 0, "fusion_lon": 0.0}, {"name": "8d4153e38b6aaf18370079ebecd7a294", "is_reserved": 0, "type": "electric_scooter", "rental_uris": {"ios": "https://dc.lft.to/lastmile_qr_scan", "android": "https://dc.lft.to/lastmile_qr_scan"}, "lat": 38.9234445, "lon": -77.05349666666666, "bike_id": "8d4153e38b6aaf18370079ebecd7a294", "fusion_lat": 0.0, "is_disabled": 0, "fusion_lon": 0.0}, {"name": "6d7e5846054f3bff766caa0e65df9810", "is_reserved": 0, "type": "electric_bike", "rental_uris": {"ios": "https://dc.lft.to/lastmile_qr_scan", "android": "https://dc.lft.to/lastmile_qr_scan"}, "lat": 38.89938033333333, "lon": -77.0091135, "bike_id": "6d7e5846054f3bff766caa0e65df9810", "fusion_lat": 0.0, "is_disabled": 0, "fusion_lon": 0.0}, {"name": "2db3fa17127bd5d566b70da01ea35a07", "is_reserved": 0, "type": "electric_scooter", "rental_uris": {"ios": "https://dc.lft.to/lastmile_qr_scan", "android": "https://dc.lft.to/lastmile_qr_scan"}, "lat": 38.93583016666667, "lon": -77.02743516666666, "bike_id": "2db3fa17127bd5d566b70da01ea35a07", "fusion_lat": 0.0, "is_disabled": 0, "fusion_lon": 0.0}, {"name": "981296380b8d203e55372c85d38ced5f", "is_reserved": 0, "type": "electric_scooter", "rental_uris": {"ios": "https://dc.lft.to/lastmile_qr_scan", "android": "https://dc.lft.to/lastmile_qr_scan"}, "lat": 38.9077295, "lon": -77.06327616666667, "bike_id": "981296380b8d203e55372c85d38ced5f", "fusion_lat": 0.0, "is_disabled": 0, "fusion_lon": 0.0}, {"name": "cbbb66154599bda19140ea6eeebd6270", "is_reserved": 0, "type": "electric_scooter", "rental_uris": {"ios": "https://dc.lft.to/lastmile_qr_scan", "android": "https://dc.lft.to/lastmile_qr_scan"}, "lat": 38.902871833333336, "lon": -76.9819315, "bike_id": "cbbb66154599bda19140ea6eeebd6270", "fusion_lat": 0.0, "is_disabled": 0, "fusion_lon": 0.0}, {"name": "5a8b11204ecc52e2aea782be0ba3be37", "is_reserved": 0, "type": "electric_scooter", "rental_uris": {"ios": "https://dc.lft.to/lastmile_qr_scan", "android": "https://dc.lft.to/lastmile_qr_scan"}, "lat": 38.89718383333334, "lon": -77.021815, "bike_id": "5a8b11204ecc52e2aea782be0ba3be37", "fusion_lat": 0.0, "is_disabled": 0, "fusion_lon": 0.0}, {"name": "1a5cea411a5e2508509aaad540eed247", "is_reserved": 0, "type": "electric_scooter", "rental_uris": {"ios": "https://dc.lft.to/lastmile_qr_scan", "android": "https://dc.lft.to/lastmile_qr_scan"}, "lat": 38.862641833333335, "lon": -76.986913, "bike_id": "1a5cea411a5e2508509aaad540eed247", "fusion_lat": 0.0, "is_disabled": 0, "fusion_lon": 0.0}, {"name": "ae0b9606bdb8d79f332c1de0235f8d3e", "is_reserved": 0, "type": "electric_scooter", "rental_uris": {"ios": "https://dc.lft.to/lastmile_qr_scan", "android": "https://dc.lft.to/lastmile_qr_scan"}, "lat": 38.95424766666667, "lon": -77.02765383333333, "bike_id": "ae0b9606bdb8d79f332c1de0235f8d3e", "fusion_lat": 0.0, "is_disabled": 0, "fusion_lon": 0.0}, {"name": "4b7dce5d44c3b24dfff5c024f49d3084", "is_reserved": 0, "type": "electric_scooter", "rental_uris": {"ios": "https://dc.lft.to/lastmile_qr_scan", "android": "https://dc.lft.to/lastmile_qr_scan"}, "lat": 38.91687833333334, "lon": -77.0295365, "bike_id": "4b7dce5d44c3b24dfff5c024f49d3084", "fusion_lat": 0.0, "is_disabled": 0, "fusion_lon": 0.0}, {"name": "0452474c7c9cf6da7229fd175789cbad", "is_reserved": 0, "type": "electric_scooter", "rental_uris": {"ios": "https://dc.lft.to/lastmile_qr_scan", "android": "https://dc.lft.to/lastmile_qr_scan"}, "lat": 38.921753833333334, "lon": -77.04231383333334, "bike_id": "0452474c7c9cf6da7229fd175789cbad", "fusion_lat": 0.0, "is_disabled": 0, "fusion_lon": 0.0}, {"name": "dedda64b6214619f217f11f1fc68b2e6", "is_reserved": 0, "type": "electric_bike", "rental_uris": {"ios": "https://dc.lft.to/lastmile_qr_scan", "android": "https://dc.lft.to/lastmile_qr_scan"}, "lat": 38.87103316666666, "lon": -77.01203616666666, "bike_id": "dedda64b6214619f217f11f1fc68b2e6", "fusion_lat": 0.0, "is_disabled": 0, "fusion_lon": 0.0}, {"name": "a69868784cadd6e6cc3c74e3d5423f82", "is_reserved": 0, "type": "electric_scooter", "rental_uris": {"ios": "https://dc.lft.to/lastmile_qr_scan", "android": "https://dc.lft.to/lastmile_qr_scan"}, "lat": 38.900519333333335, "lon": -77.00068183333333, "bike_id": "a69868784cadd6e6cc3c74e3d5423f82", "fusion_lat": 0.0, "is_disabled": 0, "fusion_lon": 0.0}, {"name": "8393c2f8315ddac15044fa19246da11d", "is_reserved": 0, "type": "electric_scooter", "rental_uris": {"ios": "https://dc.lft.to/lastmile_qr_scan", "android": "https://dc.lft.to/lastmile_qr_scan"}, "lat": 38.8991795, "lon": -76.93369783333333, "bike_id": "8393c2f8315ddac15044fa19246da11d", "fusion_lat": 0.0, "is_disabled": 0, "fusion_lon": 0.0}, {"name": "1cd45a104cc2c3dd869f7e17917b577e", "is_reserved": 0, "type": "electric_scooter", "rental_uris": {"ios": "https://dc.lft.to/lastmile_qr_scan", "android": "https://dc.lft.to/lastmile_qr_scan"}, "lat": 38.920062, "lon": -77.0240365, "bike_id": "1cd45a104cc2c3dd869f7e17917b577e", "fusion_lat": 0.0, "is_disabled": 0, "fusion_lon": 0.0}, {"name": "0285c6b1d447d5fb63cd6c7516c869c8", "is_reserved": 0, "type": "electric_scooter", "rental_uris": {"ios": "https://dc.lft.to/lastmile_qr_scan", "android": "https://dc.lft.to/lastmile_qr_scan"}, "lat": 38.909775, "lon": -77.032507, "bike_id": "0285c6b1d447d5fb63cd6c7516c869c8", "fusion_lat": 0.0, "is_disabled": 0, "fusion_lon": 0.0}, {"name": "05f3ac9c6cbb79dd8c1719096e5b5bfb", "is_reserved": 0, "type": "electric_bike", "rental_uris": {"ios": "https://dc.lft.to/lastmile_qr_scan", "android": "https://dc.lft.to/lastmile_qr_scan"}, "lat": 38.841023166666666, "lon": -77.089417, "bike_id": "05f3ac9c6cbb79dd8c1719096e5b5bfb", "fusion_lat": 0.0, "is_disabled": 0, "fusion_lon": 0.0}, {"name": "8b2f05a39fb15418f308eeb78437941b", "is_reserved": 0, "type": "electric_scooter", "rental_uris": {"ios": "https://dc.lft.to/lastmile_qr_scan", "android": "https://dc.lft.to/lastmile_qr_scan"}, "lat": 38.88706966666667, "lon": -77.01368283333333, "bike_id": "8b2f05a39fb15418f308eeb78437941b", "fusion_lat": 0.0, "is_disabled": 0, "fusion_lon": 0.0}, {"name": "6bce2e1dd7e02d0f6feff441f10c3f5b", "is_reserved": 0, "type": "electric_scooter", "rental_uris": {"ios": "https://dc.lft.to/lastmile_qr_scan", "android": "https://dc.lft.to/lastmile_qr_scan"}, "lat": 38.92339716666667, "lon": -77.03502233333333, "bike_id": "6bce2e1dd7e02d0f6feff441f10c3f5b", "fusion_lat": 0.0, "is_disabled": 0, "fusion_lon": 0.0}, {"name": "1d49e1acfc39e8b4700fa7478cc42fee", "is_reserved": 0, "type": "electric_scooter", "rental_uris": {"ios": "https://dc.lft.to/lastmile_qr_scan", "android": "https://dc.lft.to/lastmile_qr_scan"}, "lat": 38.8999535, "lon": -77.02213816666666, "bike_id": "1d49e1acfc39e8b4700fa7478cc42fee", "fusion_lat": 0.0, "is_disabled": 0, "fusion_lon": 0.0}, {"name": "9495bfd69e8b3049e40fdfd20214fd98", "is_reserved": 0, "type": "electric_scooter", "rental_uris": {"ios": "https://dc.lft.to/lastmile_qr_scan", "android": "https://dc.lft.to/lastmile_qr_scan"}, "lat": 38.884548333333335, "lon": -76.95095833333333, "bike_id": "9495bfd69e8b3049e40fdfd20214fd98", "fusion_lat": 0.0, "is_disabled": 0, "fusion_lon": 0.0}, {"name": "7873f31a53fd566fc2e4789cf38fc906", "is_reserved": 0, "type": "electric_scooter", "rental_uris": {"ios": "https://dc.lft.to/lastmile_qr_scan", "android": "https://dc.lft.to/lastmile_qr_scan"}, "lat": 38.920279666666666, "lon": -77.01791816666666, "bike_id": "7873f31a53fd566fc2e4789cf38fc906", "fusion_lat": 0.0, "is_disabled": 0, "fusion_lon": 0.0}, {"name": "7b256cb8110fa8311a14269301804bcd", "is_reserved": 0, "type": "electric_scooter", "rental_uris": {"ios": "https://dc.lft.to/lastmile_qr_scan", "android": "https://dc.lft.to/lastmile_qr_scan"}, "lat": 38.90798366666667, "lon": -77.0435605, "bike_id": "7b256cb8110fa8311a14269301804bcd", "fusion_lat": 0.0, "is_disabled": 0, "fusion_lon": 0.0}, {"name": "faaf7e4c4ac1a66e66d49f0267cf08e1", "is_reserved": 0, "type": "electric_scooter", "rental_uris": {"ios": "https://dc.lft.to/lastmile_qr_scan", "android": "https://dc.lft.to/lastmile_qr_scan"}, "lat": 38.88645533333333, "lon": -76.9821165, "bike_id": "faaf7e4c4ac1a66e66d49f0267cf08e1", "fusion_lat": 0.0, "is_disabled": 0, "fusion_lon": 0.0}, {"name": "633f2e5b39409dffc77f6bb7652263a6", "is_reserved": 0, "type": "electric_scooter", "rental_uris": {"ios": "https://dc.lft.to/lastmile_qr_scan", "android": "https://dc.lft.to/lastmile_qr_scan"}, "lat": 38.927266, "lon": -77.022888, "bike_id": "633f2e5b39409dffc77f6bb7652263a6", "fusion_lat": 0.0, "is_disabled": 0, "fusion_lon": 0.0}, {"name": "6f9f1a0e8f16e8d5647ff096d92de057", "is_reserved": 0, "type": "electric_scooter", "rental_uris": {"ios": "https://dc.lft.to/lastmile_qr_scan", "android": "https://dc.lft.to/lastmile_qr_scan"}, "lat": 38.9236185, "lon": -77.0542235, "bike_id": "6f9f1a0e8f16e8d5647ff096d92de057", "fusion_lat": 0.0, "is_disabled": 0, "fusion_lon": 0.0}, {"name": "c0c33ed003293fa142ce8f47de8c26f5", "is_reserved": 0, "type": "electric_scooter", "rental_uris": {"ios": "https://dc.lft.to/lastmile_qr_scan", "android": "https://dc.lft.to/lastmile_qr_scan"}, "lat": 38.91390233333333, "lon": -77.01899333333333, "bike_id": "c0c33ed003293fa142ce8f47de8c26f5", "fusion_lat": 0.0, "is_disabled": 0, "fusion_lon": 0.0}, {"name": "700ae9c7a0f56ce1a43854b762c76664", "is_reserved": 0, "type": "electric_scooter", "rental_uris": {"ios": "https://dc.lft.to/lastmile_qr_scan", "android": "https://dc.lft.to/lastmile_qr_scan"}, "lat": 38.91711516666667, "lon": -77.03472, "bike_id": "700ae9c7a0f56ce1a43854b762c76664", "fusion_lat": 0.0, "is_disabled": 0, "fusion_lon": 0.0}, {"name": "8cef4c32a1db1bd615e820c5274ede6c", "is_reserved": 0, "type": "electric_scooter", "rental_uris": {"ios": "https://dc.lft.to/lastmile_qr_scan", "android": "https://dc.lft.to/lastmile_qr_scan"}, "lat": 38.91616616666667, "lon": -77.0315975, "bike_id": "8cef4c32a1db1bd615e820c5274ede6c", "fusion_lat": 0.0, "is_disabled": 0, "fusion_lon": 0.0}, {"name": "3f1031f2965d1b8dc0f00b5ac03f3c30", "is_reserved": 0, "type": "electric_scooter", "rental_uris": {"ios": "https://dc.lft.to/lastmile_qr_scan", "android": "https://dc.lft.to/lastmile_qr_scan"}, "lat": 38.90649416666667, "lon": -77.04244533333333, "bike_id": "3f1031f2965d1b8dc0f00b5ac03f3c30", "fusion_lat": 0.0, "is_disabled": 0, "fusion_lon": 0.0}, {"name": "13a7665383beafe014c9494359e6587d", "is_reserved": 0, "type": "electric_scooter", "rental_uris": {"ios": "https://dc.lft.to/lastmile_qr_scan", "android": "https://dc.lft.to/lastmile_qr_scan"}, "lat": 38.912278666666666, "lon": -77.03205633333333, "bike_id": "13a7665383beafe014c9494359e6587d", "fusion_lat": 0.0, "is_disabled": 0, "fusion_lon": 0.0}, {"name": "78ef3cbe2d2eac1364410f54e55a5ac4", "is_reserved": 0, "type": "electric_scooter", "rental_uris": {"ios": "https://dc.lft.to/lastmile_qr_scan", "android": "https://dc.lft.to/lastmile_qr_scan"}, "lat": 38.903535833333336, "lon": -77.039265, "bike_id": "78ef3cbe2d2eac1364410f54e55a5ac4", "fusion_lat": 0.0, "is_disabled": 0, "fusion_lon": 0.0}, {"name": "fb034c5d392bef6d8c8065c27ae21051", "is_reserved": 0, "type": "electric_scooter", "rental_uris": {"ios": "https://dc.lft.to/lastmile_qr_scan", "android": "https://dc.lft.to/lastmile_qr_scan"}, "lat": 38.901488666666665, "lon": -77.04658283333333, "bike_id": "fb034c5d392bef6d8c8065c27ae21051", "fusion_lat": 0.0, "is_disabled": 0, "fusion_lon": 0.0}, {"name": "bddca5eb6366d2ea57b21033895169e9", "is_reserved": 0, "type": "electric_scooter", "rental_uris": {"ios": "https://dc.lft.to/lastmile_qr_scan", "android": "https://dc.lft.to/lastmile_qr_scan"}, "lat": 38.91712116666667, "lon": -77.04069783333334, "bike_id": "bddca5eb6366d2ea57b21033895169e9", "fusion_lat": 0.0, "is_disabled": 0, "fusion_lon": 0.0}, {"name": "94d9d18b318e6f51cbea2aa77b88c30a", "is_reserved": 0, "type": "electric_scooter", "rental_uris": {"ios": "https://dc.lft.to/lastmile_qr_scan", "android": "https://dc.lft.to/lastmile_qr_scan"}, "lat": 38.903539, "lon": -77.02862483333334, "bike_id": "94d9d18b318e6f51cbea2aa77b88c30a", "fusion_lat": 0.0, "is_disabled": 0, "fusion_lon": 0.0}, {"name": "80d8b4b7a820071c00c2ec4d689a9999", "is_reserved": 0, "type": "electric_scooter", "rental_uris": {"ios": "https://dc.lft.to/lastmile_qr_scan", "android": "https://dc.lft.to/lastmile_qr_scan"}, "lat": 38.93274816666667, "lon": -77.034864, "bike_id": "80d8b4b7a820071c00c2ec4d689a9999", "fusion_lat": 0.0, "is_disabled": 0, "fusion_lon": 0.0}, {"name": "61b1cb80ec809d51e4b7f1f0bfa239a0", "is_reserved": 0, "type": "electric_scooter", "rental_uris": {"ios": "https://dc.lft.to/lastmile_qr_scan", "android": "https://dc.lft.to/lastmile_qr_scan"}, "lat": 38.9241225, "lon": -77.02740166666666, "bike_id": "61b1cb80ec809d51e4b7f1f0bfa239a0", "fusion_lat": 0.0, "is_disabled": 0, "fusion_lon": 0.0}, {"name": "464270c84b022fd97e31b928965d842d", "is_reserved": 0, "type": "electric_scooter", "rental_uris": {"ios": "https://dc.lft.to/lastmile_qr_scan", "android": "https://dc.lft.to/lastmile_qr_scan"}, "lat": 38.930829, "lon": -77.02795216666667, "bike_id": "464270c84b022fd97e31b928965d842d", "fusion_lat": 0.0, "is_disabled": 0, "fusion_lon": 0.0}, {"name": "24ea072977a0f70f74bc31128d2a46a0", "is_reserved": 0, "type": "electric_scooter", "rental_uris": {"ios": "https://dc.lft.to/lastmile_qr_scan", "android": "https://dc.lft.to/lastmile_qr_scan"}, "lat": 38.863586166666664, "lon": -76.990614, "bike_id": "24ea072977a0f70f74bc31128d2a46a0", "fusion_lat": 0.0, "is_disabled": 0, "fusion_lon": 0.0}, {"name": "f4eab31fd0b13a3cbbce1ef475757b6b", "is_reserved": 0, "type": "electric_scooter", "rental_uris": {"ios": "https://dc.lft.to/lastmile_qr_scan", "android": "https://dc.lft.to/lastmile_qr_scan"}, "lat": 38.898953, "lon": -77.03198666666667, "bike_id": "f4eab31fd0b13a3cbbce1ef475757b6b", "fusion_lat": 0.0, "is_disabled": 0, "fusion_lon": 0.0}, {"name": "aaeab57acf722fc2e35cc88dca4f0e30", "is_reserved": 0, "type": "electric_scooter", "rental_uris": {"ios": "https://dc.lft.to/lastmile_qr_scan", "android": "https://dc.lft.to/lastmile_qr_scan"}, "lat": 38.91561883333333, "lon": -77.03173783333334, "bike_id": "aaeab57acf722fc2e35cc88dca4f0e30", "fusion_lat": 0.0, "is_disabled": 0, "fusion_lon": 0.0}, {"name": "badb41415351daca70dee09694af3c2f", "is_reserved": 0, "type": "electric_bike", "rental_uris": {"ios": "https://dc.lft.to/lastmile_qr_scan", "android": "https://dc.lft.to/lastmile_qr_scan"}, "lat": 38.854120333333334, "lon": -77.12075716666666, "bike_id": "badb41415351daca70dee09694af3c2f", "fusion_lat": 0.0, "is_disabled": 0, "fusion_lon": 0.0}, {"name": "c0a934f4b7aad1e73c97581197d83453", "is_reserved": 0, "type": "electric_bike", "rental_uris": {"ios": "https://dc.lft.to/lastmile_qr_scan", "android": "https://dc.lft.to/lastmile_qr_scan"}, "lat": 38.844285, "lon": -77.08576666666667, "bike_id": "c0a934f4b7aad1e73c97581197d83453", "fusion_lat": 0.0, "is_disabled": 0, "fusion_lon": 0.0}, {"name": "74abce83c278ea961c262256842f49b0", "is_reserved": 0, "type": "electric_scooter", "rental_uris": {"ios": "https://dc.lft.to/lastmile_qr_scan", "android": "https://dc.lft.to/lastmile_qr_scan"}, "lat": 38.90297116666667, "lon": -76.990314, "bike_id": "74abce83c278ea961c262256842f49b0", "fusion_lat": 0.0, "is_disabled": 0, "fusion_lon": 0.0}, {"name": "bd4bf07c8171e2e1b25d407712541c94", "is_reserved": 0, "type": "electric_bike", "rental_uris": {"ios": "https://dc.lft.to/lastmile_qr_scan", "android": "https://dc.lft.to/lastmile_qr_scan"}, "lat": 38.895045833333334, "lon": -76.92199066666667, "bike_id": "bd4bf07c8171e2e1b25d407712541c94", "fusion_lat": 0.0, "is_disabled": 0, "fusion_lon": 0.0}, {"name": "4081a3ae82fbf524aed3f98ac9dbddb0", "is_reserved": 0, "type": "electric_scooter", "rental_uris": {"ios": "https://dc.lft.to/lastmile_qr_scan", "android": "https://dc.lft.to/lastmile_qr_scan"}, "lat": 38.944223666666666, "lon": -77.06330516666667, "bike_id": "4081a3ae82fbf524aed3f98ac9dbddb0", "fusion_lat": 0.0, "is_disabled": 0, "fusion_lon": 0.0}, {"name": "98f865eaa6ae5125efd1981343d2a949", "is_reserved": 0, "type": "electric_scooter", "rental_uris": {"ios": "https://dc.lft.to/lastmile_qr_scan", "android": "https://dc.lft.to/lastmile_qr_scan"}, "lat": 38.91739916666667, "lon": -77.03840066666666, "bike_id": "98f865eaa6ae5125efd1981343d2a949", "fusion_lat": 0.0, "is_disabled": 0, "fusion_lon": 0.0}, {"name": "883a0321d872d5291b9076ce038aee68", "is_reserved": 0, "type": "electric_scooter", "rental_uris": {"ios": "https://dc.lft.to/lastmile_qr_scan", "android": "https://dc.lft.to/lastmile_qr_scan"}, "lat": 38.917776333333336, "lon": -77.022825, "bike_id": "883a0321d872d5291b9076ce038aee68", "fusion_lat": 0.0, "is_disabled": 0, "fusion_lon": 0.0}, {"name": "7df1b61d405d566adbbcb77dfc4a5d63", "is_reserved": 0, "type": "electric_scooter", "rental_uris": {"ios": "https://dc.lft.to/lastmile_qr_scan", "android": "https://dc.lft.to/lastmile_qr_scan"}, "lat": 38.904857666666665, "lon": -77.03463766666667, "bike_id": "7df1b61d405d566adbbcb77dfc4a5d63", "fusion_lat": 0.0, "is_disabled": 0, "fusion_lon": 0.0}, {"name": "109e094be5f88819f8ca60279d0b338c", "is_reserved": 0, "type": "electric_scooter", "rental_uris": {"ios": "https://dc.lft.to/lastmile_qr_scan", "android": "https://dc.lft.to/lastmile_qr_scan"}, "lat": 38.93522933333333, "lon": -77.0726285, "bike_id": "109e094be5f88819f8ca60279d0b338c", "fusion_lat": 0.0, "is_disabled": 0, "fusion_lon": 0.0}, {"name": "17ed7b63c123ec4c1b5bf80ada45fab2", "is_reserved": 0, "type": "electric_scooter", "rental_uris": {"ios": "https://dc.lft.to/lastmile_qr_scan", "android": "https://dc.lft.to/lastmile_qr_scan"}, "lat": 38.9269935, "lon": -77.02087416666667, "bike_id": "17ed7b63c123ec4c1b5bf80ada45fab2", "fusion_lat": 0.0, "is_disabled": 0, "fusion_lon": 0.0}, {"name": "99c0ff6a9109c62f7991fde70506ff27", "is_reserved": 0, "type": "electric_scooter", "rental_uris": {"ios": "https://dc.lft.to/lastmile_qr_scan", "android": "https://dc.lft.to/lastmile_qr_scan"}, "lat": 38.9637505, "lon": -77.07479416666666, "bike_id": "99c0ff6a9109c62f7991fde70506ff27", "fusion_lat": 0.0, "is_disabled": 0, "fusion_lon": 0.0}, {"name": "08df044e4ddfd3c926871d4e432d300a", "is_reserved": 0, "type": "electric_scooter", "rental_uris": {"ios": "https://dc.lft.to/lastmile_qr_scan", "android": "https://dc.lft.to/lastmile_qr_scan"}, "lat": 38.957386, "lon": -77.024042, "bike_id": "08df044e4ddfd3c926871d4e432d300a", "fusion_lat": 0.0, "is_disabled": 0, "fusion_lon": 0.0}, {"name": "9512ab5c1dc2537b334d025f9389a815", "is_reserved": 0, "type": "electric_scooter", "rental_uris": {"ios": "https://dc.lft.to/lastmile_qr_scan", "android": "https://dc.lft.to/lastmile_qr_scan"}, "lat": 38.8955095, "lon": -76.94880066666667, "bike_id": "9512ab5c1dc2537b334d025f9389a815", "fusion_lat": 0.0, "is_disabled": 0, "fusion_lon": 0.0}, {"name": "4e78e885cdbabf7f8f4a7fefc30b9c33", "is_reserved": 0, "type": "electric_scooter", "rental_uris": {"ios": "https://dc.lft.to/lastmile_qr_scan", "android": "https://dc.lft.to/lastmile_qr_scan"}, "lat": 38.91530733333333, "lon": -77.03836983333333, "bike_id": "4e78e885cdbabf7f8f4a7fefc30b9c33", "fusion_lat": 0.0, "is_disabled": 0, "fusion_lon": 0.0}, {"name": "87fdfb7d17d72ce704a25027acc8a850", "is_reserved": 0, "type": "electric_scooter", "rental_uris": {"ios": "https://dc.lft.to/lastmile_qr_scan", "android": "https://dc.lft.to/lastmile_qr_scan"}, "lat": 38.903972833333334, "lon": -76.98103916666666, "bike_id": "87fdfb7d17d72ce704a25027acc8a850", "fusion_lat": 0.0, "is_disabled": 0, "fusion_lon": 0.0}, {"name": "221645a7a497dc130d15f5748ba8b773", "is_reserved": 0, "type": "electric_scooter", "rental_uris": {"ios": "https://dc.lft.to/lastmile_qr_scan", "android": "https://dc.lft.to/lastmile_qr_scan"}, "lat": 38.884965, "lon": -77.00728016666666, "bike_id": "221645a7a497dc130d15f5748ba8b773", "fusion_lat": 0.0, "is_disabled": 0, "fusion_lon": 0.0}, {"name": "41ea78d51cbb95d9b1a3ff781db75999", "is_reserved": 0, "type": "electric_scooter", "rental_uris": {"ios": "https://dc.lft.to/lastmile_qr_scan", "android": "https://dc.lft.to/lastmile_qr_scan"}, "lat": 38.9196865, "lon": -77.02501466666666, "bike_id": "41ea78d51cbb95d9b1a3ff781db75999", "fusion_lat": 0.0, "is_disabled": 0, "fusion_lon": 0.0}, {"name": "30605bc9e502e8154e34a813533fc8c6", "is_reserved": 0, "type": "electric_scooter", "rental_uris": {"ios": "https://dc.lft.to/lastmile_qr_scan", "android": "https://dc.lft.to/lastmile_qr_scan"}, "lat": 38.915355166666664, "lon": -77.032003, "bike_id": "30605bc9e502e8154e34a813533fc8c6", "fusion_lat": 0.0, "is_disabled": 0, "fusion_lon": 0.0}, {"name": "cca1292cba71dd3441f185edc7d64e9e", "is_reserved": 0, "type": "electric_scooter", "rental_uris": {"ios": "https://dc.lft.to/lastmile_qr_scan", "android": "https://dc.lft.to/lastmile_qr_scan"}, "lat": 38.8984695, "lon": -76.9463365, "bike_id": "cca1292cba71dd3441f185edc7d64e9e", "fusion_lat": 0.0, "is_disabled": 0, "fusion_lon": 0.0}, {"name": "52de0425ee4f649ce7ce3757f1d945e6", "is_reserved": 0, "type": "electric_scooter", "rental_uris": {"ios": "https://dc.lft.to/lastmile_qr_scan", "android": "https://dc.lft.to/lastmile_qr_scan"}, "lat": 38.893796333333334, "lon": -77.0430525, "bike_id": "52de0425ee4f649ce7ce3757f1d945e6", "fusion_lat": 0.0, "is_disabled": 0, "fusion_lon": 0.0}, {"name": "2fa688cd3fcd424c92a276de429b5d80", "is_reserved": 0, "type": "electric_scooter", "rental_uris": {"ios": "https://dc.lft.to/lastmile_qr_scan", "android": "https://dc.lft.to/lastmile_qr_scan"}, "lat": 38.87554316666667, "lon": -77.00603333333333, "bike_id": "2fa688cd3fcd424c92a276de429b5d80", "fusion_lat": 0.0, "is_disabled": 0, "fusion_lon": 0.0}, {"name": "744ef2fcfaff233d08d26ee122d13c23", "is_reserved": 0, "type": "electric_bike", "rental_uris": {"ios": "https://dc.lft.to/lastmile_qr_scan", "android": "https://dc.lft.to/lastmile_qr_scan"}, "lat": 38.90835716666667, "lon": -76.99707733333334, "bike_id": "744ef2fcfaff233d08d26ee122d13c23", "fusion_lat": 0.0, "is_disabled": 0, "fusion_lon": 0.0}, {"name": "e045d4afbd9cfe0ad90a23915fe07dd1", "is_reserved": 0, "type": "electric_scooter", "rental_uris": {"ios": "https://dc.lft.to/lastmile_qr_scan", "android": "https://dc.lft.to/lastmile_qr_scan"}, "lat": 38.885698166666664, "lon": -76.99804083333333, "bike_id": "e045d4afbd9cfe0ad90a23915fe07dd1", "fusion_lat": 0.0, "is_disabled": 0, "fusion_lon": 0.0}, {"name": "262031437edc835382ae9314c4471d6e", "is_reserved": 0, "type": "electric_scooter", "rental_uris": {"ios": "https://dc.lft.to/lastmile_qr_scan", "android": "https://dc.lft.to/lastmile_qr_scan"}, "lat": 38.90028983333333, "lon": -76.987643, "bike_id": "262031437edc835382ae9314c4471d6e", "fusion_lat": 0.0, "is_disabled": 0, "fusion_lon": 0.0}, {"name": "b3512f938687fb75731026595fb7f76b", "is_reserved": 0, "type": "electric_scooter", "rental_uris": {"ios": "https://dc.lft.to/lastmile_qr_scan", "android": "https://dc.lft.to/lastmile_qr_scan"}, "lat": 38.8960375, "lon": -77.009314, "bike_id": "b3512f938687fb75731026595fb7f76b", "fusion_lat": 0.0, "is_disabled": 0, "fusion_lon": 0.0}, {"name": "3007498ef7dfdf7f8a594231f967d699", "is_reserved": 0, "type": "electric_scooter", "rental_uris": {"ios": "https://dc.lft.to/lastmile_qr_scan", "android": "https://dc.lft.to/lastmile_qr_scan"}, "lat": 38.97502816666667, "lon": -77.01697483333334, "bike_id": "3007498ef7dfdf7f8a594231f967d699", "fusion_lat": 0.0, "is_disabled": 0, "fusion_lon": 0.0}, {"name": "76c9b2bfeed3b859a8aa125b30265a11", "is_reserved": 0, "type": "electric_scooter", "rental_uris": {"ios": "https://dc.lft.to/lastmile_qr_scan", "android": "https://dc.lft.to/lastmile_qr_scan"}, "lat": 38.90533633333333, "lon": -77.05028266666666, "bike_id": "76c9b2bfeed3b859a8aa125b30265a11", "fusion_lat": 0.0, "is_disabled": 0, "fusion_lon": 0.0}, {"name": "1806fe5011d177749aa5e2638bf6a41b", "is_reserved": 0, "type": "electric_scooter", "rental_uris": {"ios": "https://dc.lft.to/lastmile_qr_scan", "android": "https://dc.lft.to/lastmile_qr_scan"}, "lat": 38.91203133333333, "lon": -77.0383845, "bike_id": "1806fe5011d177749aa5e2638bf6a41b", "fusion_lat": 0.0, "is_disabled": 0, "fusion_lon": 0.0}, {"name": "198dfae5350347e54ade55281a88f948", "is_reserved": 0, "type": "electric_scooter", "rental_uris": {"ios": "https://dc.lft.to/lastmile_qr_scan", "android": "https://dc.lft.to/lastmile_qr_scan"}, "lat": 38.9104115, "lon": -77.04821983333333, "bike_id": "198dfae5350347e54ade55281a88f948", "fusion_lat": 0.0, "is_disabled": 0, "fusion_lon": 0.0}, {"name": "752d20602e18eef5769e2afeccfeb799", "is_reserved": 0, "type": "electric_scooter", "rental_uris": {"ios": "https://dc.lft.to/lastmile_qr_scan", "android": "https://dc.lft.to/lastmile_qr_scan"}, "lat": 38.89752083333333, "lon": -77.00865383333333, "bike_id": "752d20602e18eef5769e2afeccfeb799", "fusion_lat": 0.0, "is_disabled": 0, "fusion_lon": 0.0}, {"name": "964313896f7c1aabd664a17f6a8ee8c2", "is_reserved": 0, "type": "electric_scooter", "rental_uris": {"ios": "https://dc.lft.to/lastmile_qr_scan", "android": "https://dc.lft.to/lastmile_qr_scan"}, "lat": 38.974993, "lon": -77.01697316666667, "bike_id": "964313896f7c1aabd664a17f6a8ee8c2", "fusion_lat": 0.0, "is_disabled": 0, "fusion_lon": 0.0}, {"name": "4b692e485f03761eb35a541eefbfd2d6", "is_reserved": 0, "type": "electric_scooter", "rental_uris": {"ios": "https://dc.lft.to/lastmile_qr_scan", "android": "https://dc.lft.to/lastmile_qr_scan"}, "lat": 38.90144333333333, "lon": -76.99829516666667, "bike_id": "4b692e485f03761eb35a541eefbfd2d6", "fusion_lat": 0.0, "is_disabled": 0, "fusion_lon": 0.0}, {"name": "7d1db44d40978c606b0c389f048b395e", "is_reserved": 0, "type": "electric_scooter", "rental_uris": {"ios": "https://dc.lft.to/lastmile_qr_scan", "android": "https://dc.lft.to/lastmile_qr_scan"}, "lat": 38.92656733333333, "lon": -77.04151333333333, "bike_id": "7d1db44d40978c606b0c389f048b395e", "fusion_lat": 0.0, "is_disabled": 0, "fusion_lon": 0.0}, {"name": "2a1d4f90ecfac604895afc3476251b09", "is_reserved": 0, "type": "electric_scooter", "rental_uris": {"ios": "https://dc.lft.to/lastmile_qr_scan", "android": "https://dc.lft.to/lastmile_qr_scan"}, "lat": 38.84431766666667, "lon": -76.997066, "bike_id": "2a1d4f90ecfac604895afc3476251b09", "fusion_lat": 0.0, "is_disabled": 0, "fusion_lon": 0.0}, {"name": "abfa8b34eb68465cae639362f8ca2e60", "is_reserved": 0, "type": "electric_scooter", "rental_uris": {"ios": "https://dc.lft.to/lastmile_qr_scan", "android": "https://dc.lft.to/lastmile_qr_scan"}, "lat": 38.90027533333333, "lon": -77.00213533333333, "bike_id": "abfa8b34eb68465cae639362f8ca2e60", "fusion_lat": 0.0, "is_disabled": 0, "fusion_lon": 0.0}, {"name": "1481ccee67cb6c77666228da55961fb1", "is_reserved": 0, "type": "electric_scooter", "rental_uris": {"ios": "https://dc.lft.to/lastmile_qr_scan", "android": "https://dc.lft.to/lastmile_qr_scan"}, "lat": 38.91224416666667, "lon": -77.031944, "bike_id": "1481ccee67cb6c77666228da55961fb1", "fusion_lat": 0.0, "is_disabled": 0, "fusion_lon": 0.0}, {"name": "a542215b63d7622a3a19d9f38b2ccb4d", "is_reserved": 0, "type": "electric_scooter", "rental_uris": {"ios": "https://dc.lft.to/lastmile_qr_scan", "android": "https://dc.lft.to/lastmile_qr_scan"}, "lat": 38.889893, "lon": -77.0033755, "bike_id": "a542215b63d7622a3a19d9f38b2ccb4d", "fusion_lat": 0.0, "is_disabled": 0, "fusion_lon": 0.0}, {"name": "d610f45a5550eb9084b659a6c4c8a759", "is_reserved": 0, "type": "electric_scooter", "rental_uris": {"ios": "https://dc.lft.to/lastmile_qr_scan", "android": "https://dc.lft.to/lastmile_qr_scan"}, "lat": 38.87664733333333, "lon": -77.00452616666666, "bike_id": "d610f45a5550eb9084b659a6c4c8a759", "fusion_lat": 0.0, "is_disabled": 0, "fusion_lon": 0.0},