{"data": {"bikes": [{"name": "7b4824c32b5e1c89f5c567f5a9eb6a94", "fusion_lat": 0.0, "type": "electric_scooter", "lat": 38.89832116666667, "is_reserved": 0, "is_disabled": 0, "fusion_lon": 0.0, "bike_id": "7b4824c32b5e1c89f5c567f5a9eb6a94", "lon": -76.94643683333334, "rental_uris": {"ios": "https://dc.lft.to/lastmile_qr_scan", "android": "https://dc.lft.to/lastmile_qr_scan"}}, {"name": "cdc7c94d8a8890ce9253f4416e473065", "fusion_lat": 0.0, "type": "electric_scooter", "lat": 38.8993725, "is_reserved": 0, "is_disabled": 0, "fusion_lon": 0.0, "bike_id": "cdc7c94d8a8890ce9253f4416e473065", "lon": -77.0465865, "rental_uris": {"ios": "https://dc.lft.to/lastmile_qr_scan", "android": "https://dc.lft.to/lastmile_qr_scan"}}, {"name": "b80342873d0658adfd6f8d6c4b2c6baf", "fusion_lat": 0.0, "type": "electric_scooter", "lat": 38.8935575, "is_reserved": 0, "is_disabled": 0, "fusion_lon": 0.0, "bike_id": "b80342873d0658adfd6f8d6c4b2c6baf", "lon": -77.00338133333334, "rental_uris": {"ios": "https://dc.lft.to/lastmile_qr_scan", "android": "https://dc.lft.to/lastmile_qr_scan"}}, {"name": "9d0ddd8bd2d3e09e5e81cf4e622c60e2", "fusion_lat": 0.0, "type": "electric_scooter", "lat": 38.918162, "is_reserved": 0, "is_disabled": 0, "fusion_lon": 0.0, "bike_id": "9d0ddd8bd2d3e09e5e81cf4e622c60e2", "lon": -77.03279783333333, "rental_uris": {"ios": "https://dc.lft.to/lastmile_qr_scan", "android": "https://dc.lft.to/lastmile_qr_scan"}}, {"name": "658de4ea4fa0e5cf15c7aab9be20d834", "fusion_lat": 0.0, "type": "electric_scooter", "lat": 38.901809166666666, "is_reserved": 0, "is_disabled": 0, "fusion_lon": 0.0, "bike_id": "658de4ea4fa0e5cf15c7aab9be20d834", "lon": -77.04644683333333, "rental_uris": {"ios": "https://dc.lft.to/lastmile_qr_scan", "android": "https://dc.lft.to/lastmile_qr_scan"}}, {"name": "fc60200700cf441c2d398836edb1b79d", "fusion_lat": 0.0, "type": "electric_scooter", "lat": 38.8941585, "is_reserved": 0, "is_disabled": 0, "fusion_lon": 0.0, "bike_id": "fc60200700cf441c2d398836edb1b79d", "lon": -77.0218085, "rental_uris": {"ios": "https://dc.lft.to/lastmile_qr_scan", "android": "https://dc.lft.to/lastmile_qr_scan"}}, {"name": "f69352251b7ac8f600cbc55a51951577", "fusion_lat": 0.0, "type": "electric_scooter", "lat": 38.924836666666664, "is_reserved": 0, "is_disabled": 0, "fusion_lon": 0.0, "bike_id": "f69352251b7ac8f600cbc55a51951577", "lon": -77.02996933333333, "rental_uris": {"ios": "https://dc.lft.to/lastmile_qr_scan", "android": "https://dc.lft.to/lastmile_qr_scan"}}, {"name": "4e4eac260a76976e34b5b91e665e16c5", "fusion_lat": 0.0, "type": "electric_scooter", "lat": 38.91217733333333, "is_reserved": 0, "is_disabled": 0, "fusion_lon": 0.0, "bike_id": "4e4eac260a76976e34b5b91e665e16c5", "lon": -77.02796483333333, "rental_uris": {"ios": "https://dc.lft.to/lastmile_qr_scan", "android": "https://dc.lft.to/lastmile_qr_scan"}}, {"name": "cd0278d6a7b76f11889f968fd8a0cab2", "fusion_lat": 0.0, "type": "electric_scooter", "lat": 38.90400116666667, "is_reserved": 0, "is_disabled": 0, "fusion_lon": 0.0, "bike_id": "cd0278d6a7b76f11889f968fd8a0cab2", "lon": -77.04499233333334, "rental_uris": {"ios": "https://dc.lft.to/lastmile_qr_scan", "android": "https://dc.lft.to/lastmile_qr_scan"}}, {"name": "738f7d74c3ee6ba8cbeadcf8f25d7d03", "fusion_lat": 0.0, "type": "electric_scooter", "lat": 38.883498333333335, "is_reserved": 0, "is_disabled": 0, "fusion_lon": 0.0, "bike_id": "738f7d74c3ee6ba8cbeadcf8f25d7d03", "lon": -76.98555416666666, "rental_uris": {"ios": "https://dc.lft.to/lastmile_qr_scan", "android": "https://dc.lft.to/lastmile_qr_scan"}}, {"name": "12ff5b48998427c2e51a047514fb1dc0", "fusion_lat": 0.0, "type": "electric_scooter", "lat": 38.91564966666667, "is_reserved": 0, "is_disabled": 0, "fusion_lon": 0.0, "bike_id": "12ff5b48998427c2e51a047514fb1dc0", "lon": -77.0333545, "rental_uris": {"ios": "https://dc.lft.to/lastmile_qr_scan", "android": "https://dc.lft.to/lastmile_qr_scan"}}, {"name": "62a59717708a63ac2c50b52f24ae5013", "fusion_lat": 0.0, "type": "electric_scooter", "lat": 38.935802, "is_reserved": 0, "is_disabled": 0, "fusion_lon": 0.0, "bike_id": "62a59717708a63ac2c50b52f24ae5013", "lon": -77.02843966666667, "rental_uris": {"ios": "https://dc.lft.to/lastmile_qr_scan", "android": "https://dc.lft.to/lastmile_qr_scan"}}, {"name": "9779dc40d4da84c94759b8bca7613879", "fusion_lat": 0.0, "type": "electric_bike", "lat": 38.87734716666667, "is_reserved": 0, "is_disabled": 0, "fusion_lon": 0.0, "bike_id": "9779dc40d4da84c94759b8bca7613879", "lon": -77.11847616666667, "rental_uris": {"ios": "https://dc.lft.to/lastmile_qr_scan", "android": "https://dc.lft.to/lastmile_qr_scan"}}, {"name": "ebec5d0aebdec6ffce182a6e34c544c7", "fusion_lat": 0.0, "type": "electric_scooter", "lat": 38.9389785, "is_reserved": 0, "is_disabled": 0, "fusion_lon": 0.0, "bike_id": "ebec5d0aebdec6ffce182a6e34c544c7", "lon": -77.01758433333333, "rental_uris": {"ios": "https://dc.lft.to/lastmile_qr_scan", "android": "https://dc.lft.to/lastmile_qr_scan"}}, {"name": "8312f3762fe180b4ff2f19f1fd39c8f8", "fusion_lat": 0.0, "type": "electric_scooter", "lat": 38.92448533333334, "is_reserved": 0, "is_disabled": 0, "fusion_lon": 0.0, "bike_id": "8312f3762fe180b4ff2f19f1fd39c8f8", "lon": -77.02979483333333, "rental_uris": {"ios": "https://dc.lft.to/lastmile_qr_scan", "android": "https://dc.lft.to/lastmile_qr_scan"}}, {"name": "cbf95c8eeaed235ea51dead96599c507", "fusion_lat": 0.0, "type": "electric_scooter", "lat": 38.90276133333333, "is_reserved": 0, "is_disabled": 0, "fusion_lon": 0.0, "bike_id": "cbf95c8eeaed235ea51dead96599c507", "lon": -77.04258116666666, "rental_uris": {"ios": "https://dc.lft.to/lastmile_qr_scan", "android": "https://dc.lft.to/lastmile_qr_scan"}}, {"name": "fd01a3ce636ae6d960c2d6aa27f8d49a", "fusion_lat": 0.0, "type": "electric_scooter", "lat": 38.86372033333333, "is_reserved": 0, "is_disabled": 0, "fusion_lon": 0.0, "bike_id": "fd01a3ce636ae6d960c2d6aa27f8d49a", "lon": -77.01365766666666, "rental_uris": {"ios": "https://dc.lft.to/lastmile_qr_scan", "android": "https://dc.lft.to/lastmile_qr_scan"}}, {"name": "ea50e2493b3a23f6f447f289439f6a71", "fusion_lat": 0.0, "type": "electric_scooter", "lat": 38.88351483333334, "is_reserved": 0, "is_disabled": 0, "fusion_lon": 0.0, "bike_id": "ea50e2493b3a23f6f447f289439f6a71", "lon": -76.949389, "rental_uris": {"ios": "https://dc.lft.to/lastmile_qr_scan", "android": "https://dc.lft.to/lastmile_qr_scan"}}, {"name": "d357ca9fef5f2a2e440ded4e7d33012b", "fusion_lat": 0.0, "type": "electric_scooter", "lat": 38.925612666666666, "is_reserved": 0, "is_disabled": 0, "fusion_lon": 0.0, "bike_id": "d357ca9fef5f2a2e440ded4e7d33012b", "lon": -77.0628395, "rental_uris": {"ios": "https://dc.lft.to/lastmile_qr_scan", "android": "https://dc.lft.to/lastmile_qr_scan"}}, {"name": "05132629b1805cd90700610a5596dca0", "fusion_lat": 0.0, "type": "electric_bike", "lat": 38.928534, "is_reserved": 0, "is_disabled": 0, "fusion_lon": 0.0, "bike_id": "05132629b1805cd90700610a5596dca0", "lon": -77.10676733333334, "rental_uris": {"ios": "https://dc.lft.to/lastmile_qr_scan", "android": "https://dc.lft.to/lastmile_qr_scan"}}, {"name": "64b9e58dc5bd58ed3a4ae9b4680fb957", "fusion_lat": 0.0, "type": "electric_scooter", "lat": 38.91255616666667, "is_reserved": 0, "is_disabled": 0, "fusion_lon": 0.0, "bike_id": "64b9e58dc5bd58ed3a4ae9b4680fb957", "lon": -77.00764666666667, "rental_uris": {"ios": "https://dc.lft.to/lastmile_qr_scan", "android": "https://dc.lft.to/lastmile_qr_scan"}}, {"name": "f9f9a2dda71116296acc910c12056515", "fusion_lat": 0.0, "type": "electric_scooter", "lat": 38.90137216666667, "is_reserved": 0, "is_disabled": 0, "fusion_lon": 0.0, "bike_id": "f9f9a2dda71116296acc910c12056515", "lon": -77.0449355, "rental_uris": {"ios": "https://dc.lft.to/lastmile_qr_scan", "android": "https://dc.lft.to/lastmile_qr_scan"}}, {"name": "e2a1e476c12bf4a830acc2013a00132b", "fusion_lat": 0.0, "type": "electric_scooter", "lat": 38.93159766666667, "is_reserved": 0, "is_disabled": 0, "fusion_lon": 0.0, "bike_id": "e2a1e476c12bf4a830acc2013a00132b", "lon": -77.03884083333334, "rental_uris": {"ios": "https://dc.lft.to/lastmile_qr_scan", "android": "https://dc.lft.to/lastmile_qr_scan"}}, {"name": "2a3841a09028d0985cd2fa86f40edc07", "fusion_lat": 0.0, "type": "electric_scooter", "lat": 38.8948225, "is_reserved": 0, "is_disabled": 0, "fusion_lon": 0.0, "bike_id": "2a3841a09028d0985cd2fa86f40edc07", "lon": -77.01085366666666, "rental_uris": {"ios": "https://dc.lft.to/lastmile_qr_scan", "android": "https://dc.lft.to/lastmile_qr_scan"}}, {"name": "2c8ba4f4571dd99e188f9e8e5132256a", "fusion_lat": 0.0, "type": "electric_scooter", "lat": 38.930611999999996, "is_reserved": 0, "is_disabled": 0, "fusion_lon": 0.0, "bike_id": "2c8ba4f4571dd99e188f9e8e5132256a", "lon": -77.023218, "rental_uris": {"ios": "https://dc.lft.to/lastmile_qr_scan", "android": "https://dc.lft.to/lastmile_qr_scan"}}, {"name": "9d5f2add862d847e268eb645f4b4dfd5", "fusion_lat": 0.0, "type": "electric_scooter", "lat": 38.91268316666667, "is_reserved": 0, "is_disabled": 0, "fusion_lon": 0.0, "bike_id": "9d5f2add862d847e268eb645f4b4dfd5", "lon": -77.044959, "rental_uris": {"ios": "https://dc.lft.to/lastmile_qr_scan", "android": "https://dc.lft.to/lastmile_qr_scan"}}, {"name": "78950a0a87c41ca5899305775d56b944", "fusion_lat": 0.0, "type": "electric_scooter", "lat": 38.901323833333336, "is_reserved": 0, "is_disabled": 0, "fusion_lon": 0.0, "bike_id": "78950a0a87c41ca5899305775d56b944", "lon": -77.033137, "rental_uris": {"ios": "https://dc.lft.to/lastmile_qr_scan", "android": "https://dc.lft.to/lastmile_qr_scan"}}, {"name": "6fc5a1b9ab4e67eb1977f8244cd8dff2", "fusion_lat": 0.0, "type": "electric_scooter", "lat": 38.934572333333335, "is_reserved": 0, "is_disabled": 0, "fusion_lon": 0.0, "bike_id": "6fc5a1b9ab4e67eb1977f8244cd8dff2", "lon": -77.08637116666667, "rental_uris": {"ios": "https://dc.lft.to/lastmile_qr_scan", "android": "https://dc.lft.to/lastmile_qr_scan"}}, {"name": "b25040bd8c3e11cb3cd07a623c21f41e", "fusion_lat": 0.0, "type": "electric_scooter", "lat": 38.9056045, "is_reserved": 0, "is_disabled": 0, "fusion_lon": 0.0, "bike_id": "b25040bd8c3e11cb3cd07a623c21f41e", "lon": -77.02228966666667, "rental_uris": {"ios": "https://dc.lft.to/lastmile_qr_scan", "android": "https://dc.lft.to/lastmile_qr_scan"}}, {"name": "952929c8e419a5a14b4e419581d15832", "fusion_lat": 0.0, "type": "electric_scooter", "lat": 38.90339083333333, "is_reserved": 0, "is_disabled": 0, "fusion_lon": 0.0, "bike_id": "952929c8e419a5a14b4e419581d15832", "lon": -77.052315, "rental_uris": {"ios": "https://dc.lft.to/lastmile_qr_scan", "android": "https://dc.lft.to/lastmile_qr_scan"}}, {"name": "8b19a5f0cf77fbd38b471b9ea3568183", "fusion_lat": 0.0, "type": "electric_scooter", "lat": 38.89957033333334, "is_reserved": 0, "is_disabled": 0, "fusion_lon": 0.0, "bike_id": "8b19a5f0cf77fbd38b471b9ea3568183", "lon": -77.05272383333333, "rental_uris": {"ios": "https://dc.lft.to/lastmile_qr_scan", "android": "https://dc.lft.to/lastmile_qr_scan"}}, {"name": "681ac566a5933fd37a6117b69cf47d4b", "fusion_lat": 0.0, "type": "electric_scooter", "lat": 38.89901733333333, "is_reserved": 0, "is_disabled": 0, "fusion_lon": 0.0, "bike_id": "681ac566a5933fd37a6117b69cf47d4b", "lon": -77.03970216666667, "rental_uris": {"ios": "https://dc.lft.to/lastmile_qr_scan", "android": "https://dc.lft.to/lastmile_qr_scan"}}, {"name": "18e6aa50523fd29e5c6db1eef12b8f4f", "fusion_lat": 0.0, "type": "electric_bike", "lat": 38.86871583333333, "is_reserved": 0, "is_disabled": 0, "fusion_lon": 0.0, "bike_id": "18e6aa50523fd29e5c6db1eef12b8f4f", "lon": -76.916635, "rental_uris": {"ios": "https://dc.lft.to/lastmile_qr_scan", "android": "https://dc.lft.to/lastmile_qr_scan"}}, {"name": "7954cc4f5d97d98cdb2c25306bd7d51f", "fusion_lat": 0.0, "type": "electric_scooter", "lat": 38.880959, "is_reserved": 0, "is_disabled": 0, "fusion_lon": 0.0, "bike_id": "7954cc4f5d97d98cdb2c25306bd7d51f", "lon": -77.02592966666667, "rental_uris": {"ios": "https://dc.lft.to/lastmile_qr_scan", "android": "https://dc.lft.to/lastmile_qr_scan"}}, {"name": "4892aeff9efe67cf77c229aecad943ac", "fusion_lat": 0.0, "type": "electric_scooter", "lat": 38.90584966666667, "is_reserved": 0, "is_disabled": 0, "fusion_lon": 0.0, "bike_id": "4892aeff9efe67cf77c229aecad943ac", "lon": -77.002492, "rental_uris": {"ios": "https://dc.lft.to/lastmile_qr_scan", "android": "https://dc.lft.to/lastmile_qr_scan"}}, {"name": "c2054b9d19fcf0f3dd564e003a1b09e4", "fusion_lat": 0.0, "type": "electric_scooter", "lat": 38.90075383333333, "is_reserved": 0, "is_disabled": 0, "fusion_lon": 0.0, "bike_id": "c2054b9d19fcf0f3dd564e003a1b09e4", "lon": -77.02825683333333, "rental_uris": {"ios": "https://dc.lft.to/lastmile_qr_scan", "android": "https://dc.lft.to/lastmile_qr_scan"}}, {"name": "a70a7ef387bbc0e17073cc264fd7137e", "fusion_lat": 0.0, "type": "electric_scooter", "lat": 38.90343566666667, "is_reserved": 0, "is_disabled": 0, "fusion_lon": 0.0, "bike_id": "a70a7ef387bbc0e17073cc264fd7137e", "lon": -77.02580683333333, "rental_uris": {"ios": "https://dc.lft.to/lastmile_qr_scan", "android": "https://dc.lft.to/lastmile_qr_scan"}}, {"name": "bfc0c1ca68fa4301958b1d48d0664388", "fusion_lat": 0.0, "type": "electric_scooter", "lat": 38.90380183333333, "is_reserved": 0, "is_disabled": 0, "fusion_lon": 0.0, "bike_id": "bfc0c1ca68fa4301958b1d48d0664388", "lon": -77.00187483333333, "rental_uris": {"ios": "https://dc.lft.to/lastmile_qr_scan", "android": "https://dc.lft.to/lastmile_qr_scan"}}, {"name": "bdeffb41977513cc1de48db306689ae9", "fusion_lat": 0.0, "type": "electric_scooter", "lat": 38.902322, "is_reserved": 0, "is_disabled": 0, "fusion_lon": 0.0, "bike_id": "bdeffb41977513cc1de48db306689ae9", "lon": -76.97410716666667, "rental_uris": {"ios": "https://dc.lft.to/lastmile_qr_scan", "android": "https://dc.lft.to/lastmile_qr_scan"}}, {"name": "c63ca2aaaa40b5f587ee952c8b5cd49f", "fusion_lat": 0.0, "type": "electric_scooter", "lat": 38.914103833333336, "is_reserved": 0, "is_disabled": 0, "fusion_lon": 0.0, "bike_id": "c63ca2aaaa40b5f587ee952c8b5cd49f", "lon": -77.00972316666666, "rental_uris": {"ios": "https://dc.lft.to/lastmile_qr_scan", "android": "https://dc.lft.to/lastmile_qr_scan"}}, {"name": "15f6e633d3bb0b82ed0646d0436e0a76", "fusion_lat": 0.0, "type": "electric_scooter", "lat": 38.905463166666664, "is_reserved": 0, "is_disabled": 0, "fusion_lon": 0.0, "bike_id": "15f6e633d3bb0b82ed0646d0436e0a76", "lon": -77.06113833333333, "rental_uris": {"ios": "https://dc.lft.to/lastmile_qr_scan", "android": "https://dc.lft.to/lastmile_qr_scan"}}, {"name": "fbb317263163e4ef0e485ff878b5539d", "fusion_lat": 0.0, "type": "electric_scooter", "lat": 38.9026035, "is_reserved": 0, "is_disabled": 0, "fusion_lon": 0.0, "bike_id": "fbb317263163e4ef0e485ff878b5539d", "lon": -77.01740083333334, "rental_uris": {"ios": "https://dc.lft.to/lastmile_qr_scan", "android": "https://dc.lft.to/lastmile_qr_scan"}}, {"name": "a0497bb1c8d223c1ba6eaee18388958e", "fusion_lat": 0.0, "type": "electric_bike", "lat": 38.908852833333334, "is_reserved": 0, "is_disabled": 0, "fusion_lon": 0.0, "bike_id": "a0497bb1c8d223c1ba6eaee18388958e", "lon": -77.045043, "rental_uris": {"ios": "https://dc.lft.to/lastmile_qr_scan", "android": "https://dc.lft.to/lastmile_qr_scan"}}, {"name": "552d3c4f24e74d4dcbedda0b6907adab", "fusion_lat": 0.0, "type": "electric_scooter", "lat": 38.923651, "is_reserved": 0, "is_disabled": 0, "fusion_lon": 0.0, "bike_id": "552d3c4f24e74d4dcbedda0b6907adab", "lon": -77.01910783333334, "rental_uris": {"ios": "https://dc.lft.to/lastmile_qr_scan", "android": "https://dc.lft.to/lastmile_qr_scan"}}, {"name": "6a69e6c2ed7982b29b05d0e8badfa521", "fusion_lat": 0.0, "type": "electric_scooter", "lat": 38.896678333333334, "is_reserved": 0, "is_disabled": 0, "fusion_lon": 0.0, "bike_id": "6a69e6c2ed7982b29b05d0e8badfa521", "lon": -76.94714916666666, "rental_uris": {"ios": "https://dc.lft.to/lastmile_qr_scan", "android": "https://dc.lft.to/lastmile_qr_scan"}}, {"name": "1ccabbc8948ad33c0129f9786b07a31f", "fusion_lat": 0.0, "type": "electric_scooter", "lat": 38.868294, "is_reserved": 0, "is_disabled": 0, "fusion_lon": 0.0, "bike_id": "1ccabbc8948ad33c0129f9786b07a31f", "lon": -76.98613883333333, "rental_uris": {"ios": "https://dc.lft.to/lastmile_qr_scan", "android": "https://dc.lft.to/lastmile_qr_scan"}}, {"name": "782818ec342657958bf54fdcd839f975", "fusion_lat": 0.0, "type": "electric_scooter", "lat": 38.92478083333334, "is_reserved": 0, "is_disabled": 0, "fusion_lon": 0.0, "bike_id": "782818ec342657958bf54fdcd839f975", "lon": -77.02999683333333, "rental_uris": {"ios": "https://dc.lft.to/lastmile_qr_scan", "android": "https://dc.lft.to/lastmile_qr_scan"}}, {"name": "4f33d9db7a10ec497eeb00ffbb1606fa", "fusion_lat": 0.0, "type": "electric_scooter", "lat": 38.92750316666667, "is_reserved": 0, "is_disabled": 0, "fusion_lon": 0.0, "bike_id": "4f33d9db7a10ec497eeb00ffbb1606fa", "lon": -77.02292733333333, "rental_uris": {"ios": "https://dc.lft.to/lastmile_qr_scan", "android": "https://dc.lft.to/lastmile_qr_scan"}}, {"name": "1b29ee0a7e43299ce8b56a7b4462ef3d", "fusion_lat": 0.0, "type": "electric_scooter", "lat": 38.88585333333333, "is_reserved": 0, "is_disabled": 0, "fusion_lon": 0.0, "bike_id": "1b29ee0a7e43299ce8b56a7b4462ef3d", "lon": -76.99500816666666, "rental_uris": {"ios": "https://dc.lft.to/lastmile_qr_scan", "android": "https://dc.lft.to/lastmile_qr_scan"}}, {"name": "2764b9e1f864e8dcad228bb65df7eea0", "fusion_lat": 0.0, "type": "electric_scooter", "lat": 38.91587883333333, "is_reserved": 0, "is_disabled": 0, "fusion_lon": 0.0, "bike_id": "2764b9e1f864e8dcad228bb65df7eea0", "lon": -77.04256633333334, "rental_uris": {"ios": "https://dc.lft.to/lastmile_qr_scan", "android": "https://dc.lft.to/lastmile_qr_scan"}}, {"name": "1785207ce497f6e0b4ac5f95abe99a93", "fusion_lat": 0.0, "type": "electric_scooter", "lat": 38.90779633333333, "is_reserved": 0, "is_disabled": 0, "fusion_lon": 0.0, "bike_id": "1785207ce497f6e0b4ac5f95abe99a93", "lon": -77.0716695, "rental_uris": {"ios": "https://dc.lft.to/lastmile_qr_scan", "android": "https://dc.lft.to/lastmile_qr_scan"}}, {"name": "49ef22d52f3618eb4a3534d80745c10a", "fusion_lat": 0.0, "type": "electric_scooter", "lat": 38.92851533333334, "is_reserved": 0, "is_disabled": 0, "fusion_lon": 0.0, "bike_id": "49ef22d52f3618eb4a3534d80745c10a", "lon": -77.01410833333334, "rental_uris": {"ios": "https://dc.lft.to/lastmile_qr_scan", "android": "https://dc.lft.to/lastmile_qr_scan"}}, {"name": "06108da8840fba374412e243fd11e931", "fusion_lat": 0.0, "type": "electric_scooter", "lat": 38.88692533333333, "is_reserved": 0, "is_disabled": 0, "fusion_lon": 0.0, "bike_id": "06108da8840fba374412e243fd11e931", "lon": -76.957607, "rental_uris": {"ios": "https://dc.lft.to/lastmile_qr_scan", "android": "https://dc.lft.to/lastmile_qr_scan"}}, {"name": "4f329cd86b1c0a815c0e04f9315932ef", "fusion_lat": 0.0, "type": "electric_scooter", "lat": 38.901353, "is_reserved": 0, "is_disabled": 0, "fusion_lon": 0.0, "bike_id": "4f329cd86b1c0a815c0e04f9315932ef", "lon": -77.017542, "rental_uris": {"ios": "https://dc.lft.to/lastmile_qr_scan", "android": "https://dc.lft.to/lastmile_qr_scan"}}, {"name": "34dfac947b11149b8b13437eb8c2f32e", "fusion_lat": 0.0, "type": "electric_scooter", "lat": 38.894536, "is_reserved": 0, "is_disabled": 0, "fusion_lon": 0.0, "bike_id": "34dfac947b11149b8b13437eb8c2f32e", "lon": -77.01920133333333, "rental_uris": {"ios": "https://dc.lft.to/lastmile_qr_scan", "android": "https://dc.lft.to/lastmile_qr_scan"}}, {"name": "d647a38ac998fcb29e57726da78e65fe", "fusion_lat": 0.0, "type": "electric_scooter", "lat": 38.9058975, "is_reserved": 0, "is_disabled": 0, "fusion_lon": 0.0, "bike_id": "d647a38ac998fcb29e57726da78e65fe", "lon": -77.0651605, "rental_uris": {"ios": "https://dc.lft.to/lastmile_qr_scan", "android": "https://dc.lft.to/lastmile_qr_scan"}}, {"name": "3c09bd0faf1b94dd3066ee8692acd1bb", "fusion_lat": 0.0, "type": "electric_scooter", "lat": 38.8974005, "is_reserved": 0, "is_disabled": 0, "fusion_lon": 0.0, "bike_id": "3c09bd0faf1b94dd3066ee8692acd1bb", "lon": -76.93845083333333, "rental_uris": {"ios": "https://dc.lft.to/lastmile_qr_scan", "android": "https://dc.lft.to/lastmile_qr_scan"}}, {"name": "219468c20fb95cb0c2c70c4783605af4", "fusion_lat": 0.0, "type": "electric_scooter", "lat": 38.89485333333333, "is_reserved": 0, "is_disabled": 0, "fusion_lon": 0.0, "bike_id": "219468c20fb95cb0c2c70c4783605af4", "lon": -76.99515883333333, "rental_uris": {"ios": "https://dc.lft.to/lastmile_qr_scan", "android": "https://dc.lft.to/lastmile_qr_scan"}}, {"name": "3b13d5b9c79a3fc9e4d6510ea4e2aed9", "fusion_lat": 0.0, "type": "electric_scooter", "lat": 38.92160766666667, "is_reserved": 0, "is_disabled": 0, "fusion_lon": 0.0, "bike_id": "3b13d5b9c79a3fc9e4d6510ea4e2aed9", "lon": -77.04220566666666, "rental_uris": {"ios": "https://dc.lft.to/lastmile_qr_scan", "android": "https://dc.lft.to/lastmile_qr_scan"}}, {"name": "b0b4e02ac8e22e47333690d06a2669af", "fusion_lat": 0.0, "type": "electric_scooter", "lat": 38.91111083333333, "is_reserved": 0, "is_disabled": 0, "fusion_lon": 0.0, "bike_id": "b0b4e02ac8e22e47333690d06a2669af", "lon": -77.0314495, "rental_uris": {"ios": "https://dc.lft.to/lastmile_qr_scan", "android": "https://dc.lft.to/lastmile_qr_scan"}}, {"name": "70f3140f96c72df2b4d2cfffd44e5281", "fusion_lat": 0.0, "type": "electric_scooter", "lat": 38.917888, "is_reserved": 0, "is_disabled": 0, "fusion_lon": 0.0, "bike_id": "70f3140f96c72df2b4d2cfffd44e5281", "lon": -77.02361716666667, "rental_uris": {"ios": "https://dc.lft.to/lastmile_qr_scan", "android": "https://dc.lft.to/lastmile_qr_scan"}}, {"name": "d6cfecaedce3e8e6298ad8dec25053b5", "fusion_lat": 0.0, "type": "electric_bike", "lat": 38.83826583333333, "is_reserved": 0, "is_disabled": 0, "fusion_lon": 0.0, "bike_id": "d6cfecaedce3e8e6298ad8dec25053b5", "lon": -76.99679116666667, "rental_uris": {"ios": "https://dc.lft.to/lastmile_qr_scan", "android": "https://dc.lft.to/lastmile_qr_scan"}}, {"name": "1329894a84007be7f588631033f7fe31", "fusion_lat": 0.0, "type": "electric_scooter", "lat": 38.932902166666665, "is_reserved": 0, "is_disabled": 0, "fusion_lon": 0.0, "bike_id": "1329894a84007be7f588631033f7fe31", "lon": -77.03982133333334, "rental_uris": {"ios": "https://dc.lft.to/lastmile_qr_scan", "android": "https://dc.lft.to/lastmile_qr_scan"}}, {"name": "0a65d5814f56d054602879d418bb9b7d", "fusion_lat": 0.0, "type": "electric_scooter", "lat": 38.92212333333333, "is_reserved": 0, "is_disabled": 0, "fusion_lon": 0.0, "bike_id": "0a65d5814f56d054602879d418bb9b7d", "lon": -77.04235416666667, "rental_uris": {"ios": "https://dc.lft.to/lastmile_qr_scan", "android": "https://dc.lft.to/lastmile_qr_scan"}}, {"name": "972bc671db33608d1157a2500243630d", "fusion_lat": 0.0, "type": "electric_scooter", "lat": 38.937854333333334, "is_reserved": 0, "is_disabled": 0, "fusion_lon": 0.0, "bike_id": "972bc671db33608d1157a2500243630d", "lon": -77.05994266666667, "rental_uris": {"ios": "https://dc.lft.to/lastmile_qr_scan", "android": "https://dc.lft.to/lastmile_qr_scan"}}, {"name": "9887b5d5bcded7ccdd9b6c6de5a68e0f", "fusion_lat": 0.0, "type": "electric_scooter", "lat": 38.9383815, "is_reserved": 0, "is_disabled": 0, "fusion_lon": 0.0, "bike_id": "9887b5d5bcded7ccdd9b6c6de5a68e0f", "lon": -77.02483533333333, "rental_uris": {"ios": "https://dc.lft.to/lastmile_qr_scan", "android": "https://dc.lft.to/lastmile_qr_scan"}}, {"name": "daa62ea57859fdcf3d157d1ce006e507", "fusion_lat": 0.0, "type": "electric_scooter", "lat": 38.892208833333335, "is_reserved": 0, "is_disabled": 0, "fusion_lon": 0.0, "bike_id": "daa62ea57859fdcf3d157d1ce006e507", "lon": -77.02653466666666, "rental_uris": {"ios": "https://dc.lft.to/lastmile_qr_scan", "android": "https://dc.lft.to/lastmile_qr_scan"}}, {"name": "95f87699f0aeeed07b7bab9f968ab5ca", "fusion_lat": 0.0, "type": "electric_scooter", "lat": 38.90464566666667, "is_reserved": 0, "is_disabled": 0, "fusion_lon": 0.0, "bike_id": "95f87699f0aeeed07b7bab9f968ab5ca", "lon": -77.04349866666666, "rental_uris": {"ios": "https://dc.lft.to/lastmile_qr_scan", "android": "https://dc.lft.to/lastmile_qr_scan"}}, {"name": "0c434d0eac9bce441ad0b507c6724619", "fusion_lat": 0.0, "type": "electric_scooter", "lat": 38.9394675, "is_reserved": 0, "is_disabled": 0, "fusion_lon": 0.0, "bike_id": "0c434d0eac9bce441ad0b507c6724619", "lon": -77.03259916666667, "rental_uris": {"ios": "https://dc.lft.to/lastmile_qr_scan", "android": "https://dc.lft.to/lastmile_qr_scan"}}, {"name": "24c164b4be7c2542922326658a264643", "fusion_lat": 0.0, "type": "electric_scooter", "lat": 38.8765225, "is_reserved": 0, "is_disabled": 0, "fusion_lon": 0.0, "bike_id": "24c164b4be7c2542922326658a264643", "lon": -77.00588316666666, "rental_uris": {"ios": "https://dc.lft.to/lastmile_qr_scan", "android": "https://dc.lft.to/lastmile_qr_scan"}}, {"name": "5e4faa604897adaf2d02010dfd25ee0b", "fusion_lat": 0.0, "type": "electric_scooter", "lat": 38.899959, "is_reserved": 0, "is_disabled": 0, "fusion_lon": 0.0, "bike_id": "5e4faa604897adaf2d02010dfd25ee0b", "lon": -77.0269955, "rental_uris": {"ios": "https://dc.lft.to/lastmile_qr_scan", "android": "https://dc.lft.to/lastmile_qr_scan"}}, {"name": "667f215957e109f8bd4d0f80f4f4dfe8", "fusion_lat": 0.0, "type": "electric_scooter", "lat": 38.87648933333333, "is_reserved": 0, "is_disabled": 0, "fusion_lon": 0.0, "bike_id": "667f215957e109f8bd4d0f80f4f4dfe8", "lon": -76.96505016666667, "rental_uris": {"ios": "https://dc.lft.to/lastmile_qr_scan", "android": "https://dc.lft.to/lastmile_qr_scan"}}, {"name": "18c4e5fb07b84622ffae4298a41304a5", "fusion_lat": 0.0, "type": "electric_scooter", "lat": 38.9067255, "is_reserved": 0, "is_disabled": 0, "fusion_lon": 0.0, "bike_id": "18c4e5fb07b84622ffae4298a41304a5", "lon": -77.03860033333333, "rental_uris": {"ios": "https://dc.lft.to/lastmile_qr_scan", "android": "https://dc.lft.to/lastmile_qr_scan"}}, {"name": "0c78cf57332988797487c488bb7ec578", "fusion_lat": 0.0, "type": "electric_scooter", "lat": 38.929424, "is_reserved": 0, "is_disabled": 0, "fusion_lon": 0.0, "bike_id": "0c78cf57332988797487c488bb7ec578", "lon": -77.0347245, "rental_uris": {"ios": "https://dc.lft.to/lastmile_qr_scan", "android": "https://dc.lft.to/lastmile_qr_scan"}}, {"name": "94f27fb639b7b1fc8d65948da43873b6", "fusion_lat": 0.0, "type": "electric_bike", "lat": 38.99069933333333, "is_reserved": 0, "is_disabled": 0, "fusion_lon": 0.0, "bike_id": "94f27fb639b7b1fc8d65948da43873b6", "lon": -77.10023533333333, "rental_uris": {"ios": "https://dc.lft.to/lastmile_qr_scan", "android": "https://dc.lft.to/lastmile_qr_scan"}}, {"name": "c7f5bd061e01557730d02df2c6b28e89", "fusion_lat": 0.0, "type": "electric_scooter", "lat": 38.91107316666667, "is_reserved": 0, "is_disabled": 0, "fusion_lon": 0.0, "bike_id": "c7f5bd061e01557730d02df2c6b28e89", "lon": -77.03700283333333, "rental_uris": {"ios": "https://dc.lft.to/lastmile_qr_scan", "android": "https://dc.lft.to/lastmile_qr_scan"}}, {"name": "4a84136f029bd27995a60a9fc553e027", "fusion_lat": 0.0, "type": "electric_scooter", "lat": 38.9026965, "is_reserved": 0, "is_disabled": 0, "fusion_lon": 0.0, "bike_id": "4a84136f029bd27995a60a9fc553e027", "lon": -77.0435825, "rental_uris": {"ios": "https://dc.lft.to/lastmile_qr_scan", "android": "https://dc.lft.to/lastmile_qr_scan"}}, {"name": "48ab27d2522b1df5cdf8fc780a2bb830", "fusion_lat": 0.0, "type": "electric_scooter", "lat": 38.89038716666666, "is_reserved": 0, "is_disabled": 0, "fusion_lon": 0.0, "bike_id": "48ab27d2522b1df5cdf8fc780a2bb830", "lon": -77.02976033333333, "rental_uris": {"ios": "https://dc.lft.to/lastmile_qr_scan", "android": "https://dc.lft.to/lastmile_qr_scan"}}, {"name": "174c61c8687d4fac8fdbf1a77f0ca522", "fusion_lat": 0.0, "type": "electric_scooter", "lat": 38.892183, "is_reserved": 0, "is_disabled": 0, "fusion_lon": 0.0, "bike_id": "174c61c8687d4fac8fdbf1a77f0ca522", "lon": -77.02142333333333, "rental_uris": {"ios": "https://dc.lft.to/lastmile_qr_scan", "android": "https://dc.lft.to/lastmile_qr_scan"}}, {"name": "9e3f425098a394527de7c2b4b9d5feec", "fusion_lat": 0.0, "type": "electric_scooter", "lat": 38.90768766666667, "is_reserved": 0, "is_disabled": 0, "fusion_lon": 0.0, "bike_id": "9e3f425098a394527de7c2b4b9d5feec", "lon": -77.03580166666667, "rental_uris": {"ios": "https://dc.lft.to/lastmile_qr_scan", "android": "https://dc.lft.to/lastmile_qr_scan"}}, {"name": "0fe11111457f1bb5ea60676f3aa0c6c9", "fusion_lat": 0.0, "type": "electric_scooter", "lat": 38.91118516666667, "is_reserved": 0, "is_disabled": 0, "fusion_lon": 0.0, "bike_id": "0fe11111457f1bb5ea60676f3aa0c6c9", "lon": -77.03826883333333, "rental_uris": {"ios": "https://dc.lft.to/lastmile_qr_scan", "android": "https://dc.lft.to/lastmile_qr_scan"}}, {"name": "c06f8406bfe9ae883b783b6dc51d6902", "fusion_lat": 0.0, "type": "electric_scooter", "lat": 38.902837, "is_reserved": 0, "is_disabled": 0, "fusion_lon": 0.0, "bike_id": "c06f8406bfe9ae883b783b6dc51d6902", "lon": -77.04248583333333, "rental_uris": {"ios": "https://dc.lft.to/lastmile_qr_scan", "android": "https://dc.lft.to/lastmile_qr_scan"}}, {"name": "f975fa2a094178d55552dde75c6d8bc4", "fusion_lat": 0.0, "type": "electric_scooter", "lat": 38.928997833333334, "is_reserved": 0, "is_disabled": 0, "fusion_lon": 0.0, "bike_id": "f975fa2a094178d55552dde75c6d8bc4", "lon": -77.0327605, "rental_uris": {"ios": "https://dc.lft.to/lastmile_qr_scan", "android": "https://dc.lft.to/lastmile_qr_scan"}}, {"name": "fe0d131307ccb0aedc94e7ccf52a390f", "fusion_lat": 0.0, "type": "electric_scooter", "lat": 38.89474583333333, "is_reserved": 0, "is_disabled": 0, "fusion_lon": 0.0, "bike_id": "fe0d131307ccb0aedc94e7ccf52a390f", "lon": -77.00333183333333, "rental_uris": {"ios": "https://dc.lft.to/lastmile_qr_scan", "android": "https://dc.lft.to/lastmile_qr_scan"}}, {"name": "30b156cc4f919f3dabfa7a93b3271521", "fusion_lat": 0.0, "type": "electric_bike", "lat": 38.867603, "is_reserved": 0, "is_disabled": 0, "fusion_lon": 0.0, "bike_id": "30b156cc4f919f3dabfa7a93b3271521", "lon": -76.9454105, "rental_uris": {"ios": "https://dc.lft.to/lastmile_qr_scan", "android": "https://dc.lft.to/lastmile_qr_scan"}}, {"name": "b259a0f6bd2cc6a3637059b57ecfd2a9", "fusion_lat": 0.0, "type": "electric_scooter", "lat": 38.91351616666667, "is_reserved": 0, "is_disabled": 0, "fusion_lon": 0.0, "bike_id": "b259a0f6bd2cc6a3637059b57ecfd2a9", "lon": -77.0320605, "rental_uris": {"ios": "https://dc.lft.to/lastmile_qr_scan", "android": "https://dc.lft.to/lastmile_qr_scan"}}, {"name": "af739ce77cc7ce8ceb9d7c6b8261399d", "fusion_lat": 0.0, "type": "electric_scooter", "lat": 38.91403583333334, "is_reserved": 0, "is_disabled": 0, "fusion_lon": 0.0, "bike_id": "af739ce77cc7ce8ceb9d7c6b8261399d", "lon": -77.008345, "rental_uris": {"ios": "https://dc.lft.to/lastmile_qr_scan", "android": "https://dc.lft.to/lastmile_qr_scan"}}, {"name": "dc9fcf2678182384e42b45614fa5309b", "fusion_lat": 0.0, "type": "electric_scooter", "lat": 38.91560916666667, "is_reserved": 0, "is_disabled": 0, "fusion_lon": 0.0, "bike_id": "dc9fcf2678182384e42b45614fa5309b", "lon": -77.05218816666667, "rental_uris": {"ios": "https://dc.lft.to/lastmile_qr_scan", "android": "https://dc.lft.to/lastmile_qr_scan"}}, {"name": "5ff7c04cd3d66f25ac302d86a0765962", "fusion_lat": 0.0, "type": "electric_bike", "lat": 38.899745833333334, "is_reserved": 0, "is_disabled": 0, "fusion_lon": 0.0, "bike_id": "5ff7c04cd3d66f25ac302d86a0765962", "lon": -77.02127933333334, "rental_uris": {"ios": "https://dc.lft.to/lastmile_qr_scan", "android": "https://dc.lft.to/lastmile_qr_scan"}}, {"name": "027c43c8fe84483b49dc2fd005755235", "fusion_lat": 0.0, "type": "electric_scooter", "lat": 38.898249166666666, "is_reserved": 0, "is_disabled": 0, "fusion_lon": 0.0, "bike_id": "027c43c8fe84483b49dc2fd005755235", "lon": -77.03118033333334, "rental_uris": {"ios": "https://dc.lft.to/lastmile_qr_scan", "android": "https://dc.lft.to/lastmile_qr_scan"}}, {"name": "c3182e7fc779b0352c4501d76ccca234", "fusion_lat": 0.0, "type": "electric_scooter", "lat": 38.898802833333335, "is_reserved": 0, "is_disabled": 0, "fusion_lon": 0.0, "bike_id": "c3182e7fc779b0352c4501d76ccca234", "lon": -77.03338366666667, "rental_uris": {"ios": "https://dc.lft.to/lastmile_qr_scan", "android": "https://dc.lft.to/lastmile_qr_scan"}}, {"name": "aa364609a876b5dbef6bd5f92ef48208", "fusion_lat": 0.0, "type": "electric_scooter", "lat": 38.91758983333333, "is_reserved": 0, "is_disabled": 0, "fusion_lon": 0.0, "bike_id": "aa364609a876b5dbef6bd5f92ef48208", "lon": -77.0271245, "rental_uris": {"ios": "https://dc.lft.to/lastmile_qr_scan", "android": "https://dc.lft.to/lastmile_qr_scan"}}, {"name": "045645ba94fbc0da84c2f74920c0c933", "fusion_lat": 0.0, "type": "electric_scooter", "lat": 38.9016705, "is_reserved": 0, "is_disabled": 0, "fusion_lon": 0.0, "bike_id": "045645ba94fbc0da84c2f74920c0c933", "lon": -77.04696133333333, "rental_uris": {"ios": "https://dc.lft.to/lastmile_qr_scan", "android": "https://dc.lft.to/lastmile_qr_scan"}}, {"name": "3c295c4c41f536aec65e3fddc2e4665d", "fusion_lat": 0.0, "type": "electric_scooter", "lat": 38.872681166666666, "is_reserved": 0, "is_disabled": 0, "fusion_lon": 0.0, "bike_id": "3c295c4c41f536aec65e3fddc2e4665d", "lon": -77.01532883333333, "rental_uris": {"ios": "https://dc.lft.to/lastmile_qr_scan", "android": "https://dc.lft.to/lastmile_qr_scan"}}, {"name": "364c61e07ed4d58e1d9996c09c9a5317", "fusion_lat": 0.0, "type": "electric_scooter", "lat": 38.897605666666664, "is_reserved": 0, "is_disabled": 0, "fusion_lon": 0.0, "bike_id": "364c61e07ed4d58e1d9996c09c9a5317", "lon": -77.026975, "rental_uris": {"ios": "https://dc.lft.to/lastmile_qr_scan", "android": "https://dc.lft.to/lastmile_qr_scan"}}, {"name": "b136610d1eff0e603c129aea831ef251", "fusion_lat": 0.0, "type": "electric_bike", "lat": 38.95186733333333, "is_reserved": 0, "is_disabled": 0, "fusion_lon": 0.0, "bike_id": "b136610d1eff0e603c129aea831ef251", "lon": -76.93543866666667, "rental_uris": {"ios": "https://dc.lft.to/lastmile_qr_scan", "android": "https://dc.lft.to/lastmile_qr_scan"}}, {"name": "3934637fa0d439c8dab985ac52872448", "fusion_lat": 0.0, "type": "electric_scooter", "lat": 38.93828933333333, "is_reserved": 0, "is_disabled": 0, "fusion_lon": 0.0, "bike_id": "3934637fa0d439c8dab985ac52872448", "lon": -77.02640433333333, "rental_uris": {"ios": "https://dc.lft.to/lastmile_qr_scan", "android": "https://dc.lft.to/lastmile_qr_scan"}}, {"name": "988420f23308fd48d530e491af718af3", "fusion_lat": 0.0, "type": "electric_scooter", "lat": 38.94182266666667, "is_reserved": 0, "is_disabled": 0, "fusion_lon": 0.0, "bike_id": "988420f23308fd48d530e491af718af3", "lon": -77.0248605, "rental_uris": {"ios": "https://dc.lft.to/lastmile_qr_scan", "android": "https://dc.lft.to/lastmile_qr_scan"}}, {"name": "d703b25145a87340763fa9fdc220fb3d", "fusion_lat": 0.0, "type": "electric_scooter", "lat": 38.90971, "is_reserved": 0, "is_disabled": 0, "fusion_lon": 0.0, "bike_id": "d703b25145a87340763fa9fdc220fb3d", "lon": -77.04233666666667, "rental_uris": {"ios": "https://dc.lft.to/lastmile_qr_scan", "android": "https://dc.lft.to/lastmile_qr_scan"}}, {"name": "daf0bb0b4df98eaaa4f4d3f7e7763259", "fusion_lat": 0.0, "type": "electric_scooter", "lat": 38.898405833333335, "is_reserved": 0, "is_disabled": 0, "fusion_lon": 0.0, "bike_id": "daf0bb0b4df98eaaa4f4d3f7e7763259", "lon": -77.02923466666667, "rental_uris": {"ios": "https://dc.lft.to/lastmile_qr_scan", "android": "https://dc.lft.to/lastmile_qr_scan"}}, {"name": "0af89437dffc84be0056ae6c567821fc", "fusion_lat": 0.0, "type": "electric_bike", "lat": 38.905604833333335, "is_reserved": 0, "is_disabled": 0, "fusion_lon": 0.0, "bike_id": "0af89437dffc84be0056ae6c567821fc", "lon": -77.03793566666667, "rental_uris": {"ios": "https://dc.lft.to/lastmile_qr_scan", "android": "https://dc.lft.to/lastmile_qr_scan"}}, {"name": "a576a68303f49299ef779ded9611fba9", "fusion_lat": 0.0, "type": "electric_scooter", "lat": 38.90658766666667, "is_reserved": 0, "is_disabled": 0, "fusion_lon": 0.0, "bike_id": "a576a68303f49299ef779ded9611fba9", "lon": -77.038544, "rental_uris": {"ios": "https://dc.lft.to/lastmile_qr_scan", "android": "https://dc.lft.to/lastmile_qr_scan"}}, {"name": "b2ceb0bb5ec25634f4f84e9e0f7d131f", "fusion_lat": 0.0, "type": "electric_scooter", "lat": 38.89603416666667, "is_reserved": 0, "is_disabled": 0, "fusion_lon": 0.0, "bike_id": "b2ceb0bb5ec25634f4f84e9e0f7d131f", "lon": -77.01112016666667, "rental_uris": {"ios": "https://dc.lft.to/lastmile_qr_scan", "android": "https://dc.lft.to/lastmile_qr_scan"}}, {"name": "3ebe7f00e8ac402b902f60aac384644e", "fusion_lat": 0.0, "type": "electric_scooter", "lat": 38.902774, "is_reserved": 0, "is_disabled": 0, "fusion_lon": 0.0, "bike_id": "3ebe7f00e8ac402b902f60aac384644e", "lon": -77.018778, "rental_uris": {"ios": "https://dc.lft.to/lastmile_qr_scan", "android": "https://dc.lft.to/lastmile_qr_scan"}}, {"name": "562ccf5f24e1a4d3327634bc7118cc6a", "fusion_lat": 0.0, "type": "electric_scooter", "lat": 38.92640883333333, "is_reserved": 0, "is_disabled": 0, "fusion_lon": 0.0, "bike_id": "562ccf5f24e1a4d3327634bc7118cc6a", "lon": -77.03471466666667, "rental_uris": {"ios": "https://dc.lft.to/lastmile_qr_scan", "android": "https://dc.lft.to/lastmile_qr_scan"}}, {"name": "d6ec5e75c606b35600f783c9af20d8de", "fusion_lat": 0.0, "type": "electric_scooter", "lat": 38.901905666666664, "is_reserved": 0, "is_disabled": 0, "fusion_lon": 0.0, "bike_id": "d6ec5e75c606b35600f783c9af20d8de", "lon": -77.02254533333333, "rental_uris": {"ios": "https://dc.lft.to/lastmile_qr_scan", "android": "https://dc.lft.to/lastmile_qr_scan"}}, {"name": "ad8cfa2b2e2157147484d15ed8ccef4b", "fusion_lat": 0.0, "type": "electric_scooter", "lat": 38.92253983333333, "is_reserved": 0, "is_disabled": 0, "fusion_lon": 0.0, "bike_id": "ad8cfa2b2e2157147484d15ed8ccef4b", "lon": -77.03474216666666, "rental_uris": {"ios": "https://dc.lft.to/lastmile_qr_scan", "android": "https://dc.lft.to/lastmile_qr_scan"}}, {"name": "b3989bcef50cc8242cdf987d0c2dad98", "fusion_lat": 0.0, "type": "electric_scooter", "lat": 38.89895516666667, "is_reserved": 0, "is_disabled": 0, "fusion_lon": 0.0, "bike_id": "b3989bcef50cc8242cdf987d0c2dad98", "lon": -76.93298816666666, "rental_uris": {"ios": "https://dc.lft.to/lastmile_qr_scan", "android": "https://dc.lft.to/lastmile_qr_scan"}}, {"name": "a6e04b720f40d618ace50ec08a5be7a6", "fusion_lat": 0.0, "type": "electric_scooter", "lat": 38.901234, "is_reserved": 0, "is_disabled": 0, "fusion_lon": 0.0, "bike_id": "a6e04b720f40d618ace50ec08a5be7a6", "lon": -77.04999333333333, "rental_uris": {"ios": "https://dc.lft.to/lastmile_qr_scan", "android": "https://dc.lft.to/lastmile_qr_scan"}}, {"name": "596481496979116c31dfc8d55c1d3679", "fusion_lat": 0.0, "type": "electric_scooter", "lat": 38.89018333333333, "is_reserved": 0, "is_disabled": 0, "fusion_lon": 0.0, "bike_id": "596481496979116c31dfc8d55c1d3679", "lon": -76.937171, "rental_uris": {"ios": "https://dc.lft.to/lastmile_qr_scan", "android": "https://dc.lft.to/lastmile_qr_scan"}}, {"name": "17731723c80a0e2d781d679eb066c723", "fusion_lat": 0.0, "type": "electric_scooter", "lat": 38.929688666666664, "is_reserved": 0, "is_disabled": 0, "fusion_lon": 0.0, "bike_id": "17731723c80a0e2d781d679eb066c723", "lon": -77.0052775, "rental_uris": {"ios": "https://dc.lft.to/lastmile_qr_scan", "android": "https://dc.lft.to/lastmile_qr_scan"}}, {"name": "0c4cd7f83c671e733b1b834e242ad885", "fusion_lat": 0.0, "type": "electric_scooter", "lat": 38.90340966666667, "is_reserved": 0, "is_disabled": 0, "fusion_lon": 0.0, "bike_id": "0c4cd7f83c671e733b1b834e242ad885", "lon": -77.03178066666666, "rental_uris": {"ios": "https://dc.lft.to/lastmile_qr_scan", "android": "https://dc.lft.to/lastmile_qr_scan"}}, {"name": "f7d55554bc4628a6bdbc353aada0310a", "fusion_lat": 0.0, "type": "electric_scooter", "lat": 38.887559833333334, "is_reserved": 0, "is_disabled": 0, "fusion_lon": 0.0, "bike_id": "f7d55554bc4628a6bdbc353aada0310a", "lon": -76.97980633333333, "rental_uris": {"ios": "https://dc.lft.to/lastmile_qr_scan", "android": "https://dc.lft.to/lastmile_qr_scan"}}, {"name": "aeeca5963fe64c9ed4ca8ad1a3eaa1f5", "fusion_lat": 0.0, "type": "electric_scooter", "lat": 38.91920733333333, "is_reserved": 0, "is_disabled": 0, "fusion_lon": 0.0, "bike_id": "aeeca5963fe64c9ed4ca8ad1a3eaa1f5", "lon": -77.03391933333333, "rental_uris": {"ios": "https://dc.lft.to/lastmile_qr_scan", "android": "https://dc.lft.to/lastmile_qr_scan"}}, {"name": "3cf2c3991db48c700ae0d64a3c92fa68", "fusion_lat": 0.0, "type": "electric_scooter", "lat": 38.9039015, "is_reserved": 0, "is_disabled": 0, "fusion_lon": 0.0, "bike_id": "3cf2c3991db48c700ae0d64a3c92fa68", "lon": -77.03201866666667, "rental_uris": {"ios": "https://dc.lft.to/lastmile_qr_scan", "android": "https://dc.lft.to/lastmile_qr_scan"}}, {"name": "9a247be9b672c8b16ffdf63d9e906bf7", "fusion_lat": 0.0, "type": "electric_scooter", "lat": 38.88390833333333, "is_reserved": 0, "is_disabled": 0, "fusion_lon": 0.0, "bike_id": "9a247be9b672c8b16ffdf63d9e906bf7", "lon": -76.93040683333334, "rental_uris": {"ios": "https://dc.lft.to/lastmile_qr_scan", "android": "https://dc.lft.to/lastmile_qr_scan"}}, {"name": "adffd20541827e48bc05dfb420f8c214", "fusion_lat": 0.0, "type": "electric_scooter", "lat": 38.9081175, "is_reserved": 0, "is_disabled": 0, "fusion_lon": 0.0, "bike_id": "adffd20541827e48bc05dfb420f8c214", "lon": -77.03842233333333, "rental_uris": {"ios": "https://dc.lft.to/lastmile_qr_scan", "android": "https://dc.lft.to/lastmile_qr_scan"}}, {"name": "0365071c4166df5bc245786c78eca4c8", "fusion_lat": 0.0, "type": "electric_bike", "lat": 38.886164666666666, "is_reserved": 0, "is_disabled": 0, "fusion_lon": 0.0, "bike_id": "0365071c4166df5bc245786c78eca4c8", "lon": -77.1075455, "rental_uris": {"ios": "https://dc.lft.to/lastmile_qr_scan", "android": "https://dc.lft.to/lastmile_qr_scan"}}, {"name": "7a750ae99bc64b477788d61a9bbf70e6", "fusion_lat": 0.0, "type": "electric_bike", "lat": 38.92215866666667, "is_reserved": 0, "is_disabled": 0, "fusion_lon": 0.0, "bike_id": "7a750ae99bc64b477788d61a9bbf70e6", "lon": -76.98794083333334, "rental_uris": {"ios": "https://dc.lft.to/lastmile_qr_scan", "android": "https://dc.lft.to/lastmile_qr_scan"}}, {"name": "b4e8b6192a89d1540f932e38f75992b9", "fusion_lat": 0.0, "type": "electric_scooter", "lat": 38.9026015, "is_reserved": 0, "is_disabled": 0, "fusion_lon": 0.0, "bike_id": "b4e8b6192a89d1540f932e38f75992b9", "lon": -77.03848666666667, "rental_uris": {"ios": "https://dc.lft.to/lastmile_qr_scan", "android": "https://dc.lft.to/lastmile_qr_scan"}}, {"name": "69740edae4323b1db3aa82366f51c6c6", "fusion_lat": 0.0, "type": "electric_scooter", "lat": 38.93884666666667, "is_reserved": 0, "is_disabled": 0, "fusion_lon": 0.0, "bike_id": "69740edae4323b1db3aa82366f51c6c6", "lon": -77.02462966666667, "rental_uris": {"ios": "https://dc.lft.to/lastmile_qr_scan", "android": "https://dc.lft.to/lastmile_qr_scan"}}, {"name": "3738cab8fc39a430b4ea6f5457bf9a1c", "fusion_lat": 0.0, "type": "electric_scooter", "lat": 38.89492166666667, "is_reserved": 0, "is_disabled": 0, "fusion_lon": 0.0, "bike_id": "3738cab8fc39a430b4ea6f5457bf9a1c", "lon": -77.01007433333334, "rental_uris": {"ios": "https://dc.lft.to/lastmile_qr_scan", "android": "https://dc.lft.to/lastmile_qr_scan"}}, {"name": "31ccad5b03703ebaef359959d079de33", "fusion_lat": 0.0, "type": "electric_scooter", "lat": 38.903049333333335, "is_reserved": 0, "is_disabled": 0, "fusion_lon": 0.0, "bike_id": "31ccad5b03703ebaef359959d079de33", "lon": -77.04984, "rental_uris": {"ios": "https://dc.lft.to/lastmile_qr_scan", "android": "https://dc.lft.to/lastmile_qr_scan"}}, {"name": "923f1e077fbf11f8810ab0c1287fd88d", "fusion_lat": 0.0, "type": "electric_scooter", "lat": 38.9181375, "is_reserved": 0, "is_disabled": 0, "fusion_lon": 0.0, "bike_id": "923f1e077fbf11f8810ab0c1287fd88d", "lon": -77.03328266666666, "rental_uris": {"ios": "https://dc.lft.to/lastmile_qr_scan", "android": "https://dc.lft.to/lastmile_qr_scan"}}, {"name": "a4014e1e14e1c50ebc835cf79154d490", "fusion_lat": 0.0, "type": "electric_scooter", "lat": 38.909151666666666, "is_reserved": 0, "is_disabled": 0, "fusion_lon": 0.0, "bike_id": "a4014e1e14e1c50ebc835cf79154d490", "lon": -77.03663683333333, "rental_uris": {"ios": "https://dc.lft.to/lastmile_qr_scan", "android": "https://dc.lft.to/lastmile_qr_scan"}}, {"name": "e20b9c5782e864bf8751b6534884b10a", "fusion_lat": 0.0, "type": "electric_scooter", "lat": 38.9003215, "is_reserved": 0, "is_disabled": 0, "fusion_lon": 0.0, "bike_id": "e20b9c5782e864bf8751b6534884b10a", "lon": -77.0008885, "rental_uris": {"ios": "https://dc.lft.to/lastmile_qr_scan", "android": "https://dc.lft.to/lastmile_qr_scan"}}, {"name": "e8e8166dd353493282e350ab8c0e03f0", "fusion_lat": 0.0, "type": "electric_scooter", "lat": 38.874984166666664, "is_reserved": 0, "is_disabled": 0, "fusion_lon": 0.0, "bike_id": "e8e8166dd353493282e350ab8c0e03f0", "lon": -76.9979335, "rental_uris": {"ios": "https://dc.lft.to/lastmile_qr_scan", "android": "https://dc.lft.to/lastmile_qr_scan"}}, {"name": "332cd3d79aea2ae941ca8cea769c84c0", "fusion_lat": 0.0, "type": "electric_scooter", "lat": 38.91899433333333, "is_reserved": 0, "is_disabled": 0, "fusion_lon": 0.0, "bike_id": "332cd3d79aea2ae941ca8cea769c84c0", "lon": -77.01967066666667, "rental_uris": {"ios": "https://dc.lft.to/lastmile_qr_scan", "android": "https://dc.lft.to/lastmile_qr_scan"}}, {"name": "f8f07ddcd26af704c4fe4684ea8679bc", "fusion_lat": 0.0, "type": "electric_scooter", "lat": 38.8766305, "is_reserved": 0, "is_disabled": 0, "fusion_lon": 0.0, "bike_id": "f8f07ddcd26af704c4fe4684ea8679bc", "lon": -77.00455633333333, "rental_uris": {"ios": "https://dc.lft.to/lastmile_qr_scan", "android": "https://dc.lft.to/lastmile_qr_scan"}}, {"name": "c3bca6ecd72de3515ae88798d4a9572e", "fusion_lat": 0.0, "type": "electric_scooter", "lat": 38.90640166666667, "is_reserved": 0, "is_disabled": 0, "fusion_lon": 0.0, "bike_id": "c3bca6ecd72de3515ae88798d4a9572e", "lon": -77.0238445, "rental_uris": {"ios": "https://dc.lft.to/lastmile_qr_scan", "android": "https://dc.lft.to/lastmile_qr_scan"}}, {"name": "06e903baa8a078f758760ee218890db0", "fusion_lat": 0.0, "type": "electric_scooter", "lat": 38.90813716666667, "is_reserved": 0, "is_disabled": 0, "fusion_lon": 0.0, "bike_id": "06e903baa8a078f758760ee218890db0", "lon": -77.03941083333333, "rental_uris": {"ios": "https://dc.lft.to/lastmile_qr_scan", "android": "https://dc.lft.to/lastmile_qr_scan"}}, {"name": "d0adffba4beeb573931ec730eb502996", "fusion_lat": 0.0, "type": "electric_scooter", "lat": 38.92656683333333, "is_reserved": 0, "is_disabled": 0, "fusion_lon": 0.0, "bike_id": "d0adffba4beeb573931ec730eb502996", "lon": -77.03719616666666, "rental_uris": {"ios": "https://dc.lft.to/lastmile_qr_scan", "android": "https://dc.lft.to/lastmile_qr_scan"}}, {"name": "379ee5feeae696883c84ce8283f20005", "fusion_lat": 0.0, "type": "electric_scooter", "lat": 38.90975366666667, "is_reserved": 0, "is_disabled": 0, "fusion_lon": 0.0, "bike_id": "379ee5feeae696883c84ce8283f20005", "lon": -77.01114683333333, "rental_uris": {"ios": "https://dc.lft.to/lastmile_qr_scan", "android": "https://dc.lft.to/lastmile_qr_scan"}}, {"name": "0612f13377ddf0fdea6b5fcb4d2fee32", "fusion_lat": 0.0, "type": "electric_scooter", "lat": 38.900204, "is_reserved": 0, "is_disabled": 0, "fusion_lon": 0.0, "bike_id": "0612f13377ddf0fdea6b5fcb4d2fee32", "lon": -77.033405, "rental_uris": {"ios": "https://dc.lft.to/lastmile_qr_scan", "android": "https://dc.lft.to/lastmile_qr_scan"}}, {"name": "724bd5950072674ef40fc790a7754ce9", "fusion_lat": 0.0, "type": "electric_scooter", "lat": 38.902677833333335, "is_reserved": 0, "is_disabled": 0, "fusion_lon": 0.0, "bike_id": "724bd5950072674ef40fc790a7754ce9", "lon": -77.034633, "rental_uris": {"ios": "https://dc.lft.to/lastmile_qr_scan", "android": "https://dc.lft.to/lastmile_qr_scan"}}, {"name": "1f355622febac09b4a7c97346ffa623a", "fusion_lat": 0.0, "type": "electric_bike", "lat": 38.95930883333333, "is_reserved": 0, "is_disabled": 0, "fusion_lon": 0.0, "bike_id": "1f355622febac09b4a7c97346ffa623a", "lon": -76.92538883333333, "rental_uris": {"ios": "https://dc.lft.to/lastmile_qr_scan", "android": "https://dc.lft.to/lastmile_qr_scan"}}, {"name": "8d70260b694996e1b6085e9696ba6bfe", "fusion_lat": 0.0, "type": "electric_scooter", "lat": 38.895583, "is_reserved": 0, "is_disabled": 0, "fusion_lon": 0.0, "bike_id": "8d70260b694996e1b6085e9696ba6bfe", "lon": -77.0467605, "rental_uris": {"ios": "https://dc.lft.to/lastmile_qr_scan", "android": "https://dc.lft.to/lastmile_qr_scan"}}, {"name": "d479a2da299a42a47e2bb196da695693", "fusion_lat": 0.0, "type": "electric_scooter", "lat": 38.900009833333336, "is_reserved": 0, "is_disabled": 0, "fusion_lon": 0.0, "bike_id": "d479a2da299a42a47e2bb196da695693", "lon": -77.0534115, "rental_uris": {"ios": "https://dc.lft.to/lastmile_qr_scan", "android": "https://dc.lft.to/lastmile_qr_scan"}}, {"name": "d8045e84c23d2642c929fa1a20196845", "fusion_lat": 0.0, "type": "electric_bike", "lat": 38.87757116666667, "is_reserved": 0, "is_disabled": 0, "fusion_lon": 0.0, "bike_id": "d8045e84c23d2642c929fa1a20196845", "lon": -76.97983333333333, "rental_uris": {"ios": "https://dc.lft.to/lastmile_qr_scan", "android": "https://dc.lft.to/lastmile_qr_scan"}}, {"name": "11d3ad7e3ae9b597910cf7b9f8a68679", "fusion_lat": 0.0, "type": "electric_scooter", "lat": 38.869648833333336, "is_reserved": 0, "is_disabled": 0, "fusion_lon": 0.0, "bike_id": "11d3ad7e3ae9b597910cf7b9f8a68679", "lon": -77.01377633333334, "rental_uris": {"ios": "https://dc.lft.to/lastmile_qr_scan", "android": "https://dc.lft.to/lastmile_qr_scan"}}, {"name": "1b62ad5b9af8405b8fed5d4c53879699", "fusion_lat": 0.0, "type": "electric_scooter", "lat": 38.90345966666667, "is_reserved": 0, "is_disabled": 0, "fusion_lon": 0.0, "bike_id": "1b62ad5b9af8405b8fed5d4c53879699", "lon": -77.0219115, "rental_uris": {"ios": "https://dc.lft.to/lastmile_qr_scan", "android": "https://dc.lft.to/lastmile_qr_scan"}}, {"name": "96861095213b4c126dcce1978c5079ed", "fusion_lat": 0.0, "type": "electric_scooter", "lat": 38.9283315, "is_reserved": 0, "is_disabled": 0, "fusion_lon": 0.0, "bike_id": "96861095213b4c126dcce1978c5079ed", "lon": -77.022564, "rental_uris": {"ios": "https://dc.lft.to/lastmile_qr_scan", "android": "https://dc.lft.to/lastmile_qr_scan"}}, {"name": "1d6e664a1b52cd0f9ce502a05e80b798", "fusion_lat": 0.0, "type": "electric_scooter", "lat": 38.89640716666667, "is_reserved": 0, "is_disabled": 0, "fusion_lon": 0.0, "bike_id": "1d6e664a1b52cd0f9ce502a05e80b798", "lon": -77.00924016666667, "rental_uris": {"ios": "https://dc.lft.to/lastmile_qr_scan", "android": "https://dc.lft.to/lastmile_qr_scan"}}, {"name": "40d3149192bc390da1d923194b77308a", "fusion_lat": 0.0, "type": "electric_scooter", "lat": 38.905799, "is_reserved": 0, "is_disabled": 0, "fusion_lon": 0.0, "bike_id": "40d3149192bc390da1d923194b77308a", "lon": -77.00289616666667, "rental_uris": {"ios": "https://dc.lft.to/lastmile_qr_scan", "android": "https://dc.lft.to/lastmile_qr_scan"}}, {"name": "57c84240531a6e0af4f7bce82de4aad9", "fusion_lat": 0.0, "type": "electric_bike", "lat": 38.953596, "is_reserved": 0, "is_disabled": 0, "fusion_lon": 0.0, "bike_id": "57c84240531a6e0af4f7bce82de4aad9", "lon": -76.98089533333334, "rental_uris": {"ios": "https://dc.lft.to/lastmile_qr_scan", "android": "https://dc.lft.to/lastmile_qr_scan"}}, {"name": "ec5dbfdb292df56d255458f1ac8d9894", "fusion_lat": 0.0, "type": "electric_scooter", "lat": 38.97503483333333, "is_reserved": 0, "is_disabled": 0, "fusion_lon": 0.0, "bike_id": "ec5dbfdb292df56d255458f1ac8d9894", "lon": -77.01687683333333, "rental_uris": {"ios": "https://dc.lft.to/lastmile_qr_scan", "android": "https://dc.lft.to/lastmile_qr_scan"}}, {"name": "0234ff590f2903e253743749fc907f92", "fusion_lat": 0.0, "type": "electric_scooter", "lat": 38.91226566666667, "is_reserved": 0, "is_disabled": 0, "fusion_lon": 0.0, "bike_id": "0234ff590f2903e253743749fc907f92", "lon": -77.04873766666667, "rental_uris": {"ios": "https://dc.lft.to/lastmile_qr_scan", "android": "https://dc.lft.to/lastmile_qr_scan"}}, {"name": "7cdc5c0924ef0284b94588e7552d89e1", "fusion_lat": 0.0, "type": "electric_scooter", "lat": 38.9221545, "is_reserved": 0, "is_disabled": 0, "fusion_lon": 0.0, "bike_id": "7cdc5c0924ef0284b94588e7552d89e1", "lon": -77.042385, "rental_uris": {"ios": "https://dc.lft.to/lastmile_qr_scan", "android": "https://dc.lft.to/lastmile_qr_scan"}}, {"name": "d3947ef297e87fb169e0ec32aa76a0e5", "fusion_lat": 0.0, "type": "electric_scooter", "lat": 38.8955295, "is_reserved": 0, "is_disabled": 0, "fusion_lon": 0.0, "bike_id": "d3947ef297e87fb169e0ec32aa76a0e5", "lon": -76.948771, "rental_uris": {"ios": "https://dc.lft.to/lastmile_qr_scan", "android": "https://dc.lft.to/lastmile_qr_scan"}}, {"name": "364f32e0b97518e59786750fedf304eb", "fusion_lat": 0.0, "type": "electric_bike", "lat": 38.93958883333333, "is_reserved": 0, "is_disabled": 0, "fusion_lon": 0.0, "bike_id": "364f32e0b97518e59786750fedf304eb", "lon": -77.3609605, "rental_uris": {"ios": "https://dc.lft.to/lastmile_qr_scan", "android": "https://dc.lft.to/lastmile_qr_scan"}}, {"name": "8a6e0d62c2612306544ee1b6097f03e8", "fusion_lat": 0.0, "type": "electric_bike", "lat": 38.824453166666665, "is_reserved": 0, "is_disabled": 0, "fusion_lon": 0.0, "bike_id": "8a6e0d62c2612306544ee1b6097f03e8", "lon": -77.070374, "rental_uris": {"ios": "https://dc.lft.to/lastmile_qr_scan", "android": "https://dc.lft.to/lastmile_qr_scan"}}, {"name": "521a2859fe1cd3bfafb9f2d308f78afb", "fusion_lat": 0.0, "type": "electric_scooter", "lat": 38.90032683333333, "is_reserved": 0, "is_disabled": 0, "fusion_lon": 0.0, "bike_id": "521a2859fe1cd3bfafb9f2d308f78afb", "lon": -77.0371035, "rental_uris": {"ios": "https://dc.lft.to/lastmile_qr_scan", "android": "https://dc.lft.to/lastmile_qr_scan"}}, {"name": "6a839622b10ca7263d9a879b65e0662f", "fusion_lat": 0.0, "type": "electric_scooter", "lat": 38.92088366666667, "is_reserved": 0, "is_disabled": 0, "fusion_lon": 0.0, "bike_id": "6a839622b10ca7263d9a879b65e0662f", "lon": -77.0223145, "rental_uris": {"ios": "https://dc.lft.to/lastmile_qr_scan", "android": "https://dc.lft.to/lastmile_qr_scan"}}, {"name": "785d60be93cb5eba1c9873d314478970", "fusion_lat": 0.0, "type": "electric_bike", "lat": 38.92642333333333, "is_reserved": 0, "is_disabled": 0, "fusion_lon": 0.0, "bike_id": "785d60be93cb5eba1c9873d314478970", "lon": -77.0283615, "rental_uris": {"ios": "https://dc.lft.to/lastmile_qr_scan", "android": "https://dc.lft.to/lastmile_qr_scan"}}, {"name": "1031247378aae9b0d38b5e430d520dce", "fusion_lat": 0.0, "type": "electric_scooter", "lat": 38.89623016666667, "is_reserved": 0, "is_disabled": 0, "fusion_lon": 0.0, "bike_id": "1031247378aae9b0d38b5e430d520dce", "lon": -77.0296365, "rental_uris": {"ios": "https://dc.lft.to/lastmile_qr_scan", "android": "https://dc.lft.to/lastmile_qr_scan"}}, {"name": "a17a3275e5952ac04ae6233e6061177e", "fusion_lat": 0.0, "type": "electric_scooter", "lat": 38.923164166666666, "is_reserved": 0, "is_disabled": 0, "fusion_lon": 0.0, "bike_id": "a17a3275e5952ac04ae6233e6061177e", "lon": -77.02977133333333, "rental_uris": {"ios": "https://dc.lft.to/lastmile_qr_scan", "android": "https://dc.lft.to/lastmile_qr_scan"}}, {"name": "460ddfdbdd60d6d4a6dd04b2daeab222", "fusion_lat": 0.0, "type": "electric_scooter", "lat": 38.91721066666667, "is_reserved": 0, "is_disabled": 0, "fusion_lon": 0.0, "bike_id": "460ddfdbdd60d6d4a6dd04b2daeab222", "lon": -77.03837616666667, "rental_uris": {"ios": "https://dc.lft.to/lastmile_qr_scan", "android": "https://dc.lft.to/lastmile_qr_scan"}}, {"name": "110eae2be51f2d958ea32ad0c96d7b4f", "fusion_lat": 0.0, "type": "electric_scooter", "lat": 38.89919116666667, "is_reserved": 0, "is_disabled": 0, "fusion_lon": 0.0, "bike_id": "110eae2be51f2d958ea32ad0c96d7b4f", "lon": -76.93382433333333, "rental_uris": {"ios": "https://dc.lft.to/lastmile_qr_scan", "android": "https://dc.lft.to/lastmile_qr_scan"}}, {"name": "2d652cea89fafac41ae8ca841e32c035", "fusion_lat": 0.0, "type": "electric_scooter", "lat": 38.920475833333334, "is_reserved": 0, "is_disabled": 0, "fusion_lon": 0.0, "bike_id": "2d652cea89fafac41ae8ca841e32c035", "lon": -77.03473016666666, "rental_uris": {"ios": "https://dc.lft.to/lastmile_qr_scan", "android": "https://dc.lft.to/lastmile_qr_scan"}}, {"name": "2ea6d8d4b6d2ab31e3212ad3bfe4aa75", "fusion_lat": 0.0, "type": "electric_bike", "lat": 38.91859266666667, "is_reserved": 0, "is_disabled": 0, "fusion_lon": 0.0, "bike_id": "2ea6d8d4b6d2ab31e3212ad3bfe4aa75", "lon": -76.9608865, "rental_uris": {"ios": "https://dc.lft.to/lastmile_qr_scan", "android": "https://dc.lft.to/lastmile_qr_scan"}}, {"name": "982431ffb92880ef721a444c6d18516a", "fusion_lat": 0.0, "type": "electric_scooter", "lat": 38.9026515, "is_reserved": 0, "is_disabled": 0, "fusion_lon": 0.0, "bike_id": "982431ffb92880ef721a444c6d18516a", "lon": -77.030367, "rental_uris": {"ios": "https://dc.lft.to/lastmile_qr_scan", "android": "https://dc.lft.to/lastmile_qr_scan"}}, {"name": "a83e0b45566ca14ed7d0ca749c9e9a02", "fusion_lat": 0.0, "type": "electric_scooter", "lat": 38.88744366666667, "is_reserved": 0, "is_disabled": 0, "fusion_lon": 0.0, "bike_id": "a83e0b45566ca14ed7d0ca749c9e9a02", "lon": -77.0283515, "rental_uris": {"ios": "https://dc.lft.to/lastmile_qr_scan", "android": "https://dc.lft.to/lastmile_qr_scan"}}, {"name": "4b619526be01b0fbfb0fc025e90c675b", "fusion_lat": 0.0, "type": "electric_scooter", "lat": 38.896560666666666, "is_reserved": 0, "is_disabled": 0, "fusion_lon": 0.0, "bike_id": "4b619526be01b0fbfb0fc025e90c675b", "lon": -77.02977583333333, "rental_uris": {"ios": "https://dc.lft.to/lastmile_qr_scan", "android": "https://dc.lft.to/lastmile_qr_scan"}}, {"name": "d918f3b79eebf89b4e31140f13dcfe0e", "fusion_lat": 0.0, "type": "electric_scooter", "lat": 38.92076216666667, "is_reserved": 0, "is_disabled": 0, "fusion_lon": 0.0, "bike_id": "d918f3b79eebf89b4e31140f13dcfe0e", "lon": -77.0241075, "rental_uris": {"ios": "https://dc.lft.to/lastmile_qr_scan", "android": "https://dc.lft.to/lastmile_qr_scan"}}, {"name": "249eacbf2349816fc4ad2044dab2104e", "fusion_lat": 0.0, "type": "electric_scooter", "lat": 38.898429166666666, "is_reserved": 0, "is_disabled": 0, "fusion_lon": 0.0, "bike_id": "249eacbf2349816fc4ad2044dab2104e", "lon": -77.02923616666666, "rental_uris": {"ios": "https://dc.lft.to/lastmile_qr_scan", "android": "https://dc.lft.to/lastmile_qr_scan"}}, {"name": "15fcaf7d136f9b0dd5c04fbbea80dde0", "fusion_lat": 0.0, "type": "electric_scooter", "lat": 38.89476583333333, "is_reserved": 0, "is_disabled": 0, "fusion_lon": 0.0, "bike_id": "15fcaf7d136f9b0dd5c04fbbea80dde0", "lon": -77.00132166666667, "rental_uris": {"ios": "https://dc.lft.to/lastmile_qr_scan", "android": "https://dc.lft.to/lastmile_qr_scan"}}, {"name": "4457eda3423aceeb585cdd022ea18396", "fusion_lat": 0.0, "type": "electric_scooter", "lat": 38.92066466666667, "is_reserved": 0, "is_disabled": 0, "fusion_lon": 0.0, "bike_id": "4457eda3423aceeb585cdd022ea18396", "lon": -77.0296125, "rental_uris": {"ios": "https://dc.lft.to/lastmile_qr_scan", "android": "https://dc.lft.to/lastmile_qr_scan"}}, {"name": "b93d2ddb5abbc59fb262e9f67bf457b4", "fusion_lat": 0.0, "type": "electric_scooter", "lat": 38.9063125, "is_reserved": 0, "is_disabled": 0, "fusion_lon": 0.0, "bike_id": "b93d2ddb5abbc59fb262e9f67bf457b4", "lon": -77.00593366666666, "rental_uris": {"ios": "https://dc.lft.to/lastmile_qr_scan", "android": "https://dc.lft.to/lastmile_qr_scan"}}, {"name": "784264dbd7aaa30db2d0a1a2d6a18776", "fusion_lat": 0.0, "type": "electric_scooter", "lat": 38.9037995, "is_reserved": 0, "is_disabled": 0, "fusion_lon": 0.0, "bike_id": "784264dbd7aaa30db2d0a1a2d6a18776", "lon": -77.044856, "rental_uris": {"ios": "https://dc.lft.to/lastmile_qr_scan", "android": "https://dc.lft.to/lastmile_qr_scan"}}, {"name": "61ac604fd95f0537568a3d05ac513392", "fusion_lat": 0.0, "type": "electric_scooter", "lat": 38.9057685, "is_reserved": 0, "is_disabled": 0, "fusion_lon": 0.0, "bike_id": "61ac604fd95f0537568a3d05ac513392", "lon": -77.04376933333333, "rental_uris": {"ios": "https://dc.lft.to/lastmile_qr_scan", "android": "https://dc.lft.to/lastmile_qr_scan"}}, {"name": "359239b7e5b4acb3a67567883f391da6", "fusion_lat": 0.0, "type": "electric_scooter", "lat": 38.901545, "is_reserved": 0, "is_disabled": 0, "fusion_lon": 0.0, "bike_id": "359239b7e5b4acb3a67567883f391da6", "lon": -77.04496566666667, "rental_uris": {"ios": "https://dc.lft.to/lastmile_qr_scan", "android": "https://dc.lft.to/lastmile_qr_scan"}}, {"name": "168a032f9f365ddb2bccb8a0dc4ba095", "fusion_lat": 0.0, "type": "electric_scooter", "lat": 38.90387533333333, "is_reserved": 0, "is_disabled": 0, "fusion_lon": 0.0, "bike_id": "168a032f9f365ddb2bccb8a0dc4ba095", "lon": -77.03188466666667, "rental_uris": {"ios": "https://dc.lft.to/lastmile_qr_scan", "android": "https://dc.lft.to/lastmile_qr_scan"}}, {"name": "602ede5fb799f92a908e0e0280dbae81", "fusion_lat": 0.0, "type": "electric_scooter", "lat": 38.91150866666667, "is_reserved": 0, "is_disabled": 0, "fusion_lon": 0.0, "bike_id": "602ede5fb799f92a908e0e0280dbae81", "lon": -77.04435983333333, "rental_uris": {"ios": "https://dc.lft.to/lastmile_qr_scan", "android": "https://dc.lft.to/lastmile_qr_scan"}}, {"name": "38da65c9a68f39f1d332e6d25f3694d7", "fusion_lat": 0.0, "type": "electric_scooter", "lat": 38.91982483333334, "is_reserved": 0, "is_disabled": 0, "fusion_lon": 0.0, "bike_id": "38da65c9a68f39f1d332e6d25f3694d7", "lon": -77.0217545, "rental_uris": {"ios": "https://dc.lft.to/lastmile_qr_scan", "android": "https://dc.lft.to/lastmile_qr_scan"}}, {"name": "6ee580d2b40e199e56938812b75ded80", "fusion_lat": 0.0, "type": "electric_bike", "lat": 38.964982666666664, "is_reserved": 0, "is_disabled": 0, "fusion_lon": 0.0, "bike_id": "6ee580d2b40e199e56938812b75ded80", "lon": -77.06496366666667, "rental_uris": {"ios": "https://dc.lft.to/lastmile_qr_scan", "android": "https://dc.lft.to/lastmile_qr_scan"}}, {"name": "85712d051c813478b3015dcaac2d50c5", "fusion_lat": 0.0, "type": "electric_scooter", "lat": 38.9231735, "is_reserved": 0, "is_disabled": 0, "fusion_lon": 0.0, "bike_id": "85712d051c813478b3015dcaac2d50c5", "lon": -77.02977183333333, "rental_uris": {"ios": "https://dc.lft.to/lastmile_qr_scan", "android": "https://dc.lft.to/lastmile_qr_scan"}}, {"name": "a10f59f6b78f23f9e22f303e746d2186", "fusion_lat": 0.0, "type": "electric_scooter", "lat": 38.922659333333335, "is_reserved": 0, "is_disabled": 0, "fusion_lon": 0.0, "bike_id": "a10f59f6b78f23f9e22f303e746d2186", "lon": -77.03404, "rental_uris": {"ios": "https://dc.lft.to/lastmile_qr_scan", "android": "https://dc.lft.to/lastmile_qr_scan"}}, {"name": "9e837fa48c78cf7abc3e9ff97b8a8399", "fusion_lat": 0.0, "type": "electric_scooter", "lat": 38.93718166666667, "is_reserved": 0, "is_disabled": 0, "fusion_lon": 0.0, "bike_id": "9e837fa48c78cf7abc3e9ff97b8a8399", "lon": -77.03650783333333, "rental_uris": {"ios": "https://dc.lft.to/lastmile_qr_scan", "android": "https://dc.lft.to/lastmile_qr_scan"}}, {"name": "59a6b0878ff1846b3db4501d36f57532", "fusion_lat": 0.0, "type": "electric_scooter", "lat": 38.954045666666666, "is_reserved": 0, "is_disabled": 0, "fusion_lon": 0.0, "bike_id": "59a6b0878ff1846b3db4501d36f57532", "lon": -77.02747916666667, "rental_uris": {"ios": "https://dc.lft.to/lastmile_qr_scan", "android": "https://dc.lft.to/lastmile_qr_scan"}}, {"name": "55302bc7a5afa36bc0fd0adbdd4a073f", "fusion_lat": 0.0, "type": "electric_scooter", "lat": 38.905723, "is_reserved": 0, "is_disabled": 0, "fusion_lon": 0.0, "bike_id": "55302bc7a5afa36bc0fd0adbdd4a073f", "lon": -77.04068816666667, "rental_uris": {"ios": "https://dc.lft.to/lastmile_qr_scan", "android": "https://dc.lft.to/lastmile_qr_scan"}}, {"name": "5038f42ce97edf58276d833013da1b58", "fusion_lat": 0.0, "type": "electric_bike", "lat": 39.030485, "is_reserved": 0, "is_disabled": 0, "fusion_lon": 0.0, "bike_id": "5038f42ce97edf58276d833013da1b58", "lon": -77.094787, "rental_uris": {"ios": "https://dc.lft.to/lastmile_qr_scan", "android": "https://dc.lft.to/lastmile_qr_scan"}}, {"name": "8f3913fe896f295ec88dced341f8fc7b", "fusion_lat": 0.0, "type": "electric_scooter", "lat": 38.918504, "is_reserved": 0, "is_disabled": 0, "fusion_lon": 0.0, "bike_id": "8f3913fe896f295ec88dced341f8fc7b", "lon": -77.06143716666666, "rental_uris": {"ios": "https://dc.lft.to/lastmile_qr_scan", "android": "https://dc.lft.to/lastmile_qr_scan"}}, {"name": "1bc1864a3f9643fb0b71eec6f9b8ec06", "fusion_lat": 0.0, "type": "electric_scooter", "lat": 38.907714166666665, "is_reserved": 0, "is_disabled": 0, "fusion_lon": 0.0, "bike_id": "1bc1864a3f9643fb0b71eec6f9b8ec06", "lon": -77.03195433333333, "rental_uris": {"ios": "https://dc.lft.to/lastmile_qr_scan", "android": "https://dc.lft.to/lastmile_qr_scan"}}, {"name": "fa3c79ad9760b86a1322ef007a158047", "fusion_lat": 0.0, "type": "electric_bike", "lat": 38.970519, "is_reserved": 0, "is_disabled": 0, "fusion_lon": 0.0, "bike_id": "fa3c79ad9760b86a1322ef007a158047", "lon": -76.93617033333334, "rental_uris": {"ios": "https://dc.lft.to/lastmile_qr_scan", "android": "https://dc.lft.to/lastmile_qr_scan"}}, {"name": "635b58ebb58cbca7c7e73126d42946cb", "fusion_lat": 0.0, "type": "electric_bike", "lat": 38.89663733333333, "is_reserved": 0, "is_disabled": 0, "fusion_lon": 0.0, "bike_id": "635b58ebb58cbca7c7e73126d42946cb", "lon": -77.02604716666667, "rental_uris": {"ios": "https://dc.lft.to/lastmile_qr_scan", "android": "https://dc.lft.to/lastmile_qr_scan"}}, {"name": "cbaebe3a6b0dd67942b12445e14a91cf", "fusion_lat": 0.0, "type": "electric_scooter", "lat": 38.92051883333333, "is_reserved": 0, "is_disabled": 0, "fusion_lon": 0.0, "bike_id": "cbaebe3a6b0dd67942b12445e14a91cf", "lon": -77.03386683333333, "rental_uris": {"ios": "https://dc.lft.to/lastmile_qr_scan", "android": "https://dc.lft.to/lastmile_qr_scan"}}, {"name": "d2945fdda47c2c2eb8e246b083b99c8a", "fusion_lat": 0.0, "type": "electric_scooter", "lat": 38.87011583333334, "is_reserved": 0, "is_disabled": 0, "fusion_lon": 0.0, "bike_id": "d2945fdda47c2c2eb8e246b083b99c8a", "lon": -77.012317, "rental_uris": {"ios": "https://dc.lft.to/lastmile_qr_scan", "android": "https://dc.lft.to/lastmile_qr_scan"}}, {"name": "aa5f4d5599d7f0be63beeb7bf53bc1f4", "fusion_lat": 0.0, "type": "electric_bike", "lat": 38.820501666666665, "is_reserved": 0, "is_disabled": 0, "fusion_lon": 0.0, "bike_id": "aa5f4d5599d7f0be63beeb7bf53bc1f4", "lon": -77.0531125, "rental_uris": {"ios": "https://dc.lft.to/lastmile_qr_scan", "android": "https://dc.lft.to/lastmile_qr_scan"}}, {"name": "7a44820a4eabd7654663b1e6f952d5fc", "fusion_lat": 0.0, "type": "electric_scooter", "lat": 38.90033716666667, "is_reserved": 0, "is_disabled": 0, "fusion_lon": 0.0, "bike_id": "7a44820a4eabd7654663b1e6f952d5fc", "lon": -77.00198116666667, "rental_uris": {"ios": "https://dc.lft.to/lastmile_qr_scan", "android": "https://dc.lft.to/lastmile_qr_scan"}}, {"name": "69a92284169a7355785265f7c9395fb2", "fusion_lat": 0.0, "type": "electric_scooter", "lat": 38.892224666666664, "is_reserved": 0, "is_disabled": 0, "fusion_lon": 0.0, "bike_id": "69a92284169a7355785265f7c9395fb2", "lon": -77.02655283333333, "rental_uris": {"ios": "https://dc.lft.to/lastmile_qr_scan", "android": "https://dc.lft.to/lastmile_qr_scan"}}, {"name": "7e2bee897769b6e2cb63499912fd906d", "fusion_lat": 0.0, "type": "electric_bike", "lat": 38.965066666666665, "is_reserved": 0, "is_disabled": 0, "fusion_lon": 0.0, "bike_id": "7e2bee897769b6e2cb63499912fd906d", "lon": -77.1033265, "rental_uris": {"ios": "https://dc.lft.to/lastmile_qr_scan", "android": "https://dc.lft.to/lastmile_qr_scan"}}, {"name": "22e7783bdf08e49a1b43c6ea45b47366", "fusion_lat": 0.0, "type": "electric_scooter", "lat": 38.9032325, "is_reserved": 0, "is_disabled": 0, "fusion_lon": 0.0, "bike_id": "22e7783bdf08e49a1b43c6ea45b47366", "lon": -77.03208116666667, "rental_uris": {"ios": "https://dc.lft.to/lastmile_qr_scan", "android": "https://dc.lft.to/lastmile_qr_scan"}}, {"name": "84dc2ad42d364a7c1b1df96a66621c9a", "fusion_lat": 0.0, "type": "electric_scooter", "lat": 38.9327875, "is_reserved": 0, "is_disabled": 0, "fusion_lon": 0.0, "bike_id": "84dc2ad42d364a7c1b1df96a66621c9a", "lon": -77.03499683333334, "rental_uris": {"ios": "https://dc.lft.to/lastmile_qr_scan", "android": "https://dc.lft.to/lastmile_qr_scan"}}, {"name": "dd3b8e4095909319e7e78f2401e6bbcd", "fusion_lat": 0.0, "type": "electric_scooter", "lat": 38.930681666666665, "is_reserved": 0, "is_disabled": 0, "fusion_lon": 0.0, "bike_id": "dd3b8e4095909319e7e78f2401e6bbcd", "lon": -77.03399533333334, "rental_uris": {"ios": "https://dc.lft.to/lastmile_qr_scan", "android": "https://dc.lft.to/lastmile_qr_scan"}}, {"name": "a5ba668ac556321c92f4d52e38e5f1d8", "fusion_lat": 0.0, "type": "electric_bike", "lat": 38.965467833333335, "is_reserved": 0, "is_disabled": 0, "fusion_lon": 0.0, "bike_id": "a5ba668ac556321c92f4d52e38e5f1d8", "lon": -77.03514666666666, "rental_uris": {"ios": "https://dc.lft.to/lastmile_qr_scan", "android": "https://dc.lft.to/lastmile_qr_scan"}}, {"name": "204641de20c4105e91d9df35b421f42a", "fusion_lat": 0.0, "type": "electric_scooter", "lat": 38.900656166666664, "is_reserved": 0, "is_disabled": 0, "fusion_lon": 0.0, "bike_id": "204641de20c4105e91d9df35b421f42a", "lon": -77.03168566666666, "rental_uris": {"ios": "https://dc.lft.to/lastmile_qr_scan", "android": "https://dc.lft.to/lastmile_qr_scan"}}, {"name": "1d67ba17f062a7feaed904f829f78be2", "fusion_lat": 0.0, "type": "electric_scooter", "lat": 38.90361866666667, "is_reserved": 0, "is_disabled": 0, "fusion_lon": 0.0, "bike_id": "1d67ba17f062a7feaed904f829f78be2", "lon": -77.05363716666666, "rental_uris": {"ios": "https://dc.lft.to/lastmile_qr_scan", "android": "https://dc.lft.to/lastmile_qr_scan"}}, {"name": "8c30c80f9c545ff1e028cf9fa9629608", "fusion_lat": 0.0, "type": "electric_scooter", "lat": 38.86567633333333, "is_reserved": 0, "is_disabled": 0, "fusion_lon": 0.0, "bike_id": "8c30c80f9c545ff1e028cf9fa9629608", "lon": -76.98548816666667, "rental_uris": {"ios": "https://dc.lft.to/lastmile_qr_scan", "android": "https://dc.lft.to/lastmile_qr_scan"}}, {"name": "eeb0527f587224da052eb2aa2a269d3d", "fusion_lat": 0.0, "type": "electric_scooter", "lat": 38.9002835, "is_reserved": 0, "is_disabled": 0, "fusion_lon": 0.0, "bike_id": "eeb0527f587224da052eb2aa2a269d3d", "lon": -77.011541, "rental_uris": {"ios": "https://dc.lft.to/lastmile_qr_scan", "android": "https://dc.lft.to/lastmile_qr_scan"}}, {"name": "64f8e7ffe90b0d426e45b80ac4aca211", "fusion_lat": 0.0, "type": "electric_scooter", "lat": 38.8909275, "is_reserved": 0, "is_disabled": 0, "fusion_lon": 0.0, "bike_id": "64f8e7ffe90b0d426e45b80ac4aca211", "lon": -76.99783183333334, "rental_uris": {"ios": "https://dc.lft.to/lastmile_qr_scan", "android": "https://dc.lft.to/lastmile_qr_scan"}}, {"name": "bbde4fc7995b27bb834c736e5f2bd9fd", "fusion_lat": 0.0, "type": "electric_scooter", "lat": 38.88746166666667, "is_reserved": 0, "is_disabled": 0, "fusion_lon": 0.0, "bike_id": "bbde4fc7995b27bb834c736e5f2bd9fd", "lon": -77.02221183333333, "rental_uris": {"ios": "https://dc.lft.to/lastmile_qr_scan", "android": "https://dc.lft.to/lastmile_qr_scan"}}, {"name": "4014174c4420b0826fa350a35c12a8b2", "fusion_lat": 0.0, "type": "electric_scooter", "lat": 38.9014235, "is_reserved": 0, "is_disabled": 0, "fusion_lon": 0.0, "bike_id": "4014174c4420b0826fa350a35c12a8b2", "lon": -77.047569, "rental_uris": {"ios": "https://dc.lft.to/lastmile_qr_scan", "android": "https://dc.lft.to/lastmile_qr_scan"}}, {"name": "f0016e2dcc2306a07565d388b15c12ab", "fusion_lat": 0.0, "type": "electric_scooter", "lat": 38.923727666666665, "is_reserved": 0, "is_disabled": 0, "fusion_lon": 0.0, "bike_id": "f0016e2dcc2306a07565d388b15c12ab", "lon": -77.019117, "rental_uris": {"ios": "https://dc.lft.to/lastmile_qr_scan", "android": "https://dc.lft.to/lastmile_qr_scan"}}, {"name": "3d70370122c74c5c0d58e30780d154fc", "fusion_lat": 0.0, "type": "electric_scooter", "lat": 38.86207116666667, "is_reserved": 0, "is_disabled": 0, "fusion_lon": 0.0, "bike_id": "3d70370122c74c5c0d58e30780d154fc", "lon": -76.99463633333333, "rental_uris": {"ios": "https://dc.lft.to/lastmile_qr_scan", "android": "https://dc.lft.to/lastmile_qr_scan"}}, {"name": "0125b794dd9d722a2cf308a9cf9807a8", "fusion_lat": 0.0, "type": "electric_scooter", "lat": 38.87757416666667, "is_reserved": 0, "is_disabled": 0, "fusion_lon": 0.0, "bike_id": "0125b794dd9d722a2cf308a9cf9807a8", "lon": -76.97238166666666, "rental_uris": {"ios": "https://dc.lft.to/lastmile_qr_scan", "android": "https://dc.lft.to/lastmile_qr_scan"}}, {"name": "c48cf982986006d8ad199d102804fd3d", "fusion_lat": 0.0, "type": "electric_scooter", "lat": 38.919099333333335, "is_reserved": 0, "is_disabled": 0, "fusion_lon": 0.0, "bike_id": "c48cf982986006d8ad199d102804fd3d", "lon": -77.03443, "rental_uris": {"ios": "https://dc.lft.to/lastmile_qr_scan", "android": "https://dc.lft.to/lastmile_qr_scan"}}, {"name": "7d4cefcbf0a82c4381619f0934160c6b", "fusion_lat": 0.0, "type": "electric_scooter", "lat": 38.9289225, "is_reserved": 0, "is_disabled": 0, "fusion_lon": 0.0, "bike_id": "7d4cefcbf0a82c4381619f0934160c6b", "lon": -77.02493816666667, "rental_uris": {"ios": "https://dc.lft.to/lastmile_qr_scan", "android": "https://dc.lft.to/lastmile_qr_scan"}}, {"name": "29a538e547ac200018783016e897afc5", "fusion_lat": 0.0, "type": "electric_scooter", "lat": 38.896076, "is_reserved": 0, "is_disabled": 0, "fusion_lon": 0.0, "bike_id": "29a538e547ac200018783016e897afc5", "lon": -77.0181395, "rental_uris": {"ios": "https://dc.lft.to/lastmile_qr_scan", "android": "https://dc.lft.to/lastmile_qr_scan"}}, {"name": "505892969acc7a7414e85ab1a9b56a6a", "fusion_lat": 0.0, "type": "electric_scooter", "lat": 38.914804333333336, "is_reserved": 0, "is_disabled": 0, "fusion_lon": 0.0, "bike_id": "505892969acc7a7414e85ab1a9b56a6a", "lon": -77.04603683333333, "rental_uris": {"ios": "https://dc.lft.to/lastmile_qr_scan", "android": "https://dc.lft.to/lastmile_qr_scan"}}, {"name": "85413f0db835a0f1e60079ede9314081", "fusion_lat": 0.0, "type": "electric_scooter", "lat": 38.948397666666665, "is_reserved": 0, "is_disabled": 0, "fusion_lon": 0.0, "bike_id": "85413f0db835a0f1e60079ede9314081", "lon": -77.02553766666666, "rental_uris": {"ios": "https://dc.lft.to/lastmile_qr_scan", "android": "https://dc.lft.to/lastmile_qr_scan"}}, {"name": "b6a03f037c611deb60867830e04de0fd", "fusion_lat": 0.0, "type": "electric_scooter", "lat": 38.92073633333333, "is_reserved": 0, "is_disabled": 0, "fusion_lon": 0.0, "bike_id": "b6a03f037c611deb60867830e04de0fd", "lon": -77.02407916666667, "rental_uris": {"ios": "https://dc.lft.to/lastmile_qr_scan", "android": "https://dc.lft.to/lastmile_qr_scan"}}, {"name": "8d0ccf14bf62384f527a06f70045d399", "fusion_lat": 0.0, "type": "electric_scooter", "lat": 38.905666333333336, "is_reserved": 0, "is_disabled": 0, "fusion_lon": 0.0, "bike_id": "8d0ccf14bf62384f527a06f70045d399", "lon": -77.0221315, "rental_uris": {"ios": "https://dc.lft.to/lastmile_qr_scan", "android": "https://dc.lft.to/lastmile_qr_scan"}}, {"name": "888b2c4bf65eb392fd859bc73434f2d6", "fusion_lat": 0.0, "type": "electric_scooter", "lat": 38.90507016666667, "is_reserved": 0, "is_disabled": 0, "fusion_lon": 0.0, "bike_id": "888b2c4bf65eb392fd859bc73434f2d6", "lon": -76.99449516666667, "rental_uris": {"ios": "https://dc.lft.to/lastmile_qr_scan", "android": "https://dc.lft.to/lastmile_qr_scan"}}, {"name": "a826bfbf60ece05920fbfcf5b2861e8f", "fusion_lat": 0.0, "type": "electric_scooter", "lat": 38.94278466666667, "is_reserved": 0, "is_disabled": 0, "fusion_lon": 0.0, "bike_id": "a826bfbf60ece05920fbfcf5b2861e8f", "lon": -77.02501433333333, "rental_uris": {"ios": "https://dc.lft.to/lastmile_qr_scan", "android": "https://dc.lft.to/lastmile_qr_scan"}}, {"name": "2c1e53233b3ef03ad999b4d47a8a1b9e", "fusion_lat": 0.0, "type": "electric_scooter", "lat": 38.866571, "is_reserved": 0, "is_disabled": 0, "fusion_lon": 0.0, "bike_id": "2c1e53233b3ef03ad999b4d47a8a1b9e", "lon": -76.98885016666667, "rental_uris": {"ios": "https://dc.lft.to/lastmile_qr_scan", "android": "https://dc.lft.to/lastmile_qr_scan"}}, {"name": "ec3a74cc14f358af7736541781c67343", "fusion_lat": 0.0, "type": "electric_scooter", "lat": 38.9003895, "is_reserved": 0, "is_disabled": 0, "fusion_lon": 0.0, "bike_id": "ec3a74cc14f358af7736541781c67343", "lon": -77.026166, "rental_uris": {"ios": "https://dc.lft.to/lastmile_qr_scan", "android": "https://dc.lft.to/lastmile_qr_scan"}}, {"name": "3669597e249eeec730e9991dce335580", "fusion_lat": 0.0, "type": "electric_scooter", "lat": 38.92624266666667, "is_reserved": 0, "is_disabled": 0, "fusion_lon": 0.0, "bike_id": "3669597e249eeec730e9991dce335580", "lon": -77.03710933333333, "rental_uris": {"ios": "https://dc.lft.to/lastmile_qr_scan", "android": "https://dc.lft.to/lastmile_qr_scan"}}, {"name": "13c1212adde12d40742132512d4e10ea", "fusion_lat": 0.0, "type": "electric_scooter", "lat": 38.90641216666667, "is_reserved": 0, "is_disabled": 0, "fusion_lon": 0.0, "bike_id": "13c1212adde12d40742132512d4e10ea", "lon": -77.0385855, "rental_uris": {"ios": "https://dc.lft.to/lastmile_qr_scan", "android": "https://dc.lft.to/lastmile_qr_scan"}}, {"name": "0417479fcd17a6e90c623b1ec7892b1a", "fusion_lat": 0.0, "type": "electric_scooter", "lat": 38.92365916666667, "is_reserved": 0, "is_disabled": 0, "fusion_lon": 0.0, "bike_id": "0417479fcd17a6e90c623b1ec7892b1a", "lon": -77.05027133333333, "rental_uris": {"ios": "https://dc.lft.to/lastmile_qr_scan", "android": "https://dc.lft.to/lastmile_qr_scan"}}, {"name": "a9557c00cece96d7b267e21d4d4a75ca", "fusion_lat": 0.0, "type": "electric_scooter", "lat": 38.921668, "is_reserved": 0, "is_disabled": 0, "fusion_lon": 0.0, "bike_id": "a9557c00cece96d7b267e21d4d4a75ca", "lon": -76.994019, "rental_uris": {"ios": "https://dc.lft.to/lastmile_qr_scan", "android": "https://dc.lft.to/lastmile_qr_scan"}}, {"name": "ae1f82e0cebe9de664045d3563d19ea6", "fusion_lat": 0.0, "type": "electric_scooter", "lat": 38.88535433333333, "is_reserved": 0, "is_disabled": 0, "fusion_lon": 0.0, "bike_id": "ae1f82e0cebe9de664045d3563d19ea6", "lon": -77.00581216666667, "rental_uris": {"ios": "https://dc.lft.to/lastmile_qr_scan", "android": "https://dc.lft.to/lastmile_qr_scan"}}, {"name": "918b8a28c04b8bdc62f22c3366818d2a", "fusion_lat": 0.0, "type": "electric_scooter", "lat": 38.910985833333335, "is_reserved": 0, "is_disabled": 0, "fusion_lon": 0.0, "bike_id": "918b8a28c04b8bdc62f22c3366818d2a", "lon": -77.0105905, "rental_uris": {"ios": "https://dc.lft.to/lastmile_qr_scan", "android": "https://dc.lft.to/lastmile_qr_scan"}}, {"name": "cb1be2b0a119107035f175387a337a04", "fusion_lat": 0.0, "type": "electric_scooter", "lat": 38.89560433333333, "is_reserved": 0, "is_disabled": 0, "fusion_lon": 0.0, "bike_id": "cb1be2b0a119107035f175387a337a04", "lon": -77.01113283333333, "rental_uris": {"ios": "https://dc.lft.to/lastmile_qr_scan", "android": "https://dc.lft.to/lastmile_qr_scan"}}, {"name": "ca1489178e58d56d77d83204e25a9a08", "fusion_lat": 0.0, "type": "electric_scooter", "lat": 38.89240733333333, "is_reserved": 0, "is_disabled": 0, "fusion_lon": 0.0, "bike_id": "ca1489178e58d56d77d83204e25a9a08", "lon": -77.03186216666667, "rental_uris": {"ios": "https://dc.lft.to/lastmile_qr_scan", "android": "https://dc.lft.to/lastmile_qr_scan"}}, {"name": "cad25c2a442e2b4c89e84e9a256caaec", "fusion_lat": 0.0, "type": "electric_scooter", "lat": 38.90079383333333, "is_reserved": 0, "is_disabled": 0, "fusion_lon": 0.0, "bike_id": "cad25c2a442e2b4c89e84e9a256caaec", "lon": -77.048964, "rental_uris": {"ios": "https://dc.lft.to/lastmile_qr_scan", "android": "https://dc.lft.to/lastmile_qr_scan"}}, {"name": "0a85c8b4fa5075b00be790f26d7f412e", "fusion_lat": 0.0, "type": "electric_scooter", "lat": 38.923168, "is_reserved": 0, "is_disabled": 0, "fusion_lon": 0.0, "bike_id": "0a85c8b4fa5075b00be790f26d7f412e", "lon": -77.03956283333333, "rental_uris": {"ios": "https://dc.lft.to/lastmile_qr_scan", "android": "https://dc.lft.to/lastmile_qr_scan"}}, {"name": "c59a9dab81bb7d21cae9c416bd43d8eb", "fusion_lat": 0.0, "type": "electric_scooter", "lat": 38.9508535, "is_reserved": 0, "is_disabled": 0, "fusion_lon": 0.0, "bike_id": "c59a9dab81bb7d21cae9c416bd43d8eb", "lon": -77.02842383333333, "rental_uris": {"ios": "https://dc.lft.to/lastmile_qr_scan", "android": "https://dc.lft.to/lastmile_qr_scan"}}, {"name": "d782e2538b7a6841e96a89f7afca095b", "fusion_lat": 0.0, "type": "electric_scooter", "lat": 38.907224666666664, "is_reserved": 0, "is_disabled": 0, "fusion_lon": 0.0, "bike_id": "d782e2538b7a6841e96a89f7afca095b", "lon": -77.04797783333333, "rental_uris": {"ios": "https://dc.lft.to/lastmile_qr_scan", "android": "https://dc.lft.to/lastmile_qr_scan"}}, {"name": "8b44a28a71babf07d02cdb64fdeac5dc", "fusion_lat": 0.0, "type": "electric_scooter", "lat": 38.90253883333333, "is_reserved": 0, "is_disabled": 0, "fusion_lon": 0.0, "bike_id": "8b44a28a71babf07d02cdb64fdeac5dc", "lon": -77.01527166666666, "rental_uris": {"ios": "https://dc.lft.to/lastmile_qr_scan", "android": "https://dc.lft.to/lastmile_qr_scan"}}, {"name": "4b9c12e4384c6cdce4a62b4886e59625", "fusion_lat": 0.0, "type": "electric_scooter", "lat": 38.90520733333334, "is_reserved": 0, "is_disabled": 0, "fusion_lon": 0.0, "bike_id": "4b9c12e4384c6cdce4a62b4886e59625", "lon": -77.069378, "rental_uris": {"ios": "https://dc.lft.to/lastmile_qr_scan", "android": "https://dc.lft.to/lastmile_qr_scan"}}, {"name": "c0074d04557daa04c22ce01943c4f957", "fusion_lat": 0.0, "type": "electric_scooter", "lat": 38.92240366666667, "is_reserved": 0, "is_disabled": 0, "fusion_lon": 0.0, "bike_id": "c0074d04557daa04c22ce01943c4f957", "lon": -77.03089183333333, "rental_uris": {"ios": "https://dc.lft.to/lastmile_qr_scan", "android": "https://dc.lft.to/lastmile_qr_scan"}}, {"name": "ca9150b2800fd72a0a8c987f9a31fe11", "fusion_lat": 0.0, "type": "electric_scooter", "lat": 38.905525, "is_reserved": 0, "is_disabled": 0, "fusion_lon": 0.0, "bike_id": "ca9150b2800fd72a0a8c987f9a31fe11", "lon": -77.03792766666666, "rental_uris": {"ios": "https://dc.lft.to/lastmile_qr_scan", "android": "https://dc.lft.to/lastmile_qr_scan"}}, {"name": "d061804f6882c6cf8529a4286285fa88", "fusion_lat": 0.0, "type": "electric_scooter", "lat": 38.91682816666667, "is_reserved": 0, "is_disabled": 0, "fusion_lon": 0.0, "bike_id": "d061804f6882c6cf8529a4286285fa88", "lon": -77.02974116666667, "rental_uris": {"ios": "https://dc.lft.to/lastmile_qr_scan", "android": "https://dc.lft.to/lastmile_qr_scan"}}, {"name": "408bfb8d1542783b657aa21599694d78", "fusion_lat": 0.0, "type": "electric_scooter", "lat": 38.89985866666667, "is_reserved": 0, "is_disabled": 0, "fusion_lon": 0.0, "bike_id": "408bfb8d1542783b657aa21599694d78", "lon": -77.02709883333333, "rental_uris": {"ios": "https://dc.lft.to/lastmile_qr_scan", "android": "https://dc.lft.to/lastmile_qr_scan"}}, {"name": "f33e66fcabdc696a531b2ae08d9960ea", "fusion_lat": 0.0, "type": "electric_scooter", "lat": 38.90538816666667, "is_reserved": 0, "is_disabled": 0, "fusion_lon": 0.0, "bike_id": "f33e66fcabdc696a531b2ae08d9960ea", "lon": -77.06532866666667, "rental_uris": {"ios": "https://dc.lft.to/lastmile_qr_scan", "android": "https://dc.lft.to/lastmile_qr_scan"}}, {"name": "0b622f2cc2f679cc67c1c67c0bc69582", "fusion_lat": 0.0, "type": "electric_scooter", "lat": 38.9067605, "is_reserved": 0, "is_disabled": 0, "fusion_lon": 0.0, "bike_id": "0b622f2cc2f679cc67c1c67c0bc69582", "lon": -77.03803783333333, "rental_uris": {"ios": "https://dc.lft.to/lastmile_qr_scan", "android": "https://dc.lft.to/lastmile_qr_scan"}}, {"name": "4a577ca7319530ad9e44fd13136d6728", "fusion_lat": 0.0, "type": "electric_scooter", "lat": 38.90273666666667, "is_reserved": 0, "is_disabled": 0, "fusion_lon": 0.0, "bike_id": "4a577ca7319530ad9e44fd13136d6728", "lon": -77.0531465, "rental_uris": {"ios": "https://dc.lft.to/lastmile_qr_scan", "android": "https://dc.lft.to/lastmile_qr_scan"}}, {"name": "a9f962f0ed5307b1f0496b972598f60c", "fusion_lat": 0.0, "type": "electric_scooter", "lat": 38.926413833333335, "is_reserved": 0, "is_disabled": 0, "fusion_lon": 0.0, "bike_id": "a9f962f0ed5307b1f0496b972598f60c", "lon": -77.0379525, "rental_uris": {"ios": "https://dc.lft.to/lastmile_qr_scan", "android": "https://dc.lft.to/lastmile_qr_scan"}}, {"name": "6c86ef49aa7599628f2a4392254df0e5", "fusion_lat": 0.0, "type": "electric_scooter", "lat": 38.905223, "is_reserved": 0, "is_disabled": 0, "fusion_lon": 0.0, "bike_id": "6c86ef49aa7599628f2a4392254df0e5", "lon": -77.0344495, "rental_uris": {"ios": "https://dc.lft.to/lastmile_qr_scan", "android": "https://dc.lft.to/lastmile_qr_scan"}}, {"name": "20a336e7382ef592a8ca909cf4bc6380", "fusion_lat": 0.0, "type": "electric_bike", "lat": 38.97091783333333, "is_reserved": 0, "is_disabled": 0, "fusion_lon": 0.0, "bike_id": "20a336e7382ef592a8ca909cf4bc6380", "lon": -77.06963116666667, "rental_uris": {"ios": "https://dc.lft.to/lastmile_qr_scan", "android": "https://dc.lft.to/lastmile_qr_scan"}}, {"name": "d74ecb2af3d81f7d609ab5902251587f", "fusion_lat": 0.0, "type": "electric_scooter", "lat": 38.89018133333333, "is_reserved": 0, "is_disabled": 0, "fusion_lon": 0.0, "bike_id": "d74ecb2af3d81f7d609ab5902251587f", "lon": -76.93733183333333, "rental_uris": {"ios": "https://dc.lft.to/lastmile_qr_scan", "android": "https://dc.lft.to/lastmile_qr_scan"}}, {"name": "5c9b02b6e24096a9c9efc0dde207bbe1", "fusion_lat": 0.0, "type": "electric_scooter", "lat": 38.9025935, "is_reserved": 0, "is_disabled": 0, "fusion_lon": 0.0, "bike_id": "5c9b02b6e24096a9c9efc0dde207bbe1", "lon": -77.04608083333333, "rental_uris": {"ios": "https://dc.lft.to/lastmile_qr_scan", "android": "https://dc.lft.to/lastmile_qr_scan"}}, {"name": "0f4386e4cbc5363f550e42be1a14e81e", "fusion_lat": 0.0, "type": "electric_scooter", "lat": 38.93535283333333, "is_reserved": 0, "is_disabled": 0, "fusion_lon": 0.0, "bike_id": "0f4386e4cbc5363f550e42be1a14e81e", "lon": -77.03407783333333, "rental_uris": {"ios": "https://dc.lft.to/lastmile_qr_scan", "android": "https://dc.lft.to/lastmile_qr_scan"}}, {"name": "49cfd45d47e182589278c1f2b7568fb1", "fusion_lat": 0.0, "type": "electric_scooter", "lat": 38.90026, "is_reserved": 0, "is_disabled": 0, "fusion_lon": 0.0, "bike_id": "49cfd45d47e182589278c1f2b7568fb1", "lon": -77.01113566666666, "rental_uris": {"ios": "https://dc.lft.to/lastmile_qr_scan", "android": "https://dc.lft.to/lastmile_qr_scan"}}, {"name": "8504c0ca12ff74b3e998573683a3cb9d", "fusion_lat": 0.0, "type": "electric_scooter", "lat": 38.87658616666667, "is_reserved": 0, "is_disabled": 0, "fusion_lon": 0.0, "bike_id": "8504c0ca12ff74b3e998573683a3cb9d", "lon": -77.0045335, "rental_uris": {"ios": "https://dc.lft.to/lastmile_qr_scan", "android": "https://dc.lft.to/lastmile_qr_scan"}}, {"name": "6d550073d7d69e2c839102ed4ff04d21", "fusion_lat": 0.0, "type": "electric_scooter", "lat": 38.8990665, "is_reserved": 0, "is_disabled": 0, "fusion_lon": 0.0, "bike_id": "6d550073d7d69e2c839102ed4ff04d21", "lon": -77.03294916666667, "rental_uris": {"ios": "https://dc.lft.to/lastmile_qr_scan", "android": "https://dc.lft.to/lastmile_qr_scan"}}, {"name": "68c8506b50ed92b5a4c90129659154a7", "fusion_lat": 0.0, "type": "electric_scooter", "lat": 38.89506733333333, "is_reserved": 0, "is_disabled": 0, "fusion_lon": 0.0, "bike_id": "68c8506b50ed92b5a4c90129659154a7", "lon": -77.01122016666666, "rental_uris": {"ios": "https://dc.lft.to/lastmile_qr_scan", "android": "https://dc.lft.to/lastmile_qr_scan"}}, {"name": "8e1d196bda3a38015a8c2f4fb12c4fb6", "fusion_lat": 0.0, "type": "electric_scooter", "lat": 38.910032, "is_reserved": 0, "is_disabled": 0, "fusion_lon": 0.0, "bike_id": "8e1d196bda3a38015a8c2f4fb12c4fb6", "lon": -77.04007266666666, "rental_uris": {"ios": "https://dc.lft.to/lastmile_qr_scan", "android": "https://dc.lft.to/lastmile_qr_scan"}}, {"name": "372940e1eaf8f2ecb7caa62f711f959d", "fusion_lat": 0.0, "type": "electric_scooter", "lat": 38.905797666666665, "is_reserved": 0, "is_disabled": 0, "fusion_lon": 0.0, "bike_id": "372940e1eaf8f2ecb7caa62f711f959d", "lon": -77.002685, "rental_uris": {"ios": "https://dc.lft.to/lastmile_qr_scan", "android": "https://dc.lft.to/lastmile_qr_scan"}}, {"name": "215f14d7f342f3422f0ed347dad57298", "fusion_lat": 0.0, "type": "electric_scooter", "lat": 38.9132895, "is_reserved": 0, "is_disabled": 0, "fusion_lon": 0.0, "bike_id": "215f14d7f342f3422f0ed347dad57298", "lon": -77.04868466666667, "rental_uris": {"ios": "https://dc.lft.to/lastmile_qr_scan", "android": "https://dc.lft.to/lastmile_qr_scan"}}, {"name": "06e4ecbd0babf8e3965412407918ee48", "fusion_lat": 0.0, "type": "electric_scooter", "lat": 38.904751833333336, "is_reserved": 0, "is_disabled": 0, "fusion_lon": 0.0, "bike_id": "06e4ecbd0babf8e3965412407918ee48", "lon": -77.04183283333333, "rental_uris": {"ios": "https://dc.lft.to/lastmile_qr_scan", "android": "https://dc.lft.to/lastmile_qr_scan"}}, {"name": "ece09b7af52b23d015174c629fc161f3", "fusion_lat": 0.0, "type": "electric_scooter", "lat": 38.9140595, "is_reserved": 0, "is_disabled": 0, "fusion_lon": 0.0, "bike_id": "ece09b7af52b23d015174c629fc161f3", "lon": -77.0456655, "rental_uris": {"ios": "https://dc.lft.to/lastmile_qr_scan", "android": "https://dc.lft.to/lastmile_qr_scan"}}, {"name": "b2065e1b1e5c42916cbd0ee63032a38a", "fusion_lat": 0.0, "type": "electric_scooter", "lat": 38.9024665, "is_reserved": 0, "is_disabled": 0, "fusion_lon": 0.0, "bike_id": "b2065e1b1e5c42916cbd0ee63032a38a", "lon": -77.00250933333334, "rental_uris": {"ios": "https://dc.lft.to/lastmile_qr_scan", "android": "https://dc.lft.to/lastmile_qr_scan"}}, {"name": "f46c37e40ccd70d5fadec1e57befb9e6", "fusion_lat": 0.0, "type": "electric_scooter", "lat": 38.93333716666667, "is_reserved": 0, "is_disabled": 0, "fusion_lon": 0.0, "bike_id": "f46c37e40ccd70d5fadec1e57befb9e6", "lon": -77.0326345, "rental_uris": {"ios": "https://dc.lft.to/lastmile_qr_scan", "android": "https://dc.lft.to/lastmile_qr_scan"}}, {"name": "c92fcaad291dc72a25abed3a09c0e8ef", "fusion_lat": 0.0, "type": "electric_scooter", "lat": 38.93579716666667, "is_reserved": 0, "is_disabled": 0, "fusion_lon": 0.0, "bike_id": "c92fcaad291dc72a25abed3a09c0e8ef", "lon": -76.99103166666667, "rental_uris": {"ios": "https://dc.lft.to/lastmile_qr_scan", "android": "https://dc.lft.to/lastmile_qr_scan"}}, {"name": "ebd699054e9dc51922e70e0a16d3a681", "fusion_lat": 0.0, "type": "electric_scooter", "lat": 38.89973083333334, "is_reserved": 0, "is_disabled": 0, "fusion_lon": 0.0, "bike_id": "ebd699054e9dc51922e70e0a16d3a681", "lon": -77.03390666666667, "rental_uris": {"ios": "https://dc.lft.to/lastmile_qr_scan", "android": "https://dc.lft.to/lastmile_qr_scan"}}, {"name": "e7ee3f4c5fd119d5e3f0334d1feb1bff", "fusion_lat": 0.0, "type": "electric_scooter", "lat": 38.922376666666665, "is_reserved": 0, "is_disabled": 0, "fusion_lon": 0.0, "bike_id": "e7ee3f4c5fd119d5e3f0334d1feb1bff", "lon": -77.03346566666667, "rental_uris": {"ios": "https://dc.lft.to/lastmile_qr_scan", "android": "https://dc.lft.to/lastmile_qr_scan"}}, {"name": "a5bfcf56cba3a6f31e69b6a98faffd6e", "fusion_lat": 0.0, "type": "electric_bike", "lat": 38.83811933333333, "is_reserved": 0, "is_disabled": 0, "fusion_lon": 0.0, "bike_id": "a5bfcf56cba3a6f31e69b6a98faffd6e", "lon": -77.095192, "rental_uris": {"ios": "https://dc.lft.to/lastmile_qr_scan", "android": "https://dc.lft.to/lastmile_qr_scan"}}, {"name": "525add4020c36bfe975695eeb0bf88e3", "fusion_lat": 0.0, "type": "electric_scooter", "lat": 38.895397333333335, "is_reserved": 0, "is_disabled": 0, "fusion_lon": 0.0, "bike_id": "525add4020c36bfe975695eeb0bf88e3", "lon": -77.04643316666667, "rental_uris": {"ios": "https://dc.lft.to/lastmile_qr_scan", "android": "https://dc.lft.to/lastmile_qr_scan"}}, {"name": "b5b2399b3191d6bbdd728e1a22c25bad", "fusion_lat": 0.0, "type": "electric_scooter", "lat": 38.92529016666667, "is_reserved": 0, "is_disabled": 0, "fusion_lon": 0.0, "bike_id": "b5b2399b3191d6bbdd728e1a22c25bad", "lon": -77.05545883333333, "rental_uris": {"ios": "https://dc.lft.to/lastmile_qr_scan", "android": "https://dc.lft.to/lastmile_qr_scan"}}, {"name": "3493c806284b614af1e2e9132ae3f7bc", "fusion_lat": 0.0, "type": "electric_scooter", "lat": 38.90153183333334, "is_reserved": 0, "is_disabled": 0, "fusion_lon": 0.0, "bike_id": "3493c806284b614af1e2e9132ae3f7bc", "lon": -76.93061116666667, "rental_uris": {"ios": "https://dc.lft.to/lastmile_qr_scan", "android": "https://dc.lft.to/lastmile_qr_scan"}}, {"name": "8ef0ed3a7e75b80d6abef7f7396eabea", "fusion_lat": 0.0, "type": "electric_scooter", "lat": 38.89403716666666, "is_reserved": 0, "is_disabled": 0, "fusion_lon": 0.0, "bike_id": "8ef0ed3a7e75b80d6abef7f7396eabea", "lon": -76.94798633333333, "rental_uris": {"ios": "https://dc.lft.to/lastmile_qr_scan", "android": "https://dc.lft.to/lastmile_qr_scan"}}, {"name": "79038ce200eda5053e65e6f338777ae9", "fusion_lat": 0.0, "type": "electric_scooter", "lat": 38.9236115, "is_reserved": 0, "is_disabled": 0, "fusion_lon": 0.0, "bike_id": "79038ce200eda5053e65e6f338777ae9", "lon": -77.05081616666666, "rental_uris": {"ios": "https://dc.lft.to/lastmile_qr_scan", "android": "https://dc.lft.to/lastmile_qr_scan"}}, {"name": "143cf4e4b752cc7a8b22eb9bfcc94538", "fusion_lat": 0.0, "type": "electric_scooter", "lat": 38.8571125, "is_reserved": 0, "is_disabled": 0, "fusion_lon": 0.0, "bike_id": "143cf4e4b752cc7a8b22eb9bfcc94538", "lon": -76.98133716666666, "rental_uris": {"ios": "https://dc.lft.to/lastmile_qr_scan", "android": "https://dc.lft.to/lastmile_qr_scan"}}, {"name": "af3377bda160ff39858715d5a17db0e6", "fusion_lat": 0.0, "type": "electric_scooter", "lat": 38.88733666666667, "is_reserved": 0, "is_disabled": 0, "fusion_lon": 0.0, "bike_id": "af3377bda160ff39858715d5a17db0e6", "lon": -77.021316, "rental_uris": {"ios": "https://dc.lft.to/lastmile_qr_scan", "android": "https://dc.lft.to/lastmile_qr_scan"}}, {"name": "4d0f3c7d72623424c16ccb4e4a8c8715", "fusion_lat": 0.0, "type": "electric_scooter", "lat": 38.92233266666667, "is_reserved": 0, "is_disabled": 0, "fusion_lon": 0.0, "bike_id": "4d0f3c7d72623424c16ccb4e4a8c8715", "lon": -77.0424505, "rental_uris": {"ios": "https://dc.lft.to/lastmile_qr_scan", "android": "https://dc.lft.to/lastmile_qr_scan"}}, {"name": "98c668e75076541a89a84494acde47a8", "fusion_lat": 0.0, "type": "electric_scooter", "lat": 38.92284133333333, "is_reserved": 0, "is_disabled": 0, "fusion_lon": 0.0, "bike_id": "98c668e75076541a89a84494acde47a8", "lon": -77.042404, "rental_uris": {"ios": "https://dc.lft.to/lastmile_qr_scan", "android": "https://dc.lft.to/lastmile_qr_scan"}}, {"name": "615ec436f641dedd991eb171475f6711", "fusion_lat": 0.0, "type": "electric_scooter", "lat": 38.8843385, "is_reserved": 0, "is_disabled": 0, "fusion_lon": 0.0, "bike_id": "615ec436f641dedd991eb171475f6711", "lon": -76.95751883333334, "rental_uris": {"ios": "https://dc.lft.to/lastmile_qr_scan", "android": "https://dc.lft.to/lastmile_qr_scan"}}, {"name": "e4bd653b065aeb1dca11634d207a4257", "fusion_lat": 0.0, "type": "electric_scooter", "lat": 38.89738783333333, "is_reserved": 0, "is_disabled": 0, "fusion_lon": 0.0, "bike_id": "e4bd653b065aeb1dca11634d207a4257", "lon": -77.02660566666667, "rental_uris": {"ios": "https://dc.lft.to/lastmile_qr_scan", "android": "https://dc.lft.to/lastmile_qr_scan"}}, {"name": "c27b1f538cbd99669d1202fb5ba5158a", "fusion_lat": 0.0, "type": "electric_scooter", "lat": 38.91514766666667, "is_reserved": 0, "is_disabled": 0, "fusion_lon": 0.0, "bike_id": "c27b1f538cbd99669d1202fb5ba5158a", "lon": -77.04490166666666, "rental_uris": {"ios": "https://dc.lft.to/lastmile_qr_scan", "android": "https://dc.lft.to/lastmile_qr_scan"}}, {"name": "0ddb4a6f3140cf6139d1a5e77bbec75d", "fusion_lat": 0.0, "type": "electric_scooter", "lat": 38.92240733333333, "is_reserved": 0, "is_disabled": 0, "fusion_lon": 0.0, "bike_id": "0ddb4a6f3140cf6139d1a5e77bbec75d", "lon": -77.03659683333333, "rental_uris": {"ios": "https://dc.lft.to/lastmile_qr_scan", "android": "https://dc.lft.to/lastmile_qr_scan"}}, {"name": "0464efe73ea74fac7ba1f79a11deb1f5", "fusion_lat": 0.0, "type": "electric_scooter", "lat": 38.93978583333333, "is_reserved": 0, "is_disabled": 0, "fusion_lon": 0.0, "bike_id": "0464efe73ea74fac7ba1f79a11deb1f5", "lon": -77.0289095, "rental_uris": {"ios": "https://dc.lft.to/lastmile_qr_scan", "android": "https://dc.lft.to/lastmile_qr_scan"}}, {"name": "25928b0ec51635eecef926154cf10d9f", "fusion_lat": 0.0, "type": "electric_bike", "lat": 38.856903833333334, "is_reserved": 0, "is_disabled": 0, "fusion_lon": 0.0, "bike_id": "25928b0ec51635eecef926154cf10d9f", "lon": -77.085349, "rental_uris": {"ios": "https://dc.lft.to/lastmile_qr_scan", "android": "https://dc.lft.to/lastmile_qr_scan"}}, {"name": "4576d0ba0b6150197bd8fc5efc16676f", "fusion_lat": 0.0, "type": "electric_bike", "lat": 38.999413, "is_reserved": 0, "is_disabled": 0, "fusion_lon": 0.0, "bike_id": "4576d0ba0b6150197bd8fc5efc16676f", "lon": -77.0176535, "rental_uris": {"ios": "https://dc.lft.to/lastmile_qr_scan", "android": "https://dc.lft.to/lastmile_qr_scan"}}, {"name": "65de6032b8462388019d9c1469f49656", "fusion_lat": 0.0, "type": "electric_scooter", "lat": 38.92051516666667, "is_reserved": 0, "is_disabled": 0, "fusion_lon": 0.0, "bike_id": "65de6032b8462388019d9c1469f49656", "lon": -77.03467166666667, "rental_uris": {"ios": "https://dc.lft.to/lastmile_qr_scan", "android": "https://dc.lft.to/lastmile_qr_scan"}}, {"name": "8a8e6632ab0679af4b2b0db203abc162", "fusion_lat": 0.0, "type": "electric_scooter", "lat": 38.90394883333333, "is_reserved": 0, "is_disabled": 0, "fusion_lon": 0.0, "bike_id": "8a8e6632ab0679af4b2b0db203abc162", "lon": -77.03459966666667, "rental_uris": {"ios": "https://dc.lft.to/lastmile_qr_scan", "android": "https://dc.lft.to/lastmile_qr_scan"}}, {"name": "417005d88290e94312a8ab61d48888c0", "fusion_lat": 0.0, "type": "electric_scooter", "lat": 38.86702866666667, "is_reserved": 0, "is_disabled": 0, "fusion_lon": 0.0, "bike_id": "417005d88290e94312a8ab61d48888c0", "lon": -76.9871135, "rental_uris": {"ios": "https://dc.lft.to/lastmile_qr_scan", "android": "https://dc.lft.to/lastmile_qr_scan"}}, {"name": "8b7128388fbe1ea36e710b8a91b2e33a", "fusion_lat": 0.0, "type": "electric_scooter", "lat": 38.921135666666665, "is_reserved": 0, "is_disabled": 0, "fusion_lon": 0.0, "bike_id": "8b7128388fbe1ea36e710b8a91b2e33a", "lon": -77.01759666666666, "rental_uris": {"ios": "https://dc.lft.to/lastmile_qr_scan", "android": "https://dc.lft.to/lastmile_qr_scan"}}, {"name": "f4bb9b55b0fba476d1a9557e07d7c6c8", "fusion_lat": 0.0, "type": "electric_scooter", "lat": 38.9307485, "is_reserved": 0, "is_disabled": 0, "fusion_lon": 0.0, "bike_id": "f4bb9b55b0fba476d1a9557e07d7c6c8", "lon": -77.032942, "rental_uris": {"ios": "https://dc.lft.to/lastmile_qr_scan", "android": "https://dc.lft.to/lastmile_qr_scan"}}, {"name": "c9b9264d2ba81c89d4af5fcc3cd159e0", "fusion_lat": 0.0, "type": "electric_scooter", "lat": 38.900585166666666, "is_reserved": 0, "is_disabled": 0, "fusion_lon": 0.0, "bike_id": "c9b9264d2ba81c89d4af5fcc3cd159e0", "lon": -77.015255, "rental_uris": {"ios": "https://dc.lft.to/lastmile_qr_scan", "android": "https://dc.lft.to/lastmile_qr_scan"}}, {"name": "590962f03914316c44a72f22b60319b1", "fusion_lat": 0.0, "type": "electric_bike", "lat": 38.96625316666667, "is_reserved": 0, "is_disabled": 0, "fusion_lon": 0.0, "bike_id": "590962f03914316c44a72f22b60319b1", "lon": -76.97667166666666, "rental_uris": {"ios": "https://dc.lft.to/lastmile_qr_scan", "android": "https://dc.lft.to/lastmile_qr_scan"}}, {"name": "32fe6b8dca269a7244c46b8adb453a04", "fusion_lat": 0.0, "type": "electric_scooter", "lat": 38.883548, "is_reserved": 0, "is_disabled": 0, "fusion_lon": 0.0, "bike_id": "32fe6b8dca269a7244c46b8adb453a04", "lon": -76.98564366666666, "rental_uris": {"ios": "https://dc.lft.to/lastmile_qr_scan", "android": "https://dc.lft.to/lastmile_qr_scan"}},