{"data": {"bikes": [{"lon": -77.01513316666667, "bike_id": "3a9b9755b3ffb03ce8f710dc65430b95", "lat": 38.885012, "fusion_lon": 0.0, "fusion_lat": 0.0, "type": "electric_scooter", "name": "3a9b9755b3ffb03ce8f710dc65430b95", "is_disabled": 0, "rental_uris": {"ios": "https://dc.lft.to/lastmile_qr_scan", "android": "https://dc.lft.to/lastmile_qr_scan"}, "is_reserved": 0}, {"lon": -77.04304316666666, "bike_id": "8042abdbe9a741b48a07e394881ff6b7", "lat": 38.908811666666665, "fusion_lon": 0.0, "fusion_lat": 0.0, "type": "electric_scooter", "name": "8042abdbe9a741b48a07e394881ff6b7", "is_disabled": 0, "rental_uris": {"ios": "https://dc.lft.to/lastmile_qr_scan", "android": "https://dc.lft.to/lastmile_qr_scan"}, "is_reserved": 0}, {"lon": -77.0451475, "bike_id": "0dd7ca2ef4b232a7903d99f75f3ca00f", "lat": 38.919564, "fusion_lon": 0.0, "fusion_lat": 0.0, "type": "electric_scooter", "name": "0dd7ca2ef4b232a7903d99f75f3ca00f", "is_disabled": 0, "rental_uris": {"ios": "https://dc.lft.to/lastmile_qr_scan", "android": "https://dc.lft.to/lastmile_qr_scan"}, "is_reserved": 0}, {"lon": -77.00009133333333, "bike_id": "114e7d6d6a1c9584e51b8cc6ea2254a5", "lat": 38.89742833333333, "fusion_lon": 0.0, "fusion_lat": 0.0, "type": "electric_scooter", "name": "114e7d6d6a1c9584e51b8cc6ea2254a5", "is_disabled": 0, "rental_uris": {"ios": "https://dc.lft.to/lastmile_qr_scan", "android": "https://dc.lft.to/lastmile_qr_scan"}, "is_reserved": 0}, {"lon": -77.0165155, "bike_id": "68383239cc770320e33e9159ec6b698c", "lat": 38.881226, "fusion_lon": 0.0, "fusion_lat": 0.0, "type": "electric_bike", "name": "68383239cc770320e33e9159ec6b698c", "is_disabled": 0, "rental_uris": {"ios": "https://dc.lft.to/lastmile_qr_scan", "android": "https://dc.lft.to/lastmile_qr_scan"}, "is_reserved": 0}, {"lon": -76.96490666666666, "bike_id": "29062ed5f6fd6c35da9fb27160dbbe9a", "lat": 38.876455, "fusion_lon": 0.0, "fusion_lat": 0.0, "type": "electric_scooter", "name": "29062ed5f6fd6c35da9fb27160dbbe9a", "is_disabled": 0, "rental_uris": {"ios": "https://dc.lft.to/lastmile_qr_scan", "android": "https://dc.lft.to/lastmile_qr_scan"}, "is_reserved": 0}, {"lon": -76.997603, "bike_id": "e36bb8eda12e485a134a22e5464a88a6", "lat": 38.887692333333334, "fusion_lon": 0.0, "fusion_lat": 0.0, "type": "electric_scooter", "name": "e36bb8eda12e485a134a22e5464a88a6", "is_disabled": 0, "rental_uris": {"ios": "https://dc.lft.to/lastmile_qr_scan", "android": "https://dc.lft.to/lastmile_qr_scan"}, "is_reserved": 0}, {"lon": -77.03416666666666, "bike_id": "c0196f598358e6654a74ac4bc539d520", "lat": 38.927404833333334, "fusion_lon": 0.0, "fusion_lat": 0.0, "type": "electric_scooter", "name": "c0196f598358e6654a74ac4bc539d520", "is_disabled": 0, "rental_uris": {"ios": "https://dc.lft.to/lastmile_qr_scan", "android": "https://dc.lft.to/lastmile_qr_scan"}, "is_reserved": 0}, {"lon": -77.05751533333333, "bike_id": "7d8474b9591e11572b7c9adbd02a4b04", "lat": 38.924921, "fusion_lon": 0.0, "fusion_lat": 0.0, "type": "electric_bike", "name": "7d8474b9591e11572b7c9adbd02a4b04", "is_disabled": 0, "rental_uris": {"ios": "https://dc.lft.to/lastmile_qr_scan", "android": "https://dc.lft.to/lastmile_qr_scan"}, "is_reserved": 0}, {"lon": -77.03183566666667, "bike_id": "7619f3e08ae48851e980131c869d7fff", "lat": 38.914202, "fusion_lon": 0.0, "fusion_lat": 0.0, "type": "electric_scooter", "name": "7619f3e08ae48851e980131c869d7fff", "is_disabled": 0, "rental_uris": {"ios": "https://dc.lft.to/lastmile_qr_scan", "android": "https://dc.lft.to/lastmile_qr_scan"}, "is_reserved": 0}, {"lon": -76.98540783333334, "bike_id": "4f98755da9207c801243973656a90df5", "lat": 38.925062833333335, "fusion_lon": 0.0, "fusion_lat": 0.0, "type": "electric_bike", "name": "4f98755da9207c801243973656a90df5", "is_disabled": 0, "rental_uris": {"ios": "https://dc.lft.to/lastmile_qr_scan", "android": "https://dc.lft.to/lastmile_qr_scan"}, "is_reserved": 0}, {"lon": -77.02304983333333, "bike_id": "62733586c7a272f8b80d344d76d5e62f", "lat": 38.9273375, "fusion_lon": 0.0, "fusion_lat": 0.0, "type": "electric_scooter", "name": "62733586c7a272f8b80d344d76d5e62f", "is_disabled": 0, "rental_uris": {"ios": "https://dc.lft.to/lastmile_qr_scan", "android": "https://dc.lft.to/lastmile_qr_scan"}, "is_reserved": 0}, {"lon": -77.108017, "bike_id": "6ddd29a7927d21d49f3d10db00cf4ef6", "lat": 38.812021333333334, "fusion_lon": 0.0, "fusion_lat": 0.0, "type": "electric_bike", "name": "6ddd29a7927d21d49f3d10db00cf4ef6", "is_disabled": 0, "rental_uris": {"ios": "https://dc.lft.to/lastmile_qr_scan", "android": "https://dc.lft.to/lastmile_qr_scan"}, "is_reserved": 0}, {"lon": -76.9742315, "bike_id": "15adbe22d9e86a0e0a03da19cab0d670", "lat": 38.932374, "fusion_lon": 0.0, "fusion_lat": 0.0, "type": "electric_bike", "name": "15adbe22d9e86a0e0a03da19cab0d670", "is_disabled": 0, "rental_uris": {"ios": "https://dc.lft.to/lastmile_qr_scan", "android": "https://dc.lft.to/lastmile_qr_scan"}, "is_reserved": 0}, {"lon": -77.026141, "bike_id": "65997c8c529dc819152f5e0b98b78e9c", "lat": 38.905656666666665, "fusion_lon": 0.0, "fusion_lat": 0.0, "type": "electric_scooter", "name": "65997c8c529dc819152f5e0b98b78e9c", "is_disabled": 0, "rental_uris": {"ios": "https://dc.lft.to/lastmile_qr_scan", "android": "https://dc.lft.to/lastmile_qr_scan"}, "is_reserved": 0}, {"lon": -77.03161083333333, "bike_id": "7b871c89867a879808a6ab6bb93caacc", "lat": 38.92016366666667, "fusion_lon": 0.0, "fusion_lat": 0.0, "type": "electric_scooter", "name": "7b871c89867a879808a6ab6bb93caacc", "is_disabled": 0, "rental_uris": {"ios": "https://dc.lft.to/lastmile_qr_scan", "android": "https://dc.lft.to/lastmile_qr_scan"}, "is_reserved": 0}, {"lon": -77.00725533333333, "bike_id": "48e95e0eec838cf0c9b9519b99e7ad6e", "lat": 38.959618666666664, "fusion_lon": 0.0, "fusion_lat": 0.0, "type": "electric_scooter", "name": "48e95e0eec838cf0c9b9519b99e7ad6e", "is_disabled": 0, "rental_uris": {"ios": "https://dc.lft.to/lastmile_qr_scan", "android": "https://dc.lft.to/lastmile_qr_scan"}, "is_reserved": 0}, {"lon": -77.04629283333334, "bike_id": "fbe5062645ef29c62430da3afeade611", "lat": 38.919111, "fusion_lon": 0.0, "fusion_lat": 0.0, "type": "electric_scooter", "name": "fbe5062645ef29c62430da3afeade611", "is_disabled": 0, "rental_uris": {"ios": "https://dc.lft.to/lastmile_qr_scan", "android": "https://dc.lft.to/lastmile_qr_scan"}, "is_reserved": 0}, {"lon": -77.03608383333334, "bike_id": "85d0ae6605cffa6aa2d297fc13760fe1", "lat": 38.91739233333333, "fusion_lon": 0.0, "fusion_lat": 0.0, "type": "electric_scooter", "name": "85d0ae6605cffa6aa2d297fc13760fe1", "is_disabled": 0, "rental_uris": {"ios": "https://dc.lft.to/lastmile_qr_scan", "android": "https://dc.lft.to/lastmile_qr_scan"}, "is_reserved": 0}, {"lon": -77.02931666666667, "bike_id": "81def9f38de2814eb3a8d7eee7b77671", "lat": 38.93464483333333, "fusion_lon": 0.0, "fusion_lat": 0.0, "type": "electric_scooter", "name": "81def9f38de2814eb3a8d7eee7b77671", "is_disabled": 0, "rental_uris": {"ios": "https://dc.lft.to/lastmile_qr_scan", "android": "https://dc.lft.to/lastmile_qr_scan"}, "is_reserved": 0}, {"lon": -76.99011166666666, "bike_id": "37eef697644d57e65f84e6b432235f44", "lat": 38.89414933333333, "fusion_lon": 0.0, "fusion_lat": 0.0, "type": "electric_scooter", "name": "37eef697644d57e65f84e6b432235f44", "is_disabled": 0, "rental_uris": {"ios": "https://dc.lft.to/lastmile_qr_scan", "android": "https://dc.lft.to/lastmile_qr_scan"}, "is_reserved": 0}, {"lon": -77.04166116666667, "bike_id": "e7bdd178279e5628d6c010ec98a0bc13", "lat": 38.903545666666666, "fusion_lon": 0.0, "fusion_lat": 0.0, "type": "electric_scooter", "name": "e7bdd178279e5628d6c010ec98a0bc13", "is_disabled": 0, "rental_uris": {"ios": "https://dc.lft.to/lastmile_qr_scan", "android": "https://dc.lft.to/lastmile_qr_scan"}, "is_reserved": 0}, {"lon": -77.04564733333333, "bike_id": "81f1f7d49a492ee111d6064a38f9c0d7", "lat": 38.92121183333333, "fusion_lon": 0.0, "fusion_lat": 0.0, "type": "electric_scooter", "name": "81f1f7d49a492ee111d6064a38f9c0d7", "is_disabled": 0, "rental_uris": {"ios": "https://dc.lft.to/lastmile_qr_scan", "android": "https://dc.lft.to/lastmile_qr_scan"}, "is_reserved": 0}, {"lon": -77.00728783333334, "bike_id": "f4aac177ad3d50febad807969113668a", "lat": 38.876789333333335, "fusion_lon": 0.0, "fusion_lat": 0.0, "type": "electric_scooter", "name": "f4aac177ad3d50febad807969113668a", "is_disabled": 0, "rental_uris": {"ios": "https://dc.lft.to/lastmile_qr_scan", "android": "https://dc.lft.to/lastmile_qr_scan"}, "is_reserved": 0}, {"lon": -76.99505583333334, "bike_id": "72605438599abb4449e9457298bd6a1d", "lat": 38.8833815, "fusion_lon": 0.0, "fusion_lat": 0.0, "type": "electric_scooter", "name": "72605438599abb4449e9457298bd6a1d", "is_disabled": 0, "rental_uris": {"ios": "https://dc.lft.to/lastmile_qr_scan", "android": "https://dc.lft.to/lastmile_qr_scan"}, "is_reserved": 0}, {"lon": -77.06297416666666, "bike_id": "9bf4ba246f02b3b85593f8db35e0783c", "lat": 38.90393866666667, "fusion_lon": 0.0, "fusion_lat": 0.0, "type": "electric_scooter", "name": "9bf4ba246f02b3b85593f8db35e0783c", "is_disabled": 0, "rental_uris": {"ios": "https://dc.lft.to/lastmile_qr_scan", "android": "https://dc.lft.to/lastmile_qr_scan"}, "is_reserved": 0}, {"lon": -77.02194316666667, "bike_id": "2b1d23989101e0bcba24c3b24f2883e0", "lat": 38.8998905, "fusion_lon": 0.0, "fusion_lat": 0.0, "type": "electric_scooter", "name": "2b1d23989101e0bcba24c3b24f2883e0", "is_disabled": 0, "rental_uris": {"ios": "https://dc.lft.to/lastmile_qr_scan", "android": "https://dc.lft.to/lastmile_qr_scan"}, "is_reserved": 0}, {"lon": -76.9749045, "bike_id": "82fdce06727a5237ae6d2fe97733f81e", "lat": 38.91924483333333, "fusion_lon": 0.0, "fusion_lat": 0.0, "type": "electric_scooter", "name": "82fdce06727a5237ae6d2fe97733f81e", "is_disabled": 0, "rental_uris": {"ios": "https://dc.lft.to/lastmile_qr_scan", "android": "https://dc.lft.to/lastmile_qr_scan"}, "is_reserved": 0}, {"lon": -76.9440205, "bike_id": "8888b034be9f1cfcbd8c454ee7a86dd4", "lat": 38.881417, "fusion_lon": 0.0, "fusion_lat": 0.0, "type": "electric_scooter", "name": "8888b034be9f1cfcbd8c454ee7a86dd4", "is_disabled": 0, "rental_uris": {"ios": "https://dc.lft.to/lastmile_qr_scan", "android": "https://dc.lft.to/lastmile_qr_scan"}, "is_reserved": 0}, {"lon": -77.02978266666666, "bike_id": "4b0a7950029f0ad17b01d701c61faa37", "lat": 38.91681366666667, "fusion_lon": 0.0, "fusion_lat": 0.0, "type": "electric_scooter", "name": "4b0a7950029f0ad17b01d701c61faa37", "is_disabled": 0, "rental_uris": {"ios": "https://dc.lft.to/lastmile_qr_scan", "android": "https://dc.lft.to/lastmile_qr_scan"}, "is_reserved": 0}, {"lon": -77.02270716666666, "bike_id": "18ec228c207496e9e11ed942aadc5516", "lat": 38.927308833333335, "fusion_lon": 0.0, "fusion_lat": 0.0, "type": "electric_scooter", "name": "18ec228c207496e9e11ed942aadc5516", "is_disabled": 0, "rental_uris": {"ios": "https://dc.lft.to/lastmile_qr_scan", "android": "https://dc.lft.to/lastmile_qr_scan"}, "is_reserved": 0}, {"lon": -76.99354383333333, "bike_id": "168946f231ac2c2ffed322272bfdaefd", "lat": 38.8450845, "fusion_lon": 0.0, "fusion_lat": 0.0, "type": "electric_bike", "name": "168946f231ac2c2ffed322272bfdaefd", "is_disabled": 0, "rental_uris": {"ios": "https://dc.lft.to/lastmile_qr_scan", "android": "https://dc.lft.to/lastmile_qr_scan"}, "is_reserved": 0}, {"lon": -77.02405933333333, "bike_id": "18657d74e9c677e240b9a9c120c3ad33", "lat": 38.903184, "fusion_lon": 0.0, "fusion_lat": 0.0, "type": "electric_scooter", "name": "18657d74e9c677e240b9a9c120c3ad33", "is_disabled": 0, "rental_uris": {"ios": "https://dc.lft.to/lastmile_qr_scan", "android": "https://dc.lft.to/lastmile_qr_scan"}, "is_reserved": 0}, {"lon": -77.04983516666667, "bike_id": "6ac27ee0b17458d0a4f75f2ead6d2a8c", "lat": 38.90533333333333, "fusion_lon": 0.0, "fusion_lat": 0.0, "type": "electric_scooter", "name": "6ac27ee0b17458d0a4f75f2ead6d2a8c", "is_disabled": 0, "rental_uris": {"ios": "https://dc.lft.to/lastmile_qr_scan", "android": "https://dc.lft.to/lastmile_qr_scan"}, "is_reserved": 0}, {"lon": -76.99352266666666, "bike_id": "c132b0b336720f1695ef916f54b2fb5b", "lat": 38.937153333333335, "fusion_lon": 0.0, "fusion_lat": 0.0, "type": "electric_bike", "name": "c132b0b336720f1695ef916f54b2fb5b", "is_disabled": 0, "rental_uris": {"ios": "https://dc.lft.to/lastmile_qr_scan", "android": "https://dc.lft.to/lastmile_qr_scan"}, "is_reserved": 0}, {"lon": -76.92525783333333, "bike_id": "559d2583645b0ee513755ca74410ead8", "lat": 38.883411, "fusion_lon": 0.0, "fusion_lat": 0.0, "type": "electric_bike", "name": "559d2583645b0ee513755ca74410ead8", "is_disabled": 0, "rental_uris": {"ios": "https://dc.lft.to/lastmile_qr_scan", "android": "https://dc.lft.to/lastmile_qr_scan"}, "is_reserved": 0}, {"lon": -77.038014, "bike_id": "5143ba11f983b59f24320d15fcfb20df", "lat": 38.92063433333333, "fusion_lon": 0.0, "fusion_lat": 0.0, "type": "electric_scooter", "name": "5143ba11f983b59f24320d15fcfb20df", "is_disabled": 0, "rental_uris": {"ios": "https://dc.lft.to/lastmile_qr_scan", "android": "https://dc.lft.to/lastmile_qr_scan"}, "is_reserved": 0}, {"lon": -76.98551216666667, "bike_id": "1717cf8fa3c4a44607206b59945e0016", "lat": 38.910336666666666, "fusion_lon": 0.0, "fusion_lat": 0.0, "type": "electric_scooter", "name": "1717cf8fa3c4a44607206b59945e0016", "is_disabled": 0, "rental_uris": {"ios": "https://dc.lft.to/lastmile_qr_scan", "android": "https://dc.lft.to/lastmile_qr_scan"}, "is_reserved": 0}, {"lon": -77.02465516666666, "bike_id": "3a79096b4e99948aec3380855b57da27", "lat": 38.93713116666667, "fusion_lon": 0.0, "fusion_lat": 0.0, "type": "electric_scooter", "name": "3a79096b4e99948aec3380855b57da27", "is_disabled": 0, "rental_uris": {"ios": "https://dc.lft.to/lastmile_qr_scan", "android": "https://dc.lft.to/lastmile_qr_scan"}, "is_reserved": 0}, {"lon": -77.05211183333333, "bike_id": "3f633d55b13bb2d78b1618fd7ac7c9ed", "lat": 38.924772833333336, "fusion_lon": 0.0, "fusion_lat": 0.0, "type": "electric_scooter", "name": "3f633d55b13bb2d78b1618fd7ac7c9ed", "is_disabled": 0, "rental_uris": {"ios": "https://dc.lft.to/lastmile_qr_scan", "android": "https://dc.lft.to/lastmile_qr_scan"}, "is_reserved": 0}, {"lon": -77.023772, "bike_id": "1fae36161f9b77f6a6b58af8917cc10f", "lat": 38.900176, "fusion_lon": 0.0, "fusion_lat": 0.0, "type": "electric_scooter", "name": "1fae36161f9b77f6a6b58af8917cc10f", "is_disabled": 0, "rental_uris": {"ios": "https://dc.lft.to/lastmile_qr_scan", "android": "https://dc.lft.to/lastmile_qr_scan"}, "is_reserved": 0}, {"lon": -76.995795, "bike_id": "5a90a5279e050662f8131807fcab449e", "lat": 38.85292066666667, "fusion_lon": 0.0, "fusion_lat": 0.0, "type": "electric_scooter", "name": "5a90a5279e050662f8131807fcab449e", "is_disabled": 0, "rental_uris": {"ios": "https://dc.lft.to/lastmile_qr_scan", "android": "https://dc.lft.to/lastmile_qr_scan"}, "is_reserved": 0}, {"lon": -77.00196166666667, "bike_id": "6a0ff14e521f588edf059adba660fd70", "lat": 38.902400166666666, "fusion_lon": 0.0, "fusion_lat": 0.0, "type": "electric_scooter", "name": "6a0ff14e521f588edf059adba660fd70", "is_disabled": 0, "rental_uris": {"ios": "https://dc.lft.to/lastmile_qr_scan", "android": "https://dc.lft.to/lastmile_qr_scan"}, "is_reserved": 0}, {"lon": -77.04118833333334, "bike_id": "8bd07d361426386c0ba0888f736eda38", "lat": 38.944071, "fusion_lon": 0.0, "fusion_lat": 0.0, "type": "electric_bike", "name": "8bd07d361426386c0ba0888f736eda38", "is_disabled": 0, "rental_uris": {"ios": "https://dc.lft.to/lastmile_qr_scan", "android": "https://dc.lft.to/lastmile_qr_scan"}, "is_reserved": 0}, {"lon": -77.00118466666666, "bike_id": "a150f110b3513ff6c3afb3e0264199e4", "lat": 38.91710666666667, "fusion_lon": 0.0, "fusion_lat": 0.0, "type": "electric_scooter", "name": "a150f110b3513ff6c3afb3e0264199e4", "is_disabled": 0, "rental_uris": {"ios": "https://dc.lft.to/lastmile_qr_scan", "android": "https://dc.lft.to/lastmile_qr_scan"}, "is_reserved": 0}, {"lon": -76.895302, "bike_id": "160b2542046036ae607f98fd3f53c517", "lat": 38.94547166666667, "fusion_lon": 0.0, "fusion_lat": 0.0, "type": "electric_bike", "name": "160b2542046036ae607f98fd3f53c517", "is_disabled": 0, "rental_uris": {"ios": "https://dc.lft.to/lastmile_qr_scan", "android": "https://dc.lft.to/lastmile_qr_scan"}, "is_reserved": 0}, {"lon": -77.0533425, "bike_id": "ce3d11c27476ac5adf85a8f4d39e268b", "lat": 38.9071495, "fusion_lon": 0.0, "fusion_lat": 0.0, "type": "electric_scooter", "name": "ce3d11c27476ac5adf85a8f4d39e268b", "is_disabled": 0, "rental_uris": {"ios": "https://dc.lft.to/lastmile_qr_scan", "android": "https://dc.lft.to/lastmile_qr_scan"}, "is_reserved": 0}, {"lon": -77.03544, "bike_id": "7e7b5b916902281c145c4b6f60d17a53", "lat": 38.918319333333336, "fusion_lon": 0.0, "fusion_lat": 0.0, "type": "electric_scooter", "name": "7e7b5b916902281c145c4b6f60d17a53", "is_disabled": 0, "rental_uris": {"ios": "https://dc.lft.to/lastmile_qr_scan", "android": "https://dc.lft.to/lastmile_qr_scan"}, "is_reserved": 0}, {"lon": -77.03837683333333, "bike_id": "41efb2c3e893a264256ede2909336356", "lat": 38.9109305, "fusion_lon": 0.0, "fusion_lat": 0.0, "type": "electric_scooter", "name": "41efb2c3e893a264256ede2909336356", "is_disabled": 0, "rental_uris": {"ios": "https://dc.lft.to/lastmile_qr_scan", "android": "https://dc.lft.to/lastmile_qr_scan"}, "is_reserved": 0}, {"lon": -77.02732183333333, "bike_id": "5b346ddace74787ba2a18f40df3dca61", "lat": 38.9408925, "fusion_lon": 0.0, "fusion_lat": 0.0, "type": "electric_scooter", "name": "5b346ddace74787ba2a18f40df3dca61", "is_disabled": 0, "rental_uris": {"ios": "https://dc.lft.to/lastmile_qr_scan", "android": "https://dc.lft.to/lastmile_qr_scan"}, "is_reserved": 0}, {"lon": -77.01977733333334, "bike_id": "6034d3b6258c92e1bbd81f0ba4e1ffb1", "lat": 38.91491366666666, "fusion_lon": 0.0, "fusion_lat": 0.0, "type": "electric_scooter", "name": "6034d3b6258c92e1bbd81f0ba4e1ffb1", "is_disabled": 0, "rental_uris": {"ios": "https://dc.lft.to/lastmile_qr_scan", "android": "https://dc.lft.to/lastmile_qr_scan"}, "is_reserved": 0}, {"lon": -77.02159733333333, "bike_id": "b0bd6e885d96eb484522faca24fe15be", "lat": 38.8921765, "fusion_lon": 0.0, "fusion_lat": 0.0, "type": "electric_scooter", "name": "b0bd6e885d96eb484522faca24fe15be", "is_disabled": 0, "rental_uris": {"ios": "https://dc.lft.to/lastmile_qr_scan", "android": "https://dc.lft.to/lastmile_qr_scan"}, "is_reserved": 0}, {"lon": -77.004615, "bike_id": "d3db9a1b6b147e22c243b858291f2a25", "lat": 38.8972515, "fusion_lon": 0.0, "fusion_lat": 0.0, "type": "electric_bike", "name": "d3db9a1b6b147e22c243b858291f2a25", "is_disabled": 0, "rental_uris": {"ios": "https://dc.lft.to/lastmile_qr_scan", "android": "https://dc.lft.to/lastmile_qr_scan"}, "is_reserved": 0}, {"lon": -77.021908, "bike_id": "ede9f7eaf1b7674d8ab66ac5a6ba71ab", "lat": 38.892654666666665, "fusion_lon": 0.0, "fusion_lat": 0.0, "type": "electric_scooter", "name": "ede9f7eaf1b7674d8ab66ac5a6ba71ab", "is_disabled": 0, "rental_uris": {"ios": "https://dc.lft.to/lastmile_qr_scan", "android": "https://dc.lft.to/lastmile_qr_scan"}, "is_reserved": 0}, {"lon": -77.05809583333334, "bike_id": "d68e875e82ce7341d31aa5b768ae24d7", "lat": 38.90106866666667, "fusion_lon": 0.0, "fusion_lat": 0.0, "type": "electric_scooter", "name": "d68e875e82ce7341d31aa5b768ae24d7", "is_disabled": 0, "rental_uris": {"ios": "https://dc.lft.to/lastmile_qr_scan", "android": "https://dc.lft.to/lastmile_qr_scan"}, "is_reserved": 0}, {"lon": -77.00924283333333, "bike_id": "a7461350e2159ca1b4f2f79b46ccb679", "lat": 38.89607683333333, "fusion_lon": 0.0, "fusion_lat": 0.0, "type": "electric_scooter", "name": "a7461350e2159ca1b4f2f79b46ccb679", "is_disabled": 0, "rental_uris": {"ios": "https://dc.lft.to/lastmile_qr_scan", "android": "https://dc.lft.to/lastmile_qr_scan"}, "is_reserved": 0}, {"lon": -77.03832516666667, "bike_id": "3952f6cecf3bce2897bf509041fba38b", "lat": 38.914727666666664, "fusion_lon": 0.0, "fusion_lat": 0.0, "type": "electric_scooter", "name": "3952f6cecf3bce2897bf509041fba38b", "is_disabled": 0, "rental_uris": {"ios": "https://dc.lft.to/lastmile_qr_scan", "android": "https://dc.lft.to/lastmile_qr_scan"}, "is_reserved": 0}, {"lon": -76.9780965, "bike_id": "ff52abbd55a787947a457ce814de48b0", "lat": 38.90675816666667, "fusion_lon": 0.0, "fusion_lat": 0.0, "type": "electric_scooter", "name": "ff52abbd55a787947a457ce814de48b0", "is_disabled": 0, "rental_uris": {"ios": "https://dc.lft.to/lastmile_qr_scan", "android": "https://dc.lft.to/lastmile_qr_scan"}, "is_reserved": 0}, {"lon": -77.04007633333333, "bike_id": "86ac9f4a70cbf531a58dcea1a75476f2", "lat": 38.9099935, "fusion_lon": 0.0, "fusion_lat": 0.0, "type": "electric_scooter", "name": "86ac9f4a70cbf531a58dcea1a75476f2", "is_disabled": 0, "rental_uris": {"ios": "https://dc.lft.to/lastmile_qr_scan", "android": "https://dc.lft.to/lastmile_qr_scan"}, "is_reserved": 0}, {"lon": -77.031824, "bike_id": "04c9314d3c171d11b46dcf6ef22367d3", "lat": 38.8873635, "fusion_lon": 0.0, "fusion_lat": 0.0, "type": "electric_scooter", "name": "04c9314d3c171d11b46dcf6ef22367d3", "is_disabled": 0, "rental_uris": {"ios": "https://dc.lft.to/lastmile_qr_scan", "android": "https://dc.lft.to/lastmile_qr_scan"}, "is_reserved": 0}, {"lon": -77.05591883333334, "bike_id": "d9b1f40cdf46b8adacd053c32fef3338", "lat": 38.916176666666665, "fusion_lon": 0.0, "fusion_lat": 0.0, "type": "electric_scooter", "name": "d9b1f40cdf46b8adacd053c32fef3338", "is_disabled": 0, "rental_uris": {"ios": "https://dc.lft.to/lastmile_qr_scan", "android": "https://dc.lft.to/lastmile_qr_scan"}, "is_reserved": 0}, {"lon": -77.03855366666667, "bike_id": "c0aca883bab51595fa6968c3dd16d00f", "lat": 38.907722, "fusion_lon": 0.0, "fusion_lat": 0.0, "type": "electric_scooter", "name": "c0aca883bab51595fa6968c3dd16d00f", "is_disabled": 0, "rental_uris": {"ios": "https://dc.lft.to/lastmile_qr_scan", "android": "https://dc.lft.to/lastmile_qr_scan"}, "is_reserved": 0}, {"lon": -77.04607616666667, "bike_id": "ccdb1d1df7072285fd7b7c6e68e466d3", "lat": 38.90551383333333, "fusion_lon": 0.0, "fusion_lat": 0.0, "type": "electric_scooter", "name": "ccdb1d1df7072285fd7b7c6e68e466d3", "is_disabled": 0, "rental_uris": {"ios": "https://dc.lft.to/lastmile_qr_scan", "android": "https://dc.lft.to/lastmile_qr_scan"}, "is_reserved": 0}, {"lon": -76.9884005, "bike_id": "2fe266b7e4850059bca594e5b321620d", "lat": 38.842759666666666, "fusion_lon": 0.0, "fusion_lat": 0.0, "type": "electric_bike", "name": "2fe266b7e4850059bca594e5b321620d", "is_disabled": 0, "rental_uris": {"ios": "https://dc.lft.to/lastmile_qr_scan", "android": "https://dc.lft.to/lastmile_qr_scan"}, "is_reserved": 0}, {"lon": -77.02417816666667, "bike_id": "83b478548db74151e1ec533e5c80ece3", "lat": 38.91778983333333, "fusion_lon": 0.0, "fusion_lat": 0.0, "type": "electric_scooter", "name": "83b478548db74151e1ec533e5c80ece3", "is_disabled": 0, "rental_uris": {"ios": "https://dc.lft.to/lastmile_qr_scan", "android": "https://dc.lft.to/lastmile_qr_scan"}, "is_reserved": 0}, {"lon": -77.07232216666667, "bike_id": "faf5e8aa708bd582dbb978a3af62de59", "lat": 38.8989765, "fusion_lon": 0.0, "fusion_lat": 0.0, "type": "electric_scooter", "name": "faf5e8aa708bd582dbb978a3af62de59", "is_disabled": 0, "rental_uris": {"ios": "https://dc.lft.to/lastmile_qr_scan", "android": "https://dc.lft.to/lastmile_qr_scan"}, "is_reserved": 0}, {"lon": -77.0294895, "bike_id": "6567bbaf19856490ca7eeca74e97a237", "lat": 38.91253833333333, "fusion_lon": 0.0, "fusion_lat": 0.0, "type": "electric_scooter", "name": "6567bbaf19856490ca7eeca74e97a237", "is_disabled": 0, "rental_uris": {"ios": "https://dc.lft.to/lastmile_qr_scan", "android": "https://dc.lft.to/lastmile_qr_scan"}, "is_reserved": 0}, {"lon": -77.03478666666666, "bike_id": "f04f911794967145b22f039abb38471e", "lat": 38.919164333333335, "fusion_lon": 0.0, "fusion_lat": 0.0, "type": "electric_scooter", "name": "f04f911794967145b22f039abb38471e", "is_disabled": 0, "rental_uris": {"ios": "https://dc.lft.to/lastmile_qr_scan", "android": "https://dc.lft.to/lastmile_qr_scan"}, "is_reserved": 0}, {"lon": -77.02663533333333, "bike_id": "9e7c3d191307ba7044d26f0a71eab226", "lat": 38.927762, "fusion_lon": 0.0, "fusion_lat": 0.0, "type": "electric_scooter", "name": "9e7c3d191307ba7044d26f0a71eab226", "is_disabled": 0, "rental_uris": {"ios": "https://dc.lft.to/lastmile_qr_scan", "android": "https://dc.lft.to/lastmile_qr_scan"}, "is_reserved": 0}, {"lon": -77.04600966666666, "bike_id": "bb5045c601a561c01eb640be8790d5c5", "lat": 38.853035, "fusion_lon": 0.0, "fusion_lat": 0.0, "type": "electric_bike", "name": "bb5045c601a561c01eb640be8790d5c5", "is_disabled": 0, "rental_uris": {"ios": "https://dc.lft.to/lastmile_qr_scan", "android": "https://dc.lft.to/lastmile_qr_scan"}, "is_reserved": 0}, {"lon": -77.02266733333333, "bike_id": "dbc85f1562dad8dc65bf5a9091855497", "lat": 38.91638916666667, "fusion_lon": 0.0, "fusion_lat": 0.0, "type": "electric_scooter", "name": "dbc85f1562dad8dc65bf5a9091855497", "is_disabled": 0, "rental_uris": {"ios": "https://dc.lft.to/lastmile_qr_scan", "android": "https://dc.lft.to/lastmile_qr_scan"}, "is_reserved": 0}, {"lon": -76.99827533333334, "bike_id": "136c93c61b21f393dfd81e62e9ac597b", "lat": 38.88527, "fusion_lon": 0.0, "fusion_lat": 0.0, "type": "electric_scooter", "name": "136c93c61b21f393dfd81e62e9ac597b", "is_disabled": 0, "rental_uris": {"ios": "https://dc.lft.to/lastmile_qr_scan", "android": "https://dc.lft.to/lastmile_qr_scan"}, "is_reserved": 0}, {"lon": -77.02361766666667, "bike_id": "6d6966127ce15cd8a9d9ae6416526958", "lat": 38.8921695, "fusion_lon": 0.0, "fusion_lat": 0.0, "type": "electric_scooter", "name": "6d6966127ce15cd8a9d9ae6416526958", "is_disabled": 0, "rental_uris": {"ios": "https://dc.lft.to/lastmile_qr_scan", "android": "https://dc.lft.to/lastmile_qr_scan"}, "is_reserved": 0}, {"lon": -77.02572233333333, "bike_id": "560285f3d259b625f60efc7305e2ba40", "lat": 38.887464666666666, "fusion_lon": 0.0, "fusion_lat": 0.0, "type": "electric_scooter", "name": "560285f3d259b625f60efc7305e2ba40", "is_disabled": 0, "rental_uris": {"ios": "https://dc.lft.to/lastmile_qr_scan", "android": "https://dc.lft.to/lastmile_qr_scan"}, "is_reserved": 0}, {"lon": -77.05720833333334, "bike_id": "8ce7de1104ac5ac2f81794c874beea55", "lat": 38.933609, "fusion_lon": 0.0, "fusion_lat": 0.0, "type": "electric_scooter", "name": "8ce7de1104ac5ac2f81794c874beea55", "is_disabled": 0, "rental_uris": {"ios": "https://dc.lft.to/lastmile_qr_scan", "android": "https://dc.lft.to/lastmile_qr_scan"}, "is_reserved": 0}, {"lon": -77.02600466666667, "bike_id": "85b84e238e532cbdf3bcb387131f8aeb", "lat": 38.920374, "fusion_lon": 0.0, "fusion_lat": 0.0, "type": "electric_scooter", "name": "85b84e238e532cbdf3bcb387131f8aeb", "is_disabled": 0, "rental_uris": {"ios": "https://dc.lft.to/lastmile_qr_scan", "android": "https://dc.lft.to/lastmile_qr_scan"}, "is_reserved": 0}, {"lon": -77.00047033333334, "bike_id": "1aea933607b21625ace009907b218f2a", "lat": 38.923935166666666, "fusion_lon": 0.0, "fusion_lat": 0.0, "type": "electric_scooter", "name": "1aea933607b21625ace009907b218f2a", "is_disabled": 0, "rental_uris": {"ios": "https://dc.lft.to/lastmile_qr_scan", "android": "https://dc.lft.to/lastmile_qr_scan"}, "is_reserved": 0}, {"lon": -76.9704645, "bike_id": "037ae44cb203225196824f4f9a69ac1c", "lat": 38.897777166666664, "fusion_lon": 0.0, "fusion_lat": 0.0, "type": "electric_scooter", "name": "037ae44cb203225196824f4f9a69ac1c", "is_disabled": 0, "rental_uris": {"ios": "https://dc.lft.to/lastmile_qr_scan", "android": "https://dc.lft.to/lastmile_qr_scan"}, "is_reserved": 0}, {"lon": -77.01805366666666, "bike_id": "70345f5af7b14093c24617c099545c6a", "lat": 38.96481433333334, "fusion_lon": 0.0, "fusion_lat": 0.0, "type": "electric_scooter", "name": "70345f5af7b14093c24617c099545c6a", "is_disabled": 0, "rental_uris": {"ios": "https://dc.lft.to/lastmile_qr_scan", "android": "https://dc.lft.to/lastmile_qr_scan"}, "is_reserved": 0}, {"lon": -77.12736316666667, "bike_id": "e5879886da732ae2d2966ce720a693e0", "lat": 38.895647333333336, "fusion_lon": 0.0, "fusion_lat": 0.0, "type": "electric_bike", "name": "e5879886da732ae2d2966ce720a693e0", "is_disabled": 0, "rental_uris": {"ios": "https://dc.lft.to/lastmile_qr_scan", "android": "https://dc.lft.to/lastmile_qr_scan"}, "is_reserved": 0}, {"lon": -77.03880933333333, "bike_id": "3daa3e3b4bb7ff7f7d9a9d8bea64646e", "lat": 38.948715, "fusion_lon": 0.0, "fusion_lat": 0.0, "type": "electric_scooter", "name": "3daa3e3b4bb7ff7f7d9a9d8bea64646e", "is_disabled": 0, "rental_uris": {"ios": "https://dc.lft.to/lastmile_qr_scan", "android": "https://dc.lft.to/lastmile_qr_scan"}, "is_reserved": 0}, {"lon": -77.057403, "bike_id": "80342a8e266cab569863f2f668baee1f", "lat": 38.93391366666667, "fusion_lon": 0.0, "fusion_lat": 0.0, "type": "electric_scooter", "name": "80342a8e266cab569863f2f668baee1f", "is_disabled": 0, "rental_uris": {"ios": "https://dc.lft.to/lastmile_qr_scan", "android": "https://dc.lft.to/lastmile_qr_scan"}, "is_reserved": 0}, {"lon": -77.0531865, "bike_id": "c904dd0e562dbe5f7a6249787ba6ce8b", "lat": 38.90727483333333, "fusion_lon": 0.0, "fusion_lat": 0.0, "type": "electric_scooter", "name": "c904dd0e562dbe5f7a6249787ba6ce8b", "is_disabled": 0, "rental_uris": {"ios": "https://dc.lft.to/lastmile_qr_scan", "android": "https://dc.lft.to/lastmile_qr_scan"}, "is_reserved": 0}, {"lon": -76.98826133333333, "bike_id": "52c22cf8454e15be947af5c929a6d27e", "lat": 38.89070366666667, "fusion_lon": 0.0, "fusion_lat": 0.0, "type": "electric_scooter", "name": "52c22cf8454e15be947af5c929a6d27e", "is_disabled": 0, "rental_uris": {"ios": "https://dc.lft.to/lastmile_qr_scan", "android": "https://dc.lft.to/lastmile_qr_scan"}, "is_reserved": 0}, {"lon": -77.02755333333333, "bike_id": "d29ae010d8adc1a6d4be607c41e1e97f", "lat": 38.965660166666666, "fusion_lon": 0.0, "fusion_lat": 0.0, "type": "electric_bike", "name": "d29ae010d8adc1a6d4be607c41e1e97f", "is_disabled": 0, "rental_uris": {"ios": "https://dc.lft.to/lastmile_qr_scan", "android": "https://dc.lft.to/lastmile_qr_scan"}, "is_reserved": 0}, {"lon": -76.96131133333333, "bike_id": "7ccbcd817d385e2a6c9914e22f883d36", "lat": 38.94210916666667, "fusion_lon": 0.0, "fusion_lat": 0.0, "type": "electric_bike", "name": "7ccbcd817d385e2a6c9914e22f883d36", "is_disabled": 0, "rental_uris": {"ios": "https://dc.lft.to/lastmile_qr_scan", "android": "https://dc.lft.to/lastmile_qr_scan"}, "is_reserved": 0}, {"lon": -76.8840125, "bike_id": "42004b08846beaba776e544de32d239e", "lat": 38.93169183333333, "fusion_lon": 0.0, "fusion_lat": 0.0, "type": "electric_bike", "name": "42004b08846beaba776e544de32d239e", "is_disabled": 0, "rental_uris": {"ios": "https://dc.lft.to/lastmile_qr_scan", "android": "https://dc.lft.to/lastmile_qr_scan"}, "is_reserved": 0}, {"lon": -77.0464615, "bike_id": "e7f4efd92d55035a430b5e9c497e25f5", "lat": 39.055029, "fusion_lon": 0.0, "fusion_lat": 0.0, "type": "electric_bike", "name": "e7f4efd92d55035a430b5e9c497e25f5", "is_disabled": 0, "rental_uris": {"ios": "https://dc.lft.to/lastmile_qr_scan", "android": "https://dc.lft.to/lastmile_qr_scan"}, "is_reserved": 0}, {"lon": -77.05589933333333, "bike_id": "fb79a59358f3681937cd2b003197ca93", "lat": 38.93145416666667, "fusion_lon": 0.0, "fusion_lat": 0.0, "type": "electric_scooter", "name": "fb79a59358f3681937cd2b003197ca93", "is_disabled": 0, "rental_uris": {"ios": "https://dc.lft.to/lastmile_qr_scan", "android": "https://dc.lft.to/lastmile_qr_scan"}, "is_reserved": 0}, {"lon": -77.01762633333334, "bike_id": "4c7e18525026247a8a452d4ac23dd728", "lat": 38.90120266666667, "fusion_lon": 0.0, "fusion_lat": 0.0, "type": "electric_scooter", "name": "4c7e18525026247a8a452d4ac23dd728", "is_disabled": 0, "rental_uris": {"ios": "https://dc.lft.to/lastmile_qr_scan", "android": "https://dc.lft.to/lastmile_qr_scan"}, "is_reserved": 0}, {"lon": -77.03938616666667, "bike_id": "c0ff262b0d274f5a02c2ab3988a7fc73", "lat": 38.90374283333333, "fusion_lon": 0.0, "fusion_lat": 0.0, "type": "electric_scooter", "name": "c0ff262b0d274f5a02c2ab3988a7fc73", "is_disabled": 0, "rental_uris": {"ios": "https://dc.lft.to/lastmile_qr_scan", "android": "https://dc.lft.to/lastmile_qr_scan"}, "is_reserved": 0}, {"lon": -76.9565465, "bike_id": "6ff0aff9d0cecf2d688b6857e99d37c4", "lat": 38.89626283333333, "fusion_lon": 0.0, "fusion_lat": 0.0, "type": "electric_scooter", "name": "6ff0aff9d0cecf2d688b6857e99d37c4", "is_disabled": 0, "rental_uris": {"ios": "https://dc.lft.to/lastmile_qr_scan", "android": "https://dc.lft.to/lastmile_qr_scan"}, "is_reserved": 0}, {"lon": -76.99139116666667, "bike_id": "2576e664dea16144a197ffd456829412", "lat": 38.8824385, "fusion_lon": 0.0, "fusion_lat": 0.0, "type": "electric_scooter", "name": "2576e664dea16144a197ffd456829412", "is_disabled": 0, "rental_uris": {"ios": "https://dc.lft.to/lastmile_qr_scan", "android": "https://dc.lft.to/lastmile_qr_scan"}, "is_reserved": 0}, {"lon": -76.9882235, "bike_id": "3218bc603758e8db00a5f7fbdb91047f", "lat": 38.89073966666667, "fusion_lon": 0.0, "fusion_lat": 0.0, "type": "electric_scooter", "name": "3218bc603758e8db00a5f7fbdb91047f", "is_disabled": 0, "rental_uris": {"ios": "https://dc.lft.to/lastmile_qr_scan", "android": "https://dc.lft.to/lastmile_qr_scan"}, "is_reserved": 0}, {"lon": -77.053583, "bike_id": "9d55142f88cb30d4d5f07f0a8dc54ee7", "lat": 38.92728966666667, "fusion_lon": 0.0, "fusion_lat": 0.0, "type": "electric_scooter", "name": "9d55142f88cb30d4d5f07f0a8dc54ee7", "is_disabled": 0, "rental_uris": {"ios": "https://dc.lft.to/lastmile_qr_scan", "android": "https://dc.lft.to/lastmile_qr_scan"}, "is_reserved": 0}, {"lon": -77.01365816666667, "bike_id": "e162c913be967e1a8bcdccfd0afcbc90", "lat": 38.887053333333334, "fusion_lon": 0.0, "fusion_lat": 0.0, "type": "electric_scooter", "name": "e162c913be967e1a8bcdccfd0afcbc90", "is_disabled": 0, "rental_uris": {"ios": "https://dc.lft.to/lastmile_qr_scan", "android": "https://dc.lft.to/lastmile_qr_scan"}, "is_reserved": 0}, {"lon": -77.04601833333334, "bike_id": "c6871992450a658558feee58dac79fa8", "lat": 38.916053, "fusion_lon": 0.0, "fusion_lat": 0.0, "type": "electric_scooter", "name": "c6871992450a658558feee58dac79fa8", "is_disabled": 0, "rental_uris": {"ios": "https://dc.lft.to/lastmile_qr_scan", "android": "https://dc.lft.to/lastmile_qr_scan"}, "is_reserved": 0}, {"lon": -77.023921, "bike_id": "007b79092bf260b9ca198781e4da5996", "lat": 38.92004033333333, "fusion_lon": 0.0, "fusion_lat": 0.0, "type": "electric_scooter", "name": "007b79092bf260b9ca198781e4da5996", "is_disabled": 0, "rental_uris": {"ios": "https://dc.lft.to/lastmile_qr_scan", "android": "https://dc.lft.to/lastmile_qr_scan"}, "is_reserved": 0}, {"lon": -77.02911016666667, "bike_id": "08ec2ed5cba7acc5eede38d97142efbf", "lat": 38.898145166666666, "fusion_lon": 0.0, "fusion_lat": 0.0, "type": "electric_scooter", "name": "08ec2ed5cba7acc5eede38d97142efbf", "is_disabled": 0, "rental_uris": {"ios": "https://dc.lft.to/lastmile_qr_scan", "android": "https://dc.lft.to/lastmile_qr_scan"}, "is_reserved": 0}, {"lon": -77.02709583333333, "bike_id": "d75eeba9007526a67049db7ccb267c5a", "lat": 38.910178333333334, "fusion_lon": 0.0, "fusion_lat": 0.0, "type": "electric_scooter", "name": "d75eeba9007526a67049db7ccb267c5a", "is_disabled": 0, "rental_uris": {"ios": "https://dc.lft.to/lastmile_qr_scan", "android": "https://dc.lft.to/lastmile_qr_scan"}, "is_reserved": 0}, {"lon": -77.00755566666666, "bike_id": "01761c61f9b8b1295a392e2e31b08a40", "lat": 38.876549, "fusion_lon": 0.0, "fusion_lat": 0.0, "type": "electric_scooter", "name": "01761c61f9b8b1295a392e2e31b08a40", "is_disabled": 0, "rental_uris": {"ios": "https://dc.lft.to/lastmile_qr_scan", "android": "https://dc.lft.to/lastmile_qr_scan"}, "is_reserved": 0}, {"lon": -77.04825683333334, "bike_id": "d598360ab4b0ad1b8ee6c2dd7fab5a99", "lat": 38.89741333333333, "fusion_lon": 0.0, "fusion_lat": 0.0, "type": "electric_scooter", "name": "d598360ab4b0ad1b8ee6c2dd7fab5a99", "is_disabled": 0, "rental_uris": {"ios": "https://dc.lft.to/lastmile_qr_scan", "android": "https://dc.lft.to/lastmile_qr_scan"}, "is_reserved": 0}, {"lon": -77.03213433333333, "bike_id": "c3c15139e63f76e67a31461e6c99ae49", "lat": 38.91663966666667, "fusion_lon": 0.0, "fusion_lat": 0.0, "type": "electric_scooter", "name": "c3c15139e63f76e67a31461e6c99ae49", "is_disabled": 0, "rental_uris": {"ios": "https://dc.lft.to/lastmile_qr_scan", "android": "https://dc.lft.to/lastmile_qr_scan"}, "is_reserved": 0}, {"lon": -76.99681166666667, "bike_id": "a2b7a6f1530729b499ac96c7af8ceebe", "lat": 38.8812645, "fusion_lon": 0.0, "fusion_lat": 0.0, "type": "electric_scooter", "name": "a2b7a6f1530729b499ac96c7af8ceebe", "is_disabled": 0, "rental_uris": {"ios": "https://dc.lft.to/lastmile_qr_scan", "android": "https://dc.lft.to/lastmile_qr_scan"}, "is_reserved": 0}, {"lon": -77.04500916666667, "bike_id": "ab8a0b7ee720910e16a6f094fd7ed574", "lat": 38.9111235, "fusion_lon": 0.0, "fusion_lat": 0.0, "type": "electric_scooter", "name": "ab8a0b7ee720910e16a6f094fd7ed574", "is_disabled": 0, "rental_uris": {"ios": "https://dc.lft.to/lastmile_qr_scan", "android": "https://dc.lft.to/lastmile_qr_scan"}, "is_reserved": 0}, {"lon": -76.982276, "bike_id": "1adae683e95d261147b3f594ec74b48a", "lat": 38.916558, "fusion_lon": 0.0, "fusion_lat": 0.0, "type": "electric_scooter", "name": "1adae683e95d261147b3f594ec74b48a", "is_disabled": 0, "rental_uris": {"ios": "https://dc.lft.to/lastmile_qr_scan", "android": "https://dc.lft.to/lastmile_qr_scan"}, "is_reserved": 0}, {"lon": -77.04981833333333, "bike_id": "783a77a0d4cd0f614606e74741642c88", "lat": 38.905418833333336, "fusion_lon": 0.0, "fusion_lat": 0.0, "type": "electric_scooter", "name": "783a77a0d4cd0f614606e74741642c88", "is_disabled": 0, "rental_uris": {"ios": "https://dc.lft.to/lastmile_qr_scan", "android": "https://dc.lft.to/lastmile_qr_scan"}, "is_reserved": 0}, {"lon": -77.02101533333334, "bike_id": "bfcc0dfc195a37a655366a39d2c3399b", "lat": 38.897511, "fusion_lon": 0.0, "fusion_lat": 0.0, "type": "electric_scooter", "name": "bfcc0dfc195a37a655366a39d2c3399b", "is_disabled": 0, "rental_uris": {"ios": "https://dc.lft.to/lastmile_qr_scan", "android": "https://dc.lft.to/lastmile_qr_scan"}, "is_reserved": 0}, {"lon": -77.032013, "bike_id": "6b4036cfbfc67545562a077c5f74080c", "lat": 38.91673483333334, "fusion_lon": 0.0, "fusion_lat": 0.0, "type": "electric_scooter", "name": "6b4036cfbfc67545562a077c5f74080c", "is_disabled": 0, "rental_uris": {"ios": "https://dc.lft.to/lastmile_qr_scan", "android": "https://dc.lft.to/lastmile_qr_scan"}, "is_reserved": 0}, {"lon": -77.034598, "bike_id": "16d455fce3f369324dde1a3e8ff22fd0", "lat": 38.9343565, "fusion_lon": 0.0, "fusion_lat": 0.0, "type": "electric_scooter", "name": "16d455fce3f369324dde1a3e8ff22fd0", "is_disabled": 0, "rental_uris": {"ios": "https://dc.lft.to/lastmile_qr_scan", "android": "https://dc.lft.to/lastmile_qr_scan"}, "is_reserved": 0}, {"lon": -77.03442666666666, "bike_id": "a79ae20b55f11623e1c103cab1c7900c", "lat": 38.909543, "fusion_lon": 0.0, "fusion_lat": 0.0, "type": "electric_scooter", "name": "a79ae20b55f11623e1c103cab1c7900c", "is_disabled": 0, "rental_uris": {"ios": "https://dc.lft.to/lastmile_qr_scan", "android": "https://dc.lft.to/lastmile_qr_scan"}, "is_reserved": 0}, {"lon": -77.0280975, "bike_id": "ab945af7eff1e5d85c161b59a08f34d9", "lat": 38.917348833333335, "fusion_lon": 0.0, "fusion_lat": 0.0, "type": "electric_scooter", "name": "ab945af7eff1e5d85c161b59a08f34d9", "is_disabled": 0, "rental_uris": {"ios": "https://dc.lft.to/lastmile_qr_scan", "android": "https://dc.lft.to/lastmile_qr_scan"}, "is_reserved": 0}, {"lon": -77.03462283333333, "bike_id": "17fad1b61753010fa05eaa85f94a0782", "lat": 38.908168, "fusion_lon": 0.0, "fusion_lat": 0.0, "type": "electric_scooter", "name": "17fad1b61753010fa05eaa85f94a0782", "is_disabled": 0, "rental_uris": {"ios": "https://dc.lft.to/lastmile_qr_scan", "android": "https://dc.lft.to/lastmile_qr_scan"}, "is_reserved": 0}, {"lon": -77.0384795, "bike_id": "815e92855ee845d81e8464fa80b85959", "lat": 38.90679516666667, "fusion_lon": 0.0, "fusion_lat": 0.0, "type": "electric_scooter", "name": "815e92855ee845d81e8464fa80b85959", "is_disabled": 0, "rental_uris": {"ios": "https://dc.lft.to/lastmile_qr_scan", "android": "https://dc.lft.to/lastmile_qr_scan"}, "is_reserved": 0}, {"lon": -77.04814866666666, "bike_id": "5dc2b79b14d4a13712780624f8725603", "lat": 38.9073935, "fusion_lon": 0.0, "fusion_lat": 0.0, "type": "electric_scooter", "name": "5dc2b79b14d4a13712780624f8725603", "is_disabled": 0, "rental_uris": {"ios": "https://dc.lft.to/lastmile_qr_scan", "android": "https://dc.lft.to/lastmile_qr_scan"}, "is_reserved": 0}, {"lon": -76.9980795, "bike_id": "6f26263483dad7a26fc648455c9e9a32", "lat": 38.8291935, "fusion_lon": 0.0, "fusion_lat": 0.0, "type": "electric_bike", "name": "6f26263483dad7a26fc648455c9e9a32", "is_disabled": 0, "rental_uris": {"ios": "https://dc.lft.to/lastmile_qr_scan", "android": "https://dc.lft.to/lastmile_qr_scan"}, "is_reserved": 0}, {"lon": -77.00099883333333, "bike_id": "d8e4679d90f25a329b66aae417bec399", "lat": 38.91632116666667, "fusion_lon": 0.0, "fusion_lat": 0.0, "type": "electric_scooter", "name": "d8e4679d90f25a329b66aae417bec399", "is_disabled": 0, "rental_uris": {"ios": "https://dc.lft.to/lastmile_qr_scan", "android": "https://dc.lft.to/lastmile_qr_scan"}, "is_reserved": 0}, {"lon": -77.1170965, "bike_id": "8e41cc829d765599db60f1ffbc01b8bc", "lat": 38.86745366666667, "fusion_lon": 0.0, "fusion_lat": 0.0, "type": "electric_bike", "name": "8e41cc829d765599db60f1ffbc01b8bc", "is_disabled": 0, "rental_uris": {"ios": "https://dc.lft.to/lastmile_qr_scan", "android": "https://dc.lft.to/lastmile_qr_scan"}, "is_reserved": 0}, {"lon": -77.02703816666667, "bike_id": "3fe11dbc30865bc4e69bc6303f9af67c", "lat": 38.906713833333335, "fusion_lon": 0.0, "fusion_lat": 0.0, "type": "electric_scooter", "name": "3fe11dbc30865bc4e69bc6303f9af67c", "is_disabled": 0, "rental_uris": {"ios": "https://dc.lft.to/lastmile_qr_scan", "android": "https://dc.lft.to/lastmile_qr_scan"}, "is_reserved": 0}, {"lon": -77.03288883333333, "bike_id": "0c7139d437e5814e1f6469fb39c264e5", "lat": 38.9283525, "fusion_lon": 0.0, "fusion_lat": 0.0, "type": "electric_scooter", "name": "0c7139d437e5814e1f6469fb39c264e5", "is_disabled": 0, "rental_uris": {"ios": "https://dc.lft.to/lastmile_qr_scan", "android": "https://dc.lft.to/lastmile_qr_scan"}, "is_reserved": 0}, {"lon": -77.035143, "bike_id": "874e49980044554a337890d82e138d2c", "lat": 38.91699466666667, "fusion_lon": 0.0, "fusion_lat": 0.0, "type": "electric_scooter", "name": "874e49980044554a337890d82e138d2c", "is_disabled": 0, "rental_uris": {"ios": "https://dc.lft.to/lastmile_qr_scan", "android": "https://dc.lft.to/lastmile_qr_scan"}, "is_reserved": 0}, {"lon": -77.01345283333333, "bike_id": "2236e345c2f92cfe7471b104c511c692", "lat": 38.87814683333333, "fusion_lon": 0.0, "fusion_lat": 0.0, "type": "electric_scooter", "name": "2236e345c2f92cfe7471b104c511c692", "is_disabled": 0, "rental_uris": {"ios": "https://dc.lft.to/lastmile_qr_scan", "android": "https://dc.lft.to/lastmile_qr_scan"}, "is_reserved": 0}, {"lon": -77.03205416666667, "bike_id": "cdec46aaa780d9a55320a1e751f54ff6", "lat": 38.91629016666667, "fusion_lon": 0.0, "fusion_lat": 0.0, "type": "electric_scooter", "name": "cdec46aaa780d9a55320a1e751f54ff6", "is_disabled": 0, "rental_uris": {"ios": "https://dc.lft.to/lastmile_qr_scan", "android": "https://dc.lft.to/lastmile_qr_scan"}, "is_reserved": 0}, {"lon": -77.04737833333333, "bike_id": "4bd35f50d2208c358a773a4ec2a4c779", "lat": 38.9176835, "fusion_lon": 0.0, "fusion_lat": 0.0, "type": "electric_scooter", "name": "4bd35f50d2208c358a773a4ec2a4c779", "is_disabled": 0, "rental_uris": {"ios": "https://dc.lft.to/lastmile_qr_scan", "android": "https://dc.lft.to/lastmile_qr_scan"}, "is_reserved": 0}, {"lon": -77.03283533333334, "bike_id": "9c5232c72500f31c9f027da86a341b7c", "lat": 38.928797, "fusion_lon": 0.0, "fusion_lat": 0.0, "type": "electric_scooter", "name": "9c5232c72500f31c9f027da86a341b7c", "is_disabled": 0, "rental_uris": {"ios": "https://dc.lft.to/lastmile_qr_scan", "android": "https://dc.lft.to/lastmile_qr_scan"}, "is_reserved": 0}, {"lon": -76.985364, "bike_id": "d131256dae93145b5efbd34d2721d10f", "lat": 38.90455933333333, "fusion_lon": 0.0, "fusion_lat": 0.0, "type": "electric_scooter", "name": "d131256dae93145b5efbd34d2721d10f", "is_disabled": 0, "rental_uris": {"ios": "https://dc.lft.to/lastmile_qr_scan", "android": "https://dc.lft.to/lastmile_qr_scan"}, "is_reserved": 0}, {"lon": -77.01658766666667, "bike_id": "f54d351aa61b6c03cd185f75d0e436e7", "lat": 38.928921, "fusion_lon": 0.0, "fusion_lat": 0.0, "type": "electric_scooter", "name": "f54d351aa61b6c03cd185f75d0e436e7", "is_disabled": 0, "rental_uris": {"ios": "https://dc.lft.to/lastmile_qr_scan", "android": "https://dc.lft.to/lastmile_qr_scan"}, "is_reserved": 0}, {"lon": -77.02312616666667, "bike_id": "e26233e4a74730f89fc6ad4223cd2401", "lat": 38.887334833333334, "fusion_lon": 0.0, "fusion_lat": 0.0, "type": "electric_scooter", "name": "e26233e4a74730f89fc6ad4223cd2401", "is_disabled": 0, "rental_uris": {"ios": "https://dc.lft.to/lastmile_qr_scan", "android": "https://dc.lft.to/lastmile_qr_scan"}, "is_reserved": 0}, {"lon": -76.99542533333333, "bike_id": "bbcadcca50a9534ec01cb88070c08600", "lat": 38.9267135, "fusion_lon": 0.0, "fusion_lat": 0.0, "type": "electric_scooter", "name": "bbcadcca50a9534ec01cb88070c08600", "is_disabled": 0, "rental_uris": {"ios": "https://dc.lft.to/lastmile_qr_scan", "android": "https://dc.lft.to/lastmile_qr_scan"}, "is_reserved": 0}, {"lon": -77.03854966666667, "bike_id": "986be5b52981b009f943ff76b57da53c", "lat": 38.93133016666667, "fusion_lon": 0.0, "fusion_lat": 0.0, "type": "electric_scooter", "name": "986be5b52981b009f943ff76b57da53c", "is_disabled": 0, "rental_uris": {"ios": "https://dc.lft.to/lastmile_qr_scan", "android": "https://dc.lft.to/lastmile_qr_scan"}, "is_reserved": 0}, {"lon": -77.02399466666667, "bike_id": "28626ffb45628cd01c15306e93025e3d", "lat": 38.937031833333336, "fusion_lon": 0.0, "fusion_lat": 0.0, "type": "electric_scooter", "name": "28626ffb45628cd01c15306e93025e3d", "is_disabled": 0, "rental_uris": {"ios": "https://dc.lft.to/lastmile_qr_scan", "android": "https://dc.lft.to/lastmile_qr_scan"}, "is_reserved": 0}, {"lon": -76.93731916666667, "bike_id": "5765376d13c9926a352b31c2315cbab1", "lat": 38.890124666666665, "fusion_lon": 0.0, "fusion_lat": 0.0, "type": "electric_scooter", "name": "5765376d13c9926a352b31c2315cbab1", "is_disabled": 0, "rental_uris": {"ios": "https://dc.lft.to/lastmile_qr_scan", "android": "https://dc.lft.to/lastmile_qr_scan"}, "is_reserved": 0}, {"lon": -77.04202416666666, "bike_id": "fa7a17530c0268213d6406cb1ede94bf", "lat": 38.89266533333333, "fusion_lon": 0.0, "fusion_lat": 0.0, "type": "electric_scooter", "name": "fa7a17530c0268213d6406cb1ede94bf", "is_disabled": 0, "rental_uris": {"ios": "https://dc.lft.to/lastmile_qr_scan", "android": "https://dc.lft.to/lastmile_qr_scan"}, "is_reserved": 0}, {"lon": -77.0298885, "bike_id": "714b16e62f3b7db18279cd5a70e1e0e8", "lat": 38.924716333333336, "fusion_lon": 0.0, "fusion_lat": 0.0, "type": "electric_scooter", "name": "714b16e62f3b7db18279cd5a70e1e0e8", "is_disabled": 0, "rental_uris": {"ios": "https://dc.lft.to/lastmile_qr_scan", "android": "https://dc.lft.to/lastmile_qr_scan"}, "is_reserved": 0}, {"lon": -77.03665766666667, "bike_id": "cfedf4f4718ef1dee9c2d15a6f6bd432", "lat": 38.909643333333335, "fusion_lon": 0.0, "fusion_lat": 0.0, "type": "electric_scooter", "name": "cfedf4f4718ef1dee9c2d15a6f6bd432", "is_disabled": 0, "rental_uris": {"ios": "https://dc.lft.to/lastmile_qr_scan", "android": "https://dc.lft.to/lastmile_qr_scan"}, "is_reserved": 0}, {"lon": -76.9312775, "bike_id": "ab5557884c1bc5b1af855a85bcd6d0be", "lat": 38.8761225, "fusion_lon": 0.0, "fusion_lat": 0.0, "type": "electric_scooter", "name": "ab5557884c1bc5b1af855a85bcd6d0be", "is_disabled": 0, "rental_uris": {"ios": "https://dc.lft.to/lastmile_qr_scan", "android": "https://dc.lft.to/lastmile_qr_scan"}, "is_reserved": 0}, {"lon": -77.05801333333334, "bike_id": "406e244fce4606de82a92ff10780ce0e", "lat": 38.9345125, "fusion_lon": 0.0, "fusion_lat": 0.0, "type": "electric_scooter", "name": "406e244fce4606de82a92ff10780ce0e", "is_disabled": 0, "rental_uris": {"ios": "https://dc.lft.to/lastmile_qr_scan", "android": "https://dc.lft.to/lastmile_qr_scan"}, "is_reserved": 0}, {"lon": -77.03182566666666, "bike_id": "25a78925ed85a5c9ee3389eaff7eb580", "lat": 38.9132875, "fusion_lon": 0.0, "fusion_lat": 0.0, "type": "electric_scooter", "name": "25a78925ed85a5c9ee3389eaff7eb580", "is_disabled": 0, "rental_uris": {"ios": "https://dc.lft.to/lastmile_qr_scan", "android": "https://dc.lft.to/lastmile_qr_scan"}, "is_reserved": 0}, {"lon": -77.04897516666666, "bike_id": "ea39ca99159c36aff0528acec9d5e874", "lat": 38.90331966666667, "fusion_lon": 0.0, "fusion_lat": 0.0, "type": "electric_scooter", "name": "ea39ca99159c36aff0528acec9d5e874", "is_disabled": 0, "rental_uris": {"ios": "https://dc.lft.to/lastmile_qr_scan", "android": "https://dc.lft.to/lastmile_qr_scan"}, "is_reserved": 0}, {"lon": -76.9954635, "bike_id": "0fa9097ec43989b0755e18bd72d1f2ed", "lat": 38.86260133333333, "fusion_lon": 0.0, "fusion_lat": 0.0, "type": "electric_scooter", "name": "0fa9097ec43989b0755e18bd72d1f2ed", "is_disabled": 0, "rental_uris": {"ios": "https://dc.lft.to/lastmile_qr_scan", "android": "https://dc.lft.to/lastmile_qr_scan"}, "is_reserved": 0}, {"lon": -77.02008083333334, "bike_id": "387b14e734595e4fd4296738ee9d24a4", "lat": 38.90148, "fusion_lon": 0.0, "fusion_lat": 0.0, "type": "electric_scooter", "name": "387b14e734595e4fd4296738ee9d24a4", "is_disabled": 0, "rental_uris": {"ios": "https://dc.lft.to/lastmile_qr_scan", "android": "https://dc.lft.to/lastmile_qr_scan"}, "is_reserved": 0}, {"lon": -77.032057, "bike_id": "abb2e99ddf16baca8670140cecc28458", "lat": 38.915767833333334, "fusion_lon": 0.0, "fusion_lat": 0.0, "type": "electric_scooter", "name": "abb2e99ddf16baca8670140cecc28458", "is_disabled": 0, "rental_uris": {"ios": "https://dc.lft.to/lastmile_qr_scan", "android": "https://dc.lft.to/lastmile_qr_scan"}, "is_reserved": 0}, {"lon": -77.04421616666667, "bike_id": "b9f86543f3b1da9425951559b7365a7b", "lat": 38.9213475, "fusion_lon": 0.0, "fusion_lat": 0.0, "type": "electric_scooter", "name": "b9f86543f3b1da9425951559b7365a7b", "is_disabled": 0, "rental_uris": {"ios": "https://dc.lft.to/lastmile_qr_scan", "android": "https://dc.lft.to/lastmile_qr_scan"}, "is_reserved": 0}, {"lon": -77.04433883333333, "bike_id": "3392b95e9e361e94396ba05015e89956", "lat": 38.921609333333336, "fusion_lon": 0.0, "fusion_lat": 0.0, "type": "electric_scooter", "name": "3392b95e9e361e94396ba05015e89956", "is_disabled": 0, "rental_uris": {"ios": "https://dc.lft.to/lastmile_qr_scan", "android": "https://dc.lft.to/lastmile_qr_scan"}, "is_reserved": 0}, {"lon": -77.013934, "bike_id": "3f0981f9c14d0bb0752c151cc9b4fa8b", "lat": 38.928624666666664, "fusion_lon": 0.0, "fusion_lat": 0.0, "type": "electric_scooter", "name": "3f0981f9c14d0bb0752c151cc9b4fa8b", "is_disabled": 0, "rental_uris": {"ios": "https://dc.lft.to/lastmile_qr_scan", "android": "https://dc.lft.to/lastmile_qr_scan"}, "is_reserved": 0}, {"lon": -76.97726583333333, "bike_id": "5efaa64264d41e202036d9ce6004fe8f", "lat": 38.872891, "fusion_lon": 0.0, "fusion_lat": 0.0, "type": "electric_scooter", "name": "5efaa64264d41e202036d9ce6004fe8f", "is_disabled": 0, "rental_uris": {"ios": "https://dc.lft.to/lastmile_qr_scan", "android": "https://dc.lft.to/lastmile_qr_scan"}, "is_reserved": 0}, {"lon": -77.03852633333334, "bike_id": "5f6a1170bfd94b7c26d168e04bd267b4", "lat": 38.93200816666667, "fusion_lon": 0.0, "fusion_lat": 0.0, "type": "electric_scooter", "name": "5f6a1170bfd94b7c26d168e04bd267b4", "is_disabled": 0, "rental_uris": {"ios": "https://dc.lft.to/lastmile_qr_scan", "android": "https://dc.lft.to/lastmile_qr_scan"}, "is_reserved": 0}, {"lon": -77.04007716666666, "bike_id": "c2bcd24ad11ca98be3125eefebac7c2d", "lat": 38.90992683333333, "fusion_lon": 0.0, "fusion_lat": 0.0, "type": "electric_scooter", "name": "c2bcd24ad11ca98be3125eefebac7c2d", "is_disabled": 0, "rental_uris": {"ios": "https://dc.lft.to/lastmile_qr_scan", "android": "https://dc.lft.to/lastmile_qr_scan"}, "is_reserved": 0}, {"lon": -77.03203666666667, "bike_id": "16a1d5273e6c8e69e2d9e9852c3ad7ed", "lat": 38.939677333333336, "fusion_lon": 0.0, "fusion_lat": 0.0, "type": "electric_scooter", "name": "16a1d5273e6c8e69e2d9e9852c3ad7ed", "is_disabled": 0, "rental_uris": {"ios": "https://dc.lft.to/lastmile_qr_scan", "android": "https://dc.lft.to/lastmile_qr_scan"}, "is_reserved": 0}, {"lon": -77.02798366666667, "bike_id": "f13fb67d8a0a933372d36e0cb7e70ddb", "lat": 38.93537466666667, "fusion_lon": 0.0, "fusion_lat": 0.0, "type": "electric_scooter", "name": "f13fb67d8a0a933372d36e0cb7e70ddb", "is_disabled": 0, "rental_uris": {"ios": "https://dc.lft.to/lastmile_qr_scan", "android": "https://dc.lft.to/lastmile_qr_scan"}, "is_reserved": 0}, {"lon": -77.02901383333334, "bike_id": "dd5df4f96751c1cfb160866ca48d2188", "lat": 38.923739, "fusion_lon": 0.0, "fusion_lat": 0.0, "type": "electric_scooter", "name": "dd5df4f96751c1cfb160866ca48d2188", "is_disabled": 0, "rental_uris": {"ios": "https://dc.lft.to/lastmile_qr_scan", "android": "https://dc.lft.to/lastmile_qr_scan"}, "is_reserved": 0}, {"lon": -76.98844483333333, "bike_id": "f6da6cde399ae016e1d65fd2ba636196", "lat": 38.901304833333334, "fusion_lon": 0.0, "fusion_lat": 0.0, "type": "electric_scooter", "name": "f6da6cde399ae016e1d65fd2ba636196", "is_disabled": 0, "rental_uris": {"ios": "https://dc.lft.to/lastmile_qr_scan", "android": "https://dc.lft.to/lastmile_qr_scan"}, "is_reserved": 0}, {"lon": -77.048237, "bike_id": "be2b7648c56fc9b85f392c8e2747c128", "lat": 38.9037645, "fusion_lon": 0.0, "fusion_lat": 0.0, "type": "electric_scooter", "name": "be2b7648c56fc9b85f392c8e2747c128", "is_disabled": 0, "rental_uris": {"ios": "https://dc.lft.to/lastmile_qr_scan", "android": "https://dc.lft.to/lastmile_qr_scan"}, "is_reserved": 0}, {"lon": -77.00875933333333, "bike_id": "e355db9e18256e359c27d554c9cd9bfa", "lat": 38.90574083333333, "fusion_lon": 0.0, "fusion_lat": 0.0, "type": "electric_bike", "name": "e355db9e18256e359c27d554c9cd9bfa", "is_disabled": 0, "rental_uris": {"ios": "https://dc.lft.to/lastmile_qr_scan", "android": "https://dc.lft.to/lastmile_qr_scan"}, "is_reserved": 0}, {"lon": -77.03120516666667, "bike_id": "d65967b01eacaae54001eb9108d46e7e", "lat": 38.95924933333333, "fusion_lon": 0.0, "fusion_lat": 0.0, "type": "electric_bike", "name": "d65967b01eacaae54001eb9108d46e7e", "is_disabled": 0, "rental_uris": {"ios": "https://dc.lft.to/lastmile_qr_scan", "android": "https://dc.lft.to/lastmile_qr_scan"}, "is_reserved": 0}, {"lon": -77.02212983333334, "bike_id": "c3c210342383206bbb427b6f8734e60d", "lat": 38.9105505, "fusion_lon": 0.0, "fusion_lat": 0.0, "type": "electric_scooter", "name": "c3c210342383206bbb427b6f8734e60d", "is_disabled": 0, "rental_uris": {"ios": "https://dc.lft.to/lastmile_qr_scan", "android": "https://dc.lft.to/lastmile_qr_scan"}, "is_reserved": 0}, {"lon": -77.04872983333334, "bike_id": "cb8136856630a954a59d2063f176b135", "lat": 38.892883833333336, "fusion_lon": 0.0, "fusion_lat": 0.0, "type": "electric_scooter", "name": "cb8136856630a954a59d2063f176b135", "is_disabled": 0, "rental_uris": {"ios": "https://dc.lft.to/lastmile_qr_scan", "android": "https://dc.lft.to/lastmile_qr_scan"}, "is_reserved": 0}, {"lon": -77.0036875, "bike_id": "76b319cb01ecac75691cf8744dfe4e9d", "lat": 38.89731333333334, "fusion_lon": 0.0, "fusion_lat": 0.0, "type": "electric_scooter", "name": "76b319cb01ecac75691cf8744dfe4e9d", "is_disabled": 0, "rental_uris": {"ios": "https://dc.lft.to/lastmile_qr_scan", "android": "https://dc.lft.to/lastmile_qr_scan"}, "is_reserved": 0}, {"lon": -76.99383666666667, "bike_id": "ce24e0f8ed8df472ea9dd66f1c316d03", "lat": 38.923966, "fusion_lon": 0.0, "fusion_lat": 0.0, "type": "electric_scooter", "name": "ce24e0f8ed8df472ea9dd66f1c316d03", "is_disabled": 0, "rental_uris": {"ios": "https://dc.lft.to/lastmile_qr_scan", "android": "https://dc.lft.to/lastmile_qr_scan"}, "is_reserved": 0}, {"lon": -77.02977216666666, "bike_id": "7a8969d827eb7752e54b5e8301885b06", "lat": 38.9072515, "fusion_lon": 0.0, "fusion_lat": 0.0, "type": "electric_scooter", "name": "7a8969d827eb7752e54b5e8301885b06", "is_disabled": 0, "rental_uris": {"ios": "https://dc.lft.to/lastmile_qr_scan", "android": "https://dc.lft.to/lastmile_qr_scan"}, "is_reserved": 0}, {"lon": -76.9792245, "bike_id": "c6db0b94a431d033a197c1400a05a6ff", "lat": 38.9066675, "fusion_lon": 0.0, "fusion_lat": 0.0, "type": "electric_bike", "name": "c6db0b94a431d033a197c1400a05a6ff", "is_disabled": 0, "rental_uris": {"ios": "https://dc.lft.to/lastmile_qr_scan", "android": "https://dc.lft.to/lastmile_qr_scan"}, "is_reserved": 0}, {"lon": -77.00890233333334, "bike_id": "0612897d9dcabaf8a50c59e4794d12f5", "lat": 38.9248915, "fusion_lon": 0.0, "fusion_lat": 0.0, "type": "electric_scooter", "name": "0612897d9dcabaf8a50c59e4794d12f5", "is_disabled": 0, "rental_uris": {"ios": "https://dc.lft.to/lastmile_qr_scan", "android": "https://dc.lft.to/lastmile_qr_scan"}, "is_reserved": 0}, {"lon": -77.03223916666667, "bike_id": "1bdbaa7e52813001b079f99548c46d29", "lat": 38.91813766666667, "fusion_lon": 0.0, "fusion_lat": 0.0, "type": "electric_scooter", "name": "1bdbaa7e52813001b079f99548c46d29", "is_disabled": 0, "rental_uris": {"ios": "https://dc.lft.to/lastmile_qr_scan", "android": "https://dc.lft.to/lastmile_qr_scan"}, "is_reserved": 0}, {"lon": -77.01606416666667, "bike_id": "432290eb633809c4751883948b409366", "lat": 38.90231383333333, "fusion_lon": 0.0, "fusion_lat": 0.0, "type": "electric_scooter", "name": "432290eb633809c4751883948b409366", "is_disabled": 0, "rental_uris": {"ios": "https://dc.lft.to/lastmile_qr_scan", "android": "https://dc.lft.to/lastmile_qr_scan"}, "is_reserved": 0}, {"lon": -77.07609283333333, "bike_id": "089b43c31f36f35541f80eadf95dfa3c", "lat": 38.912143666666665, "fusion_lon": 0.0, "fusion_lat": 0.0, "type": "electric_scooter", "name": "089b43c31f36f35541f80eadf95dfa3c", "is_disabled": 0, "rental_uris": {"ios": "https://dc.lft.to/lastmile_qr_scan", "android": "https://dc.lft.to/lastmile_qr_scan"}, "is_reserved": 0}, {"lon": -77.03167266666667, "bike_id": "78d202eb8258c9a6651d8cf463574b50", "lat": 38.920989166666665, "fusion_lon": 0.0, "fusion_lat": 0.0, "type": "electric_bike", "name": "78d202eb8258c9a6651d8cf463574b50", "is_disabled": 0, "rental_uris": {"ios": "https://dc.lft.to/lastmile_qr_scan", "android": "https://dc.lft.to/lastmile_qr_scan"}, "is_reserved": 0}, {"lon": -77.0376385, "bike_id": "00cf5d44775920c69540724bcd95506b", "lat": 38.9168945, "fusion_lon": 0.0, "fusion_lat": 0.0, "type": "electric_scooter", "name": "00cf5d44775920c69540724bcd95506b", "is_disabled": 0, "rental_uris": {"ios": "https://dc.lft.to/lastmile_qr_scan", "android": "https://dc.lft.to/lastmile_qr_scan"}, "is_reserved": 0}, {"lon": -77.01216716666667, "bike_id": "fadd2540cbb21250c7adede819e94102", "lat": 38.91434983333333, "fusion_lon": 0.0, "fusion_lat": 0.0, "type": "electric_scooter", "name": "fadd2540cbb21250c7adede819e94102", "is_disabled": 0, "rental_uris": {"ios": "https://dc.lft.to/lastmile_qr_scan", "android": "https://dc.lft.to/lastmile_qr_scan"}, "is_reserved": 0}, {"lon": -77.03126933333333, "bike_id": "ffb1b2a499e48537dc20e1ead9a9225e", "lat": 38.94504583333333, "fusion_lon": 0.0, "fusion_lat": 0.0, "type": "electric_scooter", "name": "ffb1b2a499e48537dc20e1ead9a9225e", "is_disabled": 0, "rental_uris": {"ios": "https://dc.lft.to/lastmile_qr_scan", "android": "https://dc.lft.to/lastmile_qr_scan"}, "is_reserved": 0}, {"lon": -76.99060433333334, "bike_id": "35812130b286a7d26d24262f56ae9e0b", "lat": 38.898246666666665, "fusion_lon": 0.0, "fusion_lat": 0.0, "type": "electric_bike", "name": "35812130b286a7d26d24262f56ae9e0b", "is_disabled": 0, "rental_uris": {"ios": "https://dc.lft.to/lastmile_qr_scan", "android": "https://dc.lft.to/lastmile_qr_scan"}, "is_reserved": 0}, {"lon": -76.9877655, "bike_id": "2a608165927b763cc3c5ff7cfa4b8cc7", "lat": 38.86602533333333, "fusion_lon": 0.0, "fusion_lat": 0.0, "type": "electric_bike", "name": "2a608165927b763cc3c5ff7cfa4b8cc7", "is_disabled": 0, "rental_uris": {"ios": "https://dc.lft.to/lastmile_qr_scan", "android": "https://dc.lft.to/lastmile_qr_scan"}, "is_reserved": 0}, {"lon": -77.03169783333334, "bike_id": "e556626c60f7acb0cafcdb58bf78b44d", "lat": 38.93607033333333, "fusion_lon": 0.0, "fusion_lat": 0.0, "type": "electric_scooter", "name": "e556626c60f7acb0cafcdb58bf78b44d", "is_disabled": 0, "rental_uris": {"ios": "https://dc.lft.to/lastmile_qr_scan", "android": "https://dc.lft.to/lastmile_qr_scan"}, "is_reserved": 0}, {"lon": -77.00467566666667, "bike_id": "63ee21285364fb32c104c2a77f291a6d", "lat": 38.877535, "fusion_lon": 0.0, "fusion_lat": 0.0, "type": "electric_scooter", "name": "63ee21285364fb32c104c2a77f291a6d", "is_disabled": 0, "rental_uris": {"ios": "https://dc.lft.to/lastmile_qr_scan", "android": "https://dc.lft.to/lastmile_qr_scan"}, "is_reserved": 0}, {"lon": -77.02204683333333, "bike_id": "8fcc4ff798c5df73d93449feaa2af786", "lat": 38.895131166666665, "fusion_lon": 0.0, "fusion_lat": 0.0, "type": "electric_scooter", "name": "8fcc4ff798c5df73d93449feaa2af786", "is_disabled": 0, "rental_uris": {"ios": "https://dc.lft.to/lastmile_qr_scan", "android": "https://dc.lft.to/lastmile_qr_scan"}, "is_reserved": 0}, {"lon": -77.03466733333333, "bike_id": "3565cd2d444c22bea2b16a7789329f4e", "lat": 38.905569166666666, "fusion_lon": 0.0, "fusion_lat": 0.0, "type": "electric_scooter", "name": "3565cd2d444c22bea2b16a7789329f4e", "is_disabled": 0, "rental_uris": {"ios": "https://dc.lft.to/lastmile_qr_scan", "android": "https://dc.lft.to/lastmile_qr_scan"}, "is_reserved": 0}, {"lon": -77.1856315, "bike_id": "a64547741057fc251e3e1181cf29dda9", "lat": 39.09977216666667, "fusion_lon": 0.0, "fusion_lat": 0.0, "type": "electric_bike", "name": "a64547741057fc251e3e1181cf29dda9", "is_disabled": 0, "rental_uris": {"ios": "https://dc.lft.to/lastmile_qr_scan", "android": "https://dc.lft.to/lastmile_qr_scan"}, "is_reserved": 0}, {"lon": -76.99953183333334, "bike_id": "62d96591b4ff6797d4ade64f9dc78f90", "lat": 38.907546833333335, "fusion_lon": 0.0, "fusion_lat": 0.0, "type": "electric_scooter", "name": "62d96591b4ff6797d4ade64f9dc78f90", "is_disabled": 0, "rental_uris": {"ios": "https://dc.lft.to/lastmile_qr_scan", "android": "https://dc.lft.to/lastmile_qr_scan"}, "is_reserved": 0}, {"lon": -76.97739033333333, "bike_id": "87216f9d750e6dd6e419c58d86c6c1cb", "lat": 38.86486633333333, "fusion_lon": 0.0, "fusion_lat": 0.0, "type": "electric_bike", "name": "87216f9d750e6dd6e419c58d86c6c1cb", "is_disabled": 0, "rental_uris": {"ios": "https://dc.lft.to/lastmile_qr_scan", "android": "https://dc.lft.to/lastmile_qr_scan"}, "is_reserved": 0}, {"lon": -77.0267465, "bike_id": "794e7c161a2740f7c6d2c04de4418aa7", "lat": 38.912558833333335, "fusion_lon": 0.0, "fusion_lat": 0.0, "type": "electric_scooter", "name": "794e7c161a2740f7c6d2c04de4418aa7", "is_disabled": 0, "rental_uris": {"ios": "https://dc.lft.to/lastmile_qr_scan", "android": "https://dc.lft.to/lastmile_qr_scan"}, "is_reserved": 0}, {"lon": -77.03659666666667, "bike_id": "ebba28e919c90203375a4184c9fe61a7", "lat": 38.91754, "fusion_lon": 0.0, "fusion_lat": 0.0, "type": "electric_scooter", "name": "ebba28e919c90203375a4184c9fe61a7", "is_disabled": 0, "rental_uris": {"ios": "https://dc.lft.to/lastmile_qr_scan", "android": "https://dc.lft.to/lastmile_qr_scan"}, "is_reserved": 0}, {"lon": -77.04363116666667, "bike_id": "3c524c290f791005e8f7b8e7247146cc", "lat": 38.91116866666667, "fusion_lon": 0.0, "fusion_lat": 0.0, "type": "electric_scooter", "name": "3c524c290f791005e8f7b8e7247146cc", "is_disabled": 0, "rental_uris": {"ios": "https://dc.lft.to/lastmile_qr_scan", "android": "https://dc.lft.to/lastmile_qr_scan"}, "is_reserved": 0}, {"lon": -76.90604, "bike_id": "a73afd8974611d0c70bceb5c7e489f2e", "lat": 39.00462316666667, "fusion_lon": 0.0, "fusion_lat": 0.0, "type": "electric_bike", "name": "a73afd8974611d0c70bceb5c7e489f2e", "is_disabled": 0, "rental_uris": {"ios": "https://dc.lft.to/lastmile_qr_scan", "android": "https://dc.lft.to/lastmile_qr_scan"}, "is_reserved": 0}, {"lon": -77.0366195, "bike_id": "0e9049e8900c6e7282a876755b20cbbc", "lat": 38.917513666666665, "fusion_lon": 0.0, "fusion_lat": 0.0, "type": "electric_scooter", "name": "0e9049e8900c6e7282a876755b20cbbc", "is_disabled": 0, "rental_uris": {"ios": "https://dc.lft.to/lastmile_qr_scan", "android": "https://dc.lft.to/lastmile_qr_scan"}, "is_reserved": 0}, {"lon": -77.00382433333333, "bike_id": "8edc05e297ebfde00ecd2e5320c48f68", "lat": 38.89755483333333, "fusion_lon": 0.0, "fusion_lat": 0.0, "type": "electric_scooter", "name": "8edc05e297ebfde00ecd2e5320c48f68", "is_disabled": 0, "rental_uris": {"ios": "https://dc.lft.to/lastmile_qr_scan", "android": "https://dc.lft.to/lastmile_qr_scan"}, "is_reserved": 0}, {"lon": -77.009851, "bike_id": "f5e75b7714d34e51ae71739e675322b8", "lat": 38.87290133333333, "fusion_lon": 0.0, "fusion_lat": 0.0, "type": "electric_scooter", "name": "f5e75b7714d34e51ae71739e675322b8", "is_disabled": 0, "rental_uris": {"ios": "https://dc.lft.to/lastmile_qr_scan", "android": "https://dc.lft.to/lastmile_qr_scan"}, "is_reserved": 0}, {"lon": -77.03199733333334, "bike_id": "5d8d6694cc6fb14561988d1d5c051ce1", "lat": 38.91202833333333, "fusion_lon": 0.0, "fusion_lat": 0.0, "type": "electric_scooter", "name": "5d8d6694cc6fb14561988d1d5c051ce1", "is_disabled": 0, "rental_uris": {"ios": "https://dc.lft.to/lastmile_qr_scan", "android": "https://dc.lft.to/lastmile_qr_scan"}, "is_reserved": 0}, {"lon": -77.0347905, "bike_id": "08d3cc203bcbd6eb4e381f6f27a8d45e", "lat": 38.919158833333334, "fusion_lon": 0.0, "fusion_lat": 0.0, "type": "electric_scooter", "name": "08d3cc203bcbd6eb4e381f6f27a8d45e", "is_disabled": 0, "rental_uris": {"ios": "https://dc.lft.to/lastmile_qr_scan", "android": "https://dc.lft.to/lastmile_qr_scan"}, "is_reserved": 0}, {"lon": -77.36082033333334, "bike_id": "1af7198684b37a4351c5cd5d8073e3ad", "lat": 38.9395445, "fusion_lon": 0.0, "fusion_lat": 0.0, "type": "electric_bike", "name": "1af7198684b37a4351c5cd5d8073e3ad", "is_disabled": 0, "rental_uris": {"ios": "https://dc.lft.to/lastmile_qr_scan", "android": "https://dc.lft.to/lastmile_qr_scan"}, "is_reserved": 0}, {"lon": -77.01657116666667, "bike_id": "d2924db200e1844ed965c76919f239d9", "lat": 38.887420166666665, "fusion_lon": 0.0, "fusion_lat": 0.0, "type": "electric_scooter", "name": "d2924db200e1844ed965c76919f239d9", "is_disabled": 0, "rental_uris": {"ios": "https://dc.lft.to/lastmile_qr_scan", "android": "https://dc.lft.to/lastmile_qr_scan"}, "is_reserved": 0}, {"lon": -76.986154, "bike_id": "2c88cf7db8f7bf6c27bfac841dc8ab36", "lat": 38.938305166666666, "fusion_lon": 0.0, "fusion_lat": 0.0, "type": "electric_scooter", "name": "2c88cf7db8f7bf6c27bfac841dc8ab36", "is_disabled": 0, "rental_uris": {"ios": "https://dc.lft.to/lastmile_qr_scan", "android": "https://dc.lft.to/lastmile_qr_scan"}, "is_reserved": 0}, {"lon": -77.016182, "bike_id": "575e79457d688abee846af1cb4b4ae68", "lat": 38.96564133333333, "fusion_lon": 0.0, "fusion_lat": 0.0, "type": "electric_scooter", "name": "575e79457d688abee846af1cb4b4ae68", "is_disabled": 0, "rental_uris": {"ios": "https://dc.lft.to/lastmile_qr_scan", "android": "https://dc.lft.to/lastmile_qr_scan"}, "is_reserved": 0}, {"lon": -77.05482516666666, "bike_id": "797a2f6ace9d6ee509133cb620c2624d", "lat": 38.90862766666667, "fusion_lon": 0.0, "fusion_lat": 0.0, "type": "electric_bike", "name": "797a2f6ace9d6ee509133cb620c2624d", "is_disabled": 0, "rental_uris": {"ios": "https://dc.lft.to/lastmile_qr_scan", "android": "https://dc.lft.to/lastmile_qr_scan"}, "is_reserved": 0}, {"lon": -77.03229633333333, "bike_id": "8e0462f6969b0c8ca4fbff568c163a0a", "lat": 38.92750366666667, "fusion_lon": 0.0, "fusion_lat": 0.0, "type": "electric_scooter", "name": "8e0462f6969b0c8ca4fbff568c163a0a", "is_disabled": 0, "rental_uris": {"ios": "https://dc.lft.to/lastmile_qr_scan", "android": "https://dc.lft.to/lastmile_qr_scan"}, "is_reserved": 0}, {"lon": -76.94633516666667, "bike_id": "10624fc4570d3d97f6f5d1e1480485e9", "lat": 38.89833266666667, "fusion_lon": 0.0, "fusion_lat": 0.0, "type": "electric_scooter", "name": "10624fc4570d3d97f6f5d1e1480485e9", "is_disabled": 0, "rental_uris": {"ios": "https://dc.lft.to/lastmile_qr_scan", "android": "https://dc.lft.to/lastmile_qr_scan"}, "is_reserved": 0}, {"lon": -77.02161733333334, "bike_id": "c85e8d42e9cdda718a73c1e06e41f07c", "lat": 38.92614, "fusion_lon": 0.0, "fusion_lat": 0.0, "type": "electric_scooter", "name": "c85e8d42e9cdda718a73c1e06e41f07c", "is_disabled": 0, "rental_uris": {"ios": "https://dc.lft.to/lastmile_qr_scan", "android": "https://dc.lft.to/lastmile_qr_scan"}, "is_reserved": 0}, {"lon": -76.9770285, "bike_id": "844c5aa7fe3318251a1668c08af35999", "lat": 38.949185666666665, "fusion_lon": 0.0, "fusion_lat": 0.0, "type": "electric_bike", "name": "844c5aa7fe3318251a1668c08af35999", "is_disabled": 0, "rental_uris": {"ios": "https://dc.lft.to/lastmile_qr_scan", "android": "https://dc.lft.to/lastmile_qr_scan"}, "is_reserved": 0}, {"lon": -77.02384483333333, "bike_id": "b5f5cd5c7d01444723a7dc8634dac2ab", "lat": 38.89979533333333, "fusion_lon": 0.0, "fusion_lat": 0.0, "type": "electric_scooter", "name": "b5f5cd5c7d01444723a7dc8634dac2ab", "is_disabled": 0, "rental_uris": {"ios": "https://dc.lft.to/lastmile_qr_scan", "android": "https://dc.lft.to/lastmile_qr_scan"}, "is_reserved": 0}, {"lon": -76.99428966666666, "bike_id": "9997b47c409de243c82750252dffa538", "lat": 38.836037166666664, "fusion_lon": 0.0, "fusion_lat": 0.0, "type": "electric_scooter", "name": "9997b47c409de243c82750252dffa538", "is_disabled": 0, "rental_uris": {"ios": "https://dc.lft.to/lastmile_qr_scan", "android": "https://dc.lft.to/lastmile_qr_scan"}, "is_reserved": 0}, {"lon": -77.0067465, "bike_id": "2dacf9ca14ea6e4e6067b24c4bb25550", "lat": 38.9451465, "fusion_lon": 0.0, "fusion_lat": 0.0, "type": "electric_bike", "name": "2dacf9ca14ea6e4e6067b24c4bb25550", "is_disabled": 0, "rental_uris": {"ios": "https://dc.lft.to/lastmile_qr_scan", "android": "https://dc.lft.to/lastmile_qr_scan"}, "is_reserved": 0}, {"lon": -77.0363885, "bike_id": "a710d22cf2b498c103c19bca453d3c6f", "lat": 38.91853716666667, "fusion_lon": 0.0, "fusion_lat": 0.0, "type": "electric_scooter", "name": "a710d22cf2b498c103c19bca453d3c6f", "is_disabled": 0, "rental_uris": {"ios": "https://dc.lft.to/lastmile_qr_scan", "android": "https://dc.lft.to/lastmile_qr_scan"}, "is_reserved": 0}, {"lon": -76.94192583333333, "bike_id": "f1363b18d454fa1c4578618e59ed5e74", "lat": 38.8930815, "fusion_lon": 0.0, "fusion_lat": 0.0, "type": "electric_bike", "name": "f1363b18d454fa1c4578618e59ed5e74", "is_disabled": 0, "rental_uris": {"ios": "https://dc.lft.to/lastmile_qr_scan", "android": "https://dc.lft.to/lastmile_qr_scan"}, "is_reserved": 0}, {"lon": -76.99502533333333, "bike_id": "7e7999c64a057f8e39c52034004e3514", "lat": 38.88344283333333, "fusion_lon": 0.0, "fusion_lat": 0.0, "type": "electric_scooter", "name": "7e7999c64a057f8e39c52034004e3514", "is_disabled": 0, "rental_uris": {"ios": "https://dc.lft.to/lastmile_qr_scan", "android": "https://dc.lft.to/lastmile_qr_scan"}, "is_reserved": 0}, {"lon": -77.091667, "bike_id": "84296429d61164a47fd810a192283d99", "lat": 38.945607833333334, "fusion_lon": 0.0, "fusion_lat": 0.0, "type": "electric_scooter", "name": "84296429d61164a47fd810a192283d99", "is_disabled": 0, "rental_uris": {"ios": "https://dc.lft.to/lastmile_qr_scan", "android": "https://dc.lft.to/lastmile_qr_scan"}, "is_reserved": 0}, {"lon": -77.02552366666667, "bike_id": "7efa28fae37e8e35ee8164e10910d1a6", "lat": 38.941365833333336, "fusion_lon": 0.0, "fusion_lat": 0.0, "type": "electric_scooter", "name": "7efa28fae37e8e35ee8164e10910d1a6", "is_disabled": 0, "rental_uris": {"ios": "https://dc.lft.to/lastmile_qr_scan", "android": "https://dc.lft.to/lastmile_qr_scan"}, "is_reserved": 0}, {"lon": -77.02167, "bike_id": "d042f5e5b0db3f9322defea8115d3002", "lat": 38.887446833333335, "fusion_lon": 0.0, "fusion_lat": 0.0, "type": "electric_scooter", "name": "d042f5e5b0db3f9322defea8115d3002", "is_disabled": 0, "rental_uris": {"ios": "https://dc.lft.to/lastmile_qr_scan", "android": "https://dc.lft.to/lastmile_qr_scan"}, "is_reserved": 0}, {"lon": -76.945689, "bike_id": "520d4b8ea0e5de6265f04efe75a1eb0a", "lat": 38.8662015, "fusion_lon": 0.0, "fusion_lat": 0.0, "type": "electric_bike", "name": "520d4b8ea0e5de6265f04efe75a1eb0a", "is_disabled": 0, "rental_uris": {"ios": "https://dc.lft.to/lastmile_qr_scan", "android": "https://dc.lft.to/lastmile_qr_scan"}, "is_reserved": 0}, {"lon": -77.03489066666667, "bike_id": "6aa7e4db4eeb4f65ff682dd1e8bd80d7", "lat": 38.9327555, "fusion_lon": 0.0, "fusion_lat": 0.0, "type": "electric_scooter", "name": "6aa7e4db4eeb4f65ff682dd1e8bd80d7", "is_disabled": 0, "rental_uris": {"ios": "https://dc.lft.to/lastmile_qr_scan", "android": "https://dc.lft.to/lastmile_qr_scan"}, "is_reserved": 0}, {"lon": -76.9944745, "bike_id": "f7a7625d04c84937075d5c2815237da3", "lat": 38.900234833333336, "fusion_lon": 0.0, "fusion_lat": 0.0, "type": "electric_scooter", "name": "f7a7625d04c84937075d5c2815237da3", "is_disabled": 0, "rental_uris": {"ios": "https://dc.lft.to/lastmile_qr_scan", "android": "https://dc.lft.to/lastmile_qr_scan"}, "is_reserved": 0}, {"lon": -77.04414166666666, "bike_id": "e82e8e72bde4007ead670e7beb5e20be", "lat": 38.912516333333336, "fusion_lon": 0.0, "fusion_lat": 0.0, "type": "electric_scooter", "name": "e82e8e72bde4007ead670e7beb5e20be", "is_disabled": 0, "rental_uris": {"ios": "https://dc.lft.to/lastmile_qr_scan", "android": "https://dc.lft.to/lastmile_qr_scan"}, "is_reserved": 0}, {"lon": -76.98228383333333, "bike_id": "7e42272f61825ff76025fddc05a0934a", "lat": 38.91652083333334, "fusion_lon": 0.0, "fusion_lat": 0.0, "type": "electric_scooter", "name": "7e42272f61825ff76025fddc05a0934a", "is_disabled": 0, "rental_uris": {"ios": "https://dc.lft.to/lastmile_qr_scan", "android": "https://dc.lft.to/lastmile_qr_scan"}, "is_reserved": 0}, {"lon": -77.00189933333333, "bike_id": "5cc461e3744a54764a75ebf935aea925", "lat": 38.90036383333333, "fusion_lon": 0.0, "fusion_lat": 0.0, "type": "electric_scooter", "name": "5cc461e3744a54764a75ebf935aea925", "is_disabled": 0, "rental_uris": {"ios": "https://dc.lft.to/lastmile_qr_scan", "android": "https://dc.lft.to/lastmile_qr_scan"}, "is_reserved": 0}, {"lon": -77.07771216666667, "bike_id": "fc608103ea29586b35ce930e1dc48ce7", "lat": 38.95050533333333, "fusion_lon": 0.0, "fusion_lat": 0.0, "type": "electric_scooter", "name": "fc608103ea29586b35ce930e1dc48ce7", "is_disabled": 0, "rental_uris": {"ios": "https://dc.lft.to/lastmile_qr_scan", "android": "https://dc.lft.to/lastmile_qr_scan"}, "is_reserved": 0}, {"lon": -76.944211, "bike_id": "969ca9f902e9d23ad72e5290878139fa", "lat": 38.9662025, "fusion_lon": 0.0, "fusion_lat": 0.0, "type": "electric_bike", "name": "969ca9f902e9d23ad72e5290878139fa", "is_disabled": 0, "rental_uris": {"ios": "https://dc.lft.to/lastmile_qr_scan", "android": "https://dc.lft.to/lastmile_qr_scan"}, "is_reserved": 0}, {"lon": -77.04502883333333, "bike_id": "52bb9edf237ca6a6c447c4da4b3ed0e4", "lat": 38.9072855, "fusion_lon": 0.0, "fusion_lat": 0.0, "type": "electric_scooter", "name": "52bb9edf237ca6a6c447c4da4b3ed0e4", "is_disabled": 0, "rental_uris": {"ios": "https://dc.lft.to/lastmile_qr_scan", "android": "https://dc.lft.to/lastmile_qr_scan"}, "is_reserved": 0}, {"lon": -77.00138916666667, "bike_id": "a6ea377be6870212d76a907fc49ba5cd", "lat": 38.842856166666664, "fusion_lon": 0.0, "fusion_lat": 0.0, "type": "electric_scooter", "name": "a6ea377be6870212d76a907fc49ba5cd", "is_disabled": 0, "rental_uris": {"ios": "https://dc.lft.to/lastmile_qr_scan", "android": "https://dc.lft.to/lastmile_qr_scan"}, "is_reserved": 0}, {"lon": -77.036584, "bike_id": "76a222d8a3e652a9dfeab00a6d86e067", "lat": 38.921041833333334, "fusion_lon": 0.0, "fusion_lat": 0.0, "type": "electric_scooter", "name": "76a222d8a3e652a9dfeab00a6d86e067", "is_disabled": 0, "rental_uris": {"ios": "https://dc.lft.to/lastmile_qr_scan", "android": "https://dc.lft.to/lastmile_qr_scan"}, "is_reserved": 0}, {"lon": -77.00268433333333, "bike_id": "5d8a5dd1f65112c589c1d29c4820be25", "lat": 38.91166833333333, "fusion_lon": 0.0, "fusion_lat": 0.0, "type": "electric_bike", "name": "5d8a5dd1f65112c589c1d29c4820be25", "is_disabled": 0, "rental_uris": {"ios": "https://dc.lft.to/lastmile_qr_scan", "android": "https://dc.lft.to/lastmile_qr_scan"}, "is_reserved": 0}, {"lon": -76.931768, "bike_id": "f774e65d1874467afe7402cdca7882f9", "lat": 38.8988485, "fusion_lon": 0.0, "fusion_lat": 0.0, "type": "electric_scooter", "name": "f774e65d1874467afe7402cdca7882f9", "is_disabled": 0, "rental_uris": {"ios": "https://dc.lft.to/lastmile_qr_scan", "android": "https://dc.lft.to/lastmile_qr_scan"}, "is_reserved": 0}, {"lon": -77.03266433333333, "bike_id": "e418332f75b9116615b9b246fae9a1f4", "lat": 38.93441716666667, "fusion_lon": 0.0, "fusion_lat": 0.0, "type": "electric_scooter", "name": "e418332f75b9116615b9b246fae9a1f4", "is_disabled": 0, "rental_uris": {"ios": "https://dc.lft.to/lastmile_qr_scan", "android": "https://dc.lft.to/lastmile_qr_scan"}, "is_reserved": 0}, {"lon": -77.0446525, "bike_id": "fb2dbb877679056c6e68277821194bbb", "lat": 38.9004585, "fusion_lon": 0.0, "fusion_lat": 0.0, "type": "electric_scooter", "name": "fb2dbb877679056c6e68277821194bbb", "is_disabled": 0, "rental_uris": {"ios": "https://dc.lft.to/lastmile_qr_scan", "android": "https://dc.lft.to/lastmile_qr_scan"}, "is_reserved": 0}, {"lon": -77.03166816666666, "bike_id": "58475ac739e7ece108a45a451d7e63b8", "lat": 38.884102166666665, "fusion_lon": 0.0, "fusion_lat": 0.0, "type": "electric_scooter", "name": "58475ac739e7ece108a45a451d7e63b8", "is_disabled": 0, "rental_uris": {"ios": "https://dc.lft.to/lastmile_qr_scan", "android": "https://dc.lft.to/lastmile_qr_scan"}, "is_reserved": 0}, {"lon": -77.04333916666667, "bike_id": "4adff8c0c4a05144a5db0bdb699046e0", "lat": 38.90879433333333, "fusion_lon": 0.0, "fusion_lat": 0.0, "type": "electric_scooter", "name": "4adff8c0c4a05144a5db0bdb699046e0", "is_disabled": 0, "rental_uris": {"ios": "https://dc.lft.to/lastmile_qr_scan", "android": "https://dc.lft.to/lastmile_qr_scan"}, "is_reserved": 0}, {"lon": -76.95009866666666, "bike_id": "d6b92348d9b733039d5b5af3991595ea", "lat": 38.89393116666667, "fusion_lon": 0.0, "fusion_lat": 0.0, "type": "electric_scooter", "name": "d6b92348d9b733039d5b5af3991595ea", "is_disabled": 0, "rental_uris": {"ios": "https://dc.lft.to/lastmile_qr_scan", "android": "https://dc.lft.to/lastmile_qr_scan"}, "is_reserved": 0}, {"lon": -77.0216705, "bike_id": "4ff7d5e55b145f06c505450a13a39f6e", "lat": 38.9429235, "fusion_lon": 0.0, "fusion_lat": 0.0, "type": "electric_scooter", "name": "4ff7d5e55b145f06c505450a13a39f6e", "is_disabled": 0, "rental_uris": {"ios": "https://dc.lft.to/lastmile_qr_scan", "android": "https://dc.lft.to/lastmile_qr_scan"}, "is_reserved": 0}, {"lon": -77.0140135, "bike_id": "72c54ef0a17e066ef009e4889191fd5d", "lat": 38.92851483333333, "fusion_lon": 0.0, "fusion_lat": 0.0, "type": "electric_scooter", "name": "72c54ef0a17e066ef009e4889191fd5d", "is_disabled": 0, "rental_uris": {"ios": "https://dc.lft.to/lastmile_qr_scan", "android": "https://dc.lft.to/lastmile_qr_scan"}, "is_reserved": 0}, {"lon": -77.03248283333333, "bike_id": "ccc05231b5068f50a286efd2e99e3626", "lat": 38.8970165, "fusion_lon": 0.0, "fusion_lat": 0.0, "type": "electric_bike", "name": "ccc05231b5068f50a286efd2e99e3626", "is_disabled": 0, "rental_uris": {"ios": "https://dc.lft.to/lastmile_qr_scan", "android": "https://dc.lft.to/lastmile_qr_scan"}, "is_reserved": 0}, {"lon": -77.026898, "bike_id": "da1eb8d2cd983668463a7a0eaacf1a55", "lat": 38.9488475, "fusion_lon": 0.0, "fusion_lat": 0.0, "type": "electric_scooter", "name": "da1eb8d2cd983668463a7a0eaacf1a55", "is_disabled": 0, "rental_uris": {"ios": "https://dc.lft.to/lastmile_qr_scan", "android": "https://dc.lft.to/lastmile_qr_scan"}, "is_reserved": 0}, {"lon": -77.01540183333333, "bike_id": "afe622891eab299d78a7e93d64426a9f", "lat": 38.88314916666667, "fusion_lon": 0.0, "fusion_lat": 0.0, "type": "electric_scooter", "name": "afe622891eab299d78a7e93d64426a9f", "is_disabled": 0, "rental_uris": {"ios": "https://dc.lft.to/lastmile_qr_scan", "android": "https://dc.lft.to/lastmile_qr_scan"}, "is_reserved": 0}, {"lon": -76.98534666666667, "bike_id": "840688bbdf0edbbb3a380df0b57235e9", "lat": 38.9102635, "fusion_lon": 0.0, "fusion_lat": 0.0, "type": "electric_scooter", "name": "840688bbdf0edbbb3a380df0b57235e9", "is_disabled": 0, "rental_uris": {"ios": "https://dc.lft.to/lastmile_qr_scan", "android": "https://dc.lft.to/lastmile_qr_scan"}, "is_reserved": 0}, {"lon": -77.014887, "bike_id": "5c9be0268e350416bdd76b1a92169f08", "lat": 38.927302833333336, "fusion_lon": 0.0, "fusion_lat": 0.0, "type": "electric_scooter", "name": "5c9be0268e350416bdd76b1a92169f08", "is_disabled": 0, "rental_uris": {"ios": "https://dc.lft.to/lastmile_qr_scan", "android": "https://dc.lft.to/lastmile_qr_scan"}, "is_reserved": 0}, {"lon": -77.026838, "bike_id": "2d27b226dc3b8c80d4df91c0921aa027", "lat": 38.984887, "fusion_lon": 0.0, "fusion_lat": 0.0, "type": "electric_scooter", "name": "2d27b226dc3b8c80d4df91c0921aa027", "is_disabled": 0, "rental_uris": {"ios": "https://dc.lft.to/lastmile_qr_scan", "android": "https://dc.lft.to/lastmile_qr_scan"}, "is_reserved": 0}, {"lon": -76.9875175, "bike_id": "2edef2d51e890f0c762e7aee7c491d7e", "lat": 38.903874, "fusion_lon": 0.0, "fusion_lat": 0.0, "type": "electric_scooter", "name": "2edef2d51e890f0c762e7aee7c491d7e", "is_disabled": 0, "rental_uris": {"ios": "https://dc.lft.to/lastmile_qr_scan", "android": "https://dc.lft.to/lastmile_qr_scan"}, "is_reserved": 0}, {"lon": -77.0431825, "bike_id": "8c2cbdd4038aa91cdfb41cfd4a5d0b78", "lat": 38.918843, "fusion_lon": 0.0, "fusion_lat": 0.0, "type": "electric_scooter", "name": "8c2cbdd4038aa91cdfb41cfd4a5d0b78", "is_disabled": 0, "rental_uris": {"ios": "https://dc.lft.to/lastmile_qr_scan", "android": "https://dc.lft.to/lastmile_qr_scan"}, "is_reserved": 0}, {"lon": -77.06870216666667, "bike_id": "7e796f8a80a90bd2deedfc5d1510fb2c", "lat": 38.9526865, "fusion_lon": 0.0, "fusion_lat": 0.0, "type": "electric_scooter", "name": "7e796f8a80a90bd2deedfc5d1510fb2c", "is_disabled": 0, "rental_uris": {"ios": "https://dc.lft.to/lastmile_qr_scan", "android": "https://dc.lft.to/lastmile_qr_scan"}, "is_reserved": 0}, {"lon": -77.0215165, "bike_id": "20b2a2d42dbfafa1a691a8142ecb0888", "lat": 38.92600566666667, "fusion_lon": 0.0, "fusion_lat": 0.0, "type": "electric_scooter", "name": "20b2a2d42dbfafa1a691a8142ecb0888", "is_disabled": 0, "rental_uris": {"ios": "https://dc.lft.to/lastmile_qr_scan", "android": "https://dc.lft.to/lastmile_qr_scan"}, "is_reserved": 0}, {"lon": -77.03656866666667, "bike_id": "22a7abbdc68327a179bb68674e161015", "lat": 38.924964, "fusion_lon": 0.0, "fusion_lat": 0.0, "type": "electric_bike", "name": "22a7abbdc68327a179bb68674e161015", "is_disabled": 0, "rental_uris": {"ios": "https://dc.lft.to/lastmile_qr_scan", "android": "https://dc.lft.to/lastmile_qr_scan"}, "is_reserved": 0}, {"lon": -77.032208, "bike_id": "fbc9b9fa5813cbb82d7af08332b12e20", "lat": 38.91816433333334, "fusion_lon": 0.0, "fusion_lat": 0.0, "type": "electric_scooter", "name": "fbc9b9fa5813cbb82d7af08332b12e20", "is_disabled": 0, "rental_uris": {"ios": "https://dc.lft.to/lastmile_qr_scan", "android": "https://dc.lft.to/lastmile_qr_scan"}, "is_reserved": 0}, {"lon": -77.03292616666667, "bike_id": "56422c28627a61b72ea44312659c7e91", "lat": 38.9564815, "fusion_lon": 0.0, "fusion_lat": 0.0, "type": "electric_scooter", "name": "56422c28627a61b72ea44312659c7e91", "is_disabled": 0, "rental_uris": {"ios": "https://dc.lft.to/lastmile_qr_scan", "android": "https://dc.lft.to/lastmile_qr_scan"}, "is_reserved": 0}, {"lon": -77.03281566666666, "bike_id": "943bc33578ce00b393d102cf09b764e3", "lat": 38.936424, "fusion_lon": 0.0, "fusion_lat": 0.0, "type": "electric_scooter", "name": "943bc33578ce00b393d102cf09b764e3", "is_disabled": 0, "rental_uris": {"ios": "https://dc.lft.to/lastmile_qr_scan", "android": "https://dc.lft.to/lastmile_qr_scan"}, "is_reserved": 0}, {"lon": -77.02208433333334, "bike_id": "2ecb72235892967f11026dab95e45df3", "lat": 38.87886866666667, "fusion_lon": 0.0, "fusion_lat": 0.0, "type": "electric_bike", "name": "2ecb72235892967f11026dab95e45df3", "is_disabled": 0, "rental_uris": {"ios": "https://dc.lft.to/lastmile_qr_scan", "android": "https://dc.lft.to/lastmile_qr_scan"}, "is_reserved": 0}, {"lon": -76.99155383333333, "bike_id": "d9c7882f52885f09cae247bf438bea25", "lat": 38.909552, "fusion_lon": 0.0, "fusion_lat": 0.0, "type": "electric_scooter", "name": "d9c7882f52885f09cae247bf438bea25", "is_disabled": 0, "rental_uris": {"ios": "https://dc.lft.to/lastmile_qr_scan", "android": "https://dc.lft.to/lastmile_qr_scan"}, "is_reserved": 0}, {"lon": -77.07327116666667, "bike_id": "4f738d8b98e635089b1f04144ee79193", "lat": 38.934835166666666, "fusion_lon": 0.0, "fusion_lat": 0.0, "type": "electric_scooter", "name": "4f738d8b98e635089b1f04144ee79193", "is_disabled": 0, "rental_uris": {"ios": "https://dc.lft.to/lastmile_qr_scan", "android": "https://dc.lft.to/lastmile_qr_scan"}, "is_reserved": 0}, {"lon": -77.00191866666667, "bike_id": "1fd34d6382579160b8a0165c29342284", "lat": 38.90041183333334, "fusion_lon": 0.0, "fusion_lat": 0.0, "type": "electric_scooter", "name": "1fd34d6382579160b8a0165c29342284", "is_disabled": 0, "rental_uris": {"ios": "https://dc.lft.to/lastmile_qr_scan", "android": "https://dc.lft.to/lastmile_qr_scan"}, "is_reserved": 0}, {"lon": -77.17838683333333, "bike_id": "08ddd327ab679c23d4ca5148bdf803d4", "lat": 39.088560666666666, "fusion_lon": 0.0, "fusion_lat": 0.0, "type": "electric_bike", "name": "08ddd327ab679c23d4ca5148bdf803d4", "is_disabled": 0, "rental_uris": {"ios": "https://dc.lft.to/lastmile_qr_scan", "android": "https://dc.lft.to/lastmile_qr_scan"}, "is_reserved": 0}, {"lon": -77.04388383333334, "bike_id": "b46396feb85b104b34832539441ccf95", "lat": 39.047189, "fusion_lon": 0.0, "fusion_lat": 0.0, "type": "electric_bike", "name": "b46396feb85b104b34832539441ccf95", "is_disabled": 0, "rental_uris": {"ios": "https://dc.lft.to/lastmile_qr_scan", "android": "https://dc.lft.to/lastmile_qr_scan"}, "is_reserved": 0}, {"lon": -77.04998183333333, "bike_id": "215f8b272f91e74c094226334c548d91", "lat": 38.892349833333334, "fusion_lon": 0.0, "fusion_lat": 0.0, "type": "electric_scooter", "name": "215f8b272f91e74c094226334c548d91", "is_disabled": 0, "rental_uris": {"ios": "https://dc.lft.to/lastmile_qr_scan", "android": "https://dc.lft.to/lastmile_qr_scan"}, "is_reserved": 0}, {"lon": -77.02218383333333, "bike_id": "2d4b235e59bcae77e97a0a3b4a4634fb", "lat": 38.926187, "fusion_lon": 0.0, "fusion_lat": 0.0, "type": "electric_scooter", "name": "2d4b235e59bcae77e97a0a3b4a4634fb", "is_disabled": 0, "rental_uris": {"ios": "https://dc.lft.to/lastmile_qr_scan", "android": "https://dc.lft.to/lastmile_qr_scan"}, "is_reserved": 0}, {"lon": -77.0440275, "bike_id": "af32f704a366957413c40982fc7aab2b", "lat": 38.92445266666667, "fusion_lon": 0.0, "fusion_lat": 0.0, "type": "electric_scooter", "name": "af32f704a366957413c40982fc7aab2b", "is_disabled": 0, "rental_uris": {"ios": "https://dc.lft.to/lastmile_qr_scan", "android": "https://dc.lft.to/lastmile_qr_scan"}, "is_reserved": 0}, {"lon": -77.02183983333333, "bike_id": "c75ce0c1e4fc1fdafe060db24aa1ad63", "lat": 38.93952016666667, "fusion_lon": 0.0, "fusion_lat": 0.0, "type": "electric_scooter", "name": "c75ce0c1e4fc1fdafe060db24aa1ad63", "is_disabled": 0, "rental_uris": {"ios": "https://dc.lft.to/lastmile_qr_scan", "android": "https://dc.lft.to/lastmile_qr_scan"}, "is_reserved": 0}, {"lon": -77.012666, "bike_id": "964b15110eba74da38c2d9c1623356f5", "lat": 38.91544583333334, "fusion_lon": 0.0, "fusion_lat": 0.0, "type": "electric_scooter", "name": "964b15110eba74da38c2d9c1623356f5", "is_disabled": 0, "rental_uris": {"ios": "https://dc.lft.to/lastmile_qr_scan", "android": "https://dc.lft.to/lastmile_qr_scan"}, "is_reserved": 0}, {"lon": -77.021101, "bike_id": "30e2368037821a73599c92c58f288d00", "lat": 38.90602583333333, "fusion_lon": 0.0, "fusion_lat": 0.0, "type": "electric_scooter", "name": "30e2368037821a73599c92c58f288d00", "is_disabled": 0, "rental_uris": {"ios": "https://dc.lft.to/lastmile_qr_scan", "android": "https://dc.lft.to/lastmile_qr_scan"}, "is_reserved": 0}, {"lon": -76.989208, "bike_id": "339243ac3138b5211a31d04015bdb59e", "lat": 38.858104, "fusion_lon": 0.0, "fusion_lat": 0.0, "type": "electric_scooter", "name": "339243ac3138b5211a31d04015bdb59e", "is_disabled": 0, "rental_uris": {"ios": "https://dc.lft.to/lastmile_qr_scan", "android": "https://dc.lft.to/lastmile_qr_scan"}, "is_reserved": 0}, {"lon": -77.0626425, "bike_id": "a75924323816b024bc2bad3da31bb65d", "lat": 38.90524166666667, "fusion_lon": 0.0, "fusion_lat": 0.0, "type": "electric_scooter", "name": "a75924323816b024bc2bad3da31bb65d", "is_disabled": 0, "rental_uris": {"ios": "https://dc.lft.to/lastmile_qr_scan", "android": "https://dc.lft.to/lastmile_qr_scan"}, "is_reserved": 0}, {"lon": -77.03200433333333, "bike_id": "da4f85cd8a027ca92c5c61478c46e3a9", "lat": 38.9166945, "fusion_lon": 0.0, "fusion_lat": 0.0, "type": "electric_scooter", "name": "da4f85cd8a027ca92c5c61478c46e3a9", "is_disabled": 0, "rental_uris": {"ios": "https://dc.lft.to/lastmile_qr_scan", "android": "https://dc.lft.to/lastmile_qr_scan"}, "is_reserved": 0}, {"lon": -77.001984, "bike_id": "3cc8dc3f35543fee59c45e4a42d6d1ab", "lat": 38.902411666666666, "fusion_lon": 0.0, "fusion_lat": 0.0, "type": "electric_scooter", "name": "3cc8dc3f35543fee59c45e4a42d6d1ab", "is_disabled": 0, "rental_uris": {"ios": "https://dc.lft.to/lastmile_qr_scan", "android": "https://dc.lft.to/lastmile_qr_scan"}, "is_reserved": 0}, {"lon": -76.99087766666666, "bike_id": "809e5565192a01718f2dac7f8fe9992b", "lat": 38.92866333333333, "fusion_lon": 0.0, "fusion_lat": 0.0, "type": "electric_bike", "name": "809e5565192a01718f2dac7f8fe9992b", "is_disabled": 0, "rental_uris": {"ios": "https://dc.lft.to/lastmile_qr_scan", "android": "https://dc.lft.to/lastmile_qr_scan"}, "is_reserved": 0}, {"lon": -77.02172133333333, "bike_id": "f4ca499610525d97acbc269d68bc2953", "lat": 38.89303116666667, "fusion_lon": 0.0, "fusion_lat": 0.0, "type": "electric_scooter", "name": "f4ca499610525d97acbc269d68bc2953", "is_disabled": 0, "rental_uris": {"ios": "https://dc.lft.to/lastmile_qr_scan", "android": "https://dc.lft.to/lastmile_qr_scan"}, "is_reserved": 0}, {"lon": -77.03344633333333, "bike_id": "f7c1ae1f86eb76bb54eafb163896bb1a", "lat": 38.89968116666667, "fusion_lon": 0.0, "fusion_lat": 0.0, "type": "electric_scooter", "name": "f7c1ae1f86eb76bb54eafb163896bb1a", "is_disabled": 0, "rental_uris": {"ios": "https://dc.lft.to/lastmile_qr_scan", "android": "https://dc.lft.to/lastmile_qr_scan"}, "is_reserved": 0}, {"lon": -76.99609783333334, "bike_id": "2bad09791ab2fc70a43ead17bcd1dc58", "lat": 38.92534066666666, "fusion_lon": 0.0, "fusion_lat": 0.0, "type": "electric_scooter", "name": "2bad09791ab2fc70a43ead17bcd1dc58", "is_disabled": 0, "rental_uris": {"ios": "https://dc.lft.to/lastmile_qr_scan", "android": "https://dc.lft.to/lastmile_qr_scan"}, "is_reserved": 0}, {"lon": -77.0237305, "bike_id": "9e267ea52c88e0ece6c490e9e01c0598", "lat": 38.9265665, "fusion_lon": 0.0, "fusion_lat": 0.0, "type": "electric_scooter", "name": "9e267ea52c88e0ece6c490e9e01c0598", "is_disabled": 0, "rental_uris": {"ios": "https://dc.lft.to/lastmile_qr_scan", "android": "https://dc.lft.to/lastmile_qr_scan"}, "is_reserved": 0}, {"lon": -77.0109965, "bike_id": "69f6f2766fd92bbe71973128b3d6eb86", "lat": 38.903799666666664, "fusion_lon": 0.0, "fusion_lat": 0.0, "type": "electric_scooter", "name": "69f6f2766fd92bbe71973128b3d6eb86", "is_disabled": 0, "rental_uris": {"ios": "https://dc.lft.to/lastmile_qr_scan", "android": "https://dc.lft.to/lastmile_qr_scan"}, "is_reserved": 0}, {"lon": -77.00635116666666, "bike_id": "ed3fa6563dd3c7b8d73c1d5d7c57e3f0", "lat": 38.95599216666667, "fusion_lon": 0.0, "fusion_lat": 0.0, "type": "electric_scooter", "name": "ed3fa6563dd3c7b8d73c1d5d7c57e3f0", "is_disabled": 0, "rental_uris": {"ios": "https://dc.lft.to/lastmile_qr_scan", "android": "https://dc.lft.to/lastmile_qr_scan"}, "is_reserved": 0}, {"lon": -77.02711066666667, "bike_id": "7d978c32926c734c89072641779fcab8", "lat": 38.9118625, "fusion_lon": 0.0, "fusion_lat": 0.0, "type": "electric_scooter", "name": "7d978c32926c734c89072641779fcab8", "is_disabled": 0, "rental_uris": {"ios": "https://dc.lft.to/lastmile_qr_scan", "android": "https://dc.lft.to/lastmile_qr_scan"}, "is_reserved": 0}, {"lon": -77.01998916666666, "bike_id": "255d59a0e19418cd707fe01beff8be68", "lat": 38.90442683333333, "fusion_lon": 0.0, "fusion_lat": 0.0, "type": "electric_scooter", "name": "255d59a0e19418cd707fe01beff8be68", "is_disabled": 0, "rental_uris": {"ios": "https://dc.lft.to/lastmile_qr_scan", "android": "https://dc.lft.to/lastmile_qr_scan"}, "is_reserved": 0}, {"lon": -76.987084, "bike_id": "22ccc837df31967e46da3356660a201d", "lat": 38.90023083333333, "fusion_lon": 0.0, "fusion_lat": 0.0, "type": "electric_scooter", "name": "22ccc837df31967e46da3356660a201d", "is_disabled": 0, "rental_uris": {"ios": "https://dc.lft.to/lastmile_qr_scan", "android": "https://dc.lft.to/lastmile_qr_scan"}, "is_reserved": 0}, {"lon": -77.0243785, "bike_id": "d81456413ab9574a4322929a36d0520e", "lat": 38.92495533333334, "fusion_lon": 0.0, "fusion_lat": 0.0, "type": "electric_scooter", "name": "d81456413ab9574a4322929a36d0520e", "is_disabled": 0, "rental_uris": {"ios": "https://dc.lft.to/lastmile_qr_scan", "android": "https://dc.lft.to/lastmile_qr_scan"}, "is_reserved": 0}, {"lon": -77.02977333333334, "bike_id": "ecaaa05c8670afb0c7c654a5f9502d3b", "lat": 38.92198, "fusion_lon": 0.0, "fusion_lat": 0.0, "type": "electric_scooter", "name": "ecaaa05c8670afb0c7c654a5f9502d3b", "is_disabled": 0, "rental_uris": {"ios": "https://dc.lft.to/lastmile_qr_scan", "android": "https://dc.lft.to/lastmile_qr_scan"}, "is_reserved": 0}, {"lon": -77.0315385, "bike_id": "a248153bfa0161c55c748d651f3ba5c9", "lat": 38.92004983333333, "fusion_lon": 0.0, "fusion_lat": 0.0, "type": "electric_scooter", "name": "a248153bfa0161c55c748d651f3ba5c9", "is_disabled": 0, "rental_uris": {"ios": "https://dc.lft.to/lastmile_qr_scan", "android": "https://dc.lft.to/lastmile_qr_scan"}, "is_reserved": 0}, {"lon": -77.02098, "bike_id": "363768cf6938f0025244847c7d34bb7c", "lat": 38.909769, "fusion_lon": 0.0, "fusion_lat": 0.0, "type": "electric_scooter", "name": "363768cf6938f0025244847c7d34bb7c", "is_disabled": 0, "rental_uris": {"ios": "https://dc.lft.to/lastmile_qr_scan", "android": "https://dc.lft.to/lastmile_qr_scan"}, "is_reserved": 0}, {"lon": -77.03429133333333, "bike_id": "bc002b294d002cdf253c3b2258a00728", "lat": 38.90301633333333, "fusion_lon": 0.0, "fusion_lat": 0.0, "type": "electric_scooter", "name": "bc002b294d002cdf253c3b2258a00728", "is_disabled": 0, "rental_uris": {"ios": "https://dc.lft.to/lastmile_qr_scan", "android": "https://dc.lft.to/lastmile_qr_scan"}, "is_reserved": 0}, {"lon": -77.0325685, "bike_id": "6761af8da5282c3a8f17ecdd86d9f267", "lat": 38.942766166666665, "fusion_lon": 0.0, "fusion_lat": 0.0, "type": "electric_scooter", "name": "6761af8da5282c3a8f17ecdd86d9f267", "is_disabled": 0, "rental_uris": {"ios": "https://dc.lft.to/lastmile_qr_scan", "android": "https://dc.lft.to/lastmile_qr_scan"}, "is_reserved": 0}, {"lon": -76.99539466666667, "bike_id": "3bc0f62a43a294105719cb5a7f713a1b", "lat": 38.8626075, "fusion_lon": 0.0, "fusion_lat": 0.0, "type": "electric_scooter", "name": "3bc0f62a43a294105719cb5a7f713a1b", "is_disabled": 0, "rental_uris": {"ios": "https://dc.lft.to/lastmile_qr_scan", "android": "https://dc.lft.to/lastmile_qr_scan"}, "is_reserved": 0}, {"lon": -76.96375, "bike_id": "33f42b30d399de3ad996509c78f8d3e9", "lat": 38.951759833333334, "fusion_lon": 0.0, "fusion_lat": 0.0, "type": "electric_bike", "name": "33f42b30d399de3ad996509c78f8d3e9", "is_disabled": 0, "rental_uris": {"ios": "https://dc.lft.to/lastmile_qr_scan", "android": "https://dc.lft.to/lastmile_qr_scan"}, "is_reserved": 0}, {"lon": -77.01631583333334, "bike_id": "3e2632729a0b726305314937fcf69a08", "lat": 38.900623833333334, "fusion_lon": 0.0, "fusion_lat": 0.0, "type": "electric_scooter", "name": "3e2632729a0b726305314937fcf69a08", "is_disabled": 0, "rental_uris": {"ios": "https://dc.lft.to/lastmile_qr_scan", "android": "https://dc.lft.to/lastmile_qr_scan"}, "is_reserved": 0}, {"lon": -77.028091, "bike_id": "29a9846f2d0ea70716dbd1ae6a596f4a", "lat": 38.88186283333334, "fusion_lon": 0.0, "fusion_lat": 0.0, "type": "electric_scooter", "name": "29a9846f2d0ea70716dbd1ae6a596f4a", "is_disabled": 0, "rental_uris": {"ios": "https://dc.lft.to/lastmile_qr_scan", "android": "https://dc.lft.to/lastmile_qr_scan"}, "is_reserved": 0}, {"lon": -77.04796366666666, "bike_id": "8363140c1b700170a7703bd70d2c759e", "lat": 38.916343833333336, "fusion_lon": 0.0, "fusion_lat": 0.0, "type": "electric_scooter", "name": "8363140c1b700170a7703bd70d2c759e", "is_disabled": 0, "rental_uris": {"ios": "https://dc.lft.to/lastmile_qr_scan", "android": "https://dc.lft.to/lastmile_qr_scan"}, "is_reserved": 0}, {"lon": -77.0386925, "bike_id": "5728b6d8593f4741397d6e131ba10aa2", "lat": 38.914171833333334, "fusion_lon": 0.0, "fusion_lat": 0.0, "type": "electric_scooter", "name": "5728b6d8593f4741397d6e131ba10aa2", "is_disabled": 0, "rental_uris": {"ios": "https://dc.lft.to/lastmile_qr_scan", "android": "https://dc.lft.to/lastmile_qr_scan"}, "is_reserved": 0}, {"lon": -76.99126316666667, "bike_id": "0acf67954ecb77aaa47decd0d348562c", "lat": 38.922712, "fusion_lon": 0.0, "fusion_lat": 0.0, "type": "electric_scooter", "name": "0acf67954ecb77aaa47decd0d348562c", "is_disabled": 0, "rental_uris": {"ios": "https://dc.lft.to/lastmile_qr_scan", "android": "https://dc.lft.to/lastmile_qr_scan"}, "is_reserved": 0}, {"lon": -77.02676133333334, "bike_id": "218f899e9cccefa9adadbd2dd3cbcb9d", "lat": 38.984612166666665, "fusion_lon": 0.0, "fusion_lat": 0.0, "type": "electric_scooter", "name": "218f899e9cccefa9adadbd2dd3cbcb9d", "is_disabled": 0, "rental_uris": {"ios": "https://dc.lft.to/lastmile_qr_scan", "android": "https://dc.lft.to/lastmile_qr_scan"}, "is_reserved": 0}, {"lon": -77.04353633333334, "bike_id": "d1b1f846314c0565f8d63f8b8c36e6d3", "lat": 38.902411666666666, "fusion_lon": 0.0, "fusion_lat": 0.0, "type": "electric_scooter", "name": "d1b1f846314c0565f8d63f8b8c36e6d3", "is_disabled": 0, "rental_uris": {"ios": "https://dc.lft.to/lastmile_qr_scan", "android": "https://dc.lft.to/lastmile_qr_scan"}, "is_reserved": 0}, {"lon": -77.02451716666667, "bike_id": "e4ee03e6d540febcef490ce23dc5149c", "lat": 38.938112333333336, "fusion_lon": 0.0, "fusion_lat": 0.0, "type": "electric_scooter", "name": "e4ee03e6d540febcef490ce23dc5149c", "is_disabled": 0, "rental_uris": {"ios": "https://dc.lft.to/lastmile_qr_scan", "android": "https://dc.lft.to/lastmile_qr_scan"}, "is_reserved": 0}, {"lon": -77.0331465, "bike_id": "62941dc9236096b87c230d9be44b967e", "lat": 38.92877, "fusion_lon": 0.0, "fusion_lat": 0.0, "type": "electric_scooter", "name": "62941dc9236096b87c230d9be44b967e", "is_disabled": 0, "rental_uris": {"ios": "https://dc.lft.to/lastmile_qr_scan", "android": "https://dc.lft.to/lastmile_qr_scan"}, "is_reserved": 0},