{"data": {"bikes": [{"lat": 38.95512016666667, "lon": -77.02919983333334, "is_disabled": 0, "fusion_lon": 0.0, "is_reserved": 0, "name": "1d030fc58248deb75c9070d841163944", "type": "electric_bike", "bike_id": "1d030fc58248deb75c9070d841163944", "rental_uris": {"ios": "https://dc.lft.to/lastmile_qr_scan", "android": "https://dc.lft.to/lastmile_qr_scan"}, "fusion_lat": 0.0}, {"lat": 38.926292833333335, "lon": -77.0370475, "is_disabled": 0, "fusion_lon": 0.0, "is_reserved": 0, "name": "8045187295fa0ffde23d143c732d81f9", "type": "electric_scooter", "bike_id": "8045187295fa0ffde23d143c732d81f9", "rental_uris": {"ios": "https://dc.lft.to/lastmile_qr_scan", "android": "https://dc.lft.to/lastmile_qr_scan"}, "fusion_lat": 0.0}, {"lat": 38.909899833333334, "lon": -77.0089735, "is_disabled": 0, "fusion_lon": 0.0, "is_reserved": 0, "name": "d778b364482bb1cc3af70f09e3e2101a", "type": "electric_scooter", "bike_id": "d778b364482bb1cc3af70f09e3e2101a", "rental_uris": {"ios": "https://dc.lft.to/lastmile_qr_scan", "android": "https://dc.lft.to/lastmile_qr_scan"}, "fusion_lat": 0.0}, {"lat": 38.93331033333333, "lon": -77.03270066666667, "is_disabled": 0, "fusion_lon": 0.0, "is_reserved": 0, "name": "ab977975eda66f291e71f6735107d3cb", "type": "electric_scooter", "bike_id": "ab977975eda66f291e71f6735107d3cb", "rental_uris": {"ios": "https://dc.lft.to/lastmile_qr_scan", "android": "https://dc.lft.to/lastmile_qr_scan"}, "fusion_lat": 0.0}, {"lat": 38.896927, "lon": -77.0433555, "is_disabled": 0, "fusion_lon": 0.0, "is_reserved": 0, "name": "319cd80abfb0ed9b0fa3f153a606b82e", "type": "electric_scooter", "bike_id": "319cd80abfb0ed9b0fa3f153a606b82e", "rental_uris": {"ios": "https://dc.lft.to/lastmile_qr_scan", "android": "https://dc.lft.to/lastmile_qr_scan"}, "fusion_lat": 0.0}, {"lat": 38.90266583333333, "lon": -77.0176795, "is_disabled": 0, "fusion_lon": 0.0, "is_reserved": 0, "name": "f29218da8ef30e9f7aa54e8e5b4c2547", "type": "electric_scooter", "bike_id": "f29218da8ef30e9f7aa54e8e5b4c2547", "rental_uris": {"ios": "https://dc.lft.to/lastmile_qr_scan", "android": "https://dc.lft.to/lastmile_qr_scan"}, "fusion_lat": 0.0}, {"lat": 38.94806633333334, "lon": -76.95969566666666, "is_disabled": 0, "fusion_lon": 0.0, "is_reserved": 0, "name": "f9cccb0c28a8a9054342f4359cc2a520", "type": "electric_bike", "bike_id": "f9cccb0c28a8a9054342f4359cc2a520", "rental_uris": {"ios": "https://dc.lft.to/lastmile_qr_scan", "android": "https://dc.lft.to/lastmile_qr_scan"}, "fusion_lat": 0.0}, {"lat": 38.89961566666667, "lon": -76.98571416666667, "is_disabled": 0, "fusion_lon": 0.0, "is_reserved": 0, "name": "808ff6e496bba95bf9d84f368e6aa66e", "type": "electric_scooter", "bike_id": "808ff6e496bba95bf9d84f368e6aa66e", "rental_uris": {"ios": "https://dc.lft.to/lastmile_qr_scan", "android": "https://dc.lft.to/lastmile_qr_scan"}, "fusion_lat": 0.0}, {"lat": 38.914466833333336, "lon": -77.04496816666666, "is_disabled": 0, "fusion_lon": 0.0, "is_reserved": 0, "name": "71edb8ca5dc04fa2744bd943e348eb4a", "type": "electric_scooter", "bike_id": "71edb8ca5dc04fa2744bd943e348eb4a", "rental_uris": {"ios": "https://dc.lft.to/lastmile_qr_scan", "android": "https://dc.lft.to/lastmile_qr_scan"}, "fusion_lat": 0.0}, {"lat": 38.923483, "lon": -77.05061733333334, "is_disabled": 0, "fusion_lon": 0.0, "is_reserved": 0, "name": "e426e210b5ac3fb65e67ba2a297fa228", "type": "electric_scooter", "bike_id": "e426e210b5ac3fb65e67ba2a297fa228", "rental_uris": {"ios": "https://dc.lft.to/lastmile_qr_scan", "android": "https://dc.lft.to/lastmile_qr_scan"}, "fusion_lat": 0.0}, {"lat": 38.9001685, "lon": -77.00067416666667, "is_disabled": 0, "fusion_lon": 0.0, "is_reserved": 0, "name": "7638ed2fd3db20a431f84445b83bf644", "type": "electric_scooter", "bike_id": "7638ed2fd3db20a431f84445b83bf644", "rental_uris": {"ios": "https://dc.lft.to/lastmile_qr_scan", "android": "https://dc.lft.to/lastmile_qr_scan"}, "fusion_lat": 0.0}, {"lat": 38.88992733333333, "lon": -76.91415133333334, "is_disabled": 0, "fusion_lon": 0.0, "is_reserved": 0, "name": "99d2e69a3254001db82880d430235a14", "type": "electric_scooter", "bike_id": "99d2e69a3254001db82880d430235a14", "rental_uris": {"ios": "https://dc.lft.to/lastmile_qr_scan", "android": "https://dc.lft.to/lastmile_qr_scan"}, "fusion_lat": 0.0}, {"lat": 38.92968666666667, "lon": -77.02403, "is_disabled": 0, "fusion_lon": 0.0, "is_reserved": 0, "name": "ef745348de345635d2a18743c495669f", "type": "electric_bike", "bike_id": "ef745348de345635d2a18743c495669f", "rental_uris": {"ios": "https://dc.lft.to/lastmile_qr_scan", "android": "https://dc.lft.to/lastmile_qr_scan"}, "fusion_lat": 0.0}, {"lat": 38.90611833333333, "lon": -77.00561583333334, "is_disabled": 0, "fusion_lon": 0.0, "is_reserved": 0, "name": "787236fa6d926adcf5ede64efd8e8ac8", "type": "electric_scooter", "bike_id": "787236fa6d926adcf5ede64efd8e8ac8", "rental_uris": {"ios": "https://dc.lft.to/lastmile_qr_scan", "android": "https://dc.lft.to/lastmile_qr_scan"}, "fusion_lat": 0.0}, {"lat": 38.93046483333333, "lon": -77.0730085, "is_disabled": 0, "fusion_lon": 0.0, "is_reserved": 0, "name": "01e7b541a23f86ae8af3bb6d02aebe8e", "type": "electric_scooter", "bike_id": "01e7b541a23f86ae8af3bb6d02aebe8e", "rental_uris": {"ios": "https://dc.lft.to/lastmile_qr_scan", "android": "https://dc.lft.to/lastmile_qr_scan"}, "fusion_lat": 0.0}, {"lat": 38.907595, "lon": -77.03083383333333, "is_disabled": 0, "fusion_lon": 0.0, "is_reserved": 0, "name": "fa944965871b19e9f850909d7be1a614", "type": "electric_scooter", "bike_id": "fa944965871b19e9f850909d7be1a614", "rental_uris": {"ios": "https://dc.lft.to/lastmile_qr_scan", "android": "https://dc.lft.to/lastmile_qr_scan"}, "fusion_lat": 0.0}, {"lat": 38.8917705, "lon": -76.92652983333333, "is_disabled": 0, "fusion_lon": 0.0, "is_reserved": 0, "name": "5a2ca508957b50d538df2ecd9137c70b", "type": "electric_scooter", "bike_id": "5a2ca508957b50d538df2ecd9137c70b", "rental_uris": {"ios": "https://dc.lft.to/lastmile_qr_scan", "android": "https://dc.lft.to/lastmile_qr_scan"}, "fusion_lat": 0.0}, {"lat": 38.915690166666664, "lon": -77.02005916666667, "is_disabled": 0, "fusion_lon": 0.0, "is_reserved": 0, "name": "631819513dcc93fbb68a2e852e0062c8", "type": "electric_scooter", "bike_id": "631819513dcc93fbb68a2e852e0062c8", "rental_uris": {"ios": "https://dc.lft.to/lastmile_qr_scan", "android": "https://dc.lft.to/lastmile_qr_scan"}, "fusion_lat": 0.0}, {"lat": 38.903143166666666, "lon": -77.00560116666666, "is_disabled": 0, "fusion_lon": 0.0, "is_reserved": 0, "name": "86811e476d1517a545059daf7167987b", "type": "electric_scooter", "bike_id": "86811e476d1517a545059daf7167987b", "rental_uris": {"ios": "https://dc.lft.to/lastmile_qr_scan", "android": "https://dc.lft.to/lastmile_qr_scan"}, "fusion_lat": 0.0}, {"lat": 38.92449033333333, "lon": -76.98985716666667, "is_disabled": 0, "fusion_lon": 0.0, "is_reserved": 0, "name": "66808f3f4e229912f85e2fcbe41be199", "type": "electric_scooter", "bike_id": "66808f3f4e229912f85e2fcbe41be199", "rental_uris": {"ios": "https://dc.lft.to/lastmile_qr_scan", "android": "https://dc.lft.to/lastmile_qr_scan"}, "fusion_lat": 0.0}, {"lat": 38.92520116666667, "lon": -77.05036416666667, "is_disabled": 0, "fusion_lon": 0.0, "is_reserved": 0, "name": "53facf2b96c94187546632d6ff441e23", "type": "electric_scooter", "bike_id": "53facf2b96c94187546632d6ff441e23", "rental_uris": {"ios": "https://dc.lft.to/lastmile_qr_scan", "android": "https://dc.lft.to/lastmile_qr_scan"}, "fusion_lat": 0.0}, {"lat": 38.90820866666667, "lon": -77.03197483333334, "is_disabled": 0, "fusion_lon": 0.0, "is_reserved": 0, "name": "6b493d14034cf1d9a72a0c6031e7ba63", "type": "electric_scooter", "bike_id": "6b493d14034cf1d9a72a0c6031e7ba63", "rental_uris": {"ios": "https://dc.lft.to/lastmile_qr_scan", "android": "https://dc.lft.to/lastmile_qr_scan"}, "fusion_lat": 0.0}, {"lat": 38.93203966666667, "lon": -77.02815466666667, "is_disabled": 0, "fusion_lon": 0.0, "is_reserved": 0, "name": "79a94a63c0b3e1373a57014e98166537", "type": "electric_scooter", "bike_id": "79a94a63c0b3e1373a57014e98166537", "rental_uris": {"ios": "https://dc.lft.to/lastmile_qr_scan", "android": "https://dc.lft.to/lastmile_qr_scan"}, "fusion_lat": 0.0}, {"lat": 38.92789366666667, "lon": -77.05313533333333, "is_disabled": 0, "fusion_lon": 0.0, "is_reserved": 0, "name": "a5e9fd2bfb09dcc462c21547525f978a", "type": "electric_scooter", "bike_id": "a5e9fd2bfb09dcc462c21547525f978a", "rental_uris": {"ios": "https://dc.lft.to/lastmile_qr_scan", "android": "https://dc.lft.to/lastmile_qr_scan"}, "fusion_lat": 0.0}, {"lat": 38.8845415, "lon": -77.0175175, "is_disabled": 0, "fusion_lon": 0.0, "is_reserved": 0, "name": "3b22521fbac7702ec6b5156e0eaeecdd", "type": "electric_scooter", "bike_id": "3b22521fbac7702ec6b5156e0eaeecdd", "rental_uris": {"ios": "https://dc.lft.to/lastmile_qr_scan", "android": "https://dc.lft.to/lastmile_qr_scan"}, "fusion_lat": 0.0}, {"lat": 38.91413883333333, "lon": -77.02099983333333, "is_disabled": 0, "fusion_lon": 0.0, "is_reserved": 0, "name": "a55e82b0cad94c09518f66c0b9ac5da2", "type": "electric_scooter", "bike_id": "a55e82b0cad94c09518f66c0b9ac5da2", "rental_uris": {"ios": "https://dc.lft.to/lastmile_qr_scan", "android": "https://dc.lft.to/lastmile_qr_scan"}, "fusion_lat": 0.0}, {"lat": 38.927950333333335, "lon": -77.02111366666666, "is_disabled": 0, "fusion_lon": 0.0, "is_reserved": 0, "name": "bf548808abba21d9dafaf550d9592642", "type": "electric_scooter", "bike_id": "bf548808abba21d9dafaf550d9592642", "rental_uris": {"ios": "https://dc.lft.to/lastmile_qr_scan", "android": "https://dc.lft.to/lastmile_qr_scan"}, "fusion_lat": 0.0}, {"lat": 38.819952666666666, "lon": -76.99815483333333, "is_disabled": 0, "fusion_lon": 0.0, "is_reserved": 0, "name": "8b8d7591746df35595a64ba43c341679", "type": "electric_bike", "bike_id": "8b8d7591746df35595a64ba43c341679", "rental_uris": {"ios": "https://dc.lft.to/lastmile_qr_scan", "android": "https://dc.lft.to/lastmile_qr_scan"}, "fusion_lat": 0.0}, {"lat": 38.89224133333333, "lon": -77.043265, "is_disabled": 0, "fusion_lon": 0.0, "is_reserved": 0, "name": "ce46d1695c58399a30f641840ffa3436", "type": "electric_scooter", "bike_id": "ce46d1695c58399a30f641840ffa3436", "rental_uris": {"ios": "https://dc.lft.to/lastmile_qr_scan", "android": "https://dc.lft.to/lastmile_qr_scan"}, "fusion_lat": 0.0}, {"lat": 38.9194845, "lon": -77.02494766666666, "is_disabled": 0, "fusion_lon": 0.0, "is_reserved": 0, "name": "5cf7ef42692ccf9768215da27c9fd4d3", "type": "electric_scooter", "bike_id": "5cf7ef42692ccf9768215da27c9fd4d3", "rental_uris": {"ios": "https://dc.lft.to/lastmile_qr_scan", "android": "https://dc.lft.to/lastmile_qr_scan"}, "fusion_lat": 0.0}, {"lat": 38.925551666666664, "lon": -76.98149633333334, "is_disabled": 0, "fusion_lon": 0.0, "is_reserved": 0, "name": "47e3eb90b598d0bd9015462fbf2ab258", "type": "electric_scooter", "bike_id": "47e3eb90b598d0bd9015462fbf2ab258", "rental_uris": {"ios": "https://dc.lft.to/lastmile_qr_scan", "android": "https://dc.lft.to/lastmile_qr_scan"}, "fusion_lat": 0.0}, {"lat": 38.92762866666666, "lon": -77.05267916666666, "is_disabled": 0, "fusion_lon": 0.0, "is_reserved": 0, "name": "2799eb6936a78569e5211344cf726c99", "type": "electric_scooter", "bike_id": "2799eb6936a78569e5211344cf726c99", "rental_uris": {"ios": "https://dc.lft.to/lastmile_qr_scan", "android": "https://dc.lft.to/lastmile_qr_scan"}, "fusion_lat": 0.0}, {"lat": 38.907249666666665, "lon": -77.03472116666667, "is_disabled": 0, "fusion_lon": 0.0, "is_reserved": 0, "name": "f0a654f644a2a05cb109904d642087a2", "type": "electric_scooter", "bike_id": "f0a654f644a2a05cb109904d642087a2", "rental_uris": {"ios": "https://dc.lft.to/lastmile_qr_scan", "android": "https://dc.lft.to/lastmile_qr_scan"}, "fusion_lat": 0.0}, {"lat": 38.90342183333333, "lon": -77.0214435, "is_disabled": 0, "fusion_lon": 0.0, "is_reserved": 0, "name": "507abfdbe72a45a99529ec8bf9c68686", "type": "electric_scooter", "bike_id": "507abfdbe72a45a99529ec8bf9c68686", "rental_uris": {"ios": "https://dc.lft.to/lastmile_qr_scan", "android": "https://dc.lft.to/lastmile_qr_scan"}, "fusion_lat": 0.0}, {"lat": 38.92723066666667, "lon": -77.02787966666666, "is_disabled": 0, "fusion_lon": 0.0, "is_reserved": 0, "name": "aaa6f38a481c334a6d35f8e9ae51087f", "type": "electric_scooter", "bike_id": "aaa6f38a481c334a6d35f8e9ae51087f", "rental_uris": {"ios": "https://dc.lft.to/lastmile_qr_scan", "android": "https://dc.lft.to/lastmile_qr_scan"}, "fusion_lat": 0.0}, {"lat": 38.907238666666665, "lon": -77.02574933333334, "is_disabled": 0, "fusion_lon": 0.0, "is_reserved": 0, "name": "ccb903ebdae2d38ea8ea99bc8bc8c98b", "type": "electric_scooter", "bike_id": "ccb903ebdae2d38ea8ea99bc8bc8c98b", "rental_uris": {"ios": "https://dc.lft.to/lastmile_qr_scan", "android": "https://dc.lft.to/lastmile_qr_scan"}, "fusion_lat": 0.0}, {"lat": 38.902035166666664, "lon": -77.02380466666666, "is_disabled": 0, "fusion_lon": 0.0, "is_reserved": 0, "name": "0d2fa1f71b889a97d6e4afd9adc730e8", "type": "electric_scooter", "bike_id": "0d2fa1f71b889a97d6e4afd9adc730e8", "rental_uris": {"ios": "https://dc.lft.to/lastmile_qr_scan", "android": "https://dc.lft.to/lastmile_qr_scan"}, "fusion_lat": 0.0}, {"lat": 38.9181675, "lon": -77.04005033333334, "is_disabled": 0, "fusion_lon": 0.0, "is_reserved": 0, "name": "71e7f6b6f27bf123e862fb3651bbfce0", "type": "electric_scooter", "bike_id": "71e7f6b6f27bf123e862fb3651bbfce0", "rental_uris": {"ios": "https://dc.lft.to/lastmile_qr_scan", "android": "https://dc.lft.to/lastmile_qr_scan"}, "fusion_lat": 0.0}, {"lat": 38.92769533333333, "lon": -76.97344016666666, "is_disabled": 0, "fusion_lon": 0.0, "is_reserved": 0, "name": "1d286e40d702cca694fd5474db641111", "type": "electric_scooter", "bike_id": "1d286e40d702cca694fd5474db641111", "rental_uris": {"ios": "https://dc.lft.to/lastmile_qr_scan", "android": "https://dc.lft.to/lastmile_qr_scan"}, "fusion_lat": 0.0}, {"lat": 38.86271466666667, "lon": -76.9835135, "is_disabled": 0, "fusion_lon": 0.0, "is_reserved": 0, "name": "3050dd6f5f2f5a1a06ec0448700628dd", "type": "electric_bike", "bike_id": "3050dd6f5f2f5a1a06ec0448700628dd", "rental_uris": {"ios": "https://dc.lft.to/lastmile_qr_scan", "android": "https://dc.lft.to/lastmile_qr_scan"}, "fusion_lat": 0.0}, {"lat": 38.90137216666667, "lon": -77.0547945, "is_disabled": 0, "fusion_lon": 0.0, "is_reserved": 0, "name": "beecfd42a712bc940216956a58fc6076", "type": "electric_scooter", "bike_id": "beecfd42a712bc940216956a58fc6076", "rental_uris": {"ios": "https://dc.lft.to/lastmile_qr_scan", "android": "https://dc.lft.to/lastmile_qr_scan"}, "fusion_lat": 0.0}, {"lat": 38.878394166666666, "lon": -76.98353983333334, "is_disabled": 0, "fusion_lon": 0.0, "is_reserved": 0, "name": "4543c5024fd887c2b06dac927e0381c6", "type": "electric_bike", "bike_id": "4543c5024fd887c2b06dac927e0381c6", "rental_uris": {"ios": "https://dc.lft.to/lastmile_qr_scan", "android": "https://dc.lft.to/lastmile_qr_scan"}, "fusion_lat": 0.0}, {"lat": 38.88120466666667, "lon": -77.01655866666667, "is_disabled": 0, "fusion_lon": 0.0, "is_reserved": 0, "name": "dbad2593b032375f1b5f57cc2cbf9d91", "type": "electric_scooter", "bike_id": "dbad2593b032375f1b5f57cc2cbf9d91", "rental_uris": {"ios": "https://dc.lft.to/lastmile_qr_scan", "android": "https://dc.lft.to/lastmile_qr_scan"}, "fusion_lat": 0.0}, {"lat": 38.94970466666667, "lon": -77.06658266666666, "is_disabled": 0, "fusion_lon": 0.0, "is_reserved": 0, "name": "0f6fac51415571dff28e7113091d0203", "type": "electric_scooter", "bike_id": "0f6fac51415571dff28e7113091d0203", "rental_uris": {"ios": "https://dc.lft.to/lastmile_qr_scan", "android": "https://dc.lft.to/lastmile_qr_scan"}, "fusion_lat": 0.0}, {"lat": 38.92471483333333, "lon": -77.23364933333333, "is_disabled": 0, "fusion_lon": 0.0, "is_reserved": 0, "name": "0bb463a3cf4af5ec75e43d998167d4d3", "type": "electric_bike", "bike_id": "0bb463a3cf4af5ec75e43d998167d4d3", "rental_uris": {"ios": "https://dc.lft.to/lastmile_qr_scan", "android": "https://dc.lft.to/lastmile_qr_scan"}, "fusion_lat": 0.0}, {"lat": 38.912279833333336, "lon": -77.02699633333333, "is_disabled": 0, "fusion_lon": 0.0, "is_reserved": 0, "name": "ad7a7a4ec2d3416ea2a2f2280d25c096", "type": "electric_scooter", "bike_id": "ad7a7a4ec2d3416ea2a2f2280d25c096", "rental_uris": {"ios": "https://dc.lft.to/lastmile_qr_scan", "android": "https://dc.lft.to/lastmile_qr_scan"}, "fusion_lat": 0.0}, {"lat": 38.90667966666667, "lon": -77.02714933333333, "is_disabled": 0, "fusion_lon": 0.0, "is_reserved": 0, "name": "28bf48dc8c563f8264273f293133598c", "type": "electric_scooter", "bike_id": "28bf48dc8c563f8264273f293133598c", "rental_uris": {"ios": "https://dc.lft.to/lastmile_qr_scan", "android": "https://dc.lft.to/lastmile_qr_scan"}, "fusion_lat": 0.0}, {"lat": 38.93060966666667, "lon": -77.02320883333333, "is_disabled": 0, "fusion_lon": 0.0, "is_reserved": 0, "name": "e5479764004d1dc95b8c63f599b89ac4", "type": "electric_scooter", "bike_id": "e5479764004d1dc95b8c63f599b89ac4", "rental_uris": {"ios": "https://dc.lft.to/lastmile_qr_scan", "android": "https://dc.lft.to/lastmile_qr_scan"}, "fusion_lat": 0.0}, {"lat": 38.91032083333333, "lon": -77.04255083333334, "is_disabled": 0, "fusion_lon": 0.0, "is_reserved": 0, "name": "6cd4d916ed62163d938b0ce10780c9c3", "type": "electric_scooter", "bike_id": "6cd4d916ed62163d938b0ce10780c9c3", "rental_uris": {"ios": "https://dc.lft.to/lastmile_qr_scan", "android": "https://dc.lft.to/lastmile_qr_scan"}, "fusion_lat": 0.0}, {"lat": 38.9475995, "lon": -77.02368333333334, "is_disabled": 0, "fusion_lon": 0.0, "is_reserved": 0, "name": "ab535fea6faf5a565203f5a490cf0b5b", "type": "electric_bike", "bike_id": "ab535fea6faf5a565203f5a490cf0b5b", "rental_uris": {"ios": "https://dc.lft.to/lastmile_qr_scan", "android": "https://dc.lft.to/lastmile_qr_scan"}, "fusion_lat": 0.0}, {"lat": 38.9321495, "lon": -77.033427, "is_disabled": 0, "fusion_lon": 0.0, "is_reserved": 0, "name": "c9ed803d74f4ab74193dbcba87b6b461", "type": "electric_scooter", "bike_id": "c9ed803d74f4ab74193dbcba87b6b461", "rental_uris": {"ios": "https://dc.lft.to/lastmile_qr_scan", "android": "https://dc.lft.to/lastmile_qr_scan"}, "fusion_lat": 0.0}, {"lat": 38.961451833333335, "lon": -77.02777966666666, "is_disabled": 0, "fusion_lon": 0.0, "is_reserved": 0, "name": "9f060ba3821ffba50c7d082902011712", "type": "electric_scooter", "bike_id": "9f060ba3821ffba50c7d082902011712", "rental_uris": {"ios": "https://dc.lft.to/lastmile_qr_scan", "android": "https://dc.lft.to/lastmile_qr_scan"}, "fusion_lat": 0.0}, {"lat": 38.873794833333335, "lon": -77.00122433333334, "is_disabled": 0, "fusion_lon": 0.0, "is_reserved": 0, "name": "bfc70675aed26ac66f95adc8901b3310", "type": "electric_scooter", "bike_id": "bfc70675aed26ac66f95adc8901b3310", "rental_uris": {"ios": "https://dc.lft.to/lastmile_qr_scan", "android": "https://dc.lft.to/lastmile_qr_scan"}, "fusion_lat": 0.0}, {"lat": 38.9008765, "lon": -77.03343183333334, "is_disabled": 0, "fusion_lon": 0.0, "is_reserved": 0, "name": "53a072844e3f9f494384a878e9f754dc", "type": "electric_scooter", "bike_id": "53a072844e3f9f494384a878e9f754dc", "rental_uris": {"ios": "https://dc.lft.to/lastmile_qr_scan", "android": "https://dc.lft.to/lastmile_qr_scan"}, "fusion_lat": 0.0}, {"lat": 38.907656, "lon": -77.03719216666667, "is_disabled": 0, "fusion_lon": 0.0, "is_reserved": 0, "name": "69ea21798d0a4ff64478d0b442b6d7f5", "type": "electric_scooter", "bike_id": "69ea21798d0a4ff64478d0b442b6d7f5", "rental_uris": {"ios": "https://dc.lft.to/lastmile_qr_scan", "android": "https://dc.lft.to/lastmile_qr_scan"}, "fusion_lat": 0.0}, {"lat": 38.922345, "lon": -77.01815266666667, "is_disabled": 0, "fusion_lon": 0.0, "is_reserved": 0, "name": "57fcb123604a0904db354c3752f7c001", "type": "electric_scooter", "bike_id": "57fcb123604a0904db354c3752f7c001", "rental_uris": {"ios": "https://dc.lft.to/lastmile_qr_scan", "android": "https://dc.lft.to/lastmile_qr_scan"}, "fusion_lat": 0.0}, {"lat": 38.909259166666665, "lon": -76.98554783333333, "is_disabled": 0, "fusion_lon": 0.0, "is_reserved": 0, "name": "5513d5d6b67064d9cb9bf8d370f08ffa", "type": "electric_scooter", "bike_id": "5513d5d6b67064d9cb9bf8d370f08ffa", "rental_uris": {"ios": "https://dc.lft.to/lastmile_qr_scan", "android": "https://dc.lft.to/lastmile_qr_scan"}, "fusion_lat": 0.0}, {"lat": 38.81257083333333, "lon": -77.117517, "is_disabled": 0, "fusion_lon": 0.0, "is_reserved": 0, "name": "c2afd7daa5bd0f992113d65741295293", "type": "electric_bike", "bike_id": "c2afd7daa5bd0f992113d65741295293", "rental_uris": {"ios": "https://dc.lft.to/lastmile_qr_scan", "android": "https://dc.lft.to/lastmile_qr_scan"}, "fusion_lat": 0.0}, {"lat": 38.950456333333335, "lon": -77.0271485, "is_disabled": 0, "fusion_lon": 0.0, "is_reserved": 0, "name": "6f6466935c1098ae5ad80c0d66fb95a9", "type": "electric_scooter", "bike_id": "6f6466935c1098ae5ad80c0d66fb95a9", "rental_uris": {"ios": "https://dc.lft.to/lastmile_qr_scan", "android": "https://dc.lft.to/lastmile_qr_scan"}, "fusion_lat": 0.0}, {"lat": 38.92863716666667, "lon": -77.0330715, "is_disabled": 0, "fusion_lon": 0.0, "is_reserved": 0, "name": "8a60b8e4cd0bdb2a2b91db90e15b199a", "type": "electric_scooter", "bike_id": "8a60b8e4cd0bdb2a2b91db90e15b199a", "rental_uris": {"ios": "https://dc.lft.to/lastmile_qr_scan", "android": "https://dc.lft.to/lastmile_qr_scan"}, "fusion_lat": 0.0}, {"lat": 38.90010866666667, "lon": -76.93654733333334, "is_disabled": 0, "fusion_lon": 0.0, "is_reserved": 0, "name": "d6fbf8bb98d80d13d580aa4305b8e865", "type": "electric_scooter", "bike_id": "d6fbf8bb98d80d13d580aa4305b8e865", "rental_uris": {"ios": "https://dc.lft.to/lastmile_qr_scan", "android": "https://dc.lft.to/lastmile_qr_scan"}, "fusion_lat": 0.0}, {"lat": 38.928412, "lon": -77.033105, "is_disabled": 0, "fusion_lon": 0.0, "is_reserved": 0, "name": "b3b5c818828a13811fd818a50c2923ba", "type": "electric_scooter", "bike_id": "b3b5c818828a13811fd818a50c2923ba", "rental_uris": {"ios": "https://dc.lft.to/lastmile_qr_scan", "android": "https://dc.lft.to/lastmile_qr_scan"}, "fusion_lat": 0.0}, {"lat": 38.8938665, "lon": -76.99377116666666, "is_disabled": 0, "fusion_lon": 0.0, "is_reserved": 0, "name": "8365a5751acd0b68e1c89fb8ac14763b", "type": "electric_bike", "bike_id": "8365a5751acd0b68e1c89fb8ac14763b", "rental_uris": {"ios": "https://dc.lft.to/lastmile_qr_scan", "android": "https://dc.lft.to/lastmile_qr_scan"}, "fusion_lat": 0.0}, {"lat": 38.9057235, "lon": -77.00259616666666, "is_disabled": 0, "fusion_lon": 0.0, "is_reserved": 0, "name": "53d7695904285e022cb2c4de88f4d3df", "type": "electric_scooter", "bike_id": "53d7695904285e022cb2c4de88f4d3df", "rental_uris": {"ios": "https://dc.lft.to/lastmile_qr_scan", "android": "https://dc.lft.to/lastmile_qr_scan"}, "fusion_lat": 0.0}, {"lat": 38.895685, "lon": -77.0216305, "is_disabled": 0, "fusion_lon": 0.0, "is_reserved": 0, "name": "a51f5ef22ff9c31ae850a9ec4d23b2bb", "type": "electric_scooter", "bike_id": "a51f5ef22ff9c31ae850a9ec4d23b2bb", "rental_uris": {"ios": "https://dc.lft.to/lastmile_qr_scan", "android": "https://dc.lft.to/lastmile_qr_scan"}, "fusion_lat": 0.0}, {"lat": 38.933317833333334, "lon": -77.029215, "is_disabled": 0, "fusion_lon": 0.0, "is_reserved": 0, "name": "e0658d34296567a7d0c3a009fac8b65f", "type": "electric_scooter", "bike_id": "e0658d34296567a7d0c3a009fac8b65f", "rental_uris": {"ios": "https://dc.lft.to/lastmile_qr_scan", "android": "https://dc.lft.to/lastmile_qr_scan"}, "fusion_lat": 0.0}, {"lat": 38.913296333333335, "lon": -77.03716016666667, "is_disabled": 0, "fusion_lon": 0.0, "is_reserved": 0, "name": "061ea046677dfb434e4ba44b43290d2a", "type": "electric_scooter", "bike_id": "061ea046677dfb434e4ba44b43290d2a", "rental_uris": {"ios": "https://dc.lft.to/lastmile_qr_scan", "android": "https://dc.lft.to/lastmile_qr_scan"}, "fusion_lat": 0.0}, {"lat": 38.9105255, "lon": -77.04273316666666, "is_disabled": 0, "fusion_lon": 0.0, "is_reserved": 0, "name": "9a3fb86abd02539be8e670fd95deb801", "type": "electric_scooter", "bike_id": "9a3fb86abd02539be8e670fd95deb801", "rental_uris": {"ios": "https://dc.lft.to/lastmile_qr_scan", "android": "https://dc.lft.to/lastmile_qr_scan"}, "fusion_lat": 0.0}, {"lat": 38.91262783333333, "lon": -77.03860933333333, "is_disabled": 0, "fusion_lon": 0.0, "is_reserved": 0, "name": "5384c5e6aa13341ac89475fae803f5dc", "type": "electric_scooter", "bike_id": "5384c5e6aa13341ac89475fae803f5dc", "rental_uris": {"ios": "https://dc.lft.to/lastmile_qr_scan", "android": "https://dc.lft.to/lastmile_qr_scan"}, "fusion_lat": 0.0}, {"lat": 38.91106966666667, "lon": -77.01276766666666, "is_disabled": 0, "fusion_lon": 0.0, "is_reserved": 0, "name": "8cd7764e3e2e76ec7d92530c17edc092", "type": "electric_scooter", "bike_id": "8cd7764e3e2e76ec7d92530c17edc092", "rental_uris": {"ios": "https://dc.lft.to/lastmile_qr_scan", "android": "https://dc.lft.to/lastmile_qr_scan"}, "fusion_lat": 0.0}, {"lat": 38.917060166666666, "lon": -77.024948, "is_disabled": 0, "fusion_lon": 0.0, "is_reserved": 0, "name": "c8ccf63220f6f2b2861c04b0a5f25bee", "type": "electric_scooter", "bike_id": "c8ccf63220f6f2b2861c04b0a5f25bee", "rental_uris": {"ios": "https://dc.lft.to/lastmile_qr_scan", "android": "https://dc.lft.to/lastmile_qr_scan"}, "fusion_lat": 0.0}, {"lat": 38.87432483333333, "lon": -77.0003115, "is_disabled": 0, "fusion_lon": 0.0, "is_reserved": 0, "name": "d8e400bf942709105ba6fa3704f38260", "type": "electric_scooter", "bike_id": "d8e400bf942709105ba6fa3704f38260", "rental_uris": {"ios": "https://dc.lft.to/lastmile_qr_scan", "android": "https://dc.lft.to/lastmile_qr_scan"}, "fusion_lat": 0.0}, {"lat": 38.91352966666667, "lon": -77.04351133333333, "is_disabled": 0, "fusion_lon": 0.0, "is_reserved": 0, "name": "cf33ce3382597a28992afc2f720c36fd", "type": "electric_scooter", "bike_id": "cf33ce3382597a28992afc2f720c36fd", "rental_uris": {"ios": "https://dc.lft.to/lastmile_qr_scan", "android": "https://dc.lft.to/lastmile_qr_scan"}, "fusion_lat": 0.0}, {"lat": 38.9520365, "lon": -77.0273585, "is_disabled": 0, "fusion_lon": 0.0, "is_reserved": 0, "name": "c44c7b2e63c378b883e20ce57599a924", "type": "electric_scooter", "bike_id": "c44c7b2e63c378b883e20ce57599a924", "rental_uris": {"ios": "https://dc.lft.to/lastmile_qr_scan", "android": "https://dc.lft.to/lastmile_qr_scan"}, "fusion_lat": 0.0}, {"lat": 38.925685666666666, "lon": -77.05258783333333, "is_disabled": 0, "fusion_lon": 0.0, "is_reserved": 0, "name": "1701f7260ba1e57632f0737b94748da4", "type": "electric_scooter", "bike_id": "1701f7260ba1e57632f0737b94748da4", "rental_uris": {"ios": "https://dc.lft.to/lastmile_qr_scan", "android": "https://dc.lft.to/lastmile_qr_scan"}, "fusion_lat": 0.0}, {"lat": 38.92076766666667, "lon": -77.02356583333334, "is_disabled": 0, "fusion_lon": 0.0, "is_reserved": 0, "name": "7dabaa6fa49fe09ae388fa4549e5fa5c", "type": "electric_scooter", "bike_id": "7dabaa6fa49fe09ae388fa4549e5fa5c", "rental_uris": {"ios": "https://dc.lft.to/lastmile_qr_scan", "android": "https://dc.lft.to/lastmile_qr_scan"}, "fusion_lat": 0.0}, {"lat": 38.9082225, "lon": -76.99204233333333, "is_disabled": 0, "fusion_lon": 0.0, "is_reserved": 0, "name": "35f9a284c9085247e36efbfba0e0b5f4", "type": "electric_scooter", "bike_id": "35f9a284c9085247e36efbfba0e0b5f4", "rental_uris": {"ios": "https://dc.lft.to/lastmile_qr_scan", "android": "https://dc.lft.to/lastmile_qr_scan"}, "fusion_lat": 0.0}, {"lat": 38.914904166666666, "lon": -77.04256266666667, "is_disabled": 0, "fusion_lon": 0.0, "is_reserved": 0, "name": "447035f9a211c63a7b20e39c6a9254c2", "type": "electric_scooter", "bike_id": "447035f9a211c63a7b20e39c6a9254c2", "rental_uris": {"ios": "https://dc.lft.to/lastmile_qr_scan", "android": "https://dc.lft.to/lastmile_qr_scan"}, "fusion_lat": 0.0}, {"lat": 38.924364, "lon": -77.05208983333333, "is_disabled": 0, "fusion_lon": 0.0, "is_reserved": 0, "name": "b9ed48196f5eed080220594e393bfd17", "type": "electric_scooter", "bike_id": "b9ed48196f5eed080220594e393bfd17", "rental_uris": {"ios": "https://dc.lft.to/lastmile_qr_scan", "android": "https://dc.lft.to/lastmile_qr_scan"}, "fusion_lat": 0.0}, {"lat": 38.90578766666667, "lon": -77.00810216666666, "is_disabled": 0, "fusion_lon": 0.0, "is_reserved": 0, "name": "231fa37fe613ff60a3e50b19f5499bb9", "type": "electric_scooter", "bike_id": "231fa37fe613ff60a3e50b19f5499bb9", "rental_uris": {"ios": "https://dc.lft.to/lastmile_qr_scan", "android": "https://dc.lft.to/lastmile_qr_scan"}, "fusion_lat": 0.0}, {"lat": 38.996933, "lon": -77.025443, "is_disabled": 0, "fusion_lon": 0.0, "is_reserved": 0, "name": "a90ed1c57c7cf513d2dc57d4810a2d67", "type": "electric_bike", "bike_id": "a90ed1c57c7cf513d2dc57d4810a2d67", "rental_uris": {"ios": "https://dc.lft.to/lastmile_qr_scan", "android": "https://dc.lft.to/lastmile_qr_scan"}, "fusion_lat": 0.0}, {"lat": 38.908785333333334, "lon": -77.041721, "is_disabled": 0, "fusion_lon": 0.0, "is_reserved": 0, "name": "6de9857bcb76b9aa7b8bb162e6af4eb9", "type": "electric_scooter", "bike_id": "6de9857bcb76b9aa7b8bb162e6af4eb9", "rental_uris": {"ios": "https://dc.lft.to/lastmile_qr_scan", "android": "https://dc.lft.to/lastmile_qr_scan"}, "fusion_lat": 0.0}, {"lat": 38.87670283333333, "lon": -77.00351266666667, "is_disabled": 0, "fusion_lon": 0.0, "is_reserved": 0, "name": "9d528e12f83ce5a542983f443f71178d", "type": "electric_scooter", "bike_id": "9d528e12f83ce5a542983f443f71178d", "rental_uris": {"ios": "https://dc.lft.to/lastmile_qr_scan", "android": "https://dc.lft.to/lastmile_qr_scan"}, "fusion_lat": 0.0}, {"lat": 38.915975333333336, "lon": -77.01445016666666, "is_disabled": 0, "fusion_lon": 0.0, "is_reserved": 0, "name": "b79ae8d7fbfe613ad3f25e964e6a158a", "type": "electric_scooter", "bike_id": "b79ae8d7fbfe613ad3f25e964e6a158a", "rental_uris": {"ios": "https://dc.lft.to/lastmile_qr_scan", "android": "https://dc.lft.to/lastmile_qr_scan"}, "fusion_lat": 0.0}, {"lat": 38.89801116666667, "lon": -77.02175583333333, "is_disabled": 0, "fusion_lon": 0.0, "is_reserved": 0, "name": "6057511908b8a743f23c232210eb7136", "type": "electric_scooter", "bike_id": "6057511908b8a743f23c232210eb7136", "rental_uris": {"ios": "https://dc.lft.to/lastmile_qr_scan", "android": "https://dc.lft.to/lastmile_qr_scan"}, "fusion_lat": 0.0}, {"lat": 38.941841, "lon": -77.02533216666667, "is_disabled": 0, "fusion_lon": 0.0, "is_reserved": 0, "name": "5917800abc51865ebf89585c78e56b70", "type": "electric_scooter", "bike_id": "5917800abc51865ebf89585c78e56b70", "rental_uris": {"ios": "https://dc.lft.to/lastmile_qr_scan", "android": "https://dc.lft.to/lastmile_qr_scan"}, "fusion_lat": 0.0}, {"lat": 38.897477333333335, "lon": -77.033058, "is_disabled": 0, "fusion_lon": 0.0, "is_reserved": 0, "name": "5e8932428ec62f58e47276690eb0aad0", "type": "electric_scooter", "bike_id": "5e8932428ec62f58e47276690eb0aad0", "rental_uris": {"ios": "https://dc.lft.to/lastmile_qr_scan", "android": "https://dc.lft.to/lastmile_qr_scan"}, "fusion_lat": 0.0}, {"lat": 38.9128825, "lon": -77.03670233333334, "is_disabled": 0, "fusion_lon": 0.0, "is_reserved": 0, "name": "072658a05247f4f1076a0a4c824b2e86", "type": "electric_scooter", "bike_id": "072658a05247f4f1076a0a4c824b2e86", "rental_uris": {"ios": "https://dc.lft.to/lastmile_qr_scan", "android": "https://dc.lft.to/lastmile_qr_scan"}, "fusion_lat": 0.0}, {"lat": 38.91883966666666, "lon": -77.03496016666666, "is_disabled": 0, "fusion_lon": 0.0, "is_reserved": 0, "name": "c3cba5177cfacd205a5218fb03c41580", "type": "electric_scooter", "bike_id": "c3cba5177cfacd205a5218fb03c41580", "rental_uris": {"ios": "https://dc.lft.to/lastmile_qr_scan", "android": "https://dc.lft.to/lastmile_qr_scan"}, "fusion_lat": 0.0}, {"lat": 38.916486, "lon": -77.02956316666666, "is_disabled": 0, "fusion_lon": 0.0, "is_reserved": 0, "name": "0bd3869a9d3869ab2c1af7650413fc67", "type": "electric_scooter", "bike_id": "0bd3869a9d3869ab2c1af7650413fc67", "rental_uris": {"ios": "https://dc.lft.to/lastmile_qr_scan", "android": "https://dc.lft.to/lastmile_qr_scan"}, "fusion_lat": 0.0}, {"lat": 38.9087575, "lon": -77.03249316666667, "is_disabled": 0, "fusion_lon": 0.0, "is_reserved": 0, "name": "faea46e574f8af59e22cbf7d05c40504", "type": "electric_scooter", "bike_id": "faea46e574f8af59e22cbf7d05c40504", "rental_uris": {"ios": "https://dc.lft.to/lastmile_qr_scan", "android": "https://dc.lft.to/lastmile_qr_scan"}, "fusion_lat": 0.0}, {"lat": 38.92889516666666, "lon": -77.03242733333333, "is_disabled": 0, "fusion_lon": 0.0, "is_reserved": 0, "name": "dd7f4b26514c879e6bcbfc0a337432bc", "type": "electric_scooter", "bike_id": "dd7f4b26514c879e6bcbfc0a337432bc", "rental_uris": {"ios": "https://dc.lft.to/lastmile_qr_scan", "android": "https://dc.lft.to/lastmile_qr_scan"}, "fusion_lat": 0.0}, {"lat": 38.907604166666665, "lon": -77.03572883333334, "is_disabled": 0, "fusion_lon": 0.0, "is_reserved": 0, "name": "eaa5b42b1ce8af16088fa20838866ec8", "type": "electric_scooter", "bike_id": "eaa5b42b1ce8af16088fa20838866ec8", "rental_uris": {"ios": "https://dc.lft.to/lastmile_qr_scan", "android": "https://dc.lft.to/lastmile_qr_scan"}, "fusion_lat": 0.0}, {"lat": 38.941960333333334, "lon": -77.04111166666667, "is_disabled": 0, "fusion_lon": 0.0, "is_reserved": 0, "name": "d400961204d84ba9a1f118b2dece604c", "type": "electric_scooter", "bike_id": "d400961204d84ba9a1f118b2dece604c", "rental_uris": {"ios": "https://dc.lft.to/lastmile_qr_scan", "android": "https://dc.lft.to/lastmile_qr_scan"}, "fusion_lat": 0.0}, {"lat": 38.923552666666666, "lon": -77.05068916666667, "is_disabled": 0, "fusion_lon": 0.0, "is_reserved": 0, "name": "82336c1cba7e81c2f55488287eb94c6e", "type": "electric_scooter", "bike_id": "82336c1cba7e81c2f55488287eb94c6e", "rental_uris": {"ios": "https://dc.lft.to/lastmile_qr_scan", "android": "https://dc.lft.to/lastmile_qr_scan"}, "fusion_lat": 0.0}, {"lat": 38.930318, "lon": -77.0574315, "is_disabled": 0, "fusion_lon": 0.0, "is_reserved": 0, "name": "05f4f712844c4f3663d193702f73280e", "type": "electric_scooter", "bike_id": "05f4f712844c4f3663d193702f73280e", "rental_uris": {"ios": "https://dc.lft.to/lastmile_qr_scan", "android": "https://dc.lft.to/lastmile_qr_scan"}, "fusion_lat": 0.0}, {"lat": 38.9345635, "lon": -77.0291505, "is_disabled": 0, "fusion_lon": 0.0, "is_reserved": 0, "name": "86e2ee2ccc3f46ff9b95730d87956de9", "type": "electric_scooter", "bike_id": "86e2ee2ccc3f46ff9b95730d87956de9", "rental_uris": {"ios": "https://dc.lft.to/lastmile_qr_scan", "android": "https://dc.lft.to/lastmile_qr_scan"}, "fusion_lat": 0.0}, {"lat": 38.98046766666667, "lon": -76.957862, "is_disabled": 0, "fusion_lon": 0.0, "is_reserved": 0, "name": "5c3c6ac927dca4cb9fc020447b2faa6b", "type": "electric_bike", "bike_id": "5c3c6ac927dca4cb9fc020447b2faa6b", "rental_uris": {"ios": "https://dc.lft.to/lastmile_qr_scan", "android": "https://dc.lft.to/lastmile_qr_scan"}, "fusion_lat": 0.0}, {"lat": 38.897037166666664, "lon": -76.93577366666666, "is_disabled": 0, "fusion_lon": 0.0, "is_reserved": 0, "name": "a640dfd300fd8c1f823e1d16fc370043", "type": "electric_scooter", "bike_id": "a640dfd300fd8c1f823e1d16fc370043", "rental_uris": {"ios": "https://dc.lft.to/lastmile_qr_scan", "android": "https://dc.lft.to/lastmile_qr_scan"}, "fusion_lat": 0.0}, {"lat": 38.9573315, "lon": -77.02406566666667, "is_disabled": 0, "fusion_lon": 0.0, "is_reserved": 0, "name": "07a4542780631ebc9277a7f7d7955b84", "type": "electric_scooter", "bike_id": "07a4542780631ebc9277a7f7d7955b84", "rental_uris": {"ios": "https://dc.lft.to/lastmile_qr_scan", "android": "https://dc.lft.to/lastmile_qr_scan"}, "fusion_lat": 0.0}, {"lat": 38.9284305, "lon": -77.0542525, "is_disabled": 0, "fusion_lon": 0.0, "is_reserved": 0, "name": "6abc8ffd4fe87668968a1ff83877776c", "type": "electric_scooter", "bike_id": "6abc8ffd4fe87668968a1ff83877776c", "rental_uris": {"ios": "https://dc.lft.to/lastmile_qr_scan", "android": "https://dc.lft.to/lastmile_qr_scan"}, "fusion_lat": 0.0}, {"lat": 38.89931766666667, "lon": -77.0127095, "is_disabled": 0, "fusion_lon": 0.0, "is_reserved": 0, "name": "adb23d437f39a32d0ba8fde07f5ec1cc", "type": "electric_scooter", "bike_id": "adb23d437f39a32d0ba8fde07f5ec1cc", "rental_uris": {"ios": "https://dc.lft.to/lastmile_qr_scan", "android": "https://dc.lft.to/lastmile_qr_scan"}, "fusion_lat": 0.0}, {"lat": 38.916021, "lon": -77.031982, "is_disabled": 0, "fusion_lon": 0.0, "is_reserved": 0, "name": "0ae8385b927e5623bcd83ed75b74d353", "type": "electric_scooter", "bike_id": "0ae8385b927e5623bcd83ed75b74d353", "rental_uris": {"ios": "https://dc.lft.to/lastmile_qr_scan", "android": "https://dc.lft.to/lastmile_qr_scan"}, "fusion_lat": 0.0}, {"lat": 38.925003833333335, "lon": -77.02410033333334, "is_disabled": 0, "fusion_lon": 0.0, "is_reserved": 0, "name": "7eec7dc963fe86052a237a72b840f431", "type": "electric_scooter", "bike_id": "7eec7dc963fe86052a237a72b840f431", "rental_uris": {"ios": "https://dc.lft.to/lastmile_qr_scan", "android": "https://dc.lft.to/lastmile_qr_scan"}, "fusion_lat": 0.0}, {"lat": 38.907265333333335, "lon": -77.02983433333333, "is_disabled": 0, "fusion_lon": 0.0, "is_reserved": 0, "name": "cad5e955f97b6f33fce08230f1df162e", "type": "electric_scooter", "bike_id": "cad5e955f97b6f33fce08230f1df162e", "rental_uris": {"ios": "https://dc.lft.to/lastmile_qr_scan", "android": "https://dc.lft.to/lastmile_qr_scan"}, "fusion_lat": 0.0}, {"lat": 38.911234, "lon": -77.038277, "is_disabled": 0, "fusion_lon": 0.0, "is_reserved": 0, "name": "f1c549a3bb2ba637dd3696f5436002b3", "type": "electric_scooter", "bike_id": "f1c549a3bb2ba637dd3696f5436002b3", "rental_uris": {"ios": "https://dc.lft.to/lastmile_qr_scan", "android": "https://dc.lft.to/lastmile_qr_scan"}, "fusion_lat": 0.0}, {"lat": 38.905575, "lon": -77.004975, "is_disabled": 0, "fusion_lon": 0.0, "is_reserved": 0, "name": "4f0142c1af4d8f003f0d70919c8fd5cc", "type": "electric_scooter", "bike_id": "4f0142c1af4d8f003f0d70919c8fd5cc", "rental_uris": {"ios": "https://dc.lft.to/lastmile_qr_scan", "android": "https://dc.lft.to/lastmile_qr_scan"}, "fusion_lat": 0.0}, {"lat": 38.920626166666665, "lon": -77.031983, "is_disabled": 0, "fusion_lon": 0.0, "is_reserved": 0, "name": "b0ff334a73433e4960693ff6d65d2998", "type": "electric_scooter", "bike_id": "b0ff334a73433e4960693ff6d65d2998", "rental_uris": {"ios": "https://dc.lft.to/lastmile_qr_scan", "android": "https://dc.lft.to/lastmile_qr_scan"}, "fusion_lat": 0.0}, {"lat": 38.934949333333336, "lon": -76.98137816666667, "is_disabled": 0, "fusion_lon": 0.0, "is_reserved": 0, "name": "7192136322d45c9990f7f95be01c00dd", "type": "electric_bike", "bike_id": "7192136322d45c9990f7f95be01c00dd", "rental_uris": {"ios": "https://dc.lft.to/lastmile_qr_scan", "android": "https://dc.lft.to/lastmile_qr_scan"}, "fusion_lat": 0.0}, {"lat": 38.953570666666664, "lon": -76.98095383333333, "is_disabled": 0, "fusion_lon": 0.0, "is_reserved": 0, "name": "b316fe40c4373d2724387858ddd692df", "type": "electric_bike", "bike_id": "b316fe40c4373d2724387858ddd692df", "rental_uris": {"ios": "https://dc.lft.to/lastmile_qr_scan", "android": "https://dc.lft.to/lastmile_qr_scan"}, "fusion_lat": 0.0}, {"lat": 38.92045016666667, "lon": -77.0418945, "is_disabled": 0, "fusion_lon": 0.0, "is_reserved": 0, "name": "7161743d2e5964f7ad2373d265538517", "type": "electric_scooter", "bike_id": "7161743d2e5964f7ad2373d265538517", "rental_uris": {"ios": "https://dc.lft.to/lastmile_qr_scan", "android": "https://dc.lft.to/lastmile_qr_scan"}, "fusion_lat": 0.0}, {"lat": 38.949221333333334, "lon": -77.00799333333333, "is_disabled": 0, "fusion_lon": 0.0, "is_reserved": 0, "name": "509302170bfe9818a3c0e9f585f0cdf4", "type": "electric_bike", "bike_id": "509302170bfe9818a3c0e9f585f0cdf4", "rental_uris": {"ios": "https://dc.lft.to/lastmile_qr_scan", "android": "https://dc.lft.to/lastmile_qr_scan"}, "fusion_lat": 0.0}, {"lat": 38.918375833333336, "lon": -77.02308116666667, "is_disabled": 0, "fusion_lon": 0.0, "is_reserved": 0, "name": "65a975ef44c373b262b3ab0edf150895", "type": "electric_scooter", "bike_id": "65a975ef44c373b262b3ab0edf150895", "rental_uris": {"ios": "https://dc.lft.to/lastmile_qr_scan", "android": "https://dc.lft.to/lastmile_qr_scan"}, "fusion_lat": 0.0}, {"lat": 38.96607133333333, "lon": -77.0274695, "is_disabled": 0, "fusion_lon": 0.0, "is_reserved": 0, "name": "e70aae0e27cf417d19a04f9729080b7d", "type": "electric_scooter", "bike_id": "e70aae0e27cf417d19a04f9729080b7d", "rental_uris": {"ios": "https://dc.lft.to/lastmile_qr_scan", "android": "https://dc.lft.to/lastmile_qr_scan"}, "fusion_lat": 0.0}, {"lat": 38.93358333333333, "lon": -77.02462516666667, "is_disabled": 0, "fusion_lon": 0.0, "is_reserved": 0, "name": "16b8f2abcd03e4f1cc89af7053f9bdf6", "type": "electric_scooter", "bike_id": "16b8f2abcd03e4f1cc89af7053f9bdf6", "rental_uris": {"ios": "https://dc.lft.to/lastmile_qr_scan", "android": "https://dc.lft.to/lastmile_qr_scan"}, "fusion_lat": 0.0}, {"lat": 38.907086, "lon": -77.0320345, "is_disabled": 0, "fusion_lon": 0.0, "is_reserved": 0, "name": "99a5435fc97df808a6f48ffc81f98888", "type": "electric_scooter", "bike_id": "99a5435fc97df808a6f48ffc81f98888", "rental_uris": {"ios": "https://dc.lft.to/lastmile_qr_scan", "android": "https://dc.lft.to/lastmile_qr_scan"}, "fusion_lat": 0.0}, {"lat": 38.900389, "lon": -77.03504283333334, "is_disabled": 0, "fusion_lon": 0.0, "is_reserved": 0, "name": "9893f497c988d184d8c58a88b4f8f2b3", "type": "electric_scooter", "bike_id": "9893f497c988d184d8c58a88b4f8f2b3", "rental_uris": {"ios": "https://dc.lft.to/lastmile_qr_scan", "android": "https://dc.lft.to/lastmile_qr_scan"}, "fusion_lat": 0.0}, {"lat": 38.92130266666667, "lon": -77.04114483333333, "is_disabled": 0, "fusion_lon": 0.0, "is_reserved": 0, "name": "9339dc83acecf0b8d098d2c87420526f", "type": "electric_scooter", "bike_id": "9339dc83acecf0b8d098d2c87420526f", "rental_uris": {"ios": "https://dc.lft.to/lastmile_qr_scan", "android": "https://dc.lft.to/lastmile_qr_scan"}, "fusion_lat": 0.0}, {"lat": 38.920164666666665, "lon": -77.0220835, "is_disabled": 0, "fusion_lon": 0.0, "is_reserved": 0, "name": "5b550865ebddcb4a5735248825f78e38", "type": "electric_scooter", "bike_id": "5b550865ebddcb4a5735248825f78e38", "rental_uris": {"ios": "https://dc.lft.to/lastmile_qr_scan", "android": "https://dc.lft.to/lastmile_qr_scan"}, "fusion_lat": 0.0}, {"lat": 38.923767, "lon": -77.0021995, "is_disabled": 0, "fusion_lon": 0.0, "is_reserved": 0, "name": "fbb85090a4be879386d1091eda2a93a9", "type": "electric_scooter", "bike_id": "fbb85090a4be879386d1091eda2a93a9", "rental_uris": {"ios": "https://dc.lft.to/lastmile_qr_scan", "android": "https://dc.lft.to/lastmile_qr_scan"}, "fusion_lat": 0.0}, {"lat": 38.89529516666666, "lon": -77.01127966666667, "is_disabled": 0, "fusion_lon": 0.0, "is_reserved": 0, "name": "2e9ad74d7b5ed6a337887ce9dd4736d9", "type": "electric_scooter", "bike_id": "2e9ad74d7b5ed6a337887ce9dd4736d9", "rental_uris": {"ios": "https://dc.lft.to/lastmile_qr_scan", "android": "https://dc.lft.to/lastmile_qr_scan"}, "fusion_lat": 0.0}, {"lat": 38.915985666666664, "lon": -77.01209433333334, "is_disabled": 0, "fusion_lon": 0.0, "is_reserved": 0, "name": "33e8f24b62fc41c0422c8e05397dab02", "type": "electric_scooter", "bike_id": "33e8f24b62fc41c0422c8e05397dab02", "rental_uris": {"ios": "https://dc.lft.to/lastmile_qr_scan", "android": "https://dc.lft.to/lastmile_qr_scan"}, "fusion_lat": 0.0}, {"lat": 38.9195205, "lon": -77.04165316666666, "is_disabled": 0, "fusion_lon": 0.0, "is_reserved": 0, "name": "a42a1eaa9981fa4d04267711f2386bcf", "type": "electric_scooter", "bike_id": "a42a1eaa9981fa4d04267711f2386bcf", "rental_uris": {"ios": "https://dc.lft.to/lastmile_qr_scan", "android": "https://dc.lft.to/lastmile_qr_scan"}, "fusion_lat": 0.0}, {"lat": 38.91579683333333, "lon": -77.02185166666666, "is_disabled": 0, "fusion_lon": 0.0, "is_reserved": 0, "name": "8bd1e528b23b9dfbf53b0cecd380d479", "type": "electric_scooter", "bike_id": "8bd1e528b23b9dfbf53b0cecd380d479", "rental_uris": {"ios": "https://dc.lft.to/lastmile_qr_scan", "android": "https://dc.lft.to/lastmile_qr_scan"}, "fusion_lat": 0.0}, {"lat": 38.912673833333336, "lon": -77.03755383333333, "is_disabled": 0, "fusion_lon": 0.0, "is_reserved": 0, "name": "d50eb54daad6c80c020d0fd0d6224646", "type": "electric_scooter", "bike_id": "d50eb54daad6c80c020d0fd0d6224646", "rental_uris": {"ios": "https://dc.lft.to/lastmile_qr_scan", "android": "https://dc.lft.to/lastmile_qr_scan"}, "fusion_lat": 0.0}, {"lat": 38.900547333333336, "lon": -77.00071116666666, "is_disabled": 0, "fusion_lon": 0.0, "is_reserved": 0, "name": "7e98d89bd9cfb673bc9bb97b258fbe61", "type": "electric_scooter", "bike_id": "7e98d89bd9cfb673bc9bb97b258fbe61", "rental_uris": {"ios": "https://dc.lft.to/lastmile_qr_scan", "android": "https://dc.lft.to/lastmile_qr_scan"}, "fusion_lat": 0.0}, {"lat": 38.895843, "lon": -76.9832525, "is_disabled": 0, "fusion_lon": 0.0, "is_reserved": 0, "name": "59e62ad3832b62b2a9d8c1d5364aa6b4", "type": "electric_scooter", "bike_id": "59e62ad3832b62b2a9d8c1d5364aa6b4", "rental_uris": {"ios": "https://dc.lft.to/lastmile_qr_scan", "android": "https://dc.lft.to/lastmile_qr_scan"}, "fusion_lat": 0.0}, {"lat": 38.9140725, "lon": -77.01409066666666, "is_disabled": 0, "fusion_lon": 0.0, "is_reserved": 0, "name": "593031520ce7275a4893f1b33c6c785a", "type": "electric_scooter", "bike_id": "593031520ce7275a4893f1b33c6c785a", "rental_uris": {"ios": "https://dc.lft.to/lastmile_qr_scan", "android": "https://dc.lft.to/lastmile_qr_scan"}, "fusion_lat": 0.0}, {"lat": 38.82046366666667, "lon": -77.05359683333333, "is_disabled": 0, "fusion_lon": 0.0, "is_reserved": 0, "name": "f76af1c4069e4332ebe3b5d218ec7f74", "type": "electric_bike", "bike_id": "f76af1c4069e4332ebe3b5d218ec7f74", "rental_uris": {"ios": "https://dc.lft.to/lastmile_qr_scan", "android": "https://dc.lft.to/lastmile_qr_scan"}, "fusion_lat": 0.0}, {"lat": 38.9178495, "lon": -77.04337333333334, "is_disabled": 0, "fusion_lon": 0.0, "is_reserved": 0, "name": "ce056a5ca922dbdc4c5cee39642e0ab8", "type": "electric_scooter", "bike_id": "ce056a5ca922dbdc4c5cee39642e0ab8", "rental_uris": {"ios": "https://dc.lft.to/lastmile_qr_scan", "android": "https://dc.lft.to/lastmile_qr_scan"}, "fusion_lat": 0.0}, {"lat": 38.924673166666665, "lon": -77.02247983333334, "is_disabled": 0, "fusion_lon": 0.0, "is_reserved": 0, "name": "abf4a717ae5137ce22b86b8070f40eba", "type": "electric_scooter", "bike_id": "abf4a717ae5137ce22b86b8070f40eba", "rental_uris": {"ios": "https://dc.lft.to/lastmile_qr_scan", "android": "https://dc.lft.to/lastmile_qr_scan"}, "fusion_lat": 0.0}, {"lat": 38.916773166666665, "lon": -77.02281683333334, "is_disabled": 0, "fusion_lon": 0.0, "is_reserved": 0, "name": "3edc7275fe256364b9e6fe7d5c4a388f", "type": "electric_scooter", "bike_id": "3edc7275fe256364b9e6fe7d5c4a388f", "rental_uris": {"ios": "https://dc.lft.to/lastmile_qr_scan", "android": "https://dc.lft.to/lastmile_qr_scan"}, "fusion_lat": 0.0}, {"lat": 38.900436666666664, "lon": -77.01780066666667, "is_disabled": 0, "fusion_lon": 0.0, "is_reserved": 0, "name": "b1282ce2307b04d3cb04c52ba13c246c", "type": "electric_scooter", "bike_id": "b1282ce2307b04d3cb04c52ba13c246c", "rental_uris": {"ios": "https://dc.lft.to/lastmile_qr_scan", "android": "https://dc.lft.to/lastmile_qr_scan"}, "fusion_lat": 0.0}, {"lat": 38.89010666666667, "lon": -76.93701966666667, "is_disabled": 0, "fusion_lon": 0.0, "is_reserved": 0, "name": "c101d8ebcc89b7e62c5c856029a4ec8e", "type": "electric_scooter", "bike_id": "c101d8ebcc89b7e62c5c856029a4ec8e", "rental_uris": {"ios": "https://dc.lft.to/lastmile_qr_scan", "android": "https://dc.lft.to/lastmile_qr_scan"}, "fusion_lat": 0.0}, {"lat": 38.835130166666666, "lon": -76.98682566666666, "is_disabled": 0, "fusion_lon": 0.0, "is_reserved": 0, "name": "d15abc4c7daf6cda59dd1ad72b65f65f", "type": "electric_bike", "bike_id": "d15abc4c7daf6cda59dd1ad72b65f65f", "rental_uris": {"ios": "https://dc.lft.to/lastmile_qr_scan", "android": "https://dc.lft.to/lastmile_qr_scan"}, "fusion_lat": 0.0}, {"lat": 38.9141055, "lon": -77.0298005, "is_disabled": 0, "fusion_lon": 0.0, "is_reserved": 0, "name": "a1a5fd08eb4698ed92a216df2d5c032d", "type": "electric_scooter", "bike_id": "a1a5fd08eb4698ed92a216df2d5c032d", "rental_uris": {"ios": "https://dc.lft.to/lastmile_qr_scan", "android": "https://dc.lft.to/lastmile_qr_scan"}, "fusion_lat": 0.0}, {"lat": 38.872115, "lon": -77.013892, "is_disabled": 0, "fusion_lon": 0.0, "is_reserved": 0, "name": "346c6a2e6ff7bb426b604bed2edb12e2", "type": "electric_scooter", "bike_id": "346c6a2e6ff7bb426b604bed2edb12e2", "rental_uris": {"ios": "https://dc.lft.to/lastmile_qr_scan", "android": "https://dc.lft.to/lastmile_qr_scan"}, "fusion_lat": 0.0}, {"lat": 38.936062166666666, "lon": -77.05857816666666, "is_disabled": 0, "fusion_lon": 0.0, "is_reserved": 0, "name": "8e63c502415622f0f5c5c32d596cdd6b", "type": "electric_scooter", "bike_id": "8e63c502415622f0f5c5c32d596cdd6b", "rental_uris": {"ios": "https://dc.lft.to/lastmile_qr_scan", "android": "https://dc.lft.to/lastmile_qr_scan"}, "fusion_lat": 0.0}, {"lat": 38.887493166666665, "lon": -77.01775083333334, "is_disabled": 0, "fusion_lon": 0.0, "is_reserved": 0, "name": "aeb0aa5a7ae1a5b95551d830e66b5d9e", "type": "electric_scooter", "bike_id": "aeb0aa5a7ae1a5b95551d830e66b5d9e", "rental_uris": {"ios": "https://dc.lft.to/lastmile_qr_scan", "android": "https://dc.lft.to/lastmile_qr_scan"}, "fusion_lat": 0.0}, {"lat": 38.88997666666667, "lon": -76.95430583333334, "is_disabled": 0, "fusion_lon": 0.0, "is_reserved": 0, "name": "9e10955b06623a4f7916a0b4a1ba1bdb", "type": "electric_scooter", "bike_id": "9e10955b06623a4f7916a0b4a1ba1bdb", "rental_uris": {"ios": "https://dc.lft.to/lastmile_qr_scan", "android": "https://dc.lft.to/lastmile_qr_scan"}, "fusion_lat": 0.0}, {"lat": 38.900985, "lon": -77.04781666666666, "is_disabled": 0, "fusion_lon": 0.0, "is_reserved": 0, "name": "5243fe3e6c56f82133744258c5611c36", "type": "electric_scooter", "bike_id": "5243fe3e6c56f82133744258c5611c36", "rental_uris": {"ios": "https://dc.lft.to/lastmile_qr_scan", "android": "https://dc.lft.to/lastmile_qr_scan"}, "fusion_lat": 0.0}, {"lat": 38.9111495, "lon": -77.01152033333334, "is_disabled": 0, "fusion_lon": 0.0, "is_reserved": 0, "name": "509b838f9252fb545ba10f71d2855eb0", "type": "electric_scooter", "bike_id": "509b838f9252fb545ba10f71d2855eb0", "rental_uris": {"ios": "https://dc.lft.to/lastmile_qr_scan", "android": "https://dc.lft.to/lastmile_qr_scan"}, "fusion_lat": 0.0}, {"lat": 38.898418, "lon": -77.02791866666666, "is_disabled": 0, "fusion_lon": 0.0, "is_reserved": 0, "name": "c5f187da5e25d174575d7a369bd33a0d", "type": "electric_scooter", "bike_id": "c5f187da5e25d174575d7a369bd33a0d", "rental_uris": {"ios": "https://dc.lft.to/lastmile_qr_scan", "android": "https://dc.lft.to/lastmile_qr_scan"}, "fusion_lat": 0.0}, {"lat": 38.899859666666664, "lon": -77.0218975, "is_disabled": 0, "fusion_lon": 0.0, "is_reserved": 0, "name": "99c32843839de7966a5311dd6e8e4063", "type": "electric_scooter", "bike_id": "99c32843839de7966a5311dd6e8e4063", "rental_uris": {"ios": "https://dc.lft.to/lastmile_qr_scan", "android": "https://dc.lft.to/lastmile_qr_scan"}, "fusion_lat": 0.0}, {"lat": 38.86043, "lon": -77.00347016666667, "is_disabled": 0, "fusion_lon": 0.0, "is_reserved": 0, "name": "6d1e67ba469bec4c454772ce49a543e0", "type": "electric_scooter", "bike_id": "6d1e67ba469bec4c454772ce49a543e0", "rental_uris": {"ios": "https://dc.lft.to/lastmile_qr_scan", "android": "https://dc.lft.to/lastmile_qr_scan"}, "fusion_lat": 0.0}, {"lat": 38.90955016666667, "lon": -77.03204366666667, "is_disabled": 0, "fusion_lon": 0.0, "is_reserved": 0, "name": "565c3f0f5a82bb0523094e3773807cf0", "type": "electric_scooter", "bike_id": "565c3f0f5a82bb0523094e3773807cf0", "rental_uris": {"ios": "https://dc.lft.to/lastmile_qr_scan", "android": "https://dc.lft.to/lastmile_qr_scan"}, "fusion_lat": 0.0}, {"lat": 38.9050955, "lon": -77.04836883333333, "is_disabled": 0, "fusion_lon": 0.0, "is_reserved": 0, "name": "c121e51ec16badd62476bb9400317253", "type": "electric_scooter", "bike_id": "c121e51ec16badd62476bb9400317253", "rental_uris": {"ios": "https://dc.lft.to/lastmile_qr_scan", "android": "https://dc.lft.to/lastmile_qr_scan"}, "fusion_lat": 0.0}, {"lat": 38.97502466666667, "lon": -77.01666633333333, "is_disabled": 0, "fusion_lon": 0.0, "is_reserved": 0, "name": "08f16f7e3120bfdc4c65d19f03c6b355", "type": "electric_scooter", "bike_id": "08f16f7e3120bfdc4c65d19f03c6b355", "rental_uris": {"ios": "https://dc.lft.to/lastmile_qr_scan", "android": "https://dc.lft.to/lastmile_qr_scan"}, "fusion_lat": 0.0}, {"lat": 38.8963345, "lon": -77.04012283333333, "is_disabled": 0, "fusion_lon": 0.0, "is_reserved": 0, "name": "8bc5fc228626ac3faa4932e1280bed33", "type": "electric_scooter", "bike_id": "8bc5fc228626ac3faa4932e1280bed33", "rental_uris": {"ios": "https://dc.lft.to/lastmile_qr_scan", "android": "https://dc.lft.to/lastmile_qr_scan"}, "fusion_lat": 0.0}, {"lat": 38.91803733333333, "lon": -77.03443016666667, "is_disabled": 0, "fusion_lon": 0.0, "is_reserved": 0, "name": "5cea63dea63d129be18d9194521be9a2", "type": "electric_scooter", "bike_id": "5cea63dea63d129be18d9194521be9a2", "rental_uris": {"ios": "https://dc.lft.to/lastmile_qr_scan", "android": "https://dc.lft.to/lastmile_qr_scan"}, "fusion_lat": 0.0}, {"lat": 38.921647666666665, "lon": -77.01797166666667, "is_disabled": 0, "fusion_lon": 0.0, "is_reserved": 0, "name": "c8e67e39ea2f99c7ad598dc5c8e1506f", "type": "electric_scooter", "bike_id": "c8e67e39ea2f99c7ad598dc5c8e1506f", "rental_uris": {"ios": "https://dc.lft.to/lastmile_qr_scan", "android": "https://dc.lft.to/lastmile_qr_scan"}, "fusion_lat": 0.0}, {"lat": 38.927904833333336, "lon": -77.03246816666666, "is_disabled": 0, "fusion_lon": 0.0, "is_reserved": 0, "name": "467aad10909dc7f1e05b2a9718551f80", "type": "electric_scooter", "bike_id": "467aad10909dc7f1e05b2a9718551f80", "rental_uris": {"ios": "https://dc.lft.to/lastmile_qr_scan", "android": "https://dc.lft.to/lastmile_qr_scan"}, "fusion_lat": 0.0}, {"lat": 38.909331333333334, "lon": -77.03989783333333, "is_disabled": 0, "fusion_lon": 0.0, "is_reserved": 0, "name": "42145865cab95eeb568ae1dc06fa2249", "type": "electric_scooter", "bike_id": "42145865cab95eeb568ae1dc06fa2249", "rental_uris": {"ios": "https://dc.lft.to/lastmile_qr_scan", "android": "https://dc.lft.to/lastmile_qr_scan"}, "fusion_lat": 0.0}, {"lat": 38.9950585, "lon": -76.99966716666667, "is_disabled": 0, "fusion_lon": 0.0, "is_reserved": 0, "name": "ecf809bc8a1846bcd3e86bb0c289b390", "type": "electric_bike", "bike_id": "ecf809bc8a1846bcd3e86bb0c289b390", "rental_uris": {"ios": "https://dc.lft.to/lastmile_qr_scan", "android": "https://dc.lft.to/lastmile_qr_scan"}, "fusion_lat": 0.0}, {"lat": 38.88541266666667, "lon": -76.97887083333333, "is_disabled": 0, "fusion_lon": 0.0, "is_reserved": 0, "name": "eccab6017103a352821ce5c8f8528a28", "type": "electric_scooter", "bike_id": "eccab6017103a352821ce5c8f8528a28", "rental_uris": {"ios": "https://dc.lft.to/lastmile_qr_scan", "android": "https://dc.lft.to/lastmile_qr_scan"}, "fusion_lat": 0.0}, {"lat": 38.9025575, "lon": -76.98479233333333, "is_disabled": 0, "fusion_lon": 0.0, "is_reserved": 0, "name": "8d0c8cd4026c62e2ae5e11a3c8798ff9", "type": "electric_scooter", "bike_id": "8d0c8cd4026c62e2ae5e11a3c8798ff9", "rental_uris": {"ios": "https://dc.lft.to/lastmile_qr_scan", "android": "https://dc.lft.to/lastmile_qr_scan"}, "fusion_lat": 0.0}, {"lat": 38.904044166666665, "lon": -77.024875, "is_disabled": 0, "fusion_lon": 0.0, "is_reserved": 0, "name": "7316c5e5632b8be85712547afad3eb20", "type": "electric_scooter", "bike_id": "7316c5e5632b8be85712547afad3eb20", "rental_uris": {"ios": "https://dc.lft.to/lastmile_qr_scan", "android": "https://dc.lft.to/lastmile_qr_scan"}, "fusion_lat": 0.0}, {"lat": 38.909682, "lon": -77.01714683333333, "is_disabled": 0, "fusion_lon": 0.0, "is_reserved": 0, "name": "f1ddcf9b41988ec9854279713d6e92fd", "type": "electric_scooter", "bike_id": "f1ddcf9b41988ec9854279713d6e92fd", "rental_uris": {"ios": "https://dc.lft.to/lastmile_qr_scan", "android": "https://dc.lft.to/lastmile_qr_scan"}, "fusion_lat": 0.0}, {"lat": 38.887418, "lon": -77.00326133333333, "is_disabled": 0, "fusion_lon": 0.0, "is_reserved": 0, "name": "e86ef9f9576b9465e2eee824d48455db", "type": "electric_scooter", "bike_id": "e86ef9f9576b9465e2eee824d48455db", "rental_uris": {"ios": "https://dc.lft.to/lastmile_qr_scan", "android": "https://dc.lft.to/lastmile_qr_scan"}, "fusion_lat": 0.0}, {"lat": 38.8756095, "lon": -77.005588, "is_disabled": 0, "fusion_lon": 0.0, "is_reserved": 0, "name": "43f82ae1d085e37bac739e6e80ca8d2c", "type": "electric_scooter", "bike_id": "43f82ae1d085e37bac739e6e80ca8d2c", "rental_uris": {"ios": "https://dc.lft.to/lastmile_qr_scan", "android": "https://dc.lft.to/lastmile_qr_scan"}, "fusion_lat": 0.0}, {"lat": 38.90411116666667, "lon": -76.9733405, "is_disabled": 0, "fusion_lon": 0.0, "is_reserved": 0, "name": "28e7c5efd6fb8f97098675b29c354575", "type": "electric_scooter", "bike_id": "28e7c5efd6fb8f97098675b29c354575", "rental_uris": {"ios": "https://dc.lft.to/lastmile_qr_scan", "android": "https://dc.lft.to/lastmile_qr_scan"}, "fusion_lat": 0.0}, {"lat": 38.92624583333333, "lon": -77.0370355, "is_disabled": 0, "fusion_lon": 0.0, "is_reserved": 0, "name": "2e67b6d13d24f614f1ff8e78e6378194", "type": "electric_scooter", "bike_id": "2e67b6d13d24f614f1ff8e78e6378194", "rental_uris": {"ios": "https://dc.lft.to/lastmile_qr_scan", "android": "https://dc.lft.to/lastmile_qr_scan"}, "fusion_lat": 0.0}, {"lat": 38.914644, "lon": -77.00214233333334, "is_disabled": 0, "fusion_lon": 0.0, "is_reserved": 0, "name": "da0d9d30301e550b78b272927ff533a6", "type": "electric_scooter", "bike_id": "da0d9d30301e550b78b272927ff533a6", "rental_uris": {"ios": "https://dc.lft.to/lastmile_qr_scan", "android": "https://dc.lft.to/lastmile_qr_scan"}, "fusion_lat": 0.0}, {"lat": 38.95044216666667, "lon": -77.02718383333334, "is_disabled": 0, "fusion_lon": 0.0, "is_reserved": 0, "name": "8ac91c5477032ab9352bf50c579f8c22", "type": "electric_scooter", "bike_id": "8ac91c5477032ab9352bf50c579f8c22", "rental_uris": {"ios": "https://dc.lft.to/lastmile_qr_scan", "android": "https://dc.lft.to/lastmile_qr_scan"}, "fusion_lat": 0.0}, {"lat": 38.911163, "lon": -77.04540266666666, "is_disabled": 0, "fusion_lon": 0.0, "is_reserved": 0, "name": "0f70bff79d3693da578b6b8bec15b25e", "type": "electric_scooter", "bike_id": "0f70bff79d3693da578b6b8bec15b25e", "rental_uris": {"ios": "https://dc.lft.to/lastmile_qr_scan", "android": "https://dc.lft.to/lastmile_qr_scan"}, "fusion_lat": 0.0}, {"lat": 38.9184995, "lon": -77.02447633333334, "is_disabled": 0, "fusion_lon": 0.0, "is_reserved": 0, "name": "14a2c354f2526e8461bc8774e3f74833", "type": "electric_scooter", "bike_id": "14a2c354f2526e8461bc8774e3f74833", "rental_uris": {"ios": "https://dc.lft.to/lastmile_qr_scan", "android": "https://dc.lft.to/lastmile_qr_scan"}, "fusion_lat": 0.0}, {"lat": 38.89225783333333, "lon": -77.04507183333334, "is_disabled": 0, "fusion_lon": 0.0, "is_reserved": 0, "name": "76cb3dcf5629da825fff9e28d0fd978b", "type": "electric_scooter", "bike_id": "76cb3dcf5629da825fff9e28d0fd978b", "rental_uris": {"ios": "https://dc.lft.to/lastmile_qr_scan", "android": "https://dc.lft.to/lastmile_qr_scan"}, "fusion_lat": 0.0}, {"lat": 38.90288266666667, "lon": -77.04243716666667, "is_disabled": 0, "fusion_lon": 0.0, "is_reserved": 0, "name": "b425024906b9b49f387961266ab70eca", "type": "electric_scooter", "bike_id": "b425024906b9b49f387961266ab70eca", "rental_uris": {"ios": "https://dc.lft.to/lastmile_qr_scan", "android": "https://dc.lft.to/lastmile_qr_scan"}, "fusion_lat": 0.0}, {"lat": 38.903344833333335, "lon": -77.0164, "is_disabled": 0, "fusion_lon": 0.0, "is_reserved": 0, "name": "cdc1b7e0065cbe3ac68c396bf41245ff", "type": "electric_scooter", "bike_id": "cdc1b7e0065cbe3ac68c396bf41245ff", "rental_uris": {"ios": "https://dc.lft.to/lastmile_qr_scan", "android": "https://dc.lft.to/lastmile_qr_scan"}, "fusion_lat": 0.0}, {"lat": 38.91887216666667, "lon": -77.03488066666667, "is_disabled": 0, "fusion_lon": 0.0, "is_reserved": 0, "name": "685b9cec5a0ee4c7cd0af8d81a3b552c", "type": "electric_scooter", "bike_id": "685b9cec5a0ee4c7cd0af8d81a3b552c", "rental_uris": {"ios": "https://dc.lft.to/lastmile_qr_scan", "android": "https://dc.lft.to/lastmile_qr_scan"}, "fusion_lat": 0.0}, {"lat": 38.9002435, "lon": -76.99314866666667, "is_disabled": 0, "fusion_lon": 0.0, "is_reserved": 0, "name": "d13471d7c85029dd2141bc7c6ba05084", "type": "electric_scooter", "bike_id": "d13471d7c85029dd2141bc7c6ba05084", "rental_uris": {"ios": "https://dc.lft.to/lastmile_qr_scan", "android": "https://dc.lft.to/lastmile_qr_scan"}, "fusion_lat": 0.0}, {"lat": 38.932422, "lon": -77.03881466666667, "is_disabled": 0, "fusion_lon": 0.0, "is_reserved": 0, "name": "842dfcbb36ce5dae916ee8bce8648aec", "type": "electric_scooter", "bike_id": "842dfcbb36ce5dae916ee8bce8648aec", "rental_uris": {"ios": "https://dc.lft.to/lastmile_qr_scan", "android": "https://dc.lft.to/lastmile_qr_scan"}, "fusion_lat": 0.0}, {"lat": 38.92333983333333, "lon": -77.02694266666667, "is_disabled": 0, "fusion_lon": 0.0, "is_reserved": 0, "name": "33fe037d241e2f123d6a2ed0946db449", "type": "electric_scooter", "bike_id": "33fe037d241e2f123d6a2ed0946db449", "rental_uris": {"ios": "https://dc.lft.to/lastmile_qr_scan", "android": "https://dc.lft.to/lastmile_qr_scan"}, "fusion_lat": 0.0}, {"lat": 38.905106, "lon": -77.04822633333333, "is_disabled": 0, "fusion_lon": 0.0, "is_reserved": 0, "name": "8e1a3e988e16d16b7b906f013ec466ef", "type": "electric_scooter", "bike_id": "8e1a3e988e16d16b7b906f013ec466ef", "rental_uris": {"ios": "https://dc.lft.to/lastmile_qr_scan", "android": "https://dc.lft.to/lastmile_qr_scan"}, "fusion_lat": 0.0}, {"lat": 38.92172933333333, "lon": -77.03825766666667, "is_disabled": 0, "fusion_lon": 0.0, "is_reserved": 0, "name": "e5f7f3e7c693f997352465c77d1b2553", "type": "electric_scooter", "bike_id": "e5f7f3e7c693f997352465c77d1b2553", "rental_uris": {"ios": "https://dc.lft.to/lastmile_qr_scan", "android": "https://dc.lft.to/lastmile_qr_scan"}, "fusion_lat": 0.0}, {"lat": 38.90167433333333, "lon": -77.02610516666667, "is_disabled": 0, "fusion_lon": 0.0, "is_reserved": 0, "name": "106e00ca902077d5c4ecd7e470494287", "type": "electric_scooter", "bike_id": "106e00ca902077d5c4ecd7e470494287", "rental_uris": {"ios": "https://dc.lft.to/lastmile_qr_scan", "android": "https://dc.lft.to/lastmile_qr_scan"}, "fusion_lat": 0.0}, {"lat": 38.906637833333335, "lon": -77.02694133333334, "is_disabled": 0, "fusion_lon": 0.0, "is_reserved": 0, "name": "6163f9b51ceac10e853fd60f5bd2c916", "type": "electric_scooter", "bike_id": "6163f9b51ceac10e853fd60f5bd2c916", "rental_uris": {"ios": "https://dc.lft.to/lastmile_qr_scan", "android": "https://dc.lft.to/lastmile_qr_scan"}, "fusion_lat": 0.0}, {"lat": 38.88933883333333, "lon": -77.01507166666667, "is_disabled": 0, "fusion_lon": 0.0, "is_reserved": 0, "name": "95f8c472290d988fc09a9a8adb058663", "type": "electric_scooter", "bike_id": "95f8c472290d988fc09a9a8adb058663", "rental_uris": {"ios": "https://dc.lft.to/lastmile_qr_scan", "android": "https://dc.lft.to/lastmile_qr_scan"}, "fusion_lat": 0.0}, {"lat": 38.958028, "lon": -77.0151095, "is_disabled": 0, "fusion_lon": 0.0, "is_reserved": 0, "name": "61d999e57f29a506fbabae43d65718ee", "type": "electric_scooter", "bike_id": "61d999e57f29a506fbabae43d65718ee", "rental_uris": {"ios": "https://dc.lft.to/lastmile_qr_scan", "android": "https://dc.lft.to/lastmile_qr_scan"}, "fusion_lat": 0.0}, {"lat": 38.89357116666667, "lon": -76.9865575, "is_disabled": 0, "fusion_lon": 0.0, "is_reserved": 0, "name": "8831f8d33d8f69c236657037a1855357", "type": "electric_scooter", "bike_id": "8831f8d33d8f69c236657037a1855357", "rental_uris": {"ios": "https://dc.lft.to/lastmile_qr_scan", "android": "https://dc.lft.to/lastmile_qr_scan"}, "fusion_lat": 0.0}, {"lat": 38.905185, "lon": -77.04786533333333, "is_disabled": 0, "fusion_lon": 0.0, "is_reserved": 0, "name": "87087bdedb43be5f6edf37bfe3df6afd", "type": "electric_scooter", "bike_id": "87087bdedb43be5f6edf37bfe3df6afd", "rental_uris": {"ios": "https://dc.lft.to/lastmile_qr_scan", "android": "https://dc.lft.to/lastmile_qr_scan"}, "fusion_lat": 0.0}, {"lat": 38.927026166666664, "lon": -77.020762, "is_disabled": 0, "fusion_lon": 0.0, "is_reserved": 0, "name": "5a7650b3219ab4671090abfcc6a96686", "type": "electric_scooter", "bike_id": "5a7650b3219ab4671090abfcc6a96686", "rental_uris": {"ios": "https://dc.lft.to/lastmile_qr_scan", "android": "https://dc.lft.to/lastmile_qr_scan"}, "fusion_lat": 0.0}, {"lat": 38.908902166666664, "lon": -77.0440365, "is_disabled": 0, "fusion_lon": 0.0, "is_reserved": 0, "name": "660d7635f6b2d8d0ae189765b25fa47e", "type": "electric_scooter", "bike_id": "660d7635f6b2d8d0ae189765b25fa47e", "rental_uris": {"ios": "https://dc.lft.to/lastmile_qr_scan", "android": "https://dc.lft.to/lastmile_qr_scan"}, "fusion_lat": 0.0}, {"lat": 38.89999433333333, "lon": -76.99831733333333, "is_disabled": 0, "fusion_lon": 0.0, "is_reserved": 0, "name": "0dc69b253d49dccfaf9740cc31a10b74", "type": "electric_scooter", "bike_id": "0dc69b253d49dccfaf9740cc31a10b74", "rental_uris": {"ios": "https://dc.lft.to/lastmile_qr_scan", "android": "https://dc.lft.to/lastmile_qr_scan"}, "fusion_lat": 0.0}, {"lat": 38.919168666666664, "lon": -77.02371766666667, "is_disabled": 0, "fusion_lon": 0.0, "is_reserved": 0, "name": "1239369a8ab06eb78c531f666bbe3a34", "type": "electric_scooter", "bike_id": "1239369a8ab06eb78c531f666bbe3a34", "rental_uris": {"ios": "https://dc.lft.to/lastmile_qr_scan", "android": "https://dc.lft.to/lastmile_qr_scan"}, "fusion_lat": 0.0}, {"lat": 38.91953383333333, "lon": -76.991877, "is_disabled": 0, "fusion_lon": 0.0, "is_reserved": 0, "name": "eaff179aceb7ef128b39f06185507441", "type": "electric_bike", "bike_id": "eaff179aceb7ef128b39f06185507441", "rental_uris": {"ios": "https://dc.lft.to/lastmile_qr_scan", "android": "https://dc.lft.to/lastmile_qr_scan"}, "fusion_lat": 0.0}, {"lat": 38.924750333333336, "lon": -77.0283705, "is_disabled": 0, "fusion_lon": 0.0, "is_reserved": 0, "name": "c0489dc412aeef43cc10b5464059f94b", "type": "electric_scooter", "bike_id": "c0489dc412aeef43cc10b5464059f94b", "rental_uris": {"ios": "https://dc.lft.to/lastmile_qr_scan", "android": "https://dc.lft.to/lastmile_qr_scan"}, "fusion_lat": 0.0}, {"lat": 38.91293533333333, "lon": -77.02386083333333, "is_disabled": 0, "fusion_lon": 0.0, "is_reserved": 0, "name": "37b14cae5b67cecc60f7385c21c3a49e", "type": "electric_scooter", "bike_id": "37b14cae5b67cecc60f7385c21c3a49e", "rental_uris": {"ios": "https://dc.lft.to/lastmile_qr_scan", "android": "https://dc.lft.to/lastmile_qr_scan"}, "fusion_lat": 0.0}, {"lat": 38.91639633333333, "lon": -77.05079783333333, "is_disabled": 0, "fusion_lon": 0.0, "is_reserved": 0, "name": "41974eaebb47e1268af73298023c72f1", "type": "electric_scooter", "bike_id": "41974eaebb47e1268af73298023c72f1", "rental_uris": {"ios": "https://dc.lft.to/lastmile_qr_scan", "android": "https://dc.lft.to/lastmile_qr_scan"}, "fusion_lat": 0.0}, {"lat": 38.90007716666667, "lon": -77.01198083333334, "is_disabled": 0, "fusion_lon": 0.0, "is_reserved": 0, "name": "46ea2645dc653e6d0502bb15b17171ba", "type": "electric_scooter", "bike_id": "46ea2645dc653e6d0502bb15b17171ba", "rental_uris": {"ios": "https://dc.lft.to/lastmile_qr_scan", "android": "https://dc.lft.to/lastmile_qr_scan"}, "fusion_lat": 0.0}, {"lat": 38.91614783333333, "lon": -77.03186116666667, "is_disabled": 0, "fusion_lon": 0.0, "is_reserved": 0, "name": "5543ac806f3b8b326946afa10d87a530", "type": "electric_scooter", "bike_id": "5543ac806f3b8b326946afa10d87a530", "rental_uris": {"ios": "https://dc.lft.to/lastmile_qr_scan", "android": "https://dc.lft.to/lastmile_qr_scan"}, "fusion_lat": 0.0}, {"lat": 38.9013045, "lon": -77.00211683333333, "is_disabled": 0, "fusion_lon": 0.0, "is_reserved": 0, "name": "2252248ab08f92b97a0f7b10699daa6d", "type": "electric_scooter", "bike_id": "2252248ab08f92b97a0f7b10699daa6d", "rental_uris": {"ios": "https://dc.lft.to/lastmile_qr_scan", "android": "https://dc.lft.to/lastmile_qr_scan"}, "fusion_lat": 0.0}, {"lat": 38.90695483333333, "lon": -77.03598433333333, "is_disabled": 0, "fusion_lon": 0.0, "is_reserved": 0, "name": "4d7c9a838fba532935d82140868d7314", "type": "electric_scooter", "bike_id": "4d7c9a838fba532935d82140868d7314", "rental_uris": {"ios": "https://dc.lft.to/lastmile_qr_scan", "android": "https://dc.lft.to/lastmile_qr_scan"}, "fusion_lat": 0.0}, {"lat": 38.9159645, "lon": -77.01208066666666, "is_disabled": 0, "fusion_lon": 0.0, "is_reserved": 0, "name": "e0a85e3fe7726aa6a074a44398e6544d", "type": "electric_scooter", "bike_id": "e0a85e3fe7726aa6a074a44398e6544d", "rental_uris": {"ios": "https://dc.lft.to/lastmile_qr_scan", "android": "https://dc.lft.to/lastmile_qr_scan"}, "fusion_lat": 0.0}, {"lat": 38.918224333333335, "lon": -77.03664183333333, "is_disabled": 0, "fusion_lon": 0.0, "is_reserved": 0, "name": "d3ada6811f709dc826731507f14a5f54", "type": "electric_scooter", "bike_id": "d3ada6811f709dc826731507f14a5f54", "rental_uris": {"ios": "https://dc.lft.to/lastmile_qr_scan", "android": "https://dc.lft.to/lastmile_qr_scan"}, "fusion_lat": 0.0}, {"lat": 38.924911, "lon": -77.05220533333333, "is_disabled": 0, "fusion_lon": 0.0, "is_reserved": 0, "name": "66b86af2fca4dba36e92220810358418", "type": "electric_scooter", "bike_id": "66b86af2fca4dba36e92220810358418", "rental_uris": {"ios": "https://dc.lft.to/lastmile_qr_scan", "android": "https://dc.lft.to/lastmile_qr_scan"}, "fusion_lat": 0.0}, {"lat": 38.9210305, "lon": -77.02510516666666, "is_disabled": 0, "fusion_lon": 0.0, "is_reserved": 0, "name": "a984f5efaf77f66f38a5ca050da96b03", "type": "electric_scooter", "bike_id": "a984f5efaf77f66f38a5ca050da96b03", "rental_uris": {"ios": "https://dc.lft.to/lastmile_qr_scan", "android": "https://dc.lft.to/lastmile_qr_scan"}, "fusion_lat": 0.0}, {"lat": 38.933714, "lon": -77.05728833333333, "is_disabled": 0, "fusion_lon": 0.0, "is_reserved": 0, "name": "79e10638f18303af46deef14602c5146", "type": "electric_scooter", "bike_id": "79e10638f18303af46deef14602c5146", "rental_uris": {"ios": "https://dc.lft.to/lastmile_qr_scan", "android": "https://dc.lft.to/lastmile_qr_scan"}, "fusion_lat": 0.0}, {"lat": 38.921173333333336, "lon": -77.03655816666667, "is_disabled": 0, "fusion_lon": 0.0, "is_reserved": 0, "name": "55fee649186d48ca25ec9d8df173803e", "type": "electric_scooter", "bike_id": "55fee649186d48ca25ec9d8df173803e", "rental_uris": {"ios": "https://dc.lft.to/lastmile_qr_scan", "android": "https://dc.lft.to/lastmile_qr_scan"}, "fusion_lat": 0.0}, {"lat": 38.903376, "lon": -77.00562533333333, "is_disabled": 0, "fusion_lon": 0.0, "is_reserved": 0, "name": "6f98d4fec833dc2215e83320d3d3dd07", "type": "electric_scooter", "bike_id": "6f98d4fec833dc2215e83320d3d3dd07", "rental_uris": {"ios": "https://dc.lft.to/lastmile_qr_scan", "android": "https://dc.lft.to/lastmile_qr_scan"}, "fusion_lat": 0.0}, {"lat": 38.901057, "lon": -76.99386433333333, "is_disabled": 0, "fusion_lon": 0.0, "is_reserved": 0, "name": "0c2f026532fd698b17dd880d4a478719", "type": "electric_scooter", "bike_id": "0c2f026532fd698b17dd880d4a478719", "rental_uris": {"ios": "https://dc.lft.to/lastmile_qr_scan", "android": "https://dc.lft.to/lastmile_qr_scan"}, "fusion_lat": 0.0}, {"lat": 38.9013055, "lon": -77.016585, "is_disabled": 0, "fusion_lon": 0.0, "is_reserved": 0, "name": "a7486a26109023e5f49a384f9309803a", "type": "electric_scooter", "bike_id": "a7486a26109023e5f49a384f9309803a", "rental_uris": {"ios": "https://dc.lft.to/lastmile_qr_scan", "android": "https://dc.lft.to/lastmile_qr_scan"}, "fusion_lat": 0.0}, {"lat": 38.934263666666666, "lon": -77.04002533333333, "is_disabled": 0, "fusion_lon": 0.0, "is_reserved": 0, "name": "802412b7be91cba8148d244a11ab573d", "type": "electric_scooter", "bike_id": "802412b7be91cba8148d244a11ab573d", "rental_uris": {"ios": "https://dc.lft.to/lastmile_qr_scan", "android": "https://dc.lft.to/lastmile_qr_scan"}, "fusion_lat": 0.0}, {"lat": 38.91351266666667, "lon": -77.01226016666666, "is_disabled": 0, "fusion_lon": 0.0, "is_reserved": 0, "name": "79ea91cf415f27b13b0ad314943a8db0", "type": "electric_scooter", "bike_id": "79ea91cf415f27b13b0ad314943a8db0", "rental_uris": {"ios": "https://dc.lft.to/lastmile_qr_scan", "android": "https://dc.lft.to/lastmile_qr_scan"}, "fusion_lat": 0.0}, {"lat": 38.906922, "lon": -77.06342, "is_disabled": 0, "fusion_lon": 0.0, "is_reserved": 0, "name": "26b2e254febf913bb9161cf2c02338db", "type": "electric_scooter", "bike_id": "26b2e254febf913bb9161cf2c02338db", "rental_uris": {"ios": "https://dc.lft.to/lastmile_qr_scan", "android": "https://dc.lft.to/lastmile_qr_scan"}, "fusion_lat": 0.0}, {"lat": 38.914267833333334, "lon": -77.03182466666667, "is_disabled": 0, "fusion_lon": 0.0, "is_reserved": 0, "name": "88a43ed0bc1830d7fb5bca2b96dac466", "type": "electric_scooter", "bike_id": "88a43ed0bc1830d7fb5bca2b96dac466", "rental_uris": {"ios": "https://dc.lft.to/lastmile_qr_scan", "android": "https://dc.lft.to/lastmile_qr_scan"}, "fusion_lat": 0.0}, {"lat": 38.92484183333333, "lon": -77.0265805, "is_disabled": 0, "fusion_lon": 0.0, "is_reserved": 0, "name": "e124cc4333d7243208fee0a11b559fd2", "type": "electric_scooter", "bike_id": "e124cc4333d7243208fee0a11b559fd2", "rental_uris": {"ios": "https://dc.lft.to/lastmile_qr_scan", "android": "https://dc.lft.to/lastmile_qr_scan"}, "fusion_lat": 0.0}, {"lat": 38.916523833333336, "lon": -77.009474, "is_disabled": 0, "fusion_lon": 0.0, "is_reserved": 0, "name": "814c6f2252be861809558ba64566290b", "type": "electric_scooter", "bike_id": "814c6f2252be861809558ba64566290b", "rental_uris": {"ios": "https://dc.lft.to/lastmile_qr_scan", "android": "https://dc.lft.to/lastmile_qr_scan"}, "fusion_lat": 0.0}, {"lat": 38.892273833333334, "lon": -77.02757433333333, "is_disabled": 0, "fusion_lon": 0.0, "is_reserved": 0, "name": "e239173799789e1307e595d3d00cb8ea", "type": "electric_scooter", "bike_id": "e239173799789e1307e595d3d00cb8ea", "rental_uris": {"ios": "https://dc.lft.to/lastmile_qr_scan", "android": "https://dc.lft.to/lastmile_qr_scan"}, "fusion_lat": 0.0}, {"lat": 38.901466, "lon": -77.0442205, "is_disabled": 0, "fusion_lon": 0.0, "is_reserved": 0, "name": "05a033e173d416ea5711921a67c95f04", "type": "electric_scooter", "bike_id": "05a033e173d416ea5711921a67c95f04", "rental_uris": {"ios": "https://dc.lft.to/lastmile_qr_scan", "android": "https://dc.lft.to/lastmile_qr_scan"}, "fusion_lat": 0.0}, {"lat": 38.92346966666667, "lon": -77.05176683333333, "is_disabled": 0, "fusion_lon": 0.0, "is_reserved": 0, "name": "d2947470625681e9e1d94855b6b8051b", "type": "electric_scooter", "bike_id": "d2947470625681e9e1d94855b6b8051b", "rental_uris": {"ios": "https://dc.lft.to/lastmile_qr_scan", "android": "https://dc.lft.to/lastmile_qr_scan"}, "fusion_lat": 0.0}, {"lat": 38.9309875, "lon": -77.02477, "is_disabled": 0, "fusion_lon": 0.0, "is_reserved": 0, "name": "24e46338df20ce4c62a613cab7f8d213", "type": "electric_scooter", "bike_id": "24e46338df20ce4c62a613cab7f8d213", "rental_uris": {"ios": "https://dc.lft.to/lastmile_qr_scan", "android": "https://dc.lft.to/lastmile_qr_scan"}, "fusion_lat": 0.0}, {"lat": 38.91926616666667, "lon": -77.03423433333333, "is_disabled": 0, "fusion_lon": 0.0, "is_reserved": 0, "name": "c5093de5e4cba7821393db0cd392760a", "type": "electric_scooter", "bike_id": "c5093de5e4cba7821393db0cd392760a", "rental_uris": {"ios": "https://dc.lft.to/lastmile_qr_scan", "android": "https://dc.lft.to/lastmile_qr_scan"}, "fusion_lat": 0.0}, {"lat": 38.939191, "lon": -77.0247155, "is_disabled": 0, "fusion_lon": 0.0, "is_reserved": 0, "name": "0a57a3ce591bd888e19e36fe80921f04", "type": "electric_scooter", "bike_id": "0a57a3ce591bd888e19e36fe80921f04", "rental_uris": {"ios": "https://dc.lft.to/lastmile_qr_scan", "android": "https://dc.lft.to/lastmile_qr_scan"}, "fusion_lat": 0.0}, {"lat": 38.914818833333335, "lon": -77.046052, "is_disabled": 0, "fusion_lon": 0.0, "is_reserved": 0, "name": "3c156d41209bbdc5e33cba20dc00a74d", "type": "electric_scooter", "bike_id": "3c156d41209bbdc5e33cba20dc00a74d", "rental_uris": {"ios": "https://dc.lft.to/lastmile_qr_scan", "android": "https://dc.lft.to/lastmile_qr_scan"}, "fusion_lat": 0.0}, {"lat": 38.89212066666666, "lon": -76.995683, "is_disabled": 0, "fusion_lon": 0.0, "is_reserved": 0, "name": "1a27b5aed787416a496aaad6ced04585", "type": "electric_bike", "bike_id": "1a27b5aed787416a496aaad6ced04585", "rental_uris": {"ios": "https://dc.lft.to/lastmile_qr_scan", "android": "https://dc.lft.to/lastmile_qr_scan"}, "fusion_lat": 0.0}, {"lat": 38.92290233333333, "lon": -76.99777733333333, "is_disabled": 0, "fusion_lon": 0.0, "is_reserved": 0, "name": "40d9bca21f425f8c3e6de03462b28807", "type": "electric_scooter", "bike_id": "40d9bca21f425f8c3e6de03462b28807", "rental_uris": {"ios": "https://dc.lft.to/lastmile_qr_scan", "android": "https://dc.lft.to/lastmile_qr_scan"}, "fusion_lat": 0.0}, {"lat": 38.91405783333333, "lon": -77.03953616666666, "is_disabled": 0, "fusion_lon": 0.0, "is_reserved": 0, "name": "fa934011ec6abac7f3595f479c80886c", "type": "electric_scooter", "bike_id": "fa934011ec6abac7f3595f479c80886c", "rental_uris": {"ios": "https://dc.lft.to/lastmile_qr_scan", "android": "https://dc.lft.to/lastmile_qr_scan"}, "fusion_lat": 0.0}, {"lat": 38.91044, "lon": -77.02181333333333, "is_disabled": 0, "fusion_lon": 0.0, "is_reserved": 0, "name": "f6a41e57b61c963c57db6b1fd04885b7", "type": "electric_scooter", "bike_id": "f6a41e57b61c963c57db6b1fd04885b7", "rental_uris": {"ios": "https://dc.lft.to/lastmile_qr_scan", "android": "https://dc.lft.to/lastmile_qr_scan"}, "fusion_lat": 0.0}, {"lat": 38.92617883333333, "lon": -77.0322385, "is_disabled": 0, "fusion_lon": 0.0, "is_reserved": 0, "name": "9837b946935fb0d282a7ae3fefd39004", "type": "electric_scooter", "bike_id": "9837b946935fb0d282a7ae3fefd39004", "rental_uris": {"ios": "https://dc.lft.to/lastmile_qr_scan", "android": "https://dc.lft.to/lastmile_qr_scan"}, "fusion_lat": 0.0}, {"lat": 38.91204483333333, "lon": -77.01179033333334, "is_disabled": 0, "fusion_lon": 0.0, "is_reserved": 0, "name": "9c478abe0482b95a4dedc3db688daaef", "type": "electric_scooter", "bike_id": "9c478abe0482b95a4dedc3db688daaef", "rental_uris": {"ios": "https://dc.lft.to/lastmile_qr_scan", "android": "https://dc.lft.to/lastmile_qr_scan"}, "fusion_lat": 0.0}, {"lat": 38.918298, "lon": -77.02415383333333, "is_disabled": 0, "fusion_lon": 0.0, "is_reserved": 0, "name": "2ec296d48026b674da02a9c431b8528e", "type": "electric_scooter", "bike_id": "2ec296d48026b674da02a9c431b8528e", "rental_uris": {"ios": "https://dc.lft.to/lastmile_qr_scan", "android": "https://dc.lft.to/lastmile_qr_scan"}, "fusion_lat": 0.0}, {"lat": 38.9112705, "lon": -77.02200083333334, "is_disabled": 0, "fusion_lon": 0.0, "is_reserved": 0, "name": "55f7ec2f81e67fe9fd1a2e73c214f74a", "type": "electric_scooter", "bike_id": "55f7ec2f81e67fe9fd1a2e73c214f74a", "rental_uris": {"ios": "https://dc.lft.to/lastmile_qr_scan", "android": "https://dc.lft.to/lastmile_qr_scan"}, "fusion_lat": 0.0}, {"lat": 38.899946666666665, "lon": -77.01640233333333, "is_disabled": 0, "fusion_lon": 0.0, "is_reserved": 0, "name": "381c774235228f91a7cad54da66cd5ef", "type": "electric_scooter", "bike_id": "381c774235228f91a7cad54da66cd5ef", "rental_uris": {"ios": "https://dc.lft.to/lastmile_qr_scan", "android": "https://dc.lft.to/lastmile_qr_scan"}, "fusion_lat": 0.0}, {"lat": 38.908245, "lon": -77.03388533333333, "is_disabled": 0, "fusion_lon": 0.0, "is_reserved": 0, "name": "62c42d46261560b78d847e307bbb9d84", "type": "electric_scooter", "bike_id": "62c42d46261560b78d847e307bbb9d84", "rental_uris": {"ios": "https://dc.lft.to/lastmile_qr_scan", "android": "https://dc.lft.to/lastmile_qr_scan"}, "fusion_lat": 0.0}, {"lat": 38.908606666666664, "lon": -77.02230533333334, "is_disabled": 0, "fusion_lon": 0.0, "is_reserved": 0, "name": "43e5cb1db850940764aefa88ac6f9ddb", "type": "electric_scooter", "bike_id": "43e5cb1db850940764aefa88ac6f9ddb", "rental_uris": {"ios": "https://dc.lft.to/lastmile_qr_scan", "android": "https://dc.lft.to/lastmile_qr_scan"}, "fusion_lat": 0.0}, {"lat": 38.91666166666667, "lon": -77.03181866666667, "is_disabled": 0, "fusion_lon": 0.0, "is_reserved": 0, "name": "f152caa27ce872959979ab3cffaab484", "type": "electric_scooter", "bike_id": "f152caa27ce872959979ab3cffaab484", "rental_uris": {"ios": "https://dc.lft.to/lastmile_qr_scan", "android": "https://dc.lft.to/lastmile_qr_scan"}, "fusion_lat": 0.0}, {"lat": 38.901086, "lon": -76.93046666666666, "is_disabled": 0, "fusion_lon": 0.0, "is_reserved": 0, "name": "75a3b24ada6ec108fc7276852e5037ff", "type": "electric_scooter", "bike_id": "75a3b24ada6ec108fc7276852e5037ff", "rental_uris": {"ios": "https://dc.lft.to/lastmile_qr_scan", "android": "https://dc.lft.to/lastmile_qr_scan"}, "fusion_lat": 0.0}, {"lat": 38.86014433333333, "lon": -76.96704916666667, "is_disabled": 0, "fusion_lon": 0.0, "is_reserved": 0, "name": "b0c5109deca1ad01f28957dc4530db84", "type": "electric_scooter", "bike_id": "b0c5109deca1ad01f28957dc4530db84", "rental_uris": {"ios": "https://dc.lft.to/lastmile_qr_scan", "android": "https://dc.lft.to/lastmile_qr_scan"}, "fusion_lat": 0.0}, {"lat": 38.927323333333334, "lon": -77.022747, "is_disabled": 0, "fusion_lon": 0.0, "is_reserved": 0, "name": "8d04da1d38f015291527a77c04f49642", "type": "electric_scooter", "bike_id": "8d04da1d38f015291527a77c04f49642", "rental_uris": {"ios": "https://dc.lft.to/lastmile_qr_scan", "android": "https://dc.lft.to/lastmile_qr_scan"}, "fusion_lat": 0.0}, {"lat": 38.90392216666667, "lon": -77.0514715, "is_disabled": 0, "fusion_lon": 0.0, "is_reserved": 0, "name": "cb33f49c04cfda818235561980095d7a", "type": "electric_scooter", "bike_id": "cb33f49c04cfda818235561980095d7a", "rental_uris": {"ios": "https://dc.lft.to/lastmile_qr_scan", "android": "https://dc.lft.to/lastmile_qr_scan"}, "fusion_lat": 0.0}, {"lat": 38.91218216666667, "lon": -77.03840633333333, "is_disabled": 0, "fusion_lon": 0.0, "is_reserved": 0, "name": "4050ff48d20df7d914db12cce7170d0a", "type": "electric_scooter", "bike_id": "4050ff48d20df7d914db12cce7170d0a", "rental_uris": {"ios": "https://dc.lft.to/lastmile_qr_scan", "android": "https://dc.lft.to/lastmile_qr_scan"}, "fusion_lat": 0.0}, {"lat": 38.9372125, "lon": -77.03264916666667, "is_disabled": 0, "fusion_lon": 0.0, "is_reserved": 0, "name": "940750095be9016c0b369f0bf4fb3c8a", "type": "electric_scooter", "bike_id": "940750095be9016c0b369f0bf4fb3c8a", "rental_uris": {"ios": "https://dc.lft.to/lastmile_qr_scan", "android": "https://dc.lft.to/lastmile_qr_scan"}, "fusion_lat": 0.0}, {"lat": 38.8874705, "lon": -77.02570233333333, "is_disabled": 0, "fusion_lon": 0.0, "is_reserved": 0, "name": "a79872e845ee761b39d3b70889de9ec7", "type": "electric_scooter", "bike_id": "a79872e845ee761b39d3b70889de9ec7", "rental_uris": {"ios": "https://dc.lft.to/lastmile_qr_scan", "android": "https://dc.lft.to/lastmile_qr_scan"}, "fusion_lat": 0.0}, {"lat": 38.9615495, "lon": -77.02791616666667, "is_disabled": 0, "fusion_lon": 0.0, "is_reserved": 0, "name": "aaed0532ed65d6eb01188cf4f5ccc44f", "type": "electric_scooter", "bike_id": "aaed0532ed65d6eb01188cf4f5ccc44f", "rental_uris": {"ios": "https://dc.lft.to/lastmile_qr_scan", "android": "https://dc.lft.to/lastmile_qr_scan"}, "fusion_lat": 0.0}, {"lat": 38.94975683333333, "lon": -77.02452433333333, "is_disabled": 0, "fusion_lon": 0.0, "is_reserved": 0, "name": "2128b55719ce9da284cead47113bb0cc", "type": "electric_scooter", "bike_id": "2128b55719ce9da284cead47113bb0cc", "rental_uris": {"ios": "https://dc.lft.to/lastmile_qr_scan", "android": "https://dc.lft.to/lastmile_qr_scan"}, "fusion_lat": 0.0}, {"lat": 38.912809333333335, "lon": -77.04508466666667, "is_disabled": 0, "fusion_lon": 0.0, "is_reserved": 0, "name": "e5c4e67d7c9dc6eeb4b183255513ed6e", "type": "electric_scooter", "bike_id": "e5c4e67d7c9dc6eeb4b183255513ed6e", "rental_uris": {"ios": "https://dc.lft.to/lastmile_qr_scan", "android": "https://dc.lft.to/lastmile_qr_scan"}, "fusion_lat": 0.0}, {"lat": 38.92881966666667, "lon": -77.041243, "is_disabled": 0, "fusion_lon": 0.0, "is_reserved": 0, "name": "6143738e76cf42f0404827cd9f6411a6", "type": "electric_scooter", "bike_id": "6143738e76cf42f0404827cd9f6411a6", "rental_uris": {"ios": "https://dc.lft.to/lastmile_qr_scan", "android": "https://dc.lft.to/lastmile_qr_scan"}, "fusion_lat": 0.0}, {"lat": 38.890773333333335, "lon": -76.988361, "is_disabled": 0, "fusion_lon": 0.0, "is_reserved": 0, "name": "d82c4eeca901d32cad42ff625070f72c", "type": "electric_scooter", "bike_id": "d82c4eeca901d32cad42ff625070f72c", "rental_uris": {"ios": "https://dc.lft.to/lastmile_qr_scan", "android": "https://dc.lft.to/lastmile_qr_scan"}, "fusion_lat": 0.0}, {"lat": 38.89932866666667, "lon": -77.0127925, "is_disabled": 0, "fusion_lon": 0.0, "is_reserved": 0, "name": "0074696f220003bd2fe49e42a11b33e8", "type": "electric_scooter", "bike_id": "0074696f220003bd2fe49e42a11b33e8", "rental_uris": {"ios": "https://dc.lft.to/lastmile_qr_scan", "android": "https://dc.lft.to/lastmile_qr_scan"}, "fusion_lat": 0.0}, {"lat": 38.91858283333333, "lon": -76.96088316666666, "is_disabled": 0, "fusion_lon": 0.0, "is_reserved": 0, "name": "3c9e9c784730fa76e5d0c945e5ad6990", "type": "electric_bike", "bike_id": "3c9e9c784730fa76e5d0c945e5ad6990", "rental_uris": {"ios": "https://dc.lft.to/lastmile_qr_scan", "android": "https://dc.lft.to/lastmile_qr_scan"}, "fusion_lat": 0.0}, {"lat": 38.91579516666667, "lon": -77.03183266666667, "is_disabled": 0, "fusion_lon": 0.0, "is_reserved": 0, "name": "81ed00d133fe00b2218de6aded6b5d43", "type": "electric_scooter", "bike_id": "81ed00d133fe00b2218de6aded6b5d43", "rental_uris": {"ios": "https://dc.lft.to/lastmile_qr_scan", "android": "https://dc.lft.to/lastmile_qr_scan"}, "fusion_lat": 0.0}, {"lat": 38.8764515, "lon": -77.01484783333333, "is_disabled": 0, "fusion_lon": 0.0, "is_reserved": 0, "name": "fa38a6f62ec9324a664c858ab7431619", "type": "electric_scooter", "bike_id": "fa38a6f62ec9324a664c858ab7431619", "rental_uris": {"ios": "https://dc.lft.to/lastmile_qr_scan", "android": "https://dc.lft.to/lastmile_qr_scan"}, "fusion_lat": 0.0}, {"lat": 38.83631, "lon": -77.06953783333333, "is_disabled": 0, "fusion_lon": 0.0, "is_reserved": 0, "name": "aff906c802b424406059d272c853b33c", "type": "electric_bike", "bike_id": "aff906c802b424406059d272c853b33c", "rental_uris": {"ios": "https://dc.lft.to/lastmile_qr_scan", "android": "https://dc.lft.to/lastmile_qr_scan"}, "fusion_lat": 0.0}, {"lat": 38.908271, "lon": -76.93437366666667, "is_disabled": 0, "fusion_lon": 0.0, "is_reserved": 0, "name": "4a940be8548022bebd49163a17ade914", "type": "electric_scooter", "bike_id": "4a940be8548022bebd49163a17ade914", "rental_uris": {"ios": "https://dc.lft.to/lastmile_qr_scan", "android": "https://dc.lft.to/lastmile_qr_scan"}, "fusion_lat": 0.0}, {"lat": 38.908206, "lon": -77.063684, "is_disabled": 0, "fusion_lon": 0.0, "is_reserved": 0, "name": "5a02018ede2575d62c9a39c4ec228115", "type": "electric_scooter", "bike_id": "5a02018ede2575d62c9a39c4ec228115", "rental_uris": {"ios": "https://dc.lft.to/lastmile_qr_scan", "android": "https://dc.lft.to/lastmile_qr_scan"}, "fusion_lat": 0.0}, {"lat": 38.907242, "lon": -77.01661983333334, "is_disabled": 0, "fusion_lon": 0.0, "is_reserved": 0, "name": "9279c1e0d313a4300122b4e184928f8e", "type": "electric_scooter", "bike_id": "9279c1e0d313a4300122b4e184928f8e", "rental_uris": {"ios": "https://dc.lft.to/lastmile_qr_scan", "android": "https://dc.lft.to/lastmile_qr_scan"}, "fusion_lat": 0.0}, {"lat": 38.9067775, "lon": -77.0093885, "is_disabled": 0, "fusion_lon": 0.0, "is_reserved": 0, "name": "07382879bd0beb62e8bbfaa4a8085f13", "type": "electric_scooter", "bike_id": "07382879bd0beb62e8bbfaa4a8085f13", "rental_uris": {"ios": "https://dc.lft.to/lastmile_qr_scan", "android": "https://dc.lft.to/lastmile_qr_scan"}, "fusion_lat": 0.0}, {"lat": 38.92139866666667, "lon": -77.04361666666667, "is_disabled": 0, "fusion_lon": 0.0, "is_reserved": 0, "name": "974117e09fb58779ef5d828fe2fbc615", "type": "electric_scooter", "bike_id": "974117e09fb58779ef5d828fe2fbc615", "rental_uris": {"ios": "https://dc.lft.to/lastmile_qr_scan", "android": "https://dc.lft.to/lastmile_qr_scan"}, "fusion_lat": 0.0}, {"lat": 38.90007833333333, "lon": -77.03743233333333, "is_disabled": 0, "fusion_lon": 0.0, "is_reserved": 0, "name": "10e6416ca55f615aa17837fc4cfebb94", "type": "electric_scooter", "bike_id": "10e6416ca55f615aa17837fc4cfebb94", "rental_uris": {"ios": "https://dc.lft.to/lastmile_qr_scan", "android": "https://dc.lft.to/lastmile_qr_scan"}, "fusion_lat": 0.0}, {"lat": 38.8873445, "lon": -77.03178183333333, "is_disabled": 0, "fusion_lon": 0.0, "is_reserved": 0, "name": "e3f98fc686803703c96ef18fa9bddae3", "type": "electric_scooter", "bike_id": "e3f98fc686803703c96ef18fa9bddae3", "rental_uris": {"ios": "https://dc.lft.to/lastmile_qr_scan", "android": "https://dc.lft.to/lastmile_qr_scan"}, "fusion_lat": 0.0}, {"lat": 38.9155115, "lon": -77.02845583333334, "is_disabled": 0, "fusion_lon": 0.0, "is_reserved": 0, "name": "94700063ee6d9dfddd4a1c972d2db09e", "type": "electric_scooter", "bike_id": "94700063ee6d9dfddd4a1c972d2db09e", "rental_uris": {"ios": "https://dc.lft.to/lastmile_qr_scan", "android": "https://dc.lft.to/lastmile_qr_scan"}, "fusion_lat": 0.0}, {"lat": 38.953302, "lon": -77.016528, "is_disabled": 0, "fusion_lon": 0.0, "is_reserved": 0, "name": "b23f7c5da3df9c144e03400c3d7bfcf4", "type": "electric_bike", "bike_id": "b23f7c5da3df9c144e03400c3d7bfcf4", "rental_uris": {"ios": "https://dc.lft.to/lastmile_qr_scan", "android": "https://dc.lft.to/lastmile_qr_scan"}, "fusion_lat": 0.0}, {"lat": 38.92299166666667, "lon": -77.04272716666667, "is_disabled": 0, "fusion_lon": 0.0, "is_reserved": 0, "name": "dd71a8dbf8b437661972884f1dca9460", "type": "electric_scooter", "bike_id": "dd71a8dbf8b437661972884f1dca9460", "rental_uris": {"ios": "https://dc.lft.to/lastmile_qr_scan", "android": "https://dc.lft.to/lastmile_qr_scan"}, "fusion_lat": 0.0}, {"lat": 38.899287666666666, "lon": -77.02361616666667, "is_disabled": 0, "fusion_lon": 0.0, "is_reserved": 0, "name": "0cadd680178b7d3292a4e92b576e5970", "type": "electric_scooter", "bike_id": "0cadd680178b7d3292a4e92b576e5970", "rental_uris": {"ios": "https://dc.lft.to/lastmile_qr_scan", "android": "https://dc.lft.to/lastmile_qr_scan"}, "fusion_lat": 0.0}, {"lat": 38.87459783333333, "lon": -77.00544133333334, "is_disabled": 0, "fusion_lon": 0.0, "is_reserved": 0, "name": "54f96df0d16a197847a3f3c15d96396c", "type": "electric_scooter", "bike_id": "54f96df0d16a197847a3f3c15d96396c", "rental_uris": {"ios": "https://dc.lft.to/lastmile_qr_scan", "android": "https://dc.lft.to/lastmile_qr_scan"}, "fusion_lat": 0.0}, {"lat": 38.902712666666666, "lon": -77.02805433333333, "is_disabled": 0, "fusion_lon": 0.0, "is_reserved": 0, "name": "a5cfba57910a0ef2a74659e54e9a4313", "type": "electric_scooter", "bike_id": "a5cfba57910a0ef2a74659e54e9a4313", "rental_uris": {"ios": "https://dc.lft.to/lastmile_qr_scan", "android": "https://dc.lft.to/lastmile_qr_scan"}, "fusion_lat": 0.0}, {"lat": 38.909258666666666, "lon": -77.03097816666667, "is_disabled": 0, "fusion_lon": 0.0, "is_reserved": 0, "name": "6bc4902b9f05c1dba61fbc7418d1eda9", "type": "electric_scooter", "bike_id": "6bc4902b9f05c1dba61fbc7418d1eda9", "rental_uris": {"ios": "https://dc.lft.to/lastmile_qr_scan", "android": "https://dc.lft.to/lastmile_qr_scan"}, "fusion_lat": 0.0}, {"lat": 38.91961083333333, "lon": -77.02376116666667, "is_disabled": 0, "fusion_lon": 0.0, "is_reserved": 0, "name": "a4ef14d064401b7a59f9251108dad71d", "type": "electric_scooter", "bike_id": "a4ef14d064401b7a59f9251108dad71d", "rental_uris": {"ios": "https://dc.lft.to/lastmile_qr_scan", "android": "https://dc.lft.to/lastmile_qr_scan"}, "fusion_lat": 0.0}, {"lat": 38.90036933333333, "lon": -76.99530833333333, "is_disabled": 0, "fusion_lon": 0.0, "is_reserved": 0, "name": "b48d8e7cf7080c0f925b7446f83795dd", "type": "electric_scooter", "bike_id": "b48d8e7cf7080c0f925b7446f83795dd", "rental_uris": {"ios": "https://dc.lft.to/lastmile_qr_scan", "android": "https://dc.lft.to/lastmile_qr_scan"}, "fusion_lat": 0.0}, {"lat": 38.919890333333335, "lon": -77.02382066666667, "is_disabled": 0, "fusion_lon": 0.0, "is_reserved": 0, "name": "d83046e41315468053fa7339313967f2", "type": "electric_scooter", "bike_id": "d83046e41315468053fa7339313967f2", "rental_uris": {"ios": "https://dc.lft.to/lastmile_qr_scan", "android": "https://dc.lft.to/lastmile_qr_scan"}, "fusion_lat": 0.0}, {"lat": 38.920425333333334, "lon": -77.0370865, "is_disabled": 0, "fusion_lon": 0.0, "is_reserved": 0, "name": "e69a502d3448eb9b89b57a11c193df9f", "type": "electric_scooter", "bike_id": "e69a502d3448eb9b89b57a11c193df9f", "rental_uris": {"ios": "https://dc.lft.to/lastmile_qr_scan", "android": "https://dc.lft.to/lastmile_qr_scan"}, "fusion_lat": 0.0}, {"lat": 38.88121483333333, "lon": -77.01739483333333, "is_disabled": 0, "fusion_lon": 0.0, "is_reserved": 0, "name": "83945d131b15cad05a281471c54190a1", "type": "electric_scooter", "bike_id": "83945d131b15cad05a281471c54190a1", "rental_uris": {"ios": "https://dc.lft.to/lastmile_qr_scan", "android": "https://dc.lft.to/lastmile_qr_scan"}, "fusion_lat": 0.0}, {"lat": 38.91417366666667, "lon": -77.03476716666667, "is_disabled": 0, "fusion_lon": 0.0, "is_reserved": 0, "name": "2b9d475960dc5b3b183bc6d351ae0f3c", "type": "electric_scooter", "bike_id": "2b9d475960dc5b3b183bc6d351ae0f3c", "rental_uris": {"ios": "https://dc.lft.to/lastmile_qr_scan", "android": "https://dc.lft.to/lastmile_qr_scan"}, "fusion_lat": 0.0}, {"lat": 38.86668916666667, "lon": -76.98903233333333, "is_disabled": 0, "fusion_lon": 0.0, "is_reserved": 0, "name": "0459517b2e3bd46eda04805708cc31de", "type": "electric_scooter", "bike_id": "0459517b2e3bd46eda04805708cc31de", "rental_uris": {"ios": "https://dc.lft.to/lastmile_qr_scan", "android": "https://dc.lft.to/lastmile_qr_scan"}, "fusion_lat": 0.0}, {"lat": 38.876847, "lon": -77.006535, "is_disabled": 0, "fusion_lon": 0.0, "is_reserved": 0, "name": "e371abd3d7e49919597b4fc69bcbfa6d", "type": "electric_scooter", "bike_id": "e371abd3d7e49919597b4fc69bcbfa6d", "rental_uris": {"ios": "https://dc.lft.to/lastmile_qr_scan", "android": "https://dc.lft.to/lastmile_qr_scan"}, "fusion_lat": 0.0}, {"lat": 38.92221683333333, "lon": -77.04337983333333, "is_disabled": 0, "fusion_lon": 0.0, "is_reserved": 0, "name": "8e3de04df3ec31c437c51c3b14cedba6", "type": "electric_scooter", "bike_id": "8e3de04df3ec31c437c51c3b14cedba6", "rental_uris": {"ios": "https://dc.lft.to/lastmile_qr_scan", "android": "https://dc.lft.to/lastmile_qr_scan"}, "fusion_lat": 0.0}, {"lat": 38.953999, "lon": -77.02792716666667, "is_disabled": 0, "fusion_lon": 0.0, "is_reserved": 0, "name": "b0aa9b73f52231181e18673ce2711b16", "type": "electric_scooter", "bike_id": "b0aa9b73f52231181e18673ce2711b16", "rental_uris": {"ios": "https://dc.lft.to/lastmile_qr_scan", "android": "https://dc.lft.to/lastmile_qr_scan"}, "fusion_lat": 0.0}, {"lat": 38.917324666666666, "lon": -77.01904866666666, "is_disabled": 0, "fusion_lon": 0.0, "is_reserved": 0, "name": "a4a059709987f081458f44ff80c5ebc7", "type": "electric_scooter", "bike_id": "a4a059709987f081458f44ff80c5ebc7", "rental_uris": {"ios": "https://dc.lft.to/lastmile_qr_scan", "android": "https://dc.lft.to/lastmile_qr_scan"}, "fusion_lat": 0.0}, {"lat": 38.89977533333333, "lon": -77.02197133333334, "is_disabled": 0, "fusion_lon": 0.0, "is_reserved": 0, "name": "df94ac1403debf692a481e4fbc485dbb", "type": "electric_scooter", "bike_id": "df94ac1403debf692a481e4fbc485dbb", "rental_uris": {"ios": "https://dc.lft.to/lastmile_qr_scan", "android": "https://dc.lft.to/lastmile_qr_scan"}, "fusion_lat": 0.0}, {"lat": 38.923011333333335, "lon": -77.04271666666666, "is_disabled": 0, "fusion_lon": 0.0, "is_reserved": 0, "name": "4434e3c4bc8f95555e6a8e7653258e68", "type": "electric_scooter", "bike_id": "4434e3c4bc8f95555e6a8e7653258e68", "rental_uris": {"ios": "https://dc.lft.to/lastmile_qr_scan", "android": "https://dc.lft.to/lastmile_qr_scan"}, "fusion_lat": 0.0}, {"lat": 38.91091683333333, "lon": -77.04479066666667, "is_disabled": 0, "fusion_lon": 0.0, "is_reserved": 0, "name": "bdc71f299b3ccb8924657064e5b9fef5", "type": "electric_scooter", "bike_id": "bdc71f299b3ccb8924657064e5b9fef5", "rental_uris": {"ios": "https://dc.lft.to/lastmile_qr_scan", "android": "https://dc.lft.to/lastmile_qr_scan"}, "fusion_lat": 0.0}, {"lat": 38.90153566666667, "lon": -76.930691, "is_disabled": 0, "fusion_lon": 0.0, "is_reserved": 0, "name": "3eba7cf235f19b8c37713e90dfa28a0e", "type": "electric_scooter", "bike_id": "3eba7cf235f19b8c37713e90dfa28a0e", "rental_uris": {"ios": "https://dc.lft.to/lastmile_qr_scan", "android": "https://dc.lft.to/lastmile_qr_scan"}, "fusion_lat": 0.0}, {"lat": 38.9199205, "lon": -77.017877, "is_disabled": 0, "fusion_lon": 0.0, "is_reserved": 0, "name": "8b8c98ad782e691287bb5a769c61833e", "type": "electric_scooter", "bike_id": "8b8c98ad782e691287bb5a769c61833e", "rental_uris": {"ios": "https://dc.lft.to/lastmile_qr_scan", "android": "https://dc.lft.to/lastmile_qr_scan"}, "fusion_lat": 0.0}, {"lat": 38.902049833333336, "lon": -77.023754, "is_disabled": 0, "fusion_lon": 0.0, "is_reserved": 0, "name": "cacfbebdec7997cff2d807d1ed3b51f5", "type": "electric_scooter", "bike_id": "cacfbebdec7997cff2d807d1ed3b51f5", "rental_uris": {"ios": "https://dc.lft.to/lastmile_qr_scan", "android": "https://dc.lft.to/lastmile_qr_scan"}, "fusion_lat": 0.0}, {"lat": 38.950575, "lon": -77.08028416666667, "is_disabled": 0, "fusion_lon": 0.0, "is_reserved": 0, "name": "85351a65b810caf9c74942ff6a94c441", "type": "electric_scooter", "bike_id": "85351a65b810caf9c74942ff6a94c441", "rental_uris": {"ios": "https://dc.lft.to/lastmile_qr_scan", "android": "https://dc.lft.to/lastmile_qr_scan"}, "fusion_lat": 0.0}, {"lat": 38.92431283333333, "lon": -77.05174933333333, "is_disabled": 0, "fusion_lon": 0.0, "is_reserved": 0, "name": "dbb5ef27eaf31063326f9bc32734355d", "type": "electric_scooter", "bike_id": "dbb5ef27eaf31063326f9bc32734355d", "rental_uris": {"ios": "https://dc.lft.to/lastmile_qr_scan", "android": "https://dc.lft.to/lastmile_qr_scan"}, "fusion_lat": 0.0}, {"lat": 38.93480816666667, "lon": -77.03613283333334, "is_disabled": 0, "fusion_lon": 0.0, "is_reserved": 0, "name": "8fe79f13c6e5e29b2a69712cfa276930", "type": "electric_scooter", "bike_id": "8fe79f13c6e5e29b2a69712cfa276930", "rental_uris": {"ios": "https://dc.lft.to/lastmile_qr_scan", "android": "https://dc.lft.to/lastmile_qr_scan"}, "fusion_lat": 0.0}, {"lat": 38.87552516666667, "lon": -77.00592, "is_disabled": 0, "fusion_lon": 0.0, "is_reserved": 0, "name": "5bd674d28eae0d44cbc89db6418e0ea8", "type": "electric_scooter", "bike_id": "5bd674d28eae0d44cbc89db6418e0ea8", "rental_uris": {"ios": "https://dc.lft.to/lastmile_qr_scan", "android": "https://dc.lft.to/lastmile_qr_scan"}, "fusion_lat": 0.0}, {"lat": 38.920359166666664, "lon": -77.02588733333333, "is_disabled": 0, "fusion_lon": 0.0, "is_reserved": 0, "name": "027be9c96b1da3fbbdd299f7790c48e8", "type": "electric_scooter", "bike_id": "027be9c96b1da3fbbdd299f7790c48e8", "rental_uris": {"ios": "https://dc.lft.to/lastmile_qr_scan", "android": "https://dc.lft.to/lastmile_qr_scan"}, "fusion_lat": 0.0}, {"lat": 38.880815, "lon": -76.98531933333334, "is_disabled": 0, "fusion_lon": 0.0, "is_reserved": 0, "name": "de277afe7b02d39767ba270bd5add046", "type": "electric_bike", "bike_id": "de277afe7b02d39767ba270bd5add046", "rental_uris": {"ios": "https://dc.lft.to/lastmile_qr_scan", "android": "https://dc.lft.to/lastmile_qr_scan"}, "fusion_lat": 0.0}, {"lat": 38.91168183333333, "lon": -77.01311416666667, "is_disabled": 0, "fusion_lon": 0.0, "is_reserved": 0, "name": "7ce8bfe5cb0773d6add8f7273742e5ed", "type": "electric_scooter", "bike_id": "7ce8bfe5cb0773d6add8f7273742e5ed", "rental_uris": {"ios": "https://dc.lft.to/lastmile_qr_scan", "android": "https://dc.lft.to/lastmile_qr_scan"}, "fusion_lat": 0.0},