{"data": {"bikes": [{"fusion_lon": 0.0, "bike_id": "ac30ebcd59ac41db26dc2659c1f2780c", "name": "ac30ebcd59ac41db26dc2659c1f2780c", "type": "electric_scooter", "lon": -76.94472916666666, "rental_uris": {"android": "https://dc.lft.to/lastmile_qr_scan", "ios": "https://dc.lft.to/lastmile_qr_scan"}, "lat": 38.90283616666667, "is_reserved": 0, "is_disabled": 0, "fusion_lat": 0.0}, {"fusion_lon": 0.0, "bike_id": "e9e32330ffeb055dc235f6e81878dc84", "name": "e9e32330ffeb055dc235f6e81878dc84", "type": "electric_scooter", "lon": -77.02189233333333, "rental_uris": {"android": "https://dc.lft.to/lastmile_qr_scan", "ios": "https://dc.lft.to/lastmile_qr_scan"}, "lat": 38.89826816666667, "is_reserved": 0, "is_disabled": 0, "fusion_lat": 0.0}, {"fusion_lon": 0.0, "bike_id": "643dd489d391af08b51aa95b6adac695", "name": "643dd489d391af08b51aa95b6adac695", "type": "electric_scooter", "lon": -77.050835, "rental_uris": {"android": "https://dc.lft.to/lastmile_qr_scan", "ios": "https://dc.lft.to/lastmile_qr_scan"}, "lat": 38.900747, "is_reserved": 0, "is_disabled": 0, "fusion_lat": 0.0}, {"fusion_lon": 0.0, "bike_id": "906fd41b6c59dfa3ac6b6946af6437b6", "name": "906fd41b6c59dfa3ac6b6946af6437b6", "type": "electric_scooter", "lon": -77.02150783333333, "rental_uris": {"android": "https://dc.lft.to/lastmile_qr_scan", "ios": "https://dc.lft.to/lastmile_qr_scan"}, "lat": 38.90005583333333, "is_reserved": 0, "is_disabled": 0, "fusion_lat": 0.0}, {"fusion_lon": 0.0, "bike_id": "9649848d7420317aeaa0e3db4eb5c6d6", "name": "9649848d7420317aeaa0e3db4eb5c6d6", "type": "electric_scooter", "lon": -76.9980715, "rental_uris": {"android": "https://dc.lft.to/lastmile_qr_scan", "ios": "https://dc.lft.to/lastmile_qr_scan"}, "lat": 38.87669183333333, "is_reserved": 0, "is_disabled": 0, "fusion_lat": 0.0}, {"fusion_lon": 0.0, "bike_id": "774772d49394f461998e31dfd74f71a0", "name": "774772d49394f461998e31dfd74f71a0", "type": "electric_scooter", "lon": -77.04316116666666, "rental_uris": {"android": "https://dc.lft.to/lastmile_qr_scan", "ios": "https://dc.lft.to/lastmile_qr_scan"}, "lat": 38.91882283333333, "is_reserved": 0, "is_disabled": 0, "fusion_lat": 0.0}, {"fusion_lon": 0.0, "bike_id": "ae6106cf69b74e64a2865067ef900148", "name": "ae6106cf69b74e64a2865067ef900148", "type": "electric_scooter", "lon": -77.04281266666666, "rental_uris": {"android": "https://dc.lft.to/lastmile_qr_scan", "ios": "https://dc.lft.to/lastmile_qr_scan"}, "lat": 38.9079925, "is_reserved": 0, "is_disabled": 0, "fusion_lat": 0.0}, {"fusion_lon": 0.0, "bike_id": "8acba353e2bcd0fc9f2955f48379fed4", "name": "8acba353e2bcd0fc9f2955f48379fed4", "type": "electric_scooter", "lon": -77.045978, "rental_uris": {"android": "https://dc.lft.to/lastmile_qr_scan", "ios": "https://dc.lft.to/lastmile_qr_scan"}, "lat": 38.9171375, "is_reserved": 0, "is_disabled": 0, "fusion_lat": 0.0}, {"fusion_lon": 0.0, "bike_id": "6f07d14d587044cec5b72e81da93b8ee", "name": "6f07d14d587044cec5b72e81da93b8ee", "type": "electric_bike", "lon": -76.92918933333333, "rental_uris": {"android": "https://dc.lft.to/lastmile_qr_scan", "ios": "https://dc.lft.to/lastmile_qr_scan"}, "lat": 38.980290833333335, "is_reserved": 0, "is_disabled": 0, "fusion_lat": 0.0}, {"fusion_lon": 0.0, "bike_id": "a931f5ce06cfd3c154e7ad8da28cb4a1", "name": "a931f5ce06cfd3c154e7ad8da28cb4a1", "type": "electric_scooter", "lon": -77.03328883333333, "rental_uris": {"android": "https://dc.lft.to/lastmile_qr_scan", "ios": "https://dc.lft.to/lastmile_qr_scan"}, "lat": 38.89822216666666, "is_reserved": 0, "is_disabled": 0, "fusion_lat": 0.0}, {"fusion_lon": 0.0, "bike_id": "ae9c81f65c3579af41d24882126300d1", "name": "ae9c81f65c3579af41d24882126300d1", "type": "electric_scooter", "lon": -77.02186683333333, "rental_uris": {"android": "https://dc.lft.to/lastmile_qr_scan", "ios": "https://dc.lft.to/lastmile_qr_scan"}, "lat": 38.897429, "is_reserved": 0, "is_disabled": 0, "fusion_lat": 0.0}, {"fusion_lon": 0.0, "bike_id": "2c79274ba6615fac46e3615ccaa5dfeb", "name": "2c79274ba6615fac46e3615ccaa5dfeb", "type": "electric_scooter", "lon": -76.94996316666666, "rental_uris": {"android": "https://dc.lft.to/lastmile_qr_scan", "ios": "https://dc.lft.to/lastmile_qr_scan"}, "lat": 38.89389283333333, "is_reserved": 0, "is_disabled": 0, "fusion_lat": 0.0}, {"fusion_lon": 0.0, "bike_id": "afaa6d650d9327d9708e491f79720735", "name": "afaa6d650d9327d9708e491f79720735", "type": "electric_scooter", "lon": -76.94638033333334, "rental_uris": {"android": "https://dc.lft.to/lastmile_qr_scan", "ios": "https://dc.lft.to/lastmile_qr_scan"}, "lat": 38.89845616666667, "is_reserved": 0, "is_disabled": 0, "fusion_lat": 0.0}, {"fusion_lon": 0.0, "bike_id": "78745172b1293ac2c2fa921495521c74", "name": "78745172b1293ac2c2fa921495521c74", "type": "electric_scooter", "lon": -77.0449295, "rental_uris": {"android": "https://dc.lft.to/lastmile_qr_scan", "ios": "https://dc.lft.to/lastmile_qr_scan"}, "lat": 38.90651366666667, "is_reserved": 0, "is_disabled": 0, "fusion_lat": 0.0}, {"fusion_lon": 0.0, "bike_id": "c04e9bcabf94e77f1171393bfe5c277a", "name": "c04e9bcabf94e77f1171393bfe5c277a", "type": "electric_scooter", "lon": -77.02490483333334, "rental_uris": {"android": "https://dc.lft.to/lastmile_qr_scan", "ios": "https://dc.lft.to/lastmile_qr_scan"}, "lat": 38.9418545, "is_reserved": 0, "is_disabled": 0, "fusion_lat": 0.0}, {"fusion_lon": 0.0, "bike_id": "780deb3cb7e40acfd6b3a1304deb561d", "name": "780deb3cb7e40acfd6b3a1304deb561d", "type": "electric_scooter", "lon": -77.021187, "rental_uris": {"android": "https://dc.lft.to/lastmile_qr_scan", "ios": "https://dc.lft.to/lastmile_qr_scan"}, "lat": 38.89226133333333, "is_reserved": 0, "is_disabled": 0, "fusion_lat": 0.0}, {"fusion_lon": 0.0, "bike_id": "3be78dc5d93694fdea0ae04e2f707f24", "name": "3be78dc5d93694fdea0ae04e2f707f24", "type": "electric_scooter", "lon": -77.05790566666667, "rental_uris": {"android": "https://dc.lft.to/lastmile_qr_scan", "ios": "https://dc.lft.to/lastmile_qr_scan"}, "lat": 38.934793, "is_reserved": 0, "is_disabled": 0, "fusion_lat": 0.0}, {"fusion_lon": 0.0, "bike_id": "2f5646ef12e0928f38f8246473e6f913", "name": "2f5646ef12e0928f38f8246473e6f913", "type": "electric_scooter", "lon": -77.03434016666667, "rental_uris": {"android": "https://dc.lft.to/lastmile_qr_scan", "ios": "https://dc.lft.to/lastmile_qr_scan"}, "lat": 38.91034833333333, "is_reserved": 0, "is_disabled": 0, "fusion_lat": 0.0}, {"fusion_lon": 0.0, "bike_id": "46ed55a44215222831d4066f850260de", "name": "46ed55a44215222831d4066f850260de", "type": "electric_scooter", "lon": -77.0073155, "rental_uris": {"android": "https://dc.lft.to/lastmile_qr_scan", "ios": "https://dc.lft.to/lastmile_qr_scan"}, "lat": 38.87667783333333, "is_reserved": 0, "is_disabled": 0, "fusion_lat": 0.0}, {"fusion_lon": 0.0, "bike_id": "f4664995d8228137af4871ae800745db", "name": "f4664995d8228137af4871ae800745db", "type": "electric_scooter", "lon": -77.0248815, "rental_uris": {"android": "https://dc.lft.to/lastmile_qr_scan", "ios": "https://dc.lft.to/lastmile_qr_scan"}, "lat": 38.92995833333333, "is_reserved": 0, "is_disabled": 0, "fusion_lat": 0.0}, {"fusion_lon": 0.0, "bike_id": "c4469b1f6f85a9a13736b8eb127e4470", "name": "c4469b1f6f85a9a13736b8eb127e4470", "type": "electric_scooter", "lon": -77.038306, "rental_uris": {"android": "https://dc.lft.to/lastmile_qr_scan", "ios": "https://dc.lft.to/lastmile_qr_scan"}, "lat": 38.912633666666665, "is_reserved": 0, "is_disabled": 0, "fusion_lat": 0.0}, {"fusion_lon": 0.0, "bike_id": "f77d053966ce86bdfa7a40e6c5b94834", "name": "f77d053966ce86bdfa7a40e6c5b94834", "type": "electric_scooter", "lon": -77.0038075, "rental_uris": {"android": "https://dc.lft.to/lastmile_qr_scan", "ios": "https://dc.lft.to/lastmile_qr_scan"}, "lat": 38.906208666666664, "is_reserved": 0, "is_disabled": 0, "fusion_lat": 0.0}, {"fusion_lon": 0.0, "bike_id": "713e0a892f482cee3daf92eaed8b0937", "name": "713e0a892f482cee3daf92eaed8b0937", "type": "electric_scooter", "lon": -77.03840883333334, "rental_uris": {"android": "https://dc.lft.to/lastmile_qr_scan", "ios": "https://dc.lft.to/lastmile_qr_scan"}, "lat": 38.909863666666666, "is_reserved": 0, "is_disabled": 0, "fusion_lat": 0.0}, {"fusion_lon": 0.0, "bike_id": "e4c1b593a38f6d5c9be3ea36f9b9aa7d", "name": "e4c1b593a38f6d5c9be3ea36f9b9aa7d", "type": "electric_scooter", "lon": -77.032507, "rental_uris": {"android": "https://dc.lft.to/lastmile_qr_scan", "ios": "https://dc.lft.to/lastmile_qr_scan"}, "lat": 38.9132135, "is_reserved": 0, "is_disabled": 0, "fusion_lat": 0.0}, {"fusion_lon": 0.0, "bike_id": "76db0c3b43eb064d229102ecf365fcc3", "name": "76db0c3b43eb064d229102ecf365fcc3", "type": "electric_bike", "lon": -77.04902616666666, "rental_uris": {"android": "https://dc.lft.to/lastmile_qr_scan", "ios": "https://dc.lft.to/lastmile_qr_scan"}, "lat": 38.874951, "is_reserved": 0, "is_disabled": 0, "fusion_lat": 0.0}, {"fusion_lon": 0.0, "bike_id": "d1cb9a72a29ab22f62d1c3abbb3dfb7e", "name": "d1cb9a72a29ab22f62d1c3abbb3dfb7e", "type": "electric_bike", "lon": -77.10027616666666, "rental_uris": {"android": "https://dc.lft.to/lastmile_qr_scan", "ios": "https://dc.lft.to/lastmile_qr_scan"}, "lat": 38.990662666666665, "is_reserved": 0, "is_disabled": 0, "fusion_lat": 0.0}, {"fusion_lon": 0.0, "bike_id": "999ebffc3a220a0f0d6287df6f3aa7c5", "name": "999ebffc3a220a0f0d6287df6f3aa7c5", "type": "electric_bike", "lon": -76.87496783333333, "rental_uris": {"android": "https://dc.lft.to/lastmile_qr_scan", "ios": "https://dc.lft.to/lastmile_qr_scan"}, "lat": 38.9908865, "is_reserved": 0, "is_disabled": 0, "fusion_lat": 0.0}, {"fusion_lon": 0.0, "bike_id": "3275aaa1d4a5d498d7c5a83783d312cf", "name": "3275aaa1d4a5d498d7c5a83783d312cf", "type": "electric_scooter", "lon": -77.028037, "rental_uris": {"android": "https://dc.lft.to/lastmile_qr_scan", "ios": "https://dc.lft.to/lastmile_qr_scan"}, "lat": 38.91104516666667, "is_reserved": 0, "is_disabled": 0, "fusion_lat": 0.0}, {"fusion_lon": 0.0, "bike_id": "82ca4963d8120d7a3a8bb2d01348da37", "name": "82ca4963d8120d7a3a8bb2d01348da37", "type": "electric_scooter", "lon": -77.033885, "rental_uris": {"android": "https://dc.lft.to/lastmile_qr_scan", "ios": "https://dc.lft.to/lastmile_qr_scan"}, "lat": 38.96835983333333, "is_reserved": 0, "is_disabled": 0, "fusion_lat": 0.0}, {"fusion_lon": 0.0, "bike_id": "e96be0dde1804e0a057656059633b3fa", "name": "e96be0dde1804e0a057656059633b3fa", "type": "electric_scooter", "lon": -77.04604083333334, "rental_uris": {"android": "https://dc.lft.to/lastmile_qr_scan", "ios": "https://dc.lft.to/lastmile_qr_scan"}, "lat": 38.9153745, "is_reserved": 0, "is_disabled": 0, "fusion_lat": 0.0}, {"fusion_lon": 0.0, "bike_id": "8efa51fa74a44744bbe8b8c4fe06c626", "name": "8efa51fa74a44744bbe8b8c4fe06c626", "type": "electric_scooter", "lon": -77.03528433333334, "rental_uris": {"android": "https://dc.lft.to/lastmile_qr_scan", "ios": "https://dc.lft.to/lastmile_qr_scan"}, "lat": 38.9215725, "is_reserved": 0, "is_disabled": 0, "fusion_lat": 0.0}, {"fusion_lon": 0.0, "bike_id": "5a6c67e1461a098945d227c157ab191b", "name": "5a6c67e1461a098945d227c157ab191b", "type": "electric_scooter", "lon": -77.01389566666667, "rental_uris": {"android": "https://dc.lft.to/lastmile_qr_scan", "ios": "https://dc.lft.to/lastmile_qr_scan"}, "lat": 38.92814933333333, "is_reserved": 0, "is_disabled": 0, "fusion_lat": 0.0}, {"fusion_lon": 0.0, "bike_id": "5c67a09dcbabe64efa08c7f4fba5abc2", "name": "5c67a09dcbabe64efa08c7f4fba5abc2", "type": "electric_scooter", "lon": -77.05921533333333, "rental_uris": {"android": "https://dc.lft.to/lastmile_qr_scan", "ios": "https://dc.lft.to/lastmile_qr_scan"}, "lat": 38.91002183333333, "is_reserved": 0, "is_disabled": 0, "fusion_lat": 0.0}, {"fusion_lon": 0.0, "bike_id": "fd055fdaefdcae96b2ee5a80b6cf6141", "name": "fd055fdaefdcae96b2ee5a80b6cf6141", "type": "electric_scooter", "lon": -77.02935066666667, "rental_uris": {"android": "https://dc.lft.to/lastmile_qr_scan", "ios": "https://dc.lft.to/lastmile_qr_scan"}, "lat": 38.91415533333333, "is_reserved": 0, "is_disabled": 0, "fusion_lat": 0.0}, {"fusion_lon": 0.0, "bike_id": "7c77e5499a0e77773b55378cc6a70f4e", "name": "7c77e5499a0e77773b55378cc6a70f4e", "type": "electric_scooter", "lon": -77.01779366666666, "rental_uris": {"android": "https://dc.lft.to/lastmile_qr_scan", "ios": "https://dc.lft.to/lastmile_qr_scan"}, "lat": 38.92100966666667, "is_reserved": 0, "is_disabled": 0, "fusion_lat": 0.0}, {"fusion_lon": 0.0, "bike_id": "3217bd9949110f0b649a1fea819ef3f7", "name": "3217bd9949110f0b649a1fea819ef3f7", "type": "electric_scooter", "lon": -77.00196116666666, "rental_uris": {"android": "https://dc.lft.to/lastmile_qr_scan", "ios": "https://dc.lft.to/lastmile_qr_scan"}, "lat": 38.9023105, "is_reserved": 0, "is_disabled": 0, "fusion_lat": 0.0}, {"fusion_lon": 0.0, "bike_id": "26f7dd5e67c0625398f5e9081ee1edbf", "name": "26f7dd5e67c0625398f5e9081ee1edbf", "type": "electric_scooter", "lon": -77.01793583333334, "rental_uris": {"android": "https://dc.lft.to/lastmile_qr_scan", "ios": "https://dc.lft.to/lastmile_qr_scan"}, "lat": 38.9411605, "is_reserved": 0, "is_disabled": 0, "fusion_lat": 0.0}, {"fusion_lon": 0.0, "bike_id": "2eee81279de22b05de957d0ddf314ee6", "name": "2eee81279de22b05de957d0ddf314ee6", "type": "electric_scooter", "lon": -77.0408385, "rental_uris": {"android": "https://dc.lft.to/lastmile_qr_scan", "ios": "https://dc.lft.to/lastmile_qr_scan"}, "lat": 38.91247416666667, "is_reserved": 0, "is_disabled": 0, "fusion_lat": 0.0}, {"fusion_lon": 0.0, "bike_id": "8105f45e8460869f73b4c5d16ae47a78", "name": "8105f45e8460869f73b4c5d16ae47a78", "type": "electric_scooter", "lon": -77.022163, "rental_uris": {"android": "https://dc.lft.to/lastmile_qr_scan", "ios": "https://dc.lft.to/lastmile_qr_scan"}, "lat": 38.9054205, "is_reserved": 0, "is_disabled": 0, "fusion_lat": 0.0}, {"fusion_lon": 0.0, "bike_id": "35b6e887d55680bd2f7b49f64cdeb229", "name": "35b6e887d55680bd2f7b49f64cdeb229", "type": "electric_scooter", "lon": -77.0282185, "rental_uris": {"android": "https://dc.lft.to/lastmile_qr_scan", "ios": "https://dc.lft.to/lastmile_qr_scan"}, "lat": 38.88583766666667, "is_reserved": 0, "is_disabled": 0, "fusion_lat": 0.0}, {"fusion_lon": 0.0, "bike_id": "0e7f6e4d466494544121915304872cb5", "name": "0e7f6e4d466494544121915304872cb5", "type": "electric_scooter", "lon": -77.00323233333333, "rental_uris": {"android": "https://dc.lft.to/lastmile_qr_scan", "ios": "https://dc.lft.to/lastmile_qr_scan"}, "lat": 38.907208833333335, "is_reserved": 0, "is_disabled": 0, "fusion_lat": 0.0}, {"fusion_lon": 0.0, "bike_id": "ddf116ef481cc252bb3dca29afe16e31", "name": "ddf116ef481cc252bb3dca29afe16e31", "type": "electric_bike", "lon": -77.0271615, "rental_uris": {"android": "https://dc.lft.to/lastmile_qr_scan", "ios": "https://dc.lft.to/lastmile_qr_scan"}, "lat": 38.98190566666667, "is_reserved": 0, "is_disabled": 0, "fusion_lat": 0.0}, {"fusion_lon": 0.0, "bike_id": "cbe5324ddf16a901e649f912552a9e28", "name": "cbe5324ddf16a901e649f912552a9e28", "type": "electric_scooter", "lon": -77.0448035, "rental_uris": {"android": "https://dc.lft.to/lastmile_qr_scan", "ios": "https://dc.lft.to/lastmile_qr_scan"}, "lat": 38.898846666666664, "is_reserved": 0, "is_disabled": 0, "fusion_lat": 0.0}, {"fusion_lon": 0.0, "bike_id": "04451bf641fdf9d4076cb8fa7af33a09", "name": "04451bf641fdf9d4076cb8fa7af33a09", "type": "electric_scooter", "lon": -77.04158366666667, "rental_uris": {"android": "https://dc.lft.to/lastmile_qr_scan", "ios": "https://dc.lft.to/lastmile_qr_scan"}, "lat": 38.9014125, "is_reserved": 0, "is_disabled": 0, "fusion_lat": 0.0}, {"fusion_lon": 0.0, "bike_id": "aea0639cb987fd08d39cca668a16d419", "name": "aea0639cb987fd08d39cca668a16d419", "type": "electric_scooter", "lon": -77.03264333333334, "rental_uris": {"android": "https://dc.lft.to/lastmile_qr_scan", "ios": "https://dc.lft.to/lastmile_qr_scan"}, "lat": 38.91338416666667, "is_reserved": 0, "is_disabled": 0, "fusion_lat": 0.0}, {"fusion_lon": 0.0, "bike_id": "98b24e1d32338f5284a722bff82d2b1e", "name": "98b24e1d32338f5284a722bff82d2b1e", "type": "electric_scooter", "lon": -77.0328965, "rental_uris": {"android": "https://dc.lft.to/lastmile_qr_scan", "ios": "https://dc.lft.to/lastmile_qr_scan"}, "lat": 38.92065983333333, "is_reserved": 0, "is_disabled": 0, "fusion_lat": 0.0}, {"fusion_lon": 0.0, "bike_id": "89f7d1c325155a67193ddada23245ef4", "name": "89f7d1c325155a67193ddada23245ef4", "type": "electric_scooter", "lon": -77.05580616666667, "rental_uris": {"android": "https://dc.lft.to/lastmile_qr_scan", "ios": "https://dc.lft.to/lastmile_qr_scan"}, "lat": 38.90028316666667, "is_reserved": 0, "is_disabled": 0, "fusion_lat": 0.0}, {"fusion_lon": 0.0, "bike_id": "46235c4616bdf99a0b6d6173c4176a78", "name": "46235c4616bdf99a0b6d6173c4176a78", "type": "electric_scooter", "lon": -77.04483133333333, "rental_uris": {"android": "https://dc.lft.to/lastmile_qr_scan", "ios": "https://dc.lft.to/lastmile_qr_scan"}, "lat": 38.91378816666667, "is_reserved": 0, "is_disabled": 0, "fusion_lat": 0.0}, {"fusion_lon": 0.0, "bike_id": "36cb5259619f28ebfd45c498e6ac2bf1", "name": "36cb5259619f28ebfd45c498e6ac2bf1", "type": "electric_bike", "lon": -77.17800566666666, "rental_uris": {"android": "https://dc.lft.to/lastmile_qr_scan", "ios": "https://dc.lft.to/lastmile_qr_scan"}, "lat": 39.088440166666665, "is_reserved": 0, "is_disabled": 0, "fusion_lat": 0.0}, {"fusion_lon": 0.0, "bike_id": "24ab07c2f854855a819c3d440940c92a", "name": "24ab07c2f854855a819c3d440940c92a", "type": "electric_scooter", "lon": -77.05560116666666, "rental_uris": {"android": "https://dc.lft.to/lastmile_qr_scan", "ios": "https://dc.lft.to/lastmile_qr_scan"}, "lat": 38.8972935, "is_reserved": 0, "is_disabled": 0, "fusion_lat": 0.0}, {"fusion_lon": 0.0, "bike_id": "d185119d5f90cebc34e0fa529568e567", "name": "d185119d5f90cebc34e0fa529568e567", "type": "electric_scooter", "lon": -77.016159, "rental_uris": {"android": "https://dc.lft.to/lastmile_qr_scan", "ios": "https://dc.lft.to/lastmile_qr_scan"}, "lat": 38.9059335, "is_reserved": 0, "is_disabled": 0, "fusion_lat": 0.0}, {"fusion_lon": 0.0, "bike_id": "5e9e15960e46c15aa818af979ad5a1cb", "name": "5e9e15960e46c15aa818af979ad5a1cb", "type": "electric_scooter", "lon": -76.9962125, "rental_uris": {"android": "https://dc.lft.to/lastmile_qr_scan", "ios": "https://dc.lft.to/lastmile_qr_scan"}, "lat": 38.90037866666667, "is_reserved": 0, "is_disabled": 0, "fusion_lat": 0.0}, {"fusion_lon": 0.0, "bike_id": "d40f5e7c978248551ea056ea948f7086", "name": "d40f5e7c978248551ea056ea948f7086", "type": "electric_scooter", "lon": -76.98875116666666, "rental_uris": {"android": "https://dc.lft.to/lastmile_qr_scan", "ios": "https://dc.lft.to/lastmile_qr_scan"}, "lat": 38.86677066666667, "is_reserved": 0, "is_disabled": 0, "fusion_lat": 0.0}, {"fusion_lon": 0.0, "bike_id": "cfa9e4eaa8402e49ff6c1b28934f7015", "name": "cfa9e4eaa8402e49ff6c1b28934f7015", "type": "electric_scooter", "lon": -76.99502583333333, "rental_uris": {"android": "https://dc.lft.to/lastmile_qr_scan", "ios": "https://dc.lft.to/lastmile_qr_scan"}, "lat": 38.8858235, "is_reserved": 0, "is_disabled": 0, "fusion_lat": 0.0}, {"fusion_lon": 0.0, "bike_id": "19c9ec64fd6d0bc03a41290ae94de7b6", "name": "19c9ec64fd6d0bc03a41290ae94de7b6", "type": "electric_scooter", "lon": -77.00421066666667, "rental_uris": {"android": "https://dc.lft.to/lastmile_qr_scan", "ios": "https://dc.lft.to/lastmile_qr_scan"}, "lat": 38.87683916666667, "is_reserved": 0, "is_disabled": 0, "fusion_lat": 0.0}, {"fusion_lon": 0.0, "bike_id": "382d7cae34685a97f6dc98d9171458a2", "name": "382d7cae34685a97f6dc98d9171458a2", "type": "electric_scooter", "lon": -77.037374, "rental_uris": {"android": "https://dc.lft.to/lastmile_qr_scan", "ios": "https://dc.lft.to/lastmile_qr_scan"}, "lat": 38.92855633333333, "is_reserved": 0, "is_disabled": 0, "fusion_lat": 0.0}, {"fusion_lon": 0.0, "bike_id": "d37615d652d4067ecd724bd85ba14117", "name": "d37615d652d4067ecd724bd85ba14117", "type": "electric_bike", "lon": -76.90818766666666, "rental_uris": {"android": "https://dc.lft.to/lastmile_qr_scan", "ios": "https://dc.lft.to/lastmile_qr_scan"}, "lat": 38.994528333333335, "is_reserved": 0, "is_disabled": 0, "fusion_lat": 0.0}, {"fusion_lon": 0.0, "bike_id": "c9a313a34c5707f150077bf07dc181be", "name": "c9a313a34c5707f150077bf07dc181be", "type": "electric_scooter", "lon": -76.9489745, "rental_uris": {"android": "https://dc.lft.to/lastmile_qr_scan", "ios": "https://dc.lft.to/lastmile_qr_scan"}, "lat": 38.89528466666667, "is_reserved": 0, "is_disabled": 0, "fusion_lat": 0.0}, {"fusion_lon": 0.0, "bike_id": "f54c59756bf1bfbce13e2c7cf04a3734", "name": "f54c59756bf1bfbce13e2c7cf04a3734", "type": "electric_scooter", "lon": -77.02811283333334, "rental_uris": {"android": "https://dc.lft.to/lastmile_qr_scan", "ios": "https://dc.lft.to/lastmile_qr_scan"}, "lat": 38.96171533333333, "is_reserved": 0, "is_disabled": 0, "fusion_lat": 0.0}, {"fusion_lon": 0.0, "bike_id": "eacbb21352c3405ed378e32a1274ae8a", "name": "eacbb21352c3405ed378e32a1274ae8a", "type": "electric_bike", "lon": -76.91594066666667, "rental_uris": {"android": "https://dc.lft.to/lastmile_qr_scan", "ios": "https://dc.lft.to/lastmile_qr_scan"}, "lat": 38.880129333333336, "is_reserved": 0, "is_disabled": 0, "fusion_lat": 0.0}, {"fusion_lon": 0.0, "bike_id": "93d87064d669e3f92c1421481a11bf7b", "name": "93d87064d669e3f92c1421481a11bf7b", "type": "electric_bike", "lon": -76.97898666666667, "rental_uris": {"android": "https://dc.lft.to/lastmile_qr_scan", "ios": "https://dc.lft.to/lastmile_qr_scan"}, "lat": 38.85489483333333, "is_reserved": 0, "is_disabled": 0, "fusion_lat": 0.0}, {"fusion_lon": 0.0, "bike_id": "c8307b6639489877391099e2f3b9b60b", "name": "c8307b6639489877391099e2f3b9b60b", "type": "electric_scooter", "lon": -77.003333, "rental_uris": {"android": "https://dc.lft.to/lastmile_qr_scan", "ios": "https://dc.lft.to/lastmile_qr_scan"}, "lat": 38.88317166666667, "is_reserved": 0, "is_disabled": 0, "fusion_lat": 0.0}, {"fusion_lon": 0.0, "bike_id": "eb13d84acc364111460d47962c6ae9aa", "name": "eb13d84acc364111460d47962c6ae9aa", "type": "electric_scooter", "lon": -77.06647116666667, "rental_uris": {"android": "https://dc.lft.to/lastmile_qr_scan", "ios": "https://dc.lft.to/lastmile_qr_scan"}, "lat": 38.90365716666667, "is_reserved": 0, "is_disabled": 0, "fusion_lat": 0.0}, {"fusion_lon": 0.0, "bike_id": "833214f667b3bf6269f21424a7cb239a", "name": "833214f667b3bf6269f21424a7cb239a", "type": "electric_scooter", "lon": -76.9833885, "rental_uris": {"android": "https://dc.lft.to/lastmile_qr_scan", "ios": "https://dc.lft.to/lastmile_qr_scan"}, "lat": 38.912752, "is_reserved": 0, "is_disabled": 0, "fusion_lat": 0.0}, {"fusion_lon": 0.0, "bike_id": "52d2af730abcb796f1c7ac8bc2759268", "name": "52d2af730abcb796f1c7ac8bc2759268", "type": "electric_scooter", "lon": -77.00840266666667, "rental_uris": {"android": "https://dc.lft.to/lastmile_qr_scan", "ios": "https://dc.lft.to/lastmile_qr_scan"}, "lat": 38.876596, "is_reserved": 0, "is_disabled": 0, "fusion_lat": 0.0}, {"fusion_lon": 0.0, "bike_id": "30aaf880cdfd7170854b86670fa5c05b", "name": "30aaf880cdfd7170854b86670fa5c05b", "type": "electric_scooter", "lon": -77.050644, "rental_uris": {"android": "https://dc.lft.to/lastmile_qr_scan", "ios": "https://dc.lft.to/lastmile_qr_scan"}, "lat": 38.900733833333334, "is_reserved": 0, "is_disabled": 0, "fusion_lat": 0.0}, {"fusion_lon": 0.0, "bike_id": "400448b72d97f3a773e531d6758413e9", "name": "400448b72d97f3a773e531d6758413e9", "type": "electric_scooter", "lon": -76.99866983333334, "rental_uris": {"android": "https://dc.lft.to/lastmile_qr_scan", "ios": "https://dc.lft.to/lastmile_qr_scan"}, "lat": 38.900295666666665, "is_reserved": 0, "is_disabled": 0, "fusion_lat": 0.0}, {"fusion_lon": 0.0, "bike_id": "01273a2b6470a3980d60ee39b6dedb8f", "name": "01273a2b6470a3980d60ee39b6dedb8f", "type": "electric_scooter", "lon": -77.0278915, "rental_uris": {"android": "https://dc.lft.to/lastmile_qr_scan", "ios": "https://dc.lft.to/lastmile_qr_scan"}, "lat": 38.930865833333336, "is_reserved": 0, "is_disabled": 0, "fusion_lat": 0.0}, {"fusion_lon": 0.0, "bike_id": "4a9951c92e2038bd13e69bf0584bb879", "name": "4a9951c92e2038bd13e69bf0584bb879", "type": "electric_scooter", "lon": -76.99538133333333, "rental_uris": {"android": "https://dc.lft.to/lastmile_qr_scan", "ios": "https://dc.lft.to/lastmile_qr_scan"}, "lat": 38.862528166666664, "is_reserved": 0, "is_disabled": 0, "fusion_lat": 0.0}, {"fusion_lon": 0.0, "bike_id": "e0d079f535cdfdf5f1eaa583b2a56782", "name": "e0d079f535cdfdf5f1eaa583b2a56782", "type": "electric_scooter", "lon": -77.05090033333333, "rental_uris": {"android": "https://dc.lft.to/lastmile_qr_scan", "ios": "https://dc.lft.to/lastmile_qr_scan"}, "lat": 38.923332333333335, "is_reserved": 0, "is_disabled": 0, "fusion_lat": 0.0}, {"fusion_lon": 0.0, "bike_id": "f36bab5463e6dc3b5b63d140265dff28", "name": "f36bab5463e6dc3b5b63d140265dff28", "type": "electric_scooter", "lon": -77.02846766666667, "rental_uris": {"android": "https://dc.lft.to/lastmile_qr_scan", "ios": "https://dc.lft.to/lastmile_qr_scan"}, "lat": 38.9223635, "is_reserved": 0, "is_disabled": 0, "fusion_lat": 0.0}, {"fusion_lon": 0.0, "bike_id": "2cb928865900105cdb753f35507138f8", "name": "2cb928865900105cdb753f35507138f8", "type": "electric_scooter", "lon": -77.0530005, "rental_uris": {"android": "https://dc.lft.to/lastmile_qr_scan", "ios": "https://dc.lft.to/lastmile_qr_scan"}, "lat": 38.9279065, "is_reserved": 0, "is_disabled": 0, "fusion_lat": 0.0}, {"fusion_lon": 0.0, "bike_id": "5a4b36de3a0268f1bef810693d52fd75", "name": "5a4b36de3a0268f1bef810693d52fd75", "type": "electric_scooter", "lon": -77.02464716666667, "rental_uris": {"android": "https://dc.lft.to/lastmile_qr_scan", "ios": "https://dc.lft.to/lastmile_qr_scan"}, "lat": 38.91877616666667, "is_reserved": 0, "is_disabled": 0, "fusion_lat": 0.0}, {"fusion_lon": 0.0, "bike_id": "019a44773850c7793515edf8c81a4781", "name": "019a44773850c7793515edf8c81a4781", "type": "electric_scooter", "lon": -77.02496916666666, "rental_uris": {"android": "https://dc.lft.to/lastmile_qr_scan", "ios": "https://dc.lft.to/lastmile_qr_scan"}, "lat": 38.918080833333335, "is_reserved": 0, "is_disabled": 0, "fusion_lat": 0.0}, {"fusion_lon": 0.0, "bike_id": "de9885791f58faca40a7372b56a218cf", "name": "de9885791f58faca40a7372b56a218cf", "type": "electric_scooter", "lon": -76.93435033333333, "rental_uris": {"android": "https://dc.lft.to/lastmile_qr_scan", "ios": "https://dc.lft.to/lastmile_qr_scan"}, "lat": 38.8996895, "is_reserved": 0, "is_disabled": 0, "fusion_lat": 0.0}, {"fusion_lon": 0.0, "bike_id": "c0fe224a07d9821034205c5c37840c47", "name": "c0fe224a07d9821034205c5c37840c47", "type": "electric_bike", "lon": -76.98332016666667, "rental_uris": {"android": "https://dc.lft.to/lastmile_qr_scan", "ios": "https://dc.lft.to/lastmile_qr_scan"}, "lat": 38.9660545, "is_reserved": 0, "is_disabled": 0, "fusion_lat": 0.0}, {"fusion_lon": 0.0, "bike_id": "8bc1230d5d25dbd32f1dbaf9201c37f2", "name": "8bc1230d5d25dbd32f1dbaf9201c37f2", "type": "electric_scooter", "lon": -77.0161255, "rental_uris": {"android": "https://dc.lft.to/lastmile_qr_scan", "ios": "https://dc.lft.to/lastmile_qr_scan"}, "lat": 38.887438, "is_reserved": 0, "is_disabled": 0, "fusion_lat": 0.0}, {"fusion_lon": 0.0, "bike_id": "764d289fd6446e50acbbcb75f18130b8", "name": "764d289fd6446e50acbbcb75f18130b8", "type": "electric_bike", "lon": -77.04358166666667, "rental_uris": {"android": "https://dc.lft.to/lastmile_qr_scan", "ios": "https://dc.lft.to/lastmile_qr_scan"}, "lat": 38.83186033333333, "is_reserved": 0, "is_disabled": 0, "fusion_lat": 0.0}, {"fusion_lon": 0.0, "bike_id": "fca6459c755b09b378fb316282457eb4", "name": "fca6459c755b09b378fb316282457eb4", "type": "electric_scooter", "lon": -77.0296845, "rental_uris": {"android": "https://dc.lft.to/lastmile_qr_scan", "ios": "https://dc.lft.to/lastmile_qr_scan"}, "lat": 38.89877083333333, "is_reserved": 0, "is_disabled": 0, "fusion_lat": 0.0}, {"fusion_lon": 0.0, "bike_id": "b2979299adf6266661a10639fdca405a", "name": "b2979299adf6266661a10639fdca405a", "type": "electric_scooter", "lon": -76.98564816666666, "rental_uris": {"android": "https://dc.lft.to/lastmile_qr_scan", "ios": "https://dc.lft.to/lastmile_qr_scan"}, "lat": 38.855884, "is_reserved": 0, "is_disabled": 0, "fusion_lat": 0.0}, {"fusion_lon": 0.0, "bike_id": "f52091dc4485268b718017711829cd4c", "name": "f52091dc4485268b718017711829cd4c", "type": "electric_scooter", "lon": -77.00752216666666, "rental_uris": {"android": "https://dc.lft.to/lastmile_qr_scan", "ios": "https://dc.lft.to/lastmile_qr_scan"}, "lat": 38.91188733333333, "is_reserved": 0, "is_disabled": 0, "fusion_lat": 0.0}, {"fusion_lon": 0.0, "bike_id": "05c29fe04b2e15e3001a85cc84dc0eb6", "name": "05c29fe04b2e15e3001a85cc84dc0eb6", "type": "electric_scooter", "lon": -77.02196983333333, "rental_uris": {"android": "https://dc.lft.to/lastmile_qr_scan", "ios": "https://dc.lft.to/lastmile_qr_scan"}, "lat": 38.896961, "is_reserved": 0, "is_disabled": 0, "fusion_lat": 0.0}, {"fusion_lon": 0.0, "bike_id": "798cdc8b56a90c6a32282698f4bf9544", "name": "798cdc8b56a90c6a32282698f4bf9544", "type": "electric_scooter", "lon": -77.02930766666667, "rental_uris": {"android": "https://dc.lft.to/lastmile_qr_scan", "ios": "https://dc.lft.to/lastmile_qr_scan"}, "lat": 38.88217783333333, "is_reserved": 0, "is_disabled": 0, "fusion_lat": 0.0}, {"fusion_lon": 0.0, "bike_id": "487877710987db8617cc5cda4eb7085b", "name": "487877710987db8617cc5cda4eb7085b", "type": "electric_scooter", "lon": -77.04199116666666, "rental_uris": {"android": "https://dc.lft.to/lastmile_qr_scan", "ios": "https://dc.lft.to/lastmile_qr_scan"}, "lat": 38.9168075, "is_reserved": 0, "is_disabled": 0, "fusion_lat": 0.0}, {"fusion_lon": 0.0, "bike_id": "070a0158813679a491fa63b6f21d1aa2", "name": "070a0158813679a491fa63b6f21d1aa2", "type": "electric_scooter", "lon": -77.03184516666667, "rental_uris": {"android": "https://dc.lft.to/lastmile_qr_scan", "ios": "https://dc.lft.to/lastmile_qr_scan"}, "lat": 38.908371833333334, "is_reserved": 0, "is_disabled": 0, "fusion_lat": 0.0}, {"fusion_lon": 0.0, "bike_id": "5b5f702e4c9318a52f1f54d3de4ac3e0", "name": "5b5f702e4c9318a52f1f54d3de4ac3e0", "type": "electric_scooter", "lon": -77.039953, "rental_uris": {"android": "https://dc.lft.to/lastmile_qr_scan", "ios": "https://dc.lft.to/lastmile_qr_scan"}, "lat": 38.90157583333333, "is_reserved": 0, "is_disabled": 0, "fusion_lat": 0.0}, {"fusion_lon": 0.0, "bike_id": "4b3da1b6a3057859daae036a50d971ea", "name": "4b3da1b6a3057859daae036a50d971ea", "type": "electric_scooter", "lon": -77.03861533333334, "rental_uris": {"android": "https://dc.lft.to/lastmile_qr_scan", "ios": "https://dc.lft.to/lastmile_qr_scan"}, "lat": 38.9117745, "is_reserved": 0, "is_disabled": 0, "fusion_lat": 0.0}, {"fusion_lon": 0.0, "bike_id": "48932047adcf9a2aaf246c58ffcfeaf7", "name": "48932047adcf9a2aaf246c58ffcfeaf7", "type": "electric_bike", "lon": -77.00868566666666, "rental_uris": {"android": "https://dc.lft.to/lastmile_qr_scan", "ios": "https://dc.lft.to/lastmile_qr_scan"}, "lat": 38.82730166666666, "is_reserved": 0, "is_disabled": 0, "fusion_lat": 0.0}, {"fusion_lon": 0.0, "bike_id": "1a8e9438d0414536ee79a82564fb3419", "name": "1a8e9438d0414536ee79a82564fb3419", "type": "electric_scooter", "lon": -77.05401883333333, "rental_uris": {"android": "https://dc.lft.to/lastmile_qr_scan", "ios": "https://dc.lft.to/lastmile_qr_scan"}, "lat": 38.86900633333333, "is_reserved": 0, "is_disabled": 0, "fusion_lat": 0.0}, {"fusion_lon": 0.0, "bike_id": "b1b902f8235e1936ad8945aaa336d267", "name": "b1b902f8235e1936ad8945aaa336d267", "type": "electric_scooter", "lon": -77.02579, "rental_uris": {"android": "https://dc.lft.to/lastmile_qr_scan", "ios": "https://dc.lft.to/lastmile_qr_scan"}, "lat": 38.884839, "is_reserved": 0, "is_disabled": 0, "fusion_lat": 0.0}, {"fusion_lon": 0.0, "bike_id": "a273d6ffe8758d20cce37c1df46dfb4b", "name": "a273d6ffe8758d20cce37c1df46dfb4b", "type": "electric_scooter", "lon": -77.00569466666667, "rental_uris": {"android": "https://dc.lft.to/lastmile_qr_scan", "ios": "https://dc.lft.to/lastmile_qr_scan"}, "lat": 38.875789, "is_reserved": 0, "is_disabled": 0, "fusion_lat": 0.0}, {"fusion_lon": 0.0, "bike_id": "83eb5ac69c7467ac79d8665e717570df", "name": "83eb5ac69c7467ac79d8665e717570df", "type": "electric_scooter", "lon": -77.053312, "rental_uris": {"android": "https://dc.lft.to/lastmile_qr_scan", "ios": "https://dc.lft.to/lastmile_qr_scan"}, "lat": 38.923142, "is_reserved": 0, "is_disabled": 0, "fusion_lat": 0.0}, {"fusion_lon": 0.0, "bike_id": "12b75dcea04685a8770bb0088ba704cb", "name": "12b75dcea04685a8770bb0088ba704cb", "type": "electric_scooter", "lon": -77.0416265, "rental_uris": {"android": "https://dc.lft.to/lastmile_qr_scan", "ios": "https://dc.lft.to/lastmile_qr_scan"}, "lat": 38.898381666666666, "is_reserved": 0, "is_disabled": 0, "fusion_lat": 0.0}, {"fusion_lon": 0.0, "bike_id": "46b3fe4826e6aabc8b99e3f4079d22f5", "name": "46b3fe4826e6aabc8b99e3f4079d22f5", "type": "electric_scooter", "lon": -77.00929316666667, "rental_uris": {"android": "https://dc.lft.to/lastmile_qr_scan", "ios": "https://dc.lft.to/lastmile_qr_scan"}, "lat": 38.87204583333333, "is_reserved": 0, "is_disabled": 0, "fusion_lat": 0.0}, {"fusion_lon": 0.0, "bike_id": "b041a628087a9fa5ebfccc42e0cd5a33", "name": "b041a628087a9fa5ebfccc42e0cd5a33", "type": "electric_scooter", "lon": -77.04029266666667, "rental_uris": {"android": "https://dc.lft.to/lastmile_qr_scan", "ios": "https://dc.lft.to/lastmile_qr_scan"}, "lat": 38.91829716666667, "is_reserved": 0, "is_disabled": 0, "fusion_lat": 0.0}, {"fusion_lon": 0.0, "bike_id": "a2b1e11f4367108f37f3779a8c522808", "name": "a2b1e11f4367108f37f3779a8c522808", "type": "electric_scooter", "lon": -76.993795, "rental_uris": {"android": "https://dc.lft.to/lastmile_qr_scan", "ios": "https://dc.lft.to/lastmile_qr_scan"}, "lat": 38.9240025, "is_reserved": 0, "is_disabled": 0, "fusion_lat": 0.0}, {"fusion_lon": 0.0, "bike_id": "051ca33e4fa474aa77836f25f5744fd8", "name": "051ca33e4fa474aa77836f25f5744fd8", "type": "electric_scooter", "lon": -77.0254565, "rental_uris": {"android": "https://dc.lft.to/lastmile_qr_scan", "ios": "https://dc.lft.to/lastmile_qr_scan"}, "lat": 38.9012885, "is_reserved": 0, "is_disabled": 0, "fusion_lat": 0.0}, {"fusion_lon": 0.0, "bike_id": "c9f561bbdc9f506830c9e2c16d6141ea", "name": "c9f561bbdc9f506830c9e2c16d6141ea", "type": "electric_scooter", "lon": -77.031855, "rental_uris": {"android": "https://dc.lft.to/lastmile_qr_scan", "ios": "https://dc.lft.to/lastmile_qr_scan"}, "lat": 38.921105833333336, "is_reserved": 0, "is_disabled": 0, "fusion_lat": 0.0}, {"fusion_lon": 0.0, "bike_id": "f953a300882d69c02bd76e67d2e9299a", "name": "f953a300882d69c02bd76e67d2e9299a", "type": "electric_scooter", "lon": -77.06365383333333, "rental_uris": {"android": "https://dc.lft.to/lastmile_qr_scan", "ios": "https://dc.lft.to/lastmile_qr_scan"}, "lat": 38.94419233333333, "is_reserved": 0, "is_disabled": 0, "fusion_lat": 0.0}, {"fusion_lon": 0.0, "bike_id": "20e7d404b4d9f01b0120addbbb485cab", "name": "20e7d404b4d9f01b0120addbbb485cab", "type": "electric_bike", "lon": -77.05130083333333, "rental_uris": {"android": "https://dc.lft.to/lastmile_qr_scan", "ios": "https://dc.lft.to/lastmile_qr_scan"}, "lat": 38.94548866666667, "is_reserved": 0, "is_disabled": 0, "fusion_lat": 0.0}, {"fusion_lon": 0.0, "bike_id": "08a8ce04b912d8e783557e76ad5e181a", "name": "08a8ce04b912d8e783557e76ad5e181a", "type": "electric_bike", "lon": -77.10723483333334, "rental_uris": {"android": "https://dc.lft.to/lastmile_qr_scan", "ios": "https://dc.lft.to/lastmile_qr_scan"}, "lat": 38.8555175, "is_reserved": 0, "is_disabled": 0, "fusion_lat": 0.0}, {"fusion_lon": 0.0, "bike_id": "60fb409b6f8ecbda66b07d9c6bdc3f59", "name": "60fb409b6f8ecbda66b07d9c6bdc3f59", "type": "electric_scooter", "lon": -77.00252616666667, "rental_uris": {"android": "https://dc.lft.to/lastmile_qr_scan", "ios": "https://dc.lft.to/lastmile_qr_scan"}, "lat": 38.902630333333335, "is_reserved": 0, "is_disabled": 0, "fusion_lat": 0.0}, {"fusion_lon": 0.0, "bike_id": "38cafaeb5943d861affb8904357ff3c2", "name": "38cafaeb5943d861affb8904357ff3c2", "type": "electric_scooter", "lon": -77.0403235, "rental_uris": {"android": "https://dc.lft.to/lastmile_qr_scan", "ios": "https://dc.lft.to/lastmile_qr_scan"}, "lat": 38.91785433333333, "is_reserved": 0, "is_disabled": 0, "fusion_lat": 0.0}, {"fusion_lon": 0.0, "bike_id": "ce881d51c53d978707c72e5ddbb513d6", "name": "ce881d51c53d978707c72e5ddbb513d6", "type": "electric_scooter", "lon": -77.002175, "rental_uris": {"android": "https://dc.lft.to/lastmile_qr_scan", "ios": "https://dc.lft.to/lastmile_qr_scan"}, "lat": 38.89504316666667, "is_reserved": 0, "is_disabled": 0, "fusion_lat": 0.0}, {"fusion_lon": 0.0, "bike_id": "b5c76c043e8ddb626be653b0cea78518", "name": "b5c76c043e8ddb626be653b0cea78518", "type": "electric_scooter", "lon": -77.03175533333334, "rental_uris": {"android": "https://dc.lft.to/lastmile_qr_scan", "ios": "https://dc.lft.to/lastmile_qr_scan"}, "lat": 38.91562016666666, "is_reserved": 0, "is_disabled": 0, "fusion_lat": 0.0}, {"fusion_lon": 0.0, "bike_id": "057d5bd3d15ed430ce84fdc2156e7545", "name": "057d5bd3d15ed430ce84fdc2156e7545", "type": "electric_scooter", "lon": -77.03877666666666, "rental_uris": {"android": "https://dc.lft.to/lastmile_qr_scan", "ios": "https://dc.lft.to/lastmile_qr_scan"}, "lat": 38.93433566666667, "is_reserved": 0, "is_disabled": 0, "fusion_lat": 0.0}, {"fusion_lon": 0.0, "bike_id": "12d76b878193ff87bc023051e851023d", "name": "12d76b878193ff87bc023051e851023d", "type": "electric_scooter", "lon": -76.99583866666667, "rental_uris": {"android": "https://dc.lft.to/lastmile_qr_scan", "ios": "https://dc.lft.to/lastmile_qr_scan"}, "lat": 38.920887666666665, "is_reserved": 0, "is_disabled": 0, "fusion_lat": 0.0}, {"fusion_lon": 0.0, "bike_id": "72b6978c519f1067ec20b699b37f9c92", "name": "72b6978c519f1067ec20b699b37f9c92", "type": "electric_scooter", "lon": -77.03441633333334, "rental_uris": {"android": "https://dc.lft.to/lastmile_qr_scan", "ios": "https://dc.lft.to/lastmile_qr_scan"}, "lat": 38.90806083333333, "is_reserved": 0, "is_disabled": 0, "fusion_lat": 0.0}, {"fusion_lon": 0.0, "bike_id": "fc310640237d6fae2a48f4d09c4d038d", "name": "fc310640237d6fae2a48f4d09c4d038d", "type": "electric_scooter", "lon": -77.02786266666666, "rental_uris": {"android": "https://dc.lft.to/lastmile_qr_scan", "ios": "https://dc.lft.to/lastmile_qr_scan"}, "lat": 38.89223633333334, "is_reserved": 0, "is_disabled": 0, "fusion_lat": 0.0}, {"fusion_lon": 0.0, "bike_id": "bccda99d6fa106601e331fe9614621f8", "name": "bccda99d6fa106601e331fe9614621f8", "type": "electric_scooter", "lon": -77.03225916666666, "rental_uris": {"android": "https://dc.lft.to/lastmile_qr_scan", "ios": "https://dc.lft.to/lastmile_qr_scan"}, "lat": 38.912697333333334, "is_reserved": 0, "is_disabled": 0, "fusion_lat": 0.0}, {"fusion_lon": 0.0, "bike_id": "418a389f100aaf4734e0275b0876124f", "name": "418a389f100aaf4734e0275b0876124f", "type": "electric_scooter", "lon": -77.0094725, "rental_uris": {"android": "https://dc.lft.to/lastmile_qr_scan", "ios": "https://dc.lft.to/lastmile_qr_scan"}, "lat": 38.895019, "is_reserved": 0, "is_disabled": 0, "fusion_lat": 0.0}, {"fusion_lon": 0.0, "bike_id": "574a237e41953bcd3ace53e33a8756d1", "name": "574a237e41953bcd3ace53e33a8756d1", "type": "electric_scooter", "lon": -77.00224766666666, "rental_uris": {"android": "https://dc.lft.to/lastmile_qr_scan", "ios": "https://dc.lft.to/lastmile_qr_scan"}, "lat": 38.913442333333336, "is_reserved": 0, "is_disabled": 0, "fusion_lat": 0.0}, {"fusion_lon": 0.0, "bike_id": "a9e57b10c8087f414f905958d70094b5", "name": "a9e57b10c8087f414f905958d70094b5", "type": "electric_scooter", "lon": -77.0351535, "rental_uris": {"android": "https://dc.lft.to/lastmile_qr_scan", "ios": "https://dc.lft.to/lastmile_qr_scan"}, "lat": 38.91706833333333, "is_reserved": 0, "is_disabled": 0, "fusion_lat": 0.0}, {"fusion_lon": 0.0, "bike_id": "d7739a74b31278aff60861ffd479a080", "name": "d7739a74b31278aff60861ffd479a080", "type": "electric_scooter", "lon": -77.0233425, "rental_uris": {"android": "https://dc.lft.to/lastmile_qr_scan", "ios": "https://dc.lft.to/lastmile_qr_scan"}, "lat": 38.92233983333333, "is_reserved": 0, "is_disabled": 0, "fusion_lat": 0.0}, {"fusion_lon": 0.0, "bike_id": "3a887b22120577f900761be864164162", "name": "3a887b22120577f900761be864164162", "type": "electric_bike", "lon": -77.08436816666666, "rental_uris": {"android": "https://dc.lft.to/lastmile_qr_scan", "ios": "https://dc.lft.to/lastmile_qr_scan"}, "lat": 38.81027233333333, "is_reserved": 0, "is_disabled": 0, "fusion_lat": 0.0}, {"fusion_lon": 0.0, "bike_id": "b28db84c8ec56f24841f1de79acfc41f", "name": "b28db84c8ec56f24841f1de79acfc41f", "type": "electric_scooter", "lon": -76.99934133333333, "rental_uris": {"android": "https://dc.lft.to/lastmile_qr_scan", "ios": "https://dc.lft.to/lastmile_qr_scan"}, "lat": 38.88132783333333, "is_reserved": 0, "is_disabled": 0, "fusion_lat": 0.0}, {"fusion_lon": 0.0, "bike_id": "8a769744d008c647d6e376d669ff8886", "name": "8a769744d008c647d6e376d669ff8886", "type": "electric_scooter", "lon": -77.027619, "rental_uris": {"android": "https://dc.lft.to/lastmile_qr_scan", "ios": "https://dc.lft.to/lastmile_qr_scan"}, "lat": 38.94300616666666, "is_reserved": 0, "is_disabled": 0, "fusion_lat": 0.0}, {"fusion_lon": 0.0, "bike_id": "4492398cf0f5a972375fe8bf6440e622", "name": "4492398cf0f5a972375fe8bf6440e622", "type": "electric_scooter", "lon": -76.9494095, "rental_uris": {"android": "https://dc.lft.to/lastmile_qr_scan", "ios": "https://dc.lft.to/lastmile_qr_scan"}, "lat": 38.89366883333334, "is_reserved": 0, "is_disabled": 0, "fusion_lat": 0.0}, {"fusion_lon": 0.0, "bike_id": "f99fcc6968dbb9c951c60a5465b34a54", "name": "f99fcc6968dbb9c951c60a5465b34a54", "type": "electric_scooter", "lon": -77.0089875, "rental_uris": {"android": "https://dc.lft.to/lastmile_qr_scan", "ios": "https://dc.lft.to/lastmile_qr_scan"}, "lat": 38.90573916666666, "is_reserved": 0, "is_disabled": 0, "fusion_lat": 0.0}, {"fusion_lon": 0.0, "bike_id": "95962cecee1834b1afb90ab7b4d05076", "name": "95962cecee1834b1afb90ab7b4d05076", "type": "electric_scooter", "lon": -77.0260685, "rental_uris": {"android": "https://dc.lft.to/lastmile_qr_scan", "ios": "https://dc.lft.to/lastmile_qr_scan"}, "lat": 38.91856716666667, "is_reserved": 0, "is_disabled": 0, "fusion_lat": 0.0}, {"fusion_lon": 0.0, "bike_id": "172fdd89b7c3a4ddf8cb4f089ee4da11", "name": "172fdd89b7c3a4ddf8cb4f089ee4da11", "type": "electric_scooter", "lon": -76.99035383333333, "rental_uris": {"android": "https://dc.lft.to/lastmile_qr_scan", "ios": "https://dc.lft.to/lastmile_qr_scan"}, "lat": 38.898825333333335, "is_reserved": 0, "is_disabled": 0, "fusion_lat": 0.0}, {"fusion_lon": 0.0, "bike_id": "9100d3c06cbd5d575e6f69b510d7c033", "name": "9100d3c06cbd5d575e6f69b510d7c033", "type": "electric_scooter", "lon": -77.044786, "rental_uris": {"android": "https://dc.lft.to/lastmile_qr_scan", "ios": "https://dc.lft.to/lastmile_qr_scan"}, "lat": 38.91080783333334, "is_reserved": 0, "is_disabled": 0, "fusion_lat": 0.0}, {"fusion_lon": 0.0, "bike_id": "acf3038a5db1a93690b978a072fcd0d8", "name": "acf3038a5db1a93690b978a072fcd0d8", "type": "electric_bike", "lon": -76.97506633333333, "rental_uris": {"android": "https://dc.lft.to/lastmile_qr_scan", "ios": "https://dc.lft.to/lastmile_qr_scan"}, "lat": 38.919361333333335, "is_reserved": 0, "is_disabled": 0, "fusion_lat": 0.0}, {"fusion_lon": 0.0, "bike_id": "e2129860faac4fe0137955ff4c955d10", "name": "e2129860faac4fe0137955ff4c955d10", "type": "electric_scooter", "lon": -77.00211516666667, "rental_uris": {"android": "https://dc.lft.to/lastmile_qr_scan", "ios": "https://dc.lft.to/lastmile_qr_scan"}, "lat": 38.900339333333335, "is_reserved": 0, "is_disabled": 0, "fusion_lat": 0.0}, {"fusion_lon": 0.0, "bike_id": "1146714b0dced1ab7fed7a613be5da36", "name": "1146714b0dced1ab7fed7a613be5da36", "type": "electric_bike", "lon": -77.02623583333333, "rental_uris": {"android": "https://dc.lft.to/lastmile_qr_scan", "ios": "https://dc.lft.to/lastmile_qr_scan"}, "lat": 38.96230116666667, "is_reserved": 0, "is_disabled": 0, "fusion_lat": 0.0}, {"fusion_lon": 0.0, "bike_id": "01995fa3b0ba106c84519ef19880b883", "name": "01995fa3b0ba106c84519ef19880b883", "type": "electric_scooter", "lon": -77.02594233333333, "rental_uris": {"android": "https://dc.lft.to/lastmile_qr_scan", "ios": "https://dc.lft.to/lastmile_qr_scan"}, "lat": 38.89975333333334, "is_reserved": 0, "is_disabled": 0, "fusion_lat": 0.0}, {"fusion_lon": 0.0, "bike_id": "237de783eeeeecc50c5b102559075d8b", "name": "237de783eeeeecc50c5b102559075d8b", "type": "electric_scooter", "lon": -77.03151116666666, "rental_uris": {"android": "https://dc.lft.to/lastmile_qr_scan", "ios": "https://dc.lft.to/lastmile_qr_scan"}, "lat": 38.88739266666666, "is_reserved": 0, "is_disabled": 0, "fusion_lat": 0.0}, {"fusion_lon": 0.0, "bike_id": "6a097e2dedb86f5e395569e8aa4f8ab6", "name": "6a097e2dedb86f5e395569e8aa4f8ab6", "type": "electric_bike", "lon": -77.0852745, "rental_uris": {"android": "https://dc.lft.to/lastmile_qr_scan", "ios": "https://dc.lft.to/lastmile_qr_scan"}, "lat": 38.85650416666667, "is_reserved": 0, "is_disabled": 0, "fusion_lat": 0.0}, {"fusion_lon": 0.0, "bike_id": "e3a714a1902276c3cba9e4ff20dba670", "name": "e3a714a1902276c3cba9e4ff20dba670", "type": "electric_scooter", "lon": -77.04331716666667, "rental_uris": {"android": "https://dc.lft.to/lastmile_qr_scan", "ios": "https://dc.lft.to/lastmile_qr_scan"}, "lat": 38.90468633333333, "is_reserved": 0, "is_disabled": 0, "fusion_lat": 0.0}, {"fusion_lon": 0.0, "bike_id": "199535c0354f8532d105a481d190f416", "name": "199535c0354f8532d105a481d190f416", "type": "electric_scooter", "lon": -77.043371, "rental_uris": {"android": "https://dc.lft.to/lastmile_qr_scan", "ios": "https://dc.lft.to/lastmile_qr_scan"}, "lat": 38.92221966666666, "is_reserved": 0, "is_disabled": 0, "fusion_lat": 0.0}, {"fusion_lon": 0.0, "bike_id": "097cc6aab7d3b74d1783f72d2d9feaec", "name": "097cc6aab7d3b74d1783f72d2d9feaec", "type": "electric_scooter", "lon": -77.03203866666666, "rental_uris": {"android": "https://dc.lft.to/lastmile_qr_scan", "ios": "https://dc.lft.to/lastmile_qr_scan"}, "lat": 38.911313666666665, "is_reserved": 0, "is_disabled": 0, "fusion_lat": 0.0}, {"fusion_lon": 0.0, "bike_id": "a882bbe23809cec711873a4e6997f8a1", "name": "a882bbe23809cec711873a4e6997f8a1", "type": "electric_scooter", "lon": -77.01115066666667, "rental_uris": {"android": "https://dc.lft.to/lastmile_qr_scan", "ios": "https://dc.lft.to/lastmile_qr_scan"}, "lat": 38.903661166666666, "is_reserved": 0, "is_disabled": 0, "fusion_lat": 0.0}, {"fusion_lon": 0.0, "bike_id": "eef3822ffd5b5d976d852185671caa20", "name": "eef3822ffd5b5d976d852185671caa20", "type": "electric_scooter", "lon": -76.98547833333333, "rental_uris": {"android": "https://dc.lft.to/lastmile_qr_scan", "ios": "https://dc.lft.to/lastmile_qr_scan"}, "lat": 38.878681666666665, "is_reserved": 0, "is_disabled": 0, "fusion_lat": 0.0}, {"fusion_lon": 0.0, "bike_id": "a36bdcec8b0ddd9cb4e66cb361bdbc33", "name": "a36bdcec8b0ddd9cb4e66cb361bdbc33", "type": "electric_scooter", "lon": -76.93758716666666, "rental_uris": {"android": "https://dc.lft.to/lastmile_qr_scan", "ios": "https://dc.lft.to/lastmile_qr_scan"}, "lat": 38.90379216666667, "is_reserved": 0, "is_disabled": 0, "fusion_lat": 0.0}, {"fusion_lon": 0.0, "bike_id": "2158dffb0b73313a7fb2dbb984946cdd", "name": "2158dffb0b73313a7fb2dbb984946cdd", "type": "electric_bike", "lon": -77.04310333333333, "rental_uris": {"android": "https://dc.lft.to/lastmile_qr_scan", "ios": "https://dc.lft.to/lastmile_qr_scan"}, "lat": 39.054477166666665, "is_reserved": 0, "is_disabled": 0, "fusion_lat": 0.0}, {"fusion_lon": 0.0, "bike_id": "97e3789dc8b0a92bd38fcc6a41935836", "name": "97e3789dc8b0a92bd38fcc6a41935836", "type": "electric_scooter", "lon": -76.93189233333334, "rental_uris": {"android": "https://dc.lft.to/lastmile_qr_scan", "ios": "https://dc.lft.to/lastmile_qr_scan"}, "lat": 38.89876116666667, "is_reserved": 0, "is_disabled": 0, "fusion_lat": 0.0}, {"fusion_lon": 0.0, "bike_id": "e9208bd9f891ed5c84a44b6261b5603d", "name": "e9208bd9f891ed5c84a44b6261b5603d", "type": "electric_scooter", "lon": -76.98667016666667, "rental_uris": {"android": "https://dc.lft.to/lastmile_qr_scan", "ios": "https://dc.lft.to/lastmile_qr_scan"}, "lat": 38.90141166666667, "is_reserved": 0, "is_disabled": 0, "fusion_lat": 0.0}, {"fusion_lon": 0.0, "bike_id": "435905b26b145d6b9d31f946525913e8", "name": "435905b26b145d6b9d31f946525913e8", "type": "electric_scooter", "lon": -77.01821833333334, "rental_uris": {"android": "https://dc.lft.to/lastmile_qr_scan", "ios": "https://dc.lft.to/lastmile_qr_scan"}, "lat": 38.922011833333336, "is_reserved": 0, "is_disabled": 0, "fusion_lat": 0.0}, {"fusion_lon": 0.0, "bike_id": "03d75f9c33c8ccf16cc091b4e50202c2", "name": "03d75f9c33c8ccf16cc091b4e50202c2", "type": "electric_scooter", "lon": -77.04180766666667, "rental_uris": {"android": "https://dc.lft.to/lastmile_qr_scan", "ios": "https://dc.lft.to/lastmile_qr_scan"}, "lat": 38.907784, "is_reserved": 0, "is_disabled": 0, "fusion_lat": 0.0}, {"fusion_lon": 0.0, "bike_id": "496d40af46cf7f5843fbe9b30e5691dc", "name": "496d40af46cf7f5843fbe9b30e5691dc", "type": "electric_bike", "lon": -77.01582183333333, "rental_uris": {"android": "https://dc.lft.to/lastmile_qr_scan", "ios": "https://dc.lft.to/lastmile_qr_scan"}, "lat": 38.91674666666667, "is_reserved": 0, "is_disabled": 0, "fusion_lat": 0.0}, {"fusion_lon": 0.0, "bike_id": "5c2ef944c6a5565462fad0a6d0d69a6a", "name": "5c2ef944c6a5565462fad0a6d0d69a6a", "type": "electric_scooter", "lon": -76.99824133333334, "rental_uris": {"android": "https://dc.lft.to/lastmile_qr_scan", "ios": "https://dc.lft.to/lastmile_qr_scan"}, "lat": 38.900351, "is_reserved": 0, "is_disabled": 0, "fusion_lat": 0.0}, {"fusion_lon": 0.0, "bike_id": "180cb8048b8dc6bf37b8bedc91c0e61c", "name": "180cb8048b8dc6bf37b8bedc91c0e61c", "type": "electric_bike", "lon": -77.054859, "rental_uris": {"android": "https://dc.lft.to/lastmile_qr_scan", "ios": "https://dc.lft.to/lastmile_qr_scan"}, "lat": 38.90868716666667, "is_reserved": 0, "is_disabled": 0, "fusion_lat": 0.0}, {"fusion_lon": 0.0, "bike_id": "6d2f5a12e615d8a4136c230bb66726c2", "name": "6d2f5a12e615d8a4136c230bb66726c2", "type": "electric_scooter", "lon": -77.04687833333334, "rental_uris": {"android": "https://dc.lft.to/lastmile_qr_scan", "ios": "https://dc.lft.to/lastmile_qr_scan"}, "lat": 38.900839166666664, "is_reserved": 0, "is_disabled": 0, "fusion_lat": 0.0}, {"fusion_lon": 0.0, "bike_id": "93ab356c6c8af52271dc72c881642df7", "name": "93ab356c6c8af52271dc72c881642df7", "type": "electric_scooter", "lon": -77.0043465, "rental_uris": {"android": "https://dc.lft.to/lastmile_qr_scan", "ios": "https://dc.lft.to/lastmile_qr_scan"}, "lat": 38.876795666666666, "is_reserved": 0, "is_disabled": 0, "fusion_lat": 0.0}, {"fusion_lon": 0.0, "bike_id": "a51a367d5af67e072dd60f566d1d9663", "name": "a51a367d5af67e072dd60f566d1d9663", "type": "electric_scooter", "lon": -77.03853216666667, "rental_uris": {"android": "https://dc.lft.to/lastmile_qr_scan", "ios": "https://dc.lft.to/lastmile_qr_scan"}, "lat": 38.916017333333336, "is_reserved": 0, "is_disabled": 0, "fusion_lat": 0.0}, {"fusion_lon": 0.0, "bike_id": "e220912cc55a245203d7a9ff3279dbab", "name": "e220912cc55a245203d7a9ff3279dbab", "type": "electric_scooter", "lon": -77.03586833333334, "rental_uris": {"android": "https://dc.lft.to/lastmile_qr_scan", "ios": "https://dc.lft.to/lastmile_qr_scan"}, "lat": 38.907602833333335, "is_reserved": 0, "is_disabled": 0, "fusion_lat": 0.0}, {"fusion_lon": 0.0, "bike_id": "a5c6ce57064996d3bc98650fb4811838", "name": "a5c6ce57064996d3bc98650fb4811838", "type": "electric_scooter", "lon": -77.00219266666667, "rental_uris": {"android": "https://dc.lft.to/lastmile_qr_scan", "ios": "https://dc.lft.to/lastmile_qr_scan"}, "lat": 38.91105, "is_reserved": 0, "is_disabled": 0, "fusion_lat": 0.0}, {"fusion_lon": 0.0, "bike_id": "0ec978251e4756a221f1f46643bed257", "name": "0ec978251e4756a221f1f46643bed257", "type": "electric_scooter", "lon": -77.0255895, "rental_uris": {"android": "https://dc.lft.to/lastmile_qr_scan", "ios": "https://dc.lft.to/lastmile_qr_scan"}, "lat": 38.89219683333334, "is_reserved": 0, "is_disabled": 0, "fusion_lat": 0.0}, {"fusion_lon": 0.0, "bike_id": "6b03013c3e4d83fbc81dfb720adc87fb", "name": "6b03013c3e4d83fbc81dfb720adc87fb", "type": "electric_scooter", "lon": -77.03248766666667, "rental_uris": {"android": "https://dc.lft.to/lastmile_qr_scan", "ios": "https://dc.lft.to/lastmile_qr_scan"}, "lat": 38.90118016666667, "is_reserved": 0, "is_disabled": 0, "fusion_lat": 0.0}, {"fusion_lon": 0.0, "bike_id": "46ea2045c13cd6c72d3bd0c8ea6949f1", "name": "46ea2045c13cd6c72d3bd0c8ea6949f1", "type": "electric_bike", "lon": -77.0817455, "rental_uris": {"android": "https://dc.lft.to/lastmile_qr_scan", "ios": "https://dc.lft.to/lastmile_qr_scan"}, "lat": 38.8886575, "is_reserved": 0, "is_disabled": 0, "fusion_lat": 0.0}, {"fusion_lon": 0.0, "bike_id": "cb7c14823ab8901b832aee78729f8466", "name": "cb7c14823ab8901b832aee78729f8466", "type": "electric_scooter", "lon": -77.03354, "rental_uris": {"android": "https://dc.lft.to/lastmile_qr_scan", "ios": "https://dc.lft.to/lastmile_qr_scan"}, "lat": 38.924454, "is_reserved": 0, "is_disabled": 0, "fusion_lat": 0.0}, {"fusion_lon": 0.0, "bike_id": "b12e5d2787b224540142490e7233dbcc", "name": "b12e5d2787b224540142490e7233dbcc", "type": "electric_bike", "lon": -77.035672, "rental_uris": {"android": "https://dc.lft.to/lastmile_qr_scan", "ios": "https://dc.lft.to/lastmile_qr_scan"}, "lat": 38.911218, "is_reserved": 0, "is_disabled": 0, "fusion_lat": 0.0}, {"fusion_lon": 0.0, "bike_id": "9a5ee88ae5086892c04ec14a21d24361", "name": "9a5ee88ae5086892c04ec14a21d24361", "type": "electric_bike", "lon": -76.92929733333334, "rental_uris": {"android": "https://dc.lft.to/lastmile_qr_scan", "ios": "https://dc.lft.to/lastmile_qr_scan"}, "lat": 38.902883333333335, "is_reserved": 0, "is_disabled": 0, "fusion_lat": 0.0}, {"fusion_lon": 0.0, "bike_id": "f85135e6a8c0b8f0b379604a5c2feecd", "name": "f85135e6a8c0b8f0b379604a5c2feecd", "type": "electric_scooter", "lon": -77.02600416666667, "rental_uris": {"android": "https://dc.lft.to/lastmile_qr_scan", "ios": "https://dc.lft.to/lastmile_qr_scan"}, "lat": 38.97592566666667, "is_reserved": 0, "is_disabled": 0, "fusion_lat": 0.0}, {"fusion_lon": 0.0, "bike_id": "c88d8281d375b809cbd524939a06c7a4", "name": "c88d8281d375b809cbd524939a06c7a4", "type": "electric_scooter", "lon": -76.9338505, "rental_uris": {"android": "https://dc.lft.to/lastmile_qr_scan", "ios": "https://dc.lft.to/lastmile_qr_scan"}, "lat": 38.8991175, "is_reserved": 0, "is_disabled": 0, "fusion_lat": 0.0}, {"fusion_lon": 0.0, "bike_id": "bcebc7b6b4cba297c5cc4b2f04970a4d", "name": "bcebc7b6b4cba297c5cc4b2f04970a4d", "type": "electric_scooter", "lon": -77.03211016666667, "rental_uris": {"android": "https://dc.lft.to/lastmile_qr_scan", "ios": "https://dc.lft.to/lastmile_qr_scan"}, "lat": 38.913751833333336, "is_reserved": 0, "is_disabled": 0, "fusion_lat": 0.0}, {"fusion_lon": 0.0, "bike_id": "dcacfece8688442a3c5d5debc2d6bf1a", "name": "dcacfece8688442a3c5d5debc2d6bf1a", "type": "electric_scooter", "lon": -76.98070133333333, "rental_uris": {"android": "https://dc.lft.to/lastmile_qr_scan", "ios": "https://dc.lft.to/lastmile_qr_scan"}, "lat": 38.901718, "is_reserved": 0, "is_disabled": 0, "fusion_lat": 0.0}, {"fusion_lon": 0.0, "bike_id": "0010e25fcae66a93a3d73133ced481f3", "name": "0010e25fcae66a93a3d73133ced481f3", "type": "electric_scooter", "lon": -77.07018566666666, "rental_uris": {"android": "https://dc.lft.to/lastmile_qr_scan", "ios": "https://dc.lft.to/lastmile_qr_scan"}, "lat": 38.905884666666665, "is_reserved": 0, "is_disabled": 0, "fusion_lat": 0.0}, {"fusion_lon": 0.0, "bike_id": "a2a6004a266ac8266849d1f776197288", "name": "a2a6004a266ac8266849d1f776197288", "type": "electric_scooter", "lon": -77.01179416666666, "rental_uris": {"android": "https://dc.lft.to/lastmile_qr_scan", "ios": "https://dc.lft.to/lastmile_qr_scan"}, "lat": 38.87079116666666, "is_reserved": 0, "is_disabled": 0, "fusion_lat": 0.0}, {"fusion_lon": 0.0, "bike_id": "da17a59b68c8d9c7fc736e98b9aa6199", "name": "da17a59b68c8d9c7fc736e98b9aa6199", "type": "electric_bike", "lon": -76.96172433333334, "rental_uris": {"android": "https://dc.lft.to/lastmile_qr_scan", "ios": "https://dc.lft.to/lastmile_qr_scan"}, "lat": 38.91859933333333, "is_reserved": 0, "is_disabled": 0, "fusion_lat": 0.0}, {"fusion_lon": 0.0, "bike_id": "317599e3d36ab854da0ad801a260fe7f", "name": "317599e3d36ab854da0ad801a260fe7f", "type": "electric_scooter", "lon": -77.0265735, "rental_uris": {"android": "https://dc.lft.to/lastmile_qr_scan", "ios": "https://dc.lft.to/lastmile_qr_scan"}, "lat": 38.89216183333333, "is_reserved": 0, "is_disabled": 0, "fusion_lat": 0.0}, {"fusion_lon": 0.0, "bike_id": "b70a53753c20129d84616de09985979a", "name": "b70a53753c20129d84616de09985979a", "type": "electric_scooter", "lon": -77.02491766666667, "rental_uris": {"android": "https://dc.lft.to/lastmile_qr_scan", "ios": "https://dc.lft.to/lastmile_qr_scan"}, "lat": 38.927393, "is_reserved": 0, "is_disabled": 0, "fusion_lat": 0.0}, {"fusion_lon": 0.0, "bike_id": "8aa09851a04ecbffa602be0a316c1dae", "name": "8aa09851a04ecbffa602be0a316c1dae", "type": "electric_scooter", "lon": -77.04171466666666, "rental_uris": {"android": "https://dc.lft.to/lastmile_qr_scan", "ios": "https://dc.lft.to/lastmile_qr_scan"}, "lat": 38.91941083333333, "is_reserved": 0, "is_disabled": 0, "fusion_lat": 0.0}, {"fusion_lon": 0.0, "bike_id": "4df06967ec3bb7fe95b8da9a02bb4aad", "name": "4df06967ec3bb7fe95b8da9a02bb4aad", "type": "electric_bike", "lon": -77.04940633333334, "rental_uris": {"android": "https://dc.lft.to/lastmile_qr_scan", "ios": "https://dc.lft.to/lastmile_qr_scan"}, "lat": 38.855111, "is_reserved": 0, "is_disabled": 0, "fusion_lat": 0.0}, {"fusion_lon": 0.0, "bike_id": "862470a08ef593fcb806c9915a288f41", "name": "862470a08ef593fcb806c9915a288f41", "type": "electric_scooter", "lon": -77.03883516666667, "rental_uris": {"android": "https://dc.lft.to/lastmile_qr_scan", "ios": "https://dc.lft.to/lastmile_qr_scan"}, "lat": 38.92230833333333, "is_reserved": 0, "is_disabled": 0, "fusion_lat": 0.0}, {"fusion_lon": 0.0, "bike_id": "a59deb8631d72a94865db3c336ff7741", "name": "a59deb8631d72a94865db3c336ff7741", "type": "electric_scooter", "lon": -77.024946, "rental_uris": {"android": "https://dc.lft.to/lastmile_qr_scan", "ios": "https://dc.lft.to/lastmile_qr_scan"}, "lat": 38.90232616666667, "is_reserved": 0, "is_disabled": 0, "fusion_lat": 0.0}, {"fusion_lon": 0.0, "bike_id": "db9f2eb81e16a0293d50debef7ad79fa", "name": "db9f2eb81e16a0293d50debef7ad79fa", "type": "electric_bike", "lon": -76.90539616666666, "rental_uris": {"android": "https://dc.lft.to/lastmile_qr_scan", "ios": "https://dc.lft.to/lastmile_qr_scan"}, "lat": 38.89736166666667, "is_reserved": 0, "is_disabled": 0, "fusion_lat": 0.0}, {"fusion_lon": 0.0, "bike_id": "c6e524a30d95ec5a32efbf1b59597ebe", "name": "c6e524a30d95ec5a32efbf1b59597ebe", "type": "electric_scooter", "lon": -77.041107, "rental_uris": {"android": "https://dc.lft.to/lastmile_qr_scan", "ios": "https://dc.lft.to/lastmile_qr_scan"}, "lat": 38.9169665, "is_reserved": 0, "is_disabled": 0, "fusion_lat": 0.0}, {"fusion_lon": 0.0, "bike_id": "b46af1e76a59c10b39cd4d9c547ff019", "name": "b46af1e76a59c10b39cd4d9c547ff019", "type": "electric_scooter", "lon": -77.06020333333333, "rental_uris": {"android": "https://dc.lft.to/lastmile_qr_scan", "ios": "https://dc.lft.to/lastmile_qr_scan"}, "lat": 38.902653, "is_reserved": 0, "is_disabled": 0, "fusion_lat": 0.0}, {"fusion_lon": 0.0, "bike_id": "0098c57c9574e6778114ed08f1f8126d", "name": "0098c57c9574e6778114ed08f1f8126d", "type": "electric_scooter", "lon": -77.0386025, "rental_uris": {"android": "https://dc.lft.to/lastmile_qr_scan", "ios": "https://dc.lft.to/lastmile_qr_scan"}, "lat": 38.909697, "is_reserved": 0, "is_disabled": 0, "fusion_lat": 0.0}, {"fusion_lon": 0.0, "bike_id": "a271980b4ea97ba6752e94dfb9fcec00", "name": "a271980b4ea97ba6752e94dfb9fcec00", "type": "electric_scooter", "lon": -77.04255883333333, "rental_uris": {"android": "https://dc.lft.to/lastmile_qr_scan", "ios": "https://dc.lft.to/lastmile_qr_scan"}, "lat": 38.91414733333333, "is_reserved": 0, "is_disabled": 0, "fusion_lat": 0.0}, {"fusion_lon": 0.0, "bike_id": "8a62ad6c3271ca5ed543201b2cc1775b", "name": "8a62ad6c3271ca5ed543201b2cc1775b", "type": "electric_scooter", "lon": -77.01373616666666, "rental_uris": {"android": "https://dc.lft.to/lastmile_qr_scan", "ios": "https://dc.lft.to/lastmile_qr_scan"}, "lat": 38.89222816666667, "is_reserved": 0, "is_disabled": 0, "fusion_lat": 0.0}, {"fusion_lon": 0.0, "bike_id": "28e5c3aacf9ec84ff693931436bf5274", "name": "28e5c3aacf9ec84ff693931436bf5274", "type": "electric_scooter", "lon": -77.01505266666666, "rental_uris": {"android": "https://dc.lft.to/lastmile_qr_scan", "ios": "https://dc.lft.to/lastmile_qr_scan"}, "lat": 38.90146933333333, "is_reserved": 0, "is_disabled": 0, "fusion_lat": 0.0}, {"fusion_lon": 0.0, "bike_id": "6c7dc2fefa5ea319c6b9e71cd92a1de6", "name": "6c7dc2fefa5ea319c6b9e71cd92a1de6", "type": "electric_bike", "lon": -77.05764166666667, "rental_uris": {"android": "https://dc.lft.to/lastmile_qr_scan", "ios": "https://dc.lft.to/lastmile_qr_scan"}, "lat": 38.92483383333333, "is_reserved": 0, "is_disabled": 0, "fusion_lat": 0.0}, {"fusion_lon": 0.0, "bike_id": "eff6f1051ebd968070fed232f2dec5e8", "name": "eff6f1051ebd968070fed232f2dec5e8", "type": "electric_scooter", "lon": -77.0669345, "rental_uris": {"android": "https://dc.lft.to/lastmile_qr_scan", "ios": "https://dc.lft.to/lastmile_qr_scan"}, "lat": 38.949859333333336, "is_reserved": 0, "is_disabled": 0, "fusion_lat": 0.0}, {"fusion_lon": 0.0, "bike_id": "89db9f145bc9995787965a6e48ed2386", "name": "89db9f145bc9995787965a6e48ed2386", "type": "electric_scooter", "lon": -77.01356366666667, "rental_uris": {"android": "https://dc.lft.to/lastmile_qr_scan", "ios": "https://dc.lft.to/lastmile_qr_scan"}, "lat": 38.886486, "is_reserved": 0, "is_disabled": 0, "fusion_lat": 0.0}, {"fusion_lon": 0.0, "bike_id": "530b467de4d70414d5f103a553367340", "name": "530b467de4d70414d5f103a553367340", "type": "electric_scooter", "lon": -77.03857533333333, "rental_uris": {"android": "https://dc.lft.to/lastmile_qr_scan", "ios": "https://dc.lft.to/lastmile_qr_scan"}, "lat": 38.916213666666664, "is_reserved": 0, "is_disabled": 0, "fusion_lat": 0.0}, {"fusion_lon": 0.0, "bike_id": "2393f1906de89f25fd147492693216b6", "name": "2393f1906de89f25fd147492693216b6", "type": "electric_scooter", "lon": -77.0137315, "rental_uris": {"android": "https://dc.lft.to/lastmile_qr_scan", "ios": "https://dc.lft.to/lastmile_qr_scan"}, "lat": 38.92878233333333, "is_reserved": 0, "is_disabled": 0, "fusion_lat": 0.0}, {"fusion_lon": 0.0, "bike_id": "a9580a2ea1d2e3156e76eb6c7a82a1ec", "name": "a9580a2ea1d2e3156e76eb6c7a82a1ec", "type": "electric_scooter", "lon": -77.044278, "rental_uris": {"android": "https://dc.lft.to/lastmile_qr_scan", "ios": "https://dc.lft.to/lastmile_qr_scan"}, "lat": 38.912566166666664, "is_reserved": 0, "is_disabled": 0, "fusion_lat": 0.0}, {"fusion_lon": 0.0, "bike_id": "8259f2d085558d4708291c77da69f2c4", "name": "8259f2d085558d4708291c77da69f2c4", "type": "electric_scooter", "lon": -77.03440433333333, "rental_uris": {"android": "https://dc.lft.to/lastmile_qr_scan", "ios": "https://dc.lft.to/lastmile_qr_scan"}, "lat": 38.90972383333333, "is_reserved": 0, "is_disabled": 0, "fusion_lat": 0.0}, {"fusion_lon": 0.0, "bike_id": "e15ce8a84624cab715abaa4da6c3bb49", "name": "e15ce8a84624cab715abaa4da6c3bb49", "type": "electric_scooter", "lon": -77.03411433333333, "rental_uris": {"android": "https://dc.lft.to/lastmile_qr_scan", "ios": "https://dc.lft.to/lastmile_qr_scan"}, "lat": 38.9192315, "is_reserved": 0, "is_disabled": 0, "fusion_lat": 0.0}, {"fusion_lon": 0.0, "bike_id": "90b00323b3d0b4f29ce1cead7ba80142", "name": "90b00323b3d0b4f29ce1cead7ba80142", "type": "electric_scooter", "lon": -77.02721516666666, "rental_uris": {"android": "https://dc.lft.to/lastmile_qr_scan", "ios": "https://dc.lft.to/lastmile_qr_scan"}, "lat": 38.92483683333333, "is_reserved": 0, "is_disabled": 0, "fusion_lat": 0.0}, {"fusion_lon": 0.0, "bike_id": "2c514eddf3238c522b031b9bba6283e3", "name": "2c514eddf3238c522b031b9bba6283e3", "type": "electric_scooter", "lon": -76.9412225, "rental_uris": {"android": "https://dc.lft.to/lastmile_qr_scan", "ios": "https://dc.lft.to/lastmile_qr_scan"}, "lat": 38.907951833333335, "is_reserved": 0, "is_disabled": 0, "fusion_lat": 0.0}, {"fusion_lon": 0.0, "bike_id": "df66a267c0e12667d0b91edd6c844cba", "name": "df66a267c0e12667d0b91edd6c844cba", "type": "electric_scooter", "lon": -77.01263333333333, "rental_uris": {"android": "https://dc.lft.to/lastmile_qr_scan", "ios": "https://dc.lft.to/lastmile_qr_scan"}, "lat": 38.87485933333333, "is_reserved": 0, "is_disabled": 0, "fusion_lat": 0.0}, {"fusion_lon": 0.0, "bike_id": "0f941137e0d220a3b315d9f22812bd0c", "name": "0f941137e0d220a3b315d9f22812bd0c", "type": "electric_scooter", "lon": -77.01534366666667, "rental_uris": {"android": "https://dc.lft.to/lastmile_qr_scan", "ios": "https://dc.lft.to/lastmile_qr_scan"}, "lat": 38.88479316666667, "is_reserved": 0, "is_disabled": 0, "fusion_lat": 0.0}, {"fusion_lon": 0.0, "bike_id": "fcd5410c7c4411e0b95e149cc5160f28", "name": "fcd5410c7c4411e0b95e149cc5160f28", "type": "electric_scooter", "lon": -77.0271035, "rental_uris": {"android": "https://dc.lft.to/lastmile_qr_scan", "ios": "https://dc.lft.to/lastmile_qr_scan"}, "lat": 38.919658, "is_reserved": 0, "is_disabled": 0, "fusion_lat": 0.0}, {"fusion_lon": 0.0, "bike_id": "f702e96bb4afb0ce66e29901dbf9050b", "name": "f702e96bb4afb0ce66e29901dbf9050b", "type": "electric_scooter", "lon": -77.0634725, "rental_uris": {"android": "https://dc.lft.to/lastmile_qr_scan", "ios": "https://dc.lft.to/lastmile_qr_scan"}, "lat": 38.944545833333336, "is_reserved": 0, "is_disabled": 0, "fusion_lat": 0.0}, {"fusion_lon": 0.0, "bike_id": "eaf999b8105268be3a5d67bfe6ca1619", "name": "eaf999b8105268be3a5d67bfe6ca1619", "type": "electric_scooter", "lon": -77.02475166666666, "rental_uris": {"android": "https://dc.lft.to/lastmile_qr_scan", "ios": "https://dc.lft.to/lastmile_qr_scan"}, "lat": 38.93769616666667, "is_reserved": 0, "is_disabled": 0, "fusion_lat": 0.0}, {"fusion_lon": 0.0, "bike_id": "b02dfb5e3de75615b4e57c0e55e36caa", "name": "b02dfb5e3de75615b4e57c0e55e36caa", "type": "electric_scooter", "lon": -77.00749533333334, "rental_uris": {"android": "https://dc.lft.to/lastmile_qr_scan", "ios": "https://dc.lft.to/lastmile_qr_scan"}, "lat": 38.90042483333333, "is_reserved": 0, "is_disabled": 0, "fusion_lat": 0.0}, {"fusion_lon": 0.0, "bike_id": "809abb5c9f84c69f9a0547c501327d95", "name": "809abb5c9f84c69f9a0547c501327d95", "type": "electric_scooter", "lon": -76.98690283333333, "rental_uris": {"android": "https://dc.lft.to/lastmile_qr_scan", "ios": "https://dc.lft.to/lastmile_qr_scan"}, "lat": 38.855896333333334, "is_reserved": 0, "is_disabled": 0, "fusion_lat": 0.0}, {"fusion_lon": 0.0, "bike_id": "4cb72b6ea91b1095e0258ed95b90de71", "name": "4cb72b6ea91b1095e0258ed95b90de71", "type": "electric_bike", "lon": -77.16235166666667, "rental_uris": {"android": "https://dc.lft.to/lastmile_qr_scan", "ios": "https://dc.lft.to/lastmile_qr_scan"}, "lat": 38.88648033333333, "is_reserved": 0, "is_disabled": 0, "fusion_lat": 0.0}, {"fusion_lon": 0.0, "bike_id": "fcd46a49c1bb272ec4252ef02181febf", "name": "fcd46a49c1bb272ec4252ef02181febf", "type": "electric_scooter", "lon": -77.04621616666667, "rental_uris": {"android": "https://dc.lft.to/lastmile_qr_scan", "ios": "https://dc.lft.to/lastmile_qr_scan"}, "lat": 38.89983983333333, "is_reserved": 0, "is_disabled": 0, "fusion_lat": 0.0}, {"fusion_lon": 0.0, "bike_id": "694f2e294c13bba0850f26a0c0f236fa", "name": "694f2e294c13bba0850f26a0c0f236fa", "type": "electric_scooter", "lon": -77.00483916666667, "rental_uris": {"android": "https://dc.lft.to/lastmile_qr_scan", "ios": "https://dc.lft.to/lastmile_qr_scan"}, "lat": 38.92591433333333, "is_reserved": 0, "is_disabled": 0, "fusion_lat": 0.0}, {"fusion_lon": 0.0, "bike_id": "b05769189bc457efa02f7cde1ae0201a", "name": "b05769189bc457efa02f7cde1ae0201a", "type": "electric_scooter", "lon": -77.021992, "rental_uris": {"android": "https://dc.lft.to/lastmile_qr_scan", "ios": "https://dc.lft.to/lastmile_qr_scan"}, "lat": 38.905168333333336, "is_reserved": 0, "is_disabled": 0, "fusion_lat": 0.0}, {"fusion_lon": 0.0, "bike_id": "861e7e01e491b7b809c3e4cc71132353", "name": "861e7e01e491b7b809c3e4cc71132353", "type": "electric_scooter", "lon": -77.0223035, "rental_uris": {"android": "https://dc.lft.to/lastmile_qr_scan", "ios": "https://dc.lft.to/lastmile_qr_scan"}, "lat": 38.905650333333334, "is_reserved": 0, "is_disabled": 0, "fusion_lat": 0.0}, {"fusion_lon": 0.0, "bike_id": "f5790d368d7b5e48b3fe61b1a3fea0ca", "name": "f5790d368d7b5e48b3fe61b1a3fea0ca", "type": "electric_scooter", "lon": -77.04177916666667, "rental_uris": {"android": "https://dc.lft.to/lastmile_qr_scan", "ios": "https://dc.lft.to/lastmile_qr_scan"}, "lat": 38.907895, "is_reserved": 0, "is_disabled": 0, "fusion_lat": 0.0}, {"fusion_lon": 0.0, "bike_id": "617952099b9ce4fb0c4b9f39ba629030", "name": "617952099b9ce4fb0c4b9f39ba629030", "type": "electric_scooter", "lon": -77.01190066666666, "rental_uris": {"android": "https://dc.lft.to/lastmile_qr_scan", "ios": "https://dc.lft.to/lastmile_qr_scan"}, "lat": 38.9065505, "is_reserved": 0, "is_disabled": 0, "fusion_lat": 0.0}, {"fusion_lon": 0.0, "bike_id": "988ff8a0aaac765ee17486f80d75052f", "name": "988ff8a0aaac765ee17486f80d75052f", "type": "electric_bike", "lon": -76.981556, "rental_uris": {"android": "https://dc.lft.to/lastmile_qr_scan", "ios": "https://dc.lft.to/lastmile_qr_scan"}, "lat": 38.959708, "is_reserved": 0, "is_disabled": 0, "fusion_lat": 0.0}, {"fusion_lon": 0.0, "bike_id": "db25d18e6d3f4c76fa246d23252b1819", "name": "db25d18e6d3f4c76fa246d23252b1819", "type": "electric_scooter", "lon": -77.042247, "rental_uris": {"android": "https://dc.lft.to/lastmile_qr_scan", "ios": "https://dc.lft.to/lastmile_qr_scan"}, "lat": 38.931486666666665, "is_reserved": 0, "is_disabled": 0, "fusion_lat": 0.0}, {"fusion_lon": 0.0, "bike_id": "d0679e963153d379eae8a6908113cd0b", "name": "d0679e963153d379eae8a6908113cd0b", "type": "electric_scooter", "lon": -77.045042, "rental_uris": {"android": "https://dc.lft.to/lastmile_qr_scan", "ios": "https://dc.lft.to/lastmile_qr_scan"}, "lat": 38.911140333333336, "is_reserved": 0, "is_disabled": 0, "fusion_lat": 0.0}, {"fusion_lon": 0.0, "bike_id": "b3531fa4fdd473f747431eada0ee1214", "name": "b3531fa4fdd473f747431eada0ee1214", "type": "electric_scooter", "lon": -76.99190133333333, "rental_uris": {"android": "https://dc.lft.to/lastmile_qr_scan", "ios": "https://dc.lft.to/lastmile_qr_scan"}, "lat": 38.92595416666666, "is_reserved": 0, "is_disabled": 0, "fusion_lat": 0.0}, {"fusion_lon": 0.0, "bike_id": "3da94195cd43cc4a87f4c9cd33a898f6", "name": "3da94195cd43cc4a87f4c9cd33a898f6", "type": "electric_scooter", "lon": -76.956736, "rental_uris": {"android": "https://dc.lft.to/lastmile_qr_scan", "ios": "https://dc.lft.to/lastmile_qr_scan"}, "lat": 38.88766716666667, "is_reserved": 0, "is_disabled": 0, "fusion_lat": 0.0}, {"fusion_lon": 0.0, "bike_id": "928847e4b6dba1f9ae1f413d87bfea0a", "name": "928847e4b6dba1f9ae1f413d87bfea0a", "type": "electric_scooter", "lon": -77.00204233333334, "rental_uris": {"android": "https://dc.lft.to/lastmile_qr_scan", "ios": "https://dc.lft.to/lastmile_qr_scan"}, "lat": 38.902779833333334, "is_reserved": 0, "is_disabled": 0, "fusion_lat": 0.0}, {"fusion_lon": 0.0, "bike_id": "d1d87b1279856b58fe2b498d47f9124c", "name": "d1d87b1279856b58fe2b498d47f9124c", "type": "electric_scooter", "lon": -77.02713983333334, "rental_uris": {"android": "https://dc.lft.to/lastmile_qr_scan", "ios": "https://dc.lft.to/lastmile_qr_scan"}, "lat": 38.91676983333333, "is_reserved": 0, "is_disabled": 0, "fusion_lat": 0.0}, {"fusion_lon": 0.0, "bike_id": "8b1f0b4239c33cd457a31531cce8b314", "name": "8b1f0b4239c33cd457a31531cce8b314", "type": "electric_scooter", "lon": -76.93377183333334, "rental_uris": {"android": "https://dc.lft.to/lastmile_qr_scan", "ios": "https://dc.lft.to/lastmile_qr_scan"}, "lat": 38.898911166666664, "is_reserved": 0, "is_disabled": 0, "fusion_lat": 0.0}, {"fusion_lon": 0.0, "bike_id": "b9581a1ae1e5fa56dd0f868e680ba9d3", "name": "b9581a1ae1e5fa56dd0f868e680ba9d3", "type": "electric_scooter", "lon": -77.01897116666666, "rental_uris": {"android": "https://dc.lft.to/lastmile_qr_scan", "ios": "https://dc.lft.to/lastmile_qr_scan"}, "lat": 38.94935733333333, "is_reserved": 0, "is_disabled": 0, "fusion_lat": 0.0}, {"fusion_lon": 0.0, "bike_id": "1a7f91d9b275f896b07e6b0cac829b1d", "name": "1a7f91d9b275f896b07e6b0cac829b1d", "type": "electric_scooter", "lon": -76.99032966666667, "rental_uris": {"android": "https://dc.lft.to/lastmile_qr_scan", "ios": "https://dc.lft.to/lastmile_qr_scan"}, "lat": 38.898528, "is_reserved": 0, "is_disabled": 0, "fusion_lat": 0.0}, {"fusion_lon": 0.0, "bike_id": "e0cbbb06cca3f844f8c9dcc46affa1a4", "name": "e0cbbb06cca3f844f8c9dcc46affa1a4", "type": "electric_scooter", "lon": -76.94897483333334, "rental_uris": {"android": "https://dc.lft.to/lastmile_qr_scan", "ios": "https://dc.lft.to/lastmile_qr_scan"}, "lat": 38.8952965, "is_reserved": 0, "is_disabled": 0, "fusion_lat": 0.0}, {"fusion_lon": 0.0, "bike_id": "5af963b196893626dd127218654e15ab", "name": "5af963b196893626dd127218654e15ab", "type": "electric_scooter", "lon": -76.94785, "rental_uris": {"android": "https://dc.lft.to/lastmile_qr_scan", "ios": "https://dc.lft.to/lastmile_qr_scan"}, "lat": 38.88463383333333, "is_reserved": 0, "is_disabled": 0, "fusion_lat": 0.0}, {"fusion_lon": 0.0, "bike_id": "b11b552345c837fcf12969a6f2da080d", "name": "b11b552345c837fcf12969a6f2da080d", "type": "electric_scooter", "lon": -76.97380133333333, "rental_uris": {"android": "https://dc.lft.to/lastmile_qr_scan", "ios": "https://dc.lft.to/lastmile_qr_scan"}, "lat": 38.88370416666667, "is_reserved": 0, "is_disabled": 0, "fusion_lat": 0.0}, {"fusion_lon": 0.0, "bike_id": "fb6a2d41fa65c8f3efe0e432578c3c50", "name": "fb6a2d41fa65c8f3efe0e432578c3c50", "type": "electric_scooter", "lon": -77.0439285, "rental_uris": {"android": "https://dc.lft.to/lastmile_qr_scan", "ios": "https://dc.lft.to/lastmile_qr_scan"}, "lat": 38.9058585, "is_reserved": 0, "is_disabled": 0, "fusion_lat": 0.0}, {"fusion_lon": 0.0, "bike_id": "061efbc92e7b58f4bd3fe0014784b820", "name": "061efbc92e7b58f4bd3fe0014784b820", "type": "electric_scooter", "lon": -77.040733, "rental_uris": {"android": "https://dc.lft.to/lastmile_qr_scan", "ios": "https://dc.lft.to/lastmile_qr_scan"}, "lat": 38.89611383333333, "is_reserved": 0, "is_disabled": 0, "fusion_lat": 0.0}, {"fusion_lon": 0.0, "bike_id": "9ae950e392130cd3355806f80720e1dc", "name": "9ae950e392130cd3355806f80720e1dc", "type": "electric_scooter", "lon": -77.036576, "rental_uris": {"android": "https://dc.lft.to/lastmile_qr_scan", "ios": "https://dc.lft.to/lastmile_qr_scan"}, "lat": 38.95501866666667, "is_reserved": 0, "is_disabled": 0, "fusion_lat": 0.0}, {"fusion_lon": 0.0, "bike_id": "a8b8e81e2ff4becf38ed3e208caae516", "name": "a8b8e81e2ff4becf38ed3e208caae516", "type": "electric_scooter", "lon": -77.00319783333333, "rental_uris": {"android": "https://dc.lft.to/lastmile_qr_scan", "ios": "https://dc.lft.to/lastmile_qr_scan"}, "lat": 38.8403365, "is_reserved": 0, "is_disabled": 0, "fusion_lat": 0.0}, {"fusion_lon": 0.0, "bike_id": "2a734e8e3abd257d76ffa4f69f806eeb", "name": "2a734e8e3abd257d76ffa4f69f806eeb", "type": "electric_scooter", "lon": -77.02171633333333, "rental_uris": {"android": "https://dc.lft.to/lastmile_qr_scan", "ios": "https://dc.lft.to/lastmile_qr_scan"}, "lat": 38.92616066666667, "is_reserved": 0, "is_disabled": 0, "fusion_lat": 0.0}, {"fusion_lon": 0.0, "bike_id": "b0bc1bd948e6a230f8e14d873a439741", "name": "b0bc1bd948e6a230f8e14d873a439741", "type": "electric_scooter", "lon": -77.04116416666666, "rental_uris": {"android": "https://dc.lft.to/lastmile_qr_scan", "ios": "https://dc.lft.to/lastmile_qr_scan"}, "lat": 38.90022, "is_reserved": 0, "is_disabled": 0, "fusion_lat": 0.0}, {"fusion_lon": 0.0, "bike_id": "30a4bb584e4d15625804a3fbcc4a7fbf", "name": "30a4bb584e4d15625804a3fbcc4a7fbf", "type": "electric_scooter", "lon": -77.054127, "rental_uris": {"android": "https://dc.lft.to/lastmile_qr_scan", "ios": "https://dc.lft.to/lastmile_qr_scan"}, "lat": 38.950441833333336, "is_reserved": 0, "is_disabled": 0, "fusion_lat": 0.0}, {"fusion_lon": 0.0, "bike_id": "3cf5959c0b233eab1139772cb6b450bb", "name": "3cf5959c0b233eab1139772cb6b450bb", "type": "electric_scooter", "lon": -77.04116333333333, "rental_uris": {"android": "https://dc.lft.to/lastmile_qr_scan", "ios": "https://dc.lft.to/lastmile_qr_scan"}, "lat": 38.90151866666667, "is_reserved": 0, "is_disabled": 0, "fusion_lat": 0.0}, {"fusion_lon": 0.0, "bike_id": "5366b806a348073bd2740ac35b76261f", "name": "5366b806a348073bd2740ac35b76261f", "type": "electric_bike", "lon": -76.96387983333334, "rental_uris": {"android": "https://dc.lft.to/lastmile_qr_scan", "ios": "https://dc.lft.to/lastmile_qr_scan"}, "lat": 38.97579833333333, "is_reserved": 0, "is_disabled": 0, "fusion_lat": 0.0}, {"fusion_lon": 0.0, "bike_id": "bf615cc05280f3fbe511bea0b14b4cf9", "name": "bf615cc05280f3fbe511bea0b14b4cf9", "type": "electric_scooter", "lon": -77.0326105, "rental_uris": {"android": "https://dc.lft.to/lastmile_qr_scan", "ios": "https://dc.lft.to/lastmile_qr_scan"}, "lat": 38.919189, "is_reserved": 0, "is_disabled": 0, "fusion_lat": 0.0}, {"fusion_lon": 0.0, "bike_id": "0f33374aeeab10f69fd1e493818aa92b", "name": "0f33374aeeab10f69fd1e493818aa92b", "type": "electric_bike", "lon": -76.87772983333333, "rental_uris": {"android": "https://dc.lft.to/lastmile_qr_scan", "ios": "https://dc.lft.to/lastmile_qr_scan"}, "lat": 38.992277, "is_reserved": 0, "is_disabled": 0, "fusion_lat": 0.0}, {"fusion_lon": 0.0, "bike_id": "666b87e33652d452da56cf70fdfcbf8d", "name": "666b87e33652d452da56cf70fdfcbf8d", "type": "electric_scooter", "lon": -76.97818883333333, "rental_uris": {"android": "https://dc.lft.to/lastmile_qr_scan", "ios": "https://dc.lft.to/lastmile_qr_scan"}, "lat": 38.846091, "is_reserved": 0, "is_disabled": 0, "fusion_lat": 0.0}, {"fusion_lon": 0.0, "bike_id": "d4fc6b8989f4d245b343fdb3f1a674a3", "name": "d4fc6b8989f4d245b343fdb3f1a674a3", "type": "electric_scooter", "lon": -76.948893, "rental_uris": {"android": "https://dc.lft.to/lastmile_qr_scan", "ios": "https://dc.lft.to/lastmile_qr_scan"}, "lat": 38.89514416666667, "is_reserved": 0, "is_disabled": 0, "fusion_lat": 0.0}, {"fusion_lon": 0.0, "bike_id": "7b2958dfa46817f41fdefc8956519201", "name": "7b2958dfa46817f41fdefc8956519201", "type": "electric_bike", "lon": -76.9486795, "rental_uris": {"android": "https://dc.lft.to/lastmile_qr_scan", "ios": "https://dc.lft.to/lastmile_qr_scan"}, "lat": 38.889669, "is_reserved": 0, "is_disabled": 0, "fusion_lat": 0.0}, {"fusion_lon": 0.0, "bike_id": "41cdfc56439bad7a1c56830f1472a293", "name": "41cdfc56439bad7a1c56830f1472a293", "type": "electric_bike", "lon": -77.10705566666667, "rental_uris": {"android": "https://dc.lft.to/lastmile_qr_scan", "ios": "https://dc.lft.to/lastmile_qr_scan"}, "lat": 38.85548433333334, "is_reserved": 0, "is_disabled": 0, "fusion_lat": 0.0}, {"fusion_lon": 0.0, "bike_id": "ad8d5839ba3160d6312a5ed47d155f97", "name": "ad8d5839ba3160d6312a5ed47d155f97", "type": "electric_scooter", "lon": -77.00834633333334, "rental_uris": {"android": "https://dc.lft.to/lastmile_qr_scan", "ios": "https://dc.lft.to/lastmile_qr_scan"}, "lat": 38.87655866666667, "is_reserved": 0, "is_disabled": 0, "fusion_lat": 0.0}, {"fusion_lon": 0.0, "bike_id": "839e8835cec43f64d111727b5ca3f942", "name": "839e8835cec43f64d111727b5ca3f942", "type": "electric_scooter", "lon": -77.02349766666667, "rental_uris": {"android": "https://dc.lft.to/lastmile_qr_scan", "ios": "https://dc.lft.to/lastmile_qr_scan"}, "lat": 38.931657, "is_reserved": 0, "is_disabled": 0, "fusion_lat": 0.0}, {"fusion_lon": 0.0, "bike_id": "107940d8a33efd41734c97095d8e4d5e", "name": "107940d8a33efd41734c97095d8e4d5e", "type": "electric_scooter", "lon": -76.99544016666667, "rental_uris": {"android": "https://dc.lft.to/lastmile_qr_scan", "ios": "https://dc.lft.to/lastmile_qr_scan"}, "lat": 38.90020766666667, "is_reserved": 0, "is_disabled": 0, "fusion_lat": 0.0}, {"fusion_lon": 0.0, "bike_id": "69fdb57bd11a10c56c6dfbaae6831c20", "name": "69fdb57bd11a10c56c6dfbaae6831c20", "type": "electric_scooter", "lon": -77.06266116666667, "rental_uris": {"android": "https://dc.lft.to/lastmile_qr_scan", "ios": "https://dc.lft.to/lastmile_qr_scan"}, "lat": 38.905260166666665, "is_reserved": 0, "is_disabled": 0, "fusion_lat": 0.0}, {"fusion_lon": 0.0, "bike_id": "d7b317f3daeb20b57e85b9a196098e3a", "name": "d7b317f3daeb20b57e85b9a196098e3a", "type": "electric_scooter", "lon": -77.06122033333334, "rental_uris": {"android": "https://dc.lft.to/lastmile_qr_scan", "ios": "https://dc.lft.to/lastmile_qr_scan"}, "lat": 38.9435505, "is_reserved": 0, "is_disabled": 0, "fusion_lat": 0.0}, {"fusion_lon": 0.0, "bike_id": "db9ca4676fcca21292b7cae0097dd85d", "name": "db9ca4676fcca21292b7cae0097dd85d", "type": "electric_scooter", "lon": -77.03790266666667, "rental_uris": {"android": "https://dc.lft.to/lastmile_qr_scan", "ios": "https://dc.lft.to/lastmile_qr_scan"}, "lat": 38.93599233333333, "is_reserved": 0, "is_disabled": 0, "fusion_lat": 0.0}, {"fusion_lon": 0.0, "bike_id": "bd0bb6f6dafe079c2fd82db5b492a4ba", "name": "bd0bb6f6dafe079c2fd82db5b492a4ba", "type": "electric_scooter", "lon": -77.04150916666667, "rental_uris": {"android": "https://dc.lft.to/lastmile_qr_scan", "ios": "https://dc.lft.to/lastmile_qr_scan"}, "lat": 38.92354916666667, "is_reserved": 0, "is_disabled": 0, "fusion_lat": 0.0}, {"fusion_lon": 0.0, "bike_id": "260f773908c328d7856a134dfedd9730", "name": "260f773908c328d7856a134dfedd9730", "type": "electric_scooter", "lon": -77.00353216666667, "rental_uris": {"android": "https://dc.lft.to/lastmile_qr_scan", "ios": "https://dc.lft.to/lastmile_qr_scan"}, "lat": 38.908178, "is_reserved": 0, "is_disabled": 0, "fusion_lat": 0.0}, {"fusion_lon": 0.0, "bike_id": "f4d04b13456da14d756816d326bcad40", "name": "f4d04b13456da14d756816d326bcad40", "type": "electric_scooter", "lon": -77.015008, "rental_uris": {"android": "https://dc.lft.to/lastmile_qr_scan", "ios": "https://dc.lft.to/lastmile_qr_scan"}, "lat": 38.91763566666667, "is_reserved": 0, "is_disabled": 0, "fusion_lat": 0.0}, {"fusion_lon": 0.0, "bike_id": "b9865c3e43498e921d1e23bb8d5af5dd", "name": "b9865c3e43498e921d1e23bb8d5af5dd", "type": "electric_scooter", "lon": -77.030578, "rental_uris": {"android": "https://dc.lft.to/lastmile_qr_scan", "ios": "https://dc.lft.to/lastmile_qr_scan"}, "lat": 38.90127233333333, "is_reserved": 0, "is_disabled": 0, "fusion_lat": 0.0}, {"fusion_lon": 0.0, "bike_id": "68fcc7ff035a11f0e5c12ea52dc5dd2c", "name": "68fcc7ff035a11f0e5c12ea52dc5dd2c", "type": "electric_scooter", "lon": -77.0513505, "rental_uris": {"android": "https://dc.lft.to/lastmile_qr_scan", "ios": "https://dc.lft.to/lastmile_qr_scan"}, "lat": 38.907174833333336, "is_reserved": 0, "is_disabled": 0, "fusion_lat": 0.0}, {"fusion_lon": 0.0, "bike_id": "9c667b7e73ef5bb7add0c3535853d1c9", "name": "9c667b7e73ef5bb7add0c3535853d1c9", "type": "electric_scooter", "lon": -77.0238905, "rental_uris": {"android": "https://dc.lft.to/lastmile_qr_scan", "ios": "https://dc.lft.to/lastmile_qr_scan"}, "lat": 38.920775666666664, "is_reserved": 0, "is_disabled": 0, "fusion_lat": 0.0}, {"fusion_lon": 0.0, "bike_id": "6093cc52d33326170db4ec36cedf0f23", "name": "6093cc52d33326170db4ec36cedf0f23", "type": "electric_scooter", "lon": -77.033503, "rental_uris": {"android": "https://dc.lft.to/lastmile_qr_scan", "ios": "https://dc.lft.to/lastmile_qr_scan"}, "lat": 38.89664916666667, "is_reserved": 0, "is_disabled": 0, "fusion_lat": 0.0}, {"fusion_lon": 0.0, "bike_id": "308e009f8c1098b199579e2571608fad", "name": "308e009f8c1098b199579e2571608fad", "type": "electric_scooter", "lon": -77.0139535, "rental_uris": {"android": "https://dc.lft.to/lastmile_qr_scan", "ios": "https://dc.lft.to/lastmile_qr_scan"}, "lat": 38.928475666666664, "is_reserved": 0, "is_disabled": 0, "fusion_lat": 0.0}, {"fusion_lon": 0.0, "bike_id": "d3499eee8c430487947e26f20dee6a4a", "name": "d3499eee8c430487947e26f20dee6a4a", "type": "electric_bike", "lon": -76.90968933333333, "rental_uris": {"android": "https://dc.lft.to/lastmile_qr_scan", "ios": "https://dc.lft.to/lastmile_qr_scan"}, "lat": 38.85431633333334, "is_reserved": 0, "is_disabled": 0, "fusion_lat": 0.0}, {"fusion_lon": 0.0, "bike_id": "5c6417c1d69603c4a860951fad7a777b", "name": "5c6417c1d69603c4a860951fad7a777b", "type": "electric_scooter", "lon": -77.00828066666666, "rental_uris": {"android": "https://dc.lft.to/lastmile_qr_scan", "ios": "https://dc.lft.to/lastmile_qr_scan"}, "lat": 38.876687, "is_reserved": 0, "is_disabled": 0, "fusion_lat": 0.0}, {"fusion_lon": 0.0, "bike_id": "1054b80bb1c59f1ff9092b3e08ca81aa", "name": "1054b80bb1c59f1ff9092b3e08ca81aa", "type": "electric_scooter", "lon": -77.02315633333333, "rental_uris": {"android": "https://dc.lft.to/lastmile_qr_scan", "ios": "https://dc.lft.to/lastmile_qr_scan"}, "lat": 38.878812833333335, "is_reserved": 0, "is_disabled": 0, "fusion_lat": 0.0}, {"fusion_lon": 0.0, "bike_id": "105164717de4f5f9c4c596372429f4f6", "name": "105164717de4f5f9c4c596372429f4f6", "type": "electric_scooter", "lon": -76.94246633333333, "rental_uris": {"android": "https://dc.lft.to/lastmile_qr_scan", "ios": "https://dc.lft.to/lastmile_qr_scan"}, "lat": 38.889966, "is_reserved": 0, "is_disabled": 0, "fusion_lat": 0.0}, {"fusion_lon": 0.0, "bike_id": "954daa8feac5584c074c17cfa7ae805b", "name": "954daa8feac5584c074c17cfa7ae805b", "type": "electric_scooter", "lon": -77.00618216666666, "rental_uris": {"android": "https://dc.lft.to/lastmile_qr_scan", "ios": "https://dc.lft.to/lastmile_qr_scan"}, "lat": 38.87488466666667, "is_reserved": 0, "is_disabled": 0, "fusion_lat": 0.0}, {"fusion_lon": 0.0, "bike_id": "701818bcf2e9bf974f34edede5057858", "name": "701818bcf2e9bf974f34edede5057858", "type": "electric_scooter", "lon": -77.03663333333333, "rental_uris": {"android": "https://dc.lft.to/lastmile_qr_scan", "ios": "https://dc.lft.to/lastmile_qr_scan"}, "lat": 38.904541333333334, "is_reserved": 0, "is_disabled": 0, "fusion_lat": 0.0}, {"fusion_lon": 0.0, "bike_id": "7948a4c8d69932b36c889cb556ccc31a", "name": "7948a4c8d69932b36c889cb556ccc31a", "type": "electric_scooter", "lon": -76.93359216666667, "rental_uris": {"android": "https://dc.lft.to/lastmile_qr_scan", "ios": "https://dc.lft.to/lastmile_qr_scan"}, "lat": 38.887975, "is_reserved": 0, "is_disabled": 0, "fusion_lat": 0.0}, {"fusion_lon": 0.0, "bike_id": "151543e2b86b1b171fef77527431b88b", "name": "151543e2b86b1b171fef77527431b88b", "type": "electric_scooter", "lon": -76.988222, "rental_uris": {"android": "https://dc.lft.to/lastmile_qr_scan", "ios": "https://dc.lft.to/lastmile_qr_scan"}, "lat": 38.90044816666666, "is_reserved": 0, "is_disabled": 0, "fusion_lat": 0.0}, {"fusion_lon": 0.0, "bike_id": "0104999cb5ff33798f7416aa3b2e6a46", "name": "0104999cb5ff33798f7416aa3b2e6a46", "type": "electric_scooter", "lon": -77.05069983333334, "rental_uris": {"android": "https://dc.lft.to/lastmile_qr_scan", "ios": "https://dc.lft.to/lastmile_qr_scan"}, "lat": 38.9008205, "is_reserved": 0, "is_disabled": 0, "fusion_lat": 0.0}, {"fusion_lon": 0.0, "bike_id": "b0199674a18e1e0af6e3a088f5e2ebcc", "name": "b0199674a18e1e0af6e3a088f5e2ebcc", "type": "electric_scooter", "lon": -77.02656983333334, "rental_uris": {"android": "https://dc.lft.to/lastmile_qr_scan", "ios": "https://dc.lft.to/lastmile_qr_scan"}, "lat": 38.89221233333333, "is_reserved": 0, "is_disabled": 0, "fusion_lat": 0.0}, {"fusion_lon": 0.0, "bike_id": "5403d8c48ceea72e054437379cdbca1f", "name": "5403d8c48ceea72e054437379cdbca1f", "type": "electric_bike", "lon": -76.9288915, "rental_uris": {"android": "https://dc.lft.to/lastmile_qr_scan", "ios": "https://dc.lft.to/lastmile_qr_scan"}, "lat": 38.978466166666664, "is_reserved": 0, "is_disabled": 0, "fusion_lat": 0.0}, {"fusion_lon": 0.0, "bike_id": "a834cc65e34b1507059d52fba96a7512", "name": "a834cc65e34b1507059d52fba96a7512", "type": "electric_scooter", "lon": -77.01752483333334, "rental_uris": {"android": "https://dc.lft.to/lastmile_qr_scan", "ios": "https://dc.lft.to/lastmile_qr_scan"}, "lat": 38.87689483333333, "is_reserved": 0, "is_disabled": 0, "fusion_lat": 0.0}, {"fusion_lon": 0.0, "bike_id": "86483480130cb7cf7ca5bc99cf6131b8", "name": "86483480130cb7cf7ca5bc99cf6131b8", "type": "electric_scooter", "lon": -77.03633566666667, "rental_uris": {"android": "https://dc.lft.to/lastmile_qr_scan", "ios": "https://dc.lft.to/lastmile_qr_scan"}, "lat": 38.93049666666667, "is_reserved": 0, "is_disabled": 0, "fusion_lat": 0.0}, {"fusion_lon": 0.0, "bike_id": "849b0b131a5476781b796bb797bad0ad", "name": "849b0b131a5476781b796bb797bad0ad", "type": "electric_scooter", "lon": -76.99631283333333, "rental_uris": {"android": "https://dc.lft.to/lastmile_qr_scan", "ios": "https://dc.lft.to/lastmile_qr_scan"}, "lat": 38.8461955, "is_reserved": 0, "is_disabled": 0, "fusion_lat": 0.0}, {"fusion_lon": 0.0, "bike_id": "679de30739f68d43c6d5913e31b5a83d", "name": "679de30739f68d43c6d5913e31b5a83d", "type": "electric_scooter", "lon": -77.06103116666667, "rental_uris": {"android": "https://dc.lft.to/lastmile_qr_scan", "ios": "https://dc.lft.to/lastmile_qr_scan"}, "lat": 38.905359, "is_reserved": 0, "is_disabled": 0, "fusion_lat": 0.0}, {"fusion_lon": 0.0, "bike_id": "19f97c1c5fb1d249b2d6ea0f00406653", "name": "19f97c1c5fb1d249b2d6ea0f00406653", "type": "electric_scooter", "lon": -77.02172383333334, "rental_uris": {"android": "https://dc.lft.to/lastmile_qr_scan", "ios": "https://dc.lft.to/lastmile_qr_scan"}, "lat": 38.9261005, "is_reserved": 0, "is_disabled": 0, "fusion_lat": 0.0}, {"fusion_lon": 0.0, "bike_id": "0e1f537167cbfd3ec59e54986a52b292", "name": "0e1f537167cbfd3ec59e54986a52b292", "type": "electric_scooter", "lon": -77.0119215, "rental_uris": {"android": "https://dc.lft.to/lastmile_qr_scan", "ios": "https://dc.lft.to/lastmile_qr_scan"}, "lat": 38.89508683333333, "is_reserved": 0, "is_disabled": 0, "fusion_lat": 0.0}, {"fusion_lon": 0.0, "bike_id": "11b6c79d324a6ab8ef7818f3ba9c1695", "name": "11b6c79d324a6ab8ef7818f3ba9c1695", "type": "electric_scooter", "lon": -77.03150716666667, "rental_uris": {"android": "https://dc.lft.to/lastmile_qr_scan", "ios": "https://dc.lft.to/lastmile_qr_scan"}, "lat": 38.928060333333335, "is_reserved": 0, "is_disabled": 0, "fusion_lat": 0.0}, {"fusion_lon": 0.0, "bike_id": "ed8f7ece1f8ee0ce5910340ef8c03ccd", "name": "ed8f7ece1f8ee0ce5910340ef8c03ccd", "type": "electric_bike", "lon": -76.98745633333333, "rental_uris": {"android": "https://dc.lft.to/lastmile_qr_scan", "ios": "https://dc.lft.to/lastmile_qr_scan"}, "lat": 38.9882615, "is_reserved": 0, "is_disabled": 0, "fusion_lat": 0.0}, {"fusion_lon": 0.0, "bike_id": "4b5a0a33234eab1805581e3bf9203311", "name": "4b5a0a33234eab1805581e3bf9203311", "type": "electric_scooter", "lon": -77.03223866666667, "rental_uris": {"android": "https://dc.lft.to/lastmile_qr_scan", "ios": "https://dc.lft.to/lastmile_qr_scan"}, "lat": 38.90888833333333, "is_reserved": 0, "is_disabled": 0, "fusion_lat": 0.0}, {"fusion_lon": 0.0, "bike_id": "68a9e3ab54d8f9fcaee298753017e661", "name": "68a9e3ab54d8f9fcaee298753017e661", "type": "electric_scooter", "lon": -77.02929516666667, "rental_uris": {"android": "https://dc.lft.to/lastmile_qr_scan", "ios": "https://dc.lft.to/lastmile_qr_scan"}, "lat": 38.91915, "is_reserved": 0, "is_disabled": 0, "fusion_lat": 0.0}, {"fusion_lon": 0.0, "bike_id": "a62c61ee8a7392a728a57a3779d1818f", "name": "a62c61ee8a7392a728a57a3779d1818f", "type": "electric_scooter", "lon": -76.99083833333333, "rental_uris": {"android": "https://dc.lft.to/lastmile_qr_scan", "ios": "https://dc.lft.to/lastmile_qr_scan"}, "lat": 38.904234, "is_reserved": 0, "is_disabled": 0, "fusion_lat": 0.0}, {"fusion_lon": 0.0, "bike_id": "70dd893e908ac4503190449520a373cf", "name": "70dd893e908ac4503190449520a373cf", "type": "electric_scooter", "lon": -77.02172033333333, "rental_uris": {"android": "https://dc.lft.to/lastmile_qr_scan", "ios": "https://dc.lft.to/lastmile_qr_scan"}, "lat": 38.9429545, "is_reserved": 0, "is_disabled": 0, "fusion_lat": 0.0}, {"fusion_lon": 0.0, "bike_id": "df0fa48882a35a699268ce9e55ef2a91", "name": "df0fa48882a35a699268ce9e55ef2a91", "type": "electric_bike", "lon": -77.0250505, "rental_uris": {"android": "https://dc.lft.to/lastmile_qr_scan", "ios": "https://dc.lft.to/lastmile_qr_scan"}, "lat": 38.974027166666666, "is_reserved": 0, "is_disabled": 0, "fusion_lat": 0.0}, {"fusion_lon": 0.0, "bike_id": "aec477ce0bb6ace7b725c7cfbc92fc20", "name": "aec477ce0bb6ace7b725c7cfbc92fc20", "type": "electric_scooter", "lon": -77.03308833333334, "rental_uris": {"android": "https://dc.lft.to/lastmile_qr_scan", "ios": "https://dc.lft.to/lastmile_qr_scan"}, "lat": 38.95617, "is_reserved": 0, "is_disabled": 0, "fusion_lat": 0.0}, {"fusion_lon": 0.0, "bike_id": "01bdfb84bdadddf51dcdda4a5629287a", "name": "01bdfb84bdadddf51dcdda4a5629287a", "type": "electric_scooter", "lon": -76.93526133333333, "rental_uris": {"android": "https://dc.lft.to/lastmile_qr_scan", "ios": "https://dc.lft.to/lastmile_qr_scan"}, "lat": 38.87899183333333, "is_reserved": 0, "is_disabled": 0, "fusion_lat": 0.0}, {"fusion_lon": 0.0, "bike_id": "329fa02ba91df1cb88ac097c2ea5f8c6", "name": "329fa02ba91df1cb88ac097c2ea5f8c6", "type": "electric_scooter", "lon": -77.046427, "rental_uris": {"android": "https://dc.lft.to/lastmile_qr_scan", "ios": "https://dc.lft.to/lastmile_qr_scan"}, "lat": 38.9044965, "is_reserved": 0, "is_disabled": 0, "fusion_lat": 0.0}, {"fusion_lon": 0.0, "bike_id": "e0307e6d41696b46bd154f8a99fecdef", "name": "e0307e6d41696b46bd154f8a99fecdef", "type": "electric_scooter", "lon": -77.03363216666666, "rental_uris": {"android": "https://dc.lft.to/lastmile_qr_scan", "ios": "https://dc.lft.to/lastmile_qr_scan"}, "lat": 38.9119455, "is_reserved": 0, "is_disabled": 0, "fusion_lat": 0.0}, {"fusion_lon": 0.0, "bike_id": "ba9cef7b6418f88080124b7f76911866", "name": "ba9cef7b6418f88080124b7f76911866", "type": "electric_scooter", "lon": -76.93354733333334, "rental_uris": {"android": "https://dc.lft.to/lastmile_qr_scan", "ios": "https://dc.lft.to/lastmile_qr_scan"}, "lat": 38.90196066666667, "is_reserved": 0, "is_disabled": 0, "fusion_lat": 0.0}, {"fusion_lon": 0.0, "bike_id": "c57536b121268b9015df47867480a00e", "name": "c57536b121268b9015df47867480a00e", "type": "electric_scooter", "lon": -77.00202183333333, "rental_uris": {"android": "https://dc.lft.to/lastmile_qr_scan", "ios": "https://dc.lft.to/lastmile_qr_scan"}, "lat": 38.902407333333336, "is_reserved": 0, "is_disabled": 0, "fusion_lat": 0.0}, {"fusion_lon": 0.0, "bike_id": "8cb757ed8948d8ab32566c8dfe2c0d36", "name": "8cb757ed8948d8ab32566c8dfe2c0d36", "type": "electric_scooter", "lon": -77.01109616666666, "rental_uris": {"android": "https://dc.lft.to/lastmile_qr_scan", "ios": "https://dc.lft.to/lastmile_qr_scan"}, "lat": 38.8951125, "is_reserved": 0, "is_disabled": 0, "fusion_lat": 0.0}, {"fusion_lon": 0.0, "bike_id": "5ab084e22c897bca781a0010bead813f", "name": "5ab084e22c897bca781a0010bead813f", "type": "electric_scooter", "lon": -76.93186933333334, "rental_uris": {"android": "https://dc.lft.to/lastmile_qr_scan", "ios": "https://dc.lft.to/lastmile_qr_scan"}, "lat": 38.898763, "is_reserved": 0, "is_disabled": 0, "fusion_lat": 0.0}, {"fusion_lon": 0.0, "bike_id": "a3adeb7ceaaa7a32efca2829e9f74565", "name": "a3adeb7ceaaa7a32efca2829e9f74565", "type": "electric_scooter", "lon": -77.03180616666667, "rental_uris": {"android": "https://dc.lft.to/lastmile_qr_scan", "ios": "https://dc.lft.to/lastmile_qr_scan"}, "lat": 38.9191825, "is_reserved": 0, "is_disabled": 0, "fusion_lat": 0.0}, {"fusion_lon": 0.0, "bike_id": "9e86db83ee3b78d4e68212607c44fdd7", "name": "9e86db83ee3b78d4e68212607c44fdd7", "type": "electric_bike", "lon": -77.09829566666667, "rental_uris": {"android": "https://dc.lft.to/lastmile_qr_scan", "ios": "https://dc.lft.to/lastmile_qr_scan"}, "lat": 38.85791616666667, "is_reserved": 0, "is_disabled": 0, "fusion_lat": 0.0}, {"fusion_lon": 0.0, "bike_id": "a01e44a192f5cb9306c5325840ac8b66", "name": "a01e44a192f5cb9306c5325840ac8b66", "type": "electric_scooter", "lon": -77.006041, "rental_uris": {"android": "https://dc.lft.to/lastmile_qr_scan", "ios": "https://dc.lft.to/lastmile_qr_scan"}, "lat": 38.91117466666667, "is_reserved": 0, "is_disabled": 0, "fusion_lat": 0.0}, {"fusion_lon": 0.0, "bike_id": "a73a1bca6effd0cc865bb9bff59189d4", "name": "a73a1bca6effd0cc865bb9bff59189d4", "type": "electric_scooter", "lon": -77.01381866666667, "rental_uris": {"android": "https://dc.lft.to/lastmile_qr_scan", "ios": "https://dc.lft.to/lastmile_qr_scan"}, "lat": 38.886421166666665, "is_reserved": 0, "is_disabled": 0, "fusion_lat": 0.0}, {"fusion_lon": 0.0, "bike_id": "a9c29ea3b33bc1e0806960b136b0dc8a", "name": "a9c29ea3b33bc1e0806960b136b0dc8a", "type": "electric_scooter", "lon": -77.0340585, "rental_uris": {"android": "https://dc.lft.to/lastmile_qr_scan", "ios": "https://dc.lft.to/lastmile_qr_scan"}, "lat": 38.919254, "is_reserved": 0, "is_disabled": 0, "fusion_lat": 0.0}, {"fusion_lon": 0.0, "bike_id": "e15895e09208027e7addc980b176c6a1", "name": "e15895e09208027e7addc980b176c6a1", "type": "electric_scooter", "lon": -77.00378683333334, "rental_uris": {"android": "https://dc.lft.to/lastmile_qr_scan", "ios": "https://dc.lft.to/lastmile_qr_scan"}, "lat": 38.91102983333333, "is_reserved": 0, "is_disabled": 0, "fusion_lat": 0.0}, {"fusion_lon": 0.0, "bike_id": "166b13ef1a88b70920ae1dc824a58f92", "name": "166b13ef1a88b70920ae1dc824a58f92", "type": "electric_scooter", "lon": -77.02945766666667, "rental_uris": {"android": "https://dc.lft.to/lastmile_qr_scan", "ios": "https://dc.lft.to/lastmile_qr_scan"}, "lat": 38.89846283333333, "is_reserved": 0, "is_disabled": 0, "fusion_lat": 0.0}, {"fusion_lon": 0.0, "bike_id": "f48969f2762b8e5f2abd753dacda650b", "name": "f48969f2762b8e5f2abd753dacda650b", "type": "electric_scooter", "lon": -77.03738416666667, "rental_uris": {"android": "https://dc.lft.to/lastmile_qr_scan", "ios": "https://dc.lft.to/lastmile_qr_scan"}, "lat": 38.928633833333336, "is_reserved": 0, "is_disabled": 0, "fusion_lat": 0.0}, {"fusion_lon": 0.0, "bike_id": "3d115ceae86926c393e4342a4f450f39", "name": "3d115ceae86926c393e4342a4f450f39", "type": "electric_bike", "lon": -77.344115, "rental_uris": {"android": "https://dc.lft.to/lastmile_qr_scan", "ios": "https://dc.lft.to/lastmile_qr_scan"}, "lat": 38.94590216666667, "is_reserved": 0, "is_disabled": 0, "fusion_lat": 0.0}, {"fusion_lon": 0.0, "bike_id": "12c91c52b2b73e85b645a5a351038486", "name": "12c91c52b2b73e85b645a5a351038486", "type": "electric_scooter", "lon": -76.99026683333334, "rental_uris": {"android": "https://dc.lft.to/lastmile_qr_scan", "ios": "https://dc.lft.to/lastmile_qr_scan"}, "lat": 38.86076766666667, "is_reserved": 0, "is_disabled": 0, "fusion_lat": 0.0}, {"fusion_lon": 0.0, "bike_id": "4ab3df6d50c86b91deef3cc15bd843f2", "name": "4ab3df6d50c86b91deef3cc15bd843f2", "type": "electric_scooter", "lon": -77.01171016666666, "rental_uris": {"android": "https://dc.lft.to/lastmile_qr_scan", "ios": "https://dc.lft.to/lastmile_qr_scan"}, "lat": 38.868163, "is_reserved": 0, "is_disabled": 0, "fusion_lat": 0.0},