{"data": {"bikes": [{"name": "35d682c3333683ab616977fe5c69f549", "fusion_lon": 0.0, "lat": 38.878774666666665, "is_reserved": 0, "type": "electric_scooter", "bike_id": "35d682c3333683ab616977fe5c69f549", "is_disabled": 0, "rental_uris": {"android": "https://dc.lft.to/lastmile_qr_scan", "ios": "https://dc.lft.to/lastmile_qr_scan"}, "lon": -77.02309266666667, "fusion_lat": 0.0}, {"name": "d898c392b4923aa4660d8029941b5649", "fusion_lon": 0.0, "lat": 38.913157166666664, "is_reserved": 0, "type": "electric_scooter", "bike_id": "d898c392b4923aa4660d8029941b5649", "is_disabled": 0, "rental_uris": {"android": "https://dc.lft.to/lastmile_qr_scan", "ios": "https://dc.lft.to/lastmile_qr_scan"}, "lon": -76.9848, "fusion_lat": 0.0}, {"name": "675ad8ebdd91ebbcf1aab246d33e7e26", "fusion_lon": 0.0, "lat": 38.8987585, "is_reserved": 0, "type": "electric_scooter", "bike_id": "675ad8ebdd91ebbcf1aab246d33e7e26", "is_disabled": 0, "rental_uris": {"android": "https://dc.lft.to/lastmile_qr_scan", "ios": "https://dc.lft.to/lastmile_qr_scan"}, "lon": -76.93185683333333, "fusion_lat": 0.0}, {"name": "77700ff6146beeb5c7d1e752863ed2a0", "fusion_lon": 0.0, "lat": 38.8378185, "is_reserved": 0, "type": "electric_bike", "bike_id": "77700ff6146beeb5c7d1e752863ed2a0", "is_disabled": 0, "rental_uris": {"android": "https://dc.lft.to/lastmile_qr_scan", "ios": "https://dc.lft.to/lastmile_qr_scan"}, "lon": -76.99744783333334, "fusion_lat": 0.0}, {"name": "88588fe7894c86fc4928754232cc53b2", "fusion_lon": 0.0, "lat": 38.874488166666666, "is_reserved": 0, "type": "electric_scooter", "bike_id": "88588fe7894c86fc4928754232cc53b2", "is_disabled": 0, "rental_uris": {"android": "https://dc.lft.to/lastmile_qr_scan", "ios": "https://dc.lft.to/lastmile_qr_scan"}, "lon": -77.00319533333334, "fusion_lat": 0.0}, {"name": "d4322e365bfe038bc478f19f6bc347a3", "fusion_lon": 0.0, "lat": 38.920890666666665, "is_reserved": 0, "type": "electric_scooter", "bike_id": "d4322e365bfe038bc478f19f6bc347a3", "is_disabled": 0, "rental_uris": {"android": "https://dc.lft.to/lastmile_qr_scan", "ios": "https://dc.lft.to/lastmile_qr_scan"}, "lon": -77.02414516666667, "fusion_lat": 0.0}, {"name": "fac50caf6f13148f0163fd3214188896", "fusion_lon": 0.0, "lat": 38.902046666666664, "is_reserved": 0, "type": "electric_scooter", "bike_id": "fac50caf6f13148f0163fd3214188896", "is_disabled": 0, "rental_uris": {"android": "https://dc.lft.to/lastmile_qr_scan", "ios": "https://dc.lft.to/lastmile_qr_scan"}, "lon": -77.02161983333333, "fusion_lat": 0.0}, {"name": "80fef88e51017ec51f48c392d81a3e4c", "fusion_lon": 0.0, "lat": 38.88134216666667, "is_reserved": 0, "type": "electric_scooter", "bike_id": "80fef88e51017ec51f48c392d81a3e4c", "is_disabled": 0, "rental_uris": {"android": "https://dc.lft.to/lastmile_qr_scan", "ios": "https://dc.lft.to/lastmile_qr_scan"}, "lon": -77.01336533333334, "fusion_lat": 0.0}, {"name": "86d2693be1c7bb3f823a25da1bd08a92", "fusion_lon": 0.0, "lat": 38.924505, "is_reserved": 0, "type": "electric_bike", "bike_id": "86d2693be1c7bb3f823a25da1bd08a92", "is_disabled": 0, "rental_uris": {"android": "https://dc.lft.to/lastmile_qr_scan", "ios": "https://dc.lft.to/lastmile_qr_scan"}, "lon": -77.22555166666666, "fusion_lat": 0.0}, {"name": "9651434475ac948ecbd60f202f47cca9", "fusion_lon": 0.0, "lat": 38.9008235, "is_reserved": 0, "type": "electric_scooter", "bike_id": "9651434475ac948ecbd60f202f47cca9", "is_disabled": 0, "rental_uris": {"android": "https://dc.lft.to/lastmile_qr_scan", "ios": "https://dc.lft.to/lastmile_qr_scan"}, "lon": -77.030918, "fusion_lat": 0.0}, {"name": "9d04847139296408092ab2ce3a61319b", "fusion_lon": 0.0, "lat": 38.93056466666667, "is_reserved": 0, "type": "electric_scooter", "bike_id": "9d04847139296408092ab2ce3a61319b", "is_disabled": 0, "rental_uris": {"android": "https://dc.lft.to/lastmile_qr_scan", "ios": "https://dc.lft.to/lastmile_qr_scan"}, "lon": -77.02178783333333, "fusion_lat": 0.0}, {"name": "70a480e8fe0b9d5714c6416b2487f097", "fusion_lon": 0.0, "lat": 38.89742366666667, "is_reserved": 0, "type": "electric_scooter", "bike_id": "70a480e8fe0b9d5714c6416b2487f097", "is_disabled": 0, "rental_uris": {"android": "https://dc.lft.to/lastmile_qr_scan", "ios": "https://dc.lft.to/lastmile_qr_scan"}, "lon": -77.00772933333333, "fusion_lat": 0.0}, {"name": "8d638e020e891c05bfab7b8b3ec61907", "fusion_lon": 0.0, "lat": 38.90735266666667, "is_reserved": 0, "type": "electric_scooter", "bike_id": "8d638e020e891c05bfab7b8b3ec61907", "is_disabled": 0, "rental_uris": {"android": "https://dc.lft.to/lastmile_qr_scan", "ios": "https://dc.lft.to/lastmile_qr_scan"}, "lon": -77.04339066666667, "fusion_lat": 0.0}, {"name": "f3acdb6ff04d8b904ecec3085d6598f1", "fusion_lon": 0.0, "lat": 38.86953366666667, "is_reserved": 0, "type": "electric_scooter", "bike_id": "f3acdb6ff04d8b904ecec3085d6598f1", "is_disabled": 0, "rental_uris": {"android": "https://dc.lft.to/lastmile_qr_scan", "ios": "https://dc.lft.to/lastmile_qr_scan"}, "lon": -76.9816775, "fusion_lat": 0.0}, {"name": "2abb3640649e671933d488a9cc5f96bc", "fusion_lon": 0.0, "lat": 38.906564333333336, "is_reserved": 0, "type": "electric_scooter", "bike_id": "2abb3640649e671933d488a9cc5f96bc", "is_disabled": 0, "rental_uris": {"android": "https://dc.lft.to/lastmile_qr_scan", "ios": "https://dc.lft.to/lastmile_qr_scan"}, "lon": -77.03859533333333, "fusion_lat": 0.0}, {"name": "49e2b891c200720823eed3dafeb01baa", "fusion_lon": 0.0, "lat": 38.91495, "is_reserved": 0, "type": "electric_scooter", "bike_id": "49e2b891c200720823eed3dafeb01baa", "is_disabled": 0, "rental_uris": {"android": "https://dc.lft.to/lastmile_qr_scan", "ios": "https://dc.lft.to/lastmile_qr_scan"}, "lon": -77.04633383333334, "fusion_lat": 0.0}, {"name": "3dc94fd169b94deacd1497d23a3bebee", "fusion_lon": 0.0, "lat": 38.900129166666666, "is_reserved": 0, "type": "electric_scooter", "bike_id": "3dc94fd169b94deacd1497d23a3bebee", "is_disabled": 0, "rental_uris": {"android": "https://dc.lft.to/lastmile_qr_scan", "ios": "https://dc.lft.to/lastmile_qr_scan"}, "lon": -77.00144333333333, "fusion_lat": 0.0}, {"name": "b322b9f2f3df4ca9a2d383db268ff05c", "fusion_lon": 0.0, "lat": 38.90423066666666, "is_reserved": 0, "type": "electric_scooter", "bike_id": "b322b9f2f3df4ca9a2d383db268ff05c", "is_disabled": 0, "rental_uris": {"android": "https://dc.lft.to/lastmile_qr_scan", "ios": "https://dc.lft.to/lastmile_qr_scan"}, "lon": -77.04316983333334, "fusion_lat": 0.0}, {"name": "97d518b370107a6d6ae9c0c9e767f1bb", "fusion_lon": 0.0, "lat": 38.8973345, "is_reserved": 0, "type": "electric_scooter", "bike_id": "97d518b370107a6d6ae9c0c9e767f1bb", "is_disabled": 0, "rental_uris": {"android": "https://dc.lft.to/lastmile_qr_scan", "ios": "https://dc.lft.to/lastmile_qr_scan"}, "lon": -77.02168666666667, "fusion_lat": 0.0}, {"name": "32f3746bc61d90d338fd0eb3b15794ed", "fusion_lon": 0.0, "lat": 38.8994795, "is_reserved": 0, "type": "electric_scooter", "bike_id": "32f3746bc61d90d338fd0eb3b15794ed", "is_disabled": 0, "rental_uris": {"android": "https://dc.lft.to/lastmile_qr_scan", "ios": "https://dc.lft.to/lastmile_qr_scan"}, "lon": -77.04793816666667, "fusion_lat": 0.0}, {"name": "4c0bedd4c1791ed269ede0fac046775f", "fusion_lon": 0.0, "lat": 38.90163583333333, "is_reserved": 0, "type": "electric_scooter", "bike_id": "4c0bedd4c1791ed269ede0fac046775f", "is_disabled": 0, "rental_uris": {"android": "https://dc.lft.to/lastmile_qr_scan", "ios": "https://dc.lft.to/lastmile_qr_scan"}, "lon": -77.019787, "fusion_lat": 0.0}, {"name": "166d7b225b9438ba469483167079a53e", "fusion_lon": 0.0, "lat": 38.930713833333336, "is_reserved": 0, "type": "electric_scooter", "bike_id": "166d7b225b9438ba469483167079a53e", "is_disabled": 0, "rental_uris": {"android": "https://dc.lft.to/lastmile_qr_scan", "ios": "https://dc.lft.to/lastmile_qr_scan"}, "lon": -77.021639, "fusion_lat": 0.0}, {"name": "2d06753b8ff8ad14b3d5ac9998ffbe88", "fusion_lon": 0.0, "lat": 38.90831583333333, "is_reserved": 0, "type": "electric_scooter", "bike_id": "2d06753b8ff8ad14b3d5ac9998ffbe88", "is_disabled": 0, "rental_uris": {"android": "https://dc.lft.to/lastmile_qr_scan", "ios": "https://dc.lft.to/lastmile_qr_scan"}, "lon": -77.009096, "fusion_lat": 0.0}, {"name": "59a4294e1f4b5bac04caa900c98ad3e6", "fusion_lon": 0.0, "lat": 38.920733166666665, "is_reserved": 0, "type": "electric_scooter", "bike_id": "59a4294e1f4b5bac04caa900c98ad3e6", "is_disabled": 0, "rental_uris": {"android": "https://dc.lft.to/lastmile_qr_scan", "ios": "https://dc.lft.to/lastmile_qr_scan"}, "lon": -77.02412416666667, "fusion_lat": 0.0}, {"name": "25176e9399f6fec715ce97b7a6f1f939", "fusion_lon": 0.0, "lat": 38.88716866666667, "is_reserved": 0, "type": "electric_scooter", "bike_id": "25176e9399f6fec715ce97b7a6f1f939", "is_disabled": 0, "rental_uris": {"android": "https://dc.lft.to/lastmile_qr_scan", "ios": "https://dc.lft.to/lastmile_qr_scan"}, "lon": -77.01770983333333, "fusion_lat": 0.0}, {"name": "3ed3e6e77fc076c7479524a09578dc7f", "fusion_lon": 0.0, "lat": 38.906224, "is_reserved": 0, "type": "electric_scooter", "bike_id": "3ed3e6e77fc076c7479524a09578dc7f", "is_disabled": 0, "rental_uris": {"android": "https://dc.lft.to/lastmile_qr_scan", "ios": "https://dc.lft.to/lastmile_qr_scan"}, "lon": -77.0341265, "fusion_lat": 0.0}, {"name": "d2e84666e56e8d255994ddfa81df5342", "fusion_lon": 0.0, "lat": 38.932187166666665, "is_reserved": 0, "type": "electric_scooter", "bike_id": "d2e84666e56e8d255994ddfa81df5342", "is_disabled": 0, "rental_uris": {"android": "https://dc.lft.to/lastmile_qr_scan", "ios": "https://dc.lft.to/lastmile_qr_scan"}, "lon": -77.03342883333333, "fusion_lat": 0.0}, {"name": "c37ca18f9e83b7f1b7d60d4d7d0d362f", "fusion_lon": 0.0, "lat": 38.898364666666666, "is_reserved": 0, "type": "electric_scooter", "bike_id": "c37ca18f9e83b7f1b7d60d4d7d0d362f", "is_disabled": 0, "rental_uris": {"android": "https://dc.lft.to/lastmile_qr_scan", "ios": "https://dc.lft.to/lastmile_qr_scan"}, "lon": -77.03353866666667, "fusion_lat": 0.0}, {"name": "56c776458f98ca3ccf30a0f399974d4a", "fusion_lon": 0.0, "lat": 38.86692266666667, "is_reserved": 0, "type": "electric_scooter", "bike_id": "56c776458f98ca3ccf30a0f399974d4a", "is_disabled": 0, "rental_uris": {"android": "https://dc.lft.to/lastmile_qr_scan", "ios": "https://dc.lft.to/lastmile_qr_scan"}, "lon": -76.98706633333333, "fusion_lat": 0.0}, {"name": "9fc016a0fd2f2b0cf6c8dadb19799ac0", "fusion_lon": 0.0, "lat": 38.95699366666667, "is_reserved": 0, "type": "electric_scooter", "bike_id": "9fc016a0fd2f2b0cf6c8dadb19799ac0", "is_disabled": 0, "rental_uris": {"android": "https://dc.lft.to/lastmile_qr_scan", "ios": "https://dc.lft.to/lastmile_qr_scan"}, "lon": -77.02399633333333, "fusion_lat": 0.0}, {"name": "efbfbacf50a19d6967cede08561a4aca", "fusion_lon": 0.0, "lat": 38.90419133333333, "is_reserved": 0, "type": "electric_scooter", "bike_id": "efbfbacf50a19d6967cede08561a4aca", "is_disabled": 0, "rental_uris": {"android": "https://dc.lft.to/lastmile_qr_scan", "ios": "https://dc.lft.to/lastmile_qr_scan"}, "lon": -77.02517933333333, "fusion_lat": 0.0}, {"name": "f8736cec3d45a701d2019ea8ce4339c1", "fusion_lon": 0.0, "lat": 38.901534166666664, "is_reserved": 0, "type": "electric_scooter", "bike_id": "f8736cec3d45a701d2019ea8ce4339c1", "is_disabled": 0, "rental_uris": {"android": "https://dc.lft.to/lastmile_qr_scan", "ios": "https://dc.lft.to/lastmile_qr_scan"}, "lon": -77.05053266666667, "fusion_lat": 0.0}, {"name": "28edd04b2c68428883087f859ee3a7cb", "fusion_lon": 0.0, "lat": 38.92246733333333, "is_reserved": 0, "type": "electric_scooter", "bike_id": "28edd04b2c68428883087f859ee3a7cb", "is_disabled": 0, "rental_uris": {"android": "https://dc.lft.to/lastmile_qr_scan", "ios": "https://dc.lft.to/lastmile_qr_scan"}, "lon": -77.02972683333333, "fusion_lat": 0.0}, {"name": "01fc9c6d48150b0410161dcdca073288", "fusion_lon": 0.0, "lat": 38.8794225, "is_reserved": 0, "type": "electric_scooter", "bike_id": "01fc9c6d48150b0410161dcdca073288", "is_disabled": 0, "rental_uris": {"android": "https://dc.lft.to/lastmile_qr_scan", "ios": "https://dc.lft.to/lastmile_qr_scan"}, "lon": -77.00890733333334, "fusion_lat": 0.0}, {"name": "bc0e499d8070798d125bc6912640d8b6", "fusion_lon": 0.0, "lat": 38.902088166666665, "is_reserved": 0, "type": "electric_scooter", "bike_id": "bc0e499d8070798d125bc6912640d8b6", "is_disabled": 0, "rental_uris": {"android": "https://dc.lft.to/lastmile_qr_scan", "ios": "https://dc.lft.to/lastmile_qr_scan"}, "lon": -77.0243, "fusion_lat": 0.0}, {"name": "c53dc08954a73a8ebf1273d5bf36d99f", "fusion_lon": 0.0, "lat": 38.919164333333335, "is_reserved": 0, "type": "electric_scooter", "bike_id": "c53dc08954a73a8ebf1273d5bf36d99f", "is_disabled": 0, "rental_uris": {"android": "https://dc.lft.to/lastmile_qr_scan", "ios": "https://dc.lft.to/lastmile_qr_scan"}, "lon": -77.02508666666667, "fusion_lat": 0.0}, {"name": "a9af3c92bbb869d4b268d2db40a14d11", "fusion_lon": 0.0, "lat": 38.91487383333333, "is_reserved": 0, "type": "electric_scooter", "bike_id": "a9af3c92bbb869d4b268d2db40a14d11", "is_disabled": 0, "rental_uris": {"android": "https://dc.lft.to/lastmile_qr_scan", "ios": "https://dc.lft.to/lastmile_qr_scan"}, "lon": -77.02544616666667, "fusion_lat": 0.0}, {"name": "75671351beada7447f8236983db52506", "fusion_lon": 0.0, "lat": 38.8992275, "is_reserved": 0, "type": "electric_scooter", "bike_id": "75671351beada7447f8236983db52506", "is_disabled": 0, "rental_uris": {"android": "https://dc.lft.to/lastmile_qr_scan", "ios": "https://dc.lft.to/lastmile_qr_scan"}, "lon": -77.0705905, "fusion_lat": 0.0}, {"name": "417dcb33189166886d6b1f8328d7b3c1", "fusion_lon": 0.0, "lat": 38.898525, "is_reserved": 0, "type": "electric_scooter", "bike_id": "417dcb33189166886d6b1f8328d7b3c1", "is_disabled": 0, "rental_uris": {"android": "https://dc.lft.to/lastmile_qr_scan", "ios": "https://dc.lft.to/lastmile_qr_scan"}, "lon": -77.02372083333333, "fusion_lat": 0.0}, {"name": "cc9b5ebe329d5ce24724c376551cdbb9", "fusion_lon": 0.0, "lat": 38.91553283333333, "is_reserved": 0, "type": "electric_scooter", "bike_id": "cc9b5ebe329d5ce24724c376551cdbb9", "is_disabled": 0, "rental_uris": {"android": "https://dc.lft.to/lastmile_qr_scan", "ios": "https://dc.lft.to/lastmile_qr_scan"}, "lon": -77.04177933333334, "fusion_lat": 0.0}, {"name": "afef25f6537daace7fc3483c7e95665f", "fusion_lon": 0.0, "lat": 38.916350333333334, "is_reserved": 0, "type": "electric_scooter", "bike_id": "afef25f6537daace7fc3483c7e95665f", "is_disabled": 0, "rental_uris": {"android": "https://dc.lft.to/lastmile_qr_scan", "ios": "https://dc.lft.to/lastmile_qr_scan"}, "lon": -77.0238915, "fusion_lat": 0.0}, {"name": "147427861208c5249c8f63137eb04849", "fusion_lon": 0.0, "lat": 38.919967, "is_reserved": 0, "type": "electric_scooter", "bike_id": "147427861208c5249c8f63137eb04849", "is_disabled": 0, "rental_uris": {"android": "https://dc.lft.to/lastmile_qr_scan", "ios": "https://dc.lft.to/lastmile_qr_scan"}, "lon": -77.03219483333334, "fusion_lat": 0.0}, {"name": "bdec895bf6ba2ccfd22c412a7c5d7b18", "fusion_lon": 0.0, "lat": 38.89703883333333, "is_reserved": 0, "type": "electric_scooter", "bike_id": "bdec895bf6ba2ccfd22c412a7c5d7b18", "is_disabled": 0, "rental_uris": {"android": "https://dc.lft.to/lastmile_qr_scan", "ios": "https://dc.lft.to/lastmile_qr_scan"}, "lon": -76.92998966666667, "fusion_lat": 0.0}, {"name": "fa004b7c4183f47e23787b83b39778f3", "fusion_lon": 0.0, "lat": 38.89956433333333, "is_reserved": 0, "type": "electric_bike", "bike_id": "fa004b7c4183f47e23787b83b39778f3", "is_disabled": 0, "rental_uris": {"android": "https://dc.lft.to/lastmile_qr_scan", "ios": "https://dc.lft.to/lastmile_qr_scan"}, "lon": -76.98556266666667, "fusion_lat": 0.0}, {"name": "967fc76ea71727cd401158e68b265fab", "fusion_lon": 0.0, "lat": 38.8662335, "is_reserved": 0, "type": "electric_scooter", "bike_id": "967fc76ea71727cd401158e68b265fab", "is_disabled": 0, "rental_uris": {"android": "https://dc.lft.to/lastmile_qr_scan", "ios": "https://dc.lft.to/lastmile_qr_scan"}, "lon": -76.98903766666666, "fusion_lat": 0.0}, {"name": "323371fe2dca2f7c85b25382cd6dd6dc", "fusion_lon": 0.0, "lat": 38.923707666666665, "is_reserved": 0, "type": "electric_scooter", "bike_id": "323371fe2dca2f7c85b25382cd6dd6dc", "is_disabled": 0, "rental_uris": {"android": "https://dc.lft.to/lastmile_qr_scan", "ios": "https://dc.lft.to/lastmile_qr_scan"}, "lon": -77.03089716666666, "fusion_lat": 0.0}, {"name": "5c4458834858fd55bfd0346e94fceebc", "fusion_lon": 0.0, "lat": 38.903756666666666, "is_reserved": 0, "type": "electric_scooter", "bike_id": "5c4458834858fd55bfd0346e94fceebc", "is_disabled": 0, "rental_uris": {"android": "https://dc.lft.to/lastmile_qr_scan", "ios": "https://dc.lft.to/lastmile_qr_scan"}, "lon": -77.04505166666667, "fusion_lat": 0.0}, {"name": "b7410abe70e37be5664aaccc4b76acaa", "fusion_lon": 0.0, "lat": 38.9270325, "is_reserved": 0, "type": "electric_scooter", "bike_id": "b7410abe70e37be5664aaccc4b76acaa", "is_disabled": 0, "rental_uris": {"android": "https://dc.lft.to/lastmile_qr_scan", "ios": "https://dc.lft.to/lastmile_qr_scan"}, "lon": -77.01494266666667, "fusion_lat": 0.0}, {"name": "c77da3d58e0308f8c25547af7ea60b49", "fusion_lon": 0.0, "lat": 38.915634, "is_reserved": 0, "type": "electric_scooter", "bike_id": "c77da3d58e0308f8c25547af7ea60b49", "is_disabled": 0, "rental_uris": {"android": "https://dc.lft.to/lastmile_qr_scan", "ios": "https://dc.lft.to/lastmile_qr_scan"}, "lon": -77.01038266666667, "fusion_lat": 0.0}, {"name": "e380efe8a395f4a7b3ca9f9cc19c8949", "fusion_lon": 0.0, "lat": 38.900338, "is_reserved": 0, "type": "electric_scooter", "bike_id": "e380efe8a395f4a7b3ca9f9cc19c8949", "is_disabled": 0, "rental_uris": {"android": "https://dc.lft.to/lastmile_qr_scan", "ios": "https://dc.lft.to/lastmile_qr_scan"}, "lon": -77.00193166666666, "fusion_lat": 0.0}, {"name": "5e950625c42a8b534cc47a9e1f1d4d87", "fusion_lon": 0.0, "lat": 38.922506, "is_reserved": 0, "type": "electric_scooter", "bike_id": "5e950625c42a8b534cc47a9e1f1d4d87", "is_disabled": 0, "rental_uris": {"android": "https://dc.lft.to/lastmile_qr_scan", "ios": "https://dc.lft.to/lastmile_qr_scan"}, "lon": -77.03031866666667, "fusion_lat": 0.0}, {"name": "c1038ad3c866dd34b188e951a1e1b3e0", "fusion_lon": 0.0, "lat": 38.927634166666664, "is_reserved": 0, "type": "electric_scooter", "bike_id": "c1038ad3c866dd34b188e951a1e1b3e0", "is_disabled": 0, "rental_uris": {"android": "https://dc.lft.to/lastmile_qr_scan", "ios": "https://dc.lft.to/lastmile_qr_scan"}, "lon": -77.027872, "fusion_lat": 0.0}, {"name": "6efe313896cd5ecc7618d403c98de20e", "fusion_lon": 0.0, "lat": 38.8791735, "is_reserved": 0, "type": "electric_scooter", "bike_id": "6efe313896cd5ecc7618d403c98de20e", "is_disabled": 0, "rental_uris": {"android": "https://dc.lft.to/lastmile_qr_scan", "ios": "https://dc.lft.to/lastmile_qr_scan"}, "lon": -77.00542433333334, "fusion_lat": 0.0}, {"name": "cc610cd368797e210a1b01f1813be727", "fusion_lon": 0.0, "lat": 38.90472883333333, "is_reserved": 0, "type": "electric_bike", "bike_id": "cc610cd368797e210a1b01f1813be727", "is_disabled": 0, "rental_uris": {"android": "https://dc.lft.to/lastmile_qr_scan", "ios": "https://dc.lft.to/lastmile_qr_scan"}, "lon": -76.9732375, "fusion_lat": 0.0}, {"name": "714ea4476a7d7891d39bea6e47e8f3a8", "fusion_lon": 0.0, "lat": 38.903609, "is_reserved": 0, "type": "electric_scooter", "bike_id": "714ea4476a7d7891d39bea6e47e8f3a8", "is_disabled": 0, "rental_uris": {"android": "https://dc.lft.to/lastmile_qr_scan", "ios": "https://dc.lft.to/lastmile_qr_scan"}, "lon": -77.0450035, "fusion_lat": 0.0}, {"name": "7ad8ac082ebea82a7a0f950d12e3c07e", "fusion_lon": 0.0, "lat": 38.924282833333336, "is_reserved": 0, "type": "electric_scooter", "bike_id": "7ad8ac082ebea82a7a0f950d12e3c07e", "is_disabled": 0, "rental_uris": {"android": "https://dc.lft.to/lastmile_qr_scan", "ios": "https://dc.lft.to/lastmile_qr_scan"}, "lon": -77.04243033333333, "fusion_lat": 0.0}, {"name": "b260c779265b722bce75f9bcab829946", "fusion_lon": 0.0, "lat": 38.87595983333333, "is_reserved": 0, "type": "electric_scooter", "bike_id": "b260c779265b722bce75f9bcab829946", "is_disabled": 0, "rental_uris": {"android": "https://dc.lft.to/lastmile_qr_scan", "ios": "https://dc.lft.to/lastmile_qr_scan"}, "lon": -77.00024516666667, "fusion_lat": 0.0}, {"name": "b12b687a34566f0e872c6ef07aacc3c9", "fusion_lon": 0.0, "lat": 38.90010683333333, "is_reserved": 0, "type": "electric_scooter", "bike_id": "b12b687a34566f0e872c6ef07aacc3c9", "is_disabled": 0, "rental_uris": {"android": "https://dc.lft.to/lastmile_qr_scan", "ios": "https://dc.lft.to/lastmile_qr_scan"}, "lon": -76.93028733333334, "fusion_lat": 0.0}, {"name": "964bb02f0a1fac6a4a052e214f9008ff", "fusion_lon": 0.0, "lat": 38.9245575, "is_reserved": 0, "type": "electric_scooter", "bike_id": "964bb02f0a1fac6a4a052e214f9008ff", "is_disabled": 0, "rental_uris": {"android": "https://dc.lft.to/lastmile_qr_scan", "ios": "https://dc.lft.to/lastmile_qr_scan"}, "lon": -77.08161583333333, "fusion_lat": 0.0}, {"name": "74b390cc430522a7b61b71d3236acb5f", "fusion_lon": 0.0, "lat": 38.925421666666665, "is_reserved": 0, "type": "electric_scooter", "bike_id": "74b390cc430522a7b61b71d3236acb5f", "is_disabled": 0, "rental_uris": {"android": "https://dc.lft.to/lastmile_qr_scan", "ios": "https://dc.lft.to/lastmile_qr_scan"}, "lon": -76.97220683333333, "fusion_lat": 0.0}, {"name": "7529c79aa91e5bb1b5234743426efdd3", "fusion_lon": 0.0, "lat": 38.915519, "is_reserved": 0, "type": "electric_scooter", "bike_id": "7529c79aa91e5bb1b5234743426efdd3", "is_disabled": 0, "rental_uris": {"android": "https://dc.lft.to/lastmile_qr_scan", "ios": "https://dc.lft.to/lastmile_qr_scan"}, "lon": -77.05312533333333, "fusion_lat": 0.0}, {"name": "30340560e30c7bfbd991acddd9fe60ba", "fusion_lon": 0.0, "lat": 38.92605533333333, "is_reserved": 0, "type": "electric_scooter", "bike_id": "30340560e30c7bfbd991acddd9fe60ba", "is_disabled": 0, "rental_uris": {"android": "https://dc.lft.to/lastmile_qr_scan", "ios": "https://dc.lft.to/lastmile_qr_scan"}, "lon": -77.02413483333333, "fusion_lat": 0.0}, {"name": "1cc223ffe31e52617cbbf40509a6541f", "fusion_lon": 0.0, "lat": 38.901408333333336, "is_reserved": 0, "type": "electric_bike", "bike_id": "1cc223ffe31e52617cbbf40509a6541f", "is_disabled": 0, "rental_uris": {"android": "https://dc.lft.to/lastmile_qr_scan", "ios": "https://dc.lft.to/lastmile_qr_scan"}, "lon": -77.022873, "fusion_lat": 0.0}, {"name": "97dd08ecc3c5c14deb8709edbb234a70", "fusion_lon": 0.0, "lat": 38.93381683333333, "is_reserved": 0, "type": "electric_scooter", "bike_id": "97dd08ecc3c5c14deb8709edbb234a70", "is_disabled": 0, "rental_uris": {"android": "https://dc.lft.to/lastmile_qr_scan", "ios": "https://dc.lft.to/lastmile_qr_scan"}, "lon": -77.0232565, "fusion_lat": 0.0}, {"name": "c00eed0239f4454cc52d2a9652be4626", "fusion_lon": 0.0, "lat": 38.939306333333334, "is_reserved": 0, "type": "electric_scooter", "bike_id": "c00eed0239f4454cc52d2a9652be4626", "is_disabled": 0, "rental_uris": {"android": "https://dc.lft.to/lastmile_qr_scan", "ios": "https://dc.lft.to/lastmile_qr_scan"}, "lon": -77.02491083333334, "fusion_lat": 0.0}, {"name": "b4b37cb5108b69ac68995e6de721fbde", "fusion_lon": 0.0, "lat": 38.886071333333334, "is_reserved": 0, "type": "electric_scooter", "bike_id": "b4b37cb5108b69ac68995e6de721fbde", "is_disabled": 0, "rental_uris": {"android": "https://dc.lft.to/lastmile_qr_scan", "ios": "https://dc.lft.to/lastmile_qr_scan"}, "lon": -76.99513316666666, "fusion_lat": 0.0}, {"name": "a84b37c4e8eef393077ce8a113e73bc9", "fusion_lon": 0.0, "lat": 38.917963, "is_reserved": 0, "type": "electric_scooter", "bike_id": "a84b37c4e8eef393077ce8a113e73bc9", "is_disabled": 0, "rental_uris": {"android": "https://dc.lft.to/lastmile_qr_scan", "ios": "https://dc.lft.to/lastmile_qr_scan"}, "lon": -77.03431783333333, "fusion_lat": 0.0}, {"name": "69e3617c5f11e16fbd130aaa68da5bd0", "fusion_lon": 0.0, "lat": 38.90860933333333, "is_reserved": 0, "type": "electric_scooter", "bike_id": "69e3617c5f11e16fbd130aaa68da5bd0", "is_disabled": 0, "rental_uris": {"android": "https://dc.lft.to/lastmile_qr_scan", "ios": "https://dc.lft.to/lastmile_qr_scan"}, "lon": -77.02420283333333, "fusion_lat": 0.0}, {"name": "e50d5e218135d8d106ce288c62ae9d79", "fusion_lon": 0.0, "lat": 38.9932665, "is_reserved": 0, "type": "electric_bike", "bike_id": "e50d5e218135d8d106ce288c62ae9d79", "is_disabled": 0, "rental_uris": {"android": "https://dc.lft.to/lastmile_qr_scan", "ios": "https://dc.lft.to/lastmile_qr_scan"}, "lon": -76.9461435, "fusion_lat": 0.0}, {"name": "e6430d9a7972688d367c98bd8511529a", "fusion_lon": 0.0, "lat": 38.92869783333333, "is_reserved": 0, "type": "electric_scooter", "bike_id": "e6430d9a7972688d367c98bd8511529a", "is_disabled": 0, "rental_uris": {"android": "https://dc.lft.to/lastmile_qr_scan", "ios": "https://dc.lft.to/lastmile_qr_scan"}, "lon": -77.027271, "fusion_lat": 0.0}, {"name": "635a2b6630ae3a2aa28f79532e031b00", "fusion_lon": 0.0, "lat": 38.905522500000004, "is_reserved": 0, "type": "electric_scooter", "bike_id": "635a2b6630ae3a2aa28f79532e031b00", "is_disabled": 0, "rental_uris": {"android": "https://dc.lft.to/lastmile_qr_scan", "ios": "https://dc.lft.to/lastmile_qr_scan"}, "lon": -77.0058975, "fusion_lat": 0.0}, {"name": "7e791cd6e60cad1b20e5e8c75afbb236", "fusion_lon": 0.0, "lat": 38.91664683333333, "is_reserved": 0, "type": "electric_scooter", "bike_id": "7e791cd6e60cad1b20e5e8c75afbb236", "is_disabled": 0, "rental_uris": {"android": "https://dc.lft.to/lastmile_qr_scan", "ios": "https://dc.lft.to/lastmile_qr_scan"}, "lon": -77.02970383333333, "fusion_lat": 0.0}, {"name": "9dcb6dedbf68d1e790449cb528f8ede6", "fusion_lon": 0.0, "lat": 38.92948466666667, "is_reserved": 0, "type": "electric_scooter", "bike_id": "9dcb6dedbf68d1e790449cb528f8ede6", "is_disabled": 0, "rental_uris": {"android": "https://dc.lft.to/lastmile_qr_scan", "ios": "https://dc.lft.to/lastmile_qr_scan"}, "lon": -77.03265516666667, "fusion_lat": 0.0}, {"name": "99194755c7f985dd8965345d1198bcbc", "fusion_lon": 0.0, "lat": 38.91909416666667, "is_reserved": 0, "type": "electric_scooter", "bike_id": "99194755c7f985dd8965345d1198bcbc", "is_disabled": 0, "rental_uris": {"android": "https://dc.lft.to/lastmile_qr_scan", "ios": "https://dc.lft.to/lastmile_qr_scan"}, "lon": -77.04459183333333, "fusion_lat": 0.0}, {"name": "4913ad26aff112173b8bec89b5d74144", "fusion_lon": 0.0, "lat": 38.85526433333333, "is_reserved": 0, "type": "electric_bike", "bike_id": "4913ad26aff112173b8bec89b5d74144", "is_disabled": 0, "rental_uris": {"android": "https://dc.lft.to/lastmile_qr_scan", "ios": "https://dc.lft.to/lastmile_qr_scan"}, "lon": -77.1201925, "fusion_lat": 0.0}, {"name": "ad18f9dcc5c24fa509da655b625c88a2", "fusion_lon": 0.0, "lat": 38.901885666666665, "is_reserved": 0, "type": "electric_scooter", "bike_id": "ad18f9dcc5c24fa509da655b625c88a2", "is_disabled": 0, "rental_uris": {"android": "https://dc.lft.to/lastmile_qr_scan", "ios": "https://dc.lft.to/lastmile_qr_scan"}, "lon": -77.0217495, "fusion_lat": 0.0}, {"name": "ce118e99dd020c6ba3131a75911ccbd0", "fusion_lon": 0.0, "lat": 38.90474366666667, "is_reserved": 0, "type": "electric_scooter", "bike_id": "ce118e99dd020c6ba3131a75911ccbd0", "is_disabled": 0, "rental_uris": {"android": "https://dc.lft.to/lastmile_qr_scan", "ios": "https://dc.lft.to/lastmile_qr_scan"}, "lon": -77.02696633333333, "fusion_lat": 0.0}, {"name": "833b2461dff97685661ee813f0514c64", "fusion_lon": 0.0, "lat": 38.900084666666665, "is_reserved": 0, "type": "electric_scooter", "bike_id": "833b2461dff97685661ee813f0514c64", "is_disabled": 0, "rental_uris": {"android": "https://dc.lft.to/lastmile_qr_scan", "ios": "https://dc.lft.to/lastmile_qr_scan"}, "lon": -76.99347933333334, "fusion_lat": 0.0}, {"name": "b4fac9668dae79106ab4a19bca6c5edf", "fusion_lon": 0.0, "lat": 38.88460383333334, "is_reserved": 0, "type": "electric_scooter", "bike_id": "b4fac9668dae79106ab4a19bca6c5edf", "is_disabled": 0, "rental_uris": {"android": "https://dc.lft.to/lastmile_qr_scan", "ios": "https://dc.lft.to/lastmile_qr_scan"}, "lon": -76.9574455, "fusion_lat": 0.0}, {"name": "777af64bb2bb4e67b9a9f6fda981246d", "fusion_lon": 0.0, "lat": 38.926617, "is_reserved": 0, "type": "electric_scooter", "bike_id": "777af64bb2bb4e67b9a9f6fda981246d", "is_disabled": 0, "rental_uris": {"android": "https://dc.lft.to/lastmile_qr_scan", "ios": "https://dc.lft.to/lastmile_qr_scan"}, "lon": -77.008689, "fusion_lat": 0.0}, {"name": "31955c871bb2274e4c5a80f8e71ead05", "fusion_lon": 0.0, "lat": 39.034278666666665, "is_reserved": 0, "type": "electric_bike", "bike_id": "31955c871bb2274e4c5a80f8e71ead05", "is_disabled": 0, "rental_uris": {"android": "https://dc.lft.to/lastmile_qr_scan", "ios": "https://dc.lft.to/lastmile_qr_scan"}, "lon": -77.04243183333334, "fusion_lat": 0.0}, {"name": "2e3425bc24ff7c4d0fcec77f4e470e80", "fusion_lon": 0.0, "lat": 38.9140365, "is_reserved": 0, "type": "electric_scooter", "bike_id": "2e3425bc24ff7c4d0fcec77f4e470e80", "is_disabled": 0, "rental_uris": {"android": "https://dc.lft.to/lastmile_qr_scan", "ios": "https://dc.lft.to/lastmile_qr_scan"}, "lon": -77.032217, "fusion_lat": 0.0}, {"name": "993b35d97c306721da561dcd2dac457b", "fusion_lon": 0.0, "lat": 38.88135883333333, "is_reserved": 0, "type": "electric_scooter", "bike_id": "993b35d97c306721da561dcd2dac457b", "is_disabled": 0, "rental_uris": {"android": "https://dc.lft.to/lastmile_qr_scan", "ios": "https://dc.lft.to/lastmile_qr_scan"}, "lon": -76.99572066666667, "fusion_lat": 0.0}, {"name": "0aad9ffdc75c059e92bb0933a75a8ebb", "fusion_lon": 0.0, "lat": 38.92413416666667, "is_reserved": 0, "type": "electric_scooter", "bike_id": "0aad9ffdc75c059e92bb0933a75a8ebb", "is_disabled": 0, "rental_uris": {"android": "https://dc.lft.to/lastmile_qr_scan", "ios": "https://dc.lft.to/lastmile_qr_scan"}, "lon": -77.02269066666666, "fusion_lat": 0.0}, {"name": "931d21f6b714b7aa2817de10aa278f25", "fusion_lon": 0.0, "lat": 38.87968216666667, "is_reserved": 0, "type": "electric_bike", "bike_id": "931d21f6b714b7aa2817de10aa278f25", "is_disabled": 0, "rental_uris": {"android": "https://dc.lft.to/lastmile_qr_scan", "ios": "https://dc.lft.to/lastmile_qr_scan"}, "lon": -76.91603966666666, "fusion_lat": 0.0}, {"name": "f5d15d8587169723d40f89eae6334889", "fusion_lon": 0.0, "lat": 39.054960333333334, "is_reserved": 0, "type": "electric_bike", "bike_id": "f5d15d8587169723d40f89eae6334889", "is_disabled": 0, "rental_uris": {"android": "https://dc.lft.to/lastmile_qr_scan", "ios": "https://dc.lft.to/lastmile_qr_scan"}, "lon": -77.11788733333333, "fusion_lat": 0.0}, {"name": "a1d83b76e1bfbcfbe86ac94c574fa1cf", "fusion_lon": 0.0, "lat": 38.905573, "is_reserved": 0, "type": "electric_scooter", "bike_id": "a1d83b76e1bfbcfbe86ac94c574fa1cf", "is_disabled": 0, "rental_uris": {"android": "https://dc.lft.to/lastmile_qr_scan", "ios": "https://dc.lft.to/lastmile_qr_scan"}, "lon": -77.03993766666666, "fusion_lat": 0.0}, {"name": "1e8a86f8d73f98c0f248ce11aad8d37c", "fusion_lon": 0.0, "lat": 38.90724566666667, "is_reserved": 0, "type": "electric_scooter", "bike_id": "1e8a86f8d73f98c0f248ce11aad8d37c", "is_disabled": 0, "rental_uris": {"android": "https://dc.lft.to/lastmile_qr_scan", "ios": "https://dc.lft.to/lastmile_qr_scan"}, "lon": -77.02543583333333, "fusion_lat": 0.0}, {"name": "9a887c4a74176668292c166ebcb684da", "fusion_lon": 0.0, "lat": 38.907897, "is_reserved": 0, "type": "electric_scooter", "bike_id": "9a887c4a74176668292c166ebcb684da", "is_disabled": 0, "rental_uris": {"android": "https://dc.lft.to/lastmile_qr_scan", "ios": "https://dc.lft.to/lastmile_qr_scan"}, "lon": -77.00966383333333, "fusion_lat": 0.0}, {"name": "b580e23652cb37fcabe835acabe56027", "fusion_lon": 0.0, "lat": 38.912420833333336, "is_reserved": 0, "type": "electric_scooter", "bike_id": "b580e23652cb37fcabe835acabe56027", "is_disabled": 0, "rental_uris": {"android": "https://dc.lft.to/lastmile_qr_scan", "ios": "https://dc.lft.to/lastmile_qr_scan"}, "lon": -77.03407, "fusion_lat": 0.0}, {"name": "009d112e7d8a7fdd87e6f253530ceb2f", "fusion_lon": 0.0, "lat": 38.90626233333333, "is_reserved": 0, "type": "electric_bike", "bike_id": "009d112e7d8a7fdd87e6f253530ceb2f", "is_disabled": 0, "rental_uris": {"android": "https://dc.lft.to/lastmile_qr_scan", "ios": "https://dc.lft.to/lastmile_qr_scan"}, "lon": -76.9860745, "fusion_lat": 0.0}, {"name": "f5d9663eff7060fcc4e5914976fbf9bc", "fusion_lon": 0.0, "lat": 38.978743333333334, "is_reserved": 0, "type": "electric_bike", "bike_id": "f5d9663eff7060fcc4e5914976fbf9bc", "is_disabled": 0, "rental_uris": {"android": "https://dc.lft.to/lastmile_qr_scan", "ios": "https://dc.lft.to/lastmile_qr_scan"}, "lon": -77.06020866666667, "fusion_lat": 0.0}, {"name": "65820ead2551be0d756db7e8d0c8e6f6", "fusion_lon": 0.0, "lat": 38.916624166666665, "is_reserved": 0, "type": "electric_scooter", "bike_id": "65820ead2551be0d756db7e8d0c8e6f6", "is_disabled": 0, "rental_uris": {"android": "https://dc.lft.to/lastmile_qr_scan", "ios": "https://dc.lft.to/lastmile_qr_scan"}, "lon": -77.029636, "fusion_lat": 0.0}, {"name": "d667cba617f02af6ed298744e23b1c4b", "fusion_lon": 0.0, "lat": 38.9231945, "is_reserved": 0, "type": "electric_scooter", "bike_id": "d667cba617f02af6ed298744e23b1c4b", "is_disabled": 0, "rental_uris": {"android": "https://dc.lft.to/lastmile_qr_scan", "ios": "https://dc.lft.to/lastmile_qr_scan"}, "lon": -77.04174116666667, "fusion_lat": 0.0}, {"name": "6d440468c5e9c502e88b50ce84a8e9e6", "fusion_lon": 0.0, "lat": 38.89922683333333, "is_reserved": 0, "type": "electric_scooter", "bike_id": "6d440468c5e9c502e88b50ce84a8e9e6", "is_disabled": 0, "rental_uris": {"android": "https://dc.lft.to/lastmile_qr_scan", "ios": "https://dc.lft.to/lastmile_qr_scan"}, "lon": -77.0035735, "fusion_lat": 0.0}, {"name": "e3ed88670bbc79877a734692166b8ae2", "fusion_lon": 0.0, "lat": 38.90017516666666, "is_reserved": 0, "type": "electric_scooter", "bike_id": "e3ed88670bbc79877a734692166b8ae2", "is_disabled": 0, "rental_uris": {"android": "https://dc.lft.to/lastmile_qr_scan", "ios": "https://dc.lft.to/lastmile_qr_scan"}, "lon": -77.02607333333333, "fusion_lat": 0.0}, {"name": "0efd68ccbf8af313c04c8e64049491bd", "fusion_lon": 0.0, "lat": 38.90785233333333, "is_reserved": 0, "type": "electric_scooter", "bike_id": "0efd68ccbf8af313c04c8e64049491bd", "is_disabled": 0, "rental_uris": {"android": "https://dc.lft.to/lastmile_qr_scan", "ios": "https://dc.lft.to/lastmile_qr_scan"}, "lon": -77.038645, "fusion_lat": 0.0}, {"name": "18c3d2f54e16e412d0805a7118adb908", "fusion_lon": 0.0, "lat": 38.90937433333333, "is_reserved": 0, "type": "electric_scooter", "bike_id": "18c3d2f54e16e412d0805a7118adb908", "is_disabled": 0, "rental_uris": {"android": "https://dc.lft.to/lastmile_qr_scan", "ios": "https://dc.lft.to/lastmile_qr_scan"}, "lon": -77.02694433333333, "fusion_lat": 0.0}, {"name": "397ce698c5260e0c37aeb0bae5983a4f", "fusion_lon": 0.0, "lat": 38.91711133333333, "is_reserved": 0, "type": "electric_scooter", "bike_id": "397ce698c5260e0c37aeb0bae5983a4f", "is_disabled": 0, "rental_uris": {"android": "https://dc.lft.to/lastmile_qr_scan", "ios": "https://dc.lft.to/lastmile_qr_scan"}, "lon": -77.02313616666666, "fusion_lat": 0.0}, {"name": "c2a9f567e9221db546bdb026a6ac0f11", "fusion_lon": 0.0, "lat": 38.90519166666667, "is_reserved": 0, "type": "electric_scooter", "bike_id": "c2a9f567e9221db546bdb026a6ac0f11", "is_disabled": 0, "rental_uris": {"android": "https://dc.lft.to/lastmile_qr_scan", "ios": "https://dc.lft.to/lastmile_qr_scan"}, "lon": -76.98087283333334, "fusion_lat": 0.0}, {"name": "61f6ac816fe0e0fa6b89afad58548330", "fusion_lon": 0.0, "lat": 38.8954255, "is_reserved": 0, "type": "electric_scooter", "bike_id": "61f6ac816fe0e0fa6b89afad58548330", "is_disabled": 0, "rental_uris": {"android": "https://dc.lft.to/lastmile_qr_scan", "ios": "https://dc.lft.to/lastmile_qr_scan"}, "lon": -76.92954966666667, "fusion_lat": 0.0}, {"name": "a6f960aaf7d8789d7537cfd1c61e71ec", "fusion_lon": 0.0, "lat": 38.935091, "is_reserved": 0, "type": "electric_scooter", "bike_id": "a6f960aaf7d8789d7537cfd1c61e71ec", "is_disabled": 0, "rental_uris": {"android": "https://dc.lft.to/lastmile_qr_scan", "ios": "https://dc.lft.to/lastmile_qr_scan"}, "lon": -77.03293416666666, "fusion_lat": 0.0}, {"name": "2fb2b43d569d6ba88bbe9e42b006dbc5", "fusion_lon": 0.0, "lat": 38.857872, "is_reserved": 0, "type": "electric_bike", "bike_id": "2fb2b43d569d6ba88bbe9e42b006dbc5", "is_disabled": 0, "rental_uris": {"android": "https://dc.lft.to/lastmile_qr_scan", "ios": "https://dc.lft.to/lastmile_qr_scan"}, "lon": -77.12017816666666, "fusion_lat": 0.0}, {"name": "7fefcaaef00901ac87925ed3ee9f4bbd", "fusion_lon": 0.0, "lat": 38.86263683333333, "is_reserved": 0, "type": "electric_bike", "bike_id": "7fefcaaef00901ac87925ed3ee9f4bbd", "is_disabled": 0, "rental_uris": {"android": "https://dc.lft.to/lastmile_qr_scan", "ios": "https://dc.lft.to/lastmile_qr_scan"}, "lon": -76.9835245, "fusion_lat": 0.0}, {"name": "b7f554a149bb963121ef89df707103bf", "fusion_lon": 0.0, "lat": 38.9203355, "is_reserved": 0, "type": "electric_scooter", "bike_id": "b7f554a149bb963121ef89df707103bf", "is_disabled": 0, "rental_uris": {"android": "https://dc.lft.to/lastmile_qr_scan", "ios": "https://dc.lft.to/lastmile_qr_scan"}, "lon": -77.031561, "fusion_lat": 0.0}, {"name": "ed2f8f493ef3c8ba11a5b7aac9b284c0", "fusion_lon": 0.0, "lat": 38.90125366666667, "is_reserved": 0, "type": "electric_scooter", "bike_id": "ed2f8f493ef3c8ba11a5b7aac9b284c0", "is_disabled": 0, "rental_uris": {"android": "https://dc.lft.to/lastmile_qr_scan", "ios": "https://dc.lft.to/lastmile_qr_scan"}, "lon": -77.0497845, "fusion_lat": 0.0}, {"name": "ca0c89cba5ac0239506a23fcf3dfdf44", "fusion_lon": 0.0, "lat": 38.911349666666666, "is_reserved": 0, "type": "electric_scooter", "bike_id": "ca0c89cba5ac0239506a23fcf3dfdf44", "is_disabled": 0, "rental_uris": {"android": "https://dc.lft.to/lastmile_qr_scan", "ios": "https://dc.lft.to/lastmile_qr_scan"}, "lon": -77.06535816666667, "fusion_lat": 0.0}, {"name": "a4470360e02ebaadb5a7928f1340b471", "fusion_lon": 0.0, "lat": 38.90567216666667, "is_reserved": 0, "type": "electric_scooter", "bike_id": "a4470360e02ebaadb5a7928f1340b471", "is_disabled": 0, "rental_uris": {"android": "https://dc.lft.to/lastmile_qr_scan", "ios": "https://dc.lft.to/lastmile_qr_scan"}, "lon": -77.03456933333334, "fusion_lat": 0.0}, {"name": "3b68dd67b4ea112d2fbc9bd9e4931efb", "fusion_lon": 0.0, "lat": 38.915583833333336, "is_reserved": 0, "type": "electric_scooter", "bike_id": "3b68dd67b4ea112d2fbc9bd9e4931efb", "is_disabled": 0, "rental_uris": {"android": "https://dc.lft.to/lastmile_qr_scan", "ios": "https://dc.lft.to/lastmile_qr_scan"}, "lon": -77.04279233333334, "fusion_lat": 0.0}, {"name": "8a17d934b2198913a0cd3817331b6184", "fusion_lon": 0.0, "lat": 38.9176585, "is_reserved": 0, "type": "electric_scooter", "bike_id": "8a17d934b2198913a0cd3817331b6184", "is_disabled": 0, "rental_uris": {"android": "https://dc.lft.to/lastmile_qr_scan", "ios": "https://dc.lft.to/lastmile_qr_scan"}, "lon": -77.01493483333333, "fusion_lat": 0.0}, {"name": "38d288c1a3bac0282d529d16d7249c4b", "fusion_lon": 0.0, "lat": 38.8928895, "is_reserved": 0, "type": "electric_bike", "bike_id": "38d288c1a3bac0282d529d16d7249c4b", "is_disabled": 0, "rental_uris": {"android": "https://dc.lft.to/lastmile_qr_scan", "ios": "https://dc.lft.to/lastmile_qr_scan"}, "lon": -76.97613383333334, "fusion_lat": 0.0}, {"name": "1f13e7ba797aef8f37bae329b9a02c59", "fusion_lon": 0.0, "lat": 38.884894333333335, "is_reserved": 0, "type": "electric_scooter", "bike_id": "1f13e7ba797aef8f37bae329b9a02c59", "is_disabled": 0, "rental_uris": {"android": "https://dc.lft.to/lastmile_qr_scan", "ios": "https://dc.lft.to/lastmile_qr_scan"}, "lon": -77.007097, "fusion_lat": 0.0}, {"name": "921e7a60757bc10613c95db1656ab219", "fusion_lon": 0.0, "lat": 38.92874066666667, "is_reserved": 0, "type": "electric_scooter", "bike_id": "921e7a60757bc10613c95db1656ab219", "is_disabled": 0, "rental_uris": {"android": "https://dc.lft.to/lastmile_qr_scan", "ios": "https://dc.lft.to/lastmile_qr_scan"}, "lon": -77.01372733333334, "fusion_lat": 0.0}, {"name": "a5af428aa36f2c7db9caaf25bc8bc890", "fusion_lon": 0.0, "lat": 38.92459933333333, "is_reserved": 0, "type": "electric_scooter", "bike_id": "a5af428aa36f2c7db9caaf25bc8bc890", "is_disabled": 0, "rental_uris": {"android": "https://dc.lft.to/lastmile_qr_scan", "ios": "https://dc.lft.to/lastmile_qr_scan"}, "lon": -77.027109, "fusion_lat": 0.0}, {"name": "8fd13f0059c30eefd6fe9c009d23b706", "fusion_lon": 0.0, "lat": 38.88742333333333, "is_reserved": 0, "type": "electric_scooter", "bike_id": "8fd13f0059c30eefd6fe9c009d23b706", "is_disabled": 0, "rental_uris": {"android": "https://dc.lft.to/lastmile_qr_scan", "ios": "https://dc.lft.to/lastmile_qr_scan"}, "lon": -77.02838316666667, "fusion_lat": 0.0}, {"name": "327fddcf027b2ea8d26de1ffbcd7f7bb", "fusion_lon": 0.0, "lat": 38.922329833333336, "is_reserved": 0, "type": "electric_scooter", "bike_id": "327fddcf027b2ea8d26de1ffbcd7f7bb", "is_disabled": 0, "rental_uris": {"android": "https://dc.lft.to/lastmile_qr_scan", "ios": "https://dc.lft.to/lastmile_qr_scan"}, "lon": -77.044972, "fusion_lat": 0.0}, {"name": "abad79de5ac3576881d8ea30aadc6f15", "fusion_lon": 0.0, "lat": 38.92696766666667, "is_reserved": 0, "type": "electric_scooter", "bike_id": "abad79de5ac3576881d8ea30aadc6f15", "is_disabled": 0, "rental_uris": {"android": "https://dc.lft.to/lastmile_qr_scan", "ios": "https://dc.lft.to/lastmile_qr_scan"}, "lon": -77.02102266666667, "fusion_lat": 0.0}, {"name": "636f6285bf83226a3756762e5d599a7f", "fusion_lon": 0.0, "lat": 38.912676, "is_reserved": 0, "type": "electric_scooter", "bike_id": "636f6285bf83226a3756762e5d599a7f", "is_disabled": 0, "rental_uris": {"android": "https://dc.lft.to/lastmile_qr_scan", "ios": "https://dc.lft.to/lastmile_qr_scan"}, "lon": -77.03830033333334, "fusion_lat": 0.0}, {"name": "227a34e2b4138fdf30174d6e1f619ddd", "fusion_lon": 0.0, "lat": 38.89729116666667, "is_reserved": 0, "type": "electric_scooter", "bike_id": "227a34e2b4138fdf30174d6e1f619ddd", "is_disabled": 0, "rental_uris": {"android": "https://dc.lft.to/lastmile_qr_scan", "ios": "https://dc.lft.to/lastmile_qr_scan"}, "lon": -77.021592, "fusion_lat": 0.0}, {"name": "b13fe73746bf938d57a82d992516dc79", "fusion_lon": 0.0, "lat": 38.906011666666664, "is_reserved": 0, "type": "electric_scooter", "bike_id": "b13fe73746bf938d57a82d992516dc79", "is_disabled": 0, "rental_uris": {"android": "https://dc.lft.to/lastmile_qr_scan", "ios": "https://dc.lft.to/lastmile_qr_scan"}, "lon": -77.05685216666667, "fusion_lat": 0.0}, {"name": "57794cc9209919b9152d82b44d14a406", "fusion_lon": 0.0, "lat": 38.8695505, "is_reserved": 0, "type": "electric_scooter", "bike_id": "57794cc9209919b9152d82b44d14a406", "is_disabled": 0, "rental_uris": {"android": "https://dc.lft.to/lastmile_qr_scan", "ios": "https://dc.lft.to/lastmile_qr_scan"}, "lon": -76.98174116666667, "fusion_lat": 0.0}, {"name": "b98f0166cc82dc93bc4b2f7629d68444", "fusion_lon": 0.0, "lat": 38.89320016666667, "is_reserved": 0, "type": "electric_scooter", "bike_id": "b98f0166cc82dc93bc4b2f7629d68444", "is_disabled": 0, "rental_uris": {"android": "https://dc.lft.to/lastmile_qr_scan", "ios": "https://dc.lft.to/lastmile_qr_scan"}, "lon": -77.04868216666667, "fusion_lat": 0.0}, {"name": "66016a9474b9d6c7efc0a65422b3b3a3", "fusion_lon": 0.0, "lat": 38.92396433333333, "is_reserved": 0, "type": "electric_scooter", "bike_id": "66016a9474b9d6c7efc0a65422b3b3a3", "is_disabled": 0, "rental_uris": {"android": "https://dc.lft.to/lastmile_qr_scan", "ios": "https://dc.lft.to/lastmile_qr_scan"}, "lon": -77.02135233333334, "fusion_lat": 0.0}, {"name": "0b2c863107e9f9c955797610863ded84", "fusion_lon": 0.0, "lat": 38.916180833333335, "is_reserved": 0, "type": "electric_scooter", "bike_id": "0b2c863107e9f9c955797610863ded84", "is_disabled": 0, "rental_uris": {"android": "https://dc.lft.to/lastmile_qr_scan", "ios": "https://dc.lft.to/lastmile_qr_scan"}, "lon": -77.0484925, "fusion_lat": 0.0}, {"name": "f148361bb6e9fba3cce827d7c5659a86", "fusion_lon": 0.0, "lat": 38.923104, "is_reserved": 0, "type": "electric_scooter", "bike_id": "f148361bb6e9fba3cce827d7c5659a86", "is_disabled": 0, "rental_uris": {"android": "https://dc.lft.to/lastmile_qr_scan", "ios": "https://dc.lft.to/lastmile_qr_scan"}, "lon": -77.02746716666667, "fusion_lat": 0.0}, {"name": "a8b640e23196ebc48300fb71555acfee", "fusion_lon": 0.0, "lat": 38.876028166666664, "is_reserved": 0, "type": "electric_scooter", "bike_id": "a8b640e23196ebc48300fb71555acfee", "is_disabled": 0, "rental_uris": {"android": "https://dc.lft.to/lastmile_qr_scan", "ios": "https://dc.lft.to/lastmile_qr_scan"}, "lon": -77.000575, "fusion_lat": 0.0}, {"name": "ec1bef4dce233ea62312cc2b7dd3223c", "fusion_lon": 0.0, "lat": 38.942051, "is_reserved": 0, "type": "electric_scooter", "bike_id": "ec1bef4dce233ea62312cc2b7dd3223c", "is_disabled": 0, "rental_uris": {"android": "https://dc.lft.to/lastmile_qr_scan", "ios": "https://dc.lft.to/lastmile_qr_scan"}, "lon": -77.025044, "fusion_lat": 0.0}, {"name": "1a96c7d899ea0577915d15b4102be782", "fusion_lon": 0.0, "lat": 38.89835683333333, "is_reserved": 0, "type": "electric_scooter", "bike_id": "1a96c7d899ea0577915d15b4102be782", "is_disabled": 0, "rental_uris": {"android": "https://dc.lft.to/lastmile_qr_scan", "ios": "https://dc.lft.to/lastmile_qr_scan"}, "lon": -77.03341383333333, "fusion_lat": 0.0}, {"name": "26ad4b45b55fe379aa1a1f3424e5ee73", "fusion_lon": 0.0, "lat": 38.86348983333333, "is_reserved": 0, "type": "electric_scooter", "bike_id": "26ad4b45b55fe379aa1a1f3424e5ee73", "is_disabled": 0, "rental_uris": {"android": "https://dc.lft.to/lastmile_qr_scan", "ios": "https://dc.lft.to/lastmile_qr_scan"}, "lon": -76.98700833333334, "fusion_lat": 0.0}, {"name": "9e59669294161c5ae02569e4c12e3e94", "fusion_lon": 0.0, "lat": 38.91011066666667, "is_reserved": 0, "type": "electric_bike", "bike_id": "9e59669294161c5ae02569e4c12e3e94", "is_disabled": 0, "rental_uris": {"android": "https://dc.lft.to/lastmile_qr_scan", "ios": "https://dc.lft.to/lastmile_qr_scan"}, "lon": -77.22795383333333, "fusion_lat": 0.0}, {"name": "0fc4c5d0663f9e8ca92ed6a542021855", "fusion_lon": 0.0, "lat": 38.87281266666667, "is_reserved": 0, "type": "electric_bike", "bike_id": "0fc4c5d0663f9e8ca92ed6a542021855", "is_disabled": 0, "rental_uris": {"android": "https://dc.lft.to/lastmile_qr_scan", "ios": "https://dc.lft.to/lastmile_qr_scan"}, "lon": -77.23317966666667, "fusion_lat": 0.0}, {"name": "f50615a26e4929ae0c915a6442cec644", "fusion_lon": 0.0, "lat": 38.9002515, "is_reserved": 0, "type": "electric_scooter", "bike_id": "f50615a26e4929ae0c915a6442cec644", "is_disabled": 0, "rental_uris": {"android": "https://dc.lft.to/lastmile_qr_scan", "ios": "https://dc.lft.to/lastmile_qr_scan"}, "lon": -77.01189, "fusion_lat": 0.0}, {"name": "87a6d03818458595a1f6806d1d1aed95", "fusion_lon": 0.0, "lat": 38.90367466666667, "is_reserved": 0, "type": "electric_scooter", "bike_id": "87a6d03818458595a1f6806d1d1aed95", "is_disabled": 0, "rental_uris": {"android": "https://dc.lft.to/lastmile_qr_scan", "ios": "https://dc.lft.to/lastmile_qr_scan"}, "lon": -77.038225, "fusion_lat": 0.0}, {"name": "f7ee237fae8c3737503fb6665fb2b6a0", "fusion_lon": 0.0, "lat": 38.9151775, "is_reserved": 0, "type": "electric_scooter", "bike_id": "f7ee237fae8c3737503fb6665fb2b6a0", "is_disabled": 0, "rental_uris": {"android": "https://dc.lft.to/lastmile_qr_scan", "ios": "https://dc.lft.to/lastmile_qr_scan"}, "lon": -77.03184466666667, "fusion_lat": 0.0}, {"name": "90b62e8a82516bfeba7104c8694e5802", "fusion_lon": 0.0, "lat": 38.880569, "is_reserved": 0, "type": "electric_bike", "bike_id": "90b62e8a82516bfeba7104c8694e5802", "is_disabled": 0, "rental_uris": {"android": "https://dc.lft.to/lastmile_qr_scan", "ios": "https://dc.lft.to/lastmile_qr_scan"}, "lon": -76.96231933333334, "fusion_lat": 0.0}, {"name": "955503dc5bca8dd53c8267bad2c633b7", "fusion_lon": 0.0, "lat": 38.929682166666666, "is_reserved": 0, "type": "electric_bike", "bike_id": "955503dc5bca8dd53c8267bad2c633b7", "is_disabled": 0, "rental_uris": {"android": "https://dc.lft.to/lastmile_qr_scan", "ios": "https://dc.lft.to/lastmile_qr_scan"}, "lon": -77.18564316666667, "fusion_lat": 0.0}, {"name": "1b1663d8924456992931d3ae3060c804", "fusion_lon": 0.0, "lat": 38.8860645, "is_reserved": 0, "type": "electric_scooter", "bike_id": "1b1663d8924456992931d3ae3060c804", "is_disabled": 0, "rental_uris": {"android": "https://dc.lft.to/lastmile_qr_scan", "ios": "https://dc.lft.to/lastmile_qr_scan"}, "lon": -76.9951125, "fusion_lat": 0.0}, {"name": "ea8d6e46caca9626fa450bdf52548fae", "fusion_lon": 0.0, "lat": 38.92414016666667, "is_reserved": 0, "type": "electric_scooter", "bike_id": "ea8d6e46caca9626fa450bdf52548fae", "is_disabled": 0, "rental_uris": {"android": "https://dc.lft.to/lastmile_qr_scan", "ios": "https://dc.lft.to/lastmile_qr_scan"}, "lon": -77.03636566666667, "fusion_lat": 0.0}, {"name": "108110924833facb7148f4304d0e3d60", "fusion_lon": 0.0, "lat": 38.90270983333333, "is_reserved": 0, "type": "electric_scooter", "bike_id": "108110924833facb7148f4304d0e3d60", "is_disabled": 0, "rental_uris": {"android": "https://dc.lft.to/lastmile_qr_scan", "ios": "https://dc.lft.to/lastmile_qr_scan"}, "lon": -77.05794266666666, "fusion_lat": 0.0}, {"name": "8b967038970a9ac1bce464a391c5f0f8", "fusion_lon": 0.0, "lat": 38.904897, "is_reserved": 0, "type": "electric_scooter", "bike_id": "8b967038970a9ac1bce464a391c5f0f8", "is_disabled": 0, "rental_uris": {"android": "https://dc.lft.to/lastmile_qr_scan", "ios": "https://dc.lft.to/lastmile_qr_scan"}, "lon": -77.0198635, "fusion_lat": 0.0}, {"name": "53582e5166fe1bc66cf054751064b6a4", "fusion_lon": 0.0, "lat": 38.93182133333333, "is_reserved": 0, "type": "electric_scooter", "bike_id": "53582e5166fe1bc66cf054751064b6a4", "is_disabled": 0, "rental_uris": {"android": "https://dc.lft.to/lastmile_qr_scan", "ios": "https://dc.lft.to/lastmile_qr_scan"}, "lon": -77.03657716666666, "fusion_lat": 0.0}, {"name": "000cb43bce7b48e02d1794688db3d9c4", "fusion_lon": 0.0, "lat": 38.94222166666667, "is_reserved": 0, "type": "electric_bike", "bike_id": "000cb43bce7b48e02d1794688db3d9c4", "is_disabled": 0, "rental_uris": {"android": "https://dc.lft.to/lastmile_qr_scan", "ios": "https://dc.lft.to/lastmile_qr_scan"}, "lon": -76.96612566666667, "fusion_lat": 0.0}, {"name": "14859edbb92637228a030b67d52a980c", "fusion_lon": 0.0, "lat": 39.05500633333333, "is_reserved": 0, "type": "electric_bike", "bike_id": "14859edbb92637228a030b67d52a980c", "is_disabled": 0, "rental_uris": {"android": "https://dc.lft.to/lastmile_qr_scan", "ios": "https://dc.lft.to/lastmile_qr_scan"}, "lon": -77.04646566666666, "fusion_lat": 0.0}, {"name": "0928b44469f73dc9d315fb83b788be57", "fusion_lon": 0.0, "lat": 38.9140365, "is_reserved": 0, "type": "electric_scooter", "bike_id": "0928b44469f73dc9d315fb83b788be57", "is_disabled": 0, "rental_uris": {"android": "https://dc.lft.to/lastmile_qr_scan", "ios": "https://dc.lft.to/lastmile_qr_scan"}, "lon": -77.03700966666666, "fusion_lat": 0.0}, {"name": "aa30d9627bf22588972dd0cd84cafaf4", "fusion_lon": 0.0, "lat": 38.933049, "is_reserved": 0, "type": "electric_scooter", "bike_id": "aa30d9627bf22588972dd0cd84cafaf4", "is_disabled": 0, "rental_uris": {"android": "https://dc.lft.to/lastmile_qr_scan", "ios": "https://dc.lft.to/lastmile_qr_scan"}, "lon": -77.03415016666666, "fusion_lat": 0.0}, {"name": "15f05a095265b549de6b1c0fb7873bfa", "fusion_lon": 0.0, "lat": 38.92032366666667, "is_reserved": 0, "type": "electric_scooter", "bike_id": "15f05a095265b549de6b1c0fb7873bfa", "is_disabled": 0, "rental_uris": {"android": "https://dc.lft.to/lastmile_qr_scan", "ios": "https://dc.lft.to/lastmile_qr_scan"}, "lon": -77.02582833333334, "fusion_lat": 0.0}, {"name": "1af7e2397d65222709572548409cf1dc", "fusion_lon": 0.0, "lat": 38.896135, "is_reserved": 0, "type": "electric_scooter", "bike_id": "1af7e2397d65222709572548409cf1dc", "is_disabled": 0, "rental_uris": {"android": "https://dc.lft.to/lastmile_qr_scan", "ios": "https://dc.lft.to/lastmile_qr_scan"}, "lon": -77.044734, "fusion_lat": 0.0}, {"name": "03876027298aea771ee96f6dfdb66f6e", "fusion_lon": 0.0, "lat": 38.93399566666667, "is_reserved": 0, "type": "electric_scooter", "bike_id": "03876027298aea771ee96f6dfdb66f6e", "is_disabled": 0, "rental_uris": {"android": "https://dc.lft.to/lastmile_qr_scan", "ios": "https://dc.lft.to/lastmile_qr_scan"}, "lon": -77.03990316666666, "fusion_lat": 0.0}, {"name": "cc776aad985a3ed298b2d84b83c26756", "fusion_lon": 0.0, "lat": 38.91557433333333, "is_reserved": 0, "type": "electric_scooter", "bike_id": "cc776aad985a3ed298b2d84b83c26756", "is_disabled": 0, "rental_uris": {"android": "https://dc.lft.to/lastmile_qr_scan", "ios": "https://dc.lft.to/lastmile_qr_scan"}, "lon": -77.0205235, "fusion_lat": 0.0}, {"name": "1616dbf784beed5ba4222446ef83d986", "fusion_lon": 0.0, "lat": 38.927249333333336, "is_reserved": 0, "type": "electric_scooter", "bike_id": "1616dbf784beed5ba4222446ef83d986", "is_disabled": 0, "rental_uris": {"android": "https://dc.lft.to/lastmile_qr_scan", "ios": "https://dc.lft.to/lastmile_qr_scan"}, "lon": -77.0228085, "fusion_lat": 0.0}, {"name": "22472d35c66bee8198fe223d32633f87", "fusion_lon": 0.0, "lat": 38.92454033333333, "is_reserved": 0, "type": "electric_scooter", "bike_id": "22472d35c66bee8198fe223d32633f87", "is_disabled": 0, "rental_uris": {"android": "https://dc.lft.to/lastmile_qr_scan", "ios": "https://dc.lft.to/lastmile_qr_scan"}, "lon": -77.07825216666667, "fusion_lat": 0.0}, {"name": "2aa3aad992e032adffb08db3bbb9a7d5", "fusion_lon": 0.0, "lat": 38.944348, "is_reserved": 0, "type": "electric_scooter", "bike_id": "2aa3aad992e032adffb08db3bbb9a7d5", "is_disabled": 0, "rental_uris": {"android": "https://dc.lft.to/lastmile_qr_scan", "ios": "https://dc.lft.to/lastmile_qr_scan"}, "lon": -77.06350316666666, "fusion_lat": 0.0}, {"name": "e56f62e9ed5b7ad15c8f93ef69556d13", "fusion_lon": 0.0, "lat": 38.91273416666667, "is_reserved": 0, "type": "electric_scooter", "bike_id": "e56f62e9ed5b7ad15c8f93ef69556d13", "is_disabled": 0, "rental_uris": {"android": "https://dc.lft.to/lastmile_qr_scan", "ios": "https://dc.lft.to/lastmile_qr_scan"}, "lon": -77.02691983333334, "fusion_lat": 0.0}, {"name": "fd41daa2b66656113613323df0635b1d", "fusion_lon": 0.0, "lat": 38.90131616666667, "is_reserved": 0, "type": "electric_scooter", "bike_id": "fd41daa2b66656113613323df0635b1d", "is_disabled": 0, "rental_uris": {"android": "https://dc.lft.to/lastmile_qr_scan", "ios": "https://dc.lft.to/lastmile_qr_scan"}, "lon": -77.03971183333333, "fusion_lat": 0.0}, {"name": "1b4359f1a8f3734dadbea812d924a239", "fusion_lon": 0.0, "lat": 38.91765916666667, "is_reserved": 0, "type": "electric_scooter", "bike_id": "1b4359f1a8f3734dadbea812d924a239", "is_disabled": 0, "rental_uris": {"android": "https://dc.lft.to/lastmile_qr_scan", "ios": "https://dc.lft.to/lastmile_qr_scan"}, "lon": -77.014691, "fusion_lat": 0.0}, {"name": "a4432e5ca9e239f802dc15ba559aed86", "fusion_lon": 0.0, "lat": 38.9037765, "is_reserved": 0, "type": "electric_scooter", "bike_id": "a4432e5ca9e239f802dc15ba559aed86", "is_disabled": 0, "rental_uris": {"android": "https://dc.lft.to/lastmile_qr_scan", "ios": "https://dc.lft.to/lastmile_qr_scan"}, "lon": -76.93756216666667, "fusion_lat": 0.0}, {"name": "83ca4409a94a0c78bbe0f138b9132ab7", "fusion_lon": 0.0, "lat": 38.90154, "is_reserved": 0, "type": "electric_scooter", "bike_id": "83ca4409a94a0c78bbe0f138b9132ab7", "is_disabled": 0, "rental_uris": {"android": "https://dc.lft.to/lastmile_qr_scan", "ios": "https://dc.lft.to/lastmile_qr_scan"}, "lon": -76.930612, "fusion_lat": 0.0}, {"name": "098bf2f6f9d622e0686ecc420802787a", "fusion_lon": 0.0, "lat": 39.06295933333333, "is_reserved": 0, "type": "electric_bike", "bike_id": "098bf2f6f9d622e0686ecc420802787a", "is_disabled": 0, "rental_uris": {"android": "https://dc.lft.to/lastmile_qr_scan", "ios": "https://dc.lft.to/lastmile_qr_scan"}, "lon": -77.04979616666667, "fusion_lat": 0.0}, {"name": "0f29bcdda56f31f25d48928299eee51a", "fusion_lon": 0.0, "lat": 38.91326766666667, "is_reserved": 0, "type": "electric_scooter", "bike_id": "0f29bcdda56f31f25d48928299eee51a", "is_disabled": 0, "rental_uris": {"android": "https://dc.lft.to/lastmile_qr_scan", "ios": "https://dc.lft.to/lastmile_qr_scan"}, "lon": -77.03168766666667, "fusion_lat": 0.0}, {"name": "db16fd6c949b2d39ab05b1172571e48d", "fusion_lon": 0.0, "lat": 38.89221833333333, "is_reserved": 0, "type": "electric_scooter", "bike_id": "db16fd6c949b2d39ab05b1172571e48d", "is_disabled": 0, "rental_uris": {"android": "https://dc.lft.to/lastmile_qr_scan", "ios": "https://dc.lft.to/lastmile_qr_scan"}, "lon": -77.04082133333333, "fusion_lat": 0.0}, {"name": "31d5a1ed11252843ae0bb8dbb286cb13", "fusion_lon": 0.0, "lat": 38.91411266666667, "is_reserved": 0, "type": "electric_scooter", "bike_id": "31d5a1ed11252843ae0bb8dbb286cb13", "is_disabled": 0, "rental_uris": {"android": "https://dc.lft.to/lastmile_qr_scan", "ios": "https://dc.lft.to/lastmile_qr_scan"}, "lon": -77.04178, "fusion_lat": 0.0}, {"name": "82653a1be708266491fb8ba62e1e2549", "fusion_lon": 0.0, "lat": 38.924762, "is_reserved": 0, "type": "electric_scooter", "bike_id": "82653a1be708266491fb8ba62e1e2549", "is_disabled": 0, "rental_uris": {"android": "https://dc.lft.to/lastmile_qr_scan", "ios": "https://dc.lft.to/lastmile_qr_scan"}, "lon": -77.02835233333333, "fusion_lat": 0.0}, {"name": "1896c1c3384be23cbe14f0e1c3cecaea", "fusion_lon": 0.0, "lat": 38.907715833333334, "is_reserved": 0, "type": "electric_scooter", "bike_id": "1896c1c3384be23cbe14f0e1c3cecaea", "is_disabled": 0, "rental_uris": {"android": "https://dc.lft.to/lastmile_qr_scan", "ios": "https://dc.lft.to/lastmile_qr_scan"}, "lon": -76.97829366666667, "fusion_lat": 0.0}, {"name": "aee719ca0a806847f82be461aada2352", "fusion_lon": 0.0, "lat": 38.89763883333333, "is_reserved": 0, "type": "electric_scooter", "bike_id": "aee719ca0a806847f82be461aada2352", "is_disabled": 0, "rental_uris": {"android": "https://dc.lft.to/lastmile_qr_scan", "ios": "https://dc.lft.to/lastmile_qr_scan"}, "lon": -77.05127983333334, "fusion_lat": 0.0}, {"name": "180b94e96342fd024bac2cf1bcd557c5", "fusion_lon": 0.0, "lat": 38.94622483333333, "is_reserved": 0, "type": "electric_scooter", "bike_id": "180b94e96342fd024bac2cf1bcd557c5", "is_disabled": 0, "rental_uris": {"android": "https://dc.lft.to/lastmile_qr_scan", "ios": "https://dc.lft.to/lastmile_qr_scan"}, "lon": -77.01837766666667, "fusion_lat": 0.0}, {"name": "a52ffe74f28bebef0b64be8651c989e3", "fusion_lon": 0.0, "lat": 38.90421216666667, "is_reserved": 0, "type": "electric_scooter", "bike_id": "a52ffe74f28bebef0b64be8651c989e3", "is_disabled": 0, "rental_uris": {"android": "https://dc.lft.to/lastmile_qr_scan", "ios": "https://dc.lft.to/lastmile_qr_scan"}, "lon": -77.02522466666667, "fusion_lat": 0.0}, {"name": "4fe697d34612d82fae0838980105f94f", "fusion_lon": 0.0, "lat": 38.9169185, "is_reserved": 0, "type": "electric_scooter", "bike_id": "4fe697d34612d82fae0838980105f94f", "is_disabled": 0, "rental_uris": {"android": "https://dc.lft.to/lastmile_qr_scan", "ios": "https://dc.lft.to/lastmile_qr_scan"}, "lon": -77.03122266666666, "fusion_lat": 0.0}, {"name": "942ef58f1527acf75d2aa2b55ac75e2e", "fusion_lon": 0.0, "lat": 38.90081383333333, "is_reserved": 0, "type": "electric_scooter", "bike_id": "942ef58f1527acf75d2aa2b55ac75e2e", "is_disabled": 0, "rental_uris": {"android": "https://dc.lft.to/lastmile_qr_scan", "ios": "https://dc.lft.to/lastmile_qr_scan"}, "lon": -77.04692416666667, "fusion_lat": 0.0}, {"name": "7a93ebd85dc4d395ad173381596b72ca", "fusion_lon": 0.0, "lat": 38.89870533333333, "is_reserved": 0, "type": "electric_scooter", "bike_id": "7a93ebd85dc4d395ad173381596b72ca", "is_disabled": 0, "rental_uris": {"android": "https://dc.lft.to/lastmile_qr_scan", "ios": "https://dc.lft.to/lastmile_qr_scan"}, "lon": -76.94665266666667, "fusion_lat": 0.0}, {"name": "003b7c7cf229aade87633835c83b7a41", "fusion_lon": 0.0, "lat": 38.91898783333333, "is_reserved": 0, "type": "electric_scooter", "bike_id": "003b7c7cf229aade87633835c83b7a41", "is_disabled": 0, "rental_uris": {"android": "https://dc.lft.to/lastmile_qr_scan", "ios": "https://dc.lft.to/lastmile_qr_scan"}, "lon": -76.98745583333333, "fusion_lat": 0.0}, {"name": "42f7e9f0a21b502f7139ebf09540b941", "fusion_lon": 0.0, "lat": 38.89221583333333, "is_reserved": 0, "type": "electric_scooter", "bike_id": "42f7e9f0a21b502f7139ebf09540b941", "is_disabled": 0, "rental_uris": {"android": "https://dc.lft.to/lastmile_qr_scan", "ios": "https://dc.lft.to/lastmile_qr_scan"}, "lon": -77.0236365, "fusion_lat": 0.0}, {"name": "665b69fe4e55a2a87833c197ff3925e3", "fusion_lon": 0.0, "lat": 38.91841733333333, "is_reserved": 0, "type": "electric_scooter", "bike_id": "665b69fe4e55a2a87833c197ff3925e3", "is_disabled": 0, "rental_uris": {"android": "https://dc.lft.to/lastmile_qr_scan", "ios": "https://dc.lft.to/lastmile_qr_scan"}, "lon": -77.03871466666666, "fusion_lat": 0.0}, {"name": "4526a90ddd0026937e755109af8e2814", "fusion_lon": 0.0, "lat": 38.91893433333333, "is_reserved": 0, "type": "electric_scooter", "bike_id": "4526a90ddd0026937e755109af8e2814", "is_disabled": 0, "rental_uris": {"android": "https://dc.lft.to/lastmile_qr_scan", "ios": "https://dc.lft.to/lastmile_qr_scan"}, "lon": -77.02301283333334, "fusion_lat": 0.0}, {"name": "c318d956bbd61463b63af8b22db7da2d", "fusion_lon": 0.0, "lat": 38.91315083333333, "is_reserved": 0, "type": "electric_scooter", "bike_id": "c318d956bbd61463b63af8b22db7da2d", "is_disabled": 0, "rental_uris": {"android": "https://dc.lft.to/lastmile_qr_scan", "ios": "https://dc.lft.to/lastmile_qr_scan"}, "lon": -77.01428866666667, "fusion_lat": 0.0}, {"name": "7914a985cfcbdf19c517ac2e1f60fa83", "fusion_lon": 0.0, "lat": 38.9272635, "is_reserved": 0, "type": "electric_scooter", "bike_id": "7914a985cfcbdf19c517ac2e1f60fa83", "is_disabled": 0, "rental_uris": {"android": "https://dc.lft.to/lastmile_qr_scan", "ios": "https://dc.lft.to/lastmile_qr_scan"}, "lon": -77.0229685, "fusion_lat": 0.0}, {"name": "a713e281f442ae66d08604b6efd46625", "fusion_lon": 0.0, "lat": 38.9024365, "is_reserved": 0, "type": "electric_scooter", "bike_id": "a713e281f442ae66d08604b6efd46625", "is_disabled": 0, "rental_uris": {"android": "https://dc.lft.to/lastmile_qr_scan", "ios": "https://dc.lft.to/lastmile_qr_scan"}, "lon": -77.02831083333334, "fusion_lat": 0.0}, {"name": "a0b1bc42b80e018e217adc041ae3baa2", "fusion_lon": 0.0, "lat": 38.87848733333333, "is_reserved": 0, "type": "electric_scooter", "bike_id": "a0b1bc42b80e018e217adc041ae3baa2", "is_disabled": 0, "rental_uris": {"android": "https://dc.lft.to/lastmile_qr_scan", "ios": "https://dc.lft.to/lastmile_qr_scan"}, "lon": -77.00836316666667, "fusion_lat": 0.0}, {"name": "911114bd21ad0d311e985771c34db2de", "fusion_lon": 0.0, "lat": 38.909360166666666, "is_reserved": 0, "type": "electric_scooter", "bike_id": "911114bd21ad0d311e985771c34db2de", "is_disabled": 0, "rental_uris": {"android": "https://dc.lft.to/lastmile_qr_scan", "ios": "https://dc.lft.to/lastmile_qr_scan"}, "lon": -77.02689933333333, "fusion_lat": 0.0}, {"name": "d02641cf000bdc7eb03f579dabca8697", "fusion_lon": 0.0, "lat": 38.896144, "is_reserved": 0, "type": "electric_scooter", "bike_id": "d02641cf000bdc7eb03f579dabca8697", "is_disabled": 0, "rental_uris": {"android": "https://dc.lft.to/lastmile_qr_scan", "ios": "https://dc.lft.to/lastmile_qr_scan"}, "lon": -77.05055783333333, "fusion_lat": 0.0}, {"name": "5d98bca9e624f9d5c2cd1c8dc8a1f6a8", "fusion_lon": 0.0, "lat": 38.915528, "is_reserved": 0, "type": "electric_scooter", "bike_id": "5d98bca9e624f9d5c2cd1c8dc8a1f6a8", "is_disabled": 0, "rental_uris": {"android": "https://dc.lft.to/lastmile_qr_scan", "ios": "https://dc.lft.to/lastmile_qr_scan"}, "lon": -77.038618, "fusion_lat": 0.0}, {"name": "04e597798770b91f3f7b71c5a647c7a9", "fusion_lon": 0.0, "lat": 38.902624333333335, "is_reserved": 0, "type": "electric_scooter", "bike_id": "04e597798770b91f3f7b71c5a647c7a9", "is_disabled": 0, "rental_uris": {"android": "https://dc.lft.to/lastmile_qr_scan", "ios": "https://dc.lft.to/lastmile_qr_scan"}, "lon": -77.00334466666666, "fusion_lat": 0.0}, {"name": "570f430dbe7840179fdba559e9655323", "fusion_lon": 0.0, "lat": 38.89222733333333, "is_reserved": 0, "type": "electric_scooter", "bike_id": "570f430dbe7840179fdba559e9655323", "is_disabled": 0, "rental_uris": {"android": "https://dc.lft.to/lastmile_qr_scan", "ios": "https://dc.lft.to/lastmile_qr_scan"}, "lon": -77.048573, "fusion_lat": 0.0}, {"name": "fb58da51a32400d9d0098b2db4637124", "fusion_lon": 0.0, "lat": 38.876412333333334, "is_reserved": 0, "type": "electric_scooter", "bike_id": "fb58da51a32400d9d0098b2db4637124", "is_disabled": 0, "rental_uris": {"android": "https://dc.lft.to/lastmile_qr_scan", "ios": "https://dc.lft.to/lastmile_qr_scan"}, "lon": -77.0026535, "fusion_lat": 0.0}, {"name": "b5273eff0e61d7e83f68796193d25b24", "fusion_lon": 0.0, "lat": 38.872769, "is_reserved": 0, "type": "electric_bike", "bike_id": "b5273eff0e61d7e83f68796193d25b24", "is_disabled": 0, "rental_uris": {"android": "https://dc.lft.to/lastmile_qr_scan", "ios": "https://dc.lft.to/lastmile_qr_scan"}, "lon": -77.23324666666667, "fusion_lat": 0.0}, {"name": "3b7f2e390def3341f7612b2a2168f537", "fusion_lon": 0.0, "lat": 38.90630566666667, "is_reserved": 0, "type": "electric_scooter", "bike_id": "3b7f2e390def3341f7612b2a2168f537", "is_disabled": 0, "rental_uris": {"android": "https://dc.lft.to/lastmile_qr_scan", "ios": "https://dc.lft.to/lastmile_qr_scan"}, "lon": -77.06904166666666, "fusion_lat": 0.0}, {"name": "8746ee46f80e997ed5d7b1a3c84edf0b", "fusion_lon": 0.0, "lat": 38.91374583333333, "is_reserved": 0, "type": "electric_scooter", "bike_id": "8746ee46f80e997ed5d7b1a3c84edf0b", "is_disabled": 0, "rental_uris": {"android": "https://dc.lft.to/lastmile_qr_scan", "ios": "https://dc.lft.to/lastmile_qr_scan"}, "lon": -77.04134533333334, "fusion_lat": 0.0}, {"name": "473afcbc15f0c807d170dbb74445a5b1", "fusion_lon": 0.0, "lat": 38.96465216666667, "is_reserved": 0, "type": "electric_bike", "bike_id": "473afcbc15f0c807d170dbb74445a5b1", "is_disabled": 0, "rental_uris": {"android": "https://dc.lft.to/lastmile_qr_scan", "ios": "https://dc.lft.to/lastmile_qr_scan"}, "lon": -77.03559616666666, "fusion_lat": 0.0}, {"name": "6d62d4715fb2d58290848b1e67843663", "fusion_lon": 0.0, "lat": 38.90824766666667, "is_reserved": 0, "type": "electric_scooter", "bike_id": "6d62d4715fb2d58290848b1e67843663", "is_disabled": 0, "rental_uris": {"android": "https://dc.lft.to/lastmile_qr_scan", "ios": "https://dc.lft.to/lastmile_qr_scan"}, "lon": -76.94155, "fusion_lat": 0.0}, {"name": "871d341bab070e8282cd8204ef2b8408", "fusion_lon": 0.0, "lat": 38.920232666666664, "is_reserved": 0, "type": "electric_scooter", "bike_id": "871d341bab070e8282cd8204ef2b8408", "is_disabled": 0, "rental_uris": {"android": "https://dc.lft.to/lastmile_qr_scan", "ios": "https://dc.lft.to/lastmile_qr_scan"}, "lon": -77.01131466666666, "fusion_lat": 0.0}, {"name": "cda6df9ebb6ed526f5d220fcdf4f29d8", "fusion_lon": 0.0, "lat": 38.9016685, "is_reserved": 0, "type": "electric_scooter", "bike_id": "cda6df9ebb6ed526f5d220fcdf4f29d8", "is_disabled": 0, "rental_uris": {"android": "https://dc.lft.to/lastmile_qr_scan", "ios": "https://dc.lft.to/lastmile_qr_scan"}, "lon": -77.0600915, "fusion_lat": 0.0}, {"name": "588b496e8b016caeb6d4cdc2776be00a", "fusion_lon": 0.0, "lat": 38.903737166666666, "is_reserved": 0, "type": "electric_scooter", "bike_id": "588b496e8b016caeb6d4cdc2776be00a", "is_disabled": 0, "rental_uris": {"android": "https://dc.lft.to/lastmile_qr_scan", "ios": "https://dc.lft.to/lastmile_qr_scan"}, "lon": -77.03836666666666, "fusion_lat": 0.0}, {"name": "ee73c00f30beb7292b897e5070d88669", "fusion_lon": 0.0, "lat": 38.89987383333333, "is_reserved": 0, "type": "electric_scooter", "bike_id": "ee73c00f30beb7292b897e5070d88669", "is_disabled": 0, "rental_uris": {"android": "https://dc.lft.to/lastmile_qr_scan", "ios": "https://dc.lft.to/lastmile_qr_scan"}, "lon": -77.006578, "fusion_lat": 0.0}, {"name": "288396a59877ed4be7af91c6e8fe8fd2", "fusion_lon": 0.0, "lat": 38.927187, "is_reserved": 0, "type": "electric_scooter", "bike_id": "288396a59877ed4be7af91c6e8fe8fd2", "is_disabled": 0, "rental_uris": {"android": "https://dc.lft.to/lastmile_qr_scan", "ios": "https://dc.lft.to/lastmile_qr_scan"}, "lon": -77.039937, "fusion_lat": 0.0}, {"name": "7713ed18dfa926d3c017f7afca180489", "fusion_lon": 0.0, "lat": 38.905252833333336, "is_reserved": 0, "type": "electric_scooter", "bike_id": "7713ed18dfa926d3c017f7afca180489", "is_disabled": 0, "rental_uris": {"android": "https://dc.lft.to/lastmile_qr_scan", "ios": "https://dc.lft.to/lastmile_qr_scan"}, "lon": -77.00681616666667, "fusion_lat": 0.0}, {"name": "7ec3a7fbb642c171527ecb220a2551c8", "fusion_lon": 0.0, "lat": 38.900862833333335, "is_reserved": 0, "type": "electric_scooter", "bike_id": "7ec3a7fbb642c171527ecb220a2551c8", "is_disabled": 0, "rental_uris": {"android": "https://dc.lft.to/lastmile_qr_scan", "ios": "https://dc.lft.to/lastmile_qr_scan"}, "lon": -77.047748, "fusion_lat": 0.0}, {"name": "21af4654c6d8e130417dd25fb9905551", "fusion_lon": 0.0, "lat": 38.903193, "is_reserved": 0, "type": "electric_scooter", "bike_id": "21af4654c6d8e130417dd25fb9905551", "is_disabled": 0, "rental_uris": {"android": "https://dc.lft.to/lastmile_qr_scan", "ios": "https://dc.lft.to/lastmile_qr_scan"}, "lon": -77.01884483333333, "fusion_lat": 0.0}, {"name": "97f1baaa008d189d6c4f66f01a4e7f4d", "fusion_lon": 0.0, "lat": 38.88390033333334, "is_reserved": 0, "type": "electric_scooter", "bike_id": "97f1baaa008d189d6c4f66f01a4e7f4d", "is_disabled": 0, "rental_uris": {"android": "https://dc.lft.to/lastmile_qr_scan", "ios": "https://dc.lft.to/lastmile_qr_scan"}, "lon": -76.95446683333333, "fusion_lat": 0.0}, {"name": "3a7c9b5b7c64af9254a01dfb7e2805d5", "fusion_lon": 0.0, "lat": 38.90388866666667, "is_reserved": 0, "type": "electric_scooter", "bike_id": "3a7c9b5b7c64af9254a01dfb7e2805d5", "is_disabled": 0, "rental_uris": {"android": "https://dc.lft.to/lastmile_qr_scan", "ios": "https://dc.lft.to/lastmile_qr_scan"}, "lon": -77.042217, "fusion_lat": 0.0}, {"name": "e12becc1f9e24dcfb30b86ccbe060856", "fusion_lon": 0.0, "lat": 38.906449333333335, "is_reserved": 0, "type": "electric_scooter", "bike_id": "e12becc1f9e24dcfb30b86ccbe060856", "is_disabled": 0, "rental_uris": {"android": "https://dc.lft.to/lastmile_qr_scan", "ios": "https://dc.lft.to/lastmile_qr_scan"}, "lon": -77.04881433333334, "fusion_lat": 0.0}, {"name": "fc146d5a2890dd9929653cd8edb0c5f0", "fusion_lon": 0.0, "lat": 38.9181815, "is_reserved": 0, "type": "electric_scooter", "bike_id": "fc146d5a2890dd9929653cd8edb0c5f0", "is_disabled": 0, "rental_uris": {"android": "https://dc.lft.to/lastmile_qr_scan", "ios": "https://dc.lft.to/lastmile_qr_scan"}, "lon": -77.03660516666666, "fusion_lat": 0.0}, {"name": "2007def2cd74fcde1c7846203db6d83a", "fusion_lon": 0.0, "lat": 38.886186, "is_reserved": 0, "type": "electric_scooter", "bike_id": "2007def2cd74fcde1c7846203db6d83a", "is_disabled": 0, "rental_uris": {"android": "https://dc.lft.to/lastmile_qr_scan", "ios": "https://dc.lft.to/lastmile_qr_scan"}, "lon": -77.02169066666667, "fusion_lat": 0.0}, {"name": "ad32771e5f16bf330e8a32475b7e736e", "fusion_lon": 0.0, "lat": 38.908638, "is_reserved": 0, "type": "electric_scooter", "bike_id": "ad32771e5f16bf330e8a32475b7e736e", "is_disabled": 0, "rental_uris": {"android": "https://dc.lft.to/lastmile_qr_scan", "ios": "https://dc.lft.to/lastmile_qr_scan"}, "lon": -76.9994795, "fusion_lat": 0.0}, {"name": "f66698ea8b10d186e4b455ccdfc697ff", "fusion_lon": 0.0, "lat": 38.905530666666664, "is_reserved": 0, "type": "electric_scooter", "bike_id": "f66698ea8b10d186e4b455ccdfc697ff", "is_disabled": 0, "rental_uris": {"android": "https://dc.lft.to/lastmile_qr_scan", "ios": "https://dc.lft.to/lastmile_qr_scan"}, "lon": -77.03443783333333, "fusion_lat": 0.0}, {"name": "546dc8454360c24aefcae0a8ecf7a70a", "fusion_lon": 0.0, "lat": 38.884786, "is_reserved": 0, "type": "electric_scooter", "bike_id": "546dc8454360c24aefcae0a8ecf7a70a", "is_disabled": 0, "rental_uris": {"android": "https://dc.lft.to/lastmile_qr_scan", "ios": "https://dc.lft.to/lastmile_qr_scan"}, "lon": -77.02654566666666, "fusion_lat": 0.0}, {"name": "7b508fc19b104793a54b1b2c8a709829", "fusion_lon": 0.0, "lat": 38.951875, "is_reserved": 0, "type": "electric_scooter", "bike_id": "7b508fc19b104793a54b1b2c8a709829", "is_disabled": 0, "rental_uris": {"android": "https://dc.lft.to/lastmile_qr_scan", "ios": "https://dc.lft.to/lastmile_qr_scan"}, "lon": -77.02613316666667, "fusion_lat": 0.0}, {"name": "813197b2058b61b88f53bfc0630a6ec1", "fusion_lon": 0.0, "lat": 38.9346895, "is_reserved": 0, "type": "electric_scooter", "bike_id": "813197b2058b61b88f53bfc0630a6ec1", "is_disabled": 0, "rental_uris": {"android": "https://dc.lft.to/lastmile_qr_scan", "ios": "https://dc.lft.to/lastmile_qr_scan"}, "lon": -77.03603016666666, "fusion_lat": 0.0}, {"name": "96aa97a14cf41f767aa4ad27566c68b1", "fusion_lon": 0.0, "lat": 38.91264966666667, "is_reserved": 0, "type": "electric_scooter", "bike_id": "96aa97a14cf41f767aa4ad27566c68b1", "is_disabled": 0, "rental_uris": {"android": "https://dc.lft.to/lastmile_qr_scan", "ios": "https://dc.lft.to/lastmile_qr_scan"}, "lon": -77.01847333333333, "fusion_lat": 0.0}, {"name": "0126b78656cab27a76c11e713c2d3c28", "fusion_lon": 0.0, "lat": 38.9147545, "is_reserved": 0, "type": "electric_scooter", "bike_id": "0126b78656cab27a76c11e713c2d3c28", "is_disabled": 0, "rental_uris": {"android": "https://dc.lft.to/lastmile_qr_scan", "ios": "https://dc.lft.to/lastmile_qr_scan"}, "lon": -77.03176283333333, "fusion_lat": 0.0}, {"name": "d61158458665770fdebb81b2ead3e8cb", "fusion_lon": 0.0, "lat": 38.9250105, "is_reserved": 0, "type": "electric_scooter", "bike_id": "d61158458665770fdebb81b2ead3e8cb", "is_disabled": 0, "rental_uris": {"android": "https://dc.lft.to/lastmile_qr_scan", "ios": "https://dc.lft.to/lastmile_qr_scan"}, "lon": -77.02352783333333, "fusion_lat": 0.0}, {"name": "55f099710e0b41906906bc7ef460124b", "fusion_lon": 0.0, "lat": 38.89612733333333, "is_reserved": 0, "type": "electric_scooter", "bike_id": "55f099710e0b41906906bc7ef460124b", "is_disabled": 0, "rental_uris": {"android": "https://dc.lft.to/lastmile_qr_scan", "ios": "https://dc.lft.to/lastmile_qr_scan"}, "lon": -76.981615, "fusion_lat": 0.0}, {"name": "8c527cfff54cbdeaa4edf503781f44ea", "fusion_lon": 0.0, "lat": 38.90326433333333, "is_reserved": 0, "type": "electric_scooter", "bike_id": "8c527cfff54cbdeaa4edf503781f44ea", "is_disabled": 0, "rental_uris": {"android": "https://dc.lft.to/lastmile_qr_scan", "ios": "https://dc.lft.to/lastmile_qr_scan"}, "lon": -77.01101633333333, "fusion_lat": 0.0}, {"name": "deb0df86dacff970ef59c614e1e1b6eb", "fusion_lon": 0.0, "lat": 38.9077295, "is_reserved": 0, "type": "electric_scooter", "bike_id": "deb0df86dacff970ef59c614e1e1b6eb", "is_disabled": 0, "rental_uris": {"android": "https://dc.lft.to/lastmile_qr_scan", "ios": "https://dc.lft.to/lastmile_qr_scan"}, "lon": -77.0382595, "fusion_lat": 0.0}, {"name": "e60157d5996bcbab389c9732a17f9371", "fusion_lon": 0.0, "lat": 38.91621416666667, "is_reserved": 0, "type": "electric_scooter", "bike_id": "e60157d5996bcbab389c9732a17f9371", "is_disabled": 0, "rental_uris": {"android": "https://dc.lft.to/lastmile_qr_scan", "ios": "https://dc.lft.to/lastmile_qr_scan"}, "lon": -77.03985383333334, "fusion_lat": 0.0}, {"name": "3965c1b2957ec367c1f7f83070023097", "fusion_lon": 0.0, "lat": 38.9228045, "is_reserved": 0, "type": "electric_scooter", "bike_id": "3965c1b2957ec367c1f7f83070023097", "is_disabled": 0, "rental_uris": {"android": "https://dc.lft.to/lastmile_qr_scan", "ios": "https://dc.lft.to/lastmile_qr_scan"}, "lon": -77.036607, "fusion_lat": 0.0}, {"name": "a4d7e47b71cdff6fdf65407a96aaeff9", "fusion_lon": 0.0, "lat": 38.92369033333333, "is_reserved": 0, "type": "electric_scooter", "bike_id": "a4d7e47b71cdff6fdf65407a96aaeff9", "is_disabled": 0, "rental_uris": {"android": "https://dc.lft.to/lastmile_qr_scan", "ios": "https://dc.lft.to/lastmile_qr_scan"}, "lon": -77.03053233333333, "fusion_lat": 0.0}, {"name": "c737177cddba07344b3823924608b4c8", "fusion_lon": 0.0, "lat": 38.914545, "is_reserved": 0, "type": "electric_scooter", "bike_id": "c737177cddba07344b3823924608b4c8", "is_disabled": 0, "rental_uris": {"android": "https://dc.lft.to/lastmile_qr_scan", "ios": "https://dc.lft.to/lastmile_qr_scan"}, "lon": -77.07127766666666, "fusion_lat": 0.0}, {"name": "f8a61de5f01bc07a140f0519344e0ff0", "fusion_lon": 0.0, "lat": 38.882691666666666, "is_reserved": 0, "type": "electric_scooter", "bike_id": "f8a61de5f01bc07a140f0519344e0ff0", "is_disabled": 0, "rental_uris": {"android": "https://dc.lft.to/lastmile_qr_scan", "ios": "https://dc.lft.to/lastmile_qr_scan"}, "lon": -76.99250966666666, "fusion_lat": 0.0}, {"name": "0ec01a628e6a25ea5fa3bb23b68088e9", "fusion_lon": 0.0, "lat": 38.90570266666667, "is_reserved": 0, "type": "electric_scooter", "bike_id": "0ec01a628e6a25ea5fa3bb23b68088e9", "is_disabled": 0, "rental_uris": {"android": "https://dc.lft.to/lastmile_qr_scan", "ios": "https://dc.lft.to/lastmile_qr_scan"}, "lon": -77.00289166666667, "fusion_lat": 0.0}, {"name": "9c7f1f42af2409892923d8cfb07cc55b", "fusion_lon": 0.0, "lat": 38.908393, "is_reserved": 0, "type": "electric_scooter", "bike_id": "9c7f1f42af2409892923d8cfb07cc55b", "is_disabled": 0, "rental_uris": {"android": "https://dc.lft.to/lastmile_qr_scan", "ios": "https://dc.lft.to/lastmile_qr_scan"}, "lon": -77.02399533333333, "fusion_lat": 0.0}, {"name": "69ddb7c56377c1b6f919ebe8857448c6", "fusion_lon": 0.0, "lat": 38.90737983333333, "is_reserved": 0, "type": "electric_scooter", "bike_id": "69ddb7c56377c1b6f919ebe8857448c6", "is_disabled": 0, "rental_uris": {"android": "https://dc.lft.to/lastmile_qr_scan", "ios": "https://dc.lft.to/lastmile_qr_scan"}, "lon": -77.04192216666667, "fusion_lat": 0.0}, {"name": "c16c539c5c3dd4d69599eb24e7d34cc4", "fusion_lon": 0.0, "lat": 38.914242333333334, "is_reserved": 0, "type": "electric_scooter", "bike_id": "c16c539c5c3dd4d69599eb24e7d34cc4", "is_disabled": 0, "rental_uris": {"android": "https://dc.lft.to/lastmile_qr_scan", "ios": "https://dc.lft.to/lastmile_qr_scan"}, "lon": -77.04488883333333, "fusion_lat": 0.0}, {"name": "06b28cbae2521446c218c40ceb766879", "fusion_lon": 0.0, "lat": 38.864050666666664, "is_reserved": 0, "type": "electric_scooter", "bike_id": "06b28cbae2521446c218c40ceb766879", "is_disabled": 0, "rental_uris": {"android": "https://dc.lft.to/lastmile_qr_scan", "ios": "https://dc.lft.to/lastmile_qr_scan"}, "lon": -76.9745485, "fusion_lat": 0.0}, {"name": "c4a6964cf02d1e21ae2754c73dd185a6", "fusion_lon": 0.0, "lat": 38.94782883333333, "is_reserved": 0, "type": "electric_bike", "bike_id": "c4a6964cf02d1e21ae2754c73dd185a6", "is_disabled": 0, "rental_uris": {"android": "https://dc.lft.to/lastmile_qr_scan", "ios": "https://dc.lft.to/lastmile_qr_scan"}, "lon": -76.97208566666667, "fusion_lat": 0.0}, {"name": "567a1b0f72c60c3e5863c592f4525c0a", "fusion_lon": 0.0, "lat": 38.88764616666667, "is_reserved": 0, "type": "electric_scooter", "bike_id": "567a1b0f72c60c3e5863c592f4525c0a", "is_disabled": 0, "rental_uris": {"android": "https://dc.lft.to/lastmile_qr_scan", "ios": "https://dc.lft.to/lastmile_qr_scan"}, "lon": -76.95597, "fusion_lat": 0.0}, {"name": "43defa41bf3c936f5df306b43c807a1f", "fusion_lon": 0.0, "lat": 38.905546, "is_reserved": 0, "type": "electric_scooter", "bike_id": "43defa41bf3c936f5df306b43c807a1f", "is_disabled": 0, "rental_uris": {"android": "https://dc.lft.to/lastmile_qr_scan", "ios": "https://dc.lft.to/lastmile_qr_scan"}, "lon": -77.04468366666667, "fusion_lat": 0.0}, {"name": "51fbec6984f44f223ac93d18589efd44", "fusion_lon": 0.0, "lat": 38.87006566666667, "is_reserved": 0, "type": "electric_bike", "bike_id": "51fbec6984f44f223ac93d18589efd44", "is_disabled": 0, "rental_uris": {"android": "https://dc.lft.to/lastmile_qr_scan", "ios": "https://dc.lft.to/lastmile_qr_scan"}, "lon": -77.2297165, "fusion_lat": 0.0}, {"name": "ac7f86b235e03d763d2c2f03d9da8d2b", "fusion_lon": 0.0, "lat": 38.90287433333334, "is_reserved": 0, "type": "electric_scooter", "bike_id": "ac7f86b235e03d763d2c2f03d9da8d2b", "is_disabled": 0, "rental_uris": {"android": "https://dc.lft.to/lastmile_qr_scan", "ios": "https://dc.lft.to/lastmile_qr_scan"}, "lon": -77.01788966666666, "fusion_lat": 0.0}, {"name": "d3ee3456991d79c85bb1f89e89377e90", "fusion_lon": 0.0, "lat": 38.935235666666664, "is_reserved": 0, "type": "electric_scooter", "bike_id": "d3ee3456991d79c85bb1f89e89377e90", "is_disabled": 0, "rental_uris": {"android": "https://dc.lft.to/lastmile_qr_scan", "ios": "https://dc.lft.to/lastmile_qr_scan"}, "lon": -77.03260666666667, "fusion_lat": 0.0}, {"name": "56c1264338785ac0cfb71c7a7e6b17ee", "fusion_lon": 0.0, "lat": 38.905494, "is_reserved": 0, "type": "electric_scooter", "bike_id": "56c1264338785ac0cfb71c7a7e6b17ee", "is_disabled": 0, "rental_uris": {"android": "https://dc.lft.to/lastmile_qr_scan", "ios": "https://dc.lft.to/lastmile_qr_scan"}, "lon": -77.0465525, "fusion_lat": 0.0}, {"name": "f0e63d15bf5d44f1d104e78960a8651b", "fusion_lon": 0.0, "lat": 38.922315833333336, "is_reserved": 0, "type": "electric_scooter", "bike_id": "f0e63d15bf5d44f1d104e78960a8651b", "is_disabled": 0, "rental_uris": {"android": "https://dc.lft.to/lastmile_qr_scan", "ios": "https://dc.lft.to/lastmile_qr_scan"}, "lon": -77.02332033333333, "fusion_lat": 0.0}, {"name": "470165f8a70505b5483b23a4b145a782", "fusion_lon": 0.0, "lat": 39.02437183333333, "is_reserved": 0, "type": "electric_bike", "bike_id": "470165f8a70505b5483b23a4b145a782", "is_disabled": 0, "rental_uris": {"android": "https://dc.lft.to/lastmile_qr_scan", "ios": "https://dc.lft.to/lastmile_qr_scan"}, "lon": -77.13099716666666, "fusion_lat": 0.0}, {"name": "668792298f1f1d78123b50a25dfc1dd3", "fusion_lon": 0.0, "lat": 38.92006666666666, "is_reserved": 0, "type": "electric_scooter", "bike_id": "668792298f1f1d78123b50a25dfc1dd3", "is_disabled": 0, "rental_uris": {"android": "https://dc.lft.to/lastmile_qr_scan", "ios": "https://dc.lft.to/lastmile_qr_scan"}, "lon": -77.03214783333334, "fusion_lat": 0.0}, {"name": "66bde6c2c49df61f60c7cac2f1aad8c6", "fusion_lon": 0.0, "lat": 38.91710966666667, "is_reserved": 0, "type": "electric_scooter", "bike_id": "66bde6c2c49df61f60c7cac2f1aad8c6", "is_disabled": 0, "rental_uris": {"android": "https://dc.lft.to/lastmile_qr_scan", "ios": "https://dc.lft.to/lastmile_qr_scan"}, "lon": -77.03473733333334, "fusion_lat": 0.0}, {"name": "80be3dc364a70a056cebcda0b0e6e178", "fusion_lon": 0.0, "lat": 38.87927083333334, "is_reserved": 0, "type": "electric_scooter", "bike_id": "80be3dc364a70a056cebcda0b0e6e178", "is_disabled": 0, "rental_uris": {"android": "https://dc.lft.to/lastmile_qr_scan", "ios": "https://dc.lft.to/lastmile_qr_scan"}, "lon": -77.0040585, "fusion_lat": 0.0}, {"name": "6409951e0e2d82772b89e5a4912584df", "fusion_lon": 0.0, "lat": 38.9110515, "is_reserved": 0, "type": "electric_scooter", "bike_id": "6409951e0e2d82772b89e5a4912584df", "is_disabled": 0, "rental_uris": {"android": "https://dc.lft.to/lastmile_qr_scan", "ios": "https://dc.lft.to/lastmile_qr_scan"}, "lon": -77.01152166666667, "fusion_lat": 0.0}, {"name": "4ca0bfbaaf3a86678be249ee9cf2ef59", "fusion_lon": 0.0, "lat": 38.912741, "is_reserved": 0, "type": "electric_scooter", "bike_id": "4ca0bfbaaf3a86678be249ee9cf2ef59", "is_disabled": 0, "rental_uris": {"android": "https://dc.lft.to/lastmile_qr_scan", "ios": "https://dc.lft.to/lastmile_qr_scan"}, "lon": -77.02692333333333, "fusion_lat": 0.0}, {"name": "5edce67e63b6bae629dc5620022cee93", "fusion_lon": 0.0, "lat": 38.888228, "is_reserved": 0, "type": "electric_scooter", "bike_id": "5edce67e63b6bae629dc5620022cee93", "is_disabled": 0, "rental_uris": {"android": "https://dc.lft.to/lastmile_qr_scan", "ios": "https://dc.lft.to/lastmile_qr_scan"}, "lon": -76.95099566666667, "fusion_lat": 0.0}, {"name": "df966afe469a77af4ec3c5d3886dabde", "fusion_lon": 0.0, "lat": 38.90876333333333, "is_reserved": 0, "type": "electric_bike", "bike_id": "df966afe469a77af4ec3c5d3886dabde", "is_disabled": 0, "rental_uris": {"android": "https://dc.lft.to/lastmile_qr_scan", "ios": "https://dc.lft.to/lastmile_qr_scan"}, "lon": -76.9914245, "fusion_lat": 0.0}, {"name": "3250be6f0876f51e5b75f4ca5667fca9", "fusion_lon": 0.0, "lat": 38.92450383333333, "is_reserved": 0, "type": "electric_scooter", "bike_id": "3250be6f0876f51e5b75f4ca5667fca9", "is_disabled": 0, "rental_uris": {"android": "https://dc.lft.to/lastmile_qr_scan", "ios": "https://dc.lft.to/lastmile_qr_scan"}, "lon": -77.04111966666666, "fusion_lat": 0.0}, {"name": "c74ed21fd2e305626a52279c2dc52334", "fusion_lon": 0.0, "lat": 38.87205133333333, "is_reserved": 0, "type": "electric_scooter", "bike_id": "c74ed21fd2e305626a52279c2dc52334", "is_disabled": 0, "rental_uris": {"android": "https://dc.lft.to/lastmile_qr_scan", "ios": "https://dc.lft.to/lastmile_qr_scan"}, "lon": -77.01633416666667, "fusion_lat": 0.0}, {"name": "6adc25a879adb8db697a5c83ae7603b5", "fusion_lon": 0.0, "lat": 38.89988816666666, "is_reserved": 0, "type": "electric_scooter", "bike_id": "6adc25a879adb8db697a5c83ae7603b5", "is_disabled": 0, "rental_uris": {"android": "https://dc.lft.to/lastmile_qr_scan", "ios": "https://dc.lft.to/lastmile_qr_scan"}, "lon": -77.0067645, "fusion_lat": 0.0}, {"name": "25070e95396b2ae1f99503f92c7af04f", "fusion_lon": 0.0, "lat": 38.91912083333333, "is_reserved": 0, "type": "electric_scooter", "bike_id": "25070e95396b2ae1f99503f92c7af04f", "is_disabled": 0, "rental_uris": {"android": "https://dc.lft.to/lastmile_qr_scan", "ios": "https://dc.lft.to/lastmile_qr_scan"}, "lon": -77.02615733333333, "fusion_lat": 0.0}, {"name": "f5e72822f79662165dfb0ad5610e8a2e", "fusion_lon": 0.0, "lat": 38.901548166666664, "is_reserved": 0, "type": "electric_scooter", "bike_id": "f5e72822f79662165dfb0ad5610e8a2e", "is_disabled": 0, "rental_uris": {"android": "https://dc.lft.to/lastmile_qr_scan", "ios": "https://dc.lft.to/lastmile_qr_scan"}, "lon": -77.02389433333333, "fusion_lat": 0.0}, {"name": "4ee094f3377f4d42d0d395c5f86109bb", "fusion_lon": 0.0, "lat": 38.9027315, "is_reserved": 0, "type": "electric_scooter", "bike_id": "4ee094f3377f4d42d0d395c5f86109bb", "is_disabled": 0, "rental_uris": {"android": "https://dc.lft.to/lastmile_qr_scan", "ios": "https://dc.lft.to/lastmile_qr_scan"}, "lon": -77.01768083333333, "fusion_lat": 0.0}, {"name": "4d233b8d2e2b5520dda851a5789963d9", "fusion_lon": 0.0, "lat": 38.920914833333335, "is_reserved": 0, "type": "electric_scooter", "bike_id": "4d233b8d2e2b5520dda851a5789963d9", "is_disabled": 0, "rental_uris": {"android": "https://dc.lft.to/lastmile_qr_scan", "ios": "https://dc.lft.to/lastmile_qr_scan"}, "lon": -77.024221, "fusion_lat": 0.0}, {"name": "ded5ca834fc788e4576c239b261dedf0", "fusion_lon": 0.0, "lat": 38.923858833333334, "is_reserved": 0, "type": "electric_scooter", "bike_id": "ded5ca834fc788e4576c239b261dedf0", "is_disabled": 0, "rental_uris": {"android": "https://dc.lft.to/lastmile_qr_scan", "ios": "https://dc.lft.to/lastmile_qr_scan"}, "lon": -77.03639583333333, "fusion_lat": 0.0}, {"name": "91486c4e26ba2204e4d04c972e3ad5ad", "fusion_lon": 0.0, "lat": 38.9083345, "is_reserved": 0, "type": "electric_bike", "bike_id": "91486c4e26ba2204e4d04c972e3ad5ad", "is_disabled": 0, "rental_uris": {"android": "https://dc.lft.to/lastmile_qr_scan", "ios": "https://dc.lft.to/lastmile_qr_scan"}, "lon": -76.93308783333333, "fusion_lat": 0.0}, {"name": "f406aed6c0f82cd24c1664606e6eaafc", "fusion_lon": 0.0, "lat": 38.94036066666666, "is_reserved": 0, "type": "electric_scooter", "bike_id": "f406aed6c0f82cd24c1664606e6eaafc", "is_disabled": 0, "rental_uris": {"android": "https://dc.lft.to/lastmile_qr_scan", "ios": "https://dc.lft.to/lastmile_qr_scan"}, "lon": -77.0290525, "fusion_lat": 0.0}, {"name": "dea08556b70d60a9b03816e1949be741", "fusion_lon": 0.0, "lat": 38.91065833333333, "is_reserved": 0, "type": "electric_scooter", "bike_id": "dea08556b70d60a9b03816e1949be741", "is_disabled": 0, "rental_uris": {"android": "https://dc.lft.to/lastmile_qr_scan", "ios": "https://dc.lft.to/lastmile_qr_scan"}, "lon": -77.0383555, "fusion_lat": 0.0}, {"name": "6cf589cfc1d5b71eb5754f20959c40c4", "fusion_lon": 0.0, "lat": 38.88659233333333, "is_reserved": 0, "type": "electric_scooter", "bike_id": "6cf589cfc1d5b71eb5754f20959c40c4", "is_disabled": 0, "rental_uris": {"android": "https://dc.lft.to/lastmile_qr_scan", "ios": "https://dc.lft.to/lastmile_qr_scan"}, "lon": -76.99988883333333, "fusion_lat": 0.0}, {"name": "e63abb9cb8071929aedaaf725caf8692", "fusion_lon": 0.0, "lat": 38.907875, "is_reserved": 0, "type": "electric_scooter", "bike_id": "e63abb9cb8071929aedaaf725caf8692", "is_disabled": 0, "rental_uris": {"android": "https://dc.lft.to/lastmile_qr_scan", "ios": "https://dc.lft.to/lastmile_qr_scan"}, "lon": -77.03863283333334, "fusion_lat": 0.0}, {"name": "8197aaa48bc92004ae3a9c97489b0d77", "fusion_lon": 0.0, "lat": 38.92455666666667, "is_reserved": 0, "type": "electric_scooter", "bike_id": "8197aaa48bc92004ae3a9c97489b0d77", "is_disabled": 0, "rental_uris": {"android": "https://dc.lft.to/lastmile_qr_scan", "ios": "https://dc.lft.to/lastmile_qr_scan"}, "lon": -77.0270985, "fusion_lat": 0.0}, {"name": "b502db3074ded74c3104ca24d623281a", "fusion_lon": 0.0, "lat": 38.948288833333336, "is_reserved": 0, "type": "electric_bike", "bike_id": "b502db3074ded74c3104ca24d623281a", "is_disabled": 0, "rental_uris": {"android": "https://dc.lft.to/lastmile_qr_scan", "ios": "https://dc.lft.to/lastmile_qr_scan"}, "lon": -77.03376633333333, "fusion_lat": 0.0}, {"name": "8e6f486b65d2285dc9fa18f5101d95ac", "fusion_lon": 0.0, "lat": 38.87547516666667, "is_reserved": 0, "type": "electric_scooter", "bike_id": "8e6f486b65d2285dc9fa18f5101d95ac", "is_disabled": 0, "rental_uris": {"android": "https://dc.lft.to/lastmile_qr_scan", "ios": "https://dc.lft.to/lastmile_qr_scan"}, "lon": -77.00559483333333, "fusion_lat": 0.0}, {"name": "a5f2e466ebedcecbb42cf0fb7f3fe0d7", "fusion_lon": 0.0, "lat": 38.903694, "is_reserved": 0, "type": "electric_scooter", "bike_id": "a5f2e466ebedcecbb42cf0fb7f3fe0d7", "is_disabled": 0, "rental_uris": {"android": "https://dc.lft.to/lastmile_qr_scan", "ios": "https://dc.lft.to/lastmile_qr_scan"}, "lon": -77.03652133333334, "fusion_lat": 0.0}, {"name": "7933b2ae6f0352a921a12135d3ce68c2", "fusion_lon": 0.0, "lat": 38.884009, "is_reserved": 0, "type": "electric_scooter", "bike_id": "7933b2ae6f0352a921a12135d3ce68c2", "is_disabled": 0, "rental_uris": {"android": "https://dc.lft.to/lastmile_qr_scan", "ios": "https://dc.lft.to/lastmile_qr_scan"}, "lon": -76.95391983333333, "fusion_lat": 0.0}, {"name": "729df3012111106c724e5627bbad78b6", "fusion_lon": 0.0, "lat": 38.929651666666665, "is_reserved": 0, "type": "electric_scooter", "bike_id": "729df3012111106c724e5627bbad78b6", "is_disabled": 0, "rental_uris": {"android": "https://dc.lft.to/lastmile_qr_scan", "ios": "https://dc.lft.to/lastmile_qr_scan"}, "lon": -77.02816766666666, "fusion_lat": 0.0}, {"name": "81151a98e9c394bf986360b43eb324cc", "fusion_lon": 0.0, "lat": 38.90310983333333, "is_reserved": 0, "type": "electric_scooter", "bike_id": "81151a98e9c394bf986360b43eb324cc", "is_disabled": 0, "rental_uris": {"android": "https://dc.lft.to/lastmile_qr_scan", "ios": "https://dc.lft.to/lastmile_qr_scan"}, "lon": -77.01788816666667, "fusion_lat": 0.0}, {"name": "0c219d6cdf0d1b6c82f1822c38dd2fc1", "fusion_lon": 0.0, "lat": 38.929230833333335, "is_reserved": 0, "type": "electric_scooter", "bike_id": "0c219d6cdf0d1b6c82f1822c38dd2fc1", "is_disabled": 0, "rental_uris": {"android": "https://dc.lft.to/lastmile_qr_scan", "ios": "https://dc.lft.to/lastmile_qr_scan"}, "lon": -77.032624, "fusion_lat": 0.0}, {"name": "60a5050fc3fd160077d0f76858e4faad", "fusion_lon": 0.0, "lat": 38.90553533333333, "is_reserved": 0, "type": "electric_scooter", "bike_id": "60a5050fc3fd160077d0f76858e4faad", "is_disabled": 0, "rental_uris": {"android": "https://dc.lft.to/lastmile_qr_scan", "ios": "https://dc.lft.to/lastmile_qr_scan"}, "lon": -77.023803, "fusion_lat": 0.0}, {"name": "32f516e2bdee1925a460034ebfe8a405", "fusion_lon": 0.0, "lat": 38.909003166666665, "is_reserved": 0, "type": "electric_scooter", "bike_id": "32f516e2bdee1925a460034ebfe8a405", "is_disabled": 0, "rental_uris": {"android": "https://dc.lft.to/lastmile_qr_scan", "ios": "https://dc.lft.to/lastmile_qr_scan"}, "lon": -76.99854, "fusion_lat": 0.0}, {"name": "9b50f29ba4f1d7b0c0e972a7628fdcc3", "fusion_lon": 0.0, "lat": 38.87571833333333, "is_reserved": 0, "type": "electric_scooter", "bike_id": "9b50f29ba4f1d7b0c0e972a7628fdcc3", "is_disabled": 0, "rental_uris": {"android": "https://dc.lft.to/lastmile_qr_scan", "ios": "https://dc.lft.to/lastmile_qr_scan"}, "lon": -77.00573533333333, "fusion_lat": 0.0}, {"name": "08e7025b2ab8252e5bce552c00bec29f", "fusion_lon": 0.0, "lat": 38.919337, "is_reserved": 0, "type": "electric_scooter", "bike_id": "08e7025b2ab8252e5bce552c00bec29f", "is_disabled": 0, "rental_uris": {"android": "https://dc.lft.to/lastmile_qr_scan", "ios": "https://dc.lft.to/lastmile_qr_scan"}, "lon": -77.024297, "fusion_lat": 0.0}, {"name": "3c0ef4dcfec5bef794fa3fea7f753de7", "fusion_lon": 0.0, "lat": 38.91686516666667, "is_reserved": 0, "type": "electric_scooter", "bike_id": "3c0ef4dcfec5bef794fa3fea7f753de7", "is_disabled": 0, "rental_uris": {"android": "https://dc.lft.to/lastmile_qr_scan", "ios": "https://dc.lft.to/lastmile_qr_scan"}, "lon": -77.0314995, "fusion_lat": 0.0}, {"name": "6e86fdab476fb8182b865d883c7a9615", "fusion_lon": 0.0, "lat": 38.9058565, "is_reserved": 0, "type": "electric_scooter", "bike_id": "6e86fdab476fb8182b865d883c7a9615", "is_disabled": 0, "rental_uris": {"android": "https://dc.lft.to/lastmile_qr_scan", "ios": "https://dc.lft.to/lastmile_qr_scan"}, "lon": -77.022024, "fusion_lat": 0.0}, {"name": "dc544f72ee54e86c76dc73da8fb79797", "fusion_lon": 0.0, "lat": 38.936708, "is_reserved": 0, "type": "electric_scooter", "bike_id": "dc544f72ee54e86c76dc73da8fb79797", "is_disabled": 0, "rental_uris": {"android": "https://dc.lft.to/lastmile_qr_scan", "ios": "https://dc.lft.to/lastmile_qr_scan"}, "lon": -77.0241805, "fusion_lat": 0.0}, {"name": "57b34d1fde249eee35a8609899e4d622", "fusion_lon": 0.0, "lat": 38.87298066666666, "is_reserved": 0, "type": "electric_bike", "bike_id": "57b34d1fde249eee35a8609899e4d622", "is_disabled": 0, "rental_uris": {"android": "https://dc.lft.to/lastmile_qr_scan", "ios": "https://dc.lft.to/lastmile_qr_scan"}, "lon": -77.13929633333333, "fusion_lat": 0.0}, {"name": "2d58c22236f8c128fdf62fa27d9b1b03", "fusion_lon": 0.0, "lat": 38.902432, "is_reserved": 0, "type": "electric_scooter", "bike_id": "2d58c22236f8c128fdf62fa27d9b1b03", "is_disabled": 0, "rental_uris": {"android": "https://dc.lft.to/lastmile_qr_scan", "ios": "https://dc.lft.to/lastmile_qr_scan"}, "lon": -77.03976716666666, "fusion_lat": 0.0}, {"name": "a725d68b9dc57a355ed5408a93f04456", "fusion_lon": 0.0, "lat": 38.9127365, "is_reserved": 0, "type": "electric_scooter", "bike_id": "a725d68b9dc57a355ed5408a93f04456", "is_disabled": 0, "rental_uris": {"android": "https://dc.lft.to/lastmile_qr_scan", "ios": "https://dc.lft.to/lastmile_qr_scan"}, "lon": -77.0269215, "fusion_lat": 0.0}, {"name": "0e7ce480cb20e0b4f13b5b6baf5da711", "fusion_lon": 0.0, "lat": 38.917716, "is_reserved": 0, "type": "electric_scooter", "bike_id": "0e7ce480cb20e0b4f13b5b6baf5da711", "is_disabled": 0, "rental_uris": {"android": "https://dc.lft.to/lastmile_qr_scan", "ios": "https://dc.lft.to/lastmile_qr_scan"}, "lon": -77.036421, "fusion_lat": 0.0}, {"name": "9845f189feab7726386d82adfff2d878", "fusion_lon": 0.0, "lat": 38.91085016666667, "is_reserved": 0, "type": "electric_scooter", "bike_id": "9845f189feab7726386d82adfff2d878", "is_disabled": 0, "rental_uris": {"android": "https://dc.lft.to/lastmile_qr_scan", "ios": "https://dc.lft.to/lastmile_qr_scan"}, "lon": -77.04478466666667, "fusion_lat": 0.0}, {"name": "743d8d23c042bc9f38db6a0cc3daaaff", "fusion_lon": 0.0, "lat": 38.94433766666667, "is_reserved": 0, "type": "electric_scooter", "bike_id": "743d8d23c042bc9f38db6a0cc3daaaff", "is_disabled": 0, "rental_uris": {"android": "https://dc.lft.to/lastmile_qr_scan", "ios": "https://dc.lft.to/lastmile_qr_scan"}, "lon": -77.06352266666667, "fusion_lat": 0.0}, {"name": "ae054372cc39b572cbc71607542f36d6", "fusion_lon": 0.0, "lat": 38.89724966666667, "is_reserved": 0, "type": "electric_scooter", "bike_id": "ae054372cc39b572cbc71607542f36d6", "is_disabled": 0, "rental_uris": {"android": "https://dc.lft.to/lastmile_qr_scan", "ios": "https://dc.lft.to/lastmile_qr_scan"}, "lon": -77.0440285, "fusion_lat": 0.0}, {"name": "ad1b673e8b534353e314c37b0924ba28", "fusion_lon": 0.0, "lat": 38.936189, "is_reserved": 0, "type": "electric_scooter", "bike_id": "ad1b673e8b534353e314c37b0924ba28", "is_disabled": 0, "rental_uris": {"android": "https://dc.lft.to/lastmile_qr_scan", "ios": "https://dc.lft.to/lastmile_qr_scan"}, "lon": -77.06758783333333, "fusion_lat": 0.0}, {"name": "6068a74786b744a80331a7a25d75242c", "fusion_lon": 0.0, "lat": 38.91733883333333, "is_reserved": 0, "type": "electric_scooter", "bike_id": "6068a74786b744a80331a7a25d75242c", "is_disabled": 0, "rental_uris": {"android": "https://dc.lft.to/lastmile_qr_scan", "ios": "https://dc.lft.to/lastmile_qr_scan"}, "lon": -77.0345775, "fusion_lat": 0.0}, {"name": "9edaa59e7bb33a6d2be677e799f2ac7f", "fusion_lon": 0.0, "lat": 38.9003845, "is_reserved": 0, "type": "electric_scooter", "bike_id": "9edaa59e7bb33a6d2be677e799f2ac7f", "is_disabled": 0, "rental_uris": {"android": "https://dc.lft.to/lastmile_qr_scan", "ios": "https://dc.lft.to/lastmile_qr_scan"}, "lon": -77.00196766666667, "fusion_lat": 0.0}, {"name": "cbdaa392a0cad264a2219862d90dd5aa", "fusion_lon": 0.0, "lat": 38.8922345, "is_reserved": 0, "type": "electric_scooter", "bike_id": "cbdaa392a0cad264a2219862d90dd5aa", "is_disabled": 0, "rental_uris": {"android": "https://dc.lft.to/lastmile_qr_scan", "ios": "https://dc.lft.to/lastmile_qr_scan"}, "lon": -77.04802833333333, "fusion_lat": 0.0}, {"name": "a43df322284554acc8de95afd0d608bd", "fusion_lon": 0.0, "lat": 38.91606, "is_reserved": 0, "type": "electric_scooter", "bike_id": "a43df322284554acc8de95afd0d608bd", "is_disabled": 0, "rental_uris": {"android": "https://dc.lft.to/lastmile_qr_scan", "ios": "https://dc.lft.to/lastmile_qr_scan"}, "lon": -77.0006325, "fusion_lat": 0.0}, {"name": "7892d26049077f964dcec392f106752f", "fusion_lon": 0.0, "lat": 38.94284583333334, "is_reserved": 0, "type": "electric_bike", "bike_id": "7892d26049077f964dcec392f106752f", "is_disabled": 0, "rental_uris": {"android": "https://dc.lft.to/lastmile_qr_scan", "ios": "https://dc.lft.to/lastmile_qr_scan"}, "lon": -76.98786916666667, "fusion_lat": 0.0}, {"name": "9905a240a23a13dce3e24c3549c5e0da", "fusion_lon": 0.0, "lat": 38.882401, "is_reserved": 0, "type": "electric_scooter", "bike_id": "9905a240a23a13dce3e24c3549c5e0da", "is_disabled": 0, "rental_uris": {"android": "https://dc.lft.to/lastmile_qr_scan", "ios": "https://dc.lft.to/lastmile_qr_scan"}, "lon": -77.00853533333333, "fusion_lat": 0.0}, {"name": "dc3f3be7f42b96a84dc460953ffab3a5", "fusion_lon": 0.0, "lat": 38.923155333333334, "is_reserved": 0, "type": "electric_scooter", "bike_id": "dc3f3be7f42b96a84dc460953ffab3a5", "is_disabled": 0, "rental_uris": {"android": "https://dc.lft.to/lastmile_qr_scan", "ios": "https://dc.lft.to/lastmile_qr_scan"}, "lon": -77.04174183333333, "fusion_lat": 0.0}, {"name": "518c1447b87673de8c101474f1aafad8", "fusion_lon": 0.0, "lat": 38.91776, "is_reserved": 0, "type": "electric_scooter", "bike_id": "518c1447b87673de8c101474f1aafad8", "is_disabled": 0, "rental_uris": {"android": "https://dc.lft.to/lastmile_qr_scan", "ios": "https://dc.lft.to/lastmile_qr_scan"}, "lon": -77.01789283333333, "fusion_lat": 0.0},