{"data": {"bikes": [{"bike_id": "ffc262d244f4cb4c8dfcc2d321e6a6ed", "type": "electric_scooter", "is_disabled": 0, "lat": 38.90908916666667, "rental_uris": {"ios": "https://dc.lft.to/lastmile_qr_scan", "android": "https://dc.lft.to/lastmile_qr_scan"}, "is_reserved": 0, "fusion_lon": 0.0, "fusion_lat": 0.0, "lon": -77.02712333333334, "name": "ffc262d244f4cb4c8dfcc2d321e6a6ed"}, {"bike_id": "913dcbcc4504c6890915a756a14d684e", "type": "electric_scooter", "is_disabled": 0, "lat": 38.9339135, "rental_uris": {"ios": "https://dc.lft.to/lastmile_qr_scan", "android": "https://dc.lft.to/lastmile_qr_scan"}, "is_reserved": 0, "fusion_lon": 0.0, "fusion_lat": 0.0, "lon": -77.0321575, "name": "913dcbcc4504c6890915a756a14d684e"}, {"bike_id": "6ea000c3e18e9ff2a449609be18289fe", "type": "electric_bike", "is_disabled": 0, "lat": 38.8393425, "rental_uris": {"ios": "https://dc.lft.to/lastmile_qr_scan", "android": "https://dc.lft.to/lastmile_qr_scan"}, "is_reserved": 0, "fusion_lon": 0.0, "fusion_lat": 0.0, "lon": -77.07902916666667, "name": "6ea000c3e18e9ff2a449609be18289fe"}, {"bike_id": "69101d1eb4d8ada36c909b2205a153cf", "type": "electric_scooter", "is_disabled": 0, "lat": 38.89748766666666, "rental_uris": {"ios": "https://dc.lft.to/lastmile_qr_scan", "android": "https://dc.lft.to/lastmile_qr_scan"}, "is_reserved": 0, "fusion_lon": 0.0, "fusion_lat": 0.0, "lon": -77.02183816666667, "name": "69101d1eb4d8ada36c909b2205a153cf"}, {"bike_id": "d0f292551311b2a94cf7eae442715ae0", "type": "electric_scooter", "is_disabled": 0, "lat": 38.919917166666664, "rental_uris": {"ios": "https://dc.lft.to/lastmile_qr_scan", "android": "https://dc.lft.to/lastmile_qr_scan"}, "is_reserved": 0, "fusion_lon": 0.0, "fusion_lat": 0.0, "lon": -77.03247983333333, "name": "d0f292551311b2a94cf7eae442715ae0"}, {"bike_id": "181ab7a5d484e722c44653da4055fa69", "type": "electric_scooter", "is_disabled": 0, "lat": 38.884291166666664, "rental_uris": {"ios": "https://dc.lft.to/lastmile_qr_scan", "android": "https://dc.lft.to/lastmile_qr_scan"}, "is_reserved": 0, "fusion_lon": 0.0, "fusion_lat": 0.0, "lon": -76.9575005, "name": "181ab7a5d484e722c44653da4055fa69"}, {"bike_id": "0179afda36289a99cca45e04250789ea", "type": "electric_scooter", "is_disabled": 0, "lat": 38.905494833333336, "rental_uris": {"ios": "https://dc.lft.to/lastmile_qr_scan", "android": "https://dc.lft.to/lastmile_qr_scan"}, "is_reserved": 0, "fusion_lon": 0.0, "fusion_lat": 0.0, "lon": -76.99620916666667, "name": "0179afda36289a99cca45e04250789ea"}, {"bike_id": "b8973e1b555d3262ec2fb3bdb4b9f17e", "type": "electric_scooter", "is_disabled": 0, "lat": 38.9067005, "rental_uris": {"ios": "https://dc.lft.to/lastmile_qr_scan", "android": "https://dc.lft.to/lastmile_qr_scan"}, "is_reserved": 0, "fusion_lon": 0.0, "fusion_lat": 0.0, "lon": -77.03448316666666, "name": "b8973e1b555d3262ec2fb3bdb4b9f17e"}, {"bike_id": "0d18a600afee3c7cd9cde5a691a3c7d7", "type": "electric_bike", "is_disabled": 0, "lat": 38.811645666666664, "rental_uris": {"ios": "https://dc.lft.to/lastmile_qr_scan", "android": "https://dc.lft.to/lastmile_qr_scan"}, "is_reserved": 0, "fusion_lon": 0.0, "fusion_lat": 0.0, "lon": -77.06957416666667, "name": "0d18a600afee3c7cd9cde5a691a3c7d7"}, {"bike_id": "1f0565d16e0ba1ff6636753d8d15f556", "type": "electric_scooter", "is_disabled": 0, "lat": 38.876894666666665, "rental_uris": {"ios": "https://dc.lft.to/lastmile_qr_scan", "android": "https://dc.lft.to/lastmile_qr_scan"}, "is_reserved": 0, "fusion_lon": 0.0, "fusion_lat": 0.0, "lon": -77.01758166666667, "name": "1f0565d16e0ba1ff6636753d8d15f556"}, {"bike_id": "36bd322f88d5e80268a6810afc0ec396", "type": "electric_bike", "is_disabled": 0, "lat": 38.9508825, "rental_uris": {"ios": "https://dc.lft.to/lastmile_qr_scan", "android": "https://dc.lft.to/lastmile_qr_scan"}, "is_reserved": 0, "fusion_lon": 0.0, "fusion_lat": 0.0, "lon": -76.99792166666667, "name": "36bd322f88d5e80268a6810afc0ec396"}, {"bike_id": "ed1a10874724c759b5374d72f483564d", "type": "electric_bike", "is_disabled": 0, "lat": 38.80443783333333, "rental_uris": {"ios": "https://dc.lft.to/lastmile_qr_scan", "android": "https://dc.lft.to/lastmile_qr_scan"}, "is_reserved": 0, "fusion_lon": 0.0, "fusion_lat": 0.0, "lon": -77.05392283333333, "name": "ed1a10874724c759b5374d72f483564d"}, {"bike_id": "859cdba6e7c4f85858179b0dfc3f4c35", "type": "electric_scooter", "is_disabled": 0, "lat": 38.905253333333334, "rental_uris": {"ios": "https://dc.lft.to/lastmile_qr_scan", "android": "https://dc.lft.to/lastmile_qr_scan"}, "is_reserved": 0, "fusion_lon": 0.0, "fusion_lat": 0.0, "lon": -77.048705, "name": "859cdba6e7c4f85858179b0dfc3f4c35"}, {"bike_id": "379694a98051f8f6ef805454937fb189", "type": "electric_bike", "is_disabled": 0, "lat": 38.953328, "rental_uris": {"ios": "https://dc.lft.to/lastmile_qr_scan", "android": "https://dc.lft.to/lastmile_qr_scan"}, "is_reserved": 0, "fusion_lon": 0.0, "fusion_lat": 0.0, "lon": -76.98256766666667, "name": "379694a98051f8f6ef805454937fb189"}, {"bike_id": "32aebff0d5bc988718855a1daed411d4", "type": "electric_scooter", "is_disabled": 0, "lat": 38.918681, "rental_uris": {"ios": "https://dc.lft.to/lastmile_qr_scan", "android": "https://dc.lft.to/lastmile_qr_scan"}, "is_reserved": 0, "fusion_lon": 0.0, "fusion_lat": 0.0, "lon": -77.02301433333334, "name": "32aebff0d5bc988718855a1daed411d4"}, {"bike_id": "822b8485b6a10d2382a3f8567b03525b", "type": "electric_scooter", "is_disabled": 0, "lat": 38.91968, "rental_uris": {"ios": "https://dc.lft.to/lastmile_qr_scan", "android": "https://dc.lft.to/lastmile_qr_scan"}, "is_reserved": 0, "fusion_lon": 0.0, "fusion_lat": 0.0, "lon": -77.01212183333334, "name": "822b8485b6a10d2382a3f8567b03525b"}, {"bike_id": "88155dd7421fcb6c7bcd6a3f47685884", "type": "electric_scooter", "is_disabled": 0, "lat": 38.919757, "rental_uris": {"ios": "https://dc.lft.to/lastmile_qr_scan", "android": "https://dc.lft.to/lastmile_qr_scan"}, "is_reserved": 0, "fusion_lon": 0.0, "fusion_lat": 0.0, "lon": -77.04216716666667, "name": "88155dd7421fcb6c7bcd6a3f47685884"}, {"bike_id": "30cca6f92c2bf17e17ea25aee01f527a", "type": "electric_scooter", "is_disabled": 0, "lat": 38.905232, "rental_uris": {"ios": "https://dc.lft.to/lastmile_qr_scan", "android": "https://dc.lft.to/lastmile_qr_scan"}, "is_reserved": 0, "fusion_lon": 0.0, "fusion_lat": 0.0, "lon": -77.05002183333333, "name": "30cca6f92c2bf17e17ea25aee01f527a"}, {"bike_id": "b6d912a9e00bca2a395dbed98056b129", "type": "electric_scooter", "is_disabled": 0, "lat": 38.911853666666666, "rental_uris": {"ios": "https://dc.lft.to/lastmile_qr_scan", "android": "https://dc.lft.to/lastmile_qr_scan"}, "is_reserved": 0, "fusion_lon": 0.0, "fusion_lat": 0.0, "lon": -77.03965516666666, "name": "b6d912a9e00bca2a395dbed98056b129"}, {"bike_id": "b982d9f768e91c825de86fef54af9a53", "type": "electric_scooter", "is_disabled": 0, "lat": 38.93460016666667, "rental_uris": {"ios": "https://dc.lft.to/lastmile_qr_scan", "android": "https://dc.lft.to/lastmile_qr_scan"}, "is_reserved": 0, "fusion_lon": 0.0, "fusion_lat": 0.0, "lon": -77.02769816666667, "name": "b982d9f768e91c825de86fef54af9a53"}, {"bike_id": "0edc240642ccc85d3b26a7bdd1a5cae5", "type": "electric_scooter", "is_disabled": 0, "lat": 38.927687, "rental_uris": {"ios": "https://dc.lft.to/lastmile_qr_scan", "android": "https://dc.lft.to/lastmile_qr_scan"}, "is_reserved": 0, "fusion_lon": 0.0, "fusion_lat": 0.0, "lon": -76.960965, "name": "0edc240642ccc85d3b26a7bdd1a5cae5"}, {"bike_id": "f36cde5be1763ac4c7a5f48b5995cf98", "type": "electric_scooter", "is_disabled": 0, "lat": 38.921502333333336, "rental_uris": {"ios": "https://dc.lft.to/lastmile_qr_scan", "android": "https://dc.lft.to/lastmile_qr_scan"}, "is_reserved": 0, "fusion_lon": 0.0, "fusion_lat": 0.0, "lon": -77.035183, "name": "f36cde5be1763ac4c7a5f48b5995cf98"}, {"bike_id": "8033b600c4751fc8a022fec6981d6270", "type": "electric_scooter", "is_disabled": 0, "lat": 38.91543016666667, "rental_uris": {"ios": "https://dc.lft.to/lastmile_qr_scan", "android": "https://dc.lft.to/lastmile_qr_scan"}, "is_reserved": 0, "fusion_lon": 0.0, "fusion_lat": 0.0, "lon": -77.01222633333333, "name": "8033b600c4751fc8a022fec6981d6270"}, {"bike_id": "2986275293e3b9e0047efeb0dc6da5e9", "type": "electric_scooter", "is_disabled": 0, "lat": 38.873674, "rental_uris": {"ios": "https://dc.lft.to/lastmile_qr_scan", "android": "https://dc.lft.to/lastmile_qr_scan"}, "is_reserved": 0, "fusion_lon": 0.0, "fusion_lat": 0.0, "lon": -77.001139, "name": "2986275293e3b9e0047efeb0dc6da5e9"}, {"bike_id": "d7b84e2b89c10b950dfe4dc8fc9ea4d7", "type": "electric_scooter", "is_disabled": 0, "lat": 38.9399185, "rental_uris": {"ios": "https://dc.lft.to/lastmile_qr_scan", "android": "https://dc.lft.to/lastmile_qr_scan"}, "is_reserved": 0, "fusion_lon": 0.0, "fusion_lat": 0.0, "lon": -77.01749716666667, "name": "d7b84e2b89c10b950dfe4dc8fc9ea4d7"}, {"bike_id": "086670becceb3fedde93914da78a54cd", "type": "electric_scooter", "is_disabled": 0, "lat": 38.86734166666667, "rental_uris": {"ios": "https://dc.lft.to/lastmile_qr_scan", "android": "https://dc.lft.to/lastmile_qr_scan"}, "is_reserved": 0, "fusion_lon": 0.0, "fusion_lat": 0.0, "lon": -76.97858883333333, "name": "086670becceb3fedde93914da78a54cd"}, {"bike_id": "978a2eed676e2abd4a80f52db2e7cd1e", "type": "electric_scooter", "is_disabled": 0, "lat": 38.90735683333333, "rental_uris": {"ios": "https://dc.lft.to/lastmile_qr_scan", "android": "https://dc.lft.to/lastmile_qr_scan"}, "is_reserved": 0, "fusion_lon": 0.0, "fusion_lat": 0.0, "lon": -77.023851, "name": "978a2eed676e2abd4a80f52db2e7cd1e"}, {"bike_id": "4e8152452ea660f653005878527ff124", "type": "electric_scooter", "is_disabled": 0, "lat": 38.923158666666666, "rental_uris": {"ios": "https://dc.lft.to/lastmile_qr_scan", "android": "https://dc.lft.to/lastmile_qr_scan"}, "is_reserved": 0, "fusion_lon": 0.0, "fusion_lat": 0.0, "lon": -77.0380685, "name": "4e8152452ea660f653005878527ff124"}, {"bike_id": "01b5182fabd7f149764bff36d1c0e445", "type": "electric_scooter", "is_disabled": 0, "lat": 38.90937316666667, "rental_uris": {"ios": "https://dc.lft.to/lastmile_qr_scan", "android": "https://dc.lft.to/lastmile_qr_scan"}, "is_reserved": 0, "fusion_lon": 0.0, "fusion_lat": 0.0, "lon": -77.05556883333334, "name": "01b5182fabd7f149764bff36d1c0e445"}, {"bike_id": "32e9eeb5ef89811a9ba31af1e1ae2447", "type": "electric_scooter", "is_disabled": 0, "lat": 38.921478, "rental_uris": {"ios": "https://dc.lft.to/lastmile_qr_scan", "android": "https://dc.lft.to/lastmile_qr_scan"}, "is_reserved": 0, "fusion_lon": 0.0, "fusion_lat": 0.0, "lon": -77.03659183333333, "name": "32e9eeb5ef89811a9ba31af1e1ae2447"}, {"bike_id": "3bd0b6d8cbb23e39cf20c1fa76d93caa", "type": "electric_scooter", "is_disabled": 0, "lat": 38.92595333333333, "rental_uris": {"ios": "https://dc.lft.to/lastmile_qr_scan", "android": "https://dc.lft.to/lastmile_qr_scan"}, "is_reserved": 0, "fusion_lon": 0.0, "fusion_lat": 0.0, "lon": -77.02383733333333, "name": "3bd0b6d8cbb23e39cf20c1fa76d93caa"}, {"bike_id": "8a182bb234c82156070343a4b6ddb7c2", "type": "electric_scooter", "is_disabled": 0, "lat": 38.914193833333336, "rental_uris": {"ios": "https://dc.lft.to/lastmile_qr_scan", "android": "https://dc.lft.to/lastmile_qr_scan"}, "is_reserved": 0, "fusion_lon": 0.0, "fusion_lat": 0.0, "lon": -77.01803816666667, "name": "8a182bb234c82156070343a4b6ddb7c2"}, {"bike_id": "8316405a432e294db3c7a7a46a938287", "type": "electric_scooter", "is_disabled": 0, "lat": 38.903028, "rental_uris": {"ios": "https://dc.lft.to/lastmile_qr_scan", "android": "https://dc.lft.to/lastmile_qr_scan"}, "is_reserved": 0, "fusion_lon": 0.0, "fusion_lat": 0.0, "lon": -77.03362266666667, "name": "8316405a432e294db3c7a7a46a938287"}, {"bike_id": "be688fd2214f767eba5b7cb090b8ad37", "type": "electric_scooter", "is_disabled": 0, "lat": 38.91682483333334, "rental_uris": {"ios": "https://dc.lft.to/lastmile_qr_scan", "android": "https://dc.lft.to/lastmile_qr_scan"}, "is_reserved": 0, "fusion_lon": 0.0, "fusion_lat": 0.0, "lon": -77.02308166666667, "name": "be688fd2214f767eba5b7cb090b8ad37"}, {"bike_id": "0c96a9f9d0bcd50e66df35386ed4d8a5", "type": "electric_scooter", "is_disabled": 0, "lat": 38.92014016666667, "rental_uris": {"ios": "https://dc.lft.to/lastmile_qr_scan", "android": "https://dc.lft.to/lastmile_qr_scan"}, "is_reserved": 0, "fusion_lon": 0.0, "fusion_lat": 0.0, "lon": -77.03121266666666, "name": "0c96a9f9d0bcd50e66df35386ed4d8a5"}, {"bike_id": "452e6361093eeabf77383b8e32fd462c", "type": "electric_scooter", "is_disabled": 0, "lat": 38.91233116666667, "rental_uris": {"ios": "https://dc.lft.to/lastmile_qr_scan", "android": "https://dc.lft.to/lastmile_qr_scan"}, "is_reserved": 0, "fusion_lon": 0.0, "fusion_lat": 0.0, "lon": -77.044905, "name": "452e6361093eeabf77383b8e32fd462c"}, {"bike_id": "468480877c6202fecfc0c5997b150a40", "type": "electric_scooter", "is_disabled": 0, "lat": 38.8934595, "rental_uris": {"ios": "https://dc.lft.to/lastmile_qr_scan", "android": "https://dc.lft.to/lastmile_qr_scan"}, "is_reserved": 0, "fusion_lon": 0.0, "fusion_lat": 0.0, "lon": -77.031581, "name": "468480877c6202fecfc0c5997b150a40"}, {"bike_id": "0dcf44c495e7937c0ec25af751dde161", "type": "electric_scooter", "is_disabled": 0, "lat": 38.92217933333333, "rental_uris": {"ios": "https://dc.lft.to/lastmile_qr_scan", "android": "https://dc.lft.to/lastmile_qr_scan"}, "is_reserved": 0, "fusion_lon": 0.0, "fusion_lat": 0.0, "lon": -77.043339, "name": "0dcf44c495e7937c0ec25af751dde161"}, {"bike_id": "926a9202c3bcd10a8888171d11fb8ede", "type": "electric_scooter", "is_disabled": 0, "lat": 38.90480216666667, "rental_uris": {"ios": "https://dc.lft.to/lastmile_qr_scan", "android": "https://dc.lft.to/lastmile_qr_scan"}, "is_reserved": 0, "fusion_lon": 0.0, "fusion_lat": 0.0, "lon": -76.996262, "name": "926a9202c3bcd10a8888171d11fb8ede"}, {"bike_id": "0fc6ada5b169dfefab00539636608bca", "type": "electric_bike", "is_disabled": 0, "lat": 38.845270666666664, "rental_uris": {"ios": "https://dc.lft.to/lastmile_qr_scan", "android": "https://dc.lft.to/lastmile_qr_scan"}, "is_reserved": 0, "fusion_lon": 0.0, "fusion_lat": 0.0, "lon": -76.97397116666667, "name": "0fc6ada5b169dfefab00539636608bca"}, {"bike_id": "b2d989098b5ac7dc8527069fd3597ae6", "type": "electric_scooter", "is_disabled": 0, "lat": 38.947864, "rental_uris": {"ios": "https://dc.lft.to/lastmile_qr_scan", "android": "https://dc.lft.to/lastmile_qr_scan"}, "is_reserved": 0, "fusion_lon": 0.0, "fusion_lat": 0.0, "lon": -77.02135166666666, "name": "b2d989098b5ac7dc8527069fd3597ae6"}, {"bike_id": "f300ea7a2e60af18bad5d1eeaefa7043", "type": "electric_scooter", "is_disabled": 0, "lat": 38.892228333333335, "rental_uris": {"ios": "https://dc.lft.to/lastmile_qr_scan", "android": "https://dc.lft.to/lastmile_qr_scan"}, "is_reserved": 0, "fusion_lon": 0.0, "fusion_lat": 0.0, "lon": -77.04009533333333, "name": "f300ea7a2e60af18bad5d1eeaefa7043"}, {"bike_id": "e565faa2de27887eee037bc6ab66347f", "type": "electric_scooter", "is_disabled": 0, "lat": 38.9178195, "rental_uris": {"ios": "https://dc.lft.to/lastmile_qr_scan", "android": "https://dc.lft.to/lastmile_qr_scan"}, "is_reserved": 0, "fusion_lon": 0.0, "fusion_lat": 0.0, "lon": -77.02306816666666, "name": "e565faa2de27887eee037bc6ab66347f"}, {"bike_id": "bb704cb9ee854a3997c949a3af6d6cf6", "type": "electric_scooter", "is_disabled": 0, "lat": 38.92520716666667, "rental_uris": {"ios": "https://dc.lft.to/lastmile_qr_scan", "android": "https://dc.lft.to/lastmile_qr_scan"}, "is_reserved": 0, "fusion_lon": 0.0, "fusion_lat": 0.0, "lon": -77.07635966666666, "name": "bb704cb9ee854a3997c949a3af6d6cf6"}, {"bike_id": "df9f22b77a0b903c465ae8b74ce0316e", "type": "electric_bike", "is_disabled": 0, "lat": 38.836087, "rental_uris": {"ios": "https://dc.lft.to/lastmile_qr_scan", "android": "https://dc.lft.to/lastmile_qr_scan"}, "is_reserved": 0, "fusion_lon": 0.0, "fusion_lat": 0.0, "lon": -77.00382516666667, "name": "df9f22b77a0b903c465ae8b74ce0316e"}, {"bike_id": "80297e0265015679434768a1555d2d53", "type": "electric_scooter", "is_disabled": 0, "lat": 38.926071, "rental_uris": {"ios": "https://dc.lft.to/lastmile_qr_scan", "android": "https://dc.lft.to/lastmile_qr_scan"}, "is_reserved": 0, "fusion_lon": 0.0, "fusion_lat": 0.0, "lon": -77.05705283333333, "name": "80297e0265015679434768a1555d2d53"}, {"bike_id": "97ed12f12364fdee9b64649ef6224572", "type": "electric_scooter", "is_disabled": 0, "lat": 38.91422983333333, "rental_uris": {"ios": "https://dc.lft.to/lastmile_qr_scan", "android": "https://dc.lft.to/lastmile_qr_scan"}, "is_reserved": 0, "fusion_lon": 0.0, "fusion_lat": 0.0, "lon": -77.0198525, "name": "97ed12f12364fdee9b64649ef6224572"}, {"bike_id": "d346e2f74af4f8e16536a0b35e01c2c6", "type": "electric_scooter", "is_disabled": 0, "lat": 38.906701166666664, "rental_uris": {"ios": "https://dc.lft.to/lastmile_qr_scan", "android": "https://dc.lft.to/lastmile_qr_scan"}, "is_reserved": 0, "fusion_lon": 0.0, "fusion_lat": 0.0, "lon": -77.0271015, "name": "d346e2f74af4f8e16536a0b35e01c2c6"}, {"bike_id": "038a92c18afe9ff0284884d7b04e98e5", "type": "electric_scooter", "is_disabled": 0, "lat": 38.8998645, "rental_uris": {"ios": "https://dc.lft.to/lastmile_qr_scan", "android": "https://dc.lft.to/lastmile_qr_scan"}, "is_reserved": 0, "fusion_lon": 0.0, "fusion_lat": 0.0, "lon": -77.019777, "name": "038a92c18afe9ff0284884d7b04e98e5"}, {"bike_id": "1e4930b1e281d8be1fb20daf7d711a0d", "type": "electric_scooter", "is_disabled": 0, "lat": 38.91691516666667, "rental_uris": {"ios": "https://dc.lft.to/lastmile_qr_scan", "android": "https://dc.lft.to/lastmile_qr_scan"}, "is_reserved": 0, "fusion_lon": 0.0, "fusion_lat": 0.0, "lon": -77.0410725, "name": "1e4930b1e281d8be1fb20daf7d711a0d"}, {"bike_id": "413dadbe121be5a7ec6a40e3f820efbd", "type": "electric_scooter", "is_disabled": 0, "lat": 38.90260966666666, "rental_uris": {"ios": "https://dc.lft.to/lastmile_qr_scan", "android": "https://dc.lft.to/lastmile_qr_scan"}, "is_reserved": 0, "fusion_lon": 0.0, "fusion_lat": 0.0, "lon": -77.01774116666667, "name": "413dadbe121be5a7ec6a40e3f820efbd"}, {"bike_id": "58323fdebe598216b7baadc39b63ccc3", "type": "electric_scooter", "is_disabled": 0, "lat": 38.9224145, "rental_uris": {"ios": "https://dc.lft.to/lastmile_qr_scan", "android": "https://dc.lft.to/lastmile_qr_scan"}, "is_reserved": 0, "fusion_lon": 0.0, "fusion_lat": 0.0, "lon": -77.02977383333334, "name": "58323fdebe598216b7baadc39b63ccc3"}, {"bike_id": "0f76027b48e96aca833c845d1d92719c", "type": "electric_scooter", "is_disabled": 0, "lat": 38.902486, "rental_uris": {"ios": "https://dc.lft.to/lastmile_qr_scan", "android": "https://dc.lft.to/lastmile_qr_scan"}, "is_reserved": 0, "fusion_lon": 0.0, "fusion_lat": 0.0, "lon": -77.02659016666667, "name": "0f76027b48e96aca833c845d1d92719c"}, {"bike_id": "129a37d6fe03137eeeada1b943d41431", "type": "electric_scooter", "is_disabled": 0, "lat": 38.94289833333333, "rental_uris": {"ios": "https://dc.lft.to/lastmile_qr_scan", "android": "https://dc.lft.to/lastmile_qr_scan"}, "is_reserved": 0, "fusion_lon": 0.0, "fusion_lat": 0.0, "lon": -77.021745, "name": "129a37d6fe03137eeeada1b943d41431"}, {"bike_id": "3962fc2536c99f97567e9970539a506f", "type": "electric_scooter", "is_disabled": 0, "lat": 38.920098833333334, "rental_uris": {"ios": "https://dc.lft.to/lastmile_qr_scan", "android": "https://dc.lft.to/lastmile_qr_scan"}, "is_reserved": 0, "fusion_lon": 0.0, "fusion_lat": 0.0, "lon": -77.032127, "name": "3962fc2536c99f97567e9970539a506f"}, {"bike_id": "1d498d133db6b87fc221d54b28532294", "type": "electric_scooter", "is_disabled": 0, "lat": 38.93347766666667, "rental_uris": {"ios": "https://dc.lft.to/lastmile_qr_scan", "android": "https://dc.lft.to/lastmile_qr_scan"}, "is_reserved": 0, "fusion_lon": 0.0, "fusion_lat": 0.0, "lon": -77.03980033333333, "name": "1d498d133db6b87fc221d54b28532294"}, {"bike_id": "c1b6d3454141c719d34454c6968105cd", "type": "electric_scooter", "is_disabled": 0, "lat": 38.922292666666664, "rental_uris": {"ios": "https://dc.lft.to/lastmile_qr_scan", "android": "https://dc.lft.to/lastmile_qr_scan"}, "is_reserved": 0, "fusion_lon": 0.0, "fusion_lat": 0.0, "lon": -77.04269, "name": "c1b6d3454141c719d34454c6968105cd"}, {"bike_id": "03d0842e6d7d2d892932902f6443b0b0", "type": "electric_bike", "is_disabled": 0, "lat": 38.913045333333336, "rental_uris": {"ios": "https://dc.lft.to/lastmile_qr_scan", "android": "https://dc.lft.to/lastmile_qr_scan"}, "is_reserved": 0, "fusion_lon": 0.0, "fusion_lat": 0.0, "lon": -77.00639983333333, "name": "03d0842e6d7d2d892932902f6443b0b0"}, {"bike_id": "f170dcbf5333c99366bb46202aa9a8a1", "type": "electric_scooter", "is_disabled": 0, "lat": 38.912643, "rental_uris": {"ios": "https://dc.lft.to/lastmile_qr_scan", "android": "https://dc.lft.to/lastmile_qr_scan"}, "is_reserved": 0, "fusion_lon": 0.0, "fusion_lat": 0.0, "lon": -77.03143333333334, "name": "f170dcbf5333c99366bb46202aa9a8a1"}, {"bike_id": "fce6e684966207b0fbc9c164517ced1f", "type": "electric_scooter", "is_disabled": 0, "lat": 38.87375183333333, "rental_uris": {"ios": "https://dc.lft.to/lastmile_qr_scan", "android": "https://dc.lft.to/lastmile_qr_scan"}, "is_reserved": 0, "fusion_lon": 0.0, "fusion_lat": 0.0, "lon": -77.00113716666667, "name": "fce6e684966207b0fbc9c164517ced1f"}, {"bike_id": "2b2f4dcfa5b6dc2cc57ec8acfc2e3207", "type": "electric_scooter", "is_disabled": 0, "lat": 38.897396, "rental_uris": {"ios": "https://dc.lft.to/lastmile_qr_scan", "android": "https://dc.lft.to/lastmile_qr_scan"}, "is_reserved": 0, "fusion_lon": 0.0, "fusion_lat": 0.0, "lon": -77.02460566666667, "name": "2b2f4dcfa5b6dc2cc57ec8acfc2e3207"}, {"bike_id": "4337d3029bb1a533457b113ffb35e78e", "type": "electric_scooter", "is_disabled": 0, "lat": 38.91902233333333, "rental_uris": {"ios": "https://dc.lft.to/lastmile_qr_scan", "android": "https://dc.lft.to/lastmile_qr_scan"}, "is_reserved": 0, "fusion_lon": 0.0, "fusion_lat": 0.0, "lon": -77.01686283333333, "name": "4337d3029bb1a533457b113ffb35e78e"}, {"bike_id": "b4d8143b40c5d1acf27108511b36dbb2", "type": "electric_scooter", "is_disabled": 0, "lat": 38.921126666666666, "rental_uris": {"ios": "https://dc.lft.to/lastmile_qr_scan", "android": "https://dc.lft.to/lastmile_qr_scan"}, "is_reserved": 0, "fusion_lon": 0.0, "fusion_lat": 0.0, "lon": -77.02348083333334, "name": "b4d8143b40c5d1acf27108511b36dbb2"}, {"bike_id": "55467f50ade5e0712d5bab4e5dd9d3ee", "type": "electric_scooter", "is_disabled": 0, "lat": 38.8929045, "rental_uris": {"ios": "https://dc.lft.to/lastmile_qr_scan", "android": "https://dc.lft.to/lastmile_qr_scan"}, "is_reserved": 0, "fusion_lon": 0.0, "fusion_lat": 0.0, "lon": -77.044841, "name": "55467f50ade5e0712d5bab4e5dd9d3ee"}, {"bike_id": "d9614fe18071b725df37d71cd327aa5b", "type": "electric_scooter", "is_disabled": 0, "lat": 38.945948, "rental_uris": {"ios": "https://dc.lft.to/lastmile_qr_scan", "android": "https://dc.lft.to/lastmile_qr_scan"}, "is_reserved": 0, "fusion_lon": 0.0, "fusion_lat": 0.0, "lon": -77.029832, "name": "d9614fe18071b725df37d71cd327aa5b"}, {"bike_id": "5e840dfd1ccef0be2ecda5dd6fb8d84e", "type": "electric_bike", "is_disabled": 0, "lat": 38.898472, "rental_uris": {"ios": "https://dc.lft.to/lastmile_qr_scan", "android": "https://dc.lft.to/lastmile_qr_scan"}, "is_reserved": 0, "fusion_lon": 0.0, "fusion_lat": 0.0, "lon": -77.05300016666666, "name": "5e840dfd1ccef0be2ecda5dd6fb8d84e"}, {"bike_id": "7dd244552bc74874bd5bf4eb49ca2e33", "type": "electric_scooter", "is_disabled": 0, "lat": 38.911972, "rental_uris": {"ios": "https://dc.lft.to/lastmile_qr_scan", "android": "https://dc.lft.to/lastmile_qr_scan"}, "is_reserved": 0, "fusion_lon": 0.0, "fusion_lat": 0.0, "lon": -77.03218866666667, "name": "7dd244552bc74874bd5bf4eb49ca2e33"}, {"bike_id": "4a649a96cf4ec5effcb9ac6f4da54aff", "type": "electric_scooter", "is_disabled": 0, "lat": 38.93087833333333, "rental_uris": {"ios": "https://dc.lft.to/lastmile_qr_scan", "android": "https://dc.lft.to/lastmile_qr_scan"}, "is_reserved": 0, "fusion_lon": 0.0, "fusion_lat": 0.0, "lon": -77.03741016666666, "name": "4a649a96cf4ec5effcb9ac6f4da54aff"}, {"bike_id": "1a1a3beb8e6bd2ec35a599e81912cf2f", "type": "electric_scooter", "is_disabled": 0, "lat": 38.899718166666666, "rental_uris": {"ios": "https://dc.lft.to/lastmile_qr_scan", "android": "https://dc.lft.to/lastmile_qr_scan"}, "is_reserved": 0, "fusion_lon": 0.0, "fusion_lat": 0.0, "lon": -77.016143, "name": "1a1a3beb8e6bd2ec35a599e81912cf2f"}, {"bike_id": "d82f35b38504d0bcc705497af911475a", "type": "electric_bike", "is_disabled": 0, "lat": 39.024354333333335, "rental_uris": {"ios": "https://dc.lft.to/lastmile_qr_scan", "android": "https://dc.lft.to/lastmile_qr_scan"}, "is_reserved": 0, "fusion_lon": 0.0, "fusion_lat": 0.0, "lon": -77.131012, "name": "d82f35b38504d0bcc705497af911475a"}, {"bike_id": "0bf0c4f5d5718b28b88c1d9cd744e94e", "type": "electric_scooter", "is_disabled": 0, "lat": 38.86709166666667, "rental_uris": {"ios": "https://dc.lft.to/lastmile_qr_scan", "android": "https://dc.lft.to/lastmile_qr_scan"}, "is_reserved": 0, "fusion_lon": 0.0, "fusion_lat": 0.0, "lon": -76.98712866666666, "name": "0bf0c4f5d5718b28b88c1d9cd744e94e"}, {"bike_id": "22fc1ad19281b8702fbef85cc3ca6d4f", "type": "electric_scooter", "is_disabled": 0, "lat": 38.90883133333333, "rental_uris": {"ios": "https://dc.lft.to/lastmile_qr_scan", "android": "https://dc.lft.to/lastmile_qr_scan"}, "is_reserved": 0, "fusion_lon": 0.0, "fusion_lat": 0.0, "lon": -77.02349583333333, "name": "22fc1ad19281b8702fbef85cc3ca6d4f"}, {"bike_id": "db27bb839dbf471d2c66080f59dee13f", "type": "electric_scooter", "is_disabled": 0, "lat": 38.9009385, "rental_uris": {"ios": "https://dc.lft.to/lastmile_qr_scan", "android": "https://dc.lft.to/lastmile_qr_scan"}, "is_reserved": 0, "fusion_lon": 0.0, "fusion_lat": 0.0, "lon": -77.0193035, "name": "db27bb839dbf471d2c66080f59dee13f"}, {"bike_id": "7d6711b4b9f0d49fd5740c4fd01d89ec", "type": "electric_scooter", "is_disabled": 0, "lat": 38.9345925, "rental_uris": {"ios": "https://dc.lft.to/lastmile_qr_scan", "android": "https://dc.lft.to/lastmile_qr_scan"}, "is_reserved": 0, "fusion_lon": 0.0, "fusion_lat": 0.0, "lon": -76.96441733333333, "name": "7d6711b4b9f0d49fd5740c4fd01d89ec"}, {"bike_id": "af0ae991ce0c6016b0921bc078ce28cf", "type": "electric_scooter", "is_disabled": 0, "lat": 38.91713083333333, "rental_uris": {"ios": "https://dc.lft.to/lastmile_qr_scan", "android": "https://dc.lft.to/lastmile_qr_scan"}, "is_reserved": 0, "fusion_lon": 0.0, "fusion_lat": 0.0, "lon": -77.02875383333334, "name": "af0ae991ce0c6016b0921bc078ce28cf"}, {"bike_id": "502cbbf2bb8ecd65df1d98fa3ce0d044", "type": "electric_scooter", "is_disabled": 0, "lat": 38.915695666666664, "rental_uris": {"ios": "https://dc.lft.to/lastmile_qr_scan", "android": "https://dc.lft.to/lastmile_qr_scan"}, "is_reserved": 0, "fusion_lon": 0.0, "fusion_lat": 0.0, "lon": -77.0364445, "name": "502cbbf2bb8ecd65df1d98fa3ce0d044"}, {"bike_id": "2a355cf661c88d706cd08afb069b56c9", "type": "electric_scooter", "is_disabled": 0, "lat": 38.90256316666667, "rental_uris": {"ios": "https://dc.lft.to/lastmile_qr_scan", "android": "https://dc.lft.to/lastmile_qr_scan"}, "is_reserved": 0, "fusion_lon": 0.0, "fusion_lat": 0.0, "lon": -77.01774666666667, "name": "2a355cf661c88d706cd08afb069b56c9"}, {"bike_id": "f59726e543fa085faa003b7609170a3b", "type": "electric_scooter", "is_disabled": 0, "lat": 38.9125665, "rental_uris": {"ios": "https://dc.lft.to/lastmile_qr_scan", "android": "https://dc.lft.to/lastmile_qr_scan"}, "is_reserved": 0, "fusion_lon": 0.0, "fusion_lat": 0.0, "lon": -77.038303, "name": "f59726e543fa085faa003b7609170a3b"}, {"bike_id": "7488733f7de9b6f02d151ff13d950aeb", "type": "electric_scooter", "is_disabled": 0, "lat": 38.9313805, "rental_uris": {"ios": "https://dc.lft.to/lastmile_qr_scan", "android": "https://dc.lft.to/lastmile_qr_scan"}, "is_reserved": 0, "fusion_lon": 0.0, "fusion_lat": 0.0, "lon": -77.0423735, "name": "7488733f7de9b6f02d151ff13d950aeb"}, {"bike_id": "1acca5ab22ff750436144c4ac0c2459e", "type": "electric_scooter", "is_disabled": 0, "lat": 38.925788833333336, "rental_uris": {"ios": "https://dc.lft.to/lastmile_qr_scan", "android": "https://dc.lft.to/lastmile_qr_scan"}, "is_reserved": 0, "fusion_lon": 0.0, "fusion_lat": 0.0, "lon": -77.0542515, "name": "1acca5ab22ff750436144c4ac0c2459e"}, {"bike_id": "2f24d633cc2f75c568e8fd19c08d3ae1", "type": "electric_bike", "is_disabled": 0, "lat": 38.892057, "rental_uris": {"ios": "https://dc.lft.to/lastmile_qr_scan", "android": "https://dc.lft.to/lastmile_qr_scan"}, "is_reserved": 0, "fusion_lon": 0.0, "fusion_lat": 0.0, "lon": -76.97636966666667, "name": "2f24d633cc2f75c568e8fd19c08d3ae1"}, {"bike_id": "7c9b7f6ee00cd266f2eb52171268d6d4", "type": "electric_bike", "is_disabled": 0, "lat": 38.854232, "rental_uris": {"ios": "https://dc.lft.to/lastmile_qr_scan", "android": "https://dc.lft.to/lastmile_qr_scan"}, "is_reserved": 0, "fusion_lon": 0.0, "fusion_lat": 0.0, "lon": -77.12077183333334, "name": "7c9b7f6ee00cd266f2eb52171268d6d4"}, {"bike_id": "0c4c6af95b274486aedb40dae8289a4b", "type": "electric_scooter", "is_disabled": 0, "lat": 38.904201666666665, "rental_uris": {"ios": "https://dc.lft.to/lastmile_qr_scan", "android": "https://dc.lft.to/lastmile_qr_scan"}, "is_reserved": 0, "fusion_lon": 0.0, "fusion_lat": 0.0, "lon": -76.973773, "name": "0c4c6af95b274486aedb40dae8289a4b"}, {"bike_id": "77a728a599c1ce60827aa77da9a75cea", "type": "electric_scooter", "is_disabled": 0, "lat": 38.91336116666667, "rental_uris": {"ios": "https://dc.lft.to/lastmile_qr_scan", "android": "https://dc.lft.to/lastmile_qr_scan"}, "is_reserved": 0, "fusion_lon": 0.0, "fusion_lat": 0.0, "lon": -77.03991433333333, "name": "77a728a599c1ce60827aa77da9a75cea"}, {"bike_id": "63b22652506362e6c122e6ea33c7bccf", "type": "electric_scooter", "is_disabled": 0, "lat": 38.865694166666664, "rental_uris": {"ios": "https://dc.lft.to/lastmile_qr_scan", "android": "https://dc.lft.to/lastmile_qr_scan"}, "is_reserved": 0, "fusion_lon": 0.0, "fusion_lat": 0.0, "lon": -76.98218933333334, "name": "63b22652506362e6c122e6ea33c7bccf"}, {"bike_id": "381ffdb91ac7913f4c38f23fd97580e5", "type": "electric_scooter", "is_disabled": 0, "lat": 38.92332366666667, "rental_uris": {"ios": "https://dc.lft.to/lastmile_qr_scan", "android": "https://dc.lft.to/lastmile_qr_scan"}, "is_reserved": 0, "fusion_lon": 0.0, "fusion_lat": 0.0, "lon": -77.03615533333334, "name": "381ffdb91ac7913f4c38f23fd97580e5"}, {"bike_id": "f00e823126abbadae4afd7a521af9834", "type": "electric_scooter", "is_disabled": 0, "lat": 38.91789466666667, "rental_uris": {"ios": "https://dc.lft.to/lastmile_qr_scan", "android": "https://dc.lft.to/lastmile_qr_scan"}, "is_reserved": 0, "fusion_lon": 0.0, "fusion_lat": 0.0, "lon": -77.04247266666667, "name": "f00e823126abbadae4afd7a521af9834"}, {"bike_id": "3a034ef68be08f15aba8993ff6dfdea6", "type": "electric_scooter", "is_disabled": 0, "lat": 38.8921825, "rental_uris": {"ios": "https://dc.lft.to/lastmile_qr_scan", "android": "https://dc.lft.to/lastmile_qr_scan"}, "is_reserved": 0, "fusion_lon": 0.0, "fusion_lat": 0.0, "lon": -77.02451133333334, "name": "3a034ef68be08f15aba8993ff6dfdea6"}, {"bike_id": "7ad6dfa21326a4e5b6788229d27714ae", "type": "electric_scooter", "is_disabled": 0, "lat": 38.9028845, "rental_uris": {"ios": "https://dc.lft.to/lastmile_qr_scan", "android": "https://dc.lft.to/lastmile_qr_scan"}, "is_reserved": 0, "fusion_lon": 0.0, "fusion_lat": 0.0, "lon": -77.03334483333333, "name": "7ad6dfa21326a4e5b6788229d27714ae"}, {"bike_id": "bf48cfeec781e2c7f8c27c23350f2e56", "type": "electric_scooter", "is_disabled": 0, "lat": 38.899571, "rental_uris": {"ios": "https://dc.lft.to/lastmile_qr_scan", "android": "https://dc.lft.to/lastmile_qr_scan"}, "is_reserved": 0, "fusion_lon": 0.0, "fusion_lat": 0.0, "lon": -76.97536566666666, "name": "bf48cfeec781e2c7f8c27c23350f2e56"}, {"bike_id": "c5068514599a5d767d265e4b3f1fee76", "type": "electric_scooter", "is_disabled": 0, "lat": 38.924508, "rental_uris": {"ios": "https://dc.lft.to/lastmile_qr_scan", "android": "https://dc.lft.to/lastmile_qr_scan"}, "is_reserved": 0, "fusion_lon": 0.0, "fusion_lat": 0.0, "lon": -77.02413516666667, "name": "c5068514599a5d767d265e4b3f1fee76"}, {"bike_id": "230b4c571f99a1c90b9a8130802993f3", "type": "electric_scooter", "is_disabled": 0, "lat": 38.92651216666667, "rental_uris": {"ios": "https://dc.lft.to/lastmile_qr_scan", "android": "https://dc.lft.to/lastmile_qr_scan"}, "is_reserved": 0, "fusion_lon": 0.0, "fusion_lat": 0.0, "lon": -77.02475333333334, "name": "230b4c571f99a1c90b9a8130802993f3"}, {"bike_id": "c054f7ac2e6a5bebcf7cc5f3f8aaecde", "type": "electric_scooter", "is_disabled": 0, "lat": 38.915688, "rental_uris": {"ios": "https://dc.lft.to/lastmile_qr_scan", "android": "https://dc.lft.to/lastmile_qr_scan"}, "is_reserved": 0, "fusion_lon": 0.0, "fusion_lat": 0.0, "lon": -77.02291383333333, "name": "c054f7ac2e6a5bebcf7cc5f3f8aaecde"}, {"bike_id": "956b3ce82d9b574565060cec567e9d8a", "type": "electric_scooter", "is_disabled": 0, "lat": 38.909705333333335, "rental_uris": {"ios": "https://dc.lft.to/lastmile_qr_scan", "android": "https://dc.lft.to/lastmile_qr_scan"}, "is_reserved": 0, "fusion_lon": 0.0, "fusion_lat": 0.0, "lon": -77.023832, "name": "956b3ce82d9b574565060cec567e9d8a"}, {"bike_id": "e50cb4d053f3281b98a64a60cc1c1fa3", "type": "electric_scooter", "is_disabled": 0, "lat": 38.91936333333334, "rental_uris": {"ios": "https://dc.lft.to/lastmile_qr_scan", "android": "https://dc.lft.to/lastmile_qr_scan"}, "is_reserved": 0, "fusion_lon": 0.0, "fusion_lat": 0.0, "lon": -77.02529233333334, "name": "e50cb4d053f3281b98a64a60cc1c1fa3"}, {"bike_id": "3018e2ab0a946f3f45ee6513993ecb49", "type": "electric_bike", "is_disabled": 0, "lat": 38.846119333333334, "rental_uris": {"ios": "https://dc.lft.to/lastmile_qr_scan", "android": "https://dc.lft.to/lastmile_qr_scan"}, "is_reserved": 0, "fusion_lon": 0.0, "fusion_lat": 0.0, "lon": -76.96910533333333, "name": "3018e2ab0a946f3f45ee6513993ecb49"}, {"bike_id": "a6cf0d0e3ce33568bd27929e12102d17", "type": "electric_scooter", "is_disabled": 0, "lat": 38.901779, "rental_uris": {"ios": "https://dc.lft.to/lastmile_qr_scan", "android": "https://dc.lft.to/lastmile_qr_scan"}, "is_reserved": 0, "fusion_lon": 0.0, "fusion_lat": 0.0, "lon": -76.98453983333333, "name": "a6cf0d0e3ce33568bd27929e12102d17"}, {"bike_id": "7d4cafd45be2645209757b65047ea620", "type": "electric_scooter", "is_disabled": 0, "lat": 38.8973365, "rental_uris": {"ios": "https://dc.lft.to/lastmile_qr_scan", "android": "https://dc.lft.to/lastmile_qr_scan"}, "is_reserved": 0, "fusion_lon": 0.0, "fusion_lat": 0.0, "lon": -77.045402, "name": "7d4cafd45be2645209757b65047ea620"}, {"bike_id": "3c2842f9632bc1b3538930eaad1b1886", "type": "electric_scooter", "is_disabled": 0, "lat": 38.9074085, "rental_uris": {"ios": "https://dc.lft.to/lastmile_qr_scan", "android": "https://dc.lft.to/lastmile_qr_scan"}, "is_reserved": 0, "fusion_lon": 0.0, "fusion_lat": 0.0, "lon": -77.00059366666666, "name": "3c2842f9632bc1b3538930eaad1b1886"}, {"bike_id": "658c9bbf8c51b84382c98c4ac30ec783", "type": "electric_scooter", "is_disabled": 0, "lat": 38.86660966666667, "rental_uris": {"ios": "https://dc.lft.to/lastmile_qr_scan", "android": "https://dc.lft.to/lastmile_qr_scan"}, "is_reserved": 0, "fusion_lon": 0.0, "fusion_lat": 0.0, "lon": -76.98885616666666, "name": "658c9bbf8c51b84382c98c4ac30ec783"}, {"bike_id": "0c317442899ea49584ae4f7f7aad7d48", "type": "electric_scooter", "is_disabled": 0, "lat": 38.9253595, "rental_uris": {"ios": "https://dc.lft.to/lastmile_qr_scan", "android": "https://dc.lft.to/lastmile_qr_scan"}, "is_reserved": 0, "fusion_lon": 0.0, "fusion_lat": 0.0, "lon": -77.033796, "name": "0c317442899ea49584ae4f7f7aad7d48"}, {"bike_id": "a7206a6a7970b08531bdf18cf501c456", "type": "electric_scooter", "is_disabled": 0, "lat": 38.908279666666665, "rental_uris": {"ios": "https://dc.lft.to/lastmile_qr_scan", "android": "https://dc.lft.to/lastmile_qr_scan"}, "is_reserved": 0, "fusion_lon": 0.0, "fusion_lat": 0.0, "lon": -76.996917, "name": "a7206a6a7970b08531bdf18cf501c456"}, {"bike_id": "a132b16243ba2f5e7db371482db0c365", "type": "electric_scooter", "is_disabled": 0, "lat": 38.90307133333334, "rental_uris": {"ios": "https://dc.lft.to/lastmile_qr_scan", "android": "https://dc.lft.to/lastmile_qr_scan"}, "is_reserved": 0, "fusion_lon": 0.0, "fusion_lat": 0.0, "lon": -77.03354033333333, "name": "a132b16243ba2f5e7db371482db0c365"}, {"bike_id": "1d94cd01d9641fcf1ffe3fc798cc2bf7", "type": "electric_scooter", "is_disabled": 0, "lat": 38.90041083333333, "rental_uris": {"ios": "https://dc.lft.to/lastmile_qr_scan", "android": "https://dc.lft.to/lastmile_qr_scan"}, "is_reserved": 0, "fusion_lon": 0.0, "fusion_lat": 0.0, "lon": -77.01171933333333, "name": "1d94cd01d9641fcf1ffe3fc798cc2bf7"}, {"bike_id": "828cd4fe6da14c4f4f389261de5839fc", "type": "electric_scooter", "is_disabled": 0, "lat": 38.90723916666666, "rental_uris": {"ios": "https://dc.lft.to/lastmile_qr_scan", "android": "https://dc.lft.to/lastmile_qr_scan"}, "is_reserved": 0, "fusion_lon": 0.0, "fusion_lat": 0.0, "lon": -77.02523533333333, "name": "828cd4fe6da14c4f4f389261de5839fc"}, {"bike_id": "dd7da6a3297cedd71003c72bc8d3f30d", "type": "electric_scooter", "is_disabled": 0, "lat": 38.97202433333333, "rental_uris": {"ios": "https://dc.lft.to/lastmile_qr_scan", "android": "https://dc.lft.to/lastmile_qr_scan"}, "is_reserved": 0, "fusion_lon": 0.0, "fusion_lat": 0.0, "lon": -77.02674383333333, "name": "dd7da6a3297cedd71003c72bc8d3f30d"}, {"bike_id": "d9a1a5a58fa871aad511592f347b757f", "type": "electric_scooter", "is_disabled": 0, "lat": 38.9336105, "rental_uris": {"ios": "https://dc.lft.to/lastmile_qr_scan", "android": "https://dc.lft.to/lastmile_qr_scan"}, "is_reserved": 0, "fusion_lon": 0.0, "fusion_lat": 0.0, "lon": -77.08856883333333, "name": "d9a1a5a58fa871aad511592f347b757f"}, {"bike_id": "1b7830855a93e5872415ba501a869b75", "type": "electric_scooter", "is_disabled": 0, "lat": 38.86628666666667, "rental_uris": {"ios": "https://dc.lft.to/lastmile_qr_scan", "android": "https://dc.lft.to/lastmile_qr_scan"}, "is_reserved": 0, "fusion_lon": 0.0, "fusion_lat": 0.0, "lon": -76.98715283333334, "name": "1b7830855a93e5872415ba501a869b75"}, {"bike_id": "3a69323cc56bc20f0ebb2b8d511cd182", "type": "electric_scooter", "is_disabled": 0, "lat": 38.89699183333333, "rental_uris": {"ios": "https://dc.lft.to/lastmile_qr_scan", "android": "https://dc.lft.to/lastmile_qr_scan"}, "is_reserved": 0, "fusion_lon": 0.0, "fusion_lat": 0.0, "lon": -77.02309, "name": "3a69323cc56bc20f0ebb2b8d511cd182"}, {"bike_id": "70b33b786be25d067f2bdb04841a816c", "type": "electric_scooter", "is_disabled": 0, "lat": 38.90651283333333, "rental_uris": {"ios": "https://dc.lft.to/lastmile_qr_scan", "android": "https://dc.lft.to/lastmile_qr_scan"}, "is_reserved": 0, "fusion_lon": 0.0, "fusion_lat": 0.0, "lon": -77.04867583333333, "name": "70b33b786be25d067f2bdb04841a816c"}, {"bike_id": "ae2adef1d68bb6dc3030a3353808ea14", "type": "electric_scooter", "is_disabled": 0, "lat": 38.90559583333334, "rental_uris": {"ios": "https://dc.lft.to/lastmile_qr_scan", "android": "https://dc.lft.to/lastmile_qr_scan"}, "is_reserved": 0, "fusion_lon": 0.0, "fusion_lat": 0.0, "lon": -77.00592783333333, "name": "ae2adef1d68bb6dc3030a3353808ea14"}, {"bike_id": "30dec5cec8d0c07aa459df20e97f272b", "type": "electric_scooter", "is_disabled": 0, "lat": 38.92335583333333, "rental_uris": {"ios": "https://dc.lft.to/lastmile_qr_scan", "android": "https://dc.lft.to/lastmile_qr_scan"}, "is_reserved": 0, "fusion_lon": 0.0, "fusion_lat": 0.0, "lon": -77.03517816666667, "name": "30dec5cec8d0c07aa459df20e97f272b"}, {"bike_id": "908e977a2f91b6c57104df1e3683935c", "type": "electric_scooter", "is_disabled": 0, "lat": 38.91330633333333, "rental_uris": {"ios": "https://dc.lft.to/lastmile_qr_scan", "android": "https://dc.lft.to/lastmile_qr_scan"}, "is_reserved": 0, "fusion_lon": 0.0, "fusion_lat": 0.0, "lon": -77.03181733333334, "name": "908e977a2f91b6c57104df1e3683935c"}, {"bike_id": "ac3e811a99b2f7658c2b9f063fe4d297", "type": "electric_scooter", "is_disabled": 0, "lat": 38.887132666666666, "rental_uris": {"ios": "https://dc.lft.to/lastmile_qr_scan", "android": "https://dc.lft.to/lastmile_qr_scan"}, "is_reserved": 0, "fusion_lon": 0.0, "fusion_lat": 0.0, "lon": -77.021812, "name": "ac3e811a99b2f7658c2b9f063fe4d297"}, {"bike_id": "12ed4cf885dc0cca0c4ea046b7d9cba4", "type": "electric_scooter", "is_disabled": 0, "lat": 38.93456233333333, "rental_uris": {"ios": "https://dc.lft.to/lastmile_qr_scan", "android": "https://dc.lft.to/lastmile_qr_scan"}, "is_reserved": 0, "fusion_lon": 0.0, "fusion_lat": 0.0, "lon": -77.03070833333334, "name": "12ed4cf885dc0cca0c4ea046b7d9cba4"}, {"bike_id": "d2783d8c17010afe1aaf1d5a6bc6be09", "type": "electric_scooter", "is_disabled": 0, "lat": 38.8968245, "rental_uris": {"ios": "https://dc.lft.to/lastmile_qr_scan", "android": "https://dc.lft.to/lastmile_qr_scan"}, "is_reserved": 0, "fusion_lon": 0.0, "fusion_lat": 0.0, "lon": -77.02389883333333, "name": "d2783d8c17010afe1aaf1d5a6bc6be09"}, {"bike_id": "14c80fbda8a69e494a81ef1e1c90da9f", "type": "electric_scooter", "is_disabled": 0, "lat": 38.90983883333333, "rental_uris": {"ios": "https://dc.lft.to/lastmile_qr_scan", "android": "https://dc.lft.to/lastmile_qr_scan"}, "is_reserved": 0, "fusion_lon": 0.0, "fusion_lat": 0.0, "lon": -77.03853116666667, "name": "14c80fbda8a69e494a81ef1e1c90da9f"}, {"bike_id": "62427b70ad316ba94672156cdd7eceef", "type": "electric_scooter", "is_disabled": 0, "lat": 38.914217, "rental_uris": {"ios": "https://dc.lft.to/lastmile_qr_scan", "android": "https://dc.lft.to/lastmile_qr_scan"}, "is_reserved": 0, "fusion_lon": 0.0, "fusion_lat": 0.0, "lon": -77.01234183333334, "name": "62427b70ad316ba94672156cdd7eceef"}, {"bike_id": "eee99a041f337054013059f17bdb1546", "type": "electric_scooter", "is_disabled": 0, "lat": 38.91032216666667, "rental_uris": {"ios": "https://dc.lft.to/lastmile_qr_scan", "android": "https://dc.lft.to/lastmile_qr_scan"}, "is_reserved": 0, "fusion_lon": 0.0, "fusion_lat": 0.0, "lon": -77.032089, "name": "eee99a041f337054013059f17bdb1546"}, {"bike_id": "c36ead6d855bb39a7becfe706d079f3b", "type": "electric_scooter", "is_disabled": 0, "lat": 38.887323, "rental_uris": {"ios": "https://dc.lft.to/lastmile_qr_scan", "android": "https://dc.lft.to/lastmile_qr_scan"}, "is_reserved": 0, "fusion_lon": 0.0, "fusion_lat": 0.0, "lon": -77.028369, "name": "c36ead6d855bb39a7becfe706d079f3b"}, {"bike_id": "46f195189ada3bb3d5c6dd240a653d89", "type": "electric_scooter", "is_disabled": 0, "lat": 38.899668166666665, "rental_uris": {"ios": "https://dc.lft.to/lastmile_qr_scan", "android": "https://dc.lft.to/lastmile_qr_scan"}, "is_reserved": 0, "fusion_lon": 0.0, "fusion_lat": 0.0, "lon": -77.01618466666666, "name": "46f195189ada3bb3d5c6dd240a653d89"}, {"bike_id": "52540ccaec92b788154b3cf1fdd08594", "type": "electric_scooter", "is_disabled": 0, "lat": 38.921484, "rental_uris": {"ios": "https://dc.lft.to/lastmile_qr_scan", "android": "https://dc.lft.to/lastmile_qr_scan"}, "is_reserved": 0, "fusion_lon": 0.0, "fusion_lat": 0.0, "lon": -77.03321, "name": "52540ccaec92b788154b3cf1fdd08594"}, {"bike_id": "1e48e4aac96a8f09ebf0c0bb92c14e1a", "type": "electric_scooter", "is_disabled": 0, "lat": 38.9198515, "rental_uris": {"ios": "https://dc.lft.to/lastmile_qr_scan", "android": "https://dc.lft.to/lastmile_qr_scan"}, "is_reserved": 0, "fusion_lon": 0.0, "fusion_lat": 0.0, "lon": -77.023619, "name": "1e48e4aac96a8f09ebf0c0bb92c14e1a"}, {"bike_id": "990549199110e3c3d14540c36e76c123", "type": "electric_scooter", "is_disabled": 0, "lat": 38.91809, "rental_uris": {"ios": "https://dc.lft.to/lastmile_qr_scan", "android": "https://dc.lft.to/lastmile_qr_scan"}, "is_reserved": 0, "fusion_lon": 0.0, "fusion_lat": 0.0, "lon": -77.00934916666667, "name": "990549199110e3c3d14540c36e76c123"}, {"bike_id": "d0150eaa48dec1cab816b0901a06e821", "type": "electric_scooter", "is_disabled": 0, "lat": 38.9060055, "rental_uris": {"ios": "https://dc.lft.to/lastmile_qr_scan", "android": "https://dc.lft.to/lastmile_qr_scan"}, "is_reserved": 0, "fusion_lon": 0.0, "fusion_lat": 0.0, "lon": -77.007484, "name": "d0150eaa48dec1cab816b0901a06e821"}, {"bike_id": "a353784e45df7e302750d20438747114", "type": "electric_scooter", "is_disabled": 0, "lat": 38.90046516666666, "rental_uris": {"ios": "https://dc.lft.to/lastmile_qr_scan", "android": "https://dc.lft.to/lastmile_qr_scan"}, "is_reserved": 0, "fusion_lon": 0.0, "fusion_lat": 0.0, "lon": -76.99153416666667, "name": "a353784e45df7e302750d20438747114"}, {"bike_id": "7b5e29cd0d61206b7e6f9569d0b2af50", "type": "electric_scooter", "is_disabled": 0, "lat": 38.908719833333336, "rental_uris": {"ios": "https://dc.lft.to/lastmile_qr_scan", "android": "https://dc.lft.to/lastmile_qr_scan"}, "is_reserved": 0, "fusion_lon": 0.0, "fusion_lat": 0.0, "lon": -76.99796233333333, "name": "7b5e29cd0d61206b7e6f9569d0b2af50"}, {"bike_id": "351bb2259cacea9a772a20d7ea352006", "type": "electric_scooter", "is_disabled": 0, "lat": 38.89743633333333, "rental_uris": {"ios": "https://dc.lft.to/lastmile_qr_scan", "android": "https://dc.lft.to/lastmile_qr_scan"}, "is_reserved": 0, "fusion_lon": 0.0, "fusion_lat": 0.0, "lon": -77.02710366666666, "name": "351bb2259cacea9a772a20d7ea352006"}, {"bike_id": "1d318ab9b34bf02861a882590d127ee2", "type": "electric_scooter", "is_disabled": 0, "lat": 38.920705, "rental_uris": {"ios": "https://dc.lft.to/lastmile_qr_scan", "android": "https://dc.lft.to/lastmile_qr_scan"}, "is_reserved": 0, "fusion_lon": 0.0, "fusion_lat": 0.0, "lon": -77.02387866666666, "name": "1d318ab9b34bf02861a882590d127ee2"}, {"bike_id": "851767314da41cec88161ccf290d8a31", "type": "electric_scooter", "is_disabled": 0, "lat": 38.83827, "rental_uris": {"ios": "https://dc.lft.to/lastmile_qr_scan", "android": "https://dc.lft.to/lastmile_qr_scan"}, "is_reserved": 0, "fusion_lon": 0.0, "fusion_lat": 0.0, "lon": -77.002703, "name": "851767314da41cec88161ccf290d8a31"}, {"bike_id": "67bdc55b55e72fe2327c67fb67ac4723", "type": "electric_scooter", "is_disabled": 0, "lat": 38.917594, "rental_uris": {"ios": "https://dc.lft.to/lastmile_qr_scan", "android": "https://dc.lft.to/lastmile_qr_scan"}, "is_reserved": 0, "fusion_lon": 0.0, "fusion_lat": 0.0, "lon": -77.02488, "name": "67bdc55b55e72fe2327c67fb67ac4723"}, {"bike_id": "a05bd69f17a9f016b160cb41554554f7", "type": "electric_scooter", "is_disabled": 0, "lat": 38.9166665, "rental_uris": {"ios": "https://dc.lft.to/lastmile_qr_scan", "android": "https://dc.lft.to/lastmile_qr_scan"}, "is_reserved": 0, "fusion_lon": 0.0, "fusion_lat": 0.0, "lon": -77.0385, "name": "a05bd69f17a9f016b160cb41554554f7"}, {"bike_id": "fa695ae07d464351544990e059ea8cf4", "type": "electric_scooter", "is_disabled": 0, "lat": 38.92460833333333, "rental_uris": {"ios": "https://dc.lft.to/lastmile_qr_scan", "android": "https://dc.lft.to/lastmile_qr_scan"}, "is_reserved": 0, "fusion_lon": 0.0, "fusion_lat": 0.0, "lon": -77.02978833333333, "name": "fa695ae07d464351544990e059ea8cf4"}, {"bike_id": "2dfb98fcd4b549e7d4fc5f667f03d1fb", "type": "electric_scooter", "is_disabled": 0, "lat": 38.9024195, "rental_uris": {"ios": "https://dc.lft.to/lastmile_qr_scan", "android": "https://dc.lft.to/lastmile_qr_scan"}, "is_reserved": 0, "fusion_lon": 0.0, "fusion_lat": 0.0, "lon": -77.0021005, "name": "2dfb98fcd4b549e7d4fc5f667f03d1fb"}, {"bike_id": "5cd33db9e2a74110ad9f821befb605a9", "type": "electric_scooter", "is_disabled": 0, "lat": 38.88030533333333, "rental_uris": {"ios": "https://dc.lft.to/lastmile_qr_scan", "android": "https://dc.lft.to/lastmile_qr_scan"}, "is_reserved": 0, "fusion_lon": 0.0, "fusion_lat": 0.0, "lon": -77.0100665, "name": "5cd33db9e2a74110ad9f821befb605a9"}, {"bike_id": "1a413ab5f5bb7f5879cb78e18b3ec086", "type": "electric_scooter", "is_disabled": 0, "lat": 38.90559666666667, "rental_uris": {"ios": "https://dc.lft.to/lastmile_qr_scan", "android": "https://dc.lft.to/lastmile_qr_scan"}, "is_reserved": 0, "fusion_lon": 0.0, "fusion_lat": 0.0, "lon": -77.02721016666666, "name": "1a413ab5f5bb7f5879cb78e18b3ec086"}, {"bike_id": "2e4dc4d61debe3f2b2f94ffa24cf65f9", "type": "electric_bike", "is_disabled": 0, "lat": 38.90864666666667, "rental_uris": {"ios": "https://dc.lft.to/lastmile_qr_scan", "android": "https://dc.lft.to/lastmile_qr_scan"}, "is_reserved": 0, "fusion_lon": 0.0, "fusion_lat": 0.0, "lon": -76.99136516666667, "name": "2e4dc4d61debe3f2b2f94ffa24cf65f9"}, {"bike_id": "b51056213ea7629547e2ee07ba43d892", "type": "electric_scooter", "is_disabled": 0, "lat": 38.900054833333336, "rental_uris": {"ios": "https://dc.lft.to/lastmile_qr_scan", "android": "https://dc.lft.to/lastmile_qr_scan"}, "is_reserved": 0, "fusion_lon": 0.0, "fusion_lat": 0.0, "lon": -77.02297583333333, "name": "b51056213ea7629547e2ee07ba43d892"}, {"bike_id": "f660017c8283819d2ccddd97c392630f", "type": "electric_scooter", "is_disabled": 0, "lat": 38.927243, "rental_uris": {"ios": "https://dc.lft.to/lastmile_qr_scan", "android": "https://dc.lft.to/lastmile_qr_scan"}, "is_reserved": 0, "fusion_lon": 0.0, "fusion_lat": 0.0, "lon": -77.03428266666667, "name": "f660017c8283819d2ccddd97c392630f"}, {"bike_id": "d0d9d0bac56493c8377bbe77cb6b78b1", "type": "electric_scooter", "is_disabled": 0, "lat": 38.9106145, "rental_uris": {"ios": "https://dc.lft.to/lastmile_qr_scan", "android": "https://dc.lft.to/lastmile_qr_scan"}, "is_reserved": 0, "fusion_lon": 0.0, "fusion_lat": 0.0, "lon": -77.0220145, "name": "d0d9d0bac56493c8377bbe77cb6b78b1"}, {"bike_id": "0c1fe1a055e3db3470f844e9f0d79f6a", "type": "electric_scooter", "is_disabled": 0, "lat": 38.91414, "rental_uris": {"ios": "https://dc.lft.to/lastmile_qr_scan", "android": "https://dc.lft.to/lastmile_qr_scan"}, "is_reserved": 0, "fusion_lon": 0.0, "fusion_lat": 0.0, "lon": -77.0322745, "name": "0c1fe1a055e3db3470f844e9f0d79f6a"}, {"bike_id": "aeaac3b70ee74b50c9f827a372285932", "type": "electric_scooter", "is_disabled": 0, "lat": 38.91568633333333, "rental_uris": {"ios": "https://dc.lft.to/lastmile_qr_scan", "android": "https://dc.lft.to/lastmile_qr_scan"}, "is_reserved": 0, "fusion_lon": 0.0, "fusion_lat": 0.0, "lon": -77.033311, "name": "aeaac3b70ee74b50c9f827a372285932"}, {"bike_id": "d596feb08e489085c4e285a3e1ab0d3e", "type": "electric_scooter", "is_disabled": 0, "lat": 38.91381, "rental_uris": {"ios": "https://dc.lft.to/lastmile_qr_scan", "android": "https://dc.lft.to/lastmile_qr_scan"}, "is_reserved": 0, "fusion_lon": 0.0, "fusion_lat": 0.0, "lon": -77.01702183333333, "name": "d596feb08e489085c4e285a3e1ab0d3e"}, {"bike_id": "30803d23169369665f608661f4cb037a", "type": "electric_scooter", "is_disabled": 0, "lat": 38.876496333333336, "rental_uris": {"ios": "https://dc.lft.to/lastmile_qr_scan", "android": "https://dc.lft.to/lastmile_qr_scan"}, "is_reserved": 0, "fusion_lon": 0.0, "fusion_lat": 0.0, "lon": -76.965088, "name": "30803d23169369665f608661f4cb037a"}, {"bike_id": "5c038d573ebdbe066a80ceaa740646a4", "type": "electric_scooter", "is_disabled": 0, "lat": 38.928459, "rental_uris": {"ios": "https://dc.lft.to/lastmile_qr_scan", "android": "https://dc.lft.to/lastmile_qr_scan"}, "is_reserved": 0, "fusion_lon": 0.0, "fusion_lat": 0.0, "lon": -77.01389666666667, "name": "5c038d573ebdbe066a80ceaa740646a4"}, {"bike_id": "c1d1a4f51a410cd5d0a38d08526c346b", "type": "electric_scooter", "is_disabled": 0, "lat": 38.899840833333336, "rental_uris": {"ios": "https://dc.lft.to/lastmile_qr_scan", "android": "https://dc.lft.to/lastmile_qr_scan"}, "is_reserved": 0, "fusion_lon": 0.0, "fusion_lat": 0.0, "lon": -77.02194516666667, "name": "c1d1a4f51a410cd5d0a38d08526c346b"}, {"bike_id": "84401f1b30e54404cc8d6f27c579b5b5", "type": "electric_scooter", "is_disabled": 0, "lat": 38.89223333333333, "rental_uris": {"ios": "https://dc.lft.to/lastmile_qr_scan", "android": "https://dc.lft.to/lastmile_qr_scan"}, "is_reserved": 0, "fusion_lon": 0.0, "fusion_lat": 0.0, "lon": -77.0226575, "name": "84401f1b30e54404cc8d6f27c579b5b5"}, {"bike_id": "0b9561d03ce7480ba21defa678896bdb", "type": "electric_bike", "is_disabled": 0, "lat": 38.819380333333335, "rental_uris": {"ios": "https://dc.lft.to/lastmile_qr_scan", "android": "https://dc.lft.to/lastmile_qr_scan"}, "is_reserved": 0, "fusion_lon": 0.0, "fusion_lat": 0.0, "lon": -77.0020295, "name": "0b9561d03ce7480ba21defa678896bdb"}, {"bike_id": "100d7d6cb939145e66631c7306281ac3", "type": "electric_scooter", "is_disabled": 0, "lat": 38.897546, "rental_uris": {"ios": "https://dc.lft.to/lastmile_qr_scan", "android": "https://dc.lft.to/lastmile_qr_scan"}, "is_reserved": 0, "fusion_lon": 0.0, "fusion_lat": 0.0, "lon": -77.02765083333334, "name": "100d7d6cb939145e66631c7306281ac3"}, {"bike_id": "83969a8090a05c750ac09b1db8a56c22", "type": "electric_scooter", "is_disabled": 0, "lat": 38.91328083333333, "rental_uris": {"ios": "https://dc.lft.to/lastmile_qr_scan", "android": "https://dc.lft.to/lastmile_qr_scan"}, "is_reserved": 0, "fusion_lon": 0.0, "fusion_lat": 0.0, "lon": -77.040438, "name": "83969a8090a05c750ac09b1db8a56c22"}, {"bike_id": "90a7bd740638c1b8efffd2aaf41aad56", "type": "electric_scooter", "is_disabled": 0, "lat": 38.89877883333333, "rental_uris": {"ios": "https://dc.lft.to/lastmile_qr_scan", "android": "https://dc.lft.to/lastmile_qr_scan"}, "is_reserved": 0, "fusion_lon": 0.0, "fusion_lat": 0.0, "lon": -76.97687016666667, "name": "90a7bd740638c1b8efffd2aaf41aad56"}, {"bike_id": "131b7f06727e21faf58a209ae90dda13", "type": "electric_scooter", "is_disabled": 0, "lat": 38.90004783333333, "rental_uris": {"ios": "https://dc.lft.to/lastmile_qr_scan", "android": "https://dc.lft.to/lastmile_qr_scan"}, "is_reserved": 0, "fusion_lon": 0.0, "fusion_lat": 0.0, "lon": -77.02000283333334, "name": "131b7f06727e21faf58a209ae90dda13"}, {"bike_id": "fd1b7e01a6e7684b71afba2a19243a64", "type": "electric_scooter", "is_disabled": 0, "lat": 38.957117833333335, "rental_uris": {"ios": "https://dc.lft.to/lastmile_qr_scan", "android": "https://dc.lft.to/lastmile_qr_scan"}, "is_reserved": 0, "fusion_lon": 0.0, "fusion_lat": 0.0, "lon": -77.02401483333334, "name": "fd1b7e01a6e7684b71afba2a19243a64"}, {"bike_id": "3ef4e082b78048cb7d6c65814cacae48", "type": "electric_scooter", "is_disabled": 0, "lat": 38.92200016666666, "rental_uris": {"ios": "https://dc.lft.to/lastmile_qr_scan", "android": "https://dc.lft.to/lastmile_qr_scan"}, "is_reserved": 0, "fusion_lon": 0.0, "fusion_lat": 0.0, "lon": -77.02027483333333, "name": "3ef4e082b78048cb7d6c65814cacae48"}, {"bike_id": "c55d99b228bd5d28bf58cb43059ee006", "type": "electric_scooter", "is_disabled": 0, "lat": 38.91668633333333, "rental_uris": {"ios": "https://dc.lft.to/lastmile_qr_scan", "android": "https://dc.lft.to/lastmile_qr_scan"}, "is_reserved": 0, "fusion_lon": 0.0, "fusion_lat": 0.0, "lon": -77.03192066666666, "name": "c55d99b228bd5d28bf58cb43059ee006"}, {"bike_id": "b1b07ba148a3f036cdd95405e76a72ae", "type": "electric_scooter", "is_disabled": 0, "lat": 38.90493933333333, "rental_uris": {"ios": "https://dc.lft.to/lastmile_qr_scan", "android": "https://dc.lft.to/lastmile_qr_scan"}, "is_reserved": 0, "fusion_lon": 0.0, "fusion_lat": 0.0, "lon": -77.04080916666666, "name": "b1b07ba148a3f036cdd95405e76a72ae"}, {"bike_id": "c4cbc9bcda35e405c718c7bb540cd756", "type": "electric_scooter", "is_disabled": 0, "lat": 38.9306235, "rental_uris": {"ios": "https://dc.lft.to/lastmile_qr_scan", "android": "https://dc.lft.to/lastmile_qr_scan"}, "is_reserved": 0, "fusion_lon": 0.0, "fusion_lat": 0.0, "lon": -77.03896916666666, "name": "c4cbc9bcda35e405c718c7bb540cd756"}, {"bike_id": "3e83a6a5adabfb2f0cb4b242086394ed", "type": "electric_scooter", "is_disabled": 0, "lat": 38.93189316666667, "rental_uris": {"ios": "https://dc.lft.to/lastmile_qr_scan", "android": "https://dc.lft.to/lastmile_qr_scan"}, "is_reserved": 0, "fusion_lon": 0.0, "fusion_lat": 0.0, "lon": -77.0842995, "name": "3e83a6a5adabfb2f0cb4b242086394ed"}, {"bike_id": "c797d1c262f2bcd2bed58ba353c54af3", "type": "electric_scooter", "is_disabled": 0, "lat": 38.925410166666666, "rental_uris": {"ios": "https://dc.lft.to/lastmile_qr_scan", "android": "https://dc.lft.to/lastmile_qr_scan"}, "is_reserved": 0, "fusion_lon": 0.0, "fusion_lat": 0.0, "lon": -77.0386705, "name": "c797d1c262f2bcd2bed58ba353c54af3"}, {"bike_id": "46c59a1486dff68c0d0acabbb5072773", "type": "electric_scooter", "is_disabled": 0, "lat": 38.90954383333333, "rental_uris": {"ios": "https://dc.lft.to/lastmile_qr_scan", "android": "https://dc.lft.to/lastmile_qr_scan"}, "is_reserved": 0, "fusion_lon": 0.0, "fusion_lat": 0.0, "lon": -77.04870233333334, "name": "46c59a1486dff68c0d0acabbb5072773"}, {"bike_id": "65742c781c1937660367397eb327d844", "type": "electric_bike", "is_disabled": 0, "lat": 38.9491895, "rental_uris": {"ios": "https://dc.lft.to/lastmile_qr_scan", "android": "https://dc.lft.to/lastmile_qr_scan"}, "is_reserved": 0, "fusion_lon": 0.0, "fusion_lat": 0.0, "lon": -77.00795816666667, "name": "65742c781c1937660367397eb327d844"}, {"bike_id": "4bf38b7dd742c65a43505cd66ab00058", "type": "electric_bike", "is_disabled": 0, "lat": 39.037398333333336, "rental_uris": {"ios": "https://dc.lft.to/lastmile_qr_scan", "android": "https://dc.lft.to/lastmile_qr_scan"}, "is_reserved": 0, "fusion_lon": 0.0, "fusion_lat": 0.0, "lon": -77.05491016666667, "name": "4bf38b7dd742c65a43505cd66ab00058"}, {"bike_id": "589902bff74d189de40462589fd499b6", "type": "electric_scooter", "is_disabled": 0, "lat": 38.89493316666667, "rental_uris": {"ios": "https://dc.lft.to/lastmile_qr_scan", "android": "https://dc.lft.to/lastmile_qr_scan"}, "is_reserved": 0, "fusion_lon": 0.0, "fusion_lat": 0.0, "lon": -77.02176716666666, "name": "589902bff74d189de40462589fd499b6"}, {"bike_id": "4699d1a3d6c1457d110930251a8c7cab", "type": "electric_bike", "is_disabled": 0, "lat": 38.9069415, "rental_uris": {"ios": "https://dc.lft.to/lastmile_qr_scan", "android": "https://dc.lft.to/lastmile_qr_scan"}, "is_reserved": 0, "fusion_lon": 0.0, "fusion_lat": 0.0, "lon": -76.95252983333333, "name": "4699d1a3d6c1457d110930251a8c7cab"}, {"bike_id": "26df0fd1dcbb54bd52ac7a8594fe09ad", "type": "electric_scooter", "is_disabled": 0, "lat": 38.92680466666667, "rental_uris": {"ios": "https://dc.lft.to/lastmile_qr_scan", "android": "https://dc.lft.to/lastmile_qr_scan"}, "is_reserved": 0, "fusion_lon": 0.0, "fusion_lat": 0.0, "lon": -77.02787216666667, "name": "26df0fd1dcbb54bd52ac7a8594fe09ad"}, {"bike_id": "a518788dd027a7c22fc8d1447ecfa3bc", "type": "electric_scooter", "is_disabled": 0, "lat": 38.8934355, "rental_uris": {"ios": "https://dc.lft.to/lastmile_qr_scan", "android": "https://dc.lft.to/lastmile_qr_scan"}, "is_reserved": 0, "fusion_lon": 0.0, "fusion_lat": 0.0, "lon": -76.99272966666666, "name": "a518788dd027a7c22fc8d1447ecfa3bc"}, {"bike_id": "c361801845e55b31d98f345c543ae194", "type": "electric_scooter", "is_disabled": 0, "lat": 38.90566, "rental_uris": {"ios": "https://dc.lft.to/lastmile_qr_scan", "android": "https://dc.lft.to/lastmile_qr_scan"}, "is_reserved": 0, "fusion_lon": 0.0, "fusion_lat": 0.0, "lon": -77.01799166666666, "name": "c361801845e55b31d98f345c543ae194"}, {"bike_id": "b7fbbae95ada0c176d7aa510b0520582", "type": "electric_scooter", "is_disabled": 0, "lat": 38.89722233333333, "rental_uris": {"ios": "https://dc.lft.to/lastmile_qr_scan", "android": "https://dc.lft.to/lastmile_qr_scan"}, "is_reserved": 0, "fusion_lon": 0.0, "fusion_lat": 0.0, "lon": -77.046994, "name": "b7fbbae95ada0c176d7aa510b0520582"}, {"bike_id": "da26b3f46c744eee93fdf2e87851e187", "type": "electric_scooter", "is_disabled": 0, "lat": 38.868331, "rental_uris": {"ios": "https://dc.lft.to/lastmile_qr_scan", "android": "https://dc.lft.to/lastmile_qr_scan"}, "is_reserved": 0, "fusion_lon": 0.0, "fusion_lat": 0.0, "lon": -77.01145316666667, "name": "da26b3f46c744eee93fdf2e87851e187"}, {"bike_id": "09342e4151b66bf213274c6e320c8162", "type": "electric_bike", "is_disabled": 0, "lat": 39.054962333333336, "rental_uris": {"ios": "https://dc.lft.to/lastmile_qr_scan", "android": "https://dc.lft.to/lastmile_qr_scan"}, "is_reserved": 0, "fusion_lon": 0.0, "fusion_lat": 0.0, "lon": -77.11789883333333, "name": "09342e4151b66bf213274c6e320c8162"}, {"bike_id": "7ba5ae2ddd172084df4e716306709d7b", "type": "electric_scooter", "is_disabled": 0, "lat": 38.90843483333333, "rental_uris": {"ios": "https://dc.lft.to/lastmile_qr_scan", "android": "https://dc.lft.to/lastmile_qr_scan"}, "is_reserved": 0, "fusion_lon": 0.0, "fusion_lat": 0.0, "lon": -77.021995, "name": "7ba5ae2ddd172084df4e716306709d7b"}, {"bike_id": "d71af71c322bbf076885c7859128722c", "type": "electric_scooter", "is_disabled": 0, "lat": 38.923683833333335, "rental_uris": {"ios": "https://dc.lft.to/lastmile_qr_scan", "android": "https://dc.lft.to/lastmile_qr_scan"}, "is_reserved": 0, "fusion_lon": 0.0, "fusion_lat": 0.0, "lon": -77.077066, "name": "d71af71c322bbf076885c7859128722c"}, {"bike_id": "d1a1b893d83c0dc1d8d75331fab6bce7", "type": "electric_bike", "is_disabled": 0, "lat": 38.911291166666665, "rental_uris": {"ios": "https://dc.lft.to/lastmile_qr_scan", "android": "https://dc.lft.to/lastmile_qr_scan"}, "is_reserved": 0, "fusion_lon": 0.0, "fusion_lat": 0.0, "lon": -77.06581033333333, "name": "d1a1b893d83c0dc1d8d75331fab6bce7"}, {"bike_id": "6d1be8de9c89fe916f91ce6acd88fb52", "type": "electric_scooter", "is_disabled": 0, "lat": 38.892378, "rental_uris": {"ios": "https://dc.lft.to/lastmile_qr_scan", "android": "https://dc.lft.to/lastmile_qr_scan"}, "is_reserved": 0, "fusion_lon": 0.0, "fusion_lat": 0.0, "lon": -77.0450015, "name": "6d1be8de9c89fe916f91ce6acd88fb52"}, {"bike_id": "72ed38e160af99d04335a48d9af02b7c", "type": "electric_scooter", "is_disabled": 0, "lat": 38.96603266666666, "rental_uris": {"ios": "https://dc.lft.to/lastmile_qr_scan", "android": "https://dc.lft.to/lastmile_qr_scan"}, "is_reserved": 0, "fusion_lon": 0.0, "fusion_lat": 0.0, "lon": -77.019809, "name": "72ed38e160af99d04335a48d9af02b7c"}, {"bike_id": "15be9b30d0096cce7bec149409c38aa6", "type": "electric_scooter", "is_disabled": 0, "lat": 38.91421416666667, "rental_uris": {"ios": "https://dc.lft.to/lastmile_qr_scan", "android": "https://dc.lft.to/lastmile_qr_scan"}, "is_reserved": 0, "fusion_lon": 0.0, "fusion_lat": 0.0, "lon": -77.02226716666667, "name": "15be9b30d0096cce7bec149409c38aa6"}, {"bike_id": "112673e0cb8af2c5d433b5efa1799ff3", "type": "electric_scooter", "is_disabled": 0, "lat": 38.89996883333333, "rental_uris": {"ios": "https://dc.lft.to/lastmile_qr_scan", "android": "https://dc.lft.to/lastmile_qr_scan"}, "is_reserved": 0, "fusion_lon": 0.0, "fusion_lat": 0.0, "lon": -77.01988483333334, "name": "112673e0cb8af2c5d433b5efa1799ff3"}, {"bike_id": "8a4f83bcb2a59b54c92761a2d6f572ce", "type": "electric_scooter", "is_disabled": 0, "lat": 38.899887, "rental_uris": {"ios": "https://dc.lft.to/lastmile_qr_scan", "android": "https://dc.lft.to/lastmile_qr_scan"}, "is_reserved": 0, "fusion_lon": 0.0, "fusion_lat": 0.0, "lon": -77.01990266666667, "name": "8a4f83bcb2a59b54c92761a2d6f572ce"}, {"bike_id": "39222bec9e1e7f2ed87e0ffba07a05ef", "type": "electric_scooter", "is_disabled": 0, "lat": 38.91191033333333, "rental_uris": {"ios": "https://dc.lft.to/lastmile_qr_scan", "android": "https://dc.lft.to/lastmile_qr_scan"}, "is_reserved": 0, "fusion_lon": 0.0, "fusion_lat": 0.0, "lon": -77.03831883333334, "name": "39222bec9e1e7f2ed87e0ffba07a05ef"}, {"bike_id": "f263692b6cce61e5605fba4a57a42c6f", "type": "electric_scooter", "is_disabled": 0, "lat": 38.902496166666666, "rental_uris": {"ios": "https://dc.lft.to/lastmile_qr_scan", "android": "https://dc.lft.to/lastmile_qr_scan"}, "is_reserved": 0, "fusion_lon": 0.0, "fusion_lat": 0.0, "lon": -76.98668716666667, "name": "f263692b6cce61e5605fba4a57a42c6f"}, {"bike_id": "59cea14ff6c7cd16ee941b4086888dbf", "type": "electric_bike", "is_disabled": 0, "lat": 38.88401916666667, "rental_uris": {"ios": "https://dc.lft.to/lastmile_qr_scan", "android": "https://dc.lft.to/lastmile_qr_scan"}, "is_reserved": 0, "fusion_lon": 0.0, "fusion_lat": 0.0, "lon": -77.02411283333333, "name": "59cea14ff6c7cd16ee941b4086888dbf"}, {"bike_id": "c65563c24d67f1068601b53400ae2727", "type": "electric_scooter", "is_disabled": 0, "lat": 38.885405166666665, "rental_uris": {"ios": "https://dc.lft.to/lastmile_qr_scan", "android": "https://dc.lft.to/lastmile_qr_scan"}, "is_reserved": 0, "fusion_lon": 0.0, "fusion_lat": 0.0, "lon": -77.00580383333333, "name": "c65563c24d67f1068601b53400ae2727"}, {"bike_id": "4c41d2bced93424fd6efd78c87b0815b", "type": "electric_scooter", "is_disabled": 0, "lat": 38.913366333333336, "rental_uris": {"ios": "https://dc.lft.to/lastmile_qr_scan", "android": "https://dc.lft.to/lastmile_qr_scan"}, "is_reserved": 0, "fusion_lon": 0.0, "fusion_lat": 0.0, "lon": -77.03186916666667, "name": "4c41d2bced93424fd6efd78c87b0815b"}, {"bike_id": "243992fecadb9ea011e473579aa7c1f8", "type": "electric_scooter", "is_disabled": 0, "lat": 38.933373333333336, "rental_uris": {"ios": "https://dc.lft.to/lastmile_qr_scan", "android": "https://dc.lft.to/lastmile_qr_scan"}, "is_reserved": 0, "fusion_lon": 0.0, "fusion_lat": 0.0, "lon": -77.02847033333333, "name": "243992fecadb9ea011e473579aa7c1f8"}, {"bike_id": "8dc1b6a6cea72e3156f28f17b963940a", "type": "electric_scooter", "is_disabled": 0, "lat": 38.9169215, "rental_uris": {"ios": "https://dc.lft.to/lastmile_qr_scan", "android": "https://dc.lft.to/lastmile_qr_scan"}, "is_reserved": 0, "fusion_lon": 0.0, "fusion_lat": 0.0, "lon": -77.037179, "name": "8dc1b6a6cea72e3156f28f17b963940a"}, {"bike_id": "1868eb1464ddbef1c96d7f66d04122ab", "type": "electric_scooter", "is_disabled": 0, "lat": 38.904070833333336, "rental_uris": {"ios": "https://dc.lft.to/lastmile_qr_scan", "android": "https://dc.lft.to/lastmile_qr_scan"}, "is_reserved": 0, "fusion_lon": 0.0, "fusion_lat": 0.0, "lon": -77.021955, "name": "1868eb1464ddbef1c96d7f66d04122ab"}, {"bike_id": "f0239d102c7ec5f7e8b64f55bd6f7b2c", "type": "electric_bike", "is_disabled": 0, "lat": 38.807588, "rental_uris": {"ios": "https://dc.lft.to/lastmile_qr_scan", "android": "https://dc.lft.to/lastmile_qr_scan"}, "is_reserved": 0, "fusion_lon": 0.0, "fusion_lat": 0.0, "lon": -77.094703, "name": "f0239d102c7ec5f7e8b64f55bd6f7b2c"}, {"bike_id": "9b2b941d9071dabdd72ae2215eef3912", "type": "electric_scooter", "is_disabled": 0, "lat": 38.9287005, "rental_uris": {"ios": "https://dc.lft.to/lastmile_qr_scan", "android": "https://dc.lft.to/lastmile_qr_scan"}, "is_reserved": 0, "fusion_lon": 0.0, "fusion_lat": 0.0, "lon": -77.03369333333333, "name": "9b2b941d9071dabdd72ae2215eef3912"}, {"bike_id": "bf2e404ef6184e021183f60d1718bce3", "type": "electric_scooter", "is_disabled": 0, "lat": 38.9004845, "rental_uris": {"ios": "https://dc.lft.to/lastmile_qr_scan", "android": "https://dc.lft.to/lastmile_qr_scan"}, "is_reserved": 0, "fusion_lon": 0.0, "fusion_lat": 0.0, "lon": -76.9915525, "name": "bf2e404ef6184e021183f60d1718bce3"}, {"bike_id": "2d574eef879ac31d66b59cc3442051ce", "type": "electric_scooter", "is_disabled": 0, "lat": 38.906295, "rental_uris": {"ios": "https://dc.lft.to/lastmile_qr_scan", "android": "https://dc.lft.to/lastmile_qr_scan"}, "is_reserved": 0, "fusion_lon": 0.0, "fusion_lat": 0.0, "lon": -77.03399366666666, "name": "2d574eef879ac31d66b59cc3442051ce"}, {"bike_id": "80b06941e9f54460b58aa404b455b5de", "type": "electric_scooter", "is_disabled": 0, "lat": 38.9270075, "rental_uris": {"ios": "https://dc.lft.to/lastmile_qr_scan", "android": "https://dc.lft.to/lastmile_qr_scan"}, "is_reserved": 0, "fusion_lon": 0.0, "fusion_lat": 0.0, "lon": -77.02071933333333, "name": "80b06941e9f54460b58aa404b455b5de"}, {"bike_id": "dddee7f8b6001393932280b5fbfb8406", "type": "electric_scooter", "is_disabled": 0, "lat": 38.924707166666664, "rental_uris": {"ios": "https://dc.lft.to/lastmile_qr_scan", "android": "https://dc.lft.to/lastmile_qr_scan"}, "is_reserved": 0, "fusion_lon": 0.0, "fusion_lat": 0.0, "lon": -77.028352, "name": "dddee7f8b6001393932280b5fbfb8406"}, {"bike_id": "a21f40486dda8bf12f375bf0a970c94e", "type": "electric_scooter", "is_disabled": 0, "lat": 38.91418383333333, "rental_uris": {"ios": "https://dc.lft.to/lastmile_qr_scan", "android": "https://dc.lft.to/lastmile_qr_scan"}, "is_reserved": 0, "fusion_lon": 0.0, "fusion_lat": 0.0, "lon": -77.02431116666666, "name": "a21f40486dda8bf12f375bf0a970c94e"}, {"bike_id": "3d4f0f2316eb3347e03caa79bd408c7a", "type": "electric_scooter", "is_disabled": 0, "lat": 38.8997245, "rental_uris": {"ios": "https://dc.lft.to/lastmile_qr_scan", "android": "https://dc.lft.to/lastmile_qr_scan"}, "is_reserved": 0, "fusion_lon": 0.0, "fusion_lat": 0.0, "lon": -77.019842, "name": "3d4f0f2316eb3347e03caa79bd408c7a"}, {"bike_id": "4e39ef4068a0a928674a2bf745dcc3b0", "type": "electric_scooter", "is_disabled": 0, "lat": 38.91798433333334, "rental_uris": {"ios": "https://dc.lft.to/lastmile_qr_scan", "android": "https://dc.lft.to/lastmile_qr_scan"}, "is_reserved": 0, "fusion_lon": 0.0, "fusion_lat": 0.0, "lon": -77.03255166666666, "name": "4e39ef4068a0a928674a2bf745dcc3b0"}, {"bike_id": "cf05446c1a3610e79dabf1fa5410a095", "type": "electric_scooter", "is_disabled": 0, "lat": 38.91572566666667, "rental_uris": {"ios": "https://dc.lft.to/lastmile_qr_scan", "android": "https://dc.lft.to/lastmile_qr_scan"}, "is_reserved": 0, "fusion_lon": 0.0, "fusion_lat": 0.0, "lon": -77.01954866666667, "name": "cf05446c1a3610e79dabf1fa5410a095"}, {"bike_id": "5f0c10daa9a8ed47125a4a9226a1e6f4", "type": "electric_scooter", "is_disabled": 0, "lat": 38.91413583333333, "rental_uris": {"ios": "https://dc.lft.to/lastmile_qr_scan", "android": "https://dc.lft.to/lastmile_qr_scan"}, "is_reserved": 0, "fusion_lon": 0.0, "fusion_lat": 0.0, "lon": -77.02406833333333, "name": "5f0c10daa9a8ed47125a4a9226a1e6f4"}, {"bike_id": "8f1b3e2e9ae86693ef1af1986e7cd5f8", "type": "electric_scooter", "is_disabled": 0, "lat": 38.9085365, "rental_uris": {"ios": "https://dc.lft.to/lastmile_qr_scan", "android": "https://dc.lft.to/lastmile_qr_scan"}, "is_reserved": 0, "fusion_lon": 0.0, "fusion_lat": 0.0, "lon": -77.04261683333333, "name": "8f1b3e2e9ae86693ef1af1986e7cd5f8"}, {"bike_id": "43e17607cbcfdf68088bf3168baa513b", "type": "electric_scooter", "is_disabled": 0, "lat": 38.94182583333333, "rental_uris": {"ios": "https://dc.lft.to/lastmile_qr_scan", "android": "https://dc.lft.to/lastmile_qr_scan"}, "is_reserved": 0, "fusion_lon": 0.0, "fusion_lat": 0.0, "lon": -77.024878, "name": "43e17607cbcfdf68088bf3168baa513b"}, {"bike_id": "7eaf170f48bacf9388577ef4d8104857", "type": "electric_scooter", "is_disabled": 0, "lat": 38.90148216666667, "rental_uris": {"ios": "https://dc.lft.to/lastmile_qr_scan", "android": "https://dc.lft.to/lastmile_qr_scan"}, "is_reserved": 0, "fusion_lon": 0.0, "fusion_lat": 0.0, "lon": -77.043219, "name": "7eaf170f48bacf9388577ef4d8104857"}, {"bike_id": "b1d14dfe01a728d8a27f70d7394079cc", "type": "electric_scooter", "is_disabled": 0, "lat": 38.86697733333333, "rental_uris": {"ios": "https://dc.lft.to/lastmile_qr_scan", "android": "https://dc.lft.to/lastmile_qr_scan"}, "is_reserved": 0, "fusion_lon": 0.0, "fusion_lat": 0.0, "lon": -76.9854375, "name": "b1d14dfe01a728d8a27f70d7394079cc"}, {"bike_id": "51c15e6c28d29ccd6a978d4e8909197a", "type": "electric_scooter", "is_disabled": 0, "lat": 38.897818666666666, "rental_uris": {"ios": "https://dc.lft.to/lastmile_qr_scan", "android": "https://dc.lft.to/lastmile_qr_scan"}, "is_reserved": 0, "fusion_lon": 0.0, "fusion_lat": 0.0, "lon": -76.947383, "name": "51c15e6c28d29ccd6a978d4e8909197a"}, {"bike_id": "45ba3711342dafa0e7c93e02395d365e", "type": "electric_scooter", "is_disabled": 0, "lat": 38.903595333333335, "rental_uris": {"ios": "https://dc.lft.to/lastmile_qr_scan", "android": "https://dc.lft.to/lastmile_qr_scan"}, "is_reserved": 0, "fusion_lon": 0.0, "fusion_lat": 0.0, "lon": -77.03195416666667, "name": "45ba3711342dafa0e7c93e02395d365e"}, {"bike_id": "40ee22c0549a90da9f1e56d9ecdda3e9", "type": "electric_scooter", "is_disabled": 0, "lat": 38.8843305, "rental_uris": {"ios": "https://dc.lft.to/lastmile_qr_scan", "android": "https://dc.lft.to/lastmile_qr_scan"}, "is_reserved": 0, "fusion_lon": 0.0, "fusion_lat": 0.0, "lon": -76.95751516666667, "name": "40ee22c0549a90da9f1e56d9ecdda3e9"}, {"bike_id": "6f4c282953fbe17ddccab00e685bdf0a", "type": "electric_scooter", "is_disabled": 0, "lat": 38.887449333333336, "rental_uris": {"ios": "https://dc.lft.to/lastmile_qr_scan", "android": "https://dc.lft.to/lastmile_qr_scan"}, "is_reserved": 0, "fusion_lon": 0.0, "fusion_lat": 0.0, "lon": -77.02942333333333, "name": "6f4c282953fbe17ddccab00e685bdf0a"}, {"bike_id": "79f6afe30c505131f324b2af97e93af3", "type": "electric_scooter", "is_disabled": 0, "lat": 38.901378666666666, "rental_uris": {"ios": "https://dc.lft.to/lastmile_qr_scan", "android": "https://dc.lft.to/lastmile_qr_scan"}, "is_reserved": 0, "fusion_lon": 0.0, "fusion_lat": 0.0, "lon": -77.01789033333333, "name": "79f6afe30c505131f324b2af97e93af3"}, {"bike_id": "1d89e6159365a97899d29b986c05e7ae", "type": "electric_scooter", "is_disabled": 0, "lat": 38.90499333333333, "rental_uris": {"ios": "https://dc.lft.to/lastmile_qr_scan", "android": "https://dc.lft.to/lastmile_qr_scan"}, "is_reserved": 0, "fusion_lon": 0.0, "fusion_lat": 0.0, "lon": -77.02951666666667, "name": "1d89e6159365a97899d29b986c05e7ae"}, {"bike_id": "7c7f4e7ad1cd015cad9936c194b71046", "type": "electric_scooter", "is_disabled": 0, "lat": 38.9225165, "rental_uris": {"ios": "https://dc.lft.to/lastmile_qr_scan", "android": "https://dc.lft.to/lastmile_qr_scan"}, "is_reserved": 0, "fusion_lon": 0.0, "fusion_lat": 0.0, "lon": -77.03025433333333, "name": "7c7f4e7ad1cd015cad9936c194b71046"}, {"bike_id": "962e2ad9d18f90b23fd494276faeb5a7", "type": "electric_scooter", "is_disabled": 0, "lat": 38.9103995, "rental_uris": {"ios": "https://dc.lft.to/lastmile_qr_scan", "android": "https://dc.lft.to/lastmile_qr_scan"}, "is_reserved": 0, "fusion_lon": 0.0, "fusion_lat": 0.0, "lon": -77.03800616666666, "name": "962e2ad9d18f90b23fd494276faeb5a7"}, {"bike_id": "28ce6724eddfc678f83f2023e75374be", "type": "electric_scooter", "is_disabled": 0, "lat": 38.897599666666665, "rental_uris": {"ios": "https://dc.lft.to/lastmile_qr_scan", "android": "https://dc.lft.to/lastmile_qr_scan"}, "is_reserved": 0, "fusion_lon": 0.0, "fusion_lat": 0.0, "lon": -76.94709633333333, "name": "28ce6724eddfc678f83f2023e75374be"}, {"bike_id": "89a0e5d36ce80d8cf4adae4a3b0863c0", "type": "electric_scooter", "is_disabled": 0, "lat": 38.91466616666666, "rental_uris": {"ios": "https://dc.lft.to/lastmile_qr_scan", "android": "https://dc.lft.to/lastmile_qr_scan"}, "is_reserved": 0, "fusion_lon": 0.0, "fusion_lat": 0.0, "lon": -77.045912, "name": "89a0e5d36ce80d8cf4adae4a3b0863c0"}, {"bike_id": "849b833a25a931faf265300b4bcaa9d3", "type": "electric_scooter", "is_disabled": 0, "lat": 38.915795, "rental_uris": {"ios": "https://dc.lft.to/lastmile_qr_scan", "android": "https://dc.lft.to/lastmile_qr_scan"}, "is_reserved": 0, "fusion_lon": 0.0, "fusion_lat": 0.0, "lon": -77.01228883333333, "name": "849b833a25a931faf265300b4bcaa9d3"}, {"bike_id": "a30c5fd5adae134b955eebb05839e9ae", "type": "electric_scooter", "is_disabled": 0, "lat": 38.914459, "rental_uris": {"ios": "https://dc.lft.to/lastmile_qr_scan", "android": "https://dc.lft.to/lastmile_qr_scan"}, "is_reserved": 0, "fusion_lon": 0.0, "fusion_lat": 0.0, "lon": -77.025923, "name": "a30c5fd5adae134b955eebb05839e9ae"}, {"bike_id": "1f97a6c4df44dc57b1684212e44fc9ca", "type": "electric_scooter", "is_disabled": 0, "lat": 38.976007333333335, "rental_uris": {"ios": "https://dc.lft.to/lastmile_qr_scan", "android": "https://dc.lft.to/lastmile_qr_scan"}, "is_reserved": 0, "fusion_lon": 0.0, "fusion_lat": 0.0, "lon": -77.02647483333334, "name": "1f97a6c4df44dc57b1684212e44fc9ca"}, {"bike_id": "a34f0b6e81334bef09c5734ae212c3c0", "type": "electric_scooter", "is_disabled": 0, "lat": 38.927604, "rental_uris": {"ios": "https://dc.lft.to/lastmile_qr_scan", "android": "https://dc.lft.to/lastmile_qr_scan"}, "is_reserved": 0, "fusion_lon": 0.0, "fusion_lat": 0.0, "lon": -77.02532216666667, "name": "a34f0b6e81334bef09c5734ae212c3c0"}, {"bike_id": "d4f82c4c9063576e502821d55d76f2f9", "type": "electric_scooter", "is_disabled": 0, "lat": 38.91443966666667, "rental_uris": {"ios": "https://dc.lft.to/lastmile_qr_scan", "android": "https://dc.lft.to/lastmile_qr_scan"}, "is_reserved": 0, "fusion_lon": 0.0, "fusion_lat": 0.0, "lon": -77.031855, "name": "d4f82c4c9063576e502821d55d76f2f9"}, {"bike_id": "31df5a90445058cee3f575fc65d1faa0", "type": "electric_scooter", "is_disabled": 0, "lat": 38.866773333333335, "rental_uris": {"ios": "https://dc.lft.to/lastmile_qr_scan", "android": "https://dc.lft.to/lastmile_qr_scan"}, "is_reserved": 0, "fusion_lon": 0.0, "fusion_lat": 0.0, "lon": -76.98569933333333, "name": "31df5a90445058cee3f575fc65d1faa0"}, {"bike_id": "1bd8ae74588ec2b54f7ce3d0fabbf16b", "type": "electric_scooter", "is_disabled": 0, "lat": 38.90727833333333, "rental_uris": {"ios": "https://dc.lft.to/lastmile_qr_scan", "android": "https://dc.lft.to/lastmile_qr_scan"}, "is_reserved": 0, "fusion_lon": 0.0, "fusion_lat": 0.0, "lon": -77.0402565, "name": "1bd8ae74588ec2b54f7ce3d0fabbf16b"}, {"bike_id": "3c055c36805b17ab1e82a9eb50fa8bd8", "type": "electric_scooter", "is_disabled": 0, "lat": 38.902013, "rental_uris": {"ios": "https://dc.lft.to/lastmile_qr_scan", "android": "https://dc.lft.to/lastmile_qr_scan"}, "is_reserved": 0, "fusion_lon": 0.0, "fusion_lat": 0.0, "lon": -77.02115416666666, "name": "3c055c36805b17ab1e82a9eb50fa8bd8"}, {"bike_id": "3271e2eb776ebc1b9018457b7a39dd98", "type": "electric_scooter", "is_disabled": 0, "lat": 38.92503033333333, "rental_uris": {"ios": "https://dc.lft.to/lastmile_qr_scan", "android": "https://dc.lft.to/lastmile_qr_scan"}, "is_reserved": 0, "fusion_lon": 0.0, "fusion_lat": 0.0, "lon": -77.05115266666667, "name": "3271e2eb776ebc1b9018457b7a39dd98"}, {"bike_id": "9125a743a59ca8b4c4a2d8868f42d1a1", "type": "electric_scooter", "is_disabled": 0, "lat": 38.900307, "rental_uris": {"ios": "https://dc.lft.to/lastmile_qr_scan", "android": "https://dc.lft.to/lastmile_qr_scan"}, "is_reserved": 0, "fusion_lon": 0.0, "fusion_lat": 0.0, "lon": -76.998337, "name": "9125a743a59ca8b4c4a2d8868f42d1a1"}, {"bike_id": "4e46540a4a8c126183ceae7d280e9ebd", "type": "electric_scooter", "is_disabled": 0, "lat": 38.90739166666667, "rental_uris": {"ios": "https://dc.lft.to/lastmile_qr_scan", "android": "https://dc.lft.to/lastmile_qr_scan"}, "is_reserved": 0, "fusion_lon": 0.0, "fusion_lat": 0.0, "lon": -77.02181083333333, "name": "4e46540a4a8c126183ceae7d280e9ebd"}, {"bike_id": "1d378689073c569f2e6a0313bd2074af", "type": "electric_scooter", "is_disabled": 0, "lat": 38.9074015, "rental_uris": {"ios": "https://dc.lft.to/lastmile_qr_scan", "android": "https://dc.lft.to/lastmile_qr_scan"}, "is_reserved": 0, "fusion_lon": 0.0, "fusion_lat": 0.0, "lon": -77.0323265, "name": "1d378689073c569f2e6a0313bd2074af"}, {"bike_id": "d163e0399bee0460ee4dea41a70dab8a", "type": "electric_scooter", "is_disabled": 0, "lat": 38.921596666666666, "rental_uris": {"ios": "https://dc.lft.to/lastmile_qr_scan", "android": "https://dc.lft.to/lastmile_qr_scan"}, "is_reserved": 0, "fusion_lon": 0.0, "fusion_lat": 0.0, "lon": -77.03390766666666, "name": "d163e0399bee0460ee4dea41a70dab8a"}, {"bike_id": "4ea24ca588e3bc37a3ff520977fda8ba", "type": "electric_bike", "is_disabled": 0, "lat": 38.9157065, "rental_uris": {"ios": "https://dc.lft.to/lastmile_qr_scan", "android": "https://dc.lft.to/lastmile_qr_scan"}, "is_reserved": 0, "fusion_lon": 0.0, "fusion_lat": 0.0, "lon": -77.03830583333334, "name": "4ea24ca588e3bc37a3ff520977fda8ba"}, {"bike_id": "ca7efa7db0829fd84956e43605a511ac", "type": "electric_bike", "is_disabled": 0, "lat": 38.853547, "rental_uris": {"ios": "https://dc.lft.to/lastmile_qr_scan", "android": "https://dc.lft.to/lastmile_qr_scan"}, "is_reserved": 0, "fusion_lon": 0.0, "fusion_lat": 0.0, "lon": -77.13466933333333, "name": "ca7efa7db0829fd84956e43605a511ac"}, {"bike_id": "92e17d2a95ba36d83621c695bfe91e18", "type": "electric_scooter", "is_disabled": 0, "lat": 38.897426333333335, "rental_uris": {"ios": "https://dc.lft.to/lastmile_qr_scan", "android": "https://dc.lft.to/lastmile_qr_scan"}, "is_reserved": 0, "fusion_lon": 0.0, "fusion_lat": 0.0, "lon": -76.97972816666666, "name": "92e17d2a95ba36d83621c695bfe91e18"}, {"bike_id": "038103ec9e75d2363c975dd4d3f4d76c", "type": "electric_scooter", "is_disabled": 0, "lat": 38.911190166666664, "rental_uris": {"ios": "https://dc.lft.to/lastmile_qr_scan", "android": "https://dc.lft.to/lastmile_qr_scan"}, "is_reserved": 0, "fusion_lon": 0.0, "fusion_lat": 0.0, "lon": -77.047222, "name": "038103ec9e75d2363c975dd4d3f4d76c"}, {"bike_id": "d23ae94c96d658ce98e4905a5724913e", "type": "electric_scooter", "is_disabled": 0, "lat": 38.941814666666666, "rental_uris": {"ios": "https://dc.lft.to/lastmile_qr_scan", "android": "https://dc.lft.to/lastmile_qr_scan"}, "is_reserved": 0, "fusion_lon": 0.0, "fusion_lat": 0.0, "lon": -77.02487216666667, "name": "d23ae94c96d658ce98e4905a5724913e"}, {"bike_id": "0bdf4526dfa7b85bda5cc930a5e96620", "type": "electric_scooter", "is_disabled": 0, "lat": 38.89286883333333, "rental_uris": {"ios": "https://dc.lft.to/lastmile_qr_scan", "android": "https://dc.lft.to/lastmile_qr_scan"}, "is_reserved": 0, "fusion_lon": 0.0, "fusion_lat": 0.0, "lon": -77.03357516666667, "name": "0bdf4526dfa7b85bda5cc930a5e96620"}, {"bike_id": "ec12c98bea0d8ed574b7aec45cbd1e56", "type": "electric_scooter", "is_disabled": 0, "lat": 38.9207405, "rental_uris": {"ios": "https://dc.lft.to/lastmile_qr_scan", "android": "https://dc.lft.to/lastmile_qr_scan"}, "is_reserved": 0, "fusion_lon": 0.0, "fusion_lat": 0.0, "lon": -77.04249333333334, "name": "ec12c98bea0d8ed574b7aec45cbd1e56"}, {"bike_id": "5de4c8b6f20ac611e151717689ada675", "type": "electric_scooter", "is_disabled": 0, "lat": 38.93090866666667, "rental_uris": {"ios": "https://dc.lft.to/lastmile_qr_scan", "android": "https://dc.lft.to/lastmile_qr_scan"}, "is_reserved": 0, "fusion_lon": 0.0, "fusion_lat": 0.0, "lon": -77.023602, "name": "5de4c8b6f20ac611e151717689ada675"}, {"bike_id": "b5a9a69ec6cd3293e11a7ee209474be2", "type": "electric_scooter", "is_disabled": 0, "lat": 38.942885833333335, "rental_uris": {"ios": "https://dc.lft.to/lastmile_qr_scan", "android": "https://dc.lft.to/lastmile_qr_scan"}, "is_reserved": 0, "fusion_lon": 0.0, "fusion_lat": 0.0, "lon": -77.0216915, "name": "b5a9a69ec6cd3293e11a7ee209474be2"}, {"bike_id": "75e36c52ff55abc783bce66c9845db21", "type": "electric_scooter", "is_disabled": 0, "lat": 38.892217333333335, "rental_uris": {"ios": "https://dc.lft.to/lastmile_qr_scan", "android": "https://dc.lft.to/lastmile_qr_scan"}, "is_reserved": 0, "fusion_lon": 0.0, "fusion_lat": 0.0, "lon": -77.0397855, "name": "75e36c52ff55abc783bce66c9845db21"}, {"bike_id": "5cbb9ef3aba68b9baff50ff3d137c72a", "type": "electric_scooter", "is_disabled": 0, "lat": 38.89669083333333, "rental_uris": {"ios": "https://dc.lft.to/lastmile_qr_scan", "android": "https://dc.lft.to/lastmile_qr_scan"}, "is_reserved": 0, "fusion_lon": 0.0, "fusion_lat": 0.0, "lon": -76.93214166666667, "name": "5cbb9ef3aba68b9baff50ff3d137c72a"}, {"bike_id": "167488559972aa5f6972801cb716dfc8", "type": "electric_scooter", "is_disabled": 0, "lat": 38.918062, "rental_uris": {"ios": "https://dc.lft.to/lastmile_qr_scan", "android": "https://dc.lft.to/lastmile_qr_scan"}, "is_reserved": 0, "fusion_lon": 0.0, "fusion_lat": 0.0, "lon": -77.034368, "name": "167488559972aa5f6972801cb716dfc8"}, {"bike_id": "309dc5d196fe90f0159bebcc5e7e22e4", "type": "electric_scooter", "is_disabled": 0, "lat": 38.905683, "rental_uris": {"ios": "https://dc.lft.to/lastmile_qr_scan", "android": "https://dc.lft.to/lastmile_qr_scan"}, "is_reserved": 0, "fusion_lon": 0.0, "fusion_lat": 0.0, "lon": -77.03078266666667, "name": "309dc5d196fe90f0159bebcc5e7e22e4"}, {"bike_id": "99d3d2ee17f02def3dd97607742e763a", "type": "electric_scooter", "is_disabled": 0, "lat": 38.92372133333333, "rental_uris": {"ios": "https://dc.lft.to/lastmile_qr_scan", "android": "https://dc.lft.to/lastmile_qr_scan"}, "is_reserved": 0, "fusion_lon": 0.0, "fusion_lat": 0.0, "lon": -77.03053216666666, "name": "99d3d2ee17f02def3dd97607742e763a"}, {"bike_id": "c3c6574d1a321db62ad3923a50981bb2", "type": "electric_scooter", "is_disabled": 0, "lat": 38.93968066666667, "rental_uris": {"ios": "https://dc.lft.to/lastmile_qr_scan", "android": "https://dc.lft.to/lastmile_qr_scan"}, "is_reserved": 0, "fusion_lon": 0.0, "fusion_lat": 0.0, "lon": -77.027301, "name": "c3c6574d1a321db62ad3923a50981bb2"}, {"bike_id": "db1e8c47c4bfa23818c597de8d57bff9", "type": "electric_scooter", "is_disabled": 0, "lat": 38.90727066666667, "rental_uris": {"ios": "https://dc.lft.to/lastmile_qr_scan", "android": "https://dc.lft.to/lastmile_qr_scan"}, "is_reserved": 0, "fusion_lon": 0.0, "fusion_lat": 0.0, "lon": -77.03982916666666, "name": "db1e8c47c4bfa23818c597de8d57bff9"}, {"bike_id": "d736d9eca5e2fb5e4dc7e2943680a1c4", "type": "electric_scooter", "is_disabled": 0, "lat": 38.89994683333333, "rental_uris": {"ios": "https://dc.lft.to/lastmile_qr_scan", "android": "https://dc.lft.to/lastmile_qr_scan"}, "is_reserved": 0, "fusion_lon": 0.0, "fusion_lat": 0.0, "lon": -77.0272715, "name": "d736d9eca5e2fb5e4dc7e2943680a1c4"}, {"bike_id": "096ac91140b05be6ddbe0f171d7b06ca", "type": "electric_scooter", "is_disabled": 0, "lat": 38.923694166666664, "rental_uris": {"ios": "https://dc.lft.to/lastmile_qr_scan", "android": "https://dc.lft.to/lastmile_qr_scan"}, "is_reserved": 0, "fusion_lon": 0.0, "fusion_lat": 0.0, "lon": -77.0313285, "name": "096ac91140b05be6ddbe0f171d7b06ca"}, {"bike_id": "07eaca043ef92c41d0c66918e6fda17c", "type": "electric_scooter", "is_disabled": 0, "lat": 38.907297, "rental_uris": {"ios": "https://dc.lft.to/lastmile_qr_scan", "android": "https://dc.lft.to/lastmile_qr_scan"}, "is_reserved": 0, "fusion_lon": 0.0, "fusion_lat": 0.0, "lon": -77.031947, "name": "07eaca043ef92c41d0c66918e6fda17c"}, {"bike_id": "a02d971cac628d78b47f6d53eac7737b", "type": "electric_scooter", "is_disabled": 0, "lat": 38.90260816666667, "rental_uris": {"ios": "https://dc.lft.to/lastmile_qr_scan", "android": "https://dc.lft.to/lastmile_qr_scan"}, "is_reserved": 0, "fusion_lon": 0.0, "fusion_lat": 0.0, "lon": -77.01777383333334, "name": "a02d971cac628d78b47f6d53eac7737b"}, {"bike_id": "8d3db2e1b343fcdba12473bc82080d31", "type": "electric_scooter", "is_disabled": 0, "lat": 38.922895833333335, "rental_uris": {"ios": "https://dc.lft.to/lastmile_qr_scan", "android": "https://dc.lft.to/lastmile_qr_scan"}, "is_reserved": 0, "fusion_lon": 0.0, "fusion_lat": 0.0, "lon": -77.02966366666666, "name": "8d3db2e1b343fcdba12473bc82080d31"}, {"bike_id": "a15c798474e6b0174cf542f834d83773", "type": "electric_scooter", "is_disabled": 0, "lat": 38.900256666666664, "rental_uris": {"ios": "https://dc.lft.to/lastmile_qr_scan", "android": "https://dc.lft.to/lastmile_qr_scan"}, "is_reserved": 0, "fusion_lon": 0.0, "fusion_lat": 0.0, "lon": -77.002186, "name": "a15c798474e6b0174cf542f834d83773"}, {"bike_id": "b2eb5c99937795571689c6b69c62e73e", "type": "electric_scooter", "is_disabled": 0, "lat": 38.923548, "rental_uris": {"ios": "https://dc.lft.to/lastmile_qr_scan", "android": "https://dc.lft.to/lastmile_qr_scan"}, "is_reserved": 0, "fusion_lon": 0.0, "fusion_lat": 0.0, "lon": -77.039037, "name": "b2eb5c99937795571689c6b69c62e73e"}, {"bike_id": "5889d2edd42c0a2212ae955ac444e571", "type": "electric_scooter", "is_disabled": 0, "lat": 38.9294885, "rental_uris": {"ios": "https://dc.lft.to/lastmile_qr_scan", "android": "https://dc.lft.to/lastmile_qr_scan"}, "is_reserved": 0, "fusion_lon": 0.0, "fusion_lat": 0.0, "lon": -77.03472966666666, "name": "5889d2edd42c0a2212ae955ac444e571"}, {"bike_id": "dca3b82cb3fc5f4640834a39bae34596", "type": "electric_scooter", "is_disabled": 0, "lat": 38.91716383333333, "rental_uris": {"ios": "https://dc.lft.to/lastmile_qr_scan", "android": "https://dc.lft.to/lastmile_qr_scan"}, "is_reserved": 0, "fusion_lon": 0.0, "fusion_lat": 0.0, "lon": -77.04156466666667, "name": "dca3b82cb3fc5f4640834a39bae34596"}, {"bike_id": "f73c43ac9d4414fd5e0c4e2db85beba9", "type": "electric_scooter", "is_disabled": 0, "lat": 38.8997215, "rental_uris": {"ios": "https://dc.lft.to/lastmile_qr_scan", "android": "https://dc.lft.to/lastmile_qr_scan"}, "is_reserved": 0, "fusion_lon": 0.0, "fusion_lat": 0.0, "lon": -77.01999083333334, "name": "f73c43ac9d4414fd5e0c4e2db85beba9"}, {"bike_id": "0751dd1fd8d4327ef325caf188e1cfd2", "type": "electric_scooter", "is_disabled": 0, "lat": 38.8811425, "rental_uris": {"ios": "https://dc.lft.to/lastmile_qr_scan", "android": "https://dc.lft.to/lastmile_qr_scan"}, "is_reserved": 0, "fusion_lon": 0.0, "fusion_lat": 0.0, "lon": -77.01660766666667, "name": "0751dd1fd8d4327ef325caf188e1cfd2"}, {"bike_id": "af92cbeb909cc30e547b4ef967299920", "type": "electric_scooter", "is_disabled": 0, "lat": 38.8844925, "rental_uris": {"ios": "https://dc.lft.to/lastmile_qr_scan", "android": "https://dc.lft.to/lastmile_qr_scan"}, "is_reserved": 0, "fusion_lon": 0.0, "fusion_lat": 0.0, "lon": -76.95095283333333, "name": "af92cbeb909cc30e547b4ef967299920"}, {"bike_id": "d6d763a3fe8caf5c049df288cf4868aa", "type": "electric_bike", "is_disabled": 0, "lat": 39.03420116666667, "rental_uris": {"ios": "https://dc.lft.to/lastmile_qr_scan", "android": "https://dc.lft.to/lastmile_qr_scan"}, "is_reserved": 0, "fusion_lon": 0.0, "fusion_lat": 0.0, "lon": -77.0416855, "name": "d6d763a3fe8caf5c049df288cf4868aa"}, {"bike_id": "aa811431ca8bbab09bac69f006ad5093", "type": "electric_scooter", "is_disabled": 0, "lat": 38.914041833333336, "rental_uris": {"ios": "https://dc.lft.to/lastmile_qr_scan", "android": "https://dc.lft.to/lastmile_qr_scan"}, "is_reserved": 0, "fusion_lon": 0.0, "fusion_lat": 0.0, "lon": -77.0316705, "name": "aa811431ca8bbab09bac69f006ad5093"}, {"bike_id": "97f6cbca069738d0d1eaad5b0f1944fa", "type": "electric_scooter", "is_disabled": 0, "lat": 38.92885883333334, "rental_uris": {"ios": "https://dc.lft.to/lastmile_qr_scan", "android": "https://dc.lft.to/lastmile_qr_scan"}, "is_reserved": 0, "fusion_lon": 0.0, "fusion_lat": 0.0, "lon": -77.03288383333333, "name": "97f6cbca069738d0d1eaad5b0f1944fa"}, {"bike_id": "def8c877b0bf9cd075c5550a9a8d637b", "type": "electric_scooter", "is_disabled": 0, "lat": 38.8922865, "rental_uris": {"ios": "https://dc.lft.to/lastmile_qr_scan", "android": "https://dc.lft.to/lastmile_qr_scan"}, "is_reserved": 0, "fusion_lon": 0.0, "fusion_lat": 0.0, "lon": -77.04511583333333, "name": "def8c877b0bf9cd075c5550a9a8d637b"}, {"bike_id": "dd9f0d43c4992a0616a939889dd4f221", "type": "electric_scooter", "is_disabled": 0, "lat": 38.903072, "rental_uris": {"ios": "https://dc.lft.to/lastmile_qr_scan", "android": "https://dc.lft.to/lastmile_qr_scan"}, "is_reserved": 0, "fusion_lon": 0.0, "fusion_lat": 0.0, "lon": -77.050544, "name": "dd9f0d43c4992a0616a939889dd4f221"}, {"bike_id": "7b267cfa5857f113f0761b3c7b7c0f01", "type": "electric_scooter", "is_disabled": 0, "lat": 38.897224333333334, "rental_uris": {"ios": "https://dc.lft.to/lastmile_qr_scan", "android": "https://dc.lft.to/lastmile_qr_scan"}, "is_reserved": 0, "fusion_lon": 0.0, "fusion_lat": 0.0, "lon": -77.00212166666667, "name": "7b267cfa5857f113f0761b3c7b7c0f01"}, {"bike_id": "ee0dffe035f3b1048882a2bc6c195154", "type": "electric_scooter", "is_disabled": 0, "lat": 38.92059016666666, "rental_uris": {"ios": "https://dc.lft.to/lastmile_qr_scan", "android": "https://dc.lft.to/lastmile_qr_scan"}, "is_reserved": 0, "fusion_lon": 0.0, "fusion_lat": 0.0, "lon": -77.0424795, "name": "ee0dffe035f3b1048882a2bc6c195154"}, {"bike_id": "5441a4d5e000ec5eae4b0f578a4e6c7a", "type": "electric_bike", "is_disabled": 0, "lat": 38.87983833333333, "rental_uris": {"ios": "https://dc.lft.to/lastmile_qr_scan", "android": "https://dc.lft.to/lastmile_qr_scan"}, "is_reserved": 0, "fusion_lon": 0.0, "fusion_lat": 0.0, "lon": -76.91598983333333, "name": "5441a4d5e000ec5eae4b0f578a4e6c7a"}, {"bike_id": "96ea38abfd71f1fee846cd05ca6e4a35", "type": "electric_scooter", "is_disabled": 0, "lat": 38.86020716666667, "rental_uris": {"ios": "https://dc.lft.to/lastmile_qr_scan", "android": "https://dc.lft.to/lastmile_qr_scan"}, "is_reserved": 0, "fusion_lon": 0.0, "fusion_lat": 0.0, "lon": -76.99681883333334, "name": "96ea38abfd71f1fee846cd05ca6e4a35"}, {"bike_id": "a3c54d253d4ff16416771b795f7f7ad6", "type": "electric_scooter", "is_disabled": 0, "lat": 38.892212, "rental_uris": {"ios": "https://dc.lft.to/lastmile_qr_scan", "android": "https://dc.lft.to/lastmile_qr_scan"}, "is_reserved": 0, "fusion_lon": 0.0, "fusion_lat": 0.0, "lon": -77.04310166666667, "name": "a3c54d253d4ff16416771b795f7f7ad6"}, {"bike_id": "b1b637caa5d9eb7173efca9e52db091d", "type": "electric_scooter", "is_disabled": 0, "lat": 38.926274666666664, "rental_uris": {"ios": "https://dc.lft.to/lastmile_qr_scan", "android": "https://dc.lft.to/lastmile_qr_scan"}, "is_reserved": 0, "fusion_lon": 0.0, "fusion_lat": 0.0, "lon": -77.0370595, "name": "b1b637caa5d9eb7173efca9e52db091d"}, {"bike_id": "03cca908c4b111f576bd43dbf7eb5b0b", "type": "electric_scooter", "is_disabled": 0, "lat": 38.898383333333335, "rental_uris": {"ios": "https://dc.lft.to/lastmile_qr_scan", "android": "https://dc.lft.to/lastmile_qr_scan"}, "is_reserved": 0, "fusion_lon": 0.0, "fusion_lat": 0.0, "lon": -77.022245, "name": "03cca908c4b111f576bd43dbf7eb5b0b"}, {"bike_id": "8759a720d639ac4f281a86187ae2aa35", "type": "electric_scooter", "is_disabled": 0, "lat": 38.88853983333333, "rental_uris": {"ios": "https://dc.lft.to/lastmile_qr_scan", "android": "https://dc.lft.to/lastmile_qr_scan"}, "is_reserved": 0, "fusion_lon": 0.0, "fusion_lat": 0.0, "lon": -77.00051983333333, "name": "8759a720d639ac4f281a86187ae2aa35"}, {"bike_id": "1e4c7a50ae27d74a56a5397cdbe16c15", "type": "electric_scooter", "is_disabled": 0, "lat": 38.876956666666665, "rental_uris": {"ios": "https://dc.lft.to/lastmile_qr_scan", "android": "https://dc.lft.to/lastmile_qr_scan"}, "is_reserved": 0, "fusion_lon": 0.0, "fusion_lat": 0.0, "lon": -76.93130666666667, "name": "1e4c7a50ae27d74a56a5397cdbe16c15"}, {"bike_id": "a825fd09286d94c6166fd8ed5426767f", "type": "electric_scooter", "is_disabled": 0, "lat": 38.918849333333334, "rental_uris": {"ios": "https://dc.lft.to/lastmile_qr_scan", "android": "https://dc.lft.to/lastmile_qr_scan"}, "is_reserved": 0, "fusion_lon": 0.0, "fusion_lat": 0.0, "lon": -77.048304, "name": "a825fd09286d94c6166fd8ed5426767f"}, {"bike_id": "3764734dfa3c8351a6077a9e272c35c1", "type": "electric_scooter", "is_disabled": 0, "lat": 38.91798283333333, "rental_uris": {"ios": "https://dc.lft.to/lastmile_qr_scan", "android": "https://dc.lft.to/lastmile_qr_scan"}, "is_reserved": 0, "fusion_lon": 0.0, "fusion_lat": 0.0, "lon": -77.03447716666666, "name": "3764734dfa3c8351a6077a9e272c35c1"}, {"bike_id": "a583e777eb89e3305539830cc6d3dc59", "type": "electric_scooter", "is_disabled": 0, "lat": 38.9503575, "rental_uris": {"ios": "https://dc.lft.to/lastmile_qr_scan", "android": "https://dc.lft.to/lastmile_qr_scan"}, "is_reserved": 0, "fusion_lon": 0.0, "fusion_lat": 0.0, "lon": -77.027215, "name": "a583e777eb89e3305539830cc6d3dc59"}, {"bike_id": "2dc82df9804fcc635744dae47bc1f593", "type": "electric_scooter", "is_disabled": 0, "lat": 38.9215505, "rental_uris": {"ios": "https://dc.lft.to/lastmile_qr_scan", "android": "https://dc.lft.to/lastmile_qr_scan"}, "is_reserved": 0, "fusion_lon": 0.0, "fusion_lat": 0.0, "lon": -77.03865783333333, "name": "2dc82df9804fcc635744dae47bc1f593"}, {"bike_id": "c6917b5887a295799f54e7df4dac09d2", "type": "electric_scooter", "is_disabled": 0, "lat": 38.89209916666667, "rental_uris": {"ios": "https://dc.lft.to/lastmile_qr_scan", "android": "https://dc.lft.to/lastmile_qr_scan"}, "is_reserved": 0, "fusion_lon": 0.0, "fusion_lat": 0.0, "lon": -76.99936833333334, "name": "c6917b5887a295799f54e7df4dac09d2"}, {"bike_id": "ae5fbc74bee776edc6582d0b28dfc42d", "type": "electric_scooter", "is_disabled": 0, "lat": 38.909738, "rental_uris": {"ios": "https://dc.lft.to/lastmile_qr_scan", "android": "https://dc.lft.to/lastmile_qr_scan"}, "is_reserved": 0, "fusion_lon": 0.0, "fusion_lat": 0.0, "lon": -77.02697133333334, "name": "ae5fbc74bee776edc6582d0b28dfc42d"}, {"bike_id": "20b79ca76bd4d0d4ce09cd185612853a", "type": "electric_bike", "is_disabled": 0, "lat": 39.052809, "rental_uris": {"ios": "https://dc.lft.to/lastmile_qr_scan", "android": "https://dc.lft.to/lastmile_qr_scan"}, "is_reserved": 0, "fusion_lon": 0.0, "fusion_lat": 0.0, "lon": -77.08072883333334, "name": "20b79ca76bd4d0d4ce09cd185612853a"}, {"bike_id": "e4fb48c2aa7358c81110091d881004aa", "type": "electric_scooter", "is_disabled": 0, "lat": 38.881177, "rental_uris": {"ios": "https://dc.lft.to/lastmile_qr_scan", "android": "https://dc.lft.to/lastmile_qr_scan"}, "is_reserved": 0, "fusion_lon": 0.0, "fusion_lat": 0.0, "lon": -77.001755, "name": "e4fb48c2aa7358c81110091d881004aa"}, {"bike_id": "453ac62b4f3b0f7170b0c5cd77866e02", "type": "electric_scooter", "is_disabled": 0, "lat": 38.86703033333333, "rental_uris": {"ios": "https://dc.lft.to/lastmile_qr_scan", "android": "https://dc.lft.to/lastmile_qr_scan"}, "is_reserved": 0, "fusion_lon": 0.0, "fusion_lat": 0.0, "lon": -76.9871015, "name": "453ac62b4f3b0f7170b0c5cd77866e02"}, {"bike_id": "1abbd0549219f5b621313ccebafcb77d", "type": "electric_scooter", "is_disabled": 0, "lat": 38.91183866666667, "rental_uris": {"ios": "https://dc.lft.to/lastmile_qr_scan", "android": "https://dc.lft.to/lastmile_qr_scan"}, "is_reserved": 0, "fusion_lon": 0.0, "fusion_lat": 0.0, "lon": -77.03834816666667, "name": "1abbd0549219f5b621313ccebafcb77d"}, {"bike_id": "c2d30f219090607bd03af6a6be7f5692", "type": "electric_scooter", "is_disabled": 0, "lat": 38.933402666666666, "rental_uris": {"ios": "https://dc.lft.to/lastmile_qr_scan", "android": "https://dc.lft.to/lastmile_qr_scan"}, "is_reserved": 0, "fusion_lon": 0.0, "fusion_lat": 0.0, "lon": -77.02060383333334, "name": "c2d30f219090607bd03af6a6be7f5692"}, {"bike_id": "482b54c13aac586d5c1831aff70f8f83", "type": "electric_scooter", "is_disabled": 0, "lat": 38.916852666666664, "rental_uris": {"ios": "https://dc.lft.to/lastmile_qr_scan", "android": "https://dc.lft.to/lastmile_qr_scan"}, "is_reserved": 0, "fusion_lon": 0.0, "fusion_lat": 0.0, "lon": -77.02945916666667, "name": "482b54c13aac586d5c1831aff70f8f83"}, {"bike_id": "302e36664c130bb0631bc2a52231fd06", "type": "electric_scooter", "is_disabled": 0, "lat": 38.91824533333333, "rental_uris": {"ios": "https://dc.lft.to/lastmile_qr_scan", "android": "https://dc.lft.to/lastmile_qr_scan"}, "is_reserved": 0, "fusion_lon": 0.0, "fusion_lat": 0.0, "lon": -77.0494505, "name": "302e36664c130bb0631bc2a52231fd06"}, {"bike_id": "eed8d08101652e63765b49c076cccffc", "type": "electric_scooter", "is_disabled": 0, "lat": 38.9072445, "rental_uris": {"ios": "https://dc.lft.to/lastmile_qr_scan", "android": "https://dc.lft.to/lastmile_qr_scan"}, "is_reserved": 0, "fusion_lon": 0.0, "fusion_lat": 0.0, "lon": -77.0325305, "name": "eed8d08101652e63765b49c076cccffc"}, {"bike_id": "dfcf25a8fe1482d79f90ab689e4e2d52", "type": "electric_scooter", "is_disabled": 0, "lat": 38.9299995, "rental_uris": {"ios": "https://dc.lft.to/lastmile_qr_scan", "android": "https://dc.lft.to/lastmile_qr_scan"}, "is_reserved": 0, "fusion_lon": 0.0, "fusion_lat": 0.0, "lon": -77.02372916666667, "name": "dfcf25a8fe1482d79f90ab689e4e2d52"}, {"bike_id": "faa80f27e82c7fe51020fcbd1cf7216f", "type": "electric_scooter", "is_disabled": 0, "lat": 38.90757116666666, "rental_uris": {"ios": "https://dc.lft.to/lastmile_qr_scan", "android": "https://dc.lft.to/lastmile_qr_scan"}, "is_reserved": 0, "fusion_lon": 0.0, "fusion_lat": 0.0, "lon": -77.01701366666667, "name": "faa80f27e82c7fe51020fcbd1cf7216f"}, {"bike_id": "31655f376f377508518ae687cb9bb899", "type": "electric_scooter", "is_disabled": 0, "lat": 38.93727366666667, "rental_uris": {"ios": "https://dc.lft.to/lastmile_qr_scan", "android": "https://dc.lft.to/lastmile_qr_scan"},