{"data": {"bikes": [{"fusion_lat": 0.0, "fusion_lon": 0.0, "rental_uris": {"android": "https://dc.lft.to/lastmile_qr_scan", "ios": "https://dc.lft.to/lastmile_qr_scan"}, "lon": -77.031839, "name": "89897c81abf96a86ffd1656777a9eff8", "is_disabled": 0, "is_reserved": 0, "bike_id": "89897c81abf96a86ffd1656777a9eff8", "lat": 38.918519833333335, "type": "electric_scooter"}, {"fusion_lat": 0.0, "fusion_lon": 0.0, "rental_uris": {"android": "https://dc.lft.to/lastmile_qr_scan", "ios": "https://dc.lft.to/lastmile_qr_scan"}, "lon": -77.03838883333333, "name": "e0b329258831b1ac9d5d5f60736e0787", "is_disabled": 0, "is_reserved": 0, "bike_id": "e0b329258831b1ac9d5d5f60736e0787", "lat": 38.94189466666667, "type": "electric_scooter"}, {"fusion_lat": 0.0, "fusion_lon": 0.0, "rental_uris": {"android": "https://dc.lft.to/lastmile_qr_scan", "ios": "https://dc.lft.to/lastmile_qr_scan"}, "lon": -77.02977066666666, "name": "79c84c5a6f3bee843c6cb3e8bbafe540", "is_disabled": 0, "is_reserved": 0, "bike_id": "79c84c5a6f3bee843c6cb3e8bbafe540", "lat": 38.890365, "type": "electric_scooter"}, {"fusion_lat": 0.0, "fusion_lon": 0.0, "rental_uris": {"android": "https://dc.lft.to/lastmile_qr_scan", "ios": "https://dc.lft.to/lastmile_qr_scan"}, "lon": -77.047047, "name": "3ace864b3b99f32c6f7ccb8d5d81dccd", "is_disabled": 0, "is_reserved": 0, "bike_id": "3ace864b3b99f32c6f7ccb8d5d81dccd", "lat": 38.921800166666664, "type": "electric_scooter"}, {"fusion_lat": 0.0, "fusion_lon": 0.0, "rental_uris": {"android": "https://dc.lft.to/lastmile_qr_scan", "ios": "https://dc.lft.to/lastmile_qr_scan"}, "lon": -77.030639, "name": "d90155df5a7d59bcafd2b2ff14cd7f7e", "is_disabled": 0, "is_reserved": 0, "bike_id": "d90155df5a7d59bcafd2b2ff14cd7f7e", "lat": 38.90274333333333, "type": "electric_scooter"}, {"fusion_lat": 0.0, "fusion_lon": 0.0, "rental_uris": {"android": "https://dc.lft.to/lastmile_qr_scan", "ios": "https://dc.lft.to/lastmile_qr_scan"}, "lon": -77.02221983333334, "name": "04e4d898d3f9272bf008a899370c6ecb", "is_disabled": 0, "is_reserved": 0, "bike_id": "04e4d898d3f9272bf008a899370c6ecb", "lat": 38.892212, "type": "electric_scooter"}, {"fusion_lat": 0.0, "fusion_lon": 0.0, "rental_uris": {"android": "https://dc.lft.to/lastmile_qr_scan", "ios": "https://dc.lft.to/lastmile_qr_scan"}, "lon": -77.059174, "name": "fb1582be86e2f2fe1b47d110d393530d", "is_disabled": 0, "is_reserved": 0, "bike_id": "fb1582be86e2f2fe1b47d110d393530d", "lat": 38.902779833333334, "type": "electric_scooter"}, {"fusion_lat": 0.0, "fusion_lon": 0.0, "rental_uris": {"android": "https://dc.lft.to/lastmile_qr_scan", "ios": "https://dc.lft.to/lastmile_qr_scan"}, "lon": -77.04482883333333, "name": "9979ff8d82b5a0a226a5aab04d650013", "is_disabled": 0, "is_reserved": 0, "bike_id": "9979ff8d82b5a0a226a5aab04d650013", "lat": 38.91599033333333, "type": "electric_scooter"}, {"fusion_lat": 0.0, "fusion_lon": 0.0, "rental_uris": {"android": "https://dc.lft.to/lastmile_qr_scan", "ios": "https://dc.lft.to/lastmile_qr_scan"}, "lon": -77.02837833333334, "name": "6a6958257cfcbc4d05b391dfa62ba98b", "is_disabled": 0, "is_reserved": 0, "bike_id": "6a6958257cfcbc4d05b391dfa62ba98b", "lat": 38.89371116666667, "type": "electric_scooter"}, {"fusion_lat": 0.0, "fusion_lon": 0.0, "rental_uris": {"android": "https://dc.lft.to/lastmile_qr_scan", "ios": "https://dc.lft.to/lastmile_qr_scan"}, "lon": -77.01457616666667, "name": "15ae1ecefb1482f72285252af5014e4d", "is_disabled": 0, "is_reserved": 0, "bike_id": "15ae1ecefb1482f72285252af5014e4d", "lat": 38.91591733333333, "type": "electric_scooter"}, {"fusion_lat": 0.0, "fusion_lon": 0.0, "rental_uris": {"android": "https://dc.lft.to/lastmile_qr_scan", "ios": "https://dc.lft.to/lastmile_qr_scan"}, "lon": -77.005535, "name": "edc3809043ccade7496bb741e4e254e3", "is_disabled": 0, "is_reserved": 0, "bike_id": "edc3809043ccade7496bb741e4e254e3", "lat": 38.902705833333336, "type": "electric_scooter"}, {"fusion_lat": 0.0, "fusion_lon": 0.0, "rental_uris": {"android": "https://dc.lft.to/lastmile_qr_scan", "ios": "https://dc.lft.to/lastmile_qr_scan"}, "lon": -77.005854, "name": "32f468c34b7bbbde3ef7db3618f619ac", "is_disabled": 0, "is_reserved": 0, "bike_id": "32f468c34b7bbbde3ef7db3618f619ac", "lat": 38.876470166666664, "type": "electric_scooter"}, {"fusion_lat": 0.0, "fusion_lon": 0.0, "rental_uris": {"android": "https://dc.lft.to/lastmile_qr_scan", "ios": "https://dc.lft.to/lastmile_qr_scan"}, "lon": -77.032052, "name": "01d0cbcf19ef7b6271b7bf2b6c446cec", "is_disabled": 0, "is_reserved": 0, "bike_id": "01d0cbcf19ef7b6271b7bf2b6c446cec", "lat": 38.91711683333333, "type": "electric_scooter"}, {"fusion_lat": 0.0, "fusion_lon": 0.0, "rental_uris": {"android": "https://dc.lft.to/lastmile_qr_scan", "ios": "https://dc.lft.to/lastmile_qr_scan"}, "lon": -77.0282665, "name": "4d1b5231fa67f0449421272967e68533", "is_disabled": 0, "is_reserved": 0, "bike_id": "4d1b5231fa67f0449421272967e68533", "lat": 38.92226266666667, "type": "electric_bike"}, {"fusion_lat": 0.0, "fusion_lon": 0.0, "rental_uris": {"android": "https://dc.lft.to/lastmile_qr_scan", "ios": "https://dc.lft.to/lastmile_qr_scan"}, "lon": -77.00595383333334, "name": "73bee08f86b3ab315d9296bce1d3472d", "is_disabled": 0, "is_reserved": 0, "bike_id": "73bee08f86b3ab315d9296bce1d3472d", "lat": 38.87660733333333, "type": "electric_scooter"}, {"fusion_lat": 0.0, "fusion_lon": 0.0, "rental_uris": {"android": "https://dc.lft.to/lastmile_qr_scan", "ios": "https://dc.lft.to/lastmile_qr_scan"}, "lon": -77.02290283333333, "name": "272707d59215bc33066dc71c7486098f", "is_disabled": 0, "is_reserved": 0, "bike_id": "272707d59215bc33066dc71c7486098f", "lat": 38.897043, "type": "electric_scooter"}, {"fusion_lat": 0.0, "fusion_lon": 0.0, "rental_uris": {"android": "https://dc.lft.to/lastmile_qr_scan", "ios": "https://dc.lft.to/lastmile_qr_scan"}, "lon": -77.04891416666666, "name": "a2ca22efbe97eee2f3492b622864cd64", "is_disabled": 0, "is_reserved": 0, "bike_id": "a2ca22efbe97eee2f3492b622864cd64", "lat": 38.898698833333334, "type": "electric_scooter"}, {"fusion_lat": 0.0, "fusion_lon": 0.0, "rental_uris": {"android": "https://dc.lft.to/lastmile_qr_scan", "ios": "https://dc.lft.to/lastmile_qr_scan"}, "lon": -77.0255765, "name": "c2958098c836e20bef867192114ee7e7", "is_disabled": 0, "is_reserved": 0, "bike_id": "c2958098c836e20bef867192114ee7e7", "lat": 38.909629833333334, "type": "electric_scooter"}, {"fusion_lat": 0.0, "fusion_lon": 0.0, "rental_uris": {"android": "https://dc.lft.to/lastmile_qr_scan", "ios": "https://dc.lft.to/lastmile_qr_scan"}, "lon": -77.0385475, "name": "3c9d6cdbb84de444e31e17801cb29402", "is_disabled": 0, "is_reserved": 0, "bike_id": "3c9d6cdbb84de444e31e17801cb29402", "lat": 38.903749833333336, "type": "electric_scooter"}, {"fusion_lat": 0.0, "fusion_lon": 0.0, "rental_uris": {"android": "https://dc.lft.to/lastmile_qr_scan", "ios": "https://dc.lft.to/lastmile_qr_scan"}, "lon": -77.003487, "name": "30b96d96d34afc69d86fcf62cf88de13", "is_disabled": 0, "is_reserved": 0, "bike_id": "30b96d96d34afc69d86fcf62cf88de13", "lat": 38.89459866666667, "type": "electric_scooter"}, {"fusion_lat": 0.0, "fusion_lon": 0.0, "rental_uris": {"android": "https://dc.lft.to/lastmile_qr_scan", "ios": "https://dc.lft.to/lastmile_qr_scan"}, "lon": -77.03242783333333, "name": "ec78463868f10a726044ddddfda523b8", "is_disabled": 0, "is_reserved": 0, "bike_id": "ec78463868f10a726044ddddfda523b8", "lat": 38.92729083333333, "type": "electric_scooter"}, {"fusion_lat": 0.0, "fusion_lon": 0.0, "rental_uris": {"android": "https://dc.lft.to/lastmile_qr_scan", "ios": "https://dc.lft.to/lastmile_qr_scan"}, "lon": -76.9785635, "name": "53b254d62ae62f99b9fdead9b90c926f", "is_disabled": 0, "is_reserved": 0, "bike_id": "53b254d62ae62f99b9fdead9b90c926f", "lat": 38.8446735, "type": "electric_bike"}, {"fusion_lat": 0.0, "fusion_lon": 0.0, "rental_uris": {"android": "https://dc.lft.to/lastmile_qr_scan", "ios": "https://dc.lft.to/lastmile_qr_scan"}, "lon": -76.9669685, "name": "4a168621ef021c5f93df504404892211", "is_disabled": 0, "is_reserved": 0, "bike_id": "4a168621ef021c5f93df504404892211", "lat": 38.8562305, "type": "electric_scooter"}, {"fusion_lat": 0.0, "fusion_lon": 0.0, "rental_uris": {"android": "https://dc.lft.to/lastmile_qr_scan", "ios": "https://dc.lft.to/lastmile_qr_scan"}, "lon": -76.99521483333334, "name": "2aa7267b0d30cbb7a50459fd7b416de9", "is_disabled": 0, "is_reserved": 0, "bike_id": "2aa7267b0d30cbb7a50459fd7b416de9", "lat": 38.8792235, "type": "electric_scooter"}, {"fusion_lat": 0.0, "fusion_lon": 0.0, "rental_uris": {"android": "https://dc.lft.to/lastmile_qr_scan", "ios": "https://dc.lft.to/lastmile_qr_scan"}, "lon": -77.01196416666667, "name": "b7d252b0ebad4f6d5b83d689d9a86ddc", "is_disabled": 0, "is_reserved": 0, "bike_id": "b7d252b0ebad4f6d5b83d689d9a86ddc", "lat": 38.89686016666667, "type": "electric_scooter"}, {"fusion_lat": 0.0, "fusion_lon": 0.0, "rental_uris": {"android": "https://dc.lft.to/lastmile_qr_scan", "ios": "https://dc.lft.to/lastmile_qr_scan"}, "lon": -76.96911266666666, "name": "9e9e469963dcfbb91e914498eb93726d", "is_disabled": 0, "is_reserved": 0, "bike_id": "9e9e469963dcfbb91e914498eb93726d", "lat": 38.846116333333335, "type": "electric_bike"}, {"fusion_lat": 0.0, "fusion_lon": 0.0, "rental_uris": {"android": "https://dc.lft.to/lastmile_qr_scan", "ios": "https://dc.lft.to/lastmile_qr_scan"}, "lon": -77.03632933333333, "name": "8ef2a75c856fbe5f7ac1a3cecd2f3982", "is_disabled": 0, "is_reserved": 0, "bike_id": "8ef2a75c856fbe5f7ac1a3cecd2f3982", "lat": 38.930664166666666, "type": "electric_scooter"}, {"fusion_lat": 0.0, "fusion_lon": 0.0, "rental_uris": {"android": "https://dc.lft.to/lastmile_qr_scan", "ios": "https://dc.lft.to/lastmile_qr_scan"}, "lon": -77.01747133333333, "name": "3b36b71bcf52704dcae7d2292c697903", "is_disabled": 0, "is_reserved": 0, "bike_id": "3b36b71bcf52704dcae7d2292c697903", "lat": 38.886373666666664, "type": "electric_scooter"}, {"fusion_lat": 0.0, "fusion_lon": 0.0, "rental_uris": {"android": "https://dc.lft.to/lastmile_qr_scan", "ios": "https://dc.lft.to/lastmile_qr_scan"}, "lon": -77.0215465, "name": "a50357ff417b1b40adc0c38c48adb774", "is_disabled": 0, "is_reserved": 0, "bike_id": "a50357ff417b1b40adc0c38c48adb774", "lat": 38.926013, "type": "electric_scooter"}, {"fusion_lat": 0.0, "fusion_lon": 0.0, "rental_uris": {"android": "https://dc.lft.to/lastmile_qr_scan", "ios": "https://dc.lft.to/lastmile_qr_scan"}, "lon": -77.02202433333333, "name": "1f3199b120a53d589bd00896d55e9c43", "is_disabled": 0, "is_reserved": 0, "bike_id": "1f3199b120a53d589bd00896d55e9c43", "lat": 38.88730783333333, "type": "electric_scooter"}, {"fusion_lat": 0.0, "fusion_lon": 0.0, "rental_uris": {"android": "https://dc.lft.to/lastmile_qr_scan", "ios": "https://dc.lft.to/lastmile_qr_scan"}, "lon": -77.0333045, "name": "658ed56220870e007d8346c534a95a00", "is_disabled": 0, "is_reserved": 0, "bike_id": "658ed56220870e007d8346c534a95a00", "lat": 38.90959933333333, "type": "electric_scooter"}, {"fusion_lat": 0.0, "fusion_lon": 0.0, "rental_uris": {"android": "https://dc.lft.to/lastmile_qr_scan", "ios": "https://dc.lft.to/lastmile_qr_scan"}, "lon": -76.99061333333333, "name": "860b462f2cd48fee3c16047ba1ebec1d", "is_disabled": 0, "is_reserved": 0, "bike_id": "860b462f2cd48fee3c16047ba1ebec1d", "lat": 38.863724, "type": "electric_scooter"}, {"fusion_lat": 0.0, "fusion_lon": 0.0, "rental_uris": {"android": "https://dc.lft.to/lastmile_qr_scan", "ios": "https://dc.lft.to/lastmile_qr_scan"}, "lon": -77.01167966666667, "name": "10753e12a71039756fe5f93c015a4947", "is_disabled": 0, "is_reserved": 0, "bike_id": "10753e12a71039756fe5f93c015a4947", "lat": 38.896202, "type": "electric_scooter"}, {"fusion_lat": 0.0, "fusion_lon": 0.0, "rental_uris": {"android": "https://dc.lft.to/lastmile_qr_scan", "ios": "https://dc.lft.to/lastmile_qr_scan"}, "lon": -76.96049133333334, "name": "87f3cf4e37214cce521579097d53e20a", "is_disabled": 0, "is_reserved": 0, "bike_id": "87f3cf4e37214cce521579097d53e20a", "lat": 38.96734416666666, "type": "electric_bike"}, {"fusion_lat": 0.0, "fusion_lon": 0.0, "rental_uris": {"android": "https://dc.lft.to/lastmile_qr_scan", "ios": "https://dc.lft.to/lastmile_qr_scan"}, "lon": -77.02198416666667, "name": "4223383ccb7d2b66f4a24b9ca9c08a88", "is_disabled": 0, "is_reserved": 0, "bike_id": "4223383ccb7d2b66f4a24b9ca9c08a88", "lat": 38.92475116666667, "type": "electric_scooter"}, {"fusion_lat": 0.0, "fusion_lon": 0.0, "rental_uris": {"android": "https://dc.lft.to/lastmile_qr_scan", "ios": "https://dc.lft.to/lastmile_qr_scan"}, "lon": -77.00601, "name": "462b2990de6eaa85cd9fe756511de9e3", "is_disabled": 0, "is_reserved": 0, "bike_id": "462b2990de6eaa85cd9fe756511de9e3", "lat": 38.875623833333336, "type": "electric_scooter"}, {"fusion_lat": 0.0, "fusion_lon": 0.0, "rental_uris": {"android": "https://dc.lft.to/lastmile_qr_scan", "ios": "https://dc.lft.to/lastmile_qr_scan"}, "lon": -77.048771, "name": "a8ce7a6d3c6941c18083f34ffb9c6a94", "is_disabled": 0, "is_reserved": 0, "bike_id": "a8ce7a6d3c6941c18083f34ffb9c6a94", "lat": 38.90309516666667, "type": "electric_scooter"}, {"fusion_lat": 0.0, "fusion_lon": 0.0, "rental_uris": {"android": "https://dc.lft.to/lastmile_qr_scan", "ios": "https://dc.lft.to/lastmile_qr_scan"}, "lon": -77.0197485, "name": "f6f3c62a248618028588eb74ca73ff11", "is_disabled": 0, "is_reserved": 0, "bike_id": "f6f3c62a248618028588eb74ca73ff11", "lat": 38.880326, "type": "electric_scooter"}, {"fusion_lat": 0.0, "fusion_lon": 0.0, "rental_uris": {"android": "https://dc.lft.to/lastmile_qr_scan", "ios": "https://dc.lft.to/lastmile_qr_scan"}, "lon": -77.02141166666667, "name": "8147160bf30da0bc5b8455562440ef00", "is_disabled": 0, "is_reserved": 0, "bike_id": "8147160bf30da0bc5b8455562440ef00", "lat": 38.925068333333336, "type": "electric_scooter"}, {"fusion_lat": 0.0, "fusion_lon": 0.0, "rental_uris": {"android": "https://dc.lft.to/lastmile_qr_scan", "ios": "https://dc.lft.to/lastmile_qr_scan"}, "lon": -76.93339016666667, "name": "a39d0926149e5ab1dde5d1402ea8faab", "is_disabled": 0, "is_reserved": 0, "bike_id": "a39d0926149e5ab1dde5d1402ea8faab", "lat": 38.908650333333334, "type": "electric_scooter"}, {"fusion_lat": 0.0, "fusion_lon": 0.0, "rental_uris": {"android": "https://dc.lft.to/lastmile_qr_scan", "ios": "https://dc.lft.to/lastmile_qr_scan"}, "lon": -77.0356015, "name": "cb3140242ff7bdb0c1fd3978362c0e95", "is_disabled": 0, "is_reserved": 0, "bike_id": "cb3140242ff7bdb0c1fd3978362c0e95", "lat": 38.9014685, "type": "electric_scooter"}, {"fusion_lat": 0.0, "fusion_lon": 0.0, "rental_uris": {"android": "https://dc.lft.to/lastmile_qr_scan", "ios": "https://dc.lft.to/lastmile_qr_scan"}, "lon": -77.0402405, "name": "6dcb96f21d549b35c4fc414f88aace2f", "is_disabled": 0, "is_reserved": 0, "bike_id": "6dcb96f21d549b35c4fc414f88aace2f", "lat": 38.90358633333334, "type": "electric_scooter"}, {"fusion_lat": 0.0, "fusion_lon": 0.0, "rental_uris": {"android": "https://dc.lft.to/lastmile_qr_scan", "ios": "https://dc.lft.to/lastmile_qr_scan"}, "lon": -77.06796183333333, "name": "1dd953f23ea9bab8f27927654055b012", "is_disabled": 0, "is_reserved": 0, "bike_id": "1dd953f23ea9bab8f27927654055b012", "lat": 38.912824666666666, "type": "electric_scooter"}, {"fusion_lat": 0.0, "fusion_lon": 0.0, "rental_uris": {"android": "https://dc.lft.to/lastmile_qr_scan", "ios": "https://dc.lft.to/lastmile_qr_scan"}, "lon": -77.01857483333333, "name": "bdf5a6a8c89fa2067afaeae86fe51de6", "is_disabled": 0, "is_reserved": 0, "bike_id": "bdf5a6a8c89fa2067afaeae86fe51de6", "lat": 38.949206, "type": "electric_scooter"}, {"fusion_lat": 0.0, "fusion_lon": 0.0, "rental_uris": {"android": "https://dc.lft.to/lastmile_qr_scan", "ios": "https://dc.lft.to/lastmile_qr_scan"}, "lon": -77.0506735, "name": "35ee680f79dce0986f1819a9d4629361", "is_disabled": 0, "is_reserved": 0, "bike_id": "35ee680f79dce0986f1819a9d4629361", "lat": 38.9253225, "type": "electric_scooter"}, {"fusion_lat": 0.0, "fusion_lon": 0.0, "rental_uris": {"android": "https://dc.lft.to/lastmile_qr_scan", "ios": "https://dc.lft.to/lastmile_qr_scan"}, "lon": -77.044886, "name": "46e734ec40e8482341d7b87381733a2e", "is_disabled": 0, "is_reserved": 0, "bike_id": "46e734ec40e8482341d7b87381733a2e", "lat": 38.903722, "type": "electric_scooter"}, {"fusion_lat": 0.0, "fusion_lon": 0.0, "rental_uris": {"android": "https://dc.lft.to/lastmile_qr_scan", "ios": "https://dc.lft.to/lastmile_qr_scan"}, "lon": -77.04392916666667, "name": "938782d68b721dfeae7f43394e6dc3e8", "is_disabled": 0, "is_reserved": 0, "bike_id": "938782d68b721dfeae7f43394e6dc3e8", "lat": 38.9088615, "type": "electric_scooter"}, {"fusion_lat": 0.0, "fusion_lon": 0.0, "rental_uris": {"android": "https://dc.lft.to/lastmile_qr_scan", "ios": "https://dc.lft.to/lastmile_qr_scan"}, "lon": -77.01828833333333, "name": "da3724c81d49390acad997694f9eda30", "is_disabled": 0, "is_reserved": 0, "bike_id": "da3724c81d49390acad997694f9eda30", "lat": 38.8998675, "type": "electric_scooter"}, {"fusion_lat": 0.0, "fusion_lon": 0.0, "rental_uris": {"android": "https://dc.lft.to/lastmile_qr_scan", "ios": "https://dc.lft.to/lastmile_qr_scan"}, "lon": -77.033417, "name": "565f9a10f6feee91b485611d38c87ccf", "is_disabled": 0, "is_reserved": 0, "bike_id": "565f9a10f6feee91b485611d38c87ccf", "lat": 38.90247133333333, "type": "electric_scooter"}, {"fusion_lat": 0.0, "fusion_lon": 0.0, "rental_uris": {"android": "https://dc.lft.to/lastmile_qr_scan", "ios": "https://dc.lft.to/lastmile_qr_scan"}, "lon": -77.043547, "name": "ad704eb8268659394eeaded06d482cfc", "is_disabled": 0, "is_reserved": 0, "bike_id": "ad704eb8268659394eeaded06d482cfc", "lat": 38.90431316666667, "type": "electric_scooter"}, {"fusion_lat": 0.0, "fusion_lon": 0.0, "rental_uris": {"android": "https://dc.lft.to/lastmile_qr_scan", "ios": "https://dc.lft.to/lastmile_qr_scan"}, "lon": -77.01233366666666, "name": "505c242e7dec609b400941b2e9d8727c", "is_disabled": 0, "is_reserved": 0, "bike_id": "505c242e7dec609b400941b2e9d8727c", "lat": 38.87207516666667, "type": "electric_scooter"}, {"fusion_lat": 0.0, "fusion_lon": 0.0, "rental_uris": {"android": "https://dc.lft.to/lastmile_qr_scan", "ios": "https://dc.lft.to/lastmile_qr_scan"}, "lon": -77.00657533333333, "name": "122ff2d29f936c1802f80b0289c0c2c2", "is_disabled": 0, "is_reserved": 0, "bike_id": "122ff2d29f936c1802f80b0289c0c2c2", "lat": 38.91196033333333, "type": "electric_scooter"}, {"fusion_lat": 0.0, "fusion_lon": 0.0, "rental_uris": {"android": "https://dc.lft.to/lastmile_qr_scan", "ios": "https://dc.lft.to/lastmile_qr_scan"}, "lon": -77.03660966666666, "name": "0c646269e24ecda34acacfeffe84cf91", "is_disabled": 0, "is_reserved": 0, "bike_id": "0c646269e24ecda34acacfeffe84cf91", "lat": 38.910039833333336, "type": "electric_scooter"}, {"fusion_lat": 0.0, "fusion_lon": 0.0, "rental_uris": {"android": "https://dc.lft.to/lastmile_qr_scan", "ios": "https://dc.lft.to/lastmile_qr_scan"}, "lon": -77.03885216666667, "name": "9eabd372ac5304133af7f7a7824f9b0b", "is_disabled": 0, "is_reserved": 0, "bike_id": "9eabd372ac5304133af7f7a7824f9b0b", "lat": 38.92254533333333, "type": "electric_scooter"}, {"fusion_lat": 0.0, "fusion_lon": 0.0, "rental_uris": {"android": "https://dc.lft.to/lastmile_qr_scan", "ios": "https://dc.lft.to/lastmile_qr_scan"}, "lon": -77.04338566666667, "name": "d9a5f4ced246024ff5484484eec804b2", "is_disabled": 0, "is_reserved": 0, "bike_id": "d9a5f4ced246024ff5484484eec804b2", "lat": 38.90367083333334, "type": "electric_scooter"}, {"fusion_lat": 0.0, "fusion_lon": 0.0, "rental_uris": {"android": "https://dc.lft.to/lastmile_qr_scan", "ios": "https://dc.lft.to/lastmile_qr_scan"}, "lon": -76.97053733333334, "name": "368b96d277d5c16e4434ac4c85da7b4b", "is_disabled": 0, "is_reserved": 0, "bike_id": "368b96d277d5c16e4434ac4c85da7b4b", "lat": 38.984585333333335, "type": "electric_bike"}, {"fusion_lat": 0.0, "fusion_lon": 0.0, "rental_uris": {"android": "https://dc.lft.to/lastmile_qr_scan", "ios": "https://dc.lft.to/lastmile_qr_scan"}, "lon": -77.03994383333334, "name": "83a8a3d4a6c77ce4a9b232160c206d0e", "is_disabled": 0, "is_reserved": 0, "bike_id": "83a8a3d4a6c77ce4a9b232160c206d0e", "lat": 38.924367833333335, "type": "electric_scooter"}, {"fusion_lat": 0.0, "fusion_lon": 0.0, "rental_uris": {"android": "https://dc.lft.to/lastmile_qr_scan", "ios": "https://dc.lft.to/lastmile_qr_scan"}, "lon": -76.98625033333333, "name": "5ab0669fdcac8cf4188f33ed5a2d2d9e", "is_disabled": 0, "is_reserved": 0, "bike_id": "5ab0669fdcac8cf4188f33ed5a2d2d9e", "lat": 38.93287316666667, "type": "electric_scooter"}, {"fusion_lat": 0.0, "fusion_lon": 0.0, "rental_uris": {"android": "https://dc.lft.to/lastmile_qr_scan", "ios": "https://dc.lft.to/lastmile_qr_scan"}, "lon": -77.03280433333333, "name": "9c167b10440d3c1ae47f8e0fdcac3263", "is_disabled": 0, "is_reserved": 0, "bike_id": "9c167b10440d3c1ae47f8e0fdcac3263", "lat": 38.922681833333336, "type": "electric_scooter"}, {"fusion_lat": 0.0, "fusion_lon": 0.0, "rental_uris": {"android": "https://dc.lft.to/lastmile_qr_scan", "ios": "https://dc.lft.to/lastmile_qr_scan"}, "lon": -77.01224816666667, "name": "af72bff1e5d16b1cad88d8a0059a5835", "is_disabled": 0, "is_reserved": 0, "bike_id": "af72bff1e5d16b1cad88d8a0059a5835", "lat": 38.897384833333334, "type": "electric_scooter"}, {"fusion_lat": 0.0, "fusion_lon": 0.0, "rental_uris": {"android": "https://dc.lft.to/lastmile_qr_scan", "ios": "https://dc.lft.to/lastmile_qr_scan"}, "lon": -76.97097033333333, "name": "b15ab1997d41a245bea5a313890bcc86", "is_disabled": 0, "is_reserved": 0, "bike_id": "b15ab1997d41a245bea5a313890bcc86", "lat": 38.87059633333333, "type": "electric_scooter"}, {"fusion_lat": 0.0, "fusion_lon": 0.0, "rental_uris": {"android": "https://dc.lft.to/lastmile_qr_scan", "ios": "https://dc.lft.to/lastmile_qr_scan"}, "lon": -77.04072233333333, "name": "2fcd2c36873c5a29bcb876dad3fa7bd1", "is_disabled": 0, "is_reserved": 0, "bike_id": "2fcd2c36873c5a29bcb876dad3fa7bd1", "lat": 38.90381466666667, "type": "electric_scooter"}, {"fusion_lat": 0.0, "fusion_lon": 0.0, "rental_uris": {"android": "https://dc.lft.to/lastmile_qr_scan", "ios": "https://dc.lft.to/lastmile_qr_scan"}, "lon": -77.019461, "name": "25d346e3517c49fc7e0c57dcfe7f04d1", "is_disabled": 0, "is_reserved": 0, "bike_id": "25d346e3517c49fc7e0c57dcfe7f04d1", "lat": 38.9241915, "type": "electric_scooter"}, {"fusion_lat": 0.0, "fusion_lon": 0.0, "rental_uris": {"android": "https://dc.lft.to/lastmile_qr_scan", "ios": "https://dc.lft.to/lastmile_qr_scan"}, "lon": -77.2013815, "name": "1f4efd8caa936c9a971ed836c6d34fea", "is_disabled": 0, "is_reserved": 0, "bike_id": "1f4efd8caa936c9a971ed836c6d34fea", "lat": 38.92219333333333, "type": "electric_bike"}, {"fusion_lat": 0.0, "fusion_lon": 0.0, "rental_uris": {"android": "https://dc.lft.to/lastmile_qr_scan", "ios": "https://dc.lft.to/lastmile_qr_scan"}, "lon": -77.0499255, "name": "190ae6a4ff9794f7c38ebd0f5387ffae", "is_disabled": 0, "is_reserved": 0, "bike_id": "190ae6a4ff9794f7c38ebd0f5387ffae", "lat": 38.90124266666667, "type": "electric_scooter"}, {"fusion_lat": 0.0, "fusion_lon": 0.0, "rental_uris": {"android": "https://dc.lft.to/lastmile_qr_scan", "ios": "https://dc.lft.to/lastmile_qr_scan"}, "lon": -77.04863133333333, "name": "ca9652aa111d5fc5ad1df392430b9a0e", "is_disabled": 0, "is_reserved": 0, "bike_id": "ca9652aa111d5fc5ad1df392430b9a0e", "lat": 38.90954683333333, "type": "electric_bike"}, {"fusion_lat": 0.0, "fusion_lon": 0.0, "rental_uris": {"android": "https://dc.lft.to/lastmile_qr_scan", "ios": "https://dc.lft.to/lastmile_qr_scan"}, "lon": -76.93189766666667, "name": "6acbb06666aaf5794d2784c98b89499f", "is_disabled": 0, "is_reserved": 0, "bike_id": "6acbb06666aaf5794d2784c98b89499f", "lat": 38.898757333333336, "type": "electric_scooter"}, {"fusion_lat": 0.0, "fusion_lon": 0.0, "rental_uris": {"android": "https://dc.lft.to/lastmile_qr_scan", "ios": "https://dc.lft.to/lastmile_qr_scan"}, "lon": -76.97161066666666, "name": "d4eb2ff65f69c2f9bda3e9d0a745de9f", "is_disabled": 0, "is_reserved": 0, "bike_id": "d4eb2ff65f69c2f9bda3e9d0a745de9f", "lat": 38.924346666666665, "type": "electric_bike"}, {"fusion_lat": 0.0, "fusion_lon": 0.0, "rental_uris": {"android": "https://dc.lft.to/lastmile_qr_scan", "ios": "https://dc.lft.to/lastmile_qr_scan"}, "lon": -77.077002, "name": "1f93f55a238133483a542e5939348ef2", "is_disabled": 0, "is_reserved": 0, "bike_id": "1f93f55a238133483a542e5939348ef2", "lat": 38.943831833333334, "type": "electric_scooter"}, {"fusion_lat": 0.0, "fusion_lon": 0.0, "rental_uris": {"android": "https://dc.lft.to/lastmile_qr_scan", "ios": "https://dc.lft.to/lastmile_qr_scan"}, "lon": -77.0399345, "name": "b0ddbe28f5a992c7402d757b66ac0d10", "is_disabled": 0, "is_reserved": 0, "bike_id": "b0ddbe28f5a992c7402d757b66ac0d10", "lat": 38.9243635, "type": "electric_scooter"}, {"fusion_lat": 0.0, "fusion_lon": 0.0, "rental_uris": {"android": "https://dc.lft.to/lastmile_qr_scan", "ios": "https://dc.lft.to/lastmile_qr_scan"}, "lon": -77.03300483333334, "name": "c4bdffde6df9e7c5acb3af73f0a6c9a3", "is_disabled": 0, "is_reserved": 0, "bike_id": "c4bdffde6df9e7c5acb3af73f0a6c9a3", "lat": 38.9563195, "type": "electric_scooter"}, {"fusion_lat": 0.0, "fusion_lon": 0.0, "rental_uris": {"android": "https://dc.lft.to/lastmile_qr_scan", "ios": "https://dc.lft.to/lastmile_qr_scan"}, "lon": -77.02968616666666, "name": "3b3fd36f45f26c7a5f06f43b0b4f965d", "is_disabled": 0, "is_reserved": 0, "bike_id": "3b3fd36f45f26c7a5f06f43b0b4f965d", "lat": 38.922658, "type": "electric_scooter"}, {"fusion_lat": 0.0, "fusion_lon": 0.0, "rental_uris": {"android": "https://dc.lft.to/lastmile_qr_scan", "ios": "https://dc.lft.to/lastmile_qr_scan"}, "lon": -77.03218883333334, "name": "e27166d79d4895988a9698cad07a1064", "is_disabled": 0, "is_reserved": 0, "bike_id": "e27166d79d4895988a9698cad07a1064", "lat": 38.89220566666667, "type": "electric_scooter"}, {"fusion_lat": 0.0, "fusion_lon": 0.0, "rental_uris": {"android": "https://dc.lft.to/lastmile_qr_scan", "ios": "https://dc.lft.to/lastmile_qr_scan"}, "lon": -77.02008716666667, "name": "e76f09b4196502099211494fe7446abd", "is_disabled": 0, "is_reserved": 0, "bike_id": "e76f09b4196502099211494fe7446abd", "lat": 38.89784016666667, "type": "electric_scooter"}, {"fusion_lat": 0.0, "fusion_lon": 0.0, "rental_uris": {"android": "https://dc.lft.to/lastmile_qr_scan", "ios": "https://dc.lft.to/lastmile_qr_scan"}, "lon": -77.01982183333334, "name": "fb832da80629979d651fa38baf211949", "is_disabled": 0, "is_reserved": 0, "bike_id": "fb832da80629979d651fa38baf211949", "lat": 38.89368133333333, "type": "electric_scooter"}, {"fusion_lat": 0.0, "fusion_lon": 0.0, "rental_uris": {"android": "https://dc.lft.to/lastmile_qr_scan", "ios": "https://dc.lft.to/lastmile_qr_scan"}, "lon": -77.02167483333334, "name": "7b651c77bd9584eba8576107bc1c8555", "is_disabled": 0, "is_reserved": 0, "bike_id": "7b651c77bd9584eba8576107bc1c8555", "lat": 38.8972775, "type": "electric_scooter"}, {"fusion_lat": 0.0, "fusion_lon": 0.0, "rental_uris": {"android": "https://dc.lft.to/lastmile_qr_scan", "ios": "https://dc.lft.to/lastmile_qr_scan"}, "lon": -77.00310066666667, "name": "8d5a368dd81312699e811f1b79a05c0f", "is_disabled": 0, "is_reserved": 0, "bike_id": "8d5a368dd81312699e811f1b79a05c0f", "lat": 38.877122666666665, "type": "electric_scooter"}, {"fusion_lat": 0.0, "fusion_lon": 0.0, "rental_uris": {"android": "https://dc.lft.to/lastmile_qr_scan", "ios": "https://dc.lft.to/lastmile_qr_scan"}, "lon": -77.00327233333333, "name": "5a9b4e7d89907d5fa4fb6a5886ee5174", "is_disabled": 0, "is_reserved": 0, "bike_id": "5a9b4e7d89907d5fa4fb6a5886ee5174", "lat": 38.8850245, "type": "electric_scooter"}, {"fusion_lat": 0.0, "fusion_lon": 0.0, "rental_uris": {"android": "https://dc.lft.to/lastmile_qr_scan", "ios": "https://dc.lft.to/lastmile_qr_scan"}, "lon": -77.02707983333333, "name": "abb68854415e37b1ad1ea6d9347f3e27", "is_disabled": 0, "is_reserved": 0, "bike_id": "abb68854415e37b1ad1ea6d9347f3e27", "lat": 38.881353, "type": "electric_scooter"}, {"fusion_lat": 0.0, "fusion_lon": 0.0, "rental_uris": {"android": "https://dc.lft.to/lastmile_qr_scan", "ios": "https://dc.lft.to/lastmile_qr_scan"}, "lon": -77.01219966666666, "name": "82700913de0d6a35c655a79e11ed05ce", "is_disabled": 0, "is_reserved": 0, "bike_id": "82700913de0d6a35c655a79e11ed05ce", "lat": 38.92598866666667, "type": "electric_scooter"}, {"fusion_lat": 0.0, "fusion_lon": 0.0, "rental_uris": {"android": "https://dc.lft.to/lastmile_qr_scan", "ios": "https://dc.lft.to/lastmile_qr_scan"}, "lon": -77.0397155, "name": "20fd9097d6a141ca6133622e21e43bc7", "is_disabled": 0, "is_reserved": 0, "bike_id": "20fd9097d6a141ca6133622e21e43bc7", "lat": 38.901519, "type": "electric_scooter"}, {"fusion_lat": 0.0, "fusion_lon": 0.0, "rental_uris": {"android": "https://dc.lft.to/lastmile_qr_scan", "ios": "https://dc.lft.to/lastmile_qr_scan"}, "lon": -76.982757, "name": "7e2cb64c50aea46cb2a3bc378abf11f6", "is_disabled": 0, "is_reserved": 0, "bike_id": "7e2cb64c50aea46cb2a3bc378abf11f6", "lat": 38.867606333333335, "type": "electric_scooter"}, {"fusion_lat": 0.0, "fusion_lon": 0.0, "rental_uris": {"android": "https://dc.lft.to/lastmile_qr_scan", "ios": "https://dc.lft.to/lastmile_qr_scan"}, "lon": -77.04979983333334, "name": "3d528036988c13e3aaf839c7ef1b9002", "is_disabled": 0, "is_reserved": 0, "bike_id": "3d528036988c13e3aaf839c7ef1b9002", "lat": 38.917863833333335, "type": "electric_scooter"}, {"fusion_lat": 0.0, "fusion_lon": 0.0, "rental_uris": {"android": "https://dc.lft.to/lastmile_qr_scan", "ios": "https://dc.lft.to/lastmile_qr_scan"}, "lon": -77.0332345, "name": "4c3d3ac9abb954dc5727a1010cc1d9a2", "is_disabled": 0, "is_reserved": 0, "bike_id": "4c3d3ac9abb954dc5727a1010cc1d9a2", "lat": 38.9156325, "type": "electric_scooter"}, {"fusion_lat": 0.0, "fusion_lon": 0.0, "rental_uris": {"android": "https://dc.lft.to/lastmile_qr_scan", "ios": "https://dc.lft.to/lastmile_qr_scan"}, "lon": -77.04537983333333, "name": "4841fdc761fe8f5df3022a93f811bf97", "is_disabled": 0, "is_reserved": 0, "bike_id": "4841fdc761fe8f5df3022a93f811bf97", "lat": 39.033150666666664, "type": "electric_bike"}, {"fusion_lat": 0.0, "fusion_lon": 0.0, "rental_uris": {"android": "https://dc.lft.to/lastmile_qr_scan", "ios": "https://dc.lft.to/lastmile_qr_scan"}, "lon": -76.97234166666667, "name": "863780bb322e44aa4f4a1f4d6004d2d0", "is_disabled": 0, "is_reserved": 0, "bike_id": "863780bb322e44aa4f4a1f4d6004d2d0", "lat": 38.9042335, "type": "electric_bike"}, {"fusion_lat": 0.0, "fusion_lon": 0.0, "rental_uris": {"android": "https://dc.lft.to/lastmile_qr_scan", "ios": "https://dc.lft.to/lastmile_qr_scan"}, "lon": -77.03298933333333, "name": "65970cbc525e17ca564d336891e4c7e0", "is_disabled": 0, "is_reserved": 0, "bike_id": "65970cbc525e17ca564d336891e4c7e0", "lat": 38.9034435, "type": "electric_scooter"}, {"fusion_lat": 0.0, "fusion_lon": 0.0, "rental_uris": {"android": "https://dc.lft.to/lastmile_qr_scan", "ios": "https://dc.lft.to/lastmile_qr_scan"}, "lon": -77.00607916666667, "name": "52018f9a8b7aa0e24e9123428fbc108b", "is_disabled": 0, "is_reserved": 0, "bike_id": "52018f9a8b7aa0e24e9123428fbc108b", "lat": 38.871758166666666, "type": "electric_scooter"}, {"fusion_lat": 0.0, "fusion_lon": 0.0, "rental_uris": {"android": "https://dc.lft.to/lastmile_qr_scan", "ios": "https://dc.lft.to/lastmile_qr_scan"}, "lon": -77.0243625, "name": "f3bcaf1599ba18f1bdbfde17c40cb196", "is_disabled": 0, "is_reserved": 0, "bike_id": "f3bcaf1599ba18f1bdbfde17c40cb196", "lat": 38.900936, "type": "electric_scooter"}, {"fusion_lat": 0.0, "fusion_lon": 0.0, "rental_uris": {"android": "https://dc.lft.to/lastmile_qr_scan", "ios": "https://dc.lft.to/lastmile_qr_scan"}, "lon": -77.09960233333334, "name": "d6492e8e11e99f8ecf3861c37d0901e1", "is_disabled": 0, "is_reserved": 0, "bike_id": "d6492e8e11e99f8ecf3861c37d0901e1", "lat": 38.85786066666667, "type": "electric_bike"}, {"fusion_lat": 0.0, "fusion_lon": 0.0, "rental_uris": {"android": "https://dc.lft.to/lastmile_qr_scan", "ios": "https://dc.lft.to/lastmile_qr_scan"}, "lon": -77.02834533333333, "name": "ecfa5fbeac9bca8c34cf9bc8b567df20", "is_disabled": 0, "is_reserved": 0, "bike_id": "ecfa5fbeac9bca8c34cf9bc8b567df20", "lat": 38.89371916666666, "type": "electric_scooter"}, {"fusion_lat": 0.0, "fusion_lon": 0.0, "rental_uris": {"android": "https://dc.lft.to/lastmile_qr_scan", "ios": "https://dc.lft.to/lastmile_qr_scan"}, "lon": -77.0321145, "name": "9b1f245d5568c3fe22463c705c489486", "is_disabled": 0, "is_reserved": 0, "bike_id": "9b1f245d5568c3fe22463c705c489486", "lat": 38.91350666666666, "type": "electric_scooter"}, {"fusion_lat": 0.0, "fusion_lon": 0.0, "rental_uris": {"android": "https://dc.lft.to/lastmile_qr_scan", "ios": "https://dc.lft.to/lastmile_qr_scan"}, "lon": -77.05149816666666, "name": "aa9af76c1a139830752b62f0bc9cf41c", "is_disabled": 0, "is_reserved": 0, "bike_id": "aa9af76c1a139830752b62f0bc9cf41c", "lat": 38.923768, "type": "electric_scooter"}, {"fusion_lat": 0.0, "fusion_lon": 0.0, "rental_uris": {"android": "https://dc.lft.to/lastmile_qr_scan", "ios": "https://dc.lft.to/lastmile_qr_scan"}, "lon": -76.987666, "name": "5594e78b049c3494a9c6dbf1b00b0f0e", "is_disabled": 0, "is_reserved": 0, "bike_id": "5594e78b049c3494a9c6dbf1b00b0f0e", "lat": 38.900295666666665, "type": "electric_scooter"}, {"fusion_lat": 0.0, "fusion_lon": 0.0, "rental_uris": {"android": "https://dc.lft.to/lastmile_qr_scan", "ios": "https://dc.lft.to/lastmile_qr_scan"}, "lon": -76.95836966666667, "name": "df721fd5824aa91e503cc142f4aec5d5", "is_disabled": 0, "is_reserved": 0, "bike_id": "df721fd5824aa91e503cc142f4aec5d5", "lat": 38.93044066666667, "type": "electric_bike"}, {"fusion_lat": 0.0, "fusion_lon": 0.0, "rental_uris": {"android": "https://dc.lft.to/lastmile_qr_scan", "ios": "https://dc.lft.to/lastmile_qr_scan"}, "lon": -77.05018033333333, "name": "6022a5043f6cd878a27f59a257b122a9", "is_disabled": 0, "is_reserved": 0, "bike_id": "6022a5043f6cd878a27f59a257b122a9", "lat": 38.90138283333334, "type": "electric_scooter"}, {"fusion_lat": 0.0, "fusion_lon": 0.0, "rental_uris": {"android": "https://dc.lft.to/lastmile_qr_scan", "ios": "https://dc.lft.to/lastmile_qr_scan"}, "lon": -77.04402733333333, "name": "14d5a6a6ce1b3e76b7a251e9e731d512", "is_disabled": 0, "is_reserved": 0, "bike_id": "14d5a6a6ce1b3e76b7a251e9e731d512", "lat": 38.92949, "type": "electric_scooter"}, {"fusion_lat": 0.0, "fusion_lon": 0.0, "rental_uris": {"android": "https://dc.lft.to/lastmile_qr_scan", "ios": "https://dc.lft.to/lastmile_qr_scan"}, "lon": -76.99227966666666, "name": "cbc7a70d2d199df4eb403f319aa2ea86", "is_disabled": 0, "is_reserved": 0, "bike_id": "cbc7a70d2d199df4eb403f319aa2ea86", "lat": 38.90794966666667, "type": "electric_scooter"}, {"fusion_lat": 0.0, "fusion_lon": 0.0, "rental_uris": {"android": "https://dc.lft.to/lastmile_qr_scan", "ios": "https://dc.lft.to/lastmile_qr_scan"}, "lon": -77.11759733333334, "name": "2cfa86f16c8cd6f6b63067d238087d62", "is_disabled": 0, "is_reserved": 0, "bike_id": "2cfa86f16c8cd6f6b63067d238087d62", "lat": 39.0510405, "type": "electric_bike"}, {"fusion_lat": 0.0, "fusion_lon": 0.0, "rental_uris": {"android": "https://dc.lft.to/lastmile_qr_scan", "ios": "https://dc.lft.to/lastmile_qr_scan"}, "lon": -77.038574, "name": "1fc331cad536eaa1686062ece1873f3a", "is_disabled": 0, "is_reserved": 0, "bike_id": "1fc331cad536eaa1686062ece1873f3a", "lat": 38.90275333333334, "type": "electric_scooter"}, {"fusion_lat": 0.0, "fusion_lon": 0.0, "rental_uris": {"android": "https://dc.lft.to/lastmile_qr_scan", "ios": "https://dc.lft.to/lastmile_qr_scan"}, "lon": -77.05472716666667, "name": "be297f7a390b6d65b47620e64f117b63", "is_disabled": 0, "is_reserved": 0, "bike_id": "be297f7a390b6d65b47620e64f117b63", "lat": 38.90949483333333, "type": "electric_scooter"}, {"fusion_lat": 0.0, "fusion_lon": 0.0, "rental_uris": {"android": "https://dc.lft.to/lastmile_qr_scan", "ios": "https://dc.lft.to/lastmile_qr_scan"}, "lon": -76.99040866666667, "name": "1014a62a67b64340f6bfed33f55b79cd", "is_disabled": 0, "is_reserved": 0, "bike_id": "1014a62a67b64340f6bfed33f55b79cd", "lat": 38.863899333333336, "type": "electric_scooter"}, {"fusion_lat": 0.0, "fusion_lon": 0.0, "rental_uris": {"android": "https://dc.lft.to/lastmile_qr_scan", "ios": "https://dc.lft.to/lastmile_qr_scan"}, "lon": -76.9605645, "name": "63470c7a2ce94db51b4525dd19673406", "is_disabled": 0, "is_reserved": 0, "bike_id": "63470c7a2ce94db51b4525dd19673406", "lat": 38.8839585, "type": "electric_bike"}, {"fusion_lat": 0.0, "fusion_lon": 0.0, "rental_uris": {"android": "https://dc.lft.to/lastmile_qr_scan", "ios": "https://dc.lft.to/lastmile_qr_scan"}, "lon": -77.0358475, "name": "5f8a00cf5ba910add59d0eceabc7df0f", "is_disabled": 0, "is_reserved": 0, "bike_id": "5f8a00cf5ba910add59d0eceabc7df0f", "lat": 38.9922605, "type": "electric_scooter"}, {"fusion_lat": 0.0, "fusion_lon": 0.0, "rental_uris": {"android": "https://dc.lft.to/lastmile_qr_scan", "ios": "https://dc.lft.to/lastmile_qr_scan"}, "lon": -76.99041283333334, "name": "ad549b1540112082185c4c40f12e7f99", "is_disabled": 0, "is_reserved": 0, "bike_id": "ad549b1540112082185c4c40f12e7f99", "lat": 38.8638925, "type": "electric_scooter"}, {"fusion_lat": 0.0, "fusion_lon": 0.0, "rental_uris": {"android": "https://dc.lft.to/lastmile_qr_scan", "ios": "https://dc.lft.to/lastmile_qr_scan"}, "lon": -77.03283266666666, "name": "95a137500a01c40cf0e3409c9d33ad54", "is_disabled": 0, "is_reserved": 0, "bike_id": "95a137500a01c40cf0e3409c9d33ad54", "lat": 38.89899583333333, "type": "electric_scooter"}, {"fusion_lat": 0.0, "fusion_lon": 0.0, "rental_uris": {"android": "https://dc.lft.to/lastmile_qr_scan", "ios": "https://dc.lft.to/lastmile_qr_scan"}, "lon": -77.0320475, "name": "d8831ba89f2e66428600b7784f0f70e5", "is_disabled": 0, "is_reserved": 0, "bike_id": "d8831ba89f2e66428600b7784f0f70e5", "lat": 38.900189, "type": "electric_scooter"}, {"fusion_lat": 0.0, "fusion_lon": 0.0, "rental_uris": {"android": "https://dc.lft.to/lastmile_qr_scan", "ios": "https://dc.lft.to/lastmile_qr_scan"}, "lon": -76.94700116666667, "name": "6d9097c9082c6fa6a8d946715c05a057", "is_disabled": 0, "is_reserved": 0, "bike_id": "6d9097c9082c6fa6a8d946715c05a057", "lat": 38.897255, "type": "electric_scooter"}, {"fusion_lat": 0.0, "fusion_lon": 0.0, "rental_uris": {"android": "https://dc.lft.to/lastmile_qr_scan", "ios": "https://dc.lft.to/lastmile_qr_scan"}, "lon": -77.02407033333333, "name": "07f494eaf83c620e1e98f7fd525c726b", "is_disabled": 0, "is_reserved": 0, "bike_id": "07f494eaf83c620e1e98f7fd525c726b", "lat": 38.90325083333333, "type": "electric_scooter"}, {"fusion_lat": 0.0, "fusion_lon": 0.0, "rental_uris": {"android": "https://dc.lft.to/lastmile_qr_scan", "ios": "https://dc.lft.to/lastmile_qr_scan"}, "lon": -77.02960133333333, "name": "74736231783c9f8fc7253cf2f017321c", "is_disabled": 0, "is_reserved": 0, "bike_id": "74736231783c9f8fc7253cf2f017321c", "lat": 38.8973355, "type": "electric_scooter"}, {"fusion_lat": 0.0, "fusion_lon": 0.0, "rental_uris": {"android": "https://dc.lft.to/lastmile_qr_scan", "ios": "https://dc.lft.to/lastmile_qr_scan"}, "lon": -77.029827, "name": "70db333719b66848a07850ad31a18a4b", "is_disabled": 0, "is_reserved": 0, "bike_id": "70db333719b66848a07850ad31a18a4b", "lat": 38.896463, "type": "electric_bike"}, {"fusion_lat": 0.0, "fusion_lon": 0.0, "rental_uris": {"android": "https://dc.lft.to/lastmile_qr_scan", "ios": "https://dc.lft.to/lastmile_qr_scan"}, "lon": -77.04138333333333, "name": "bb3973dbb08cb018b084fc16d54ec2fe", "is_disabled": 0, "is_reserved": 0, "bike_id": "bb3973dbb08cb018b084fc16d54ec2fe", "lat": 38.91263133333333, "type": "electric_scooter"}, {"fusion_lat": 0.0, "fusion_lon": 0.0, "rental_uris": {"android": "https://dc.lft.to/lastmile_qr_scan", "ios": "https://dc.lft.to/lastmile_qr_scan"}, "lon": -77.02921666666667, "name": "e4639f9b7d59e982aef1c9a32304e50f", "is_disabled": 0, "is_reserved": 0, "bike_id": "e4639f9b7d59e982aef1c9a32304e50f", "lat": 38.895194833333335, "type": "electric_scooter"}, {"fusion_lat": 0.0, "fusion_lon": 0.0, "rental_uris": {"android": "https://dc.lft.to/lastmile_qr_scan", "ios": "https://dc.lft.to/lastmile_qr_scan"}, "lon": -76.93870516666667, "name": "c9b63dff7986724b578a6a985077c84f", "is_disabled": 0, "is_reserved": 0, "bike_id": "c9b63dff7986724b578a6a985077c84f", "lat": 38.956305666666665, "type": "electric_bike"}, {"fusion_lat": 0.0, "fusion_lon": 0.0, "rental_uris": {"android": "https://dc.lft.to/lastmile_qr_scan", "ios": "https://dc.lft.to/lastmile_qr_scan"}, "lon": -77.00654533333334, "name": "5ba475815af3f5ea85223c8cdf3ad4c5", "is_disabled": 0, "is_reserved": 0, "bike_id": "5ba475815af3f5ea85223c8cdf3ad4c5", "lat": 38.897943, "type": "electric_scooter"}, {"fusion_lat": 0.0, "fusion_lon": 0.0, "rental_uris": {"android": "https://dc.lft.to/lastmile_qr_scan", "ios": "https://dc.lft.to/lastmile_qr_scan"}, "lon": -77.03184866666666, "name": "9c427c4d2ec2699eb0eab038e3e96529", "is_disabled": 0, "is_reserved": 0, "bike_id": "9c427c4d2ec2699eb0eab038e3e96529", "lat": 38.91095216666667, "type": "electric_scooter"}, {"fusion_lat": 0.0, "fusion_lon": 0.0, "rental_uris": {"android": "https://dc.lft.to/lastmile_qr_scan", "ios": "https://dc.lft.to/lastmile_qr_scan"}, "lon": -77.01208033333333, "name": "f7157164b458e69c3989816938340db0", "is_disabled": 0, "is_reserved": 0, "bike_id": "f7157164b458e69c3989816938340db0", "lat": 38.918201333333336, "type": "electric_scooter"}, {"fusion_lat": 0.0, "fusion_lon": 0.0, "rental_uris": {"android": "https://dc.lft.to/lastmile_qr_scan", "ios": "https://dc.lft.to/lastmile_qr_scan"}, "lon": -76.98519366666666, "name": "9d13fa9ff2486b3397cfc3d5799c26b1", "is_disabled": 0, "is_reserved": 0, "bike_id": "9d13fa9ff2486b3397cfc3d5799c26b1", "lat": 38.86005266666667, "type": "electric_scooter"}, {"fusion_lat": 0.0, "fusion_lon": 0.0, "rental_uris": {"android": "https://dc.lft.to/lastmile_qr_scan", "ios": "https://dc.lft.to/lastmile_qr_scan"}, "lon": -77.028262, "name": "84c017332544b50c233a20407b2f354b", "is_disabled": 0, "is_reserved": 0, "bike_id": "84c017332544b50c233a20407b2f354b", "lat": 38.88735966666667, "type": "electric_scooter"}, {"fusion_lat": 0.0, "fusion_lon": 0.0, "rental_uris": {"android": "https://dc.lft.to/lastmile_qr_scan", "ios": "https://dc.lft.to/lastmile_qr_scan"}, "lon": -77.03724933333334, "name": "cc262191285024212ca4c103572fe47e", "is_disabled": 0, "is_reserved": 0, "bike_id": "cc262191285024212ca4c103572fe47e", "lat": 38.90692466666667, "type": "electric_scooter"}, {"fusion_lat": 0.0, "fusion_lon": 0.0, "rental_uris": {"android": "https://dc.lft.to/lastmile_qr_scan", "ios": "https://dc.lft.to/lastmile_qr_scan"}, "lon": -77.02004816666667, "name": "5ff634040cf549131001a576673e321a", "is_disabled": 0, "is_reserved": 0, "bike_id": "5ff634040cf549131001a576673e321a", "lat": 38.8978845, "type": "electric_scooter"}, {"fusion_lat": 0.0, "fusion_lon": 0.0, "rental_uris": {"android": "https://dc.lft.to/lastmile_qr_scan", "ios": "https://dc.lft.to/lastmile_qr_scan"}, "lon": -77.003415, "name": "d1b0f0ae76905f81a49653857c771d43", "is_disabled": 0, "is_reserved": 0, "bike_id": "d1b0f0ae76905f81a49653857c771d43", "lat": 38.877225, "type": "electric_scooter"}, {"fusion_lat": 0.0, "fusion_lon": 0.0, "rental_uris": {"android": "https://dc.lft.to/lastmile_qr_scan", "ios": "https://dc.lft.to/lastmile_qr_scan"}, "lon": -77.04331283333333, "name": "3bc18268c1a8b34e8f0aa379051f1777", "is_disabled": 0, "is_reserved": 0, "bike_id": "3bc18268c1a8b34e8f0aa379051f1777", "lat": 38.903685333333335, "type": "electric_scooter"}, {"fusion_lat": 0.0, "fusion_lon": 0.0, "rental_uris": {"android": "https://dc.lft.to/lastmile_qr_scan", "ios": "https://dc.lft.to/lastmile_qr_scan"}, "lon": -77.04389133333333, "name": "84a4cd90d9d1215b103feb2ebb77ec24", "is_disabled": 0, "is_reserved": 0, "bike_id": "84a4cd90d9d1215b103feb2ebb77ec24", "lat": 38.9023145, "type": "electric_scooter"}, {"fusion_lat": 0.0, "fusion_lon": 0.0, "rental_uris": {"android": "https://dc.lft.to/lastmile_qr_scan", "ios": "https://dc.lft.to/lastmile_qr_scan"}, "lon": -77.05003183333334, "name": "93c99c68962d977dd60d4513ec68e342", "is_disabled": 0, "is_reserved": 0, "bike_id": "93c99c68962d977dd60d4513ec68e342", "lat": 38.8923105, "type": "electric_scooter"}, {"fusion_lat": 0.0, "fusion_lon": 0.0, "rental_uris": {"android": "https://dc.lft.to/lastmile_qr_scan", "ios": "https://dc.lft.to/lastmile_qr_scan"}, "lon": -76.98700666666667, "name": "ee8868386ab4104451e144ef6210bfb4", "is_disabled": 0, "is_reserved": 0, "bike_id": "ee8868386ab4104451e144ef6210bfb4", "lat": 38.8672175, "type": "electric_scooter"}, {"fusion_lat": 0.0, "fusion_lon": 0.0, "rental_uris": {"android": "https://dc.lft.to/lastmile_qr_scan", "ios": "https://dc.lft.to/lastmile_qr_scan"}, "lon": -76.98680566666667, "name": "3459840b00a36312471a7f7d47399f59", "is_disabled": 0, "is_reserved": 0, "bike_id": "3459840b00a36312471a7f7d47399f59", "lat": 38.9128835, "type": "electric_scooter"}, {"fusion_lat": 0.0, "fusion_lon": 0.0, "rental_uris": {"android": "https://dc.lft.to/lastmile_qr_scan", "ios": "https://dc.lft.to/lastmile_qr_scan"}, "lon": -77.031849, "name": "2677b67b14b96d1a4206b69aedb14814", "is_disabled": 0, "is_reserved": 0, "bike_id": "2677b67b14b96d1a4206b69aedb14814", "lat": 38.918512, "type": "electric_scooter"}, {"fusion_lat": 0.0, "fusion_lon": 0.0, "rental_uris": {"android": "https://dc.lft.to/lastmile_qr_scan", "ios": "https://dc.lft.to/lastmile_qr_scan"}, "lon": -77.04129833333333, "name": "84876271ab44efd40b10e20bffc0b164", "is_disabled": 0, "is_reserved": 0, "bike_id": "84876271ab44efd40b10e20bffc0b164", "lat": 38.92251066666667, "type": "electric_scooter"}, {"fusion_lat": 0.0, "fusion_lon": 0.0, "rental_uris": {"android": "https://dc.lft.to/lastmile_qr_scan", "ios": "https://dc.lft.to/lastmile_qr_scan"}, "lon": -77.0262725, "name": "52dedc82bebbe8deaf5c7d667667924c", "is_disabled": 0, "is_reserved": 0, "bike_id": "52dedc82bebbe8deaf5c7d667667924c", "lat": 38.88768616666667, "type": "electric_scooter"}, {"fusion_lat": 0.0, "fusion_lon": 0.0, "rental_uris": {"android": "https://dc.lft.to/lastmile_qr_scan", "ios": "https://dc.lft.to/lastmile_qr_scan"}, "lon": -77.03470283333333, "name": "ec487d0477a22a3df526b9b1d79c32a7", "is_disabled": 0, "is_reserved": 0, "bike_id": "ec487d0477a22a3df526b9b1d79c32a7", "lat": 38.9059215, "type": "electric_scooter"}, {"fusion_lat": 0.0, "fusion_lon": 0.0, "rental_uris": {"android": "https://dc.lft.to/lastmile_qr_scan", "ios": "https://dc.lft.to/lastmile_qr_scan"}, "lon": -77.0320865, "name": "3e700dbfde8ea5d7fdee68c611a43068", "is_disabled": 0, "is_reserved": 0, "bike_id": "3e700dbfde8ea5d7fdee68c611a43068", "lat": 38.91468616666667, "type": "electric_scooter"}, {"fusion_lat": 0.0, "fusion_lon": 0.0, "rental_uris": {"android": "https://dc.lft.to/lastmile_qr_scan", "ios": "https://dc.lft.to/lastmile_qr_scan"}, "lon": -77.04198416666667, "name": "b3bfa26532ea021dc3e4ac6356aacda2", "is_disabled": 0, "is_reserved": 0, "bike_id": "b3bfa26532ea021dc3e4ac6356aacda2", "lat": 38.9204895, "type": "electric_scooter"}, {"fusion_lat": 0.0, "fusion_lon": 0.0, "rental_uris": {"android": "https://dc.lft.to/lastmile_qr_scan", "ios": "https://dc.lft.to/lastmile_qr_scan"}, "lon": -76.96830983333334, "name": "6767dc332af16834a1cf15de9b366d1d", "is_disabled": 0, "is_reserved": 0, "bike_id": "6767dc332af16834a1cf15de9b366d1d", "lat": 38.87334233333333, "type": "electric_scooter"}, {"fusion_lat": 0.0, "fusion_lon": 0.0, "rental_uris": {"android": "https://dc.lft.to/lastmile_qr_scan", "ios": "https://dc.lft.to/lastmile_qr_scan"}, "lon": -77.04696416666667, "name": "ab2ae16282dbba7b13038b4737ba1a97", "is_disabled": 0, "is_reserved": 0, "bike_id": "ab2ae16282dbba7b13038b4737ba1a97", "lat": 38.897254333333336, "type": "electric_scooter"}, {"fusion_lat": 0.0, "fusion_lon": 0.0, "rental_uris": {"android": "https://dc.lft.to/lastmile_qr_scan", "ios": "https://dc.lft.to/lastmile_qr_scan"}, "lon": -76.9813955, "name": "61812175eb604bfec0a0c8d354c48962", "is_disabled": 0, "is_reserved": 0, "bike_id": "61812175eb604bfec0a0c8d354c48962", "lat": 38.897452333333334, "type": "electric_scooter"}, {"fusion_lat": 0.0, "fusion_lon": 0.0, "rental_uris": {"android": "https://dc.lft.to/lastmile_qr_scan", "ios": "https://dc.lft.to/lastmile_qr_scan"}, "lon": -77.046462, "name": "3795d14d00a3eca10d4869ed20db2c8a", "is_disabled": 0, "is_reserved": 0, "bike_id": "3795d14d00a3eca10d4869ed20db2c8a", "lat": 38.900701166666664, "type": "electric_bike"}, {"fusion_lat": 0.0, "fusion_lon": 0.0, "rental_uris": {"android": "https://dc.lft.to/lastmile_qr_scan", "ios": "https://dc.lft.to/lastmile_qr_scan"}, "lon": -77.0327735, "name": "c6b6831a691b74d2199862ec73852ba4", "is_disabled": 0, "is_reserved": 0, "bike_id": "c6b6831a691b74d2199862ec73852ba4", "lat": 38.928073, "type": "electric_scooter"}, {"fusion_lat": 0.0, "fusion_lon": 0.0, "rental_uris": {"android": "https://dc.lft.to/lastmile_qr_scan", "ios": "https://dc.lft.to/lastmile_qr_scan"}, "lon": -77.039955, "name": "464ef8b81eb9fefca0b334e517004839", "is_disabled": 0, "is_reserved": 0, "bike_id": "464ef8b81eb9fefca0b334e517004839", "lat": 38.903294833333334, "type": "electric_scooter"}, {"fusion_lat": 0.0, "fusion_lon": 0.0, "rental_uris": {"android": "https://dc.lft.to/lastmile_qr_scan", "ios": "https://dc.lft.to/lastmile_qr_scan"}, "lon": -77.0269105, "name": "8e59a38b0093f3d0ec2e658f8623d7c8", "is_disabled": 0, "is_reserved": 0, "bike_id": "8e59a38b0093f3d0ec2e658f8623d7c8", "lat": 38.9068115, "type": "electric_scooter"}, {"fusion_lat": 0.0, "fusion_lon": 0.0, "rental_uris": {"android": "https://dc.lft.to/lastmile_qr_scan", "ios": "https://dc.lft.to/lastmile_qr_scan"}, "lon": -77.03858866666667, "name": "8a45d44829d44ca7949b9624bfeaabc5", "is_disabled": 0, "is_reserved": 0, "bike_id": "8a45d44829d44ca7949b9624bfeaabc5", "lat": 38.902593, "type": "electric_scooter"}, {"fusion_lat": 0.0, "fusion_lon": 0.0, "rental_uris": {"android": "https://dc.lft.to/lastmile_qr_scan", "ios": "https://dc.lft.to/lastmile_qr_scan"}, "lon": -77.036362, "name": "c3ba377ca3c1b5b2c8cd3e2d3dded327", "is_disabled": 0, "is_reserved": 0, "bike_id": "c3ba377ca3c1b5b2c8cd3e2d3dded327", "lat": 38.90687033333333, "type": "electric_scooter"}, {"fusion_lat": 0.0, "fusion_lon": 0.0, "rental_uris": {"android": "https://dc.lft.to/lastmile_qr_scan", "ios": "https://dc.lft.to/lastmile_qr_scan"}, "lon": -77.01415966666667, "name": "59cee47c2204a36bf5bcb4540134d85e", "is_disabled": 0, "is_reserved": 0, "bike_id": "59cee47c2204a36bf5bcb4540134d85e", "lat": 38.928172833333335, "type": "electric_scooter"}, {"fusion_lat": 0.0, "fusion_lon": 0.0, "rental_uris": {"android": "https://dc.lft.to/lastmile_qr_scan", "ios": "https://dc.lft.to/lastmile_qr_scan"}, "lon": -77.0248915, "name": "c76ffca64895a774f6a3f365a26059de", "is_disabled": 0, "is_reserved": 0, "bike_id": "c76ffca64895a774f6a3f365a26059de", "lat": 38.941834166666666, "type": "electric_scooter"}, {"fusion_lat": 0.0, "fusion_lon": 0.0, "rental_uris": {"android": "https://dc.lft.to/lastmile_qr_scan", "ios": "https://dc.lft.to/lastmile_qr_scan"}, "lon": -76.975359, "name": "3d7959e043a5560cb65c2e0889eb045e", "is_disabled": 0, "is_reserved": 0, "bike_id": "3d7959e043a5560cb65c2e0889eb045e", "lat": 38.90323816666667, "type": "electric_scooter"}, {"fusion_lat": 0.0, "fusion_lon": 0.0, "rental_uris": {"android": "https://dc.lft.to/lastmile_qr_scan", "ios": "https://dc.lft.to/lastmile_qr_scan"}, "lon": -77.04375333333333, "name": "3b7d4ffc2a02ebc1f29b2ac2dc5d59c6", "is_disabled": 0, "is_reserved": 0, "bike_id": "3b7d4ffc2a02ebc1f29b2ac2dc5d59c6", "lat": 38.9071925, "type": "electric_scooter"}, {"fusion_lat": 0.0, "fusion_lon": 0.0, "rental_uris": {"android": "https://dc.lft.to/lastmile_qr_scan", "ios": "https://dc.lft.to/lastmile_qr_scan"}, "lon": -76.990832, "name": "8fb6eeb7d51b7e6bf336104a9d525177", "is_disabled": 0, "is_reserved": 0, "bike_id": "8fb6eeb7d51b7e6bf336104a9d525177", "lat": 38.9426145, "type": "electric_bike"}, {"fusion_lat": 0.0, "fusion_lon": 0.0, "rental_uris": {"android": "https://dc.lft.to/lastmile_qr_scan", "ios": "https://dc.lft.to/lastmile_qr_scan"}, "lon": -76.949413, "name": "f518f42ffdf33e76f87b23691218c28f", "is_disabled": 0, "is_reserved": 0, "bike_id": "f518f42ffdf33e76f87b23691218c28f", "lat": 38.893569166666666, "type": "electric_scooter"}, {"fusion_lat": 0.0, "fusion_lon": 0.0, "rental_uris": {"android": "https://dc.lft.to/lastmile_qr_scan", "ios": "https://dc.lft.to/lastmile_qr_scan"}, "lon": -77.00901183333333, "name": "9d3acff929ed0d95a753f8d18c1dd6b9", "is_disabled": 0, "is_reserved": 0, "bike_id": "9d3acff929ed0d95a753f8d18c1dd6b9", "lat": 38.896130166666666, "type": "electric_scooter"}, {"fusion_lat": 0.0, "fusion_lon": 0.0, "rental_uris": {"android": "https://dc.lft.to/lastmile_qr_scan", "ios": "https://dc.lft.to/lastmile_qr_scan"}, "lon": -76.9415685, "name": "2c960233a1610b2108dcdfb5160f8aca", "is_disabled": 0, "is_reserved": 0, "bike_id": "2c960233a1610b2108dcdfb5160f8aca", "lat": 38.883615166666665, "type": "electric_scooter"}, {"fusion_lat": 0.0, "fusion_lon": 0.0, "rental_uris": {"android": "https://dc.lft.to/lastmile_qr_scan", "ios": "https://dc.lft.to/lastmile_qr_scan"}, "lon": -77.01892733333334, "name": "fa2997de32fcd3cde3132b6b2307e2ed", "is_disabled": 0, "is_reserved": 0, "bike_id": "fa2997de32fcd3cde3132b6b2307e2ed", "lat": 38.905201166666664, "type": "electric_scooter"}, {"fusion_lat": 0.0, "fusion_lon": 0.0, "rental_uris": {"android": "https://dc.lft.to/lastmile_qr_scan", "ios": "https://dc.lft.to/lastmile_qr_scan"}, "lon": -77.08758533333334, "name": "1dec9a960523ef4b6941fb51efcb5ee2", "is_disabled": 0, "is_reserved": 0, "bike_id": "1dec9a960523ef4b6941fb51efcb5ee2", "lat": 38.8065915, "type": "electric_bike"}, {"fusion_lat": 0.0, "fusion_lon": 0.0, "rental_uris": {"android": "https://dc.lft.to/lastmile_qr_scan", "ios": "https://dc.lft.to/lastmile_qr_scan"}, "lon": -77.0447455, "name": "e6eb1904d4539132e05855c8a6a81dcf", "is_disabled": 0, "is_reserved": 0, "bike_id": "e6eb1904d4539132e05855c8a6a81dcf", "lat": 38.9047345, "type": "electric_scooter"}, {"fusion_lat": 0.0, "fusion_lon": 0.0, "rental_uris": {"android": "https://dc.lft.to/lastmile_qr_scan", "ios": "https://dc.lft.to/lastmile_qr_scan"}, "lon": -77.01266066666666, "name": "a260727a2245dd5df38ded470151b674", "is_disabled": 0, "is_reserved": 0, "bike_id": "a260727a2245dd5df38ded470151b674", "lat": 38.915376, "type": "electric_scooter"}, {"fusion_lat": 0.0, "fusion_lon": 0.0, "rental_uris": {"android": "https://dc.lft.to/lastmile_qr_scan", "ios": "https://dc.lft.to/lastmile_qr_scan"}, "lon": -77.00210283333334, "name": "0df6edd865104475671c4724b86a9108", "is_disabled": 0, "is_reserved": 0, "bike_id": "0df6edd865104475671c4724b86a9108", "lat": 38.8952045, "type": "electric_scooter"}, {"fusion_lat": 0.0, "fusion_lon": 0.0, "rental_uris": {"android": "https://dc.lft.to/lastmile_qr_scan", "ios": "https://dc.lft.to/lastmile_qr_scan"}, "lon": -77.02384583333334, "name": "b99cf6121d124515c5e8cf1e2c624c0a", "is_disabled": 0, "is_reserved": 0, "bike_id": "b99cf6121d124515c5e8cf1e2c624c0a", "lat": 38.89226766666667, "type": "electric_scooter"}, {"fusion_lat": 0.0, "fusion_lon": 0.0, "rental_uris": {"android": "https://dc.lft.to/lastmile_qr_scan", "ios": "https://dc.lft.to/lastmile_qr_scan"}, "lon": -77.02713516666667, "name": "966c89ddad2f3218236439ddb460acdf", "is_disabled": 0, "is_reserved": 0, "bike_id": "966c89ddad2f3218236439ddb460acdf", "lat": 38.915469333333334, "type": "electric_scooter"}, {"fusion_lat": 0.0, "fusion_lon": 0.0, "rental_uris": {"android": "https://dc.lft.to/lastmile_qr_scan", "ios": "https://dc.lft.to/lastmile_qr_scan"}, "lon": -76.9463985, "name": "d079b89df4404eecda4454f0ebe3784a", "is_disabled": 0, "is_reserved": 0, "bike_id": "d079b89df4404eecda4454f0ebe3784a", "lat": 38.898660166666666, "type": "electric_scooter"}, {"fusion_lat": 0.0, "fusion_lon": 0.0, "rental_uris": {"android": "https://dc.lft.to/lastmile_qr_scan", "ios": "https://dc.lft.to/lastmile_qr_scan"}, "lon": -76.99492866666667, "name": "b7ef6152bbfdb7eb7b276048d40c7c84", "is_disabled": 0, "is_reserved": 0, "bike_id": "b7ef6152bbfdb7eb7b276048d40c7c84", "lat": 38.862373833333336, "type": "electric_scooter"}, {"fusion_lat": 0.0, "fusion_lon": 0.0, "rental_uris": {"android": "https://dc.lft.to/lastmile_qr_scan", "ios": "https://dc.lft.to/lastmile_qr_scan"}, "lon": -77.04158933333333, "name": "b129c6b353b950755f8f23e86e03fe75", "is_disabled": 0, "is_reserved": 0, "bike_id": "b129c6b353b950755f8f23e86e03fe75", "lat": 38.9061825, "type": "electric_scooter"}, {"fusion_lat": 0.0, "fusion_lon": 0.0, "rental_uris": {"android": "https://dc.lft.to/lastmile_qr_scan", "ios": "https://dc.lft.to/lastmile_qr_scan"}, "lon": -77.03184216666666, "name": "b6fdd287cd1b8cad2ebf19aa4ad7112d", "is_disabled": 0, "is_reserved": 0, "bike_id": "b6fdd287cd1b8cad2ebf19aa4ad7112d", "lat": 38.91679516666667, "type": "electric_scooter"}, {"fusion_lat": 0.0, "fusion_lon": 0.0, "rental_uris": {"android": "https://dc.lft.to/lastmile_qr_scan", "ios": "https://dc.lft.to/lastmile_qr_scan"}, "lon": -76.97328566666667, "name": "e92a5cf9dd0deb08ffe41d0b9cebaf5c", "is_disabled": 0, "is_reserved": 0, "bike_id": "e92a5cf9dd0deb08ffe41d0b9cebaf5c", "lat": 38.8652055, "type": "electric_scooter"}, {"fusion_lat": 0.0, "fusion_lon": 0.0, "rental_uris": {"android": "https://dc.lft.to/lastmile_qr_scan", "ios": "https://dc.lft.to/lastmile_qr_scan"}, "lon": -77.04236016666667, "name": "99cf26ee02f518528629311c219b0f87", "is_disabled": 0, "is_reserved": 0, "bike_id": "99cf26ee02f518528629311c219b0f87", "lat": 38.92270116666667, "type": "electric_scooter"}, {"fusion_lat": 0.0, "fusion_lon": 0.0, "rental_uris": {"android": "https://dc.lft.to/lastmile_qr_scan", "ios": "https://dc.lft.to/lastmile_qr_scan"}, "lon": -77.0213135, "name": "908eee97799f5ba61440d03c95e2f35e", "is_disabled": 0, "is_reserved": 0, "bike_id": "908eee97799f5ba61440d03c95e2f35e", "lat": 38.923100833333336, "type": "electric_scooter"}, {"fusion_lat": 0.0, "fusion_lon": 0.0, "rental_uris": {"android": "https://dc.lft.to/lastmile_qr_scan", "ios": "https://dc.lft.to/lastmile_qr_scan"}, "lon": -77.02935916666667, "name": "6968fa6e75e6f16c7654a85c94254365", "is_disabled": 0, "is_reserved": 0, "bike_id": "6968fa6e75e6f16c7654a85c94254365", "lat": 38.9170585, "type": "electric_scooter"}, {"fusion_lat": 0.0, "fusion_lon": 0.0, "rental_uris": {"android": "https://dc.lft.to/lastmile_qr_scan", "ios": "https://dc.lft.to/lastmile_qr_scan"}, "lon": -77.025514, "name": "4fb25510ab4fbf68d7872925e0be98c1", "is_disabled": 0, "is_reserved": 0, "bike_id": "4fb25510ab4fbf68d7872925e0be98c1", "lat": 38.99702933333333, "type": "electric_bike"}, {"fusion_lat": 0.0, "fusion_lon": 0.0, "rental_uris": {"android": "https://dc.lft.to/lastmile_qr_scan", "ios": "https://dc.lft.to/lastmile_qr_scan"}, "lon": -77.02117933333334, "name": "3845d97430b5554444e99152fcd74531", "is_disabled": 0, "is_reserved": 0, "bike_id": "3845d97430b5554444e99152fcd74531", "lat": 38.922221, "type": "electric_scooter"}, {"fusion_lat": 0.0, "fusion_lon": 0.0, "rental_uris": {"android": "https://dc.lft.to/lastmile_qr_scan", "ios": "https://dc.lft.to/lastmile_qr_scan"}, "lon": -77.021719, "name": "b4b2265a0983de57f64c271bdb8be9cf", "is_disabled": 0, "is_reserved": 0, "bike_id": "b4b2265a0983de57f64c271bdb8be9cf", "lat": 38.942915666666664, "type": "electric_scooter"}, {"fusion_lat": 0.0, "fusion_lon": 0.0, "rental_uris": {"android": "https://dc.lft.to/lastmile_qr_scan", "ios": "https://dc.lft.to/lastmile_qr_scan"}, "lon": -77.072821, "name": "8bc0645ebb31320830d926d10b5a1518", "is_disabled": 0, "is_reserved": 0, "bike_id": "8bc0645ebb31320830d926d10b5a1518", "lat": 38.934727, "type": "electric_scooter"}, {"fusion_lat": 0.0, "fusion_lon": 0.0, "rental_uris": {"android": "https://dc.lft.to/lastmile_qr_scan", "ios": "https://dc.lft.to/lastmile_qr_scan"}, "lon": -77.04010866666667, "name": "2ee73de5b67e74eb9cb8c83d6833683b", "is_disabled": 0, "is_reserved": 0, "bike_id": "2ee73de5b67e74eb9cb8c83d6833683b", "lat": 38.9073165, "type": "electric_scooter"}, {"fusion_lat": 0.0, "fusion_lon": 0.0, "rental_uris": {"android": "https://dc.lft.to/lastmile_qr_scan", "ios": "https://dc.lft.to/lastmile_qr_scan"}, "lon": -77.01136033333333, "name": "6e907203ca9584add16b618409a16b91", "is_disabled": 0, "is_reserved": 0, "bike_id": "6e907203ca9584add16b618409a16b91", "lat": 38.900243333333336, "type": "electric_scooter"}, {"fusion_lat": 0.0, "fusion_lon": 0.0, "rental_uris": {"android": "https://dc.lft.to/lastmile_qr_scan", "ios": "https://dc.lft.to/lastmile_qr_scan"}, "lon": -77.02683166666667, "name": "ff6c99319ae9dd827c28e41cfe853bb7", "is_disabled": 0, "is_reserved": 0, "bike_id": "ff6c99319ae9dd827c28e41cfe853bb7", "lat": 38.89723816666667, "type": "electric_scooter"}, {"fusion_lat": 0.0, "fusion_lon": 0.0, "rental_uris": {"android": "https://dc.lft.to/lastmile_qr_scan", "ios": "https://dc.lft.to/lastmile_qr_scan"}, "lon": -76.98715366666667, "name": "604fd380bacb082a07aca606ee52ebe3", "is_disabled": 0, "is_reserved": 0, "bike_id": "604fd380bacb082a07aca606ee52ebe3", "lat": 38.8662805, "type": "electric_scooter"}, {"fusion_lat": 0.0, "fusion_lon": 0.0, "rental_uris": {"android": "https://dc.lft.to/lastmile_qr_scan", "ios": "https://dc.lft.to/lastmile_qr_scan"}, "lon": -77.04871866666667, "name": "7bb62ea8f31ef5cab35d855dc7e0ae2c", "is_disabled": 0, "is_reserved": 0, "bike_id": "7bb62ea8f31ef5cab35d855dc7e0ae2c", "lat": 38.9011675, "type": "electric_scooter"}, {"fusion_lat": 0.0, "fusion_lon": 0.0, "rental_uris": {"android": "https://dc.lft.to/lastmile_qr_scan", "ios": "https://dc.lft.to/lastmile_qr_scan"}, "lon": -77.03809166666667, "name": "2e6086a0e465736ddfd97182c605a7e9", "is_disabled": 0, "is_reserved": 0, "bike_id": "2e6086a0e465736ddfd97182c605a7e9", "lat": 38.906699, "type": "electric_scooter"}, {"fusion_lat": 0.0, "fusion_lon": 0.0, "rental_uris": {"android": "https://dc.lft.to/lastmile_qr_scan", "ios": "https://dc.lft.to/lastmile_qr_scan"}, "lon": -77.070923, "name": "3f9d4523936e0c60e8d342d2a25d7086", "is_disabled": 0, "is_reserved": 0, "bike_id": "3f9d4523936e0c60e8d342d2a25d7086", "lat": 38.896462, "type": "electric_scooter"}, {"fusion_lat": 0.0, "fusion_lon": 0.0, "rental_uris": {"android": "https://dc.lft.to/lastmile_qr_scan", "ios": "https://dc.lft.to/lastmile_qr_scan"}, "lon": -77.02213483333334, "name": "c9adfbe03ae72ac35d5781cedcc839e3", "is_disabled": 0, "is_reserved": 0, "bike_id": "c9adfbe03ae72ac35d5781cedcc839e3", "lat": 38.90967716666667, "type": "electric_scooter"}, {"fusion_lat": 0.0, "fusion_lon": 0.0, "rental_uris": {"android": "https://dc.lft.to/lastmile_qr_scan", "ios": "https://dc.lft.to/lastmile_qr_scan"}, "lon": -77.03468533333333, "name": "b26ca3c7ff8ddd763a12b092d30ac55f", "is_disabled": 0, "is_reserved": 0, "bike_id": "b26ca3c7ff8ddd763a12b092d30ac55f", "lat": 38.90168216666667, "type": "electric_scooter"}, {"fusion_lat": 0.0, "fusion_lon": 0.0, "rental_uris": {"android": "https://dc.lft.to/lastmile_qr_scan", "ios": "https://dc.lft.to/lastmile_qr_scan"}, "lon": -77.005815, "name": "90e9b245e079ca4fc8857c548502d518", "is_disabled": 0, "is_reserved": 0, "bike_id": "90e9b245e079ca4fc8857c548502d518", "lat": 38.875766166666665, "type": "electric_scooter"}, {"fusion_lat": 0.0, "fusion_lon": 0.0, "rental_uris": {"android": "https://dc.lft.to/lastmile_qr_scan", "ios": "https://dc.lft.to/lastmile_qr_scan"}, "lon": -77.038407, "name": "e6bd30c860cea4a8567a0e8811548767", "is_disabled": 0, "is_reserved": 0, "bike_id": "e6bd30c860cea4a8567a0e8811548767", "lat": 38.907104833333335, "type": "electric_scooter"}, {"fusion_lat": 0.0, "fusion_lon": 0.0, "rental_uris": {"android": "https://dc.lft.to/lastmile_qr_scan", "ios": "https://dc.lft.to/lastmile_qr_scan"}, "lon": -76.94890766666667, "name": "9b7c5d89f6c00423ec03439873fe6d93", "is_disabled": 0, "is_reserved": 0, "bike_id": "9b7c5d89f6c00423ec03439873fe6d93", "lat": 38.895332333333336, "type": "electric_scooter"}, {"fusion_lat": 0.0, "fusion_lon": 0.0, "rental_uris": {"android": "https://dc.lft.to/lastmile_qr_scan", "ios": "https://dc.lft.to/lastmile_qr_scan"}, "lon": -77.02569483333333, "name": "463d424c8220e767556ffec160f83ce8", "is_disabled": 0, "is_reserved": 0, "bike_id": "463d424c8220e767556ffec160f83ce8", "lat": 38.89574116666667, "type": "electric_scooter"}, {"fusion_lat": 0.0, "fusion_lon": 0.0, "rental_uris": {"android": "https://dc.lft.to/lastmile_qr_scan", "ios": "https://dc.lft.to/lastmile_qr_scan"}, "lon": -77.01415383333334, "name": "6e3dc19f40c4df90b6fc4bf2faa413b8", "is_disabled": 0, "is_reserved": 0, "bike_id": "6e3dc19f40c4df90b6fc4bf2faa413b8", "lat": 38.9051495, "type": "electric_scooter"}, {"fusion_lat": 0.0, "fusion_lon": 0.0, "rental_uris": {"android": "https://dc.lft.to/lastmile_qr_scan", "ios": "https://dc.lft.to/lastmile_qr_scan"}, "lon": -77.12018283333333, "name": "ea43caf7a178bf7c57edadb514764848", "is_disabled": 0, "is_reserved": 0, "bike_id": "ea43caf7a178bf7c57edadb514764848", "lat": 38.857836166666665, "type": "electric_bike"}, {"fusion_lat": 0.0, "fusion_lon": 0.0, "rental_uris": {"android": "https://dc.lft.to/lastmile_qr_scan", "ios": "https://dc.lft.to/lastmile_qr_scan"}, "lon": -76.94408383333334, "name": "b3d2ba4071cf5efa15ce02d76f04201d", "is_disabled": 0, "is_reserved": 0, "bike_id": "b3d2ba4071cf5efa15ce02d76f04201d", "lat": 38.992241666666665, "type": "electric_bike"}, {"fusion_lat": 0.0, "fusion_lon": 0.0, "rental_uris": {"android": "https://dc.lft.to/lastmile_qr_scan", "ios": "https://dc.lft.to/lastmile_qr_scan"}, "lon": -77.05855883333334, "name": "7fafdfc81576c8c93ad84e208f65c810", "is_disabled": 0, "is_reserved": 0, "bike_id": "7fafdfc81576c8c93ad84e208f65c810", "lat": 38.93608966666667, "type": "electric_scooter"}, {"fusion_lat": 0.0, "fusion_lon": 0.0, "rental_uris": {"android": "https://dc.lft.to/lastmile_qr_scan", "ios": "https://dc.lft.to/lastmile_qr_scan"}, "lon": -77.02419916666666, "name": "62273df1082d1d380b94d6489720932e", "is_disabled": 0, "is_reserved": 0, "bike_id": "62273df1082d1d380b94d6489720932e", "lat": 38.92656733333333, "type": "electric_scooter"}, {"fusion_lat": 0.0, "fusion_lon": 0.0, "rental_uris": {"android": "https://dc.lft.to/lastmile_qr_scan", "ios": "https://dc.lft.to/lastmile_qr_scan"}, "lon": -77.05109466666667, "name": "6df3074f0085cca6dfdac0158d8b2959", "is_disabled": 0, "is_reserved": 0, "bike_id": "6df3074f0085cca6dfdac0158d8b2959", "lat": 38.92362716666667, "type": "electric_scooter"}, {"fusion_lat": 0.0, "fusion_lon": 0.0, "rental_uris": {"android": "https://dc.lft.to/lastmile_qr_scan", "ios": "https://dc.lft.to/lastmile_qr_scan"}, "lon": -77.11465866666667, "name": "fca99781f2e7f1207c7fe407d07c16c4", "is_disabled": 0, "is_reserved": 0, "bike_id": "fca99781f2e7f1207c7fe407d07c16c4", "lat": 38.841446, "type": "electric_bike"}, {"fusion_lat": 0.0, "fusion_lon": 0.0, "rental_uris": {"android": "https://dc.lft.to/lastmile_qr_scan", "ios": "https://dc.lft.to/lastmile_qr_scan"}, "lon": -77.03198, "name": "5c1684628aece55125d834343dab4f59", "is_disabled": 0, "is_reserved": 0, "bike_id": "5c1684628aece55125d834343dab4f59", "lat": 38.91507383333333, "type": "electric_scooter"}, {"fusion_lat": 0.0, "fusion_lon": 0.0, "rental_uris": {"android": "https://dc.lft.to/lastmile_qr_scan", "ios": "https://dc.lft.to/lastmile_qr_scan"}, "lon": -77.04012, "name": "a3a5968fc22ad409600853b978ce4aa2", "is_disabled": 0, "is_reserved": 0, "bike_id": "a3a5968fc22ad409600853b978ce4aa2", "lat": 38.902768333333334, "type": "electric_scooter"}, {"fusion_lat": 0.0, "fusion_lon": 0.0, "rental_uris": {"android": "https://dc.lft.to/lastmile_qr_scan", "ios": "https://dc.lft.to/lastmile_qr_scan"}, "lon": -77.03314533333334, "name": "ccfca47751311b5ec14f2bca9d713688", "is_disabled": 0, "is_reserved": 0, "bike_id": "ccfca47751311b5ec14f2bca9d713688", "lat": 38.898143, "type": "electric_scooter"}, {"fusion_lat": 0.0, "fusion_lon": 0.0, "rental_uris": {"android": "https://dc.lft.to/lastmile_qr_scan", "ios": "https://dc.lft.to/lastmile_qr_scan"}, "lon": -77.0965045, "name": "7f91918ba89573ef5aaf88fb00bdef44", "is_disabled": 0, "is_reserved": 0, "bike_id": "7f91918ba89573ef5aaf88fb00bdef44", "lat": 38.988535666666664, "type": "electric_bike"}, {"fusion_lat": 0.0, "fusion_lon": 0.0, "rental_uris": {"android": "https://dc.lft.to/lastmile_qr_scan", "ios": "https://dc.lft.to/lastmile_qr_scan"}, "lon": -76.99494183333333, "name": "c56da60316db251ad14ef320313b27f6", "is_disabled": 0, "is_reserved": 0, "bike_id": "c56da60316db251ad14ef320313b27f6", "lat": 38.862393, "type": "electric_scooter"}, {"fusion_lat": 0.0, "fusion_lon": 0.0, "rental_uris": {"android": "https://dc.lft.to/lastmile_qr_scan", "ios": "https://dc.lft.to/lastmile_qr_scan"}, "lon": -77.16234966666667, "name": "f329aa47e7fed7a4f06c6ca99479e659", "is_disabled": 0, "is_reserved": 0, "bike_id": "f329aa47e7fed7a4f06c6ca99479e659", "lat": 38.886576833333336, "type": "electric_bike"}, {"fusion_lat": 0.0, "fusion_lon": 0.0, "rental_uris": {"android": "https://dc.lft.to/lastmile_qr_scan", "ios": "https://dc.lft.to/lastmile_qr_scan"}, "lon": -77.0269415, "name": "d3f68decfef109aa67a4542a544be0d9", "is_disabled": 0, "is_reserved": 0, "bike_id": "d3f68decfef109aa67a4542a544be0d9", "lat": 38.90682533333333, "type": "electric_scooter"}, {"fusion_lat": 0.0, "fusion_lon": 0.0, "rental_uris": {"android": "https://dc.lft.to/lastmile_qr_scan", "ios": "https://dc.lft.to/lastmile_qr_scan"}, "lon": -77.05915583333334, "name": "979cedcf607e6c46e14e9f669e22c200", "is_disabled": 0, "is_reserved": 0, "bike_id": "979cedcf607e6c46e14e9f669e22c200", "lat": 38.90451866666667, "type": "electric_scooter"}, {"fusion_lat": 0.0, "fusion_lon": 0.0, "rental_uris": {"android": "https://dc.lft.to/lastmile_qr_scan", "ios": "https://dc.lft.to/lastmile_qr_scan"}, "lon": -77.03457183333333, "name": "34c93e6934315855be8a55cbba4632cc", "is_disabled": 0, "is_reserved": 0, "bike_id": "34c93e6934315855be8a55cbba4632cc", "lat": 38.908413333333336, "type": "electric_scooter"}, {"fusion_lat": 0.0, "fusion_lon": 0.0, "rental_uris": {"android": "https://dc.lft.to/lastmile_qr_scan", "ios": "https://dc.lft.to/lastmile_qr_scan"}, "lon": -76.99958333333333, "name": "30d4bdaf92669c830f25475d7df37a38", "is_disabled": 0, "is_reserved": 0, "bike_id": "30d4bdaf92669c830f25475d7df37a38", "lat": 38.908605666666666, "type": "electric_scooter"}, {"fusion_lat": 0.0, "fusion_lon": 0.0, "rental_uris": {"android": "https://dc.lft.to/lastmile_qr_scan", "ios": "https://dc.lft.to/lastmile_qr_scan"}, "lon": -77.0240535, "name": "cfb9645f234eb22212c2c7da75d03311", "is_disabled": 0, "is_reserved": 0, "bike_id": "cfb9645f234eb22212c2c7da75d03311", "lat": 38.91398933333333, "type": "electric_scooter"}, {"fusion_lat": 0.0, "fusion_lon": 0.0, "rental_uris": {"android": "https://dc.lft.to/lastmile_qr_scan", "ios": "https://dc.lft.to/lastmile_qr_scan"}, "lon": -77.02153633333333, "name": "165143a8e84b4fb2b639cfa5fd404c6b", "is_disabled": 0, "is_reserved": 0, "bike_id": "165143a8e84b4fb2b639cfa5fd404c6b", "lat": 38.92458166666667, "type": "electric_scooter"}, {"fusion_lat": 0.0, "fusion_lon": 0.0, "rental_uris": {"android": "https://dc.lft.to/lastmile_qr_scan", "ios": "https://dc.lft.to/lastmile_qr_scan"}, "lon": -77.06337666666667, "name": "9626a779141e4ed83511508bb0720c71", "is_disabled": 0, "is_reserved": 0, "bike_id": "9626a779141e4ed83511508bb0720c71", "lat": 38.90680033333334, "type": "electric_scooter"}, {"fusion_lat": 0.0, "fusion_lon": 0.0, "rental_uris": {"android": "https://dc.lft.to/lastmile_qr_scan", "ios": "https://dc.lft.to/lastmile_qr_scan"}, "lon": -77.0455105, "name": "608bfb19f426660d9200b50d4bcf3aa4", "is_disabled": 0, "is_reserved": 0, "bike_id": "608bfb19f426660d9200b50d4bcf3aa4", "lat": 38.90258466666667, "type": "electric_scooter"}, {"fusion_lat": 0.0, "fusion_lon": 0.0, "rental_uris": {"android": "https://dc.lft.to/lastmile_qr_scan", "ios": "https://dc.lft.to/lastmile_qr_scan"}, "lon": -76.99751666666667, "name": "27c343bbb68aa1746dcf055dd6b2c283", "is_disabled": 0, "is_reserved": 0, "bike_id": "27c343bbb68aa1746dcf055dd6b2c283", "lat": 38.900139333333335, "type": "electric_scooter"}, {"fusion_lat": 0.0, "fusion_lon": 0.0, "rental_uris": {"android": "https://dc.lft.to/lastmile_qr_scan", "ios": "https://dc.lft.to/lastmile_qr_scan"}, "lon": -77.03037683333334, "name": "d0192882b7397f3121dd4dea77c232dc", "is_disabled": 0, "is_reserved": 0, "bike_id": "d0192882b7397f3121dd4dea77c232dc", "lat": 38.902664, "type": "electric_scooter"}, {"fusion_lat": 0.0, "fusion_lon": 0.0, "rental_uris": {"android": "https://dc.lft.to/lastmile_qr_scan", "ios": "https://dc.lft.to/lastmile_qr_scan"}, "lon": -77.04036, "name": "4fdd6e33c5b038fd36cf27646080790d", "is_disabled": 0, "is_reserved": 0, "bike_id": "4fdd6e33c5b038fd36cf27646080790d", "lat": 38.9059705, "type": "electric_scooter"}, {"fusion_lat": 0.0, "fusion_lon": 0.0, "rental_uris": {"android": "https://dc.lft.to/lastmile_qr_scan", "ios": "https://dc.lft.to/lastmile_qr_scan"}, "lon": -77.0220255, "name": "de0e102660d2b3fa3bd53de189f7e45a", "is_disabled": 0, "is_reserved": 0, "bike_id": "de0e102660d2b3fa3bd53de189f7e45a", "lat": 38.90673966666667, "type": "electric_scooter"}, {"fusion_lat": 0.0, "fusion_lon": 0.0, "rental_uris": {"android": "https://dc.lft.to/lastmile_qr_scan", "ios": "https://dc.lft.to/lastmile_qr_scan"}, "lon": -77.0143635, "name": "9b0836938fa2eff42fa771485573c5f7", "is_disabled": 0, "is_reserved": 0, "bike_id": "9b0836938fa2eff42fa771485573c5f7", "lat": 38.91311616666667, "type": "electric_scooter"}, {"fusion_lat": 0.0, "fusion_lon": 0.0, "rental_uris": {"android": "https://dc.lft.to/lastmile_qr_scan", "ios": "https://dc.lft.to/lastmile_qr_scan"}, "lon": -77.05636083333333, "name": "35ae86fccff7a407788b8f09bd8478b8", "is_disabled": 0, "is_reserved": 0, "bike_id": "35ae86fccff7a407788b8f09bd8478b8", "lat": 38.923393833333336, "type": "electric_scooter"}, {"fusion_lat": 0.0, "fusion_lon": 0.0, "rental_uris": {"android": "https://dc.lft.to/lastmile_qr_scan", "ios": "https://dc.lft.to/lastmile_qr_scan"}, "lon": -77.04537016666667, "name": "b955958c291f6eced7dcd302bfe45d7f", "is_disabled": 0, "is_reserved": 0, "bike_id": "b955958c291f6eced7dcd302bfe45d7f", "lat": 38.934562666666665, "type": "electric_scooter"}, {"fusion_lat": 0.0, "fusion_lon": 0.0, "rental_uris": {"android": "https://dc.lft.to/lastmile_qr_scan", "ios": "https://dc.lft.to/lastmile_qr_scan"}, "lon": -76.97228633333333, "name": "d8031641b7b0cb427c5c8762f18b3e43", "is_disabled": 0, "is_reserved": 0, "bike_id": "d8031641b7b0cb427c5c8762f18b3e43", "lat": 38.90032333333333, "type": "electric_bike"}, {"fusion_lat": 0.0, "fusion_lon": 0.0, "rental_uris": {"android": "https://dc.lft.to/lastmile_qr_scan", "ios": "https://dc.lft.to/lastmile_qr_scan"}, "lon": -77.03596416666667, "name": "9afb78c745a3f8e8b9a78b3ac68226df", "is_disabled": 0, "is_reserved": 0, "bike_id": "9afb78c745a3f8e8b9a78b3ac68226df", "lat": 38.928621666666665, "type": "electric_scooter"}, {"fusion_lat": 0.0, "fusion_lon": 0.0, "rental_uris": {"android": "https://dc.lft.to/lastmile_qr_scan", "ios": "https://dc.lft.to/lastmile_qr_scan"}, "lon": -77.02782066666667, "name": "f8749e7d3656c84fa2d22b6777ba6ffa", "is_disabled": 0, "is_reserved": 0, "bike_id": "f8749e7d3656c84fa2d22b6777ba6ffa", "lat": 38.89607483333333, "type": "electric_scooter"}, {"fusion_lat": 0.0, "fusion_lon": 0.0, "rental_uris": {"android": "https://dc.lft.to/lastmile_qr_scan", "ios": "https://dc.lft.to/lastmile_qr_scan"}, "lon": -77.03633583333334, "name": "c56995e2249ce329e00f8b9be1abf725", "is_disabled": 0, "is_reserved": 0, "bike_id": "c56995e2249ce329e00f8b9be1abf725", "lat": 38.928121, "type": "electric_scooter"}, {"fusion_lat": 0.0, "fusion_lon": 0.0, "rental_uris": {"android": "https://dc.lft.to/lastmile_qr_scan", "ios": "https://dc.lft.to/lastmile_qr_scan"}, "lon": -77.0419175, "name": "224d8ad910017c5f0b9e73fc94994250", "is_disabled": 0, "is_reserved": 0, "bike_id": "224d8ad910017c5f0b9e73fc94994250", "lat": 38.90392216666667, "type": "electric_scooter"}, {"fusion_lat": 0.0, "fusion_lon": 0.0, "rental_uris": {"android": "https://dc.lft.to/lastmile_qr_scan", "ios": "https://dc.lft.to/lastmile_qr_scan"}, "lon": -76.93931216666667, "name": "58580fb6e24378fd3a3d6bceea2e63ab", "is_disabled": 0, "is_reserved": 0, "bike_id": "58580fb6e24378fd3a3d6bceea2e63ab", "lat": 38.893249833333336, "type": "electric_scooter"}, {"fusion_lat": 0.0, "fusion_lon": 0.0, "rental_uris": {"android": "https://dc.lft.to/lastmile_qr_scan", "ios": "https://dc.lft.to/lastmile_qr_scan"}, "lon": -76.98715083333333, "name": "74f8cf7152ad4e9dd084101d5dea65ba", "is_disabled": 0, "is_reserved": 0, "bike_id": "74f8cf7152ad4e9dd084101d5dea65ba", "lat": 38.866260833333335, "type": "electric_scooter"}, {"fusion_lat": 0.0, "fusion_lon": 0.0, "rental_uris": {"android": "https://dc.lft.to/lastmile_qr_scan", "ios": "https://dc.lft.to/lastmile_qr_scan"}, "lon": -76.98655116666667, "name": "7a8c9e6cf44e39053189741ddddf9556", "is_disabled": 0, "is_reserved": 0, "bike_id": "7a8c9e6cf44e39053189741ddddf9556", "lat": 38.85804183333333, "type": "electric_scooter"}, {"fusion_lat": 0.0, "fusion_lon": 0.0, "rental_uris": {"android": "https://dc.lft.to/lastmile_qr_scan", "ios": "https://dc.lft.to/lastmile_qr_scan"}, "lon": -77.03556766666667, "name": "d0fc40ed4ebecc47af49d5312f5b00f0", "is_disabled": 0, "is_reserved": 0, "bike_id": "d0fc40ed4ebecc47af49d5312f5b00f0", "lat": 38.9081515, "type": "electric_scooter"}, {"fusion_lat": 0.0, "fusion_lon": 0.0, "rental_uris": {"android": "https://dc.lft.to/lastmile_qr_scan", "ios": "https://dc.lft.to/lastmile_qr_scan"}, "lon": -77.02144566666666, "name": "3622c9051a4cee8c167e20f0c33b2d51", "is_disabled": 0, "is_reserved": 0, "bike_id": "3622c9051a4cee8c167e20f0c33b2d51", "lat": 38.923377, "type": "electric_scooter"}, {"fusion_lat": 0.0, "fusion_lon": 0.0, "rental_uris": {"android": "https://dc.lft.to/lastmile_qr_scan", "ios": "https://dc.lft.to/lastmile_qr_scan"}, "lon": -77.03345716666666, "name": "f1ffa514d85e54ce9a049b69860948b4", "is_disabled": 0, "is_reserved": 0, "bike_id": "f1ffa514d85e54ce9a049b69860948b4", "lat": 38.89244583333333, "type": "electric_scooter"}, {"fusion_lat": 0.0, "fusion_lon": 0.0, "rental_uris": {"android": "https://dc.lft.to/lastmile_qr_scan", "ios": "https://dc.lft.to/lastmile_qr_scan"}, "lon": -76.98718016666666, "name": "e9a172a8367b4b0e6e350699f9391b47", "is_disabled": 0, "is_reserved": 0, "bike_id": "e9a172a8367b4b0e6e350699f9391b47", "lat": 38.86629516666667, "type": "electric_scooter"}, {"fusion_lat": 0.0, "fusion_lon": 0.0, "rental_uris": {"android": "https://dc.lft.to/lastmile_qr_scan", "ios": "https://dc.lft.to/lastmile_qr_scan"}, "lon": -77.01367216666667, "name": "df5c29de09fd7c021133a526c92dd119", "is_disabled": 0, "is_reserved": 0, "bike_id": "df5c29de09fd7c021133a526c92dd119", "lat": 38.886363, "type": "electric_scooter"}, {"fusion_lat": 0.0, "fusion_lon": 0.0, "rental_uris": {"android": "https://dc.lft.to/lastmile_qr_scan", "ios": "https://dc.lft.to/lastmile_qr_scan"}, "lon": -77.04193583333333, "name": "ddd92a29e01338a88aeb06a25dc3f567", "is_disabled": 0, "is_reserved": 0, "bike_id": "ddd92a29e01338a88aeb06a25dc3f567", "lat": 38.92055916666666, "type": "electric_scooter"}, {"fusion_lat": 0.0, "fusion_lon": 0.0, "rental_uris": {"android": "https://dc.lft.to/lastmile_qr_scan", "ios": "https://dc.lft.to/lastmile_qr_scan"}, "lon": -77.039626, "name": "2e97d8a85d5ee83fa3de31b736a591ef", "is_disabled": 0, "is_reserved": 0, "bike_id": "2e97d8a85d5ee83fa3de31b736a591ef", "lat": 38.90821183333333, "type": "electric_scooter"}, {"fusion_lat": 0.0, "fusion_lon": 0.0, "rental_uris": {"android": "https://dc.lft.to/lastmile_qr_scan", "ios": "https://dc.lft.to/lastmile_qr_scan"}, "lon": -77.05045966666667, "name": "3b32f0f280daab8977d0e32d2c52a0ae", "is_disabled": 0, "is_reserved": 0, "bike_id": "3b32f0f280daab8977d0e32d2c52a0ae", "lat": 38.9236115, "type": "electric_scooter"}, {"fusion_lat": 0.0, "fusion_lon": 0.0, "rental_uris": {"android": "https://dc.lft.to/lastmile_qr_scan", "ios": "https://dc.lft.to/lastmile_qr_scan"}, "lon": -77.02626316666667, "name": "d0e70dc8d5d60e8a2297ccbfb239e301", "is_disabled": 0, "is_reserved": 0, "bike_id": "d0e70dc8d5d60e8a2297ccbfb239e301", "lat": 38.88767516666667, "type": "electric_scooter"}, {"fusion_lat": 0.0, "fusion_lon": 0.0, "rental_uris": {"android": "https://dc.lft.to/lastmile_qr_scan", "ios": "https://dc.lft.to/lastmile_qr_scan"}, "lon": -77.03243533333334, "name": "0e37a4753d456a09bd5cfea0be465ca8", "is_disabled": 0, "is_reserved": 0, "bike_id": "0e37a4753d456a09bd5cfea0be465ca8", "lat": 38.927254166666664, "type": "electric_scooter"}, {"fusion_lat": 0.0, "fusion_lon": 0.0, "rental_uris": {"android": "https://dc.lft.to/lastmile_qr_scan", "ios": "https://dc.lft.to/lastmile_qr_scan"}, "lon": -76.985732, "name": "41ff0e5a1315f8d643fd116db699bd7a", "is_disabled": 0, "is_reserved": 0, "bike_id": "41ff0e5a1315f8d643fd116db699bd7a", "lat": 38.866810666666666, "type": "electric_scooter"}, {"fusion_lat": 0.0, "fusion_lon": 0.0, "rental_uris": {"android": "https://dc.lft.to/lastmile_qr_scan", "ios": "https://dc.lft.to/lastmile_qr_scan"}, "lon": -76.94261633333333, "name": "2c4df4630643e2b6aa94323da1ae1126", "is_disabled": 0, "is_reserved": 0, "bike_id": "2c4df4630643e2b6aa94323da1ae1126", "lat": 38.897316000000004, "type": "electric_bike"}, {"fusion_lat": 0.0, "fusion_lon": 0.0, "rental_uris": {"android": "https://dc.lft.to/lastmile_qr_scan", "ios": "https://dc.lft.to/lastmile_qr_scan"}, "lon": -77.02385533333333, "name": "bdb452c7dbceebf4ea8115f037ddcf69", "is_disabled": 0, "is_reserved": 0, "bike_id": "bdb452c7dbceebf4ea8115f037ddcf69", "lat": 38.9068775, "type": "electric_scooter"}, {"fusion_lat": 0.0, "fusion_lon": 0.0, "rental_uris": {"android": "https://dc.lft.to/lastmile_qr_scan", "ios": "https://dc.lft.to/lastmile_qr_scan"}, "lon": -76.96331683333334, "name": "824cb478dd48b123cea213e49849d432", "is_disabled": 0, "is_reserved": 0, "bike_id": "824cb478dd48b123cea213e49849d432", "lat": 38.918646, "type": "electric_scooter"}, {"fusion_lat": 0.0, "fusion_lon": 0.0, "rental_uris": {"android": "https://dc.lft.to/lastmile_qr_scan", "ios": "https://dc.lft.to/lastmile_qr_scan"}, "lon": -77.003397, "name": "ac1ead6783649fc2a6d40c6d4753ca24", "is_disabled": 0, "is_reserved": 0, "bike_id": "ac1ead6783649fc2a6d40c6d4753ca24", "lat": 38.8935555, "type": "electric_scooter"}, {"fusion_lat": 0.0, "fusion_lon": 0.0, "rental_uris": {"android": "https://dc.lft.to/lastmile_qr_scan", "ios": "https://dc.lft.to/lastmile_qr_scan"}, "lon": -77.0383445, "name": "159c08c73420c579b4198a3c2169adb8", "is_disabled": 0, "is_reserved": 0, "bike_id": "159c08c73420c579b4198a3c2169adb8", "lat": 38.902488, "type": "electric_scooter"}, {"fusion_lat": 0.0, "fusion_lon": 0.0, "rental_uris": {"android": "https://dc.lft.to/lastmile_qr_scan", "ios": "https://dc.lft.to/lastmile_qr_scan"}, "lon": -77.01570466666666, "name": "cace7a809f38afb204d022e86edde057", "is_disabled": 0, "is_reserved": 0, "bike_id": "cace7a809f38afb204d022e86edde057", "lat": 38.926844, "type": "electric_scooter"}, {"fusion_lat": 0.0, "fusion_lon": 0.0, "rental_uris": {"android": "https://dc.lft.to/lastmile_qr_scan", "ios": "https://dc.lft.to/lastmile_qr_scan"}, "lon": -76.98896333333333, "name": "ad4699454c9eee78212b2421e2477aac", "is_disabled": 0, "is_reserved": 0, "bike_id": "ad4699454c9eee78212b2421e2477aac", "lat": 38.866611666666664, "type": "electric_scooter"}, {"fusion_lat": 0.0, "fusion_lon": 0.0, "rental_uris": {"android": "https://dc.lft.to/lastmile_qr_scan", "ios": "https://dc.lft.to/lastmile_qr_scan"}, "lon": -76.954185, "name": "2ef603076c091f489f7f560c1a533c49", "is_disabled": 0, "is_reserved": 0, "bike_id": "2ef603076c091f489f7f560c1a533c49", "lat": 38.8840225, "type": "electric_bike"}, {"fusion_lat": 0.0, "fusion_lon": 0.0, "rental_uris": {"android": "https://dc.lft.to/lastmile_qr_scan", "ios": "https://dc.lft.to/lastmile_qr_scan"}, "lon": -77.0303565, "name": "db5bd4af3302cfe81411c6ba2cb3fd53", "is_disabled": 0, "is_reserved": 0, "bike_id": "db5bd4af3302cfe81411c6ba2cb3fd53", "lat": 38.904998166666665, "type": "electric_scooter"}, {"fusion_lat": 0.0, "fusion_lon": 0.0, "rental_uris": {"android": "https://dc.lft.to/lastmile_qr_scan", "ios": "https://dc.lft.to/lastmile_qr_scan"}, "lon": -77.02738866666667, "name": "cffdd9906eb792367e96e85fa136de42", "is_disabled": 0, "is_reserved": 0, "bike_id": "cffdd9906eb792367e96e85fa136de42", "lat": 38.89494466666667, "type": "electric_scooter"}, {"fusion_lat": 0.0, "fusion_lon": 0.0, "rental_uris": {"android": "https://dc.lft.to/lastmile_qr_scan", "ios": "https://dc.lft.to/lastmile_qr_scan"}, "lon": -77.05848766666666, "name": "184d172fa40e16d2a80c4b5226bd2531", "is_disabled": 0, "is_reserved": 0, "bike_id": "184d172fa40e16d2a80c4b5226bd2531", "lat": 38.930478666666666, "type": "electric_scooter"}, {"fusion_lat": 0.0, "fusion_lon": 0.0, "rental_uris": {"android": "https://dc.lft.to/lastmile_qr_scan", "ios": "https://dc.lft.to/lastmile_qr_scan"}, "lon": -77.04683516666667, "name": "d12fc44d8bb1f4a6d5da52c7679613cc", "is_disabled": 0, "is_reserved": 0, "bike_id": "d12fc44d8bb1f4a6d5da52c7679613cc", "lat": 38.90238733333333, "type": "electric_scooter"}, {"fusion_lat": 0.0, "fusion_lon": 0.0, "rental_uris": {"android": "https://dc.lft.to/lastmile_qr_scan", "ios": "https://dc.lft.to/lastmile_qr_scan"}, "lon": -77.06185166666667, "name": "d74202ffee03b2158505d895cfae2fb4", "is_disabled": 0, "is_reserved": 0, "bike_id": "d74202ffee03b2158505d895cfae2fb4", "lat": 38.90334766666667, "type": "electric_scooter"}, {"fusion_lat": 0.0, "fusion_lon": 0.0, "rental_uris": {"android": "https://dc.lft.to/lastmile_qr_scan", "ios": "https://dc.lft.to/lastmile_qr_scan"}, "lon": -77.00926966666667, "name": "1b361a6b336d784154de2f953f597fb5", "is_disabled": 0, "is_reserved": 0, "bike_id": "1b361a6b336d784154de2f953f597fb5", "lat": 38.896046166666665, "type": "electric_scooter"}, {"fusion_lat": 0.0, "fusion_lon": 0.0, "rental_uris": {"android": "https://dc.lft.to/lastmile_qr_scan", "ios": "https://dc.lft.to/lastmile_qr_scan"}, "lon": -77.034735, "name": "fa5da836c4ef933e33209faea2a64d0d", "is_disabled": 0, "is_reserved": 0, "bike_id": "fa5da836c4ef933e33209faea2a64d0d", "lat": 38.904495833333335, "type": "electric_scooter"}, {"fusion_lat": 0.0, "fusion_lon": 0.0, "rental_uris": {"android": "https://dc.lft.to/lastmile_qr_scan", "ios": "https://dc.lft.to/lastmile_qr_scan"}, "lon": -77.00906333333333, "name": "fb879c57f25d2bbc031f6136376be1f6", "is_disabled": 0, "is_reserved": 0, "bike_id": "fb879c57f25d2bbc031f6136376be1f6", "lat": 38.879401666666666, "type": "electric_scooter"}, {"fusion_lat": 0.0, "fusion_lon": 0.0, "rental_uris": {"android": "https://dc.lft.to/lastmile_qr_scan", "ios": "https://dc.lft.to/lastmile_qr_scan"}, "lon": -77.0317995, "name": "a1393e049d50326a8af1561c083347ce", "is_disabled": 0, "is_reserved": 0, "bike_id": "a1393e049d50326a8af1561c083347ce", "lat": 38.91714666666667, "type": "electric_scooter"}, {"fusion_lat": 0.0, "fusion_lon": 0.0, "rental_uris": {"android": "https://dc.lft.to/lastmile_qr_scan", "ios": "https://dc.lft.to/lastmile_qr_scan"}, "lon": -77.0006295, "name": "73e28a47e5bbd9a4f105782b9458638a", "is_disabled": 0, "is_reserved": 0, "bike_id": "73e28a47e5bbd9a4f105782b9458638a", "lat": 38.90560883333333, "type": "electric_scooter"}, {"fusion_lat": 0.0, "fusion_lon": 0.0, "rental_uris": {"android": "https://dc.lft.to/lastmile_qr_scan", "ios": "https://dc.lft.to/lastmile_qr_scan"}, "lon": -77.04157766666667, "name": "44c23d00eaf6eb38d5eb030ea7da4a5e", "is_disabled": 0, "is_reserved": 0, "bike_id": "44c23d00eaf6eb38d5eb030ea7da4a5e", "lat": 38.9074695, "type": "electric_scooter"}, {"fusion_lat": 0.0, "fusion_lon": 0.0, "rental_uris": {"android": "https://dc.lft.to/lastmile_qr_scan", "ios": "https://dc.lft.to/lastmile_qr_scan"}, "lon": -77.045649, "name": "f5f68997def9f227eb695543ef963870", "is_disabled": 0, "is_reserved": 0, "bike_id": "f5f68997def9f227eb695543ef963870", "lat": 38.903685, "type": "electric_scooter"}, {"fusion_lat": 0.0, "fusion_lon": 0.0, "rental_uris": {"android": "https://dc.lft.to/lastmile_qr_scan", "ios": "https://dc.lft.to/lastmile_qr_scan"}, "lon": -77.02538883333334, "name": "1c6a81b059ba77a4da6935a332acef4d", "is_disabled": 0, "is_reserved": 0, "bike_id": "1c6a81b059ba77a4da6935a332acef4d", "lat": 38.907204166666666, "type": "electric_scooter"}, {"fusion_lat": 0.0, "fusion_lon": 0.0, "rental_uris": {"android": "https://dc.lft.to/lastmile_qr_scan", "ios": "https://dc.lft.to/lastmile_qr_scan"}, "lon": -77.045134, "name": "25da0a4e5b766cb249810fe9ab1718c6", "is_disabled": 0, "is_reserved": 0, "bike_id": "25da0a4e5b766cb249810fe9ab1718c6", "lat": 38.89959133333333, "type": "electric_scooter"}, {"fusion_lat": 0.0, "fusion_lon": 0.0, "rental_uris": {"android": "https://dc.lft.to/lastmile_qr_scan", "ios": "https://dc.lft.to/lastmile_qr_scan"}, "lon": -77.029103, "name": "4e8150995e186616a0b7e3aef9038ae0", "is_disabled": 0, "is_reserved": 0, "bike_id": "4e8150995e186616a0b7e3aef9038ae0", "lat": 38.917013833333336, "type": "electric_scooter"}, {"fusion_lat": 0.0, "fusion_lon": 0.0, "rental_uris": {"android": "https://dc.lft.to/lastmile_qr_scan", "ios": "https://dc.lft.to/lastmile_qr_scan"}, "lon": -77.0311, "name": "0cdcaf2a3ffb3ae25015786a09be0e13", "is_disabled": 0, "is_reserved": 0, "bike_id": "0cdcaf2a3ffb3ae25015786a09be0e13", "lat": 38.88315383333333, "type": "electric_scooter"}, {"fusion_lat": 0.0, "fusion_lon": 0.0, "rental_uris": {"android": "https://dc.lft.to/lastmile_qr_scan", "ios": "https://dc.lft.to/lastmile_qr_scan"}, "lon": -77.04255283333333, "name": "38a2ad2c05ea22ecc8d7d673bd69d9df", "is_disabled": 0, "is_reserved": 0, "bike_id": "38a2ad2c05ea22ecc8d7d673bd69d9df", "lat": 38.9064785, "type": "electric_scooter"}, {"fusion_lat": 0.0, "fusion_lon": 0.0, "rental_uris": {"android": "https://dc.lft.to/lastmile_qr_scan", "ios": "https://dc.lft.to/lastmile_qr_scan"}, "lon": -77.03548683333334, "name": "fb3201ad6f3b2936c2e7ce692a6b0347", "is_disabled": 0, "is_reserved": 0, "bike_id": "fb3201ad6f3b2936c2e7ce692a6b0347", "lat": 38.90026816666666, "type": "electric_scooter"}, {"fusion_lat": 0.0, "fusion_lon": 0.0, "rental_uris": {"android": "https://dc.lft.to/lastmile_qr_scan", "ios": "https://dc.lft.to/lastmile_qr_scan"}, "lon": -77.0269565, "name": "13a248c671939566a8a75e5a9fa510fb", "is_disabled": 0, "is_reserved": 0, "bike_id": "13a248c671939566a8a75e5a9fa510fb", "lat": 38.9497705, "type": "electric_scooter"}, {"fusion_lat": 0.0, "fusion_lon": 0.0, "rental_uris": {"android": "https://dc.lft.to/lastmile_qr_scan", "ios": "https://dc.lft.to/lastmile_qr_scan"}, "lon": -77.03648533333333, "name": "4f952a3524f862954893b4b9cdcb9f9a", "is_disabled": 0, "is_reserved": 0, "bike_id": "4f952a3524f862954893b4b9cdcb9f9a", "lat": 38.9067585, "type": "electric_scooter"}, {"fusion_lat": 0.0, "fusion_lon": 0.0, "rental_uris": {"android": "https://dc.lft.to/lastmile_qr_scan", "ios": "https://dc.lft.to/lastmile_qr_scan"}, "lon": -76.98986333333333, "name": "400b9c9ac0c4ca13ca8477155544588a", "is_disabled": 0, "is_reserved": 0, "bike_id": "400b9c9ac0c4ca13ca8477155544588a", "lat": 38.858744, "type": "electric_scooter"}, {"fusion_lat": 0.0, "fusion_lon": 0.0, "rental_uris": {"android": "https://dc.lft.to/lastmile_qr_scan", "ios": "https://dc.lft.to/lastmile_qr_scan"}, "lon": -77.03515783333333, "name": "69c3a21a549f2e76257ff54c236f0ccc", "is_disabled": 0, "is_reserved": 0, "bike_id": "69c3a21a549f2e76257ff54c236f0ccc", "lat": 38.92527616666667, "type": "electric_scooter"}, {"fusion_lat": 0.0, "fusion_lon": 0.0, "rental_uris": {"android": "https://dc.lft.to/lastmile_qr_scan", "ios": "https://dc.lft.to/lastmile_qr_scan"}, "lon": -77.01220133333334, "name": "cb6396a962fc7ce21ffd1d6fde1bf5e5", "is_disabled": 0, "is_reserved": 0, "bike_id": "cb6396a962fc7ce21ffd1d6fde1bf5e5", "lat": 38.913454, "type": "electric_scooter"}, {"fusion_lat": 0.0, "fusion_lon": 0.0, "rental_uris": {"android": "https://dc.lft.to/lastmile_qr_scan", "ios": "https://dc.lft.to/lastmile_qr_scan"}, "lon": -77.03209583333333, "name": "3ea769417c3ce4f50a20a8990e51b32b", "is_disabled": 0, "is_reserved": 0, "bike_id": "3ea769417c3ce4f50a20a8990e51b32b", "lat": 38.918411666666664, "type": "electric_scooter"}, {"fusion_lat": 0.0, "fusion_lon": 0.0, "rental_uris": {"android": "https://dc.lft.to/lastmile_qr_scan", "ios": "https://dc.lft.to/lastmile_qr_scan"}, "lon": -77.03189666666667, "name": "11720111d9fcf01a1fe0244c07727e5a", "is_disabled": 0, "is_reserved": 0, "bike_id": "11720111d9fcf01a1fe0244c07727e5a", "lat": 38.9013775, "type": "electric_scooter"}, {"fusion_lat": 0.0, "fusion_lon": 0.0, "rental_uris": {"android": "https://dc.lft.to/lastmile_qr_scan", "ios": "https://dc.lft.to/lastmile_qr_scan"}, "lon": -77.05002116666667, "name": "3758b951822ac21253ca29859a1a5eaa", "is_disabled": 0, "is_reserved": 0, "bike_id": "3758b951822ac21253ca29859a1a5eaa", "lat": 38.8939325, "type": "electric_scooter"}, {"fusion_lat": 0.0, "fusion_lon": 0.0, "rental_uris": {"android": "https://dc.lft.to/lastmile_qr_scan", "ios": "https://dc.lft.to/lastmile_qr_scan"}, "lon": -77.023621, "name": "d834c2d1fef9121361a06f604c65bbb3", "is_disabled": 0, "is_reserved": 0, "bike_id": "d834c2d1fef9121361a06f604c65bbb3", "lat": 38.92515083333333, "type": "electric_scooter"}, {"fusion_lat": 0.0, "fusion_lon": 0.0, "rental_uris": {"android": "https://dc.lft.to/lastmile_qr_scan", "ios": "https://dc.lft.to/lastmile_qr_scan"}, "lon": -77.03405583333333, "name": "c7ff0069717f6c063f8e34d843163f29", "is_disabled": 0, "is_reserved": 0, "bike_id": "c7ff0069717f6c063f8e34d843163f29", "lat": 38.92263616666666, "type": "electric_scooter"}, {"fusion_lat": 0.0, "fusion_lon": 0.0, "rental_uris": {"android": "https://dc.lft.to/lastmile_qr_scan", "ios": "https://dc.lft.to/lastmile_qr_scan"}, "lon": -77.03467583333334, "name": "de62a6c96c85c66503db957492de2876", "is_disabled": 0, "is_reserved": 0, "bike_id": "de62a6c96c85c66503db957492de2876", "lat": 38.903499333333336, "type": "electric_scooter"}, {"fusion_lat": 0.0, "fusion_lon": 0.0, "rental_uris": {"android": "https://dc.lft.to/lastmile_qr_scan", "ios": "https://dc.lft.to/lastmile_qr_scan"}, "lon": -77.043325, "name": "0b50f69092a92a71c7eae165dd1aaa1b", "is_disabled": 0, "is_reserved": 0, "bike_id": "0b50f69092a92a71c7eae165dd1aaa1b", "lat": 38.9087265, "type": "electric_scooter"}, {"fusion_lat": 0.0, "fusion_lon": 0.0, "rental_uris": {"android": "https://dc.lft.to/lastmile_qr_scan", "ios": "https://dc.lft.to/lastmile_qr_scan"}, "lon": -77.04674016666667, "name": "b2765dfca15e4ea563d1c80584d87561", "is_disabled": 0, "is_reserved": 0, "bike_id": "b2765dfca15e4ea563d1c80584d87561", "lat": 38.90343416666666, "type": "electric_scooter"}, {"fusion_lat": 0.0, "fusion_lon": 0.0, "rental_uris": {"android": "https://dc.lft.to/lastmile_qr_scan", "ios": "https://dc.lft.to/lastmile_qr_scan"}, "lon": -76.91064233333333, "name": "adf3547a8acbb6004d22cd3e1841cc2b", "is_disabled": 0, "is_reserved": 0, "bike_id": "adf3547a8acbb6004d22cd3e1841cc2b", "lat": 39.0107445, "type": "electric_bike"}, {"fusion_lat": 0.0, "fusion_lon": 0.0, "rental_uris": {"android": "https://dc.lft.to/lastmile_qr_scan", "ios": "https://dc.lft.to/lastmile_qr_scan"}, "lon": -77.02350366666667, "name": "5da2d27c3b5e0447df543dd86e357846", "is_disabled": 0, "is_reserved": 0, "bike_id": "5da2d27c3b5e0447df543dd86e357846", "lat": 38.8842235, "type": "electric_scooter"}, {"fusion_lat": 0.0, "fusion_lon": 0.0, "rental_uris": {"android": "https://dc.lft.to/lastmile_qr_scan", "ios": "https://dc.lft.to/lastmile_qr_scan"}, "lon": -77.036255, "name": "4f7e122cdd47363f76c653117e8bef4e", "is_disabled": 0, "is_reserved": 0, "bike_id": "4f7e122cdd47363f76c653117e8bef4e", "lat": 38.917226666666664, "type": "electric_scooter"}, {"fusion_lat": 0.0, "fusion_lon": 0.0, "rental_uris": {"android": "https://dc.lft.to/lastmile_qr_scan", "ios": "https://dc.lft.to/lastmile_qr_scan"}, "lon": -77.00513933333333, "name": "6c6c6de45fb73b60b66fa170728ad884", "is_disabled": 0, "is_reserved": 0, "bike_id": "6c6c6de45fb73b60b66fa170728ad884", "lat": 38.8746755, "type": "electric_scooter"}, {"fusion_lat": 0.0, "fusion_lon": 0.0, "rental_uris": {"android": "https://dc.lft.to/lastmile_qr_scan", "ios": "https://dc.lft.to/lastmile_qr_scan"}, "lon": -77.020946, "name": "2c28848b48cf725f1f7211ef81656abf", "is_disabled": 0, "is_reserved": 0, "bike_id": "2c28848b48cf725f1f7211ef81656abf", "lat": 38.897572, "type": "electric_bike"}, {"fusion_lat": 0.0, "fusion_lon": 0.0, "rental_uris": {"android": "https://dc.lft.to/lastmile_qr_scan", "ios": "https://dc.lft.to/lastmile_qr_scan"}, "lon": -77.00683533333333, "name": "ce0919ecfb427b56f72d4c8625bb3954", "is_disabled": 0, "is_reserved": 0, "bike_id": "ce0919ecfb427b56f72d4c8625bb3954", "lat": 38.87172316666667, "type": "electric_scooter"}, {"fusion_lat": 0.0, "fusion_lon": 0.0, "rental_uris": {"android": "https://dc.lft.to/lastmile_qr_scan", "ios": "https://dc.lft.to/lastmile_qr_scan"}, "lon": -77.021666, "name": "e8902074202b02b6b860b3baaad54f21", "is_disabled": 0, "is_reserved": 0, "bike_id": "e8902074202b02b6b860b3baaad54f21", "lat": 38.89725133333334, "type": "electric_scooter"}, {"fusion_lat": 0.0, "fusion_lon": 0.0, "rental_uris": {"android": "https://dc.lft.to/lastmile_qr_scan", "ios": "https://dc.lft.to/lastmile_qr_scan"}, "lon": -77.0256905, "name": "ab1e4ea5a8cf0b4add5641a5d9edf283", "is_disabled": 0, "is_reserved": 0, "bike_id": "ab1e4ea5a8cf0b4add5641a5d9edf283", "lat": 38.95571783333333, "type": "electric_scooter"}, {"fusion_lat": 0.0, "fusion_lon": 0.0, "rental_uris": {"android": "https://dc.lft.to/lastmile_qr_scan", "ios": "https://dc.lft.to/lastmile_qr_scan"}, "lon": -76.98375483333334, "name": "42521338747f220186665a2c775112cb", "is_disabled": 0, "is_reserved": 0, "bike_id": "42521338747f220186665a2c775112cb", "lat": 38.914942333333336, "type": "electric_scooter"}, {"fusion_lat": 0.0, "fusion_lon": 0.0, "rental_uris": {"android": "https://dc.lft.to/lastmile_qr_scan", "ios": "https://dc.lft.to/lastmile_qr_scan"}, "lon": -76.93964466666667, "name": "5e00663b528ecafa36d077516fbff92a", "is_disabled": 0, "is_reserved": 0, "bike_id": "5e00663b528ecafa36d077516fbff92a", "lat": 38.893413833333334, "type": "electric_scooter"}, {"fusion_lat": 0.0, "fusion_lon": 0.0, "rental_uris": {"android": "https://dc.lft.to/lastmile_qr_scan", "ios": "https://dc.lft.to/lastmile_qr_scan"}, "lon": -77.01507116666667, "name": "d7ff4fa72076b25b061382f1906a4127", "is_disabled": 0, "is_reserved": 0, "bike_id": "d7ff4fa72076b25b061382f1906a4127", "lat": 38.91322, "type": "electric_scooter"}, {"fusion_lat": 0.0, "fusion_lon": 0.0, "rental_uris": {"android": "https://dc.lft.to/lastmile_qr_scan", "ios": "https://dc.lft.to/lastmile_qr_scan"}, "lon": -77.0385765, "name": "f3f35657f4f37b1a9fa81ce0afe92263", "is_disabled": 0, "is_reserved": 0, "bike_id": "f3f35657f4f37b1a9fa81ce0afe92263", "lat": 38.90476566666667, "type": "electric_scooter"}, {"fusion_lat": 0.0, "fusion_lon": 0.0, "rental_uris": {"android": "https://dc.lft.to/lastmile_qr_scan", "ios": "https://dc.lft.to/lastmile_qr_scan"}, "lon": -77.021543, "name": "defe32d98b12235368a26650e01edf43", "is_disabled": 0, "is_reserved": 0, "bike_id": "defe32d98b12235368a26650e01edf43", "lat": 38.92604516666667, "type": "electric_scooter"}, {"fusion_lat": 0.0, "fusion_lon": 0.0, "rental_uris": {"android": "https://dc.lft.to/lastmile_qr_scan", "ios": "https://dc.lft.to/lastmile_qr_scan"}, "lon": -77.02237366666667, "name": "3f217be5de4ee3e4c4d0252926807446", "is_disabled": 0, "is_reserved": 0, "bike_id": "3f217be5de4ee3e4c4d0252926807446", "lat": 38.924744, "type": "electric_scooter"}, {"fusion_lat": 0.0, "fusion_lon": 0.0, "rental_uris": {"android": "https://dc.lft.to/lastmile_qr_scan", "ios": "https://dc.lft.to/lastmile_qr_scan"},