{"data": {"bikes": [{"is_reserved": 0, "bike_id": "5dc55b7c6ebbf72e5e2fa4bf1671f1e7", "type": "electric_scooter", "name": "5dc55b7c6ebbf72e5e2fa4bf1671f1e7", "is_disabled": 0, "fusion_lon": 0.0, "rental_uris": {"android": "https://dc.lft.to/lastmile_qr_scan", "ios": "https://dc.lft.to/lastmile_qr_scan"}, "lat": 38.93100466666667, "lon": -77.090941, "fusion_lat": 0.0}, {"is_reserved": 0, "bike_id": "a7bf781ab63490e193fd17072c304c88", "type": "electric_scooter", "name": "a7bf781ab63490e193fd17072c304c88", "is_disabled": 0, "fusion_lon": 0.0, "rental_uris": {"android": "https://dc.lft.to/lastmile_qr_scan", "ios": "https://dc.lft.to/lastmile_qr_scan"}, "lat": 38.92159133333333, "lon": -77.033862, "fusion_lat": 0.0}, {"is_reserved": 0, "bike_id": "ccacd29f2ebf45358ed920ead9ceedb4", "type": "electric_scooter", "name": "ccacd29f2ebf45358ed920ead9ceedb4", "is_disabled": 0, "fusion_lon": 0.0, "rental_uris": {"android": "https://dc.lft.to/lastmile_qr_scan", "ios": "https://dc.lft.to/lastmile_qr_scan"}, "lat": 38.90868416666667, "lon": -77.047412, "fusion_lat": 0.0}, {"is_reserved": 0, "bike_id": "0a06bb577787301eab2bf27eae568e29", "type": "electric_scooter", "name": "0a06bb577787301eab2bf27eae568e29", "is_disabled": 0, "fusion_lon": 0.0, "rental_uris": {"android": "https://dc.lft.to/lastmile_qr_scan", "ios": "https://dc.lft.to/lastmile_qr_scan"}, "lat": 38.89867483333333, "lon": -76.9466235, "fusion_lat": 0.0}, {"is_reserved": 0, "bike_id": "d0eb31d6d10fcec310eb2efdc0cad573", "type": "electric_scooter", "name": "d0eb31d6d10fcec310eb2efdc0cad573", "is_disabled": 0, "fusion_lon": 0.0, "rental_uris": {"android": "https://dc.lft.to/lastmile_qr_scan", "ios": "https://dc.lft.to/lastmile_qr_scan"}, "lat": 38.926034666666666, "lon": -77.02151866666667, "fusion_lat": 0.0}, {"is_reserved": 0, "bike_id": "caee1ca97627780efc445421cf963606", "type": "electric_scooter", "name": "caee1ca97627780efc445421cf963606", "is_disabled": 0, "fusion_lon": 0.0, "rental_uris": {"android": "https://dc.lft.to/lastmile_qr_scan", "ios": "https://dc.lft.to/lastmile_qr_scan"}, "lat": 38.887353833333336, "lon": -77.02581566666667, "fusion_lat": 0.0}, {"is_reserved": 0, "bike_id": "5641c44313c738da61ce9c3d35e1f7c2", "type": "electric_scooter", "name": "5641c44313c738da61ce9c3d35e1f7c2", "is_disabled": 0, "fusion_lon": 0.0, "rental_uris": {"android": "https://dc.lft.to/lastmile_qr_scan", "ios": "https://dc.lft.to/lastmile_qr_scan"}, "lat": 38.904733666666665, "lon": -77.02143366666667, "fusion_lat": 0.0}, {"is_reserved": 0, "bike_id": "10c73cd3745b36dd61e7feccc90aaff4", "type": "electric_scooter", "name": "10c73cd3745b36dd61e7feccc90aaff4", "is_disabled": 0, "fusion_lon": 0.0, "rental_uris": {"android": "https://dc.lft.to/lastmile_qr_scan", "ios": "https://dc.lft.to/lastmile_qr_scan"}, "lat": 38.90554816666667, "lon": -77.02216666666666, "fusion_lat": 0.0}, {"is_reserved": 0, "bike_id": "7f820c49f5ec3eb6d35fef2b4c5ffe3a", "type": "electric_scooter", "name": "7f820c49f5ec3eb6d35fef2b4c5ffe3a", "is_disabled": 0, "fusion_lon": 0.0, "rental_uris": {"android": "https://dc.lft.to/lastmile_qr_scan", "ios": "https://dc.lft.to/lastmile_qr_scan"}, "lat": 38.9178785, "lon": -77.04308183333333, "fusion_lat": 0.0}, {"is_reserved": 0, "bike_id": "1a114ee40ad44bb151df35931b607f21", "type": "electric_scooter", "name": "1a114ee40ad44bb151df35931b607f21", "is_disabled": 0, "fusion_lon": 0.0, "rental_uris": {"android": "https://dc.lft.to/lastmile_qr_scan", "ios": "https://dc.lft.to/lastmile_qr_scan"}, "lat": 38.8948505, "lon": -76.99134166666667, "fusion_lat": 0.0}, {"is_reserved": 0, "bike_id": "90ed5f64accc8db724d635c78d9ccfe7", "type": "electric_scooter", "name": "90ed5f64accc8db724d635c78d9ccfe7", "is_disabled": 0, "fusion_lon": 0.0, "rental_uris": {"android": "https://dc.lft.to/lastmile_qr_scan", "ios": "https://dc.lft.to/lastmile_qr_scan"}, "lat": 38.927078, "lon": -77.020906, "fusion_lat": 0.0}, {"is_reserved": 0, "bike_id": "b8e0c487b318f047e2f6a9b394a55679", "type": "electric_scooter", "name": "b8e0c487b318f047e2f6a9b394a55679", "is_disabled": 0, "fusion_lon": 0.0, "rental_uris": {"android": "https://dc.lft.to/lastmile_qr_scan", "ios": "https://dc.lft.to/lastmile_qr_scan"}, "lat": 38.93965583333333, "lon": -77.0328905, "fusion_lat": 0.0}, {"is_reserved": 0, "bike_id": "8e167e8c6565697ab25a1c8e87298783", "type": "electric_scooter", "name": "8e167e8c6565697ab25a1c8e87298783", "is_disabled": 0, "fusion_lon": 0.0, "rental_uris": {"android": "https://dc.lft.to/lastmile_qr_scan", "ios": "https://dc.lft.to/lastmile_qr_scan"}, "lat": 38.916559666666664, "lon": -77.02189516666667, "fusion_lat": 0.0}, {"is_reserved": 0, "bike_id": "2ec3bce74a87662629f86e17162dcead", "type": "electric_scooter", "name": "2ec3bce74a87662629f86e17162dcead", "is_disabled": 0, "fusion_lon": 0.0, "rental_uris": {"android": "https://dc.lft.to/lastmile_qr_scan", "ios": "https://dc.lft.to/lastmile_qr_scan"}, "lat": 38.916246, "lon": -77.009267, "fusion_lat": 0.0}, {"is_reserved": 0, "bike_id": "4527ad77e7c831015b2f5826f020014b", "type": "electric_scooter", "name": "4527ad77e7c831015b2f5826f020014b", "is_disabled": 0, "fusion_lon": 0.0, "rental_uris": {"android": "https://dc.lft.to/lastmile_qr_scan", "ios": "https://dc.lft.to/lastmile_qr_scan"}, "lat": 38.9187665, "lon": -77.03505616666666, "fusion_lat": 0.0}, {"is_reserved": 0, "bike_id": "0a0728a4010d2a202826bd04211f87c5", "type": "electric_scooter", "name": "0a0728a4010d2a202826bd04211f87c5", "is_disabled": 0, "fusion_lon": 0.0, "rental_uris": {"android": "https://dc.lft.to/lastmile_qr_scan", "ios": "https://dc.lft.to/lastmile_qr_scan"}, "lat": 38.85834233333333, "lon": -76.99011816666666, "fusion_lat": 0.0}, {"is_reserved": 0, "bike_id": "6455f3e69a5d6cef6634dee166b2f66a", "type": "electric_scooter", "name": "6455f3e69a5d6cef6634dee166b2f66a", "is_disabled": 0, "fusion_lon": 0.0, "rental_uris": {"android": "https://dc.lft.to/lastmile_qr_scan", "ios": "https://dc.lft.to/lastmile_qr_scan"}, "lat": 38.88743266666667, "lon": -77.03174816666667, "fusion_lat": 0.0}, {"is_reserved": 0, "bike_id": "f7a984a3225d5016b7dbebf6ebfba715", "type": "electric_scooter", "name": "f7a984a3225d5016b7dbebf6ebfba715", "is_disabled": 0, "fusion_lon": 0.0, "rental_uris": {"android": "https://dc.lft.to/lastmile_qr_scan", "ios": "https://dc.lft.to/lastmile_qr_scan"}, "lat": 38.90264283333333, "lon": -77.01773816666666, "fusion_lat": 0.0}, {"is_reserved": 0, "bike_id": "893a1d71e25736915063a747019fe261", "type": "electric_scooter", "name": "893a1d71e25736915063a747019fe261", "is_disabled": 0, "fusion_lon": 0.0, "rental_uris": {"android": "https://dc.lft.to/lastmile_qr_scan", "ios": "https://dc.lft.to/lastmile_qr_scan"}, "lat": 38.906398833333334, "lon": -77.05127916666666, "fusion_lat": 0.0}, {"is_reserved": 0, "bike_id": "29eadf34fa9f12568cc9b4a0dff97be9", "type": "electric_scooter", "name": "29eadf34fa9f12568cc9b4a0dff97be9", "is_disabled": 0, "fusion_lon": 0.0, "rental_uris": {"android": "https://dc.lft.to/lastmile_qr_scan", "ios": "https://dc.lft.to/lastmile_qr_scan"}, "lat": 38.949802166666665, "lon": -77.02697316666666, "fusion_lat": 0.0}, {"is_reserved": 0, "bike_id": "d090272d88505c5f29c006296477466b", "type": "electric_scooter", "name": "d090272d88505c5f29c006296477466b", "is_disabled": 0, "fusion_lon": 0.0, "rental_uris": {"android": "https://dc.lft.to/lastmile_qr_scan", "ios": "https://dc.lft.to/lastmile_qr_scan"}, "lat": 38.92093233333333, "lon": -77.02598283333333, "fusion_lat": 0.0}, {"is_reserved": 0, "bike_id": "923db0aeb79842befd9e1c44a09006c7", "type": "electric_scooter", "name": "923db0aeb79842befd9e1c44a09006c7", "is_disabled": 0, "fusion_lon": 0.0, "rental_uris": {"android": "https://dc.lft.to/lastmile_qr_scan", "ios": "https://dc.lft.to/lastmile_qr_scan"}, "lat": 38.94289633333333, "lon": -77.03621666666666, "fusion_lat": 0.0}, {"is_reserved": 0, "bike_id": "f0b9efadc587476cd9f1e9a18f6e85cc", "type": "electric_scooter", "name": "f0b9efadc587476cd9f1e9a18f6e85cc", "is_disabled": 0, "fusion_lon": 0.0, "rental_uris": {"android": "https://dc.lft.to/lastmile_qr_scan", "ios": "https://dc.lft.to/lastmile_qr_scan"}, "lat": 38.92461433333333, "lon": -77.0523125, "fusion_lat": 0.0}, {"is_reserved": 0, "bike_id": "473336269f18cb0b60a7899127200768", "type": "electric_scooter", "name": "473336269f18cb0b60a7899127200768", "is_disabled": 0, "fusion_lon": 0.0, "rental_uris": {"android": "https://dc.lft.to/lastmile_qr_scan", "ios": "https://dc.lft.to/lastmile_qr_scan"}, "lat": 38.956137166666664, "lon": -77.02760183333334, "fusion_lat": 0.0}, {"is_reserved": 0, "bike_id": "04c181de913dc414838e105756651e74", "type": "electric_scooter", "name": "04c181de913dc414838e105756651e74", "is_disabled": 0, "fusion_lon": 0.0, "rental_uris": {"android": "https://dc.lft.to/lastmile_qr_scan", "ios": "https://dc.lft.to/lastmile_qr_scan"}, "lat": 38.924147166666664, "lon": -77.03540133333334, "fusion_lat": 0.0}, {"is_reserved": 0, "bike_id": "15e78afa9aff1d914b1635e20a9e9023", "type": "electric_scooter", "name": "15e78afa9aff1d914b1635e20a9e9023", "is_disabled": 0, "fusion_lon": 0.0, "rental_uris": {"android": "https://dc.lft.to/lastmile_qr_scan", "ios": "https://dc.lft.to/lastmile_qr_scan"}, "lat": 38.88080166666667, "lon": -76.9949425, "fusion_lat": 0.0}, {"is_reserved": 0, "bike_id": "501c684f2699470a02d3262b97147064", "type": "electric_scooter", "name": "501c684f2699470a02d3262b97147064", "is_disabled": 0, "fusion_lon": 0.0, "rental_uris": {"android": "https://dc.lft.to/lastmile_qr_scan", "ios": "https://dc.lft.to/lastmile_qr_scan"}, "lat": 38.912668333333336, "lon": -77.03867616666666, "fusion_lat": 0.0}, {"is_reserved": 0, "bike_id": "de8bb4ec18c778419d65489e65a33345", "type": "electric_scooter", "name": "de8bb4ec18c778419d65489e65a33345", "is_disabled": 0, "fusion_lon": 0.0, "rental_uris": {"android": "https://dc.lft.to/lastmile_qr_scan", "ios": "https://dc.lft.to/lastmile_qr_scan"}, "lat": 38.88600566666667, "lon": -76.92506183333333, "fusion_lat": 0.0}, {"is_reserved": 0, "bike_id": "f4cd6b196b470cbbc141b83c6333d040", "type": "electric_scooter", "name": "f4cd6b196b470cbbc141b83c6333d040", "is_disabled": 0, "fusion_lon": 0.0, "rental_uris": {"android": "https://dc.lft.to/lastmile_qr_scan", "ios": "https://dc.lft.to/lastmile_qr_scan"}, "lat": 38.872872, "lon": -77.01700283333334, "fusion_lat": 0.0}, {"is_reserved": 0, "bike_id": "e637913f0e2de79ba4379ae0189beafe", "type": "electric_scooter", "name": "e637913f0e2de79ba4379ae0189beafe", "is_disabled": 0, "fusion_lon": 0.0, "rental_uris": {"android": "https://dc.lft.to/lastmile_qr_scan", "ios": "https://dc.lft.to/lastmile_qr_scan"}, "lat": 38.8767775, "lon": -77.000635, "fusion_lat": 0.0}, {"is_reserved": 0, "bike_id": "f5a63a01b05ade430670112c3d3ea1c4", "type": "electric_scooter", "name": "f5a63a01b05ade430670112c3d3ea1c4", "is_disabled": 0, "fusion_lon": 0.0, "rental_uris": {"android": "https://dc.lft.to/lastmile_qr_scan", "ios": "https://dc.lft.to/lastmile_qr_scan"}, "lat": 38.916001, "lon": -77.0366585, "fusion_lat": 0.0}, {"is_reserved": 0, "bike_id": "8310a5d9c370868982dec8d1453a7dfb", "type": "electric_scooter", "name": "8310a5d9c370868982dec8d1453a7dfb", "is_disabled": 0, "fusion_lon": 0.0, "rental_uris": {"android": "https://dc.lft.to/lastmile_qr_scan", "ios": "https://dc.lft.to/lastmile_qr_scan"}, "lat": 38.920779333333336, "lon": -77.03657, "fusion_lat": 0.0}, {"is_reserved": 0, "bike_id": "0dabeedac4ac3ae7211864c5d007db41", "type": "electric_scooter", "name": "0dabeedac4ac3ae7211864c5d007db41", "is_disabled": 0, "fusion_lon": 0.0, "rental_uris": {"android": "https://dc.lft.to/lastmile_qr_scan", "ios": "https://dc.lft.to/lastmile_qr_scan"}, "lat": 38.91403316666667, "lon": -77.0101625, "fusion_lat": 0.0}, {"is_reserved": 0, "bike_id": "4afdb376ea9fc2df153215742064fb2c", "type": "electric_scooter", "name": "4afdb376ea9fc2df153215742064fb2c", "is_disabled": 0, "fusion_lon": 0.0, "rental_uris": {"android": "https://dc.lft.to/lastmile_qr_scan", "ios": "https://dc.lft.to/lastmile_qr_scan"}, "lat": 38.92264433333333, "lon": -77.02959666666666, "fusion_lat": 0.0}, {"is_reserved": 0, "bike_id": "7132e1c14a3cb8780d7f2cc60a9acfd7", "type": "electric_scooter", "name": "7132e1c14a3cb8780d7f2cc60a9acfd7", "is_disabled": 0, "fusion_lon": 0.0, "rental_uris": {"android": "https://dc.lft.to/lastmile_qr_scan", "ios": "https://dc.lft.to/lastmile_qr_scan"}, "lat": 38.906464666666665, "lon": -77.05338766666667, "fusion_lat": 0.0}, {"is_reserved": 0, "bike_id": "6f924beb4228b813c9da7d04ee355984", "type": "electric_scooter", "name": "6f924beb4228b813c9da7d04ee355984", "is_disabled": 0, "fusion_lon": 0.0, "rental_uris": {"android": "https://dc.lft.to/lastmile_qr_scan", "ios": "https://dc.lft.to/lastmile_qr_scan"}, "lat": 38.923360333333335, "lon": -77.05685766666667, "fusion_lat": 0.0}, {"is_reserved": 0, "bike_id": "c6e1865637d533cdab22e6500ee07af6", "type": "electric_scooter", "name": "c6e1865637d533cdab22e6500ee07af6", "is_disabled": 0, "fusion_lon": 0.0, "rental_uris": {"android": "https://dc.lft.to/lastmile_qr_scan", "ios": "https://dc.lft.to/lastmile_qr_scan"}, "lat": 38.954187, "lon": -77.02763716666666, "fusion_lat": 0.0}, {"is_reserved": 0, "bike_id": "eefaab8e8ab8f003912f0cf8a71dcf01", "type": "electric_scooter", "name": "eefaab8e8ab8f003912f0cf8a71dcf01", "is_disabled": 0, "fusion_lon": 0.0, "rental_uris": {"android": "https://dc.lft.to/lastmile_qr_scan", "ios": "https://dc.lft.to/lastmile_qr_scan"}, "lat": 38.9127555, "lon": -77.0221005, "fusion_lat": 0.0}, {"is_reserved": 0, "bike_id": "542a6466b8a0647dd32592d6386fec29", "type": "electric_scooter", "name": "542a6466b8a0647dd32592d6386fec29", "is_disabled": 0, "fusion_lon": 0.0, "rental_uris": {"android": "https://dc.lft.to/lastmile_qr_scan", "ios": "https://dc.lft.to/lastmile_qr_scan"}, "lat": 38.93179883333333, "lon": -77.036939, "fusion_lat": 0.0}, {"is_reserved": 0, "bike_id": "0d3313caa8cee29a801746ae7e656bbd", "type": "electric_scooter", "name": "0d3313caa8cee29a801746ae7e656bbd", "is_disabled": 0, "fusion_lon": 0.0, "rental_uris": {"android": "https://dc.lft.to/lastmile_qr_scan", "ios": "https://dc.lft.to/lastmile_qr_scan"}, "lat": 38.9127265, "lon": -77.03927533333334, "fusion_lat": 0.0}, {"is_reserved": 0, "bike_id": "47161d9454884c800a946df2ea4f3081", "type": "electric_scooter", "name": "47161d9454884c800a946df2ea4f3081", "is_disabled": 0, "fusion_lon": 0.0, "rental_uris": {"android": "https://dc.lft.to/lastmile_qr_scan", "ios": "https://dc.lft.to/lastmile_qr_scan"}, "lat": 38.88432483333333, "lon": -77.030462, "fusion_lat": 0.0}, {"is_reserved": 0, "bike_id": "b9994821255c431c24f85bdee90e2851", "type": "electric_bike", "name": "b9994821255c431c24f85bdee90e2851", "is_disabled": 0, "fusion_lon": 0.0, "rental_uris": {"android": "https://dc.lft.to/lastmile_qr_scan", "ios": "https://dc.lft.to/lastmile_qr_scan"}, "lat": 38.958831, "lon": -76.97057133333334, "fusion_lat": 0.0}, {"is_reserved": 0, "bike_id": "5930e0d250624f462dcd24469116008a", "type": "electric_scooter", "name": "5930e0d250624f462dcd24469116008a", "is_disabled": 0, "fusion_lon": 0.0, "rental_uris": {"android": "https://dc.lft.to/lastmile_qr_scan", "ios": "https://dc.lft.to/lastmile_qr_scan"}, "lat": 38.896216833333334, "lon": -76.9855815, "fusion_lat": 0.0}, {"is_reserved": 0, "bike_id": "9f2af443f997d77a11ce14d230595e19", "type": "electric_scooter", "name": "9f2af443f997d77a11ce14d230595e19", "is_disabled": 0, "fusion_lon": 0.0, "rental_uris": {"android": "https://dc.lft.to/lastmile_qr_scan", "ios": "https://dc.lft.to/lastmile_qr_scan"}, "lat": 38.913316333333334, "lon": -77.019835, "fusion_lat": 0.0}, {"is_reserved": 0, "bike_id": "ca5f3bf8e91c070cf77de13e7522bdc7", "type": "electric_scooter", "name": "ca5f3bf8e91c070cf77de13e7522bdc7", "is_disabled": 0, "fusion_lon": 0.0, "rental_uris": {"android": "https://dc.lft.to/lastmile_qr_scan", "ios": "https://dc.lft.to/lastmile_qr_scan"}, "lat": 38.95541016666667, "lon": -77.0277885, "fusion_lat": 0.0}, {"is_reserved": 0, "bike_id": "1687ee772a864e234439eeb4ba70ffaa", "type": "electric_scooter", "name": "1687ee772a864e234439eeb4ba70ffaa", "is_disabled": 0, "fusion_lon": 0.0, "rental_uris": {"android": "https://dc.lft.to/lastmile_qr_scan", "ios": "https://dc.lft.to/lastmile_qr_scan"}, "lat": 38.898377833333335, "lon": -77.04988333333333, "fusion_lat": 0.0}, {"is_reserved": 0, "bike_id": "e81b00b6db801bf4aee7647f0fb31704", "type": "electric_scooter", "name": "e81b00b6db801bf4aee7647f0fb31704", "is_disabled": 0, "fusion_lon": 0.0, "rental_uris": {"android": "https://dc.lft.to/lastmile_qr_scan", "ios": "https://dc.lft.to/lastmile_qr_scan"}, "lat": 38.9051185, "lon": -77.06035833333334, "fusion_lat": 0.0}, {"is_reserved": 0, "bike_id": "c6292a57c5bab19d5f8e81d74c253ba5", "type": "electric_scooter", "name": "c6292a57c5bab19d5f8e81d74c253ba5", "is_disabled": 0, "fusion_lon": 0.0, "rental_uris": {"android": "https://dc.lft.to/lastmile_qr_scan", "ios": "https://dc.lft.to/lastmile_qr_scan"}, "lat": 38.922216, "lon": -76.98366633333333, "fusion_lat": 0.0}, {"is_reserved": 0, "bike_id": "98a4ecdd7c86332ceb29d15dd0aa85cb", "type": "electric_scooter", "name": "98a4ecdd7c86332ceb29d15dd0aa85cb", "is_disabled": 0, "fusion_lon": 0.0, "rental_uris": {"android": "https://dc.lft.to/lastmile_qr_scan", "ios": "https://dc.lft.to/lastmile_qr_scan"}, "lat": 38.913592666666666, "lon": -77.07229083333333, "fusion_lat": 0.0}, {"is_reserved": 0, "bike_id": "fa6a6943b4b776a33140f3f997b5e232", "type": "electric_scooter", "name": "fa6a6943b4b776a33140f3f997b5e232", "is_disabled": 0, "fusion_lon": 0.0, "rental_uris": {"android": "https://dc.lft.to/lastmile_qr_scan", "ios": "https://dc.lft.to/lastmile_qr_scan"}, "lat": 38.923768833333334, "lon": -77.020526, "fusion_lat": 0.0}, {"is_reserved": 0, "bike_id": "f03f2a14ed1e11edf23c04826002b3d3", "type": "electric_scooter", "name": "f03f2a14ed1e11edf23c04826002b3d3", "is_disabled": 0, "fusion_lon": 0.0, "rental_uris": {"android": "https://dc.lft.to/lastmile_qr_scan", "ios": "https://dc.lft.to/lastmile_qr_scan"}, "lat": 38.921609, "lon": -77.03458233333333, "fusion_lat": 0.0}, {"is_reserved": 0, "bike_id": "c8a5c8458df4bbba321445fc2af020a1", "type": "electric_scooter", "name": "c8a5c8458df4bbba321445fc2af020a1", "is_disabled": 0, "fusion_lon": 0.0, "rental_uris": {"android": "https://dc.lft.to/lastmile_qr_scan", "ios": "https://dc.lft.to/lastmile_qr_scan"}, "lat": 38.920523833333334, "lon": -77.01587233333333, "fusion_lat": 0.0}, {"is_reserved": 0, "bike_id": "571a8d3e47343e950c991018f7ce07a3", "type": "electric_scooter", "name": "571a8d3e47343e950c991018f7ce07a3", "is_disabled": 0, "fusion_lon": 0.0, "rental_uris": {"android": "https://dc.lft.to/lastmile_qr_scan", "ios": "https://dc.lft.to/lastmile_qr_scan"}, "lat": 38.939426833333336, "lon": -77.032619, "fusion_lat": 0.0}, {"is_reserved": 0, "bike_id": "264a715aa18dc12af6c760990016e0ae", "type": "electric_scooter", "name": "264a715aa18dc12af6c760990016e0ae", "is_disabled": 0, "fusion_lon": 0.0, "rental_uris": {"android": "https://dc.lft.to/lastmile_qr_scan", "ios": "https://dc.lft.to/lastmile_qr_scan"}, "lat": 38.901812, "lon": -76.93464383333334, "fusion_lat": 0.0}, {"is_reserved": 0, "bike_id": "9f82113e707f8942a6fd4dff155269a7", "type": "electric_scooter", "name": "9f82113e707f8942a6fd4dff155269a7", "is_disabled": 0, "fusion_lon": 0.0, "rental_uris": {"android": "https://dc.lft.to/lastmile_qr_scan", "ios": "https://dc.lft.to/lastmile_qr_scan"}, "lat": 38.91809816666667, "lon": -77.03876983333333, "fusion_lat": 0.0}, {"is_reserved": 0, "bike_id": "5d438f83c5edf192c9c2ef078f25d6a4", "type": "electric_scooter", "name": "5d438f83c5edf192c9c2ef078f25d6a4", "is_disabled": 0, "fusion_lon": 0.0, "rental_uris": {"android": "https://dc.lft.to/lastmile_qr_scan", "ios": "https://dc.lft.to/lastmile_qr_scan"}, "lat": 38.9082625, "lon": -76.99156133333334, "fusion_lat": 0.0}, {"is_reserved": 0, "bike_id": "04cee760b140632f910496dc1af46fa6", "type": "electric_scooter", "name": "04cee760b140632f910496dc1af46fa6", "is_disabled": 0, "fusion_lon": 0.0, "rental_uris": {"android": "https://dc.lft.to/lastmile_qr_scan", "ios": "https://dc.lft.to/lastmile_qr_scan"}, "lat": 38.899557333333334, "lon": -77.04685583333334, "fusion_lat": 0.0}, {"is_reserved": 0, "bike_id": "6d070cac5b44c588a8d2d5b0307fda1a", "type": "electric_scooter", "name": "6d070cac5b44c588a8d2d5b0307fda1a", "is_disabled": 0, "fusion_lon": 0.0, "rental_uris": {"android": "https://dc.lft.to/lastmile_qr_scan", "ios": "https://dc.lft.to/lastmile_qr_scan"}, "lat": 38.91626183333333, "lon": -77.031916, "fusion_lat": 0.0}, {"is_reserved": 0, "bike_id": "67cd54eb56e4fd18e83df1e5a111b173", "type": "electric_scooter", "name": "67cd54eb56e4fd18e83df1e5a111b173", "is_disabled": 0, "fusion_lon": 0.0, "rental_uris": {"android": "https://dc.lft.to/lastmile_qr_scan", "ios": "https://dc.lft.to/lastmile_qr_scan"}, "lat": 38.89953416666667, "lon": -77.01608866666666, "fusion_lat": 0.0}, {"is_reserved": 0, "bike_id": "8a826c36b47f7e62584f6fc205b3ce5b", "type": "electric_scooter", "name": "8a826c36b47f7e62584f6fc205b3ce5b", "is_disabled": 0, "fusion_lon": 0.0, "rental_uris": {"android": "https://dc.lft.to/lastmile_qr_scan", "ios": "https://dc.lft.to/lastmile_qr_scan"}, "lat": 38.90032733333334, "lon": -77.01180466666666, "fusion_lat": 0.0}, {"is_reserved": 0, "bike_id": "1fff07ca32e17b2963bf24cee4a977ed", "type": "electric_bike", "name": "1fff07ca32e17b2963bf24cee4a977ed", "is_disabled": 0, "fusion_lon": 0.0, "rental_uris": {"android": "https://dc.lft.to/lastmile_qr_scan", "ios": "https://dc.lft.to/lastmile_qr_scan"}, "lat": 38.9852665, "lon": -77.00410616666667, "fusion_lat": 0.0}, {"is_reserved": 0, "bike_id": "f3cd1b1799cee816a4145b5f0e44e71f", "type": "electric_scooter", "name": "f3cd1b1799cee816a4145b5f0e44e71f", "is_disabled": 0, "fusion_lon": 0.0, "rental_uris": {"android": "https://dc.lft.to/lastmile_qr_scan", "ios": "https://dc.lft.to/lastmile_qr_scan"}, "lat": 38.9242025, "lon": -77.01947966666667, "fusion_lat": 0.0}, {"is_reserved": 0, "bike_id": "cb14c373088d04b9ca99f4f251e1d19e", "type": "electric_scooter", "name": "cb14c373088d04b9ca99f4f251e1d19e", "is_disabled": 0, "fusion_lon": 0.0, "rental_uris": {"android": "https://dc.lft.to/lastmile_qr_scan", "ios": "https://dc.lft.to/lastmile_qr_scan"}, "lat": 38.91920316666667, "lon": -77.03177783333334, "fusion_lat": 0.0}, {"is_reserved": 0, "bike_id": "524e79d2b4d7a1e2479f1effbb6fdbfe", "type": "electric_scooter", "name": "524e79d2b4d7a1e2479f1effbb6fdbfe", "is_disabled": 0, "fusion_lon": 0.0, "rental_uris": {"android": "https://dc.lft.to/lastmile_qr_scan", "ios": "https://dc.lft.to/lastmile_qr_scan"}, "lat": 38.87703233333333, "lon": -77.00305016666667, "fusion_lat": 0.0}, {"is_reserved": 0, "bike_id": "17669c4d7bdb7e2fff35016fe5529ea8", "type": "electric_scooter", "name": "17669c4d7bdb7e2fff35016fe5529ea8", "is_disabled": 0, "fusion_lon": 0.0, "rental_uris": {"android": "https://dc.lft.to/lastmile_qr_scan", "ios": "https://dc.lft.to/lastmile_qr_scan"}, "lat": 38.905722833333336, "lon": -77.00713366666666, "fusion_lat": 0.0}, {"is_reserved": 0, "bike_id": "b8365eeea6e7bc47b009566c876615a8", "type": "electric_bike", "name": "b8365eeea6e7bc47b009566c876615a8", "is_disabled": 0, "fusion_lon": 0.0, "rental_uris": {"android": "https://dc.lft.to/lastmile_qr_scan", "ios": "https://dc.lft.to/lastmile_qr_scan"}, "lat": 38.950145666666664, "lon": -77.0156115, "fusion_lat": 0.0}, {"is_reserved": 0, "bike_id": "0a4f401dfff6e9e82fdde839f879bf78", "type": "electric_scooter", "name": "0a4f401dfff6e9e82fdde839f879bf78", "is_disabled": 0, "fusion_lon": 0.0, "rental_uris": {"android": "https://dc.lft.to/lastmile_qr_scan", "ios": "https://dc.lft.to/lastmile_qr_scan"}, "lat": 38.9268305, "lon": -77.02586733333334, "fusion_lat": 0.0}, {"is_reserved": 0, "bike_id": "617981ccda7116b79c31a4e6b8d3bf33", "type": "electric_scooter", "name": "617981ccda7116b79c31a4e6b8d3bf33", "is_disabled": 0, "fusion_lon": 0.0, "rental_uris": {"android": "https://dc.lft.to/lastmile_qr_scan", "ios": "https://dc.lft.to/lastmile_qr_scan"}, "lat": 38.923251666666665, "lon": -77.01962183333333, "fusion_lat": 0.0}, {"is_reserved": 0, "bike_id": "7e74366681037f54319b061b39a27ca3", "type": "electric_scooter", "name": "7e74366681037f54319b061b39a27ca3", "is_disabled": 0, "fusion_lon": 0.0, "rental_uris": {"android": "https://dc.lft.to/lastmile_qr_scan", "ios": "https://dc.lft.to/lastmile_qr_scan"}, "lat": 38.92081, "lon": -77.02517133333333, "fusion_lat": 0.0}, {"is_reserved": 0, "bike_id": "5a4f0a0ea7040d1b833361d805572048", "type": "electric_scooter", "name": "5a4f0a0ea7040d1b833361d805572048", "is_disabled": 0, "fusion_lon": 0.0, "rental_uris": {"android": "https://dc.lft.to/lastmile_qr_scan", "ios": "https://dc.lft.to/lastmile_qr_scan"}, "lat": 38.915467, "lon": -77.02203916666667, "fusion_lat": 0.0}, {"is_reserved": 0, "bike_id": "827e1a973d4d535b98f034f5e3dfa5db", "type": "electric_scooter", "name": "827e1a973d4d535b98f034f5e3dfa5db", "is_disabled": 0, "fusion_lon": 0.0, "rental_uris": {"android": "https://dc.lft.to/lastmile_qr_scan", "ios": "https://dc.lft.to/lastmile_qr_scan"}, "lat": 38.91414133333333, "lon": -77.02231783333333, "fusion_lat": 0.0}, {"is_reserved": 0, "bike_id": "0d80c69903f95c01fd78e10aa7ac0532", "type": "electric_scooter", "name": "0d80c69903f95c01fd78e10aa7ac0532", "is_disabled": 0, "fusion_lon": 0.0, "rental_uris": {"android": "https://dc.lft.to/lastmile_qr_scan", "ios": "https://dc.lft.to/lastmile_qr_scan"}, "lat": 38.914016333333336, "lon": -77.01806183333333, "fusion_lat": 0.0}, {"is_reserved": 0, "bike_id": "ab0de30e0dade1dcdef25885dddad1a6", "type": "electric_bike", "name": "ab0de30e0dade1dcdef25885dddad1a6", "is_disabled": 0, "fusion_lon": 0.0, "rental_uris": {"android": "https://dc.lft.to/lastmile_qr_scan", "ios": "https://dc.lft.to/lastmile_qr_scan"}, "lat": 38.8358625, "lon": -76.99020883333333, "fusion_lat": 0.0}, {"is_reserved": 0, "bike_id": "5c9b32bc44bed3b52b4d348f1ade99e9", "type": "electric_scooter", "name": "5c9b32bc44bed3b52b4d348f1ade99e9", "is_disabled": 0, "fusion_lon": 0.0, "rental_uris": {"android": "https://dc.lft.to/lastmile_qr_scan", "ios": "https://dc.lft.to/lastmile_qr_scan"}, "lat": 38.88736316666667, "lon": -77.01502683333334, "fusion_lat": 0.0}, {"is_reserved": 0, "bike_id": "39855fd8666c8ad6f239fc9d5f1e8b58", "type": "electric_bike", "name": "39855fd8666c8ad6f239fc9d5f1e8b58", "is_disabled": 0, "fusion_lon": 0.0, "rental_uris": {"android": "https://dc.lft.to/lastmile_qr_scan", "ios": "https://dc.lft.to/lastmile_qr_scan"}, "lat": 38.92061833333333, "lon": -77.03068016666667, "fusion_lat": 0.0}, {"is_reserved": 0, "bike_id": "9ca90bc85df61225e00de174cab54379", "type": "electric_bike", "name": "9ca90bc85df61225e00de174cab54379", "is_disabled": 0, "fusion_lon": 0.0, "rental_uris": {"android": "https://dc.lft.to/lastmile_qr_scan", "ios": "https://dc.lft.to/lastmile_qr_scan"}, "lat": 38.90035966666667, "lon": -76.9722155, "fusion_lat": 0.0}, {"is_reserved": 0, "bike_id": "7222900bb6a3ea1571f4b05918f5b840", "type": "electric_scooter", "name": "7222900bb6a3ea1571f4b05918f5b840", "is_disabled": 0, "fusion_lon": 0.0, "rental_uris": {"android": "https://dc.lft.to/lastmile_qr_scan", "ios": "https://dc.lft.to/lastmile_qr_scan"}, "lat": 38.926739166666664, "lon": -77.07830883333334, "fusion_lat": 0.0}, {"is_reserved": 0, "bike_id": "893e7be929a7aa3a4b7623db100091b5", "type": "electric_scooter", "name": "893e7be929a7aa3a4b7623db100091b5", "is_disabled": 0, "fusion_lon": 0.0, "rental_uris": {"android": "https://dc.lft.to/lastmile_qr_scan", "ios": "https://dc.lft.to/lastmile_qr_scan"}, "lat": 38.913358833333334, "lon": -77.01214666666667, "fusion_lat": 0.0}, {"is_reserved": 0, "bike_id": "e810751d23141351841f01b899be13fe", "type": "electric_scooter", "name": "e810751d23141351841f01b899be13fe", "is_disabled": 0, "fusion_lon": 0.0, "rental_uris": {"android": "https://dc.lft.to/lastmile_qr_scan", "ios": "https://dc.lft.to/lastmile_qr_scan"}, "lat": 38.88515183333333, "lon": -76.9244275, "fusion_lat": 0.0}, {"is_reserved": 0, "bike_id": "8ebeb08f9ad8490874012c4de188d8c2", "type": "electric_bike", "name": "8ebeb08f9ad8490874012c4de188d8c2", "is_disabled": 0, "fusion_lon": 0.0, "rental_uris": {"android": "https://dc.lft.to/lastmile_qr_scan", "ios": "https://dc.lft.to/lastmile_qr_scan"}, "lat": 38.88871183333333, "lon": -76.978465, "fusion_lat": 0.0}, {"is_reserved": 0, "bike_id": "1b6aa7cbbef2da616aa56db6c637f8e8", "type": "electric_scooter", "name": "1b6aa7cbbef2da616aa56db6c637f8e8", "is_disabled": 0, "fusion_lon": 0.0, "rental_uris": {"android": "https://dc.lft.to/lastmile_qr_scan", "ios": "https://dc.lft.to/lastmile_qr_scan"}, "lat": 38.905737, "lon": -77.00598416666666, "fusion_lat": 0.0}, {"is_reserved": 0, "bike_id": "4ee57043ac6890e52090bef41116bc98", "type": "electric_bike", "name": "4ee57043ac6890e52090bef41116bc98", "is_disabled": 0, "fusion_lon": 0.0, "rental_uris": {"android": "https://dc.lft.to/lastmile_qr_scan", "ios": "https://dc.lft.to/lastmile_qr_scan"}, "lat": 38.896164, "lon": -76.90747966666666, "fusion_lat": 0.0}, {"is_reserved": 0, "bike_id": "96968ae12fa041dc6a5939831d27987d", "type": "electric_scooter", "name": "96968ae12fa041dc6a5939831d27987d", "is_disabled": 0, "fusion_lon": 0.0, "rental_uris": {"android": "https://dc.lft.to/lastmile_qr_scan", "ios": "https://dc.lft.to/lastmile_qr_scan"}, "lat": 38.93116466666667, "lon": -77.05622616666666, "fusion_lat": 0.0}, {"is_reserved": 0, "bike_id": "ce14681fbc0de3b278e6dba2ca5e3486", "type": "electric_scooter", "name": "ce14681fbc0de3b278e6dba2ca5e3486", "is_disabled": 0, "fusion_lon": 0.0, "rental_uris": {"android": "https://dc.lft.to/lastmile_qr_scan", "ios": "https://dc.lft.to/lastmile_qr_scan"}, "lat": 38.90503016666667, "lon": -77.029438, "fusion_lat": 0.0}, {"is_reserved": 0, "bike_id": "a0b39ddf74ae522e5517b506e396f01f", "type": "electric_scooter", "name": "a0b39ddf74ae522e5517b506e396f01f", "is_disabled": 0, "fusion_lon": 0.0, "rental_uris": {"android": "https://dc.lft.to/lastmile_qr_scan", "ios": "https://dc.lft.to/lastmile_qr_scan"}, "lat": 38.90267433333333, "lon": -77.018053, "fusion_lat": 0.0}, {"is_reserved": 0, "bike_id": "caa3ce0f935e7be72677000f6ceb9f54", "type": "electric_scooter", "name": "caa3ce0f935e7be72677000f6ceb9f54", "is_disabled": 0, "fusion_lon": 0.0, "rental_uris": {"android": "https://dc.lft.to/lastmile_qr_scan", "ios": "https://dc.lft.to/lastmile_qr_scan"}, "lat": 38.8871425, "lon": -77.02169233333333, "fusion_lat": 0.0}, {"is_reserved": 0, "bike_id": "a10cba425eb592a6af8706832e69e6e4", "type": "electric_scooter", "name": "a10cba425eb592a6af8706832e69e6e4", "is_disabled": 0, "fusion_lon": 0.0, "rental_uris": {"android": "https://dc.lft.to/lastmile_qr_scan", "ios": "https://dc.lft.to/lastmile_qr_scan"}, "lat": 38.915704166666664, "lon": -77.0318465, "fusion_lat": 0.0}, {"is_reserved": 0, "bike_id": "e63871fdccbba3f37a565a134c674baf", "type": "electric_scooter", "name": "e63871fdccbba3f37a565a134c674baf", "is_disabled": 0, "fusion_lon": 0.0, "rental_uris": {"android": "https://dc.lft.to/lastmile_qr_scan", "ios": "https://dc.lft.to/lastmile_qr_scan"}, "lat": 38.92230333333333, "lon": -77.023342, "fusion_lat": 0.0}, {"is_reserved": 0, "bike_id": "a041e328571a40db8952ad223def3074", "type": "electric_scooter", "name": "a041e328571a40db8952ad223def3074", "is_disabled": 0, "fusion_lon": 0.0, "rental_uris": {"android": "https://dc.lft.to/lastmile_qr_scan", "ios": "https://dc.lft.to/lastmile_qr_scan"}, "lat": 38.89832716666667, "lon": -77.031753, "fusion_lat": 0.0}, {"is_reserved": 0, "bike_id": "4d68667344e409f4fd06097029e7efc0", "type": "electric_scooter", "name": "4d68667344e409f4fd06097029e7efc0", "is_disabled": 0, "fusion_lon": 0.0, "rental_uris": {"android": "https://dc.lft.to/lastmile_qr_scan", "ios": "https://dc.lft.to/lastmile_qr_scan"}, "lat": 38.92655383333334, "lon": -77.02290466666666, "fusion_lat": 0.0}, {"is_reserved": 0, "bike_id": "6952a3ae73bdc170f4fc2496f7064070", "type": "electric_bike", "name": "6952a3ae73bdc170f4fc2496f7064070", "is_disabled": 0, "fusion_lon": 0.0, "rental_uris": {"android": "https://dc.lft.to/lastmile_qr_scan", "ios": "https://dc.lft.to/lastmile_qr_scan"}, "lat": 38.9588015, "lon": -77.01026333333333, "fusion_lat": 0.0}, {"is_reserved": 0, "bike_id": "f4e23437800bb490b54ee2a5adb0b4b7", "type": "electric_scooter", "name": "f4e23437800bb490b54ee2a5adb0b4b7", "is_disabled": 0, "fusion_lon": 0.0, "rental_uris": {"android": "https://dc.lft.to/lastmile_qr_scan", "ios": "https://dc.lft.to/lastmile_qr_scan"}, "lat": 38.9280145, "lon": -77.03151983333333, "fusion_lat": 0.0}, {"is_reserved": 0, "bike_id": "a15a834ceba8b61927f12c33a4ff17d9", "type": "electric_scooter", "name": "a15a834ceba8b61927f12c33a4ff17d9", "is_disabled": 0, "fusion_lon": 0.0, "rental_uris": {"android": "https://dc.lft.to/lastmile_qr_scan", "ios": "https://dc.lft.to/lastmile_qr_scan"}, "lat": 38.916673833333334, "lon": -77.0220365, "fusion_lat": 0.0}, {"is_reserved": 0, "bike_id": "698827efb39f33b5e066daebd2345c63", "type": "electric_scooter", "name": "698827efb39f33b5e066daebd2345c63", "is_disabled": 0, "fusion_lon": 0.0, "rental_uris": {"android": "https://dc.lft.to/lastmile_qr_scan", "ios": "https://dc.lft.to/lastmile_qr_scan"}, "lat": 38.91588866666667, "lon": -77.01459033333333, "fusion_lat": 0.0}, {"is_reserved": 0, "bike_id": "93b8563737bb49ddd754142596d08da6", "type": "electric_scooter", "name": "93b8563737bb49ddd754142596d08da6", "is_disabled": 0, "fusion_lon": 0.0, "rental_uris": {"android": "https://dc.lft.to/lastmile_qr_scan", "ios": "https://dc.lft.to/lastmile_qr_scan"}, "lat": 38.919311, "lon": -77.03421733333333, "fusion_lat": 0.0}, {"is_reserved": 0, "bike_id": "e0672a3ae8d528f1577b8b6e957c91ed", "type": "electric_scooter", "name": "e0672a3ae8d528f1577b8b6e957c91ed", "is_disabled": 0, "fusion_lon": 0.0, "rental_uris": {"android": "https://dc.lft.to/lastmile_qr_scan", "ios": "https://dc.lft.to/lastmile_qr_scan"}, "lat": 38.966491500000004, "lon": -77.0274585, "fusion_lat": 0.0}, {"is_reserved": 0, "bike_id": "c19c19c1a98eca1bc381d79e441961b5", "type": "electric_scooter", "name": "c19c19c1a98eca1bc381d79e441961b5", "is_disabled": 0, "fusion_lon": 0.0, "rental_uris": {"android": "https://dc.lft.to/lastmile_qr_scan", "ios": "https://dc.lft.to/lastmile_qr_scan"}, "lat": 38.920893166666666, "lon": -77.02531066666667, "fusion_lat": 0.0}, {"is_reserved": 0, "bike_id": "161871a1ff146bd43bffe269e07bb72f", "type": "electric_bike", "name": "161871a1ff146bd43bffe269e07bb72f", "is_disabled": 0, "fusion_lon": 0.0, "rental_uris": {"android": "https://dc.lft.to/lastmile_qr_scan", "ios": "https://dc.lft.to/lastmile_qr_scan"}, "lat": 38.99227416666667, "lon": -77.03581933333334, "fusion_lat": 0.0}, {"is_reserved": 0, "bike_id": "accc30a42d2052a841943499f76a32a3", "type": "electric_bike", "name": "accc30a42d2052a841943499f76a32a3", "is_disabled": 0, "fusion_lon": 0.0, "rental_uris": {"android": "https://dc.lft.to/lastmile_qr_scan", "ios": "https://dc.lft.to/lastmile_qr_scan"}, "lat": 38.83607133333334, "lon": -77.003732, "fusion_lat": 0.0}, {"is_reserved": 0, "bike_id": "4e33283a46f6472a0f499d62e00e42b5", "type": "electric_scooter", "name": "4e33283a46f6472a0f499d62e00e42b5", "is_disabled": 0, "fusion_lon": 0.0, "rental_uris": {"android": "https://dc.lft.to/lastmile_qr_scan", "ios": "https://dc.lft.to/lastmile_qr_scan"}, "lat": 38.947384666666665, "lon": -77.02364483333334, "fusion_lat": 0.0}, {"is_reserved": 0, "bike_id": "4776d231fad147fde181553d09ab4518", "type": "electric_scooter", "name": "4776d231fad147fde181553d09ab4518", "is_disabled": 0, "fusion_lon": 0.0, "rental_uris": {"android": "https://dc.lft.to/lastmile_qr_scan", "ios": "https://dc.lft.to/lastmile_qr_scan"}, "lat": 38.904672166666664, "lon": -77.01630966666667, "fusion_lat": 0.0}, {"is_reserved": 0, "bike_id": "e496d75498fb32fcc733103cc6d7057b", "type": "electric_scooter", "name": "e496d75498fb32fcc733103cc6d7057b", "is_disabled": 0, "fusion_lon": 0.0, "rental_uris": {"android": "https://dc.lft.to/lastmile_qr_scan", "ios": "https://dc.lft.to/lastmile_qr_scan"}, "lat": 38.89733916666667, "lon": -77.007813, "fusion_lat": 0.0}, {"is_reserved": 0, "bike_id": "f6d4c137caa4ec550f57b6f11d4a78fc", "type": "electric_scooter", "name": "f6d4c137caa4ec550f57b6f11d4a78fc", "is_disabled": 0, "fusion_lon": 0.0, "rental_uris": {"android": "https://dc.lft.to/lastmile_qr_scan", "ios": "https://dc.lft.to/lastmile_qr_scan"}, "lat": 38.899382333333335, "lon": -77.027946, "fusion_lat": 0.0}, {"is_reserved": 0, "bike_id": "1996f964efb483c3d713addbc1c00a27", "type": "electric_scooter", "name": "1996f964efb483c3d713addbc1c00a27", "is_disabled": 0, "fusion_lon": 0.0, "rental_uris": {"android": "https://dc.lft.to/lastmile_qr_scan", "ios": "https://dc.lft.to/lastmile_qr_scan"}, "lat": 38.924185333333334, "lon": -77.01944166666667, "fusion_lat": 0.0}, {"is_reserved": 0, "bike_id": "fda09b6a849fd0cd2e502f1740094f92", "type": "electric_bike", "name": "fda09b6a849fd0cd2e502f1740094f92", "is_disabled": 0, "fusion_lon": 0.0, "rental_uris": {"android": "https://dc.lft.to/lastmile_qr_scan", "ios": "https://dc.lft.to/lastmile_qr_scan"}, "lat": 38.83808483333333, "lon": -77.0028, "fusion_lat": 0.0}, {"is_reserved": 0, "bike_id": "c045a405d8edceb6cc8a40cee05dc713", "type": "electric_scooter", "name": "c045a405d8edceb6cc8a40cee05dc713", "is_disabled": 0, "fusion_lon": 0.0, "rental_uris": {"android": "https://dc.lft.to/lastmile_qr_scan", "ios": "https://dc.lft.to/lastmile_qr_scan"}, "lat": 38.931885333333334, "lon": -77.03869483333334, "fusion_lat": 0.0}, {"is_reserved": 0, "bike_id": "547ea351d5a7d01eb3fc725185134608", "type": "electric_scooter", "name": "547ea351d5a7d01eb3fc725185134608", "is_disabled": 0, "fusion_lon": 0.0, "rental_uris": {"android": "https://dc.lft.to/lastmile_qr_scan", "ios": "https://dc.lft.to/lastmile_qr_scan"}, "lat": 38.897232833333334, "lon": -77.026777, "fusion_lat": 0.0}, {"is_reserved": 0, "bike_id": "c11bee780af80a17c610c1d50e0db5b4", "type": "electric_scooter", "name": "c11bee780af80a17c610c1d50e0db5b4", "is_disabled": 0, "fusion_lon": 0.0, "rental_uris": {"android": "https://dc.lft.to/lastmile_qr_scan", "ios": "https://dc.lft.to/lastmile_qr_scan"}, "lat": 38.9650115, "lon": -77.06284133333334, "fusion_lat": 0.0}, {"is_reserved": 0, "bike_id": "663ff72f1bf3f8bca921acd5b86e9265", "type": "electric_scooter", "name": "663ff72f1bf3f8bca921acd5b86e9265", "is_disabled": 0, "fusion_lon": 0.0, "rental_uris": {"android": "https://dc.lft.to/lastmile_qr_scan", "ios": "https://dc.lft.to/lastmile_qr_scan"}, "lat": 38.90589383333333, "lon": -76.98625166666666, "fusion_lat": 0.0}, {"is_reserved": 0, "bike_id": "91765899cfd29c562ca247c36e92d253", "type": "electric_scooter", "name": "91765899cfd29c562ca247c36e92d253", "is_disabled": 0, "fusion_lon": 0.0, "rental_uris": {"android": "https://dc.lft.to/lastmile_qr_scan", "ios": "https://dc.lft.to/lastmile_qr_scan"}, "lat": 38.93221916666667, "lon": -77.04122983333333, "fusion_lat": 0.0}, {"is_reserved": 0, "bike_id": "4bc971880a8e5c4b2540a2e894f7060e", "type": "electric_scooter", "name": "4bc971880a8e5c4b2540a2e894f7060e", "is_disabled": 0, "fusion_lon": 0.0, "rental_uris": {"android": "https://dc.lft.to/lastmile_qr_scan", "ios": "https://dc.lft.to/lastmile_qr_scan"}, "lat": 38.9062295, "lon": -77.02594683333334, "fusion_lat": 0.0}, {"is_reserved": 0, "bike_id": "562046d226814081bbdb363ad3cf95ea", "type": "electric_scooter", "name": "562046d226814081bbdb363ad3cf95ea", "is_disabled": 0, "fusion_lon": 0.0, "rental_uris": {"android": "https://dc.lft.to/lastmile_qr_scan", "ios": "https://dc.lft.to/lastmile_qr_scan"}, "lat": 38.900169, "lon": -77.04392016666667, "fusion_lat": 0.0}, {"is_reserved": 0, "bike_id": "57c06e6feaa9c2171b51d4fdab5be1b7", "type": "electric_scooter", "name": "57c06e6feaa9c2171b51d4fdab5be1b7", "is_disabled": 0, "fusion_lon": 0.0, "rental_uris": {"android": "https://dc.lft.to/lastmile_qr_scan", "ios": "https://dc.lft.to/lastmile_qr_scan"}, "lat": 38.942953, "lon": -77.059294, "fusion_lat": 0.0}, {"is_reserved": 0, "bike_id": "05f6dad0155a610418dc2335ef56ec47", "type": "electric_scooter", "name": "05f6dad0155a610418dc2335ef56ec47", "is_disabled": 0, "fusion_lon": 0.0, "rental_uris": {"android": "https://dc.lft.to/lastmile_qr_scan", "ios": "https://dc.lft.to/lastmile_qr_scan"}, "lat": 38.898596833333336, "lon": -76.93186033333333, "fusion_lat": 0.0}, {"is_reserved": 0, "bike_id": "07dab1ebd09de384b93d9d72aa75b206", "type": "electric_scooter", "name": "07dab1ebd09de384b93d9d72aa75b206", "is_disabled": 0, "fusion_lon": 0.0, "rental_uris": {"android": "https://dc.lft.to/lastmile_qr_scan", "ios": "https://dc.lft.to/lastmile_qr_scan"}, "lat": 38.944467333333336, "lon": -77.06349316666666, "fusion_lat": 0.0}, {"is_reserved": 0, "bike_id": "bddff66d5d07e3972704239088db8e87", "type": "electric_scooter", "name": "bddff66d5d07e3972704239088db8e87", "is_disabled": 0, "fusion_lon": 0.0, "rental_uris": {"android": "https://dc.lft.to/lastmile_qr_scan", "ios": "https://dc.lft.to/lastmile_qr_scan"}, "lat": 38.918037, "lon": -77.068279, "fusion_lat": 0.0}, {"is_reserved": 0, "bike_id": "42224c22433751d3ad4259f81339f118", "type": "electric_scooter", "name": "42224c22433751d3ad4259f81339f118", "is_disabled": 0, "fusion_lon": 0.0, "rental_uris": {"android": "https://dc.lft.to/lastmile_qr_scan", "ios": "https://dc.lft.to/lastmile_qr_scan"}, "lat": 38.934303166666666, "lon": -77.04000833333333, "fusion_lat": 0.0}, {"is_reserved": 0, "bike_id": "cef5e33cf987c87cdda52907b4ca4653", "type": "electric_scooter", "name": "cef5e33cf987c87cdda52907b4ca4653", "is_disabled": 0, "fusion_lon": 0.0, "rental_uris": {"android": "https://dc.lft.to/lastmile_qr_scan", "ios": "https://dc.lft.to/lastmile_qr_scan"}, "lat": 38.8744155, "lon": -77.001221, "fusion_lat": 0.0}, {"is_reserved": 0, "bike_id": "7dbd539c8252464a220d0856d607bf81", "type": "electric_scooter", "name": "7dbd539c8252464a220d0856d607bf81", "is_disabled": 0, "fusion_lon": 0.0, "rental_uris": {"android": "https://dc.lft.to/lastmile_qr_scan", "ios": "https://dc.lft.to/lastmile_qr_scan"}, "lat": 38.92700683333333, "lon": -77.02085083333333, "fusion_lat": 0.0}, {"is_reserved": 0, "bike_id": "2662decab8023dacfe364cee06dfe728", "type": "electric_bike", "name": "2662decab8023dacfe364cee06dfe728", "is_disabled": 0, "fusion_lon": 0.0, "rental_uris": {"android": "https://dc.lft.to/lastmile_qr_scan", "ios": "https://dc.lft.to/lastmile_qr_scan"}, "lat": 38.99097483333333, "lon": -76.99374516666667, "fusion_lat": 0.0}, {"is_reserved": 0, "bike_id": "ddd8d316ce39150270f947a05ccdae0c", "type": "electric_scooter", "name": "ddd8d316ce39150270f947a05ccdae0c", "is_disabled": 0, "fusion_lon": 0.0, "rental_uris": {"android": "https://dc.lft.to/lastmile_qr_scan", "ios": "https://dc.lft.to/lastmile_qr_scan"}, "lat": 38.883514, "lon": -76.93630333333333, "fusion_lat": 0.0}, {"is_reserved": 0, "bike_id": "e892ebb9d30326f8c17f3511825597b6", "type": "electric_scooter", "name": "e892ebb9d30326f8c17f3511825597b6", "is_disabled": 0, "fusion_lon": 0.0, "rental_uris": {"android": "https://dc.lft.to/lastmile_qr_scan", "ios": "https://dc.lft.to/lastmile_qr_scan"}, "lat": 38.8995535, "lon": -77.01613916666666, "fusion_lat": 0.0}, {"is_reserved": 0, "bike_id": "19cf3354399fb529228cc93f5e7bfe20", "type": "electric_scooter", "name": "19cf3354399fb529228cc93f5e7bfe20", "is_disabled": 0, "fusion_lon": 0.0, "rental_uris": {"android": "https://dc.lft.to/lastmile_qr_scan", "ios": "https://dc.lft.to/lastmile_qr_scan"}, "lat": 38.898407166666665, "lon": -77.03179166666666, "fusion_lat": 0.0}, {"is_reserved": 0, "bike_id": "df73dab9e79a45e60e5c23e87312f110", "type": "electric_scooter", "name": "df73dab9e79a45e60e5c23e87312f110", "is_disabled": 0, "fusion_lon": 0.0, "rental_uris": {"android": "https://dc.lft.to/lastmile_qr_scan", "ios": "https://dc.lft.to/lastmile_qr_scan"}, "lat": 38.903472666666666, "lon": -76.98611983333333, "fusion_lat": 0.0}, {"is_reserved": 0, "bike_id": "0cd39baabd8b1d17c6edf2138b11e661", "type": "electric_scooter", "name": "0cd39baabd8b1d17c6edf2138b11e661", "is_disabled": 0, "fusion_lon": 0.0, "rental_uris": {"android": "https://dc.lft.to/lastmile_qr_scan", "ios": "https://dc.lft.to/lastmile_qr_scan"}, "lat": 38.91484366666667, "lon": -77.02167183333333, "fusion_lat": 0.0}, {"is_reserved": 0, "bike_id": "9ec204481f615906b565cfa5206287ea", "type": "electric_scooter", "name": "9ec204481f615906b565cfa5206287ea", "is_disabled": 0, "fusion_lon": 0.0, "rental_uris": {"android": "https://dc.lft.to/lastmile_qr_scan", "ios": "https://dc.lft.to/lastmile_qr_scan"}, "lat": 38.929518333333334, "lon": -77.02780783333333, "fusion_lat": 0.0}, {"is_reserved": 0, "bike_id": "58e32b8e01f1f5def7f408161d760511", "type": "electric_scooter", "name": "58e32b8e01f1f5def7f408161d760511", "is_disabled": 0, "fusion_lon": 0.0, "rental_uris": {"android": "https://dc.lft.to/lastmile_qr_scan", "ios": "https://dc.lft.to/lastmile_qr_scan"}, "lat": 38.919871, "lon": -77.03795333333333, "fusion_lat": 0.0}, {"is_reserved": 0, "bike_id": "cbed4aac08a580ff2f92b4cc786b6b2c", "type": "electric_scooter", "name": "cbed4aac08a580ff2f92b4cc786b6b2c", "is_disabled": 0, "fusion_lon": 0.0, "rental_uris": {"android": "https://dc.lft.to/lastmile_qr_scan", "ios": "https://dc.lft.to/lastmile_qr_scan"}, "lat": 38.9183725, "lon": -77.0344125, "fusion_lat": 0.0}, {"is_reserved": 0, "bike_id": "7d7ae6343fd786daa659afeb66177377", "type": "electric_scooter", "name": "7d7ae6343fd786daa659afeb66177377", "is_disabled": 0, "fusion_lon": 0.0, "rental_uris": {"android": "https://dc.lft.to/lastmile_qr_scan", "ios": "https://dc.lft.to/lastmile_qr_scan"}, "lat": 38.896344, "lon": -76.92963366666666, "fusion_lat": 0.0}, {"is_reserved": 0, "bike_id": "8083413529ac5904c131afa73c0fe128", "type": "electric_scooter", "name": "8083413529ac5904c131afa73c0fe128", "is_disabled": 0, "fusion_lon": 0.0, "rental_uris": {"android": "https://dc.lft.to/lastmile_qr_scan", "ios": "https://dc.lft.to/lastmile_qr_scan"}, "lat": 38.90580966666667, "lon": -77.006089, "fusion_lat": 0.0}, {"is_reserved": 0, "bike_id": "798aae582f2f5d64848d41b1ac0c33bf", "type": "electric_bike", "name": "798aae582f2f5d64848d41b1ac0c33bf", "is_disabled": 0, "fusion_lon": 0.0, "rental_uris": {"android": "https://dc.lft.to/lastmile_qr_scan", "ios": "https://dc.lft.to/lastmile_qr_scan"}, "lat": 38.86580083333333, "lon": -77.12940383333333, "fusion_lat": 0.0}, {"is_reserved": 0, "bike_id": "a4341c8aa4a96147d1fd1fcf38c5cc9e", "type": "electric_scooter", "name": "a4341c8aa4a96147d1fd1fcf38c5cc9e", "is_disabled": 0, "fusion_lon": 0.0, "rental_uris": {"android": "https://dc.lft.to/lastmile_qr_scan", "ios": "https://dc.lft.to/lastmile_qr_scan"}, "lat": 38.917069166666664, "lon": -77.004096, "fusion_lat": 0.0}, {"is_reserved": 0, "bike_id": "b601804b5551d26e5de5d12344a903d9", "type": "electric_scooter", "name": "b601804b5551d26e5de5d12344a903d9", "is_disabled": 0, "fusion_lon": 0.0, "rental_uris": {"android": "https://dc.lft.to/lastmile_qr_scan", "ios": "https://dc.lft.to/lastmile_qr_scan"}, "lat": 38.92494666666666, "lon": -77.03925416666667, "fusion_lat": 0.0}, {"is_reserved": 0, "bike_id": "42ad2477cf9196638b0257eb02b08147", "type": "electric_bike", "name": "42ad2477cf9196638b0257eb02b08147", "is_disabled": 0, "fusion_lon": 0.0, "rental_uris": {"android": "https://dc.lft.to/lastmile_qr_scan", "ios": "https://dc.lft.to/lastmile_qr_scan"}, "lat": 38.800552, "lon": -77.1283545, "fusion_lat": 0.0}, {"is_reserved": 0, "bike_id": "fae183838914b178c2687d2088ec9154", "type": "electric_scooter", "name": "fae183838914b178c2687d2088ec9154", "is_disabled": 0, "fusion_lon": 0.0, "rental_uris": {"android": "https://dc.lft.to/lastmile_qr_scan", "ios": "https://dc.lft.to/lastmile_qr_scan"}, "lat": 38.9036735, "lon": -77.04550416666666, "fusion_lat": 0.0}, {"is_reserved": 0, "bike_id": "709553c71ffb59a873622f525b69eb58", "type": "electric_scooter", "name": "709553c71ffb59a873622f525b69eb58", "is_disabled": 0, "fusion_lon": 0.0, "rental_uris": {"android": "https://dc.lft.to/lastmile_qr_scan", "ios": "https://dc.lft.to/lastmile_qr_scan"}, "lat": 38.9096055, "lon": -77.01180783333334, "fusion_lat": 0.0}, {"is_reserved": 0, "bike_id": "cee3fa1d30dfb58f4f8b8a4e2afbb5cb", "type": "electric_scooter", "name": "cee3fa1d30dfb58f4f8b8a4e2afbb5cb", "is_disabled": 0, "fusion_lon": 0.0, "rental_uris": {"android": "https://dc.lft.to/lastmile_qr_scan", "ios": "https://dc.lft.to/lastmile_qr_scan"}, "lat": 38.91830433333333, "lon": -77.032068, "fusion_lat": 0.0}, {"is_reserved": 0, "bike_id": "66601fd403ed82c57befca386ccf0aa9", "type": "electric_scooter", "name": "66601fd403ed82c57befca386ccf0aa9", "is_disabled": 0, "fusion_lon": 0.0, "rental_uris": {"android": "https://dc.lft.to/lastmile_qr_scan", "ios": "https://dc.lft.to/lastmile_qr_scan"}, "lat": 38.898795166666666, "lon": -77.053584, "fusion_lat": 0.0}, {"is_reserved": 0, "bike_id": "50e58c2acaf0cc45861ab152beef32d7", "type": "electric_scooter", "name": "50e58c2acaf0cc45861ab152beef32d7", "is_disabled": 0, "fusion_lon": 0.0, "rental_uris": {"android": "https://dc.lft.to/lastmile_qr_scan", "ios": "https://dc.lft.to/lastmile_qr_scan"}, "lat": 38.897289, "lon": -77.0324275, "fusion_lat": 0.0}, {"is_reserved": 0, "bike_id": "4c6e5540866f4180ef2ccdf1a63d56a9", "type": "electric_scooter", "name": "4c6e5540866f4180ef2ccdf1a63d56a9", "is_disabled": 0, "fusion_lon": 0.0, "rental_uris": {"android": "https://dc.lft.to/lastmile_qr_scan", "ios": "https://dc.lft.to/lastmile_qr_scan"}, "lat": 38.92482183333333, "lon": -77.02224283333334, "fusion_lat": 0.0}, {"is_reserved": 0, "bike_id": "edcc4f50cc841d32e7cf44c3c603de69", "type": "electric_scooter", "name": "edcc4f50cc841d32e7cf44c3c603de69", "is_disabled": 0, "fusion_lon": 0.0, "rental_uris": {"android": "https://dc.lft.to/lastmile_qr_scan", "ios": "https://dc.lft.to/lastmile_qr_scan"}, "lat": 38.8956445, "lon": -77.02952816666667, "fusion_lat": 0.0}, {"is_reserved": 0, "bike_id": "6361aa3c7a73dcc33641086d515a6af6", "type": "electric_scooter", "name": "6361aa3c7a73dcc33641086d515a6af6", "is_disabled": 0, "fusion_lon": 0.0, "rental_uris": {"android": "https://dc.lft.to/lastmile_qr_scan", "ios": "https://dc.lft.to/lastmile_qr_scan"}, "lat": 38.898767, "lon": -76.93184683333334, "fusion_lat": 0.0}, {"is_reserved": 0, "bike_id": "fea85115c4181bca436be00178ec37ea", "type": "electric_scooter", "name": "fea85115c4181bca436be00178ec37ea", "is_disabled": 0, "fusion_lon": 0.0, "rental_uris": {"android": "https://dc.lft.to/lastmile_qr_scan", "ios": "https://dc.lft.to/lastmile_qr_scan"}, "lat": 38.907092, "lon": -76.98564633333334, "fusion_lat": 0.0}, {"is_reserved": 0, "bike_id": "3f48bf18b9bafadfde61a3782106c6ae", "type": "electric_scooter", "name": "3f48bf18b9bafadfde61a3782106c6ae", "is_disabled": 0, "fusion_lon": 0.0, "rental_uris": {"android": "https://dc.lft.to/lastmile_qr_scan", "ios": "https://dc.lft.to/lastmile_qr_scan"}, "lat": 38.923413833333335, "lon": -77.0547675, "fusion_lat": 0.0}, {"is_reserved": 0, "bike_id": "292b1c3dacfc4d8e3ec652aaef68aee7", "type": "electric_scooter", "name": "292b1c3dacfc4d8e3ec652aaef68aee7", "is_disabled": 0, "fusion_lon": 0.0, "rental_uris": {"android": "https://dc.lft.to/lastmile_qr_scan", "ios": "https://dc.lft.to/lastmile_qr_scan"}, "lat": 38.921012833333336, "lon": -77.02519933333333, "fusion_lat": 0.0}, {"is_reserved": 0, "bike_id": "e4894a595fe06ac8e59a9ad2a75d8e53", "type": "electric_scooter", "name": "e4894a595fe06ac8e59a9ad2a75d8e53", "is_disabled": 0, "fusion_lon": 0.0, "rental_uris": {"android": "https://dc.lft.to/lastmile_qr_scan", "ios": "https://dc.lft.to/lastmile_qr_scan"}, "lat": 38.895688666666665, "lon": -77.0216395, "fusion_lat": 0.0}, {"is_reserved": 0, "bike_id": "603a88bcd65ee8422533d0ec0bb120f3", "type": "electric_bike", "name": "603a88bcd65ee8422533d0ec0bb120f3", "is_disabled": 0, "fusion_lon": 0.0, "rental_uris": {"android": "https://dc.lft.to/lastmile_qr_scan", "ios": "https://dc.lft.to/lastmile_qr_scan"}, "lat": 38.967767, "lon": -76.99645416666667, "fusion_lat": 0.0}, {"is_reserved": 0, "bike_id": "505b01a91e21cf113bb34154dd75f84a", "type": "electric_scooter", "name": "505b01a91e21cf113bb34154dd75f84a", "is_disabled": 0, "fusion_lon": 0.0, "rental_uris": {"android": "https://dc.lft.to/lastmile_qr_scan", "ios": "https://dc.lft.to/lastmile_qr_scan"}, "lat": 38.90182216666667, "lon": -77.02218716666667, "fusion_lat": 0.0}, {"is_reserved": 0, "bike_id": "9267ff5d45412f1ff64b5b1141509d31", "type": "electric_bike", "name": "9267ff5d45412f1ff64b5b1141509d31", "is_disabled": 0, "fusion_lon": 0.0, "rental_uris": {"android": "https://dc.lft.to/lastmile_qr_scan", "ios": "https://dc.lft.to/lastmile_qr_scan"}, "lat": 38.98555833333333, "lon": -77.00397066666666, "fusion_lat": 0.0}, {"is_reserved": 0, "bike_id": "235de71cf15a355d46a97852aaa43614", "type": "electric_scooter", "name": "235de71cf15a355d46a97852aaa43614", "is_disabled": 0, "fusion_lon": 0.0, "rental_uris": {"android": "https://dc.lft.to/lastmile_qr_scan", "ios": "https://dc.lft.to/lastmile_qr_scan"}, "lat": 38.92230766666667, "lon": -77.04440266666667, "fusion_lat": 0.0}, {"is_reserved": 0, "bike_id": "050388f35c964c9e5fd22fdb09bd7874", "type": "electric_scooter", "name": "050388f35c964c9e5fd22fdb09bd7874", "is_disabled": 0, "fusion_lon": 0.0, "rental_uris": {"android": "https://dc.lft.to/lastmile_qr_scan", "ios": "https://dc.lft.to/lastmile_qr_scan"}, "lat": 38.898689, "lon": -76.94665066666667, "fusion_lat": 0.0}, {"is_reserved": 0, "bike_id": "2029a016ab31e127439f4b54fdfbe3b7", "type": "electric_scooter", "name": "2029a016ab31e127439f4b54fdfbe3b7", "is_disabled": 0, "fusion_lon": 0.0, "rental_uris": {"android": "https://dc.lft.to/lastmile_qr_scan", "ios": "https://dc.lft.to/lastmile_qr_scan"}, "lat": 38.92022016666667, "lon": -77.07140383333333, "fusion_lat": 0.0}, {"is_reserved": 0, "bike_id": "88d769bb03382b97854a99dabf7ddb96", "type": "electric_bike", "name": "88d769bb03382b97854a99dabf7ddb96", "is_disabled": 0, "fusion_lon": 0.0, "rental_uris": {"android": "https://dc.lft.to/lastmile_qr_scan", "ios": "https://dc.lft.to/lastmile_qr_scan"}, "lat": 38.876672166666665, "lon": -77.00017916666667, "fusion_lat": 0.0}, {"is_reserved": 0, "bike_id": "ed3645445f0e27bb8ea1d32ba7b5d2a8", "type": "electric_bike", "name": "ed3645445f0e27bb8ea1d32ba7b5d2a8", "is_disabled": 0, "fusion_lon": 0.0, "rental_uris": {"android": "https://dc.lft.to/lastmile_qr_scan", "ios": "https://dc.lft.to/lastmile_qr_scan"}, "lat": 38.909058, "lon": -77.08996433333333, "fusion_lat": 0.0}, {"is_reserved": 0, "bike_id": "01724ab3fe2965c58e608f9ad48476e6", "type": "electric_scooter", "name": "01724ab3fe2965c58e608f9ad48476e6", "is_disabled": 0, "fusion_lon": 0.0, "rental_uris": {"android": "https://dc.lft.to/lastmile_qr_scan", "ios": "https://dc.lft.to/lastmile_qr_scan"}, "lat": 38.910493, "lon": -77.03261833333333, "fusion_lat": 0.0}, {"is_reserved": 0, "bike_id": "3fbb1c0422ee87b850af2918000f75ca", "type": "electric_scooter", "name": "3fbb1c0422ee87b850af2918000f75ca", "is_disabled": 0, "fusion_lon": 0.0, "rental_uris": {"android": "https://dc.lft.to/lastmile_qr_scan", "ios": "https://dc.lft.to/lastmile_qr_scan"}, "lat": 38.91965883333334, "lon": -77.03854216666667, "fusion_lat": 0.0}, {"is_reserved": 0, "bike_id": "0233ba2c3a7c7293ac4f0a30eaa5b4b9", "type": "electric_scooter", "name": "0233ba2c3a7c7293ac4f0a30eaa5b4b9", "is_disabled": 0, "fusion_lon": 0.0, "rental_uris": {"android": "https://dc.lft.to/lastmile_qr_scan", "ios": "https://dc.lft.to/lastmile_qr_scan"}, "lat": 38.910137666666664, "lon": -76.99390433333333, "fusion_lat": 0.0}, {"is_reserved": 0, "bike_id": "880455dfd669bbb41443eb62d2001f48", "type": "electric_bike", "name": "880455dfd669bbb41443eb62d2001f48", "is_disabled": 0, "fusion_lon": 0.0, "rental_uris": {"android": "https://dc.lft.to/lastmile_qr_scan", "ios": "https://dc.lft.to/lastmile_qr_scan"}, "lat": 38.8995895, "lon": -77.04971666666667, "fusion_lat": 0.0}, {"is_reserved": 0, "bike_id": "8140e243107e11cfb9e45719e49c9d5a", "type": "electric_scooter", "name": "8140e243107e11cfb9e45719e49c9d5a", "is_disabled": 0, "fusion_lon": 0.0, "rental_uris": {"android": "https://dc.lft.to/lastmile_qr_scan", "ios": "https://dc.lft.to/lastmile_qr_scan"}, "lat": 38.96217566666667, "lon": -77.027752, "fusion_lat": 0.0}, {"is_reserved": 0, "bike_id": "7f2efe673127a946950461000808e20a", "type": "electric_scooter", "name": "7f2efe673127a946950461000808e20a", "is_disabled": 0, "fusion_lon": 0.0, "rental_uris": {"android": "https://dc.lft.to/lastmile_qr_scan", "ios": "https://dc.lft.to/lastmile_qr_scan"}, "lat": 38.90308433333333, "lon": -77.0364365, "fusion_lat": 0.0}, {"is_reserved": 0, "bike_id": "b3195ef3d40cfcf5adbfce16368b1d4a", "type": "electric_scooter", "name": "b3195ef3d40cfcf5adbfce16368b1d4a", "is_disabled": 0, "fusion_lon": 0.0, "rental_uris": {"android": "https://dc.lft.to/lastmile_qr_scan", "ios": "https://dc.lft.to/lastmile_qr_scan"}, "lat": 38.909721166666664, "lon": -77.04624466666667, "fusion_lat": 0.0}, {"is_reserved": 0, "bike_id": "c409f6cd3a692d2df184d1bf9995ec76", "type": "electric_scooter", "name": "c409f6cd3a692d2df184d1bf9995ec76", "is_disabled": 0, "fusion_lon": 0.0, "rental_uris": {"android": "https://dc.lft.to/lastmile_qr_scan", "ios": "https://dc.lft.to/lastmile_qr_scan"}, "lat": 38.953017833333334, "lon": -77.02766583333333, "fusion_lat": 0.0}, {"is_reserved": 0, "bike_id": "4b1098dd8cd8c38e119477b4ef3fb1cb", "type": "electric_scooter", "name": "4b1098dd8cd8c38e119477b4ef3fb1cb", "is_disabled": 0, "fusion_lon": 0.0, "rental_uris": {"android": "https://dc.lft.to/lastmile_qr_scan", "ios": "https://dc.lft.to/lastmile_qr_scan"}, "lat": 38.922111, "lon": -77.02033983333334, "fusion_lat": 0.0}, {"is_reserved": 0, "bike_id": "2e6917646270a6904e8d709b505a2978", "type": "electric_scooter", "name": "2e6917646270a6904e8d709b505a2978", "is_disabled": 0, "fusion_lon": 0.0, "rental_uris": {"android": "https://dc.lft.to/lastmile_qr_scan", "ios": "https://dc.lft.to/lastmile_qr_scan"}, "lat": 38.912118666666665, "lon": -77.038399, "fusion_lat": 0.0}, {"is_reserved": 0, "bike_id": "9dae8725ae80d8ccc4d2cd59702b3c48", "type": "electric_scooter", "name": "9dae8725ae80d8ccc4d2cd59702b3c48", "is_disabled": 0, "fusion_lon": 0.0, "rental_uris": {"android": "https://dc.lft.to/lastmile_qr_scan", "ios": "https://dc.lft.to/lastmile_qr_scan"}, "lat": 38.91833616666667, "lon": -77.0321515, "fusion_lat": 0.0}, {"is_reserved": 0, "bike_id": "ca3a27c023f9cbb9bf026a337f8cfd45", "type": "electric_scooter", "name": "ca3a27c023f9cbb9bf026a337f8cfd45", "is_disabled": 0, "fusion_lon": 0.0, "rental_uris": {"android": "https://dc.lft.to/lastmile_qr_scan", "ios": "https://dc.lft.to/lastmile_qr_scan"}, "lat": 38.924115666666665, "lon": -77.02135383333334, "fusion_lat": 0.0}, {"is_reserved": 0, "bike_id": "dc0e3ef77d1487e56e75bfba4066de7c", "type": "electric_scooter", "name": "dc0e3ef77d1487e56e75bfba4066de7c", "is_disabled": 0, "fusion_lon": 0.0, "rental_uris": {"android": "https://dc.lft.to/lastmile_qr_scan", "ios": "https://dc.lft.to/lastmile_qr_scan"}, "lat": 38.897303666666666, "lon": -77.02457033333333, "fusion_lat": 0.0}, {"is_reserved": 0, "bike_id": "1f1142f3e76e4c53531aa3d0809ddb01", "type": "electric_scooter", "name": "1f1142f3e76e4c53531aa3d0809ddb01", "is_disabled": 0, "fusion_lon": 0.0, "rental_uris": {"android": "https://dc.lft.to/lastmile_qr_scan", "ios": "https://dc.lft.to/lastmile_qr_scan"}, "lat": 38.924698166666666, "lon": -77.03057316666667, "fusion_lat": 0.0}, {"is_reserved": 0, "bike_id": "1402b53ace969ef748967b3a745ceb7a", "type": "electric_scooter", "name": "1402b53ace969ef748967b3a745ceb7a", "is_disabled": 0, "fusion_lon": 0.0, "rental_uris": {"android": "https://dc.lft.to/lastmile_qr_scan", "ios": "https://dc.lft.to/lastmile_qr_scan"}, "lat": 38.8843555, "lon": -76.99681566666666, "fusion_lat": 0.0}, {"is_reserved": 0, "bike_id": "0b91da5a2a40bab9f4187df4b40d5d0a", "type": "electric_scooter", "name": "0b91da5a2a40bab9f4187df4b40d5d0a", "is_disabled": 0, "fusion_lon": 0.0, "rental_uris": {"android": "https://dc.lft.to/lastmile_qr_scan", "ios": "https://dc.lft.to/lastmile_qr_scan"}, "lat": 38.9038235, "lon": -77.04214783333333, "fusion_lat": 0.0}, {"is_reserved": 0, "bike_id": "e6f3833027c9c508598ba2f51b3eeb79", "type": "electric_scooter", "name": "e6f3833027c9c508598ba2f51b3eeb79", "is_disabled": 0, "fusion_lon": 0.0, "rental_uris": {"android": "https://dc.lft.to/lastmile_qr_scan", "ios": "https://dc.lft.to/lastmile_qr_scan"}, "lat": 38.92594483333333, "lon": -77.02497916666667, "fusion_lat": 0.0}, {"is_reserved": 0, "bike_id": "4b486ebd108e443713c14ec786d69869", "type": "electric_bike", "name": "4b486ebd108e443713c14ec786d69869", "is_disabled": 0, "fusion_lon": 0.0, "rental_uris": {"android": "https://dc.lft.to/lastmile_qr_scan", "ios": "https://dc.lft.to/lastmile_qr_scan"}, "lat": 38.982214, "lon": -77.0965275, "fusion_lat": 0.0}, {"is_reserved": 0, "bike_id": "a01e60291f81b42cb4e1085f0581326b", "type": "electric_scooter", "name": "a01e60291f81b42cb4e1085f0581326b", "is_disabled": 0, "fusion_lon": 0.0, "rental_uris": {"android": "https://dc.lft.to/lastmile_qr_scan", "ios": "https://dc.lft.to/lastmile_qr_scan"}, "lat": 38.906408, "lon": -76.98569833333333, "fusion_lat": 0.0}, {"is_reserved": 0, "bike_id": "af99847def09227ee8c92551ca82c9a2", "type": "electric_bike", "name": "af99847def09227ee8c92551ca82c9a2", "is_disabled": 0, "fusion_lon": 0.0, "rental_uris": {"android": "https://dc.lft.to/lastmile_qr_scan", "ios": "https://dc.lft.to/lastmile_qr_scan"}, "lat": 38.86358583333333, "lon": -77.08277216666667, "fusion_lat": 0.0}, {"is_reserved": 0, "bike_id": "6d2ab2d3a78849798e8682d66364527a", "type": "electric_scooter", "name": "6d2ab2d3a78849798e8682d66364527a", "is_disabled": 0, "fusion_lon": 0.0, "rental_uris": {"android": "https://dc.lft.to/lastmile_qr_scan", "ios": "https://dc.lft.to/lastmile_qr_scan"}, "lat": 38.87949533333333, "lon": -77.00782, "fusion_lat": 0.0}, {"is_reserved": 0, "bike_id": "a4afc094ed37973f8184a4fb0443cc7b", "type": "electric_bike", "name": "a4afc094ed37973f8184a4fb0443cc7b", "is_disabled": 0, "fusion_lon": 0.0, "rental_uris": {"android": "https://dc.lft.to/lastmile_qr_scan", "ios": "https://dc.lft.to/lastmile_qr_scan"}, "lat": 38.992290833333335, "lon": -77.0653155, "fusion_lat": 0.0}, {"is_reserved": 0, "bike_id": "df73d88c6acc255246a2594a4a002cb5", "type": "electric_scooter", "name": "df73d88c6acc255246a2594a4a002cb5", "is_disabled": 0, "fusion_lon": 0.0, "rental_uris": {"android": "https://dc.lft.to/lastmile_qr_scan", "ios": "https://dc.lft.to/lastmile_qr_scan"}, "lat": 38.922877666666665, "lon": -77.03659283333333, "fusion_lat": 0.0}, {"is_reserved": 0, "bike_id": "f4ba91dce12ad74ebb6026e4c35eb38c", "type": "electric_scooter", "name": "f4ba91dce12ad74ebb6026e4c35eb38c", "is_disabled": 0, "fusion_lon": 0.0, "rental_uris": {"android": "https://dc.lft.to/lastmile_qr_scan", "ios": "https://dc.lft.to/lastmile_qr_scan"}, "lat": 38.948864666666665, "lon": -77.01850183333333, "fusion_lat": 0.0}, {"is_reserved": 0, "bike_id": "148a3d110faeb8e2bfa938bad83d8132", "type": "electric_bike", "name": "148a3d110faeb8e2bfa938bad83d8132", "is_disabled": 0, "fusion_lon": 0.0, "rental_uris": {"android": "https://dc.lft.to/lastmile_qr_scan", "ios": "https://dc.lft.to/lastmile_qr_scan"}, "lat": 38.94473983333334, "lon": -76.986899, "fusion_lat": 0.0}, {"is_reserved": 0, "bike_id": "ab60edf312a17891e544f409890674fb", "type": "electric_bike", "name": "ab60edf312a17891e544f409890674fb", "is_disabled": 0, "fusion_lon": 0.0, "rental_uris": {"android": "https://dc.lft.to/lastmile_qr_scan", "ios": "https://dc.lft.to/lastmile_qr_scan"}, "lat": 38.95775183333333, "lon": -77.08025216666667, "fusion_lat": 0.0}, {"is_reserved": 0, "bike_id": "5c3fe03e9394c7bb8656c5db45f7c8be", "type": "electric_scooter", "name": "5c3fe03e9394c7bb8656c5db45f7c8be", "is_disabled": 0, "fusion_lon": 0.0, "rental_uris": {"android": "https://dc.lft.to/lastmile_qr_scan", "ios": "https://dc.lft.to/lastmile_qr_scan"}, "lat": 38.91808433333333, "lon": -77.02720266666667, "fusion_lat": 0.0}, {"is_reserved": 0, "bike_id": "5fd98321f090dbff44007dec6fbdf009", "type": "electric_scooter", "name": "5fd98321f090dbff44007dec6fbdf009", "is_disabled": 0, "fusion_lon": 0.0, "rental_uris": {"android": "https://dc.lft.to/lastmile_qr_scan", "ios": "https://dc.lft.to/lastmile_qr_scan"}, "lat": 38.92283333333334, "lon": -77.03658783333333, "fusion_lat": 0.0}, {"is_reserved": 0, "bike_id": "d17ee669d0eef53ae5df052f06b89d4b", "type": "electric_scooter", "name": "d17ee669d0eef53ae5df052f06b89d4b", "is_disabled": 0, "fusion_lon": 0.0, "rental_uris": {"android": "https://dc.lft.to/lastmile_qr_scan", "ios": "https://dc.lft.to/lastmile_qr_scan"}, "lat": 38.896596333333335, "lon": -76.93205433333333, "fusion_lat": 0.0}, {"is_reserved": 0, "bike_id": "a8762c5876d4d4be032772a91d2a60a5", "type": "electric_scooter", "name": "a8762c5876d4d4be032772a91d2a60a5", "is_disabled": 0, "fusion_lon": 0.0, "rental_uris": {"android": "https://dc.lft.to/lastmile_qr_scan", "ios": "https://dc.lft.to/lastmile_qr_scan"}, "lat": 38.9256905, "lon": -77.02893316666666, "fusion_lat": 0.0}, {"is_reserved": 0, "bike_id": "f13cbf82569dced4cd0848e04229ffdf", "type": "electric_scooter", "name": "f13cbf82569dced4cd0848e04229ffdf", "is_disabled": 0, "fusion_lon": 0.0, "rental_uris": {"android": "https://dc.lft.to/lastmile_qr_scan", "ios": "https://dc.lft.to/lastmile_qr_scan"}, "lat": 38.8962, "lon": -77.022649, "fusion_lat": 0.0}, {"is_reserved": 0, "bike_id": "4811ffb1c6786943b18095dab2903a63", "type": "electric_scooter", "name": "4811ffb1c6786943b18095dab2903a63", "is_disabled": 0, "fusion_lon": 0.0, "rental_uris": {"android": "https://dc.lft.to/lastmile_qr_scan", "ios": "https://dc.lft.to/lastmile_qr_scan"}, "lat": 38.924548, "lon": -77.039638, "fusion_lat": 0.0}, {"is_reserved": 0, "bike_id": "c2de78ff1ae261a2502d5a5cefa06ac2", "type": "electric_bike", "name": "c2de78ff1ae261a2502d5a5cefa06ac2", "is_disabled": 0, "fusion_lon": 0.0, "rental_uris": {"android": "https://dc.lft.to/lastmile_qr_scan", "ios": "https://dc.lft.to/lastmile_qr_scan"}, "lat": 38.804813, "lon": -76.99095766666667, "fusion_lat": 0.0}, {"is_reserved": 0, "bike_id": "be8add975e43bf839e5f268395e36b07", "type": "electric_scooter", "name": "be8add975e43bf839e5f268395e36b07", "is_disabled": 0, "fusion_lon": 0.0, "rental_uris": {"android": "https://dc.lft.to/lastmile_qr_scan", "ios": "https://dc.lft.to/lastmile_qr_scan"}, "lat": 38.887412166666664, "lon": -77.021267, "fusion_lat": 0.0}, {"is_reserved": 0, "bike_id": "18bb898e05248fd4eef45812bc785bb8", "type": "electric_scooter", "name": "18bb898e05248fd4eef45812bc785bb8", "is_disabled": 0, "fusion_lon": 0.0, "rental_uris": {"android": "https://dc.lft.to/lastmile_qr_scan", "ios": "https://dc.lft.to/lastmile_qr_scan"}, "lat": 38.90026483333333, "lon": -77.01132883333334, "fusion_lat": 0.0}, {"is_reserved": 0, "bike_id": "c8f9c9a0e68e4c57297c28dfac8a13b5", "type": "electric_scooter", "name": "c8f9c9a0e68e4c57297c28dfac8a13b5", "is_disabled": 0, "fusion_lon": 0.0, "rental_uris": {"android": "https://dc.lft.to/lastmile_qr_scan", "ios": "https://dc.lft.to/lastmile_qr_scan"}, "lat": 38.87236516666667, "lon": -76.96812333333334, "fusion_lat": 0.0}, {"is_reserved": 0, "bike_id": "bc5998e0b46b34ff446f111b1b973502", "type": "electric_scooter", "name": "bc5998e0b46b34ff446f111b1b973502", "is_disabled": 0, "fusion_lon": 0.0, "rental_uris": {"android": "https://dc.lft.to/lastmile_qr_scan", "ios": "https://dc.lft.to/lastmile_qr_scan"}, "lat": 38.91442283333333, "lon": -77.02294966666666, "fusion_lat": 0.0}, {"is_reserved": 0, "bike_id": "471fba126bcee60e6729f289541ff14f", "type": "electric_scooter", "name": "471fba126bcee60e6729f289541ff14f", "is_disabled": 0, "fusion_lon": 0.0, "rental_uris": {"android": "https://dc.lft.to/lastmile_qr_scan", "ios": "https://dc.lft.to/lastmile_qr_scan"}, "lat": 38.9026955, "lon": -77.0177075, "fusion_lat": 0.0}, {"is_reserved": 0, "bike_id": "476310634a57dd3141bb35662c4e7648", "type": "electric_scooter", "name": "476310634a57dd3141bb35662c4e7648", "is_disabled": 0, "fusion_lon": 0.0, "rental_uris": {"android": "https://dc.lft.to/lastmile_qr_scan", "ios": "https://dc.lft.to/lastmile_qr_scan"}, "lat": 38.910635666666664, "lon": -77.05386083333333, "fusion_lat": 0.0}, {"is_reserved": 0, "bike_id": "c4cbd10f5ea43e44be376546732852e2", "type": "electric_scooter", "name": "c4cbd10f5ea43e44be376546732852e2", "is_disabled": 0, "fusion_lon": 0.0, "rental_uris": {"android": "https://dc.lft.to/lastmile_qr_scan", "ios": "https://dc.lft.to/lastmile_qr_scan"}, "lat": 38.899092333333336, "lon": -77.03913716666666, "fusion_lat": 0.0}, {"is_reserved": 0, "bike_id": "193acc2865cb46b5697510aad48c23e6", "type": "electric_scooter", "name": "193acc2865cb46b5697510aad48c23e6", "is_disabled": 0, "fusion_lon": 0.0, "rental_uris": {"android": "https://dc.lft.to/lastmile_qr_scan", "ios": "https://dc.lft.to/lastmile_qr_scan"}, "lat": 38.90597866666667, "lon": -77.0210835, "fusion_lat": 0.0}, {"is_reserved": 0, "bike_id": "1de3deac621343d11a56dd054ad8c39e", "type": "electric_scooter", "name": "1de3deac621343d11a56dd054ad8c39e", "is_disabled": 0, "fusion_lon": 0.0, "rental_uris": {"android": "https://dc.lft.to/lastmile_qr_scan", "ios": "https://dc.lft.to/lastmile_qr_scan"}, "lat": 38.917056333333335, "lon": -77.03876833333334, "fusion_lat": 0.0}, {"is_reserved": 0, "bike_id": "cd663d74cb06872860356b70a0fa76b2", "type": "electric_scooter", "name": "cd663d74cb06872860356b70a0fa76b2", "is_disabled": 0, "fusion_lon": 0.0, "rental_uris": {"android": "https://dc.lft.to/lastmile_qr_scan", "ios": "https://dc.lft.to/lastmile_qr_scan"}, "lat": 38.932611666666666, "lon": -77.03263, "fusion_lat": 0.0}, {"is_reserved": 0, "bike_id": "9449f61cea58df13dea2c4177e201bb4", "type": "electric_scooter", "name": "9449f61cea58df13dea2c4177e201bb4", "is_disabled": 0, "fusion_lon": 0.0, "rental_uris": {"android": "https://dc.lft.to/lastmile_qr_scan", "ios": "https://dc.lft.to/lastmile_qr_scan"}, "lat": 38.88477266666666, "lon": -77.03356033333333, "fusion_lat": 0.0}, {"is_reserved": 0, "bike_id": "702bc10a46390c5c9421c662dd1920cf", "type": "electric_scooter", "name": "702bc10a46390c5c9421c662dd1920cf", "is_disabled": 0, "fusion_lon": 0.0, "rental_uris": {"android": "https://dc.lft.to/lastmile_qr_scan", "ios": "https://dc.lft.to/lastmile_qr_scan"}, "lat": 38.9362335, "lon": -77.032838, "fusion_lat": 0.0}, {"is_reserved": 0, "bike_id": "b49b5f8958b4231fb667ba69c4146870", "type": "electric_scooter", "name": "b49b5f8958b4231fb667ba69c4146870", "is_disabled": 0, "fusion_lon": 0.0, "rental_uris": {"android": "https://dc.lft.to/lastmile_qr_scan", "ios": "https://dc.lft.to/lastmile_qr_scan"}, "lat": 38.901302666666666, "lon": -77.04396566666667, "fusion_lat": 0.0}, {"is_reserved": 0, "bike_id": "cada81cd8e498a86b8cdc37de16f7681", "type": "electric_scooter", "name": "cada81cd8e498a86b8cdc37de16f7681", "is_disabled": 0, "fusion_lon": 0.0, "rental_uris": {"android": "https://dc.lft.to/lastmile_qr_scan", "ios": "https://dc.lft.to/lastmile_qr_scan"}, "lat": 38.9363055, "lon": -77.0366095, "fusion_lat": 0.0}, {"is_reserved": 0, "bike_id": "e3a3fd7ecd99278668d0931238a77b05", "type": "electric_scooter", "name": "e3a3fd7ecd99278668d0931238a77b05", "is_disabled": 0, "fusion_lon": 0.0, "rental_uris": {"android": "https://dc.lft.to/lastmile_qr_scan", "ios": "https://dc.lft.to/lastmile_qr_scan"}, "lat": 38.90262766666667, "lon": -77.01746466666667, "fusion_lat": 0.0}, {"is_reserved": 0, "bike_id": "2898e6853eef0f8514a237621f5f2f35", "type": "electric_scooter", "name": "2898e6853eef0f8514a237621f5f2f35", "is_disabled": 0, "fusion_lon": 0.0, "rental_uris": {"android": "https://dc.lft.to/lastmile_qr_scan", "ios": "https://dc.lft.to/lastmile_qr_scan"}, "lat": 38.927521, "lon": -77.02964966666667, "fusion_lat": 0.0}, {"is_reserved": 0, "bike_id": "aab01437ddab2fbcb1e7f7477379ee3b", "type": "electric_scooter", "name": "aab01437ddab2fbcb1e7f7477379ee3b", "is_disabled": 0, "fusion_lon": 0.0, "rental_uris": {"android": "https://dc.lft.to/lastmile_qr_scan", "ios": "https://dc.lft.to/lastmile_qr_scan"}, "lat": 38.876962, "lon": -77.00306633333334, "fusion_lat": 0.0}, {"is_reserved": 0, "bike_id": "b2a1a2a85fd1e569de4dcd49b9b48066", "type": "electric_scooter", "name": "b2a1a2a85fd1e569de4dcd49b9b48066", "is_disabled": 0, "fusion_lon": 0.0, "rental_uris": {"android": "https://dc.lft.to/lastmile_qr_scan", "ios": "https://dc.lft.to/lastmile_qr_scan"}, "lat": 38.860318, "lon": -76.98372966666666, "fusion_lat": 0.0}, {"is_reserved": 0, "bike_id": "801fa7d5ebe5227273f64621e2140dbe", "type": "electric_scooter", "name": "801fa7d5ebe5227273f64621e2140dbe", "is_disabled": 0, "fusion_lon": 0.0, "rental_uris": {"android": "https://dc.lft.to/lastmile_qr_scan", "ios": "https://dc.lft.to/lastmile_qr_scan"}, "lat": 38.896147166666665, "lon": -76.9972815, "fusion_lat": 0.0}, {"is_reserved": 0, "bike_id": "827715f3017d563545189cae991c6e42", "type": "electric_scooter", "name": "827715f3017d563545189cae991c6e42", "is_disabled": 0, "fusion_lon": 0.0, "rental_uris": {"android": "https://dc.lft.to/lastmile_qr_scan", "ios": "https://dc.lft.to/lastmile_qr_scan"}, "lat": 38.93856066666667, "lon": -77.02455883333333, "fusion_lat": 0.0}, {"is_reserved": 0, "bike_id": "83e19d84a8efb04261bcc78249f95430", "type": "electric_scooter", "name": "83e19d84a8efb04261bcc78249f95430", "is_disabled": 0, "fusion_lon": 0.0, "rental_uris": {"android": "https://dc.lft.to/lastmile_qr_scan", "ios": "https://dc.lft.to/lastmile_qr_scan"}, "lat": 38.93474066666667, "lon": -77.0727915, "fusion_lat": 0.0}, {"is_reserved": 0, "bike_id": "c0fec2575f8cb66c9b729ceb3dfb02a8", "type": "electric_scooter", "name": "c0fec2575f8cb66c9b729ceb3dfb02a8", "is_disabled": 0, "fusion_lon": 0.0, "rental_uris": {"android": "https://dc.lft.to/lastmile_qr_scan", "ios": "https://dc.lft.to/lastmile_qr_scan"}, "lat": 38.91555866666667, "lon": -77.04455433333334, "fusion_lat": 0.0}, {"is_reserved": 0, "bike_id": "3c36a7d348a75dbab22fac5a9f9d9e11", "type": "electric_scooter", "name": "3c36a7d348a75dbab22fac5a9f9d9e11", "is_disabled": 0, "fusion_lon": 0.0, "rental_uris": {"android": "https://dc.lft.to/lastmile_qr_scan", "ios": "https://dc.lft.to/lastmile_qr_scan"}, "lat": 38.917264333333335, "lon": -77.02294783333333, "fusion_lat": 0.0}, {"is_reserved": 0, "bike_id": "afa594a3c211cdc6c0fbf53e9c172f34", "type": "electric_bike", "name": "afa594a3c211cdc6c0fbf53e9c172f34", "is_disabled": 0, "fusion_lon": 0.0, "rental_uris": {"android": "https://dc.lft.to/lastmile_qr_scan", "ios": "https://dc.lft.to/lastmile_qr_scan"}, "lat": 38.94508733333333, "lon": -77.00670133333334, "fusion_lat": 0.0}, {"is_reserved": 0, "bike_id": "6e6df719047e5bbdfde163bac34cf6ea", "type": "electric_scooter", "name": "6e6df719047e5bbdfde163bac34cf6ea", "is_disabled": 0, "fusion_lon": 0.0, "rental_uris": {"android": "https://dc.lft.to/lastmile_qr_scan", "ios": "https://dc.lft.to/lastmile_qr_scan"}, "lat": 38.9143355, "lon": -77.0169965, "fusion_lat": 0.0}, {"is_reserved": 0, "bike_id": "0b6b2b0a311070ab204021f5ace9c811", "type": "electric_scooter", "name": "0b6b2b0a311070ab204021f5ace9c811", "is_disabled": 0, "fusion_lon": 0.0, "rental_uris": {"android": "https://dc.lft.to/lastmile_qr_scan", "ios": "https://dc.lft.to/lastmile_qr_scan"}, "lat": 38.915376, "lon": -77.0442325, "fusion_lat": 0.0}, {"is_reserved": 0, "bike_id": "65b35cbf7a5806a6b00262007bf0a227", "type": "electric_scooter", "name": "65b35cbf7a5806a6b00262007bf0a227", "is_disabled": 0, "fusion_lon": 0.0, "rental_uris": {"android": "https://dc.lft.to/lastmile_qr_scan", "ios": "https://dc.lft.to/lastmile_qr_scan"}, "lat": 38.907947666666665, "lon": -77.01084766666666, "fusion_lat": 0.0}, {"is_reserved": 0, "bike_id": "061ccd06c19d0fb093d869bbb66a4657", "type": "electric_scooter", "name": "061ccd06c19d0fb093d869bbb66a4657", "is_disabled": 0, "fusion_lon": 0.0, "rental_uris": {"android": "https://dc.lft.to/lastmile_qr_scan", "ios": "https://dc.lft.to/lastmile_qr_scan"}, "lat": 38.9015775, "lon": -77.0089705, "fusion_lat": 0.0}, {"is_reserved": 0, "bike_id": "172f3cedd058fe7d8336e19f9fbe508c", "type": "electric_scooter", "name": "172f3cedd058fe7d8336e19f9fbe508c", "is_disabled": 0, "fusion_lon": 0.0, "rental_uris": {"android": "https://dc.lft.to/lastmile_qr_scan", "ios": "https://dc.lft.to/lastmile_qr_scan"}, "lat": 38.905851, "lon": -77.0060865, "fusion_lat": 0.0}, {"is_reserved": 0, "bike_id": "7f6e4b1c87dd590e8feaaa0ec89556f9", "type": "electric_scooter", "name": "7f6e4b1c87dd590e8feaaa0ec89556f9", "is_disabled": 0, "fusion_lon": 0.0, "rental_uris": {"android": "https://dc.lft.to/lastmile_qr_scan", "ios": "https://dc.lft.to/lastmile_qr_scan"}, "lat": 38.892358333333334, "lon": -77.04361933333334, "fusion_lat": 0.0}, {"is_reserved": 0, "bike_id": "2939dcebdedb72c315f3dcdd5671b2cc", "type": "electric_scooter", "name": "2939dcebdedb72c315f3dcdd5671b2cc", "is_disabled": 0, "fusion_lon": 0.0, "rental_uris": {"android": "https://dc.lft.to/lastmile_qr_scan", "ios": "https://dc.lft.to/lastmile_qr_scan"}, "lat": 38.922119, "lon": -77.020302, "fusion_lat": 0.0}, {"is_reserved": 0, "bike_id": "c5a9381388637f529658f3d88c9fdaa7", "type": "electric_bike", "name": "c5a9381388637f529658f3d88c9fdaa7", "is_disabled": 0, "fusion_lon": 0.0, "rental_uris": {"android": "https://dc.lft.to/lastmile_qr_scan", "ios": "https://dc.lft.to/lastmile_qr_scan"}, "lat": 38.90357933333333, "lon": -76.98102583333333, "fusion_lat": 0.0}, {"is_reserved": 0, "bike_id": "cb8cfa5963aaf907b034a15834ff1c35", "type": "electric_scooter", "name": "cb8cfa5963aaf907b034a15834ff1c35", "is_disabled": 0, "fusion_lon": 0.0, "rental_uris": {"android": "https://dc.lft.to/lastmile_qr_scan", "ios": "https://dc.lft.to/lastmile_qr_scan"}, "lat": 38.935965, "lon": -77.03520783333333, "fusion_lat": 0.0}, {"is_reserved": 0, "bike_id": "f5699907df66212617683d0e65013f88", "type": "electric_scooter", "name": "f5699907df66212617683d0e65013f88", "is_disabled": 0, "fusion_lon": 0.0, "rental_uris": {"android": "https://dc.lft.to/lastmile_qr_scan", "ios": "https://dc.lft.to/lastmile_qr_scan"}, "lat": 38.918501, "lon": -77.032073, "fusion_lat": 0.0}, {"is_reserved": 0, "bike_id": "037854271c2a14fcc105d12dde3e0ce7", "type": "electric_scooter", "name": "037854271c2a14fcc105d12dde3e0ce7", "is_disabled": 0, "fusion_lon": 0.0, "rental_uris": {"android": "https://dc.lft.to/lastmile_qr_scan", "ios": "https://dc.lft.to/lastmile_qr_scan"}, "lat": 38.94420866666667, "lon": -77.017819, "fusion_lat": 0.0}, {"is_reserved": 0, "bike_id": "2d0df885c47574c32e17d56360f4d74c", "type": "electric_scooter", "name": "2d0df885c47574c32e17d56360f4d74c", "is_disabled": 0, "fusion_lon": 0.0, "rental_uris": {"android": "https://dc.lft.to/lastmile_qr_scan", "ios": "https://dc.lft.to/lastmile_qr_scan"}, "lat": 38.88642133333333, "lon": -77.00092266666667, "fusion_lat": 0.0}, {"is_reserved": 0, "bike_id": "9fa0552257603e31be8bbe27d0b8c7c1", "type": "electric_bike", "name": "9fa0552257603e31be8bbe27d0b8c7c1", "is_disabled": 0, "fusion_lon": 0.0, "rental_uris": {"android": "https://dc.lft.to/lastmile_qr_scan", "ios": "https://dc.lft.to/lastmile_qr_scan"}, "lat": 38.831399833333336, "lon": -77.11313233333334, "fusion_lat": 0.0}, {"is_reserved": 0, "bike_id": "5c1f4f9334aac6d6043ce4a9e69f5640", "type": "electric_scooter", "name": "5c1f4f9334aac6d6043ce4a9e69f5640", "is_disabled": 0, "fusion_lon": 0.0, "rental_uris": {"android": "https://dc.lft.to/lastmile_qr_scan", "ios": "https://dc.lft.to/lastmile_qr_scan"}, "lat": 38.921951666666665, "lon": -77.03514516666667, "fusion_lat": 0.0}, {"is_reserved": 0, "bike_id": "4329182e05e5656e8aa04256cd17a9d1", "type": "electric_scooter", "name": "4329182e05e5656e8aa04256cd17a9d1", "is_disabled": 0, "fusion_lon": 0.0, "rental_uris": {"android": "https://dc.lft.to/lastmile_qr_scan", "ios": "https://dc.lft.to/lastmile_qr_scan"}, "lat": 38.921034166666665, "lon": -77.0223905, "fusion_lat": 0.0}, {"is_reserved": 0, "bike_id": "02fe5d256c05ed64fa64d79183442211", "type": "electric_scooter", "name": "02fe5d256c05ed64fa64d79183442211", "is_disabled": 0, "fusion_lon": 0.0, "rental_uris": {"android": "https://dc.lft.to/lastmile_qr_scan", "ios": "https://dc.lft.to/lastmile_qr_scan"}, "lat": 38.958136333333336, "lon": -77.01454316666667, "fusion_lat": 0.0}, {"is_reserved": 0, "bike_id": "a3ce7a507f24fc8dab16ce0aa6d0f937", "type": "electric_scooter", "name": "a3ce7a507f24fc8dab16ce0aa6d0f937", "is_disabled": 0, "fusion_lon": 0.0, "rental_uris": {"android": "https://dc.lft.to/lastmile_qr_scan", "ios": "https://dc.lft.to/lastmile_qr_scan"}, "lat": 38.90123583333333, "lon": -77.043349, "fusion_lat": 0.0}, {"is_reserved": 0, "bike_id": "350f65c14f3bfb2a8df72c0185130fa3", "type": "electric_scooter", "name": "350f65c14f3bfb2a8df72c0185130fa3", "is_disabled": 0, "fusion_lon": 0.0, "rental_uris": {"android": "https://dc.lft.to/lastmile_qr_scan", "ios": "https://dc.lft.to/lastmile_qr_scan"}, "lat": 38.90017983333333, "lon": -77.02308033333334, "fusion_lat": 0.0}, {"is_reserved": 0, "bike_id": "0db5049c2068f26b2432b0faab7165e8", "type": "electric_scooter", "name": "0db5049c2068f26b2432b0faab7165e8", "is_disabled": 0, "fusion_lon": 0.0, "rental_uris": {"android": "https://dc.lft.to/lastmile_qr_scan", "ios": "https://dc.lft.to/lastmile_qr_scan"}, "lat": 38.93539483333333, "lon": -77.023571, "fusion_lat": 0.0}, {"is_reserved": 0, "bike_id": "92f253a4e4664046bd4a3ea6141e37a2", "type": "electric_bike", "name": "92f253a4e4664046bd4a3ea6141e37a2", "is_disabled": 0, "fusion_lon": 0.0, "rental_uris": {"android": "https://dc.lft.to/lastmile_qr_scan", "ios": "https://dc.lft.to/lastmile_qr_scan"}, "lat": 38.928945666666664, "lon": -77.23175216666667, "fusion_lat": 0.0}, {"is_reserved": 0, "bike_id": "3e9d46013bc84d9df39465bfc3ad9b7f", "type": "electric_bike", "name": "3e9d46013bc84d9df39465bfc3ad9b7f", "is_disabled": 0, "fusion_lon": 0.0, "rental_uris": {"android": "https://dc.lft.to/lastmile_qr_scan", "ios": "https://dc.lft.to/lastmile_qr_scan"}, "lat": 38.838285, "lon": -77.07914883333333, "fusion_lat": 0.0}, {"is_reserved": 0, "bike_id": "a7891e2de209e12c4e6488f3d46dd41a", "type": "electric_scooter", "name": "a7891e2de209e12c4e6488f3d46dd41a", "is_disabled": 0, "fusion_lon": 0.0, "rental_uris": {"android": "https://dc.lft.to/lastmile_qr_scan", "ios": "https://dc.lft.to/lastmile_qr_scan"}, "lat": 38.9098805, "lon": -77.00908783333334, "fusion_lat": 0.0}, {"is_reserved": 0, "bike_id": "47ba99a9c1375bbbc0fa8a2ded2ddddc", "type": "electric_scooter", "name": "47ba99a9c1375bbbc0fa8a2ded2ddddc", "is_disabled": 0, "fusion_lon": 0.0, "rental_uris": {"android": "https://dc.lft.to/lastmile_qr_scan", "ios": "https://dc.lft.to/lastmile_qr_scan"}, "lat": 38.92248583333333, "lon": -77.03072383333334, "fusion_lat": 0.0}, {"is_reserved": 0, "bike_id": "21543e948b6710373e61f8c2b2505251", "type": "electric_bike", "name": "21543e948b6710373e61f8c2b2505251", "is_disabled": 0, "fusion_lon": 0.0, "rental_uris": {"android": "https://dc.lft.to/lastmile_qr_scan", "ios": "https://dc.lft.to/lastmile_qr_scan"}, "lat": 38.909704166666664, "lon": -77.0882315, "fusion_lat": 0.0}, {"is_reserved": 0, "bike_id": "29774fa1d1e718bcc2a2848043efc9ad", "type": "electric_scooter", "name": "29774fa1d1e718bcc2a2848043efc9ad", "is_disabled": 0, "fusion_lon": 0.0, "rental_uris": {"android": "https://dc.lft.to/lastmile_qr_scan", "ios": "https://dc.lft.to/lastmile_qr_scan"}, "lat": 38.91044483333334, "lon": -77.03435183333333, "fusion_lat": 0.0}, {"is_reserved": 0, "bike_id": "9b48eb947b674860909c7f57acfdd1c2", "type": "electric_scooter", "name": "9b48eb947b674860909c7f57acfdd1c2", "is_disabled": 0, "fusion_lon": 0.0, "rental_uris": {"android": "https://dc.lft.to/lastmile_qr_scan", "ios": "https://dc.lft.to/lastmile_qr_scan"}, "lat": 38.92649983333333, "lon": -77.03711083333333, "fusion_lat": 0.0}, {"is_reserved": 0, "bike_id": "796cab7a17dfb51c532c4899a2693e2c", "type": "electric_scooter", "name": "796cab7a17dfb51c532c4899a2693e2c", "is_disabled": 0, "fusion_lon": 0.0, "rental_uris": {"android": "https://dc.lft.to/lastmile_qr_scan", "ios": "https://dc.lft.to/lastmile_qr_scan"}, "lat": 38.938135333333335, "lon": -77.02670016666667, "fusion_lat": 0.0}, {"is_reserved": 0, "bike_id": "16c09df3d38bb50983321ceb03873385", "type": "electric_scooter", "name": "16c09df3d38bb50983321ceb03873385", "is_disabled": 0, "fusion_lon": 0.0, "rental_uris": {"android": "https://dc.lft.to/lastmile_qr_scan", "ios": "https://dc.lft.to/lastmile_qr_scan"}, "lat": 38.898878, "lon": -77.03935016666667, "fusion_lat": 0.0}, {"is_reserved": 0, "bike_id": "a7eeea4a12b5aed1efab11f4ef304dd9", "type": "electric_scooter", "name": "a7eeea4a12b5aed1efab11f4ef304dd9", "is_disabled": 0, "fusion_lon": 0.0, "rental_uris": {"android": "https://dc.lft.to/lastmile_qr_scan", "ios": "https://dc.lft.to/lastmile_qr_scan"}, "lat": 38.92157383333333, "lon": -77.0338865, "fusion_lat": 0.0}, {"is_reserved": 0, "bike_id": "e1f434219a819626b5497750be65c650", "type": "electric_bike", "name": "e1f434219a819626b5497750be65c650", "is_disabled": 0, "fusion_lon": 0.0, "rental_uris": {"android": "https://dc.lft.to/lastmile_qr_scan", "ios": "https://dc.lft.to/lastmile_qr_scan"}, "lat": 38.83295483333333, "lon": -77.08405066666667, "fusion_lat": 0.0}, {"is_reserved": 0, "bike_id": "61c30f7bbe5f2f97dd2328f510fe7292", "type": "electric_scooter", "name": "61c30f7bbe5f2f97dd2328f510fe7292", "is_disabled": 0, "fusion_lon": 0.0, "rental_uris": {"android": "https://dc.lft.to/lastmile_qr_scan", "ios": "https://dc.lft.to/lastmile_qr_scan"}, "lat": 38.923067, "lon": -77.03657616666666, "fusion_lat": 0.0}, {"is_reserved": 0, "bike_id": "b5a969ef8911f94e7b774d9820c5fc4d", "type": "electric_bike", "name": "b5a969ef8911f94e7b774d9820c5fc4d", "is_disabled": 0, "fusion_lon": 0.0, "rental_uris": {"android": "https://dc.lft.to/lastmile_qr_scan", "ios": "https://dc.lft.to/lastmile_qr_scan"}, "lat": 38.95355833333333, "lon": -76.98097433333334, "fusion_lat": 0.0}, {"is_reserved": 0, "bike_id": "53fc6fdca4b41a2b52813511e23018f4", "type": "electric_scooter", "name": "53fc6fdca4b41a2b52813511e23018f4", "is_disabled": 0, "fusion_lon": 0.0, "rental_uris": {"android": "https://dc.lft.to/lastmile_qr_scan", "ios": "https://dc.lft.to/lastmile_qr_scan"}, "lat": 38.9321345, "lon": -77.02280766666667, "fusion_lat": 0.0}, {"is_reserved": 0, "bike_id": "a123fafc134d08a403ee9f98260a4067", "type": "electric_scooter", "name": "a123fafc134d08a403ee9f98260a4067", "is_disabled": 0, "fusion_lon": 0.0, "rental_uris": {"android": "https://dc.lft.to/lastmile_qr_scan", "ios": "https://dc.lft.to/lastmile_qr_scan"}, "lat": 38.900277833333334, "lon": -77.033244, "fusion_lat": 0.0}, {"is_reserved": 0, "bike_id": "8f3018a39fd7320b204e22eba8be7366", "type": "electric_scooter", "name": "8f3018a39fd7320b204e22eba8be7366", "is_disabled": 0, "fusion_lon": 0.0, "rental_uris": {"android": "https://dc.lft.to/lastmile_qr_scan", "ios": "https://dc.lft.to/lastmile_qr_scan"}, "lat": 38.92862266666667, "lon": -77.03314516666667, "fusion_lat": 0.0}, {"is_reserved": 0, "bike_id": "6e4714e1c484f8685e5cfd273fb4d365", "type": "electric_bike", "name": "6e4714e1c484f8685e5cfd273fb4d365", "is_disabled": 0, "fusion_lon": 0.0, "rental_uris": {"android": "https://dc.lft.to/lastmile_qr_scan", "ios": "https://dc.lft.to/lastmile_qr_scan"}, "lat": 38.92238416666667, "lon": -77.03074533333333, "fusion_lat": 0.0}, {"is_reserved": 0, "bike_id": "fc8835974d4eb938c9f55db4e471c6f1", "type": "electric_scooter", "name": "fc8835974d4eb938c9f55db4e471c6f1", "is_disabled": 0, "fusion_lon": 0.0, "rental_uris": {"android": "https://dc.lft.to/lastmile_qr_scan", "ios": "https://dc.lft.to/lastmile_qr_scan"}, "lat": 38.9389305, "lon": -77.03312316666667, "fusion_lat": 0.0}, {"is_reserved": 0, "bike_id": "96f92de16c20a3a92b34d93ae6d28355", "type": "electric_scooter", "name": "96f92de16c20a3a92b34d93ae6d28355", "is_disabled": 0, "fusion_lon": 0.0, "rental_uris": {"android": "https://dc.lft.to/lastmile_qr_scan", "ios": "https://dc.lft.to/lastmile_qr_scan"}, "lat": 38.93605933333333, "lon": -77.058925, "fusion_lat": 0.0}, {"is_reserved": 0, "bike_id": "b21c6131b13d6164b10f934901eeb380", "type": "electric_scooter", "name": "b21c6131b13d6164b10f934901eeb380", "is_disabled": 0, "fusion_lon": 0.0, "rental_uris": {"android": "https://dc.lft.to/lastmile_qr_scan", "ios": "https://dc.lft.to/lastmile_qr_scan"}, "lat": 38.922735833333334, "lon": -77.021323, "fusion_lat": 0.0}, {"is_reserved": 0, "bike_id": "6df1c1da9cb17280144474350fc85344", "type": "electric_scooter", "name": "6df1c1da9cb17280144474350fc85344", "is_disabled": 0, "fusion_lon": 0.0, "rental_uris": {"android": "https://dc.lft.to/lastmile_qr_scan", "ios": "https://dc.lft.to/lastmile_qr_scan"}, "lat": 38.93563616666667, "lon": -77.05879433333334, "fusion_lat": 0.0}, {"is_reserved": 0, "bike_id": "562843af97f79372916b352899ea474d", "type": "electric_scooter", "name": "562843af97f79372916b352899ea474d", "is_disabled": 0, "fusion_lon": 0.0, "rental_uris": {"android": "https://dc.lft.to/lastmile_qr_scan", "ios": "https://dc.lft.to/lastmile_qr_scan"}, "lat": 38.89986316666667, "lon": -76.977468, "fusion_lat": 0.0}, {"is_reserved": 0, "bike_id": "2360aaaf95d44b1a3f4242a473224cde", "type": "electric_scooter", "name": "2360aaaf95d44b1a3f4242a473224cde", "is_disabled": 0, "fusion_lon": 0.0, "rental_uris": {"android": "https://dc.lft.to/lastmile_qr_scan", "ios": "https://dc.lft.to/lastmile_qr_scan"}, "lat": 38.919677666666665, "lon": -77.0010545, "fusion_lat": 0.0}, {"is_reserved": 0, "bike_id": "9aeaeb9893ec43851c82b1e24c7f031d", "type": "electric_scooter", "name": "9aeaeb9893ec43851c82b1e24c7f031d", "is_disabled": 0, "fusion_lon": 0.0, "rental_uris": {"android": "https://dc.lft.to/lastmile_qr_scan", "ios": "https://dc.lft.to/lastmile_qr_scan"}, "lat": 38.941954, "lon": -77.03104233333333, "fusion_lat": 0.0}, {"is_reserved": 0, "bike_id": "872ac2c8d1f4529e683586a4c6e24700", "type": "electric_scooter", "name": "872ac2c8d1f4529e683586a4c6e24700", "is_disabled": 0, "fusion_lon": 0.0, "rental_uris": {"android": "https://dc.lft.to/lastmile_qr_scan", "ios": "https://dc.lft.to/lastmile_qr_scan"}, "lat": 38.90039216666667, "lon": -76.98908333333333, "fusion_lat": 0.0}, {"is_reserved": 0, "bike_id": "d0d49af13ae9a3972dd11da2a986d705", "type": "electric_bike", "name": "d0d49af13ae9a3972dd11da2a986d705", "is_disabled": 0, "fusion_lon": 0.0, "rental_uris": {"android": "https://dc.lft.to/lastmile_qr_scan", "ios": "https://dc.lft.to/lastmile_qr_scan"}, "lat": 38.99501933333333, "lon": -77.00136766666667, "fusion_lat": 0.0}, {"is_reserved": 0, "bike_id": "e0adc31dcf7b3ad104e15dbed19d50ac", "type": "electric_bike", "name": "e0adc31dcf7b3ad104e15dbed19d50ac", "is_disabled": 0, "fusion_lon": 0.0, "rental_uris": {"android": "https://dc.lft.to/lastmile_qr_scan", "ios": "https://dc.lft.to/lastmile_qr_scan"}, "lat": 38.91753683333334, "lon": -77.00768333333333, "fusion_lat": 0.0}, {"is_reserved": 0, "bike_id": "a0318112fc4527d8df5a5e9841520386", "type": "electric_scooter", "name": "a0318112fc4527d8df5a5e9841520386", "is_disabled": 0, "fusion_lon": 0.0, "rental_uris": {"android": "https://dc.lft.to/lastmile_qr_scan", "ios": "https://dc.lft.to/lastmile_qr_scan"}, "lat": 38.9262575, "lon": -77.0330295, "fusion_lat": 0.0}, {"is_reserved": 0, "bike_id": "fded4013a873ecb10c4ca239d69260ad", "type": "electric_scooter", "name": "fded4013a873ecb10c4ca239d69260ad", "is_disabled": 0, "fusion_lon": 0.0, "rental_uris": {"android": "https://dc.lft.to/lastmile_qr_scan", "ios": "https://dc.lft.to/lastmile_qr_scan"}, "lat": 38.926535, "lon": -77.03724933333334, "fusion_lat": 0.0}, {"is_reserved": 0, "bike_id": "9d1ee2372cd645f9e2c8e226cb93f8fe", "type": "electric_scooter", "name": "9d1ee2372cd645f9e2c8e226cb93f8fe", "is_disabled": 0, "fusion_lon": 0.0, "rental_uris": {"android": "https://dc.lft.to/lastmile_qr_scan", "ios": "https://dc.lft.to/lastmile_qr_scan"}, "lat": 38.90435383333333, "lon": -77.02841183333334, "fusion_lat": 0.0}, {"is_reserved": 0, "bike_id": "4f0d31c9d7e1c0eb2f739f995f47064e", "type": "electric_scooter", "name": "4f0d31c9d7e1c0eb2f739f995f47064e", "is_disabled": 0, "fusion_lon": 0.0, "rental_uris": {"android": "https://dc.lft.to/lastmile_qr_scan", "ios": "https://dc.lft.to/lastmile_qr_scan"}, "lat": 38.876611, "lon": -77.00115683333334, "fusion_lat": 0.0}, {"is_reserved": 0, "bike_id": "22fa70c2e4061e91c0086ee664c9f430", "type": "electric_scooter", "name": "22fa70c2e4061e91c0086ee664c9f430", "is_disabled": 0, "fusion_lon": 0.0, "rental_uris": {"android": "https://dc.lft.to/lastmile_qr_scan", "ios": "https://dc.lft.to/lastmile_qr_scan"}, "lat": 38.892053, "lon": -76.95698466666667, "fusion_lat": 0.0}, {"is_reserved": 0, "bike_id": "3eec74133d891e4987120732e7767789", "type": "electric_scooter", "name": "3eec74133d891e4987120732e7767789", "is_disabled": 0, "fusion_lon": 0.0, "rental_uris": {"android": "https://dc.lft.to/lastmile_qr_scan", "ios": "https://dc.lft.to/lastmile_qr_scan"}, "lat": 38.96090233333334, "lon": -77.07335983333333, "fusion_lat": 0.0}, {"is_reserved": 0, "bike_id": "fa44c6d7a8d7a0ce47c34548bd10b758", "type": "electric_scooter", "name": "fa44c6d7a8d7a0ce47c34548bd10b758", "is_disabled": 0, "fusion_lon": 0.0, "rental_uris": {"android": "https://dc.lft.to/lastmile_qr_scan", "ios": "https://dc.lft.to/lastmile_qr_scan"}, "lat": 38.907007, "lon": -77.02988783333333, "fusion_lat": 0.0}, {"is_reserved": 0, "bike_id": "7cc4217a52f3bc7f73eb3a124f7deaec", "type": "electric_scooter", "name": "7cc4217a52f3bc7f73eb3a124f7deaec", "is_disabled": 0, "fusion_lon": 0.0, "rental_uris": {"android": "https://dc.lft.to/lastmile_qr_scan", "ios": "https://dc.lft.to/lastmile_qr_scan"}, "lat": 38.92345533333334, "lon": -77.05178333333333, "fusion_lat": 0.0}, {"is_reserved": 0, "bike_id": "a2706b9a8da7d05325064ccc19a4fcac", "type": "electric_scooter", "name": "a2706b9a8da7d05325064ccc19a4fcac", "is_disabled": 0, "fusion_lon": 0.0, "rental_uris": {"android": "https://dc.lft.to/lastmile_qr_scan", "ios": "https://dc.lft.to/lastmile_qr_scan"}, "lat": 38.878936333333336, "lon": -77.01389066666667, "fusion_lat": 0.0}, {"is_reserved": 0, "bike_id": "901c5247b9c4548b40ea223312307654", "type": "electric_scooter", "name": "901c5247b9c4548b40ea223312307654", "is_disabled": 0, "fusion_lon": 0.0, "rental_uris": {"android": "https://dc.lft.to/lastmile_qr_scan", "ios": "https://dc.lft.to/lastmile_qr_scan"}, "lat": 38.91941883333333, "lon": -77.01800466666667, "fusion_lat": 0.0}, {"is_reserved": 0, "bike_id": "8d19affdf5600d1a9cc2129644220a57", "type": "electric_scooter", "name": "8d19affdf5600d1a9cc2129644220a57", "is_disabled": 0, "fusion_lon": 0.0, "rental_uris": {"android": "https://dc.lft.to/lastmile_qr_scan", "ios": "https://dc.lft.to/lastmile_qr_scan"}, "lat": 38.87600033333333, "lon": -77.02079633333334, "fusion_lat": 0.0}, {"is_reserved": 0, "bike_id": "69c04ecafa1fa842808eae5a89cdba5f", "type": "electric_bike", "name": "69c04ecafa1fa842808eae5a89cdba5f", "is_disabled": 0, "fusion_lon": 0.0, "rental_uris": {"android": "https://dc.lft.to/lastmile_qr_scan", "ios": "https://dc.lft.to/lastmile_qr_scan"}, "lat": 38.8648875, "lon": -76.97739433333334, "fusion_lat": 0.0}, {"is_reserved": 0, "bike_id": "4fcc8c51140981e8e3a76564ee3c6ce9", "type": "electric_scooter", "name": "4fcc8c51140981e8e3a76564ee3c6ce9", "is_disabled": 0, "fusion_lon": 0.0, "rental_uris": {"android": "https://dc.lft.to/lastmile_qr_scan", "ios": "https://dc.lft.to/lastmile_qr_scan"}, "lat": 38.884349, "lon": -77.0013955, "fusion_lat": 0.0}, {"is_reserved": 0, "bike_id": "c310f03b61e4f01b138c3e19af6c62d9", "type": "electric_scooter", "name": "c310f03b61e4f01b138c3e19af6c62d9", "is_disabled": 0, "fusion_lon": 0.0, "rental_uris": {"android": "https://dc.lft.to/lastmile_qr_scan", "ios": "https://dc.lft.to/lastmile_qr_scan"}, "lat": 38.92501433333334, "lon": -77.05254866666667, "fusion_lat": 0.0}, {"is_reserved": 0, "bike_id": "784f2b3e364c3722a73ec48ae6399120", "type": "electric_scooter", "name": "784f2b3e364c3722a73ec48ae6399120", "is_disabled": 0, "fusion_lon": 0.0, "rental_uris": {"android": "https://dc.lft.to/lastmile_qr_scan", "ios": "https://dc.lft.to/lastmile_qr_scan"}, "lat": 38.891633166666665, "lon": -76.99149883333334, "fusion_lat": 0.0}, {"is_reserved": 0, "bike_id": "6b081559faa6e61bd12c6667a4ae98c8", "type": "electric_scooter", "name": "6b081559faa6e61bd12c6667a4ae98c8", "is_disabled": 0, "fusion_lon": 0.0, "rental_uris": {"android": "https://dc.lft.to/lastmile_qr_scan", "ios": "https://dc.lft.to/lastmile_qr_scan"}, "lat": 38.9029985, "lon": -77.03650383333333, "fusion_lat": 0.0}, {"is_reserved": 0, "bike_id": "c9a4c6dd18846a849c312cd5465067fd", "type": "electric_scooter", "name": "c9a4c6dd18846a849c312cd5465067fd", "is_disabled": 0, "fusion_lon": 0.0, "rental_uris": {"android": "https://dc.lft.to/lastmile_qr_scan", "ios": "https://dc.lft.to/lastmile_qr_scan"}, "lat": 38.9099565, "lon": -77.04006616666666, "fusion_lat": 0.0}, {"is_reserved": 0, "bike_id": "1a5325f7a3f3e8d27231ffd945617492", "type": "electric_scooter", "name": "1a5325f7a3f3e8d27231ffd945617492", "is_disabled": 0, "fusion_lon": 0.0, "rental_uris": {"android": "https://dc.lft.to/lastmile_qr_scan", "ios": "https://dc.lft.to/lastmile_qr_scan"}, "lat": 38.891952833333335, "lon": -76.98844533333333, "fusion_lat": 0.0}, {"is_reserved": 0, "bike_id": "b9ec796a9bd64157e34fe3476e4bb3dd", "type": "electric_scooter", "name": "b9ec796a9bd64157e34fe3476e4bb3dd", "is_disabled": 0, "fusion_lon": 0.0, "rental_uris": {"android": "https://dc.lft.to/lastmile_qr_scan", "ios": "https://dc.lft.to/lastmile_qr_scan"}, "lat": 38.93829233333334, "lon": -76.986181, "fusion_lat": 0.0}, {"is_reserved": 0, "bike_id": "2cc9e874f666cf74dd83f824811258cd", "type": "electric_scooter", "name": "2cc9e874f666cf74dd83f824811258cd", "is_disabled": 0, "fusion_lon": 0.0, "rental_uris": {"android": "https://dc.lft.to/lastmile_qr_scan", "ios": "https://dc.lft.to/lastmile_qr_scan"}, "lat": 38.881155666666665, "lon": -77.01661233333333, "fusion_lat": 0.0}, {"is_reserved": 0, "bike_id": "6c9c6767fa6bfc9dd74b7cf9d566eff9", "type": "electric_scooter", "name": "6c9c6767fa6bfc9dd74b7cf9d566eff9", "is_disabled": 0, "fusion_lon": 0.0, "rental_uris": {"android": "https://dc.lft.to/lastmile_qr_scan", "ios": "https://dc.lft.to/lastmile_qr_scan"}, "lat": 38.900359, "lon": -77.01180783333334, "fusion_lat": 0.0}, {"is_reserved": 0, "bike_id": "66faecd173eae91a1eb10b0f1db91046", "type": "electric_scooter", "name": "66faecd173eae91a1eb10b0f1db91046", "is_disabled": 0, "fusion_lon": 0.0, "rental_uris": {"android": "https://dc.lft.to/lastmile_qr_scan", "ios": "https://dc.lft.to/lastmile_qr_scan"}, "lat": 38.89395366666667, "lon": -76.97821133333333, "fusion_lat": 0.0}, {"is_reserved": 0, "bike_id": "df516d1a2c544d980b3f72c9e0fbe119", "type": "electric_scooter", "name": "df516d1a2c544d980b3f72c9e0fbe119", "is_disabled": 0, "fusion_lon": 0.0, "rental_uris": {"android": "https://dc.lft.to/lastmile_qr_scan", "ios": "https://dc.lft.to/lastmile_qr_scan"}, "lat": 38.9224695, "lon": -77.03351316666667, "fusion_lat": 0.0}, {"is_reserved": 0, "bike_id": "7f0acd77f11e1c2405e98a8f00f7429a", "type": "electric_scooter", "name": "7f0acd77f11e1c2405e98a8f00f7429a", "is_disabled": 0, "fusion_lon": 0.0, "rental_uris": {"android": "https://dc.lft.to/lastmile_qr_scan", "ios": "https://dc.lft.to/lastmile_qr_scan"}, "lat": 38.925692, "lon": -77.0379545, "fusion_lat": 0.0}, {"is_reserved": 0, "bike_id": "36e0ab9bdeb42c8049d91be3c9735cfa", "type": "electric_scooter", "name": "36e0ab9bdeb42c8049d91be3c9735cfa", "is_disabled": 0, "fusion_lon": 0.0, "rental_uris": {"android": "https://dc.lft.to/lastmile_qr_scan", "ios": "https://dc.lft.to/lastmile_qr_scan"}, "lat": 38.9192935, "lon": -77.01968066666667, "fusion_lat": 0.0},