{"data": {"bikes": [{"lon": -77.00690783333333, "bike_id": "798a3fcc5387e9661f69924aed30d006", "lat": 38.879357666666664, "fusion_lon": 0.0, "fusion_lat": 0.0, "type": "electric_scooter", "name": "798a3fcc5387e9661f69924aed30d006", "is_disabled": 0, "rental_uris": {"ios": "https://dc.lft.to/lastmile_qr_scan", "android": "https://dc.lft.to/lastmile_qr_scan"}, "is_reserved": 0}, {"lon": -76.95479816666666, "bike_id": "5dca5aa3259cf23cc9f2537b53d9071e", "lat": 38.884659666666664, "fusion_lon": 0.0, "fusion_lat": 0.0, "type": "electric_scooter", "name": "5dca5aa3259cf23cc9f2537b53d9071e", "is_disabled": 0, "rental_uris": {"ios": "https://dc.lft.to/lastmile_qr_scan", "android": "https://dc.lft.to/lastmile_qr_scan"}, "is_reserved": 0}, {"lon": -76.98885983333334, "bike_id": "9655ef3112804e04c25da438d51b3dc9", "lat": 38.86654216666667, "fusion_lon": 0.0, "fusion_lat": 0.0, "type": "electric_scooter", "name": "9655ef3112804e04c25da438d51b3dc9", "is_disabled": 0, "rental_uris": {"ios": "https://dc.lft.to/lastmile_qr_scan", "android": "https://dc.lft.to/lastmile_qr_scan"}, "is_reserved": 0}, {"lon": -76.98262566666666, "bike_id": "35a027235c4734863ca86bff9469bcd6", "lat": 38.908560333333334, "fusion_lon": 0.0, "fusion_lat": 0.0, "type": "electric_scooter", "name": "35a027235c4734863ca86bff9469bcd6", "is_disabled": 0, "rental_uris": {"ios": "https://dc.lft.to/lastmile_qr_scan", "android": "https://dc.lft.to/lastmile_qr_scan"}, "is_reserved": 0}, {"lon": -77.10085283333333, "bike_id": "c315f49e0fe5b107dda112da8ced0d14", "lat": 38.959606666666666, "fusion_lon": 0.0, "fusion_lat": 0.0, "type": "electric_bike", "name": "c315f49e0fe5b107dda112da8ced0d14", "is_disabled": 0, "rental_uris": {"ios": "https://dc.lft.to/lastmile_qr_scan", "android": "https://dc.lft.to/lastmile_qr_scan"}, "is_reserved": 0}, {"lon": -77.00194866666666, "bike_id": "b7f4e611cc6481e715fccaaf89798fd1", "lat": 38.90035433333333, "fusion_lon": 0.0, "fusion_lat": 0.0, "type": "electric_scooter", "name": "b7f4e611cc6481e715fccaaf89798fd1", "is_disabled": 0, "rental_uris": {"ios": "https://dc.lft.to/lastmile_qr_scan", "android": "https://dc.lft.to/lastmile_qr_scan"}, "is_reserved": 0}, {"lon": -76.985938, "bike_id": "b1671638a33c747d3a040be306232dfd", "lat": 38.90812416666667, "fusion_lon": 0.0, "fusion_lat": 0.0, "type": "electric_scooter", "name": "b1671638a33c747d3a040be306232dfd", "is_disabled": 0, "rental_uris": {"ios": "https://dc.lft.to/lastmile_qr_scan", "android": "https://dc.lft.to/lastmile_qr_scan"}, "is_reserved": 0}, {"lon": -76.99485183333333, "bike_id": "d8bce09147b54cb70943a0c5fab3d12d", "lat": 38.915704166666664, "fusion_lon": 0.0, "fusion_lat": 0.0, "type": "electric_scooter", "name": "d8bce09147b54cb70943a0c5fab3d12d", "is_disabled": 0, "rental_uris": {"ios": "https://dc.lft.to/lastmile_qr_scan", "android": "https://dc.lft.to/lastmile_qr_scan"}, "is_reserved": 0}, {"lon": -77.06482083333333, "bike_id": "ea3f30879d588d1d00cae6973d0137c4", "lat": 38.9464875, "fusion_lon": 0.0, "fusion_lat": 0.0, "type": "electric_scooter", "name": "ea3f30879d588d1d00cae6973d0137c4", "is_disabled": 0, "rental_uris": {"ios": "https://dc.lft.to/lastmile_qr_scan", "android": "https://dc.lft.to/lastmile_qr_scan"}, "is_reserved": 0}, {"lon": -76.99405116666667, "bike_id": "a3e2e5cb83644cd905b82914bdb4d517", "lat": 38.8313745, "fusion_lon": 0.0, "fusion_lat": 0.0, "type": "electric_bike", "name": "a3e2e5cb83644cd905b82914bdb4d517", "is_disabled": 0, "rental_uris": {"ios": "https://dc.lft.to/lastmile_qr_scan", "android": "https://dc.lft.to/lastmile_qr_scan"}, "is_reserved": 0}, {"lon": -76.9336695, "bike_id": "19e8fb185d909b7eeb558f3ddfdc8956", "lat": 38.899145, "fusion_lon": 0.0, "fusion_lat": 0.0, "type": "electric_scooter", "name": "19e8fb185d909b7eeb558f3ddfdc8956", "is_disabled": 0, "rental_uris": {"ios": "https://dc.lft.to/lastmile_qr_scan", "android": "https://dc.lft.to/lastmile_qr_scan"}, "is_reserved": 0}, {"lon": -77.04096383333334, "bike_id": "5519f9c0b10c19223c0cfca85a7f223e", "lat": 38.920312333333335, "fusion_lon": 0.0, "fusion_lat": 0.0, "type": "electric_scooter", "name": "5519f9c0b10c19223c0cfca85a7f223e", "is_disabled": 0, "rental_uris": {"ios": "https://dc.lft.to/lastmile_qr_scan", "android": "https://dc.lft.to/lastmile_qr_scan"}, "is_reserved": 0}, {"lon": -76.98896266666667, "bike_id": "39e76954ace3ae685700f85bf58bdd88", "lat": 38.91345183333333, "fusion_lon": 0.0, "fusion_lat": 0.0, "type": "electric_scooter", "name": "39e76954ace3ae685700f85bf58bdd88", "is_disabled": 0, "rental_uris": {"ios": "https://dc.lft.to/lastmile_qr_scan", "android": "https://dc.lft.to/lastmile_qr_scan"}, "is_reserved": 0}, {"lon": -77.03653316666667, "bike_id": "9123913e6adaf5795268ade092759895", "lat": 38.9417825, "fusion_lon": 0.0, "fusion_lat": 0.0, "type": "electric_scooter", "name": "9123913e6adaf5795268ade092759895", "is_disabled": 0, "rental_uris": {"ios": "https://dc.lft.to/lastmile_qr_scan", "android": "https://dc.lft.to/lastmile_qr_scan"}, "is_reserved": 0}, {"lon": -77.03871, "bike_id": "83f940551ade134e1884dc9b0880e87a", "lat": 38.933018833333335, "fusion_lon": 0.0, "fusion_lat": 0.0, "type": "electric_scooter", "name": "83f940551ade134e1884dc9b0880e87a", "is_disabled": 0, "rental_uris": {"ios": "https://dc.lft.to/lastmile_qr_scan", "android": "https://dc.lft.to/lastmile_qr_scan"}, "is_reserved": 0}, {"lon": -76.981958, "bike_id": "49f1189e3c391d7b0487567946547287", "lat": 38.92602466666666, "fusion_lon": 0.0, "fusion_lat": 0.0, "type": "electric_scooter", "name": "49f1189e3c391d7b0487567946547287", "is_disabled": 0, "rental_uris": {"ios": "https://dc.lft.to/lastmile_qr_scan", "android": "https://dc.lft.to/lastmile_qr_scan"}, "is_reserved": 0}, {"lon": -76.94291566666666, "bike_id": "406e984f030e384729df06564150d6bd", "lat": 38.93868366666667, "fusion_lon": 0.0, "fusion_lat": 0.0, "type": "electric_bike", "name": "406e984f030e384729df06564150d6bd", "is_disabled": 0, "rental_uris": {"ios": "https://dc.lft.to/lastmile_qr_scan", "android": "https://dc.lft.to/lastmile_qr_scan"}, "is_reserved": 0}, {"lon": -77.026252, "bike_id": "baee9021e4067e3ecd8248836dcba1eb", "lat": 38.962287833333335, "fusion_lon": 0.0, "fusion_lat": 0.0, "type": "electric_bike", "name": "baee9021e4067e3ecd8248836dcba1eb", "is_disabled": 0, "rental_uris": {"ios": "https://dc.lft.to/lastmile_qr_scan", "android": "https://dc.lft.to/lastmile_qr_scan"}, "is_reserved": 0}, {"lon": -77.03175266666666, "bike_id": "4d54ac31f16f306791ea012e8b13ac27", "lat": 38.90517166666667, "fusion_lon": 0.0, "fusion_lat": 0.0, "type": "electric_scooter", "name": "4d54ac31f16f306791ea012e8b13ac27", "is_disabled": 0, "rental_uris": {"ios": "https://dc.lft.to/lastmile_qr_scan", "android": "https://dc.lft.to/lastmile_qr_scan"}, "is_reserved": 0}, {"lon": -76.97614966666667, "bike_id": "8996dbc50eb3c05e7a4f6e3a1d5befa8", "lat": 38.926499, "fusion_lon": 0.0, "fusion_lat": 0.0, "type": "electric_scooter", "name": "8996dbc50eb3c05e7a4f6e3a1d5befa8", "is_disabled": 0, "rental_uris": {"ios": "https://dc.lft.to/lastmile_qr_scan", "android": "https://dc.lft.to/lastmile_qr_scan"}, "is_reserved": 0}, {"lon": -77.01868483333334, "bike_id": "a0477824d0ec82895bbc6d449cd99101", "lat": 38.9514795, "fusion_lon": 0.0, "fusion_lat": 0.0, "type": "electric_scooter", "name": "a0477824d0ec82895bbc6d449cd99101", "is_disabled": 0, "rental_uris": {"ios": "https://dc.lft.to/lastmile_qr_scan", "android": "https://dc.lft.to/lastmile_qr_scan"}, "is_reserved": 0}, {"lon": -77.08811733333333, "bike_id": "091d004271527496e44889cb7cfb63ad", "lat": 38.911729, "fusion_lon": 0.0, "fusion_lat": 0.0, "type": "electric_bike", "name": "091d004271527496e44889cb7cfb63ad", "is_disabled": 0, "rental_uris": {"ios": "https://dc.lft.to/lastmile_qr_scan", "android": "https://dc.lft.to/lastmile_qr_scan"}, "is_reserved": 0}, {"lon": -77.04194, "bike_id": "fb5307965ede31287bcb449382ec3012", "lat": 38.92626116666667, "fusion_lon": 0.0, "fusion_lat": 0.0, "type": "electric_scooter", "name": "fb5307965ede31287bcb449382ec3012", "is_disabled": 0, "rental_uris": {"ios": "https://dc.lft.to/lastmile_qr_scan", "android": "https://dc.lft.to/lastmile_qr_scan"}, "is_reserved": 0}, {"lon": -76.99102633333334, "bike_id": "a8f51afa900d3da875e70ce4f143a3ad", "lat": 38.90318416666667, "fusion_lon": 0.0, "fusion_lat": 0.0, "type": "electric_scooter", "name": "a8f51afa900d3da875e70ce4f143a3ad", "is_disabled": 0, "rental_uris": {"ios": "https://dc.lft.to/lastmile_qr_scan", "android": "https://dc.lft.to/lastmile_qr_scan"}, "is_reserved": 0}, {"lon": -77.03922616666667, "bike_id": "6b9218a7a492273d21e32efad29aec9e", "lat": 38.92798966666667, "fusion_lon": 0.0, "fusion_lat": 0.0, "type": "electric_scooter", "name": "6b9218a7a492273d21e32efad29aec9e", "is_disabled": 0, "rental_uris": {"ios": "https://dc.lft.to/lastmile_qr_scan", "android": "https://dc.lft.to/lastmile_qr_scan"}, "is_reserved": 0}, {"lon": -77.00667866666667, "bike_id": "b776c4d56be5549c3176055921c7f171", "lat": 38.900231, "fusion_lon": 0.0, "fusion_lat": 0.0, "type": "electric_scooter", "name": "b776c4d56be5549c3176055921c7f171", "is_disabled": 0, "rental_uris": {"ios": "https://dc.lft.to/lastmile_qr_scan", "android": "https://dc.lft.to/lastmile_qr_scan"}, "is_reserved": 0}, {"lon": -77.03638333333333, "bike_id": "379f2720083425b72cf9992ae565b9a7", "lat": 38.9246155, "fusion_lon": 0.0, "fusion_lat": 0.0, "type": "electric_scooter", "name": "379f2720083425b72cf9992ae565b9a7", "is_disabled": 0, "rental_uris": {"ios": "https://dc.lft.to/lastmile_qr_scan", "android": "https://dc.lft.to/lastmile_qr_scan"}, "is_reserved": 0}, {"lon": -77.05996266666666, "bike_id": "8b2bd3a3969a3c3babcaa6cf695a9017", "lat": 38.807339999999996, "fusion_lon": 0.0, "fusion_lat": 0.0, "type": "electric_bike", "name": "8b2bd3a3969a3c3babcaa6cf695a9017", "is_disabled": 0, "rental_uris": {"ios": "https://dc.lft.to/lastmile_qr_scan", "android": "https://dc.lft.to/lastmile_qr_scan"}, "is_reserved": 0}, {"lon": -76.99776733333333, "bike_id": "ad7fbf92b3af65ed7b7557eaac2eeae8", "lat": 38.910466, "fusion_lon": 0.0, "fusion_lat": 0.0, "type": "electric_scooter", "name": "ad7fbf92b3af65ed7b7557eaac2eeae8", "is_disabled": 0, "rental_uris": {"ios": "https://dc.lft.to/lastmile_qr_scan", "android": "https://dc.lft.to/lastmile_qr_scan"}, "is_reserved": 0}, {"lon": -76.95236016666667, "bike_id": "ea88eba0b8d08ac14cd0d9a0c728293a", "lat": 38.8910055, "fusion_lon": 0.0, "fusion_lat": 0.0, "type": "electric_scooter", "name": "ea88eba0b8d08ac14cd0d9a0c728293a", "is_disabled": 0, "rental_uris": {"ios": "https://dc.lft.to/lastmile_qr_scan", "android": "https://dc.lft.to/lastmile_qr_scan"}, "is_reserved": 0}, {"lon": -77.02666016666667, "bike_id": "f28a8442ba50f7d739d1ad541b22aa23", "lat": 38.92580983333333, "fusion_lon": 0.0, "fusion_lat": 0.0, "type": "electric_scooter", "name": "f28a8442ba50f7d739d1ad541b22aa23", "is_disabled": 0, "rental_uris": {"ios": "https://dc.lft.to/lastmile_qr_scan", "android": "https://dc.lft.to/lastmile_qr_scan"}, "is_reserved": 0}, {"lon": -77.03660733333334, "bike_id": "0ae9bdb2ccdaf274c0a5263f74ee9ac5", "lat": 38.91245833333333, "fusion_lon": 0.0, "fusion_lat": 0.0, "type": "electric_scooter", "name": "0ae9bdb2ccdaf274c0a5263f74ee9ac5", "is_disabled": 0, "rental_uris": {"ios": "https://dc.lft.to/lastmile_qr_scan", "android": "https://dc.lft.to/lastmile_qr_scan"}, "is_reserved": 0}, {"lon": -77.03203233333333, "bike_id": "1741e285cab27629926b0639b3aa654a", "lat": 38.907859, "fusion_lon": 0.0, "fusion_lat": 0.0, "type": "electric_scooter", "name": "1741e285cab27629926b0639b3aa654a", "is_disabled": 0, "rental_uris": {"ios": "https://dc.lft.to/lastmile_qr_scan", "android": "https://dc.lft.to/lastmile_qr_scan"}, "is_reserved": 0}, {"lon": -76.99932266666667, "bike_id": "a047c83df583fdb3f754e85d9290fa93", "lat": 38.843142, "fusion_lon": 0.0, "fusion_lat": 0.0, "type": "electric_scooter", "name": "a047c83df583fdb3f754e85d9290fa93", "is_disabled": 0, "rental_uris": {"ios": "https://dc.lft.to/lastmile_qr_scan", "android": "https://dc.lft.to/lastmile_qr_scan"}, "is_reserved": 0}, {"lon": -76.99051716666666, "bike_id": "0061c4e3b4bc7449a71e2050cc637612", "lat": 38.8638075, "fusion_lon": 0.0, "fusion_lat": 0.0, "type": "electric_scooter", "name": "0061c4e3b4bc7449a71e2050cc637612", "is_disabled": 0, "rental_uris": {"ios": "https://dc.lft.to/lastmile_qr_scan", "android": "https://dc.lft.to/lastmile_qr_scan"}, "is_reserved": 0}, {"lon": -76.9906815, "bike_id": "09e892e62849a351ec1f93c9ab12cc9c", "lat": 38.92745766666667, "fusion_lon": 0.0, "fusion_lat": 0.0, "type": "electric_scooter", "name": "09e892e62849a351ec1f93c9ab12cc9c", "is_disabled": 0, "rental_uris": {"ios": "https://dc.lft.to/lastmile_qr_scan", "android": "https://dc.lft.to/lastmile_qr_scan"}, "is_reserved": 0}, {"lon": -77.11593433333333, "bike_id": "689f0eebe12262dba2fd408f82b4bfbc", "lat": 39.07491433333333, "fusion_lon": 0.0, "fusion_lat": 0.0, "type": "electric_bike", "name": "689f0eebe12262dba2fd408f82b4bfbc", "is_disabled": 0, "rental_uris": {"ios": "https://dc.lft.to/lastmile_qr_scan", "android": "https://dc.lft.to/lastmile_qr_scan"}, "is_reserved": 0}, {"lon": -77.03668166666667, "bike_id": "ff797b03f636f19b69efb39317264a99", "lat": 38.90284783333333, "fusion_lon": 0.0, "fusion_lat": 0.0, "type": "electric_scooter", "name": "ff797b03f636f19b69efb39317264a99", "is_disabled": 0, "rental_uris": {"ios": "https://dc.lft.to/lastmile_qr_scan", "android": "https://dc.lft.to/lastmile_qr_scan"}, "is_reserved": 0}, {"lon": -76.9691005, "bike_id": "d4cb6e582e5a437198d20afab0d3391d", "lat": 38.84614166666667, "fusion_lon": 0.0, "fusion_lat": 0.0, "type": "electric_bike", "name": "d4cb6e582e5a437198d20afab0d3391d", "is_disabled": 0, "rental_uris": {"ios": "https://dc.lft.to/lastmile_qr_scan", "android": "https://dc.lft.to/lastmile_qr_scan"}, "is_reserved": 0}, {"lon": -77.03263016666666, "bike_id": "1bbdd95a6f8f70730647122c5ebe6869", "lat": 38.93201666666667, "fusion_lon": 0.0, "fusion_lat": 0.0, "type": "electric_scooter", "name": "1bbdd95a6f8f70730647122c5ebe6869", "is_disabled": 0, "rental_uris": {"ios": "https://dc.lft.to/lastmile_qr_scan", "android": "https://dc.lft.to/lastmile_qr_scan"}, "is_reserved": 0}, {"lon": -77.01629983333333, "bike_id": "d0c4901914c95366fab700b03dfa90ab", "lat": 38.906903, "fusion_lon": 0.0, "fusion_lat": 0.0, "type": "electric_scooter", "name": "d0c4901914c95366fab700b03dfa90ab", "is_disabled": 0, "rental_uris": {"ios": "https://dc.lft.to/lastmile_qr_scan", "android": "https://dc.lft.to/lastmile_qr_scan"}, "is_reserved": 0}, {"lon": -77.0226935, "bike_id": "42e57ff04f6f890acbcf4d888ff34464", "lat": 38.912749, "fusion_lon": 0.0, "fusion_lat": 0.0, "type": "electric_scooter", "name": "42e57ff04f6f890acbcf4d888ff34464", "is_disabled": 0, "rental_uris": {"ios": "https://dc.lft.to/lastmile_qr_scan", "android": "https://dc.lft.to/lastmile_qr_scan"}, "is_reserved": 0}, {"lon": -77.0365465, "bike_id": "d26c901e773b8295d9361d9b591eaa81", "lat": 38.936240833333336, "fusion_lon": 0.0, "fusion_lat": 0.0, "type": "electric_bike", "name": "d26c901e773b8295d9361d9b591eaa81", "is_disabled": 0, "rental_uris": {"ios": "https://dc.lft.to/lastmile_qr_scan", "android": "https://dc.lft.to/lastmile_qr_scan"}, "is_reserved": 0}, {"lon": -76.99517383333334, "bike_id": "fc4351300a1a5b454ff514de6b1498d9", "lat": 38.86258566666667, "fusion_lon": 0.0, "fusion_lat": 0.0, "type": "electric_scooter", "name": "fc4351300a1a5b454ff514de6b1498d9", "is_disabled": 0, "rental_uris": {"ios": "https://dc.lft.to/lastmile_qr_scan", "android": "https://dc.lft.to/lastmile_qr_scan"}, "is_reserved": 0}, {"lon": -77.03420883333334, "bike_id": "2f68f479ffc2645da34828598e102c5d", "lat": 38.92638016666667, "fusion_lon": 0.0, "fusion_lat": 0.0, "type": "electric_scooter", "name": "2f68f479ffc2645da34828598e102c5d", "is_disabled": 0, "rental_uris": {"ios": "https://dc.lft.to/lastmile_qr_scan", "android": "https://dc.lft.to/lastmile_qr_scan"}, "is_reserved": 0}, {"lon": -77.05231966666666, "bike_id": "8a40d696a97d3cbf0e102e45349d3c28", "lat": 38.924617, "fusion_lon": 0.0, "fusion_lat": 0.0, "type": "electric_scooter", "name": "8a40d696a97d3cbf0e102e45349d3c28", "is_disabled": 0, "rental_uris": {"ios": "https://dc.lft.to/lastmile_qr_scan", "android": "https://dc.lft.to/lastmile_qr_scan"}, "is_reserved": 0}, {"lon": -77.03510016666667, "bike_id": "aa670c1182b3be0bbfbcf956b953f464", "lat": 38.92151166666667, "fusion_lon": 0.0, "fusion_lat": 0.0, "type": "electric_scooter", "name": "aa670c1182b3be0bbfbcf956b953f464", "is_disabled": 0, "rental_uris": {"ios": "https://dc.lft.to/lastmile_qr_scan", "android": "https://dc.lft.to/lastmile_qr_scan"}, "is_reserved": 0}, {"lon": -77.067384, "bike_id": "3622efe604b1836dbff42e1a64d6800c", "lat": 38.903714, "fusion_lon": 0.0, "fusion_lat": 0.0, "type": "electric_bike", "name": "3622efe604b1836dbff42e1a64d6800c", "is_disabled": 0, "rental_uris": {"ios": "https://dc.lft.to/lastmile_qr_scan", "android": "https://dc.lft.to/lastmile_qr_scan"}, "is_reserved": 0}, {"lon": -77.02395, "bike_id": "73fc5a8fa6e5326d0c80dc5210d728ee", "lat": 38.91961516666667, "fusion_lon": 0.0, "fusion_lat": 0.0, "type": "electric_scooter", "name": "73fc5a8fa6e5326d0c80dc5210d728ee", "is_disabled": 0, "rental_uris": {"ios": "https://dc.lft.to/lastmile_qr_scan", "android": "https://dc.lft.to/lastmile_qr_scan"}, "is_reserved": 0}, {"lon": -76.98990916666666, "bike_id": "19d307ea61627d871aea5343244f6950", "lat": 38.93361866666667, "fusion_lon": 0.0, "fusion_lat": 0.0, "type": "electric_scooter", "name": "19d307ea61627d871aea5343244f6950", "is_disabled": 0, "rental_uris": {"ios": "https://dc.lft.to/lastmile_qr_scan", "android": "https://dc.lft.to/lastmile_qr_scan"}, "is_reserved": 0}, {"lon": -77.01851366666666, "bike_id": "84aebda5e83bc1b8817c0657430cf78f", "lat": 38.91507133333333, "fusion_lon": 0.0, "fusion_lat": 0.0, "type": "electric_scooter", "name": "84aebda5e83bc1b8817c0657430cf78f", "is_disabled": 0, "rental_uris": {"ios": "https://dc.lft.to/lastmile_qr_scan", "android": "https://dc.lft.to/lastmile_qr_scan"}, "is_reserved": 0}, {"lon": -77.00739666666666, "bike_id": "91a80993aa6c71a58b4db61515b49a05", "lat": 38.89903666666667, "fusion_lon": 0.0, "fusion_lat": 0.0, "type": "electric_scooter", "name": "91a80993aa6c71a58b4db61515b49a05", "is_disabled": 0, "rental_uris": {"ios": "https://dc.lft.to/lastmile_qr_scan", "android": "https://dc.lft.to/lastmile_qr_scan"}, "is_reserved": 0}, {"lon": -77.021598, "bike_id": "fbea9920f6fbeb9c89055d0b074b8d11", "lat": 38.950759166666664, "fusion_lon": 0.0, "fusion_lat": 0.0, "type": "electric_scooter", "name": "fbea9920f6fbeb9c89055d0b074b8d11", "is_disabled": 0, "rental_uris": {"ios": "https://dc.lft.to/lastmile_qr_scan", "android": "https://dc.lft.to/lastmile_qr_scan"}, "is_reserved": 0}, {"lon": -76.98018066666667, "bike_id": "9fd62f0136eae7cb038c578253ee89b9", "lat": 38.85318, "fusion_lon": 0.0, "fusion_lat": 0.0, "type": "electric_bike", "name": "9fd62f0136eae7cb038c578253ee89b9", "is_disabled": 0, "rental_uris": {"ios": "https://dc.lft.to/lastmile_qr_scan", "android": "https://dc.lft.to/lastmile_qr_scan"}, "is_reserved": 0}, {"lon": -77.05883766666666, "bike_id": "ecc4776dbb02c57608bf9c4a48974e23", "lat": 38.862852, "fusion_lon": 0.0, "fusion_lat": 0.0, "type": "electric_bike", "name": "ecc4776dbb02c57608bf9c4a48974e23", "is_disabled": 0, "rental_uris": {"ios": "https://dc.lft.to/lastmile_qr_scan", "android": "https://dc.lft.to/lastmile_qr_scan"}, "is_reserved": 0}, {"lon": -77.020168, "bike_id": "bf21af425a7c35462ac945503ce583e2", "lat": 38.924163666666665, "fusion_lon": 0.0, "fusion_lat": 0.0, "type": "electric_scooter", "name": "bf21af425a7c35462ac945503ce583e2", "is_disabled": 0, "rental_uris": {"ios": "https://dc.lft.to/lastmile_qr_scan", "android": "https://dc.lft.to/lastmile_qr_scan"}, "is_reserved": 0}, {"lon": -77.03662716666666, "bike_id": "720324313cca29a117ede8c5bf053450", "lat": 38.9225945, "fusion_lon": 0.0, "fusion_lat": 0.0, "type": "electric_scooter", "name": "720324313cca29a117ede8c5bf053450", "is_disabled": 0, "rental_uris": {"ios": "https://dc.lft.to/lastmile_qr_scan", "android": "https://dc.lft.to/lastmile_qr_scan"}, "is_reserved": 0}, {"lon": -76.97391916666666, "bike_id": "9c097841fe2959f8576705e8359f5ed5", "lat": 38.9055785, "fusion_lon": 0.0, "fusion_lat": 0.0, "type": "electric_scooter", "name": "9c097841fe2959f8576705e8359f5ed5", "is_disabled": 0, "rental_uris": {"ios": "https://dc.lft.to/lastmile_qr_scan", "android": "https://dc.lft.to/lastmile_qr_scan"}, "is_reserved": 0}, {"lon": -77.034267, "bike_id": "11e7c5bd5949bbfcf62c567e50d2cf3a", "lat": 38.9224095, "fusion_lon": 0.0, "fusion_lat": 0.0, "type": "electric_scooter", "name": "11e7c5bd5949bbfcf62c567e50d2cf3a", "is_disabled": 0, "rental_uris": {"ios": "https://dc.lft.to/lastmile_qr_scan", "android": "https://dc.lft.to/lastmile_qr_scan"}, "is_reserved": 0}, {"lon": -77.0326575, "bike_id": "dd27cfb7c060335d79ac54f0ee651e2f", "lat": 38.9341335, "fusion_lon": 0.0, "fusion_lat": 0.0, "type": "electric_scooter", "name": "dd27cfb7c060335d79ac54f0ee651e2f", "is_disabled": 0, "rental_uris": {"ios": "https://dc.lft.to/lastmile_qr_scan", "android": "https://dc.lft.to/lastmile_qr_scan"}, "is_reserved": 0}, {"lon": -77.038975, "bike_id": "205462d2436e43ef8e8ae0a62c1f87e6", "lat": 38.92355, "fusion_lon": 0.0, "fusion_lat": 0.0, "type": "electric_scooter", "name": "205462d2436e43ef8e8ae0a62c1f87e6", "is_disabled": 0, "rental_uris": {"ios": "https://dc.lft.to/lastmile_qr_scan", "android": "https://dc.lft.to/lastmile_qr_scan"}, "is_reserved": 0}, {"lon": -77.0268795, "bike_id": "e8105c60df580f6fcd7f097a6ccde0db", "lat": 38.896977166666666, "fusion_lon": 0.0, "fusion_lat": 0.0, "type": "electric_scooter", "name": "e8105c60df580f6fcd7f097a6ccde0db", "is_disabled": 0, "rental_uris": {"ios": "https://dc.lft.to/lastmile_qr_scan", "android": "https://dc.lft.to/lastmile_qr_scan"}, "is_reserved": 0}, {"lon": -77.03499516666666, "bike_id": "e5373b8f1448a8106a80c1bfe4e2ef29", "lat": 38.9375465, "fusion_lon": 0.0, "fusion_lat": 0.0, "type": "electric_scooter", "name": "e5373b8f1448a8106a80c1bfe4e2ef29", "is_disabled": 0, "rental_uris": {"ios": "https://dc.lft.to/lastmile_qr_scan", "android": "https://dc.lft.to/lastmile_qr_scan"}, "is_reserved": 0}, {"lon": -77.01325016666667, "bike_id": "89cefa6dea621b4958576ad41b07db59", "lat": 38.87922433333333, "fusion_lon": 0.0, "fusion_lat": 0.0, "type": "electric_scooter", "name": "89cefa6dea621b4958576ad41b07db59", "is_disabled": 0, "rental_uris": {"ios": "https://dc.lft.to/lastmile_qr_scan", "android": "https://dc.lft.to/lastmile_qr_scan"}, "is_reserved": 0}, {"lon": -77.03973283333333, "bike_id": "af4581b7708bc3f8aaba221c127a047c", "lat": 38.91195116666667, "fusion_lon": 0.0, "fusion_lat": 0.0, "type": "electric_scooter", "name": "af4581b7708bc3f8aaba221c127a047c", "is_disabled": 0, "rental_uris": {"ios": "https://dc.lft.to/lastmile_qr_scan", "android": "https://dc.lft.to/lastmile_qr_scan"}, "is_reserved": 0}, {"lon": -77.06342833333333, "bike_id": "d6d3d94cc8a1d46fa37260ba0c8634c1", "lat": 38.906809, "fusion_lon": 0.0, "fusion_lat": 0.0, "type": "electric_scooter", "name": "d6d3d94cc8a1d46fa37260ba0c8634c1", "is_disabled": 0, "rental_uris": {"ios": "https://dc.lft.to/lastmile_qr_scan", "android": "https://dc.lft.to/lastmile_qr_scan"}, "is_reserved": 0}, {"lon": -77.03179216666666, "bike_id": "44f80abdb218ee8c566a820afe196299", "lat": 38.903568166666666, "fusion_lon": 0.0, "fusion_lat": 0.0, "type": "electric_scooter", "name": "44f80abdb218ee8c566a820afe196299", "is_disabled": 0, "rental_uris": {"ios": "https://dc.lft.to/lastmile_qr_scan", "android": "https://dc.lft.to/lastmile_qr_scan"}, "is_reserved": 0}, {"lon": -76.98073566666666, "bike_id": "9d319bced57d94aecd017f49d3178247", "lat": 38.90171466666666, "fusion_lon": 0.0, "fusion_lat": 0.0, "type": "electric_scooter", "name": "9d319bced57d94aecd017f49d3178247", "is_disabled": 0, "rental_uris": {"ios": "https://dc.lft.to/lastmile_qr_scan", "android": "https://dc.lft.to/lastmile_qr_scan"}, "is_reserved": 0}, {"lon": -77.05536133333334, "bike_id": "11261c0bc87c5e7731bd06d1a2eda468", "lat": 38.934304166666664, "fusion_lon": 0.0, "fusion_lat": 0.0, "type": "electric_scooter", "name": "11261c0bc87c5e7731bd06d1a2eda468", "is_disabled": 0, "rental_uris": {"ios": "https://dc.lft.to/lastmile_qr_scan", "android": "https://dc.lft.to/lastmile_qr_scan"}, "is_reserved": 0}, {"lon": -77.03508966666666, "bike_id": "02d03686f0eaed6120b3c1461c828add", "lat": 38.92488483333333, "fusion_lon": 0.0, "fusion_lat": 0.0, "type": "electric_scooter", "name": "02d03686f0eaed6120b3c1461c828add", "is_disabled": 0, "rental_uris": {"ios": "https://dc.lft.to/lastmile_qr_scan", "android": "https://dc.lft.to/lastmile_qr_scan"}, "is_reserved": 0}, {"lon": -77.0035475, "bike_id": "e6638d46739b4237834d3e7cf929e6d1", "lat": 38.899334, "fusion_lon": 0.0, "fusion_lat": 0.0, "type": "electric_scooter", "name": "e6638d46739b4237834d3e7cf929e6d1", "is_disabled": 0, "rental_uris": {"ios": "https://dc.lft.to/lastmile_qr_scan", "android": "https://dc.lft.to/lastmile_qr_scan"}, "is_reserved": 0}, {"lon": -77.08458566666667, "bike_id": "21bf69c03e8704666c8c304a347a1ca4", "lat": 38.8481945, "fusion_lon": 0.0, "fusion_lat": 0.0, "type": "electric_bike", "name": "21bf69c03e8704666c8c304a347a1ca4", "is_disabled": 0, "rental_uris": {"ios": "https://dc.lft.to/lastmile_qr_scan", "android": "https://dc.lft.to/lastmile_qr_scan"}, "is_reserved": 0}, {"lon": -77.00695266666666, "bike_id": "cfbe93f4e0eb4c1a71db9f1963f9c997", "lat": 38.917418166666664, "fusion_lon": 0.0, "fusion_lat": 0.0, "type": "electric_scooter", "name": "cfbe93f4e0eb4c1a71db9f1963f9c997", "is_disabled": 0, "rental_uris": {"ios": "https://dc.lft.to/lastmile_qr_scan", "android": "https://dc.lft.to/lastmile_qr_scan"}, "is_reserved": 0}, {"lon": -77.0238025, "bike_id": "12d1a80f6928606b113894d65754a6b3", "lat": 38.90784333333333, "fusion_lon": 0.0, "fusion_lat": 0.0, "type": "electric_scooter", "name": "12d1a80f6928606b113894d65754a6b3", "is_disabled": 0, "rental_uris": {"ios": "https://dc.lft.to/lastmile_qr_scan", "android": "https://dc.lft.to/lastmile_qr_scan"}, "is_reserved": 0}, {"lon": -77.05511483333333, "bike_id": "2c14eb05efe7d08bc63a39c59ff83e8c", "lat": 38.8996335, "fusion_lon": 0.0, "fusion_lat": 0.0, "type": "electric_scooter", "name": "2c14eb05efe7d08bc63a39c59ff83e8c", "is_disabled": 0, "rental_uris": {"ios": "https://dc.lft.to/lastmile_qr_scan", "android": "https://dc.lft.to/lastmile_qr_scan"}, "is_reserved": 0}, {"lon": -77.04492383333333, "bike_id": "e0f75aaa64ec211f6d1e23c10c2b8058", "lat": 38.919307, "fusion_lon": 0.0, "fusion_lat": 0.0, "type": "electric_scooter", "name": "e0f75aaa64ec211f6d1e23c10c2b8058", "is_disabled": 0, "rental_uris": {"ios": "https://dc.lft.to/lastmile_qr_scan", "android": "https://dc.lft.to/lastmile_qr_scan"}, "is_reserved": 0}, {"lon": -77.02404, "bike_id": "6eef2527c9fd8dc6103d9fc008a1a756", "lat": 38.9216135, "fusion_lon": 0.0, "fusion_lat": 0.0, "type": "electric_scooter", "name": "6eef2527c9fd8dc6103d9fc008a1a756", "is_disabled": 0, "rental_uris": {"ios": "https://dc.lft.to/lastmile_qr_scan", "android": "https://dc.lft.to/lastmile_qr_scan"}, "is_reserved": 0}, {"lon": -77.02781883333333, "bike_id": "3581aa5d46669a69fe9a1dff528ce584", "lat": 38.92778033333333, "fusion_lon": 0.0, "fusion_lat": 0.0, "type": "electric_scooter", "name": "3581aa5d46669a69fe9a1dff528ce584", "is_disabled": 0, "rental_uris": {"ios": "https://dc.lft.to/lastmile_qr_scan", "android": "https://dc.lft.to/lastmile_qr_scan"}, "is_reserved": 0}, {"lon": -76.9865985, "bike_id": "73ab12cd93a2d99ad522924a4e49e458", "lat": 38.9124875, "fusion_lon": 0.0, "fusion_lat": 0.0, "type": "electric_scooter", "name": "73ab12cd93a2d99ad522924a4e49e458", "is_disabled": 0, "rental_uris": {"ios": "https://dc.lft.to/lastmile_qr_scan", "android": "https://dc.lft.to/lastmile_qr_scan"}, "is_reserved": 0}, {"lon": -77.036449, "bike_id": "b70ef3280294817e7bf0894023a96e0f", "lat": 38.90360533333333, "fusion_lon": 0.0, "fusion_lat": 0.0, "type": "electric_scooter", "name": "b70ef3280294817e7bf0894023a96e0f", "is_disabled": 0, "rental_uris": {"ios": "https://dc.lft.to/lastmile_qr_scan", "android": "https://dc.lft.to/lastmile_qr_scan"}, "is_reserved": 0}, {"lon": -77.03184016666667, "bike_id": "89f0acbdfddfcec1a01102ab130a05d2", "lat": 38.9090755, "fusion_lon": 0.0, "fusion_lat": 0.0, "type": "electric_scooter", "name": "89f0acbdfddfcec1a01102ab130a05d2", "is_disabled": 0, "rental_uris": {"ios": "https://dc.lft.to/lastmile_qr_scan", "android": "https://dc.lft.to/lastmile_qr_scan"}, "is_reserved": 0}, {"lon": -77.04875283333334, "bike_id": "7191bfbde9a7b469ac90e96dcbcfc37a", "lat": 38.8923305, "fusion_lon": 0.0, "fusion_lat": 0.0, "type": "electric_scooter", "name": "7191bfbde9a7b469ac90e96dcbcfc37a", "is_disabled": 0, "rental_uris": {"ios": "https://dc.lft.to/lastmile_qr_scan", "android": "https://dc.lft.to/lastmile_qr_scan"}, "is_reserved": 0}, {"lon": -76.98835316666667, "bike_id": "c5f5e8dc0dc5ae0fc9f85fc4bf91a71a", "lat": 38.901213166666665, "fusion_lon": 0.0, "fusion_lat": 0.0, "type": "electric_scooter", "name": "c5f5e8dc0dc5ae0fc9f85fc4bf91a71a", "is_disabled": 0, "rental_uris": {"ios": "https://dc.lft.to/lastmile_qr_scan", "android": "https://dc.lft.to/lastmile_qr_scan"}, "is_reserved": 0}, {"lon": -77.03194916666666, "bike_id": "21fedf0cde02b486329ef2b18e701e34", "lat": 38.9304185, "fusion_lon": 0.0, "fusion_lat": 0.0, "type": "electric_scooter", "name": "21fedf0cde02b486329ef2b18e701e34", "is_disabled": 0, "rental_uris": {"ios": "https://dc.lft.to/lastmile_qr_scan", "android": "https://dc.lft.to/lastmile_qr_scan"}, "is_reserved": 0}, {"lon": -77.0326635, "bike_id": "48d90246cb31a6da67a33b45110a7832", "lat": 38.93664483333333, "fusion_lon": 0.0, "fusion_lat": 0.0, "type": "electric_scooter", "name": "48d90246cb31a6da67a33b45110a7832", "is_disabled": 0, "rental_uris": {"ios": "https://dc.lft.to/lastmile_qr_scan", "android": "https://dc.lft.to/lastmile_qr_scan"}, "is_reserved": 0}, {"lon": -77.03989483333334, "bike_id": "9d408c31807e8d4bef400005b6bcbd71", "lat": 38.916320999999996, "fusion_lon": 0.0, "fusion_lat": 0.0, "type": "electric_scooter", "name": "9d408c31807e8d4bef400005b6bcbd71", "is_disabled": 0, "rental_uris": {"ios": "https://dc.lft.to/lastmile_qr_scan", "android": "https://dc.lft.to/lastmile_qr_scan"}, "is_reserved": 0}, {"lon": -77.02180766666666, "bike_id": "8804b6d8410bc67ec2ccb86ef42303d0", "lat": 38.89741316666667, "fusion_lon": 0.0, "fusion_lat": 0.0, "type": "electric_scooter", "name": "8804b6d8410bc67ec2ccb86ef42303d0", "is_disabled": 0, "rental_uris": {"ios": "https://dc.lft.to/lastmile_qr_scan", "android": "https://dc.lft.to/lastmile_qr_scan"}, "is_reserved": 0}, {"lon": -77.002043, "bike_id": "29ce2ef6ce4a8e98184cb27054264647", "lat": 38.9003635, "fusion_lon": 0.0, "fusion_lat": 0.0, "type": "electric_scooter", "name": "29ce2ef6ce4a8e98184cb27054264647", "is_disabled": 0, "rental_uris": {"ios": "https://dc.lft.to/lastmile_qr_scan", "android": "https://dc.lft.to/lastmile_qr_scan"}, "is_reserved": 0}, {"lon": -77.01602783333334, "bike_id": "ac8ac098bad7c6db51a2d9ff877a8975", "lat": 38.899725833333335, "fusion_lon": 0.0, "fusion_lat": 0.0, "type": "electric_scooter", "name": "ac8ac098bad7c6db51a2d9ff877a8975", "is_disabled": 0, "rental_uris": {"ios": "https://dc.lft.to/lastmile_qr_scan", "android": "https://dc.lft.to/lastmile_qr_scan"}, "is_reserved": 0}, {"lon": -77.010544, "bike_id": "0ba3abe1537116ef7221190ad7e61ab9", "lat": 38.96346116666667, "fusion_lon": 0.0, "fusion_lat": 0.0, "type": "electric_scooter", "name": "0ba3abe1537116ef7221190ad7e61ab9", "is_disabled": 0, "rental_uris": {"ios": "https://dc.lft.to/lastmile_qr_scan", "android": "https://dc.lft.to/lastmile_qr_scan"}, "is_reserved": 0}, {"lon": -77.00984433333333, "bike_id": "afb239641c0d38d75a5657bcdd178055", "lat": 38.90367783333333, "fusion_lon": 0.0, "fusion_lat": 0.0, "type": "electric_scooter", "name": "afb239641c0d38d75a5657bcdd178055", "is_disabled": 0, "rental_uris": {"ios": "https://dc.lft.to/lastmile_qr_scan", "android": "https://dc.lft.to/lastmile_qr_scan"}, "is_reserved": 0}, {"lon": -77.0260765, "bike_id": "5d1ced10d5c6fcc22c9b7d41eeb718e6", "lat": 38.90492416666667, "fusion_lon": 0.0, "fusion_lat": 0.0, "type": "electric_scooter", "name": "5d1ced10d5c6fcc22c9b7d41eeb718e6", "is_disabled": 0, "rental_uris": {"ios": "https://dc.lft.to/lastmile_qr_scan", "android": "https://dc.lft.to/lastmile_qr_scan"}, "is_reserved": 0}, {"lon": -77.02806466666667, "bike_id": "1feea9178fd16826ba9f720e18aa355c", "lat": 38.89510383333333, "fusion_lon": 0.0, "fusion_lat": 0.0, "type": "electric_scooter", "name": "1feea9178fd16826ba9f720e18aa355c", "is_disabled": 0, "rental_uris": {"ios": "https://dc.lft.to/lastmile_qr_scan", "android": "https://dc.lft.to/lastmile_qr_scan"}, "is_reserved": 0}, {"lon": -77.10351316666667, "bike_id": "17aaedb976666ea6582e9a0f763a10c5", "lat": 38.8855135, "fusion_lon": 0.0, "fusion_lat": 0.0, "type": "electric_bike", "name": "17aaedb976666ea6582e9a0f763a10c5", "is_disabled": 0, "rental_uris": {"ios": "https://dc.lft.to/lastmile_qr_scan", "android": "https://dc.lft.to/lastmile_qr_scan"}, "is_reserved": 0}, {"lon": -77.01652133333333, "bike_id": "eff62b0663e8a03bc64d5f8c6ecbedad", "lat": 38.9289455, "fusion_lon": 0.0, "fusion_lat": 0.0, "type": "electric_scooter", "name": "eff62b0663e8a03bc64d5f8c6ecbedad", "is_disabled": 0, "rental_uris": {"ios": "https://dc.lft.to/lastmile_qr_scan", "android": "https://dc.lft.to/lastmile_qr_scan"}, "is_reserved": 0}, {"lon": -77.0297855, "bike_id": "cde8c7edafb8a24f3a7688d7fbf783fe", "lat": 38.90727916666667, "fusion_lon": 0.0, "fusion_lat": 0.0, "type": "electric_scooter", "name": "cde8c7edafb8a24f3a7688d7fbf783fe", "is_disabled": 0, "rental_uris": {"ios": "https://dc.lft.to/lastmile_qr_scan", "android": "https://dc.lft.to/lastmile_qr_scan"}, "is_reserved": 0}, {"lon": -77.044281, "bike_id": "8e14c3dba21ed356c2a6fb688366c3e6", "lat": 38.921223499999996, "fusion_lon": 0.0, "fusion_lat": 0.0, "type": "electric_scooter", "name": "8e14c3dba21ed356c2a6fb688366c3e6", "is_disabled": 0, "rental_uris": {"ios": "https://dc.lft.to/lastmile_qr_scan", "android": "https://dc.lft.to/lastmile_qr_scan"}, "is_reserved": 0}, {"lon": -76.98150366666667, "bike_id": "8894425a14c9cd0b3b6de2b89125ffe4", "lat": 38.862050833333335, "fusion_lon": 0.0, "fusion_lat": 0.0, "type": "electric_scooter", "name": "8894425a14c9cd0b3b6de2b89125ffe4", "is_disabled": 0, "rental_uris": {"ios": "https://dc.lft.to/lastmile_qr_scan", "android": "https://dc.lft.to/lastmile_qr_scan"}, "is_reserved": 0}, {"lon": -77.073496, "bike_id": "9bd73029f85e86d2fe90f393dd107e59", "lat": 38.935634, "fusion_lon": 0.0, "fusion_lat": 0.0, "type": "electric_scooter", "name": "9bd73029f85e86d2fe90f393dd107e59", "is_disabled": 0, "rental_uris": {"ios": "https://dc.lft.to/lastmile_qr_scan", "android": "https://dc.lft.to/lastmile_qr_scan"}, "is_reserved": 0}, {"lon": -77.02793816666667, "bike_id": "e5816a6370cd5a751812f8583c99aad3", "lat": 38.930200166666665, "fusion_lon": 0.0, "fusion_lat": 0.0, "type": "electric_scooter", "name": "e5816a6370cd5a751812f8583c99aad3", "is_disabled": 0, "rental_uris": {"ios": "https://dc.lft.to/lastmile_qr_scan", "android": "https://dc.lft.to/lastmile_qr_scan"}, "is_reserved": 0}, {"lon": -77.07761633333334, "bike_id": "e2273c180815e8456ef3fd7736fbe770", "lat": 38.925567, "fusion_lon": 0.0, "fusion_lat": 0.0, "type": "electric_scooter", "name": "e2273c180815e8456ef3fd7736fbe770", "is_disabled": 0, "rental_uris": {"ios": "https://dc.lft.to/lastmile_qr_scan", "android": "https://dc.lft.to/lastmile_qr_scan"}, "is_reserved": 0}, {"lon": -77.024999, "bike_id": "c648cf1be454d9a44623626d65fc1eb5", "lat": 38.93099633333333, "fusion_lon": 0.0, "fusion_lat": 0.0, "type": "electric_scooter", "name": "c648cf1be454d9a44623626d65fc1eb5", "is_disabled": 0, "rental_uris": {"ios": "https://dc.lft.to/lastmile_qr_scan", "android": "https://dc.lft.to/lastmile_qr_scan"}, "is_reserved": 0}, {"lon": -76.93762533333333, "bike_id": "7de88b1e65f6de206021382a46a85571", "lat": 38.890443833333336, "fusion_lon": 0.0, "fusion_lat": 0.0, "type": "electric_scooter", "name": "7de88b1e65f6de206021382a46a85571", "is_disabled": 0, "rental_uris": {"ios": "https://dc.lft.to/lastmile_qr_scan", "android": "https://dc.lft.to/lastmile_qr_scan"}, "is_reserved": 0}, {"lon": -76.93737416666667, "bike_id": "35d84a9e367df006b2b490e0548316cd", "lat": 38.8901095, "fusion_lon": 0.0, "fusion_lat": 0.0, "type": "electric_scooter", "name": "35d84a9e367df006b2b490e0548316cd", "is_disabled": 0, "rental_uris": {"ios": "https://dc.lft.to/lastmile_qr_scan", "android": "https://dc.lft.to/lastmile_qr_scan"}, "is_reserved": 0}, {"lon": -77.00500733333334, "bike_id": "4781b453102bfde3375978baeb12f37b", "lat": 38.90555833333333, "fusion_lon": 0.0, "fusion_lat": 0.0, "type": "electric_scooter", "name": "4781b453102bfde3375978baeb12f37b", "is_disabled": 0, "rental_uris": {"ios": "https://dc.lft.to/lastmile_qr_scan", "android": "https://dc.lft.to/lastmile_qr_scan"}, "is_reserved": 0}, {"lon": -77.04495516666667, "bike_id": "2594926526d91c21b6377caa7518a414", "lat": 38.91391183333333, "fusion_lon": 0.0, "fusion_lat": 0.0, "type": "electric_scooter", "name": "2594926526d91c21b6377caa7518a414", "is_disabled": 0, "rental_uris": {"ios": "https://dc.lft.to/lastmile_qr_scan", "android": "https://dc.lft.to/lastmile_qr_scan"}, "is_reserved": 0}, {"lon": -77.03779266666666, "bike_id": "c48ef5cd83be15fe5759fd61aa8127d6", "lat": 38.92566166666667, "fusion_lon": 0.0, "fusion_lat": 0.0, "type": "electric_scooter", "name": "c48ef5cd83be15fe5759fd61aa8127d6", "is_disabled": 0, "rental_uris": {"ios": "https://dc.lft.to/lastmile_qr_scan", "android": "https://dc.lft.to/lastmile_qr_scan"}, "is_reserved": 0}, {"lon": -76.98140133333334, "bike_id": "c32d367b5602e03943265a9d0701ef6f", "lat": 38.861945666666664, "fusion_lon": 0.0, "fusion_lat": 0.0, "type": "electric_scooter", "name": "c32d367b5602e03943265a9d0701ef6f", "is_disabled": 0, "rental_uris": {"ios": "https://dc.lft.to/lastmile_qr_scan", "android": "https://dc.lft.to/lastmile_qr_scan"}, "is_reserved": 0}, {"lon": -76.97927566666667, "bike_id": "71facb67b41a067b07a0be72476221d1", "lat": 38.905055, "fusion_lon": 0.0, "fusion_lat": 0.0, "type": "electric_scooter", "name": "71facb67b41a067b07a0be72476221d1", "is_disabled": 0, "rental_uris": {"ios": "https://dc.lft.to/lastmile_qr_scan", "android": "https://dc.lft.to/lastmile_qr_scan"}, "is_reserved": 0}, {"lon": -76.99372066666666, "bike_id": "37d7a78500564ddc294a8b74bb47f764", "lat": 38.87973316666667, "fusion_lon": 0.0, "fusion_lat": 0.0, "type": "electric_scooter", "name": "37d7a78500564ddc294a8b74bb47f764", "is_disabled": 0, "rental_uris": {"ios": "https://dc.lft.to/lastmile_qr_scan", "android": "https://dc.lft.to/lastmile_qr_scan"}, "is_reserved": 0}, {"lon": -76.99002083333333, "bike_id": "2776cab9f9bf9ff616ff770ffd3234b4", "lat": 38.86510583333333, "fusion_lon": 0.0, "fusion_lat": 0.0, "type": "electric_scooter", "name": "2776cab9f9bf9ff616ff770ffd3234b4", "is_disabled": 0, "rental_uris": {"ios": "https://dc.lft.to/lastmile_qr_scan", "android": "https://dc.lft.to/lastmile_qr_scan"}, "is_reserved": 0}, {"lon": -77.0986845, "bike_id": "35355f8034379326ccd37140d5d57cf6", "lat": 38.949630666666664, "fusion_lon": 0.0, "fusion_lat": 0.0, "type": "electric_scooter", "name": "35355f8034379326ccd37140d5d57cf6", "is_disabled": 0, "rental_uris": {"ios": "https://dc.lft.to/lastmile_qr_scan", "android": "https://dc.lft.to/lastmile_qr_scan"}, "is_reserved": 0}, {"lon": -77.0272855, "bike_id": "30c3ed39d84b803c2f7152c54c119888", "lat": 38.897257333333336, "fusion_lon": 0.0, "fusion_lat": 0.0, "type": "electric_scooter", "name": "30c3ed39d84b803c2f7152c54c119888", "is_disabled": 0, "rental_uris": {"ios": "https://dc.lft.to/lastmile_qr_scan", "android": "https://dc.lft.to/lastmile_qr_scan"}, "is_reserved": 0}, {"lon": -77.03742633333333, "bike_id": "360e5ea3e9394e10b4fe99811dae049c", "lat": 38.918088, "fusion_lon": 0.0, "fusion_lat": 0.0, "type": "electric_scooter", "name": "360e5ea3e9394e10b4fe99811dae049c", "is_disabled": 0, "rental_uris": {"ios": "https://dc.lft.to/lastmile_qr_scan", "android": "https://dc.lft.to/lastmile_qr_scan"}, "is_reserved": 0}, {"lon": -77.01314366666666, "bike_id": "cd708ef0d8d29898c633549ed4471910", "lat": 38.87152, "fusion_lon": 0.0, "fusion_lat": 0.0, "type": "electric_scooter", "name": "cd708ef0d8d29898c633549ed4471910", "is_disabled": 0, "rental_uris": {"ios": "https://dc.lft.to/lastmile_qr_scan", "android": "https://dc.lft.to/lastmile_qr_scan"}, "is_reserved": 0}, {"lon": -76.99454766666666, "bike_id": "8abbdaa8e74f1485e23d8a64013a5e62", "lat": 38.96617666666667, "fusion_lon": 0.0, "fusion_lat": 0.0, "type": "electric_bike", "name": "8abbdaa8e74f1485e23d8a64013a5e62", "is_disabled": 0, "rental_uris": {"ios": "https://dc.lft.to/lastmile_qr_scan", "android": "https://dc.lft.to/lastmile_qr_scan"}, "is_reserved": 0}, {"lon": -77.01140116666667, "bike_id": "a78454ce08122afd8d819e5af61861c4", "lat": 38.89981133333333, "fusion_lon": 0.0, "fusion_lat": 0.0, "type": "electric_scooter", "name": "a78454ce08122afd8d819e5af61861c4", "is_disabled": 0, "rental_uris": {"ios": "https://dc.lft.to/lastmile_qr_scan", "android": "https://dc.lft.to/lastmile_qr_scan"}, "is_reserved": 0}, {"lon": -76.9903535, "bike_id": "eda2b049e5551c0300c4b33bfa1c83d4", "lat": 38.89852166666667, "fusion_lon": 0.0, "fusion_lat": 0.0, "type": "electric_scooter", "name": "eda2b049e5551c0300c4b33bfa1c83d4", "is_disabled": 0, "rental_uris": {"ios": "https://dc.lft.to/lastmile_qr_scan", "android": "https://dc.lft.to/lastmile_qr_scan"}, "is_reserved": 0}, {"lon": -76.99369933333334, "bike_id": "49bda0099b473a24549e2835901689e0", "lat": 38.923979333333335, "fusion_lon": 0.0, "fusion_lat": 0.0, "type": "electric_scooter", "name": "49bda0099b473a24549e2835901689e0", "is_disabled": 0, "rental_uris": {"ios": "https://dc.lft.to/lastmile_qr_scan", "android": "https://dc.lft.to/lastmile_qr_scan"}, "is_reserved": 0}, {"lon": -77.029474, "bike_id": "246a2842f7fceee5814f0d2b6d776098", "lat": 38.905041833333335, "fusion_lon": 0.0, "fusion_lat": 0.0, "type": "electric_scooter", "name": "246a2842f7fceee5814f0d2b6d776098", "is_disabled": 0, "rental_uris": {"ios": "https://dc.lft.to/lastmile_qr_scan", "android": "https://dc.lft.to/lastmile_qr_scan"}, "is_reserved": 0}, {"lon": -77.032504, "bike_id": "94e2c263bcaea086c796f112fc6c69a0", "lat": 38.92846333333333, "fusion_lon": 0.0, "fusion_lat": 0.0, "type": "electric_scooter", "name": "94e2c263bcaea086c796f112fc6c69a0", "is_disabled": 0, "rental_uris": {"ios": "https://dc.lft.to/lastmile_qr_scan", "android": "https://dc.lft.to/lastmile_qr_scan"}, "is_reserved": 0}, {"lon": -77.03322533333333, "bike_id": "d667cee1dcc94f0d146c099e5198a55a", "lat": 38.939000166666666, "fusion_lon": 0.0, "fusion_lat": 0.0, "type": "electric_scooter", "name": "d667cee1dcc94f0d146c099e5198a55a", "is_disabled": 0, "rental_uris": {"ios": "https://dc.lft.to/lastmile_qr_scan", "android": "https://dc.lft.to/lastmile_qr_scan"}, "is_reserved": 0}, {"lon": -77.0176425, "bike_id": "87ddb40d96477500bd174160dd11f700", "lat": 38.903842, "fusion_lon": 0.0, "fusion_lat": 0.0, "type": "electric_scooter", "name": "87ddb40d96477500bd174160dd11f700", "is_disabled": 0, "rental_uris": {"ios": "https://dc.lft.to/lastmile_qr_scan", "android": "https://dc.lft.to/lastmile_qr_scan"}, "is_reserved": 0}, {"lon": -77.02280266666666, "bike_id": "987bcac95ad6c53d8c17cc8bf8cff1a0", "lat": 38.90961333333333, "fusion_lon": 0.0, "fusion_lat": 0.0, "type": "electric_scooter", "name": "987bcac95ad6c53d8c17cc8bf8cff1a0", "is_disabled": 0, "rental_uris": {"ios": "https://dc.lft.to/lastmile_qr_scan", "android": "https://dc.lft.to/lastmile_qr_scan"}, "is_reserved": 0}, {"lon": -77.0448675, "bike_id": "1fa1f01a41414e94a1c206e872af8087", "lat": 38.919303666666664, "fusion_lon": 0.0, "fusion_lat": 0.0, "type": "electric_scooter", "name": "1fa1f01a41414e94a1c206e872af8087", "is_disabled": 0, "rental_uris": {"ios": "https://dc.lft.to/lastmile_qr_scan", "android": "https://dc.lft.to/lastmile_qr_scan"}, "is_reserved": 0}, {"lon": -77.0466025, "bike_id": "18e38dde8108a46831f1df65c714be26", "lat": 38.9136655, "fusion_lon": 0.0, "fusion_lat": 0.0, "type": "electric_scooter", "name": "18e38dde8108a46831f1df65c714be26", "is_disabled": 0, "rental_uris": {"ios": "https://dc.lft.to/lastmile_qr_scan", "android": "https://dc.lft.to/lastmile_qr_scan"}, "is_reserved": 0}, {"lon": -77.04521416666667, "bike_id": "9d2f92deee5a7767ad2cecaf71a53741", "lat": 38.91575916666667, "fusion_lon": 0.0, "fusion_lat": 0.0, "type": "electric_scooter", "name": "9d2f92deee5a7767ad2cecaf71a53741", "is_disabled": 0, "rental_uris": {"ios": "https://dc.lft.to/lastmile_qr_scan", "android": "https://dc.lft.to/lastmile_qr_scan"}, "is_reserved": 0}, {"lon": -77.04817716666666, "bike_id": "d1ab38f0dabc0dba5b097d13a589834b", "lat": 38.907211833333335, "fusion_lon": 0.0, "fusion_lat": 0.0, "type": "electric_scooter", "name": "d1ab38f0dabc0dba5b097d13a589834b", "is_disabled": 0, "rental_uris": {"ios": "https://dc.lft.to/lastmile_qr_scan", "android": "https://dc.lft.to/lastmile_qr_scan"}, "is_reserved": 0}, {"lon": -77.00212, "bike_id": "645331dbd306f9c46d2dce2fc7bdbc47", "lat": 38.88129566666667, "fusion_lon": 0.0, "fusion_lat": 0.0, "type": "electric_scooter", "name": "645331dbd306f9c46d2dce2fc7bdbc47", "is_disabled": 0, "rental_uris": {"ios": "https://dc.lft.to/lastmile_qr_scan", "android": "https://dc.lft.to/lastmile_qr_scan"}, "is_reserved": 0}, {"lon": -77.04635466666667, "bike_id": "0595e41ef3098445aacd8426fbddcd34", "lat": 38.9190905, "fusion_lon": 0.0, "fusion_lat": 0.0, "type": "electric_scooter", "name": "0595e41ef3098445aacd8426fbddcd34", "is_disabled": 0, "rental_uris": {"ios": "https://dc.lft.to/lastmile_qr_scan", "android": "https://dc.lft.to/lastmile_qr_scan"}, "is_reserved": 0}, {"lon": -77.02349483333333, "bike_id": "c96470c90ac66d22caf096fa1e7e778e", "lat": 38.93541716666667, "fusion_lon": 0.0, "fusion_lat": 0.0, "type": "electric_scooter", "name": "c96470c90ac66d22caf096fa1e7e778e", "is_disabled": 0, "rental_uris": {"ios": "https://dc.lft.to/lastmile_qr_scan", "android": "https://dc.lft.to/lastmile_qr_scan"}, "is_reserved": 0}, {"lon": -77.02377783333333, "bike_id": "e495c7d10c3c382d48ee39988139833f", "lat": 38.920582333333336, "fusion_lon": 0.0, "fusion_lat": 0.0, "type": "electric_scooter", "name": "e495c7d10c3c382d48ee39988139833f", "is_disabled": 0, "rental_uris": {"ios": "https://dc.lft.to/lastmile_qr_scan", "android": "https://dc.lft.to/lastmile_qr_scan"}, "is_reserved": 0}, {"lon": -77.0444355, "bike_id": "f998a8a835cc78fb6d4f1c9a253c55a2", "lat": 38.918778333333336, "fusion_lon": 0.0, "fusion_lat": 0.0, "type": "electric_scooter", "name": "f998a8a835cc78fb6d4f1c9a253c55a2", "is_disabled": 0, "rental_uris": {"ios": "https://dc.lft.to/lastmile_qr_scan", "android": "https://dc.lft.to/lastmile_qr_scan"}, "is_reserved": 0}, {"lon": -77.0271465, "bike_id": "3c7c8b9e5a06824fb3831d7bc653c25b", "lat": 38.927707, "fusion_lon": 0.0, "fusion_lat": 0.0, "type": "electric_scooter", "name": "3c7c8b9e5a06824fb3831d7bc653c25b", "is_disabled": 0, "rental_uris": {"ios": "https://dc.lft.to/lastmile_qr_scan", "android": "https://dc.lft.to/lastmile_qr_scan"}, "is_reserved": 0}, {"lon": -76.933513, "bike_id": "8ac297afa15c23995c0df6110afe9456", "lat": 38.899189166666666, "fusion_lon": 0.0, "fusion_lat": 0.0, "type": "electric_scooter", "name": "8ac297afa15c23995c0df6110afe9456", "is_disabled": 0, "rental_uris": {"ios": "https://dc.lft.to/lastmile_qr_scan", "android": "https://dc.lft.to/lastmile_qr_scan"}, "is_reserved": 0}, {"lon": -76.9332875, "bike_id": "a8778b59718df86d42763de96ced0f74", "lat": 38.91066133333333, "fusion_lon": 0.0, "fusion_lat": 0.0, "type": "electric_scooter", "name": "a8778b59718df86d42763de96ced0f74", "is_disabled": 0, "rental_uris": {"ios": "https://dc.lft.to/lastmile_qr_scan", "android": "https://dc.lft.to/lastmile_qr_scan"}, "is_reserved": 0}, {"lon": -77.0480225, "bike_id": "cc989d1b98d7ea762db271fbae8a987a", "lat": 38.90947883333333, "fusion_lon": 0.0, "fusion_lat": 0.0, "type": "electric_scooter", "name": "cc989d1b98d7ea762db271fbae8a987a", "is_disabled": 0, "rental_uris": {"ios": "https://dc.lft.to/lastmile_qr_scan", "android": "https://dc.lft.to/lastmile_qr_scan"}, "is_reserved": 0}, {"lon": -76.927384, "bike_id": "d3f8c9b844ca245e9d396ac87c8e4d31", "lat": 38.889668666666665, "fusion_lon": 0.0, "fusion_lat": 0.0, "type": "electric_scooter", "name": "d3f8c9b844ca245e9d396ac87c8e4d31", "is_disabled": 0, "rental_uris": {"ios": "https://dc.lft.to/lastmile_qr_scan", "android": "https://dc.lft.to/lastmile_qr_scan"}, "is_reserved": 0}, {"lon": -77.05343783333333, "bike_id": "739e077d52fb567e6ecf160674df6219", "lat": 38.92697233333333, "fusion_lon": 0.0, "fusion_lat": 0.0, "type": "electric_scooter", "name": "739e077d52fb567e6ecf160674df6219", "is_disabled": 0, "rental_uris": {"ios": "https://dc.lft.to/lastmile_qr_scan", "android": "https://dc.lft.to/lastmile_qr_scan"}, "is_reserved": 0}, {"lon": -76.9856, "bike_id": "d9fd5d795ea36d0e80ad3cbe66d7ed4a", "lat": 38.89954916666667, "fusion_lon": 0.0, "fusion_lat": 0.0, "type": "electric_scooter", "name": "d9fd5d795ea36d0e80ad3cbe66d7ed4a", "is_disabled": 0, "rental_uris": {"ios": "https://dc.lft.to/lastmile_qr_scan", "android": "https://dc.lft.to/lastmile_qr_scan"}, "is_reserved": 0}, {"lon": -76.99107416666666, "bike_id": "025dee23da531ed72da10eab6548f6fa", "lat": 38.90321516666667, "fusion_lon": 0.0, "fusion_lat": 0.0, "type": "electric_scooter", "name": "025dee23da531ed72da10eab6548f6fa", "is_disabled": 0, "rental_uris": {"ios": "https://dc.lft.to/lastmile_qr_scan", "android": "https://dc.lft.to/lastmile_qr_scan"}, "is_reserved": 0}, {"lon": -77.12658, "bike_id": "02eb169721e5033cc72c87b61d3c9222", "lat": 38.815178833333334, "fusion_lon": 0.0, "fusion_lat": 0.0, "type": "electric_bike", "name": "02eb169721e5033cc72c87b61d3c9222", "is_disabled": 0, "rental_uris": {"ios": "https://dc.lft.to/lastmile_qr_scan", "android": "https://dc.lft.to/lastmile_qr_scan"}, "is_reserved": 0}, {"lon": -76.9817995, "bike_id": "9b34907bd6f74d813f84808fda442495", "lat": 38.92606516666667, "fusion_lon": 0.0, "fusion_lat": 0.0, "type": "electric_scooter", "name": "9b34907bd6f74d813f84808fda442495", "is_disabled": 0, "rental_uris": {"ios": "https://dc.lft.to/lastmile_qr_scan", "android": "https://dc.lft.to/lastmile_qr_scan"}, "is_reserved": 0}, {"lon": -77.01938533333333, "bike_id": "43b9f4dd8a7ff59e2eeceacee06ee5e7", "lat": 38.93526116666666, "fusion_lon": 0.0, "fusion_lat": 0.0, "type": "electric_scooter", "name": "43b9f4dd8a7ff59e2eeceacee06ee5e7", "is_disabled": 0, "rental_uris": {"ios": "https://dc.lft.to/lastmile_qr_scan", "android": "https://dc.lft.to/lastmile_qr_scan"}, "is_reserved": 0}, {"lon": -76.99533433333333, "bike_id": "a47702567c2fdfa47df52f8e0754d4f3", "lat": 38.88371716666666, "fusion_lon": 0.0, "fusion_lat": 0.0, "type": "electric_scooter", "name": "a47702567c2fdfa47df52f8e0754d4f3", "is_disabled": 0, "rental_uris": {"ios": "https://dc.lft.to/lastmile_qr_scan", "android": "https://dc.lft.to/lastmile_qr_scan"}, "is_reserved": 0}, {"lon": -77.00201366666667, "bike_id": "774e68404b0beba76d28ae7eaa96863c", "lat": 38.90030183333333, "fusion_lon": 0.0, "fusion_lat": 0.0, "type": "electric_scooter", "name": "774e68404b0beba76d28ae7eaa96863c", "is_disabled": 0, "rental_uris": {"ios": "https://dc.lft.to/lastmile_qr_scan", "android": "https://dc.lft.to/lastmile_qr_scan"}, "is_reserved": 0}, {"lon": -76.97477316666667, "bike_id": "60537cd084f579caf65dde36bf92eb32", "lat": 38.90351033333334, "fusion_lon": 0.0, "fusion_lat": 0.0, "type": "electric_scooter", "name": "60537cd084f579caf65dde36bf92eb32", "is_disabled": 0, "rental_uris": {"ios": "https://dc.lft.to/lastmile_qr_scan", "android": "https://dc.lft.to/lastmile_qr_scan"}, "is_reserved": 0}, {"lon": -77.06520416666666, "bike_id": "1cbecf923b7f3c94a9b79610dbd51049", "lat": 38.904030166666665, "fusion_lon": 0.0, "fusion_lat": 0.0, "type": "electric_scooter", "name": "1cbecf923b7f3c94a9b79610dbd51049", "is_disabled": 0, "rental_uris": {"ios": "https://dc.lft.to/lastmile_qr_scan", "android": "https://dc.lft.to/lastmile_qr_scan"}, "is_reserved": 0}, {"lon": -76.99090033333333, "bike_id": "9df39f400e1131e9451b8c3630987e5d", "lat": 38.86237766666667, "fusion_lon": 0.0, "fusion_lat": 0.0, "type": "electric_bike", "name": "9df39f400e1131e9451b8c3630987e5d", "is_disabled": 0, "rental_uris": {"ios": "https://dc.lft.to/lastmile_qr_scan", "android": "https://dc.lft.to/lastmile_qr_scan"}, "is_reserved": 0}, {"lon": -77.012923, "bike_id": "9fc812a4ff39ba56b5a6d6ccdff2f6be", "lat": 38.920178666666665, "fusion_lon": 0.0, "fusion_lat": 0.0, "type": "electric_scooter", "name": "9fc812a4ff39ba56b5a6d6ccdff2f6be", "is_disabled": 0, "rental_uris": {"ios": "https://dc.lft.to/lastmile_qr_scan", "android": "https://dc.lft.to/lastmile_qr_scan"}, "is_reserved": 0}, {"lon": -77.04868583333334, "bike_id": "ab0fe575eab6e92271bc02ff524a6f66", "lat": 38.89222733333333, "fusion_lon": 0.0, "fusion_lat": 0.0, "type": "electric_scooter", "name": "ab0fe575eab6e92271bc02ff524a6f66", "is_disabled": 0, "rental_uris": {"ios": "https://dc.lft.to/lastmile_qr_scan", "android": "https://dc.lft.to/lastmile_qr_scan"}, "is_reserved": 0}, {"lon": -77.02624766666666, "bike_id": "04ad378c7de36cc22f4cc4ecb8fbadb2", "lat": 38.929122, "fusion_lon": 0.0, "fusion_lat": 0.0, "type": "electric_scooter", "name": "04ad378c7de36cc22f4cc4ecb8fbadb2", "is_disabled": 0, "rental_uris": {"ios": "https://dc.lft.to/lastmile_qr_scan", "android": "https://dc.lft.to/lastmile_qr_scan"}, "is_reserved": 0}, {"lon": -77.08073166666667, "bike_id": "6613b3b84fcb6cc52cdfa93b88cedd50", "lat": 39.0527885, "fusion_lon": 0.0, "fusion_lat": 0.0, "type": "electric_bike", "name": "6613b3b84fcb6cc52cdfa93b88cedd50", "is_disabled": 0, "rental_uris": {"ios": "https://dc.lft.to/lastmile_qr_scan", "android": "https://dc.lft.to/lastmile_qr_scan"}, "is_reserved": 0}, {"lon": -76.99020983333334, "bike_id": "17301032651d8557855531d180864835", "lat": 38.866434166666664, "fusion_lon": 0.0, "fusion_lat": 0.0, "type": "electric_scooter", "name": "17301032651d8557855531d180864835", "is_disabled": 0, "rental_uris": {"ios": "https://dc.lft.to/lastmile_qr_scan", "android": "https://dc.lft.to/lastmile_qr_scan"}, "is_reserved": 0}, {"lon": -77.03188516666667, "bike_id": "4fa5a770a00fffa8ce471cccfe231512", "lat": 38.909159, "fusion_lon": 0.0, "fusion_lat": 0.0, "type": "electric_scooter", "name": "4fa5a770a00fffa8ce471cccfe231512", "is_disabled": 0, "rental_uris": {"ios": "https://dc.lft.to/lastmile_qr_scan", "android": "https://dc.lft.to/lastmile_qr_scan"}, "is_reserved": 0}, {"lon": -77.020798, "bike_id": "a962023355f032b0cb1f7eafab549723", "lat": 38.88184416666667, "fusion_lon": 0.0, "fusion_lat": 0.0, "type": "electric_scooter", "name": "a962023355f032b0cb1f7eafab549723", "is_disabled": 0, "rental_uris": {"ios": "https://dc.lft.to/lastmile_qr_scan", "android": "https://dc.lft.to/lastmile_qr_scan"}, "is_reserved": 0}, {"lon": -77.025295, "bike_id": "439151c2052417178966209aad670962", "lat": 38.9289465, "fusion_lon": 0.0, "fusion_lat": 0.0, "type": "electric_scooter", "name": "439151c2052417178966209aad670962", "is_disabled": 0, "rental_uris": {"ios": "https://dc.lft.to/lastmile_qr_scan", "android": "https://dc.lft.to/lastmile_qr_scan"}, "is_reserved": 0}, {"lon": -77.10027216666667, "bike_id": "0b2307d233768d6ea99e2cf445bccf06", "lat": 38.87134566666667, "fusion_lon": 0.0, "fusion_lat": 0.0, "type": "electric_bike", "name": "0b2307d233768d6ea99e2cf445bccf06", "is_disabled": 0, "rental_uris": {"ios": "https://dc.lft.to/lastmile_qr_scan", "android": "https://dc.lft.to/lastmile_qr_scan"}, "is_reserved": 0}, {"lon": -76.965232, "bike_id": "dd11b8605156d87d3bc0f51776243d38", "lat": 38.87628816666667, "fusion_lon": 0.0, "fusion_lat": 0.0, "type": "electric_scooter", "name": "dd11b8605156d87d3bc0f51776243d38", "is_disabled": 0, "rental_uris": {"ios": "https://dc.lft.to/lastmile_qr_scan", "android": "https://dc.lft.to/lastmile_qr_scan"}, "is_reserved": 0}, {"lon": -77.03757733333333, "bike_id": "33d106648cb96a068112ca41e8d8b592", "lat": 38.90779416666667, "fusion_lon": 0.0, "fusion_lat": 0.0, "type": "electric_scooter", "name": "33d106648cb96a068112ca41e8d8b592", "is_disabled": 0, "rental_uris": {"ios": "https://dc.lft.to/lastmile_qr_scan", "android": "https://dc.lft.to/lastmile_qr_scan"}, "is_reserved": 0}, {"lon": -77.00575816666667, "bike_id": "86fe4fef39a74436c295c12fcedad16d", "lat": 38.905656666666665, "fusion_lon": 0.0, "fusion_lat": 0.0, "type": "electric_scooter", "name": "86fe4fef39a74436c295c12fcedad16d", "is_disabled": 0, "rental_uris": {"ios": "https://dc.lft.to/lastmile_qr_scan", "android": "https://dc.lft.to/lastmile_qr_scan"}, "is_reserved": 0}, {"lon": -77.02750016666667, "bike_id": "e33697e8579424a6eb92cb5f2d575cb8", "lat": 38.9290115, "fusion_lon": 0.0, "fusion_lat": 0.0, "type": "electric_scooter", "name": "e33697e8579424a6eb92cb5f2d575cb8", "is_disabled": 0, "rental_uris": {"ios": "https://dc.lft.to/lastmile_qr_scan", "android": "https://dc.lft.to/lastmile_qr_scan"}, "is_reserved": 0}, {"lon": -77.0134535, "bike_id": "bfb676ae30fa146f99bc243bff4e8f2e", "lat": 38.878138666666665, "fusion_lon": 0.0, "fusion_lat": 0.0, "type": "electric_scooter", "name": "bfb676ae30fa146f99bc243bff4e8f2e", "is_disabled": 0, "rental_uris": {"ios": "https://dc.lft.to/lastmile_qr_scan", "android": "https://dc.lft.to/lastmile_qr_scan"}, "is_reserved": 0}, {"lon": -77.02873766666667, "bike_id": "3ae37a442f1681d57a56a47083914750", "lat": 38.91684466666667, "fusion_lon": 0.0, "fusion_lat": 0.0, "type": "electric_scooter", "name": "3ae37a442f1681d57a56a47083914750", "is_disabled": 0, "rental_uris": {"ios": "https://dc.lft.to/lastmile_qr_scan", "android": "https://dc.lft.to/lastmile_qr_scan"}, "is_reserved": 0}, {"lon": -76.9809375, "bike_id": "3718bdb5f8423dbf01ff441c920df502", "lat": 38.95354833333333, "fusion_lon": 0.0, "fusion_lat": 0.0, "type": "electric_bike", "name": "3718bdb5f8423dbf01ff441c920df502", "is_disabled": 0, "rental_uris": {"ios": "https://dc.lft.to/lastmile_qr_scan", "android": "https://dc.lft.to/lastmile_qr_scan"}, "is_reserved": 0}, {"lon": -77.0438795, "bike_id": "d0030aed2f3f91dfa17147c63851cc72", "lat": 38.90889133333334, "fusion_lon": 0.0, "fusion_lat": 0.0, "type": "electric_scooter", "name": "d0030aed2f3f91dfa17147c63851cc72", "is_disabled": 0, "rental_uris": {"ios": "https://dc.lft.to/lastmile_qr_scan", "android": "https://dc.lft.to/lastmile_qr_scan"}, "is_reserved": 0}, {"lon": -77.03337366666666, "bike_id": "f5736a790b67130e9757d0c48d4da71f", "lat": 38.936401000000004, "fusion_lon": 0.0, "fusion_lat": 0.0, "type": "electric_scooter", "name": "f5736a790b67130e9757d0c48d4da71f", "is_disabled": 0, "rental_uris": {"ios": "https://dc.lft.to/lastmile_qr_scan", "android": "https://dc.lft.to/lastmile_qr_scan"}, "is_reserved": 0}, {"lon": -76.99334266666666, "bike_id": "99e651168c52660c1ced368eaffc28bd", "lat": 38.871425333333335, "fusion_lon": 0.0, "fusion_lat": 0.0, "type": "electric_scooter", "name": "99e651168c52660c1ced368eaffc28bd", "is_disabled": 0, "rental_uris": {"ios": "https://dc.lft.to/lastmile_qr_scan", "android": "https://dc.lft.to/lastmile_qr_scan"}, "is_reserved": 0}, {"lon": -76.98722683333334, "bike_id": "e91c100d2ab3962298cffce29d5bd3ad", "lat": 38.867113333333336, "fusion_lon": 0.0, "fusion_lat": 0.0, "type": "electric_scooter", "name": "e91c100d2ab3962298cffce29d5bd3ad", "is_disabled": 0, "rental_uris": {"ios": "https://dc.lft.to/lastmile_qr_scan", "android": "https://dc.lft.to/lastmile_qr_scan"}, "is_reserved": 0}, {"lon": -76.98704066666667, "bike_id": "5309a23ee8050ecdfdc79192e0b3679b", "lat": 38.86538766666666, "fusion_lon": 0.0, "fusion_lat": 0.0, "type": "electric_scooter", "name": "5309a23ee8050ecdfdc79192e0b3679b", "is_disabled": 0, "rental_uris": {"ios": "https://dc.lft.to/lastmile_qr_scan", "android": "https://dc.lft.to/lastmile_qr_scan"}, "is_reserved": 0}, {"lon": -77.032946, "bike_id": "00bb9c7867488ca4ea47349116f7a1b2", "lat": 38.9035215, "fusion_lon": 0.0, "fusion_lat": 0.0, "type": "electric_scooter", "name": "00bb9c7867488ca4ea47349116f7a1b2", "is_disabled": 0, "rental_uris": {"ios": "https://dc.lft.to/lastmile_qr_scan", "android": "https://dc.lft.to/lastmile_qr_scan"}, "is_reserved": 0}, {"lon": -77.0265275, "bike_id": "682cdc04381b50da3d00b23bd394dfb2", "lat": 38.89720966666667, "fusion_lon": 0.0, "fusion_lat": 0.0, "type": "electric_scooter", "name": "682cdc04381b50da3d00b23bd394dfb2", "is_disabled": 0, "rental_uris": {"ios": "https://dc.lft.to/lastmile_qr_scan", "android": "https://dc.lft.to/lastmile_qr_scan"}, "is_reserved": 0}, {"lon": -76.94886433333333, "bike_id": "345b5d2327cc3b5b458ecc9c8a28f189", "lat": 38.895122, "fusion_lon": 0.0, "fusion_lat": 0.0, "type": "electric_scooter", "name": "345b5d2327cc3b5b458ecc9c8a28f189", "is_disabled": 0, "rental_uris": {"ios": "https://dc.lft.to/lastmile_qr_scan", "android": "https://dc.lft.to/lastmile_qr_scan"}, "is_reserved": 0}, {"lon": -77.027383, "bike_id": "33687aad030cddf6d8ac33c1efff3d86", "lat": 38.91079366666666, "fusion_lon": 0.0, "fusion_lat": 0.0, "type": "electric_scooter", "name": "33687aad030cddf6d8ac33c1efff3d86", "is_disabled": 0, "rental_uris": {"ios": "https://dc.lft.to/lastmile_qr_scan", "android": "https://dc.lft.to/lastmile_qr_scan"}, "is_reserved": 0}, {"lon": -77.01657366666667, "bike_id": "d67ad3f6e6c38ceff3cecb5c7b16cc56", "lat": 38.88118016666667, "fusion_lon": 0.0, "fusion_lat": 0.0, "type": "electric_scooter", "name": "d67ad3f6e6c38ceff3cecb5c7b16cc56", "is_disabled": 0, "rental_uris": {"ios": "https://dc.lft.to/lastmile_qr_scan", "android": "https://dc.lft.to/lastmile_qr_scan"}, "is_reserved": 0}, {"lon": -77.02083516666667, "bike_id": "5739e9b752b74a498c792148824a8fda", "lat": 38.9574985, "fusion_lon": 0.0, "fusion_lat": 0.0, "type": "electric_scooter", "name": "5739e9b752b74a498c792148824a8fda", "is_disabled": 0, "rental_uris": {"ios": "https://dc.lft.to/lastmile_qr_scan", "android": "https://dc.lft.to/lastmile_qr_scan"}, "is_reserved": 0}, {"lon": -77.05573, "bike_id": "04a11b493b50c6dd4a9530e1e477ce13", "lat": 38.91597333333333, "fusion_lon": 0.0, "fusion_lat": 0.0, "type": "electric_scooter", "name": "04a11b493b50c6dd4a9530e1e477ce13", "is_disabled": 0, "rental_uris": {"ios": "https://dc.lft.to/lastmile_qr_scan", "android": "https://dc.lft.to/lastmile_qr_scan"}, "is_reserved": 0}, {"lon": -77.0232765, "bike_id": "27d9e532473590bf33e0fdcd5c464d10", "lat": 38.92228716666666, "fusion_lon": 0.0, "fusion_lat": 0.0, "type": "electric_scooter", "name": "27d9e532473590bf33e0fdcd5c464d10", "is_disabled": 0, "rental_uris": {"ios": "https://dc.lft.to/lastmile_qr_scan", "android": "https://dc.lft.to/lastmile_qr_scan"}, "is_reserved": 0}, {"lon": -76.99003266666666, "bike_id": "fe35eaa3bab86b700b5d2547fbed1b9e", "lat": 38.865048, "fusion_lon": 0.0, "fusion_lat": 0.0, "type": "electric_scooter", "name": "fe35eaa3bab86b700b5d2547fbed1b9e", "is_disabled": 0, "rental_uris": {"ios": "https://dc.lft.to/lastmile_qr_scan", "android": "https://dc.lft.to/lastmile_qr_scan"}, "is_reserved": 0}, {"lon": -76.94998333333334, "bike_id": "22c601bb7619f421c89447de39c2e86e", "lat": 38.893816666666666, "fusion_lon": 0.0, "fusion_lat": 0.0, "type": "electric_scooter", "name": "22c601bb7619f421c89447de39c2e86e", "is_disabled": 0, "rental_uris": {"ios": "https://dc.lft.to/lastmile_qr_scan", "android": "https://dc.lft.to/lastmile_qr_scan"}, "is_reserved": 0}, {"lon": -77.0326635, "bike_id": "082adb2b8c1fd495cca1812c9e12f707", "lat": 38.937726833333336, "fusion_lon": 0.0, "fusion_lat": 0.0, "type": "electric_scooter", "name": "082adb2b8c1fd495cca1812c9e12f707", "is_disabled": 0, "rental_uris": {"ios": "https://dc.lft.to/lastmile_qr_scan", "android": "https://dc.lft.to/lastmile_qr_scan"}, "is_reserved": 0}, {"lon": -77.0109135, "bike_id": "38e03337768bea5b62ccd40ca82ed420", "lat": 38.9086885, "fusion_lon": 0.0, "fusion_lat": 0.0, "type": "electric_scooter", "name": "38e03337768bea5b62ccd40ca82ed420", "is_disabled": 0, "rental_uris": {"ios": "https://dc.lft.to/lastmile_qr_scan", "android": "https://dc.lft.to/lastmile_qr_scan"}, "is_reserved": 0}, {"lon": -77.03254066666666, "bike_id": "8b20251705b0f3204b8334dd30a5c568", "lat": 38.93131783333333, "fusion_lon": 0.0, "fusion_lat": 0.0, "type": "electric_scooter", "name": "8b20251705b0f3204b8334dd30a5c568", "is_disabled": 0, "rental_uris": {"ios": "https://dc.lft.to/lastmile_qr_scan", "android": "https://dc.lft.to/lastmile_qr_scan"}, "is_reserved": 0}, {"lon": -77.01437616666666, "bike_id": "b14110a0c5b0b57ec2336937a49461f9", "lat": 38.90539416666667, "fusion_lon": 0.0, "fusion_lat": 0.0, "type": "electric_scooter", "name": "b14110a0c5b0b57ec2336937a49461f9", "is_disabled": 0, "rental_uris": {"ios": "https://dc.lft.to/lastmile_qr_scan", "android": "https://dc.lft.to/lastmile_qr_scan"}, "is_reserved": 0}, {"lon": -77.02092333333333, "bike_id": "0e6c6f59e2f73b440cd267900aedb7fd", "lat": 38.9291475, "fusion_lon": 0.0, "fusion_lat": 0.0, "type": "electric_scooter", "name": "0e6c6f59e2f73b440cd267900aedb7fd", "is_disabled": 0, "rental_uris": {"ios": "https://dc.lft.to/lastmile_qr_scan", "android": "https://dc.lft.to/lastmile_qr_scan"}, "is_reserved": 0}, {"lon": -76.9785695, "bike_id": "de24a062fd884cf228160a010355d110", "lat": 38.90720233333333, "fusion_lon": 0.0, "fusion_lat": 0.0, "type": "electric_scooter", "name": "de24a062fd884cf228160a010355d110", "is_disabled": 0, "rental_uris": {"ios": "https://dc.lft.to/lastmile_qr_scan", "android": "https://dc.lft.to/lastmile_qr_scan"}, "is_reserved": 0}, {"lon": -76.97561716666667, "bike_id": "a0a2b737af13b65606545a846201b26a", "lat": 38.924557166666666, "fusion_lon": 0.0, "fusion_lat": 0.0, "type": "electric_bike", "name": "a0a2b737af13b65606545a846201b26a", "is_disabled": 0, "rental_uris": {"ios": "https://dc.lft.to/lastmile_qr_scan", "android": "https://dc.lft.to/lastmile_qr_scan"}, "is_reserved": 0}, {"lon": -76.99756583333334, "bike_id": "411e059cc17bb4abd5be364994ec0ddb", "lat": 38.950085333333334, "fusion_lon": 0.0, "fusion_lat": 0.0, "type": "electric_bike", "name": "411e059cc17bb4abd5be364994ec0ddb", "is_disabled": 0, "rental_uris": {"ios": "https://dc.lft.to/lastmile_qr_scan", "android": "https://dc.lft.to/lastmile_qr_scan"}, "is_reserved": 0}, {"lon": -77.02329633333333, "bike_id": "8973202c837e64b0042edb9e0271eb1b", "lat": 38.935274666666665, "fusion_lon": 0.0, "fusion_lat": 0.0, "type": "electric_scooter", "name": "8973202c837e64b0042edb9e0271eb1b", "is_disabled": 0, "rental_uris": {"ios": "https://dc.lft.to/lastmile_qr_scan", "android": "https://dc.lft.to/lastmile_qr_scan"}, "is_reserved": 0}, {"lon": -77.0040395, "bike_id": "bd4e41d70f403783cdfbe95b64856495", "lat": 38.921331333333335, "fusion_lon": 0.0, "fusion_lat": 0.0, "type": "electric_scooter", "name": "bd4e41d70f403783cdfbe95b64856495", "is_disabled": 0, "rental_uris": {"ios": "https://dc.lft.to/lastmile_qr_scan", "android": "https://dc.lft.to/lastmile_qr_scan"}, "is_reserved": 0}, {"lon": -77.01583616666667, "bike_id": "773a3735b2400c6f7562b3372da1786a", "lat": 38.88293183333333, "fusion_lon": 0.0, "fusion_lat": 0.0, "type": "electric_scooter", "name": "773a3735b2400c6f7562b3372da1786a", "is_disabled": 0, "rental_uris": {"ios": "https://dc.lft.to/lastmile_qr_scan", "android": "https://dc.lft.to/lastmile_qr_scan"}, "is_reserved": 0}, {"lon": -76.99898016666667, "bike_id": "5e51363c0aa8aa3fb98cfb3cd6c53a53", "lat": 38.90956383333334, "fusion_lon": 0.0, "fusion_lat": 0.0, "type": "electric_scooter", "name": "5e51363c0aa8aa3fb98cfb3cd6c53a53", "is_disabled": 0, "rental_uris": {"ios": "https://dc.lft.to/lastmile_qr_scan", "android": "https://dc.lft.to/lastmile_qr_scan"}, "is_reserved": 0}, {"lon": -76.93645, "bike_id": "38118ff7a60ab462ffd8eeee7e415df8", "lat": 38.900617833333335, "fusion_lon": 0.0, "fusion_lat": 0.0, "type": "electric_scooter", "name": "38118ff7a60ab462ffd8eeee7e415df8", "is_disabled": 0, "rental_uris": {"ios": "https://dc.lft.to/lastmile_qr_scan", "android": "https://dc.lft.to/lastmile_qr_scan"}, "is_reserved": 0}, {"lon": -76.99931083333334, "bike_id": "5a3f456c37cfc14c9fbb7a0287c48a54", "lat": 38.843103, "fusion_lon": 0.0, "fusion_lat": 0.0, "type": "electric_scooter", "name": "5a3f456c37cfc14c9fbb7a0287c48a54", "is_disabled": 0, "rental_uris": {"ios": "https://dc.lft.to/lastmile_qr_scan", "android": "https://dc.lft.to/lastmile_qr_scan"}, "is_reserved": 0}, {"lon": -77.024346, "bike_id": "8c973bcdc40eb8ecda10fec6b0d892e3", "lat": 38.937488333333334, "fusion_lon": 0.0, "fusion_lat": 0.0, "type": "electric_scooter", "name": "8c973bcdc40eb8ecda10fec6b0d892e3", "is_disabled": 0, "rental_uris": {"ios": "https://dc.lft.to/lastmile_qr_scan", "android": "https://dc.lft.to/lastmile_qr_scan"}, "is_reserved": 0}, {"lon": -76.95747, "bike_id": "c66611d33d2b00117ace8f6aea55dc2d", "lat": 38.88426966666667, "fusion_lon": 0.0, "fusion_lat": 0.0, "type": "electric_scooter", "name": "c66611d33d2b00117ace8f6aea55dc2d", "is_disabled": 0, "rental_uris": {"ios": "https://dc.lft.to/lastmile_qr_scan", "android": "https://dc.lft.to/lastmile_qr_scan"}, "is_reserved": 0}, {"lon": -77.03287183333333, "bike_id": "34835fd47eb749340f683c46038fab37", "lat": 38.956511666666664, "fusion_lon": 0.0, "fusion_lat": 0.0, "type": "electric_scooter", "name": "34835fd47eb749340f683c46038fab37", "is_disabled": 0, "rental_uris": {"ios": "https://dc.lft.to/lastmile_qr_scan", "android": "https://dc.lft.to/lastmile_qr_scan"}, "is_reserved": 0}, {"lon": -77.04053366666666, "bike_id": "bf894d2a998b8b8ebea5b5da5e74f5fc", "lat": 38.889905166666665, "fusion_lon": 0.0, "fusion_lat": 0.0, "type": "electric_scooter", "name": "bf894d2a998b8b8ebea5b5da5e74f5fc", "is_disabled": 0, "rental_uris": {"ios": "https://dc.lft.to/lastmile_qr_scan", "android": "https://dc.lft.to/lastmile_qr_scan"}, "is_reserved": 0}, {"lon": -76.93012266666666, "bike_id": "dfeeecf908c4dad242f58e87b99212a9", "lat": 38.896506, "fusion_lon": 0.0, "fusion_lat": 0.0, "type": "electric_bike", "name": "dfeeecf908c4dad242f58e87b99212a9", "is_disabled": 0, "rental_uris": {"ios": "https://dc.lft.to/lastmile_qr_scan", "android": "https://dc.lft.to/lastmile_qr_scan"}, "is_reserved": 0}, {"lon": -76.87496333333333, "bike_id": "8391ec57eaa59612f39feba26c2b0474", "lat": 38.9908975, "fusion_lon": 0.0, "fusion_lat": 0.0, "type": "electric_bike", "name": "8391ec57eaa59612f39feba26c2b0474", "is_disabled": 0, "rental_uris": {"ios": "https://dc.lft.to/lastmile_qr_scan", "android": "https://dc.lft.to/lastmile_qr_scan"}, "is_reserved": 0}, {"lon": -77.03806233333333, "bike_id": "de06c4dbdb87247273f660dfab03c4c8", "lat": 38.920641, "fusion_lon": 0.0, "fusion_lat": 0.0, "type": "electric_scooter", "name": "de06c4dbdb87247273f660dfab03c4c8", "is_disabled": 0, "rental_uris": {"ios": "https://dc.lft.to/lastmile_qr_scan", "android": "https://dc.lft.to/lastmile_qr_scan"}, "is_reserved": 0}, {"lon": -76.93174866666666, "bike_id": "ca777fd77402ad42b4832aedb85f73cb", "lat": 38.898815166666665, "fusion_lon": 0.0, "fusion_lat": 0.0, "type": "electric_scooter", "name": "ca777fd77402ad42b4832aedb85f73cb", "is_disabled": 0, "rental_uris": {"ios": "https://dc.lft.to/lastmile_qr_scan", "android": "https://dc.lft.to/lastmile_qr_scan"}, "is_reserved": 0}, {"lon": -77.03420666666666, "bike_id": "ce9b92de28c20b24f3240373eadf1d76", "lat": 38.933497833333334, "fusion_lon": 0.0, "fusion_lat": 0.0, "type": "electric_scooter", "name": "ce9b92de28c20b24f3240373eadf1d76", "is_disabled": 0, "rental_uris": {"ios": "https://dc.lft.to/lastmile_qr_scan", "android": "https://dc.lft.to/lastmile_qr_scan"}, "is_reserved": 0}, {"lon": -77.01545916666667, "bike_id": "421d206b7dba16f679c96357365fa276", "lat": 38.88324033333333, "fusion_lon": 0.0, "fusion_lat": 0.0, "type": "electric_scooter", "name": "421d206b7dba16f679c96357365fa276", "is_disabled": 0, "rental_uris": {"ios": "https://dc.lft.to/lastmile_qr_scan", "android": "https://dc.lft.to/lastmile_qr_scan"}, "is_reserved": 0}, {"lon": -77.00154616666667, "bike_id": "076b3d427b733b766c91ac980f3e2363", "lat": 38.842778333333335, "fusion_lon": 0.0, "fusion_lat": 0.0, "type": "electric_scooter", "name": "076b3d427b733b766c91ac980f3e2363", "is_disabled": 0, "rental_uris": {"ios": "https://dc.lft.to/lastmile_qr_scan", "android": "https://dc.lft.to/lastmile_qr_scan"}, "is_reserved": 0}, {"lon": -76.987107, "bike_id": "79094514290127cc355963af3de10b13", "lat": 38.866966833333336, "fusion_lon": 0.0, "fusion_lat": 0.0, "type": "electric_scooter", "name": "79094514290127cc355963af3de10b13", "is_disabled": 0, "rental_uris": {"ios": "https://dc.lft.to/lastmile_qr_scan", "android": "https://dc.lft.to/lastmile_qr_scan"}, "is_reserved": 0}, {"lon": -77.00323216666666, "bike_id": "869ad6d31b0332bae6421706de67c602", "lat": 38.919763, "fusion_lon": 0.0, "fusion_lat": 0.0, "type": "electric_bike", "name": "869ad6d31b0332bae6421706de67c602", "is_disabled": 0, "rental_uris": {"ios": "https://dc.lft.to/lastmile_qr_scan", "android": "https://dc.lft.to/lastmile_qr_scan"}, "is_reserved": 0}, {"lon": -77.019823, "bike_id": "bc5048f46904745c2cc3e5c5922e70dd", "lat": 38.96027933333333, "fusion_lon": 0.0, "fusion_lat": 0.0, "type": "electric_scooter", "name": "bc5048f46904745c2cc3e5c5922e70dd", "is_disabled": 0, "rental_uris": {"ios": "https://dc.lft.to/lastmile_qr_scan", "android": "https://dc.lft.to/lastmile_qr_scan"}, "is_reserved": 0}, {"lon": -77.0088305, "bike_id": "3876c8bf3a1523744e91a3cb8a68be18", "lat": 38.917913166666665, "fusion_lon": 0.0, "fusion_lat": 0.0, "type": "electric_scooter", "name": "3876c8bf3a1523744e91a3cb8a68be18", "is_disabled": 0, "rental_uris": {"ios": "https://dc.lft.to/lastmile_qr_scan", "android": "https://dc.lft.to/lastmile_qr_scan"}, "is_reserved": 0}, {"lon": -76.98755366666667, "bike_id": "36f497202389619c2a9c15a6916aae06", "lat": 38.90381716666667, "fusion_lon": 0.0, "fusion_lat": 0.0, "type": "electric_scooter", "name": "36f497202389619c2a9c15a6916aae06", "is_disabled": 0, "rental_uris": {"ios": "https://dc.lft.to/lastmile_qr_scan", "android": "https://dc.lft.to/lastmile_qr_scan"}, "is_reserved": 0}, {"lon": -76.991842, "bike_id": "d184364075d1db24d55690257ba412ed", "lat": 38.908363, "fusion_lon": 0.0, "fusion_lat": 0.0, "type": "electric_scooter", "name": "d184364075d1db24d55690257ba412ed", "is_disabled": 0, "rental_uris": {"ios": "https://dc.lft.to/lastmile_qr_scan", "android": "https://dc.lft.to/lastmile_qr_scan"}, "is_reserved": 0}, {"lon": -77.03288416666666, "bike_id": "c198bceeab938e9fd327e829eaf1ce9d", "lat": 38.92550383333333, "fusion_lon": 0.0, "fusion_lat": 0.0, "type": "electric_scooter", "name": "c198bceeab938e9fd327e829eaf1ce9d", "is_disabled": 0, "rental_uris": {"ios": "https://dc.lft.to/lastmile_qr_scan", "android": "https://dc.lft.to/lastmile_qr_scan"}, "is_reserved": 0}, {"lon": -76.93179616666667, "bike_id": "a9247c16bab07f99e1c4f823a6b020e6", "lat": 38.8988155, "fusion_lon": 0.0, "fusion_lat": 0.0, "type": "electric_scooter", "name": "a9247c16bab07f99e1c4f823a6b020e6", "is_disabled": 0, "rental_uris": {"ios": "https://dc.lft.to/lastmile_qr_scan", "android": "https://dc.lft.to/lastmile_qr_scan"}, "is_reserved": 0}, {"lon": -77.02152983333333, "bike_id": "ebfd43591efd1c1561b35ae6e8884e47", "lat": 38.89495383333333, "fusion_lon": 0.0, "fusion_lat": 0.0, "type": "electric_scooter", "name": "ebfd43591efd1c1561b35ae6e8884e47", "is_disabled": 0, "rental_uris": {"ios": "https://dc.lft.to/lastmile_qr_scan", "android": "https://dc.lft.to/lastmile_qr_scan"}, "is_reserved": 0}, {"lon": -77.04324266666667, "bike_id": "ec8df5172fa3f7704b06e4cb54e6ba76", "lat": 38.918746, "fusion_lon": 0.0, "fusion_lat": 0.0, "type": "electric_scooter", "name": "ec8df5172fa3f7704b06e4cb54e6ba76", "is_disabled": 0, "rental_uris": {"ios": "https://dc.lft.to/lastmile_qr_scan", "android": "https://dc.lft.to/lastmile_qr_scan"}, "is_reserved": 0}, {"lon": -77.0305935, "bike_id": "8e5cc64c827d5fc173f21387a66ff6e3", "lat": 38.938752, "fusion_lon": 0.0, "fusion_lat": 0.0, "type": "electric_scooter", "name": "8e5cc64c827d5fc173f21387a66ff6e3", "is_disabled": 0, "rental_uris": {"ios": "https://dc.lft.to/lastmile_qr_scan", "android": "https://dc.lft.to/lastmile_qr_scan"}, "is_reserved": 0}, {"lon": -77.01418716666667, "bike_id": "cac1a779880a6ed78af314a648490da0", "lat": 38.928381333333334, "fusion_lon": 0.0, "fusion_lat": 0.0, "type": "electric_scooter", "name": "cac1a779880a6ed78af314a648490da0", "is_disabled": 0, "rental_uris": {"ios": "https://dc.lft.to/lastmile_qr_scan", "android": "https://dc.lft.to/lastmile_qr_scan"}, "is_reserved": 0}, {"lon": -77.02813033333334, "bike_id": "4bfd0cbde9fdc769289d4b2d5fee4175", "lat": 38.9391195, "fusion_lon": 0.0, "fusion_lat": 0.0, "type": "electric_scooter", "name": "4bfd0cbde9fdc769289d4b2d5fee4175", "is_disabled": 0, "rental_uris": {"ios": "https://dc.lft.to/lastmile_qr_scan", "android": "https://dc.lft.to/lastmile_qr_scan"}, "is_reserved": 0}, {"lon": -76.987104, "bike_id": "b8ff01ae7ea7abc470b8b7d82d725d04", "lat": 38.86701333333333, "fusion_lon": 0.0, "fusion_lat": 0.0, "type": "electric_scooter", "name": "b8ff01ae7ea7abc470b8b7d82d725d04", "is_disabled": 0, "rental_uris": {"ios": "https://dc.lft.to/lastmile_qr_scan", "android": "https://dc.lft.to/lastmile_qr_scan"}, "is_reserved": 0}, {"lon": -77.03193016666667, "bike_id": "9a52e9f69c47779185a0aa3d5ae63773", "lat": 38.884113166666666, "fusion_lon": 0.0, "fusion_lat": 0.0, "type": "electric_scooter", "name": "9a52e9f69c47779185a0aa3d5ae63773", "is_disabled": 0, "rental_uris": {"ios": "https://dc.lft.to/lastmile_qr_scan", "android": "https://dc.lft.to/lastmile_qr_scan"}, "is_reserved": 0}, {"lon": -77.03181833333333, "bike_id": "a3db933b502b9daca99acf674f57992a", "lat": 38.88731633333333, "fusion_lon": 0.0, "fusion_lat": 0.0, "type": "electric_scooter", "name": "a3db933b502b9daca99acf674f57992a", "is_disabled": 0, "rental_uris": {"ios": "https://dc.lft.to/lastmile_qr_scan", "android": "https://dc.lft.to/lastmile_qr_scan"}, "is_reserved": 0}, {"lon": -77.02680633333334, "bike_id": "f0a9523ee4560e7d4c55f2616a76a336", "lat": 38.984871, "fusion_lon": 0.0, "fusion_lat": 0.0, "type": "electric_scooter", "name": "f0a9523ee4560e7d4c55f2616a76a336", "is_disabled": 0, "rental_uris": {"ios": "https://dc.lft.to/lastmile_qr_scan", "android": "https://dc.lft.to/lastmile_qr_scan"}, "is_reserved": 0}, {"lon": -77.02105983333334, "bike_id": "fbb7fb5bf57e333ca6986320ea79bd17", "lat": 38.92175533333333, "fusion_lon": 0.0, "fusion_lat": 0.0, "type": "electric_scooter", "name": "fbb7fb5bf57e333ca6986320ea79bd17", "is_disabled": 0, "rental_uris": {"ios": "https://dc.lft.to/lastmile_qr_scan", "android": "https://dc.lft.to/lastmile_qr_scan"}, "is_reserved": 0}, {"lon": -76.99068366666667, "bike_id": "9d9fe544760f3d6e3538ba38f1488f20", "lat": 38.898217, "fusion_lon": 0.0, "fusion_lat": 0.0, "type": "electric_bike", "name": "9d9fe544760f3d6e3538ba38f1488f20", "is_disabled": 0, "rental_uris": {"ios": "https://dc.lft.to/lastmile_qr_scan", "android": "https://dc.lft.to/lastmile_qr_scan"}, "is_reserved": 0}, {"lon": -76.9724555, "bike_id": "39bed104901589f8e554e30dddc68ca6", "lat": 38.90344116666667, "fusion_lon": 0.0, "fusion_lat": 0.0, "type": "electric_scooter", "name": "39bed104901589f8e554e30dddc68ca6", "is_disabled": 0, "rental_uris": {"ios": "https://dc.lft.to/lastmile_qr_scan", "android": "https://dc.lft.to/lastmile_qr_scan"}, "is_reserved": 0}, {"lon": -76.98333716666667, "bike_id": "2ef6a51bc46500a8c5f2bf5d871e2cc5", "lat": 38.89545483333333, "fusion_lon": 0.0, "fusion_lat": 0.0, "type": "electric_scooter", "name": "2ef6a51bc46500a8c5f2bf5d871e2cc5", "is_disabled": 0, "rental_uris": {"ios": "https://dc.lft.to/lastmile_qr_scan", "android": "https://dc.lft.to/lastmile_qr_scan"}, "is_reserved": 0}, {"lon": -77.01986666666667, "bike_id": "577c65eefdf48dbe347c43137ba8e47e", "lat": 38.885879833333334, "fusion_lon": 0.0, "fusion_lat": 0.0, "type": "electric_scooter", "name": "577c65eefdf48dbe347c43137ba8e47e", "is_disabled": 0, "rental_uris": {"ios": "https://dc.lft.to/lastmile_qr_scan", "android": "https://dc.lft.to/lastmile_qr_scan"}, "is_reserved": 0}, {"lon": -76.99713583333333, "bike_id": "3665425804e3eb5909d3107cc030b985", "lat": 38.89254616666667, "fusion_lon": 0.0, "fusion_lat": 0.0, "type": "electric_scooter", "name": "3665425804e3eb5909d3107cc030b985", "is_disabled": 0, "rental_uris": {"ios": "https://dc.lft.to/lastmile_qr_scan", "android": "https://dc.lft.to/lastmile_qr_scan"}, "is_reserved": 0}, {"lon": -77.02979883333333, "bike_id": "ec21aed0605d118ce2ddab4970ba17f9", "lat": 38.94520216666667, "fusion_lon": 0.0, "fusion_lat": 0.0, "type": "electric_scooter", "name": "ec21aed0605d118ce2ddab4970ba17f9", "is_disabled": 0, "rental_uris": {"ios": "https://dc.lft.to/lastmile_qr_scan", "android": "https://dc.lft.to/lastmile_qr_scan"}, "is_reserved": 0}, {"lon": -77.0228515, "bike_id": "094ff644a7db2684f01e9c7ed5272657", "lat": 38.9168795, "fusion_lon": 0.0, "fusion_lat": 0.0, "type": "electric_scooter", "name": "094ff644a7db2684f01e9c7ed5272657", "is_disabled": 0, "rental_uris": {"ios": "https://dc.lft.to/lastmile_qr_scan", "android": "https://dc.lft.to/lastmile_qr_scan"}, "is_reserved": 0}, {"lon": -77.01514466666667, "bike_id": "69c2624f3b8cd3af54ae3e2528e24bb0", "lat": 38.91873966666667, "fusion_lon": 0.0, "fusion_lat": 0.0, "type": "electric_scooter", "name": "69c2624f3b8cd3af54ae3e2528e24bb0", "is_disabled": 0, "rental_uris": {"ios": "https://dc.lft.to/lastmile_qr_scan", "android": "https://dc.lft.to/lastmile_qr_scan"}, "is_reserved": 0}, {"lon": -77.01833566666667, "bike_id": "e5906e3c90d5650a4d9732846212c881", "lat": 38.909332666666664, "fusion_lon": 0.0, "fusion_lat": 0.0, "type": "electric_scooter", "name": "e5906e3c90d5650a4d9732846212c881", "is_disabled": 0, "rental_uris": {"ios": "https://dc.lft.to/lastmile_qr_scan", "android": "https://dc.lft.to/lastmile_qr_scan"}, "is_reserved": 0}, {"lon": -77.04888333333334, "bike_id": "5b06a7c8f3c0271498bed0e653c363cf", "lat": 38.905994666666665, "fusion_lon": 0.0, "fusion_lat": 0.0, "type": "electric_scooter", "name": "5b06a7c8f3c0271498bed0e653c363cf", "is_disabled": 0, "rental_uris": {"ios": "https://dc.lft.to/lastmile_qr_scan", "android": "https://dc.lft.to/lastmile_qr_scan"}, "is_reserved": 0}, {"lon": -77.01707733333333, "bike_id": "f90cfecbd24fc34a1a9cc02acf69493a", "lat": 38.904532833333334, "fusion_lon": 0.0, "fusion_lat": 0.0, "type": "electric_scooter", "name": "f90cfecbd24fc34a1a9cc02acf69493a", "is_disabled": 0, "rental_uris": {"ios": "https://dc.lft.to/lastmile_qr_scan", "android": "https://dc.lft.to/lastmile_qr_scan"}, "is_reserved": 0}, {"lon": -77.03268966666667, "bike_id": "9155376a5530714347a1d6e5827ad6be", "lat": 38.91996783333333, "fusion_lon": 0.0, "fusion_lat": 0.0, "type": "electric_scooter", "name": "9155376a5530714347a1d6e5827ad6be", "is_disabled": 0, "rental_uris": {"ios": "https://dc.lft.to/lastmile_qr_scan", "android": "https://dc.lft.to/lastmile_qr_scan"}, "is_reserved": 0}, {"lon": -77.03854483333333, "bike_id": "18e708ac47d79573f459c453499d1bcb", "lat": 38.9166345, "fusion_lon": 0.0, "fusion_lat": 0.0, "type": "electric_scooter", "name": "18e708ac47d79573f459c453499d1bcb", "is_disabled": 0, "rental_uris": {"ios": "https://dc.lft.to/lastmile_qr_scan", "android": "https://dc.lft.to/lastmile_qr_scan"}, "is_reserved": 0}, {"lon": -77.03815316666666, "bike_id": "1f6e62d112c30134c2b7d47ef18185d4", "lat": 38.90964983333333, "fusion_lon": 0.0, "fusion_lat": 0.0, "type": "electric_scooter", "name": "1f6e62d112c30134c2b7d47ef18185d4", "is_disabled": 0, "rental_uris": {"ios": "https://dc.lft.to/lastmile_qr_scan", "android": "https://dc.lft.to/lastmile_qr_scan"}, "is_reserved": 0}, {"lon": -77.05928516666667, "bike_id": "9ee83ad90b1f06b1c85cee3c783f90c3", "lat": 38.86245666666667, "fusion_lon": 0.0, "fusion_lat": 0.0, "type": "electric_scooter", "name": "9ee83ad90b1f06b1c85cee3c783f90c3", "is_disabled": 0, "rental_uris": {"ios": "https://dc.lft.to/lastmile_qr_scan", "android": "https://dc.lft.to/lastmile_qr_scan"}, "is_reserved": 0}, {"lon": -77.035183, "bike_id": "d6c35bb78c51eed99acea61ea7a7d83e", "lat": 38.92338183333333, "fusion_lon": 0.0, "fusion_lat": 0.0, "type": "electric_scooter", "name": "d6c35bb78c51eed99acea61ea7a7d83e", "is_disabled": 0, "rental_uris": {"ios": "https://dc.lft.to/lastmile_qr_scan", "android": "https://dc.lft.to/lastmile_qr_scan"}, "is_reserved": 0}, {"lon": -77.0320885, "bike_id": "7d6cf77ef0eeb6cc9728ded0886a71fa", "lat": 38.919034, "fusion_lon": 0.0, "fusion_lat": 0.0, "type": "electric_scooter", "name": "7d6cf77ef0eeb6cc9728ded0886a71fa", "is_disabled": 0, "rental_uris": {"ios": "https://dc.lft.to/lastmile_qr_scan", "android": "https://dc.lft.to/lastmile_qr_scan"}, "is_reserved": 0}, {"lon": -77.0293155, "bike_id": "daba1e96967e7f587947f78961b2d4ca", "lat": 38.92081666666667, "fusion_lon": 0.0, "fusion_lat": 0.0, "type": "electric_scooter", "name": "daba1e96967e7f587947f78961b2d4ca", "is_disabled": 0, "rental_uris": {"ios": "https://dc.lft.to/lastmile_qr_scan", "android": "https://dc.lft.to/lastmile_qr_scan"}, "is_reserved": 0}, {"lon": -77.00838683333333, "bike_id": "f71a12101f0bf12a93b2578fcee180c6", "lat": 38.91625033333333, "fusion_lon": 0.0, "fusion_lat": 0.0, "type": "electric_scooter", "name": "f71a12101f0bf12a93b2578fcee180c6", "is_disabled": 0, "rental_uris": {"ios": "https://dc.lft.to/lastmile_qr_scan", "android": "https://dc.lft.to/lastmile_qr_scan"}, "is_reserved": 0}, {"lon": -76.9890235, "bike_id": "004de9c9b5ceff0479ffaff19bb854da", "lat": 38.91347583333334, "fusion_lon": 0.0, "fusion_lat": 0.0, "type": "electric_scooter", "name": "004de9c9b5ceff0479ffaff19bb854da", "is_disabled": 0, "rental_uris": {"ios": "https://dc.lft.to/lastmile_qr_scan", "android": "https://dc.lft.to/lastmile_qr_scan"}, "is_reserved": 0}, {"lon": -77.001231, "bike_id": "86ee7502cb43136404dcee9b4fe583d9", "lat": 38.9050065, "fusion_lon": 0.0, "fusion_lat": 0.0, "type": "electric_scooter", "name": "86ee7502cb43136404dcee9b4fe583d9", "is_disabled": 0, "rental_uris": {"ios": "https://dc.lft.to/lastmile_qr_scan", "android": "https://dc.lft.to/lastmile_qr_scan"}, "is_reserved": 0}, {"lon": -77.05339833333333, "bike_id": "420f9f55876fefb753114297c1217fac", "lat": 38.90197466666667, "fusion_lon": 0.0, "fusion_lat": 0.0, "type": "electric_scooter", "name": "420f9f55876fefb753114297c1217fac", "is_disabled": 0, "rental_uris": {"ios": "https://dc.lft.to/lastmile_qr_scan", "android": "https://dc.lft.to/lastmile_qr_scan"}, "is_reserved": 0}, {"lon": -77.035267, "bike_id": "74bb03bbf1f9238b6b75783af27bd7cb", "lat": 38.92730983333333, "fusion_lon": 0.0, "fusion_lat": 0.0, "type": "electric_scooter", "name": "74bb03bbf1f9238b6b75783af27bd7cb", "is_disabled": 0, "rental_uris": {"ios": "https://dc.lft.to/lastmile_qr_scan", "android": "https://dc.lft.to/lastmile_qr_scan"}, "is_reserved": 0}, {"lon": -77.0261115, "bike_id": "2127227e1877559a7295774062631fac", "lat": 38.925792, "fusion_lon": 0.0, "fusion_lat": 0.0, "type": "electric_scooter", "name": "2127227e1877559a7295774062631fac", "is_disabled": 0, "rental_uris": {"ios": "https://dc.lft.to/lastmile_qr_scan", "android": "https://dc.lft.to/lastmile_qr_scan"}, "is_reserved": 0}, {"lon": -77.031317, "bike_id": "f87a2c4ae0ad3e65d521bd331890f2ca", "lat": 38.91760816666667, "fusion_lon": 0.0, "fusion_lat": 0.0, "type": "electric_scooter", "name": "f87a2c4ae0ad3e65d521bd331890f2ca", "is_disabled": 0, "rental_uris": {"ios": "https://dc.lft.to/lastmile_qr_scan", "android": "https://dc.lft.to/lastmile_qr_scan"}, "is_reserved": 0}, {"lon": -77.0298215, "bike_id": "6d256cefc2770719f8f35052c86d5e7d", "lat": 38.92906966666666, "fusion_lon": 0.0, "fusion_lat": 0.0, "type": "electric_scooter", "name": "6d256cefc2770719f8f35052c86d5e7d", "is_disabled": 0, "rental_uris": {"ios": "https://dc.lft.to/lastmile_qr_scan", "android": "https://dc.lft.to/lastmile_qr_scan"}, "is_reserved": 0}, {"lon": -77.01189633333334, "bike_id": "0400ddf5ecc1a0c6dbdbceb87858f193", "lat": 38.90009883333333, "fusion_lon": 0.0, "fusion_lat": 0.0, "type": "electric_scooter", "name": "0400ddf5ecc1a0c6dbdbceb87858f193", "is_disabled": 0, "rental_uris": {"ios": "https://dc.lft.to/lastmile_qr_scan", "android": "https://dc.lft.to/lastmile_qr_scan"}, "is_reserved": 0}, {"lon": -77.01725166666667, "bike_id": "69640b591bd956e234e3364db984d794", "lat": 38.90564666666667, "fusion_lon": 0.0, "fusion_lat": 0.0, "type": "electric_scooter", "name": "69640b591bd956e234e3364db984d794", "is_disabled": 0, "rental_uris": {"ios": "https://dc.lft.to/lastmile_qr_scan", "android": "https://dc.lft.to/lastmile_qr_scan"}, "is_reserved": 0}, {"lon": -77.0182605, "bike_id": "472085f1034a67d54f15070e84f7f61f", "lat": 38.900867, "fusion_lon": 0.0, "fusion_lat": 0.0, "type": "electric_scooter", "name": "472085f1034a67d54f15070e84f7f61f", "is_disabled": 0, "rental_uris": {"ios": "https://dc.lft.to/lastmile_qr_scan", "android": "https://dc.lft.to/lastmile_qr_scan"}, "is_reserved": 0}, {"lon": -77.03473516666666, "bike_id": "8bb0c00d865af4eb17463412fbaf1882", "lat": 38.90768683333334, "fusion_lon": 0.0, "fusion_lat": 0.0, "type": "electric_scooter", "name": "8bb0c00d865af4eb17463412fbaf1882", "is_disabled": 0, "rental_uris": {"ios": "https://dc.lft.to/lastmile_qr_scan", "android": "https://dc.lft.to/lastmile_qr_scan"}, "is_reserved": 0}, {"lon": -77.035858, "bike_id": "2c2b41870a3b66ece715b639cbc08f40", "lat": 38.99226783333334, "fusion_lon": 0.0, "fusion_lat": 0.0, "type": "electric_scooter", "name": "2c2b41870a3b66ece715b639cbc08f40", "is_disabled": 0, "rental_uris": {"ios": "https://dc.lft.to/lastmile_qr_scan", "android": "https://dc.lft.to/lastmile_qr_scan"}, "is_reserved": 0}, {"lon": -76.97825816666666, "bike_id": "6bd03af926833a378b8728bfbdd35d50", "lat": 38.84371316666667, "fusion_lon": 0.0, "fusion_lat": 0.0, "type": "electric_bike", "name": "6bd03af926833a378b8728bfbdd35d50", "is_disabled": 0, "rental_uris": {"ios": "https://dc.lft.to/lastmile_qr_scan", "android": "https://dc.lft.to/lastmile_qr_scan"}, "is_reserved": 0}, {"lon": -77.02980416666666, "bike_id": "80a5f5fe68a8c241b4919869ac2da22c", "lat": 38.93502266666667, "fusion_lon": 0.0, "fusion_lat": 0.0, "type": "electric_scooter", "name": "80a5f5fe68a8c241b4919869ac2da22c", "is_disabled": 0, "rental_uris": {"ios": "https://dc.lft.to/lastmile_qr_scan", "android": "https://dc.lft.to/lastmile_qr_scan"}, "is_reserved": 0}, {"lon": -77.02288483333334, "bike_id": "cf4b9b797b0ab1c1fed55b0746435395", "lat": 38.90901183333333, "fusion_lon": 0.0, "fusion_lat": 0.0, "type": "electric_scooter", "name": "cf4b9b797b0ab1c1fed55b0746435395", "is_disabled": 0, "rental_uris": {"ios": "https://dc.lft.to/lastmile_qr_scan", "android": "https://dc.lft.to/lastmile_qr_scan"}, "is_reserved": 0}, {"lon": -77.08332416666667, "bike_id": "c89850108ba173396cf7dc562f83a144", "lat": 38.854394, "fusion_lon": 0.0, "fusion_lat": 0.0, "type": "electric_bike", "name": "c89850108ba173396cf7dc562f83a144", "is_disabled": 0, "rental_uris": {"ios": "https://dc.lft.to/lastmile_qr_scan", "android": "https://dc.lft.to/lastmile_qr_scan"}, "is_reserved": 0}, {"lon": -77.03520883333333, "bike_id": "df50e81e24f7602e29aaad58ea232fff", "lat": 38.92196766666667, "fusion_lon": 0.0, "fusion_lat": 0.0, "type": "electric_scooter", "name": "df50e81e24f7602e29aaad58ea232fff", "is_disabled": 0, "rental_uris": {"ios": "https://dc.lft.to/lastmile_qr_scan", "android": "https://dc.lft.to/lastmile_qr_scan"}, "is_reserved": 0}, {"lon": -77.002019, "bike_id": "06b3fc27c10e88c44e42ec889e150fcc", "lat": 38.902415833333336, "fusion_lon": 0.0, "fusion_lat": 0.0, "type": "electric_scooter", "name": "06b3fc27c10e88c44e42ec889e150fcc", "is_disabled": 0, "rental_uris": {"ios": "https://dc.lft.to/lastmile_qr_scan", "android": "https://dc.lft.to/lastmile_qr_scan"}, "is_reserved": 0}, {"lon": -77.02745016666667, "bike_id": "f00ba1f601fa984a068be7009239df9b", "lat": 38.941803666666665, "fusion_lon": 0.0, "fusion_lat": 0.0, "type": "electric_scooter", "name": "f00ba1f601fa984a068be7009239df9b", "is_disabled": 0, "rental_uris": {"ios": "https://dc.lft.to/lastmile_qr_scan", "android": "https://dc.lft.to/lastmile_qr_scan"}, "is_reserved": 0}, {"lon": -77.0305075, "bike_id": "c73479c46978180d46322505ed433785", "lat": 38.88413883333333, "fusion_lon": 0.0, "fusion_lat": 0.0, "type": "electric_scooter", "name": "c73479c46978180d46322505ed433785", "is_disabled": 0, "rental_uris": {"ios": "https://dc.lft.to/lastmile_qr_scan", "android": "https://dc.lft.to/lastmile_qr_scan"}, "is_reserved": 0}, {"lon": -76.99641683333333, "bike_id": "4a9ce06a9eb302123e1440b0d7431cd9", "lat": 38.90017616666667, "fusion_lon": 0.0, "fusion_lat": 0.0, "type": "electric_scooter", "name": "4a9ce06a9eb302123e1440b0d7431cd9", "is_disabled": 0, "rental_uris": {"ios": "https://dc.lft.to/lastmile_qr_scan", "android": "https://dc.lft.to/lastmile_qr_scan"}, "is_reserved": 0}, {"lon": -77.0447885, "bike_id": "850718ba784ab9b4e322a51a051f5eb0", "lat": 38.9242615, "fusion_lon": 0.0, "fusion_lat": 0.0, "type": "electric_scooter", "name": "850718ba784ab9b4e322a51a051f5eb0", "is_disabled": 0, "rental_uris": {"ios": "https://dc.lft.to/lastmile_qr_scan", "android": "https://dc.lft.to/lastmile_qr_scan"}, "is_reserved": 0}, {"lon": -77.05205183333334, "bike_id": "c95e349c36cb1c79fff3c34e4027f9c3", "lat": 38.89951416666667, "fusion_lon": 0.0, "fusion_lat": 0.0, "type": "electric_scooter", "name": "c95e349c36cb1c79fff3c34e4027f9c3", "is_disabled": 0, "rental_uris": {"ios": "https://dc.lft.to/lastmile_qr_scan", "android": "https://dc.lft.to/lastmile_qr_scan"}, "is_reserved": 0}, {"lon": -76.94878916666667, "bike_id": "e32d74631529af89678a8bc2f96c8eda", "lat": 38.89551733333333, "fusion_lon": 0.0, "fusion_lat": 0.0, "type": "electric_scooter", "name": "e32d74631529af89678a8bc2f96c8eda", "is_disabled": 0, "rental_uris": {"ios": "https://dc.lft.to/lastmile_qr_scan", "android": "https://dc.lft.to/lastmile_qr_scan"}, "is_reserved": 0}, {"lon": -77.02949333333333, "bike_id": "55765b04d874f57cf00f3521fcd384aa", "lat": 38.92371833333333, "fusion_lon": 0.0, "fusion_lat": 0.0, "type": "electric_scooter", "name": "55765b04d874f57cf00f3521fcd384aa", "is_disabled": 0, "rental_uris": {"ios": "https://dc.lft.to/lastmile_qr_scan", "android": "https://dc.lft.to/lastmile_qr_scan"}, "is_reserved": 0}, {"lon": -77.047927, "bike_id": "4c31227131c3dd79ccda0d1da105b4f9", "lat": 38.9095415, "fusion_lon": 0.0, "fusion_lat": 0.0, "type": "electric_scooter", "name": "4c31227131c3dd79ccda0d1da105b4f9", "is_disabled": 0, "rental_uris": {"ios": "https://dc.lft.to/lastmile_qr_scan", "android": "https://dc.lft.to/lastmile_qr_scan"}, "is_reserved": 0}, {"lon": -77.027947, "bike_id": "46ea5950ef9fd555ec45f5671d64aad7", "lat": 38.929674166666665, "fusion_lon": 0.0, "fusion_lat": 0.0, "type": "electric_scooter", "name": "46ea5950ef9fd555ec45f5671d64aad7", "is_disabled": 0, "rental_uris": {"ios": "https://dc.lft.to/lastmile_qr_scan", "android": "https://dc.lft.to/lastmile_qr_scan"}, "is_reserved": 0}, {"lon": -76.9335395, "bike_id": "dcdcf1c70ffba8fa78ed1f7030ad7141", "lat": 38.887929666666665, "fusion_lon": 0.0, "fusion_lat": 0.0, "type": "electric_scooter", "name": "dcdcf1c70ffba8fa78ed1f7030ad7141", "is_disabled": 0, "rental_uris": {"ios": "https://dc.lft.to/lastmile_qr_scan", "android": "https://dc.lft.to/lastmile_qr_scan"}, "is_reserved": 0}, {"lon": -77.0425705, "bike_id": "97526e6ac04d5b4f38062a6d0b9ab47b", "lat": 38.9071075, "fusion_lon": 0.0, "fusion_lat": 0.0, "type": "electric_scooter", "name": "97526e6ac04d5b4f38062a6d0b9ab47b", "is_disabled": 0, "rental_uris": {"ios": "https://dc.lft.to/lastmile_qr_scan", "android": "https://dc.lft.to/lastmile_qr_scan"}, "is_reserved": 0}, {"lon": -77.03288366666666, "bike_id": "c10c438987636de152811dca246c3cd5", "lat": 38.932559166666664, "fusion_lon": 0.0, "fusion_lat": 0.0, "type": "electric_scooter", "name": "c10c438987636de152811dca246c3cd5", "is_disabled": 0, "rental_uris": {"ios": "https://dc.lft.to/lastmile_qr_scan", "android": "https://dc.lft.to/lastmile_qr_scan"}, "is_reserved": 0}, {"lon": -77.0100445, "bike_id": "a91ab7efd88b507d8cc2c7c20c951476", "lat": 38.91925483333333, "fusion_lon": 0.0, "fusion_lat": 0.0, "type": "electric_scooter", "name": "a91ab7efd88b507d8cc2c7c20c951476", "is_disabled": 0, "rental_uris": {"ios": "https://dc.lft.to/lastmile_qr_scan", "android": "https://dc.lft.to/lastmile_qr_scan"}, "is_reserved": 0}, {"lon": -77.025135, "bike_id": "1066d5e18e5caa9acca784c87e021d64", "lat": 38.93097816666667, "fusion_lon": 0.0, "fusion_lat": 0.0, "type": "electric_scooter", "name": "1066d5e18e5caa9acca784c87e021d64", "is_disabled": 0, "rental_uris": {"ios": "https://dc.lft.to/lastmile_qr_scan", "android": "https://dc.lft.to/lastmile_qr_scan"}, "is_reserved": 0}, {"lon": -77.0723365, "bike_id": "0e6a79662f6fb3ac401d225f9bfa3e95", "lat": 38.89904116666666, "fusion_lon": 0.0, "fusion_lat": 0.0, "type": "electric_scooter", "name": "0e6a79662f6fb3ac401d225f9bfa3e95", "is_disabled": 0, "rental_uris": {"ios": "https://dc.lft.to/lastmile_qr_scan", "android": "https://dc.lft.to/lastmile_qr_scan"}, "is_reserved": 0}, {"lon": -77.04910383333333, "bike_id": "e52b5e921e01d2121157542cd375389f", "lat": 38.908549, "fusion_lon": 0.0, "fusion_lat": 0.0, "type": "electric_scooter", "name": "e52b5e921e01d2121157542cd375389f", "is_disabled": 0, "rental_uris": {"ios": "https://dc.lft.to/lastmile_qr_scan", "android": "https://dc.lft.to/lastmile_qr_scan"}, "is_reserved": 0}, {"lon": -77.02308016666667, "bike_id": "3a024d821a075b60a282b293e5ee93dc", "lat": 38.942010333333336, "fusion_lon": 0.0, "fusion_lat": 0.0, "type": "electric_scooter", "name": "3a024d821a075b60a282b293e5ee93dc", "is_disabled": 0, "rental_uris": {"ios": "https://dc.lft.to/lastmile_qr_scan", "android": "https://dc.lft.to/lastmile_qr_scan"}, "is_reserved": 0}, {"lon": -77.00047416666666, "bike_id": "24d39a4fa9df957a54f16ef7aef9f340", "lat": 38.92395166666667, "fusion_lon": 0.0, "fusion_lat": 0.0, "type": "electric_scooter", "name": "24d39a4fa9df957a54f16ef7aef9f340", "is_disabled": 0, "rental_uris": {"ios": "https://dc.lft.to/lastmile_qr_scan", "android": "https://dc.lft.to/lastmile_qr_scan"}, "is_reserved": 0}, {"lon": -77.03177166666667, "bike_id": "216d3ee4eaab85b2c452f0d3a746721c", "lat": 38.8922265, "fusion_lon": 0.0, "fusion_lat": 0.0, "type": "electric_scooter", "name": "216d3ee4eaab85b2c452f0d3a746721c", "is_disabled": 0, "rental_uris": {"ios": "https://dc.lft.to/lastmile_qr_scan", "android": "https://dc.lft.to/lastmile_qr_scan"}, "is_reserved": 0}, {"lon": -77.05725183333334, "bike_id": "eac2e13d4464edd5098f4275b1e35399", "lat": 38.933652, "fusion_lon": 0.0, "fusion_lat": 0.0, "type": "electric_scooter", "name": "eac2e13d4464edd5098f4275b1e35399", "is_disabled": 0, "rental_uris": {"ios": "https://dc.lft.to/lastmile_qr_scan", "android": "https://dc.lft.to/lastmile_qr_scan"}, "is_reserved": 0}, {"lon": -76.9982725, "bike_id": "15e20d8f97d5e601576c00878fdd2e45", "lat": 38.900001833333334, "fusion_lon": 0.0, "fusion_lat": 0.0, "type": "electric_scooter", "name": "15e20d8f97d5e601576c00878fdd2e45", "is_disabled": 0, "rental_uris": {"ios": "https://dc.lft.to/lastmile_qr_scan", "android": "https://dc.lft.to/lastmile_qr_scan"}, "is_reserved": 0}, {"lon": -77.0481085, "bike_id": "61544b54c1f4a892fec0b2a48b72b31e", "lat": 38.8973475, "fusion_lon": 0.0, "fusion_lat": 0.0, "type": "electric_scooter", "name": "61544b54c1f4a892fec0b2a48b72b31e", "is_disabled": 0, "rental_uris": {"ios": "https://dc.lft.to/lastmile_qr_scan", "android": "https://dc.lft.to/lastmile_qr_scan"}, "is_reserved": 0},