{"data": {"bikes": [{"is_reserved": 0, "fusion_lon": 0.0, "fusion_lat": 0.0, "name": "3e2e733cd751166131b9251c01cb2c20", "type": "electric_scooter", "is_disabled": 0, "lat": 38.930663, "rental_uris": {"android": "https://dc.lft.to/lastmile_qr_scan", "ios": "https://dc.lft.to/lastmile_qr_scan"}, "bike_id": "3e2e733cd751166131b9251c01cb2c20", "lon": -77.0394025}, {"is_reserved": 0, "fusion_lon": 0.0, "fusion_lat": 0.0, "name": "7c4fd229a0462faa2fdd4b6572208349", "type": "electric_scooter", "is_disabled": 0, "lat": 38.91704716666667, "rental_uris": {"android": "https://dc.lft.to/lastmile_qr_scan", "ios": "https://dc.lft.to/lastmile_qr_scan"}, "bike_id": "7c4fd229a0462faa2fdd4b6572208349", "lon": -77.03110716666667}, {"is_reserved": 0, "fusion_lon": 0.0, "fusion_lat": 0.0, "name": "ec98e6f52c14aef1de4db6f68c930dcc", "type": "electric_scooter", "is_disabled": 0, "lat": 38.87645283333333, "rental_uris": {"android": "https://dc.lft.to/lastmile_qr_scan", "ios": "https://dc.lft.to/lastmile_qr_scan"}, "bike_id": "ec98e6f52c14aef1de4db6f68c930dcc", "lon": -77.005215}, {"is_reserved": 0, "fusion_lon": 0.0, "fusion_lat": 0.0, "name": "9d8574076cbad337bf1ca9a86f1af0b5", "type": "electric_scooter", "is_disabled": 0, "lat": 38.887485, "rental_uris": {"android": "https://dc.lft.to/lastmile_qr_scan", "ios": "https://dc.lft.to/lastmile_qr_scan"}, "bike_id": "9d8574076cbad337bf1ca9a86f1af0b5", "lon": -77.023896}, {"is_reserved": 0, "fusion_lon": 0.0, "fusion_lat": 0.0, "name": "661ff53c8ea0c2fed89a76dc1f833230", "type": "electric_scooter", "is_disabled": 0, "lat": 38.90738133333333, "rental_uris": {"android": "https://dc.lft.to/lastmile_qr_scan", "ios": "https://dc.lft.to/lastmile_qr_scan"}, "bike_id": "661ff53c8ea0c2fed89a76dc1f833230", "lon": -77.02974933333333}, {"is_reserved": 0, "fusion_lon": 0.0, "fusion_lat": 0.0, "name": "12dfca92995d864698ec49d01706a4ec", "type": "electric_scooter", "is_disabled": 0, "lat": 38.910309, "rental_uris": {"android": "https://dc.lft.to/lastmile_qr_scan", "ios": "https://dc.lft.to/lastmile_qr_scan"}, "bike_id": "12dfca92995d864698ec49d01706a4ec", "lon": -77.03441683333334}, {"is_reserved": 0, "fusion_lon": 0.0, "fusion_lat": 0.0, "name": "5ffa900ecc2f70627e281c916bc718bf", "type": "electric_scooter", "is_disabled": 0, "lat": 38.9183545, "rental_uris": {"android": "https://dc.lft.to/lastmile_qr_scan", "ios": "https://dc.lft.to/lastmile_qr_scan"}, "bike_id": "5ffa900ecc2f70627e281c916bc718bf", "lon": -77.02463533333334}, {"is_reserved": 0, "fusion_lon": 0.0, "fusion_lat": 0.0, "name": "0154e5fc5f17205b729f77f019133e80", "type": "electric_bike", "is_disabled": 0, "lat": 38.85442666666667, "rental_uris": {"android": "https://dc.lft.to/lastmile_qr_scan", "ios": "https://dc.lft.to/lastmile_qr_scan"}, "bike_id": "0154e5fc5f17205b729f77f019133e80", "lon": -77.08326583333333}, {"is_reserved": 0, "fusion_lon": 0.0, "fusion_lat": 0.0, "name": "dcb9101a583eecd2d37c9dcae6c08da9", "type": "electric_scooter", "is_disabled": 0, "lat": 38.937679333333335, "rental_uris": {"android": "https://dc.lft.to/lastmile_qr_scan", "ios": "https://dc.lft.to/lastmile_qr_scan"}, "bike_id": "dcb9101a583eecd2d37c9dcae6c08da9", "lon": -77.01969966666667}, {"is_reserved": 0, "fusion_lon": 0.0, "fusion_lat": 0.0, "name": "b58d2e34f45768db4802f40e6e24c21f", "type": "electric_scooter", "is_disabled": 0, "lat": 38.8754235, "rental_uris": {"android": "https://dc.lft.to/lastmile_qr_scan", "ios": "https://dc.lft.to/lastmile_qr_scan"}, "bike_id": "b58d2e34f45768db4802f40e6e24c21f", "lon": -77.0060785}, {"is_reserved": 0, "fusion_lon": 0.0, "fusion_lat": 0.0, "name": "513f1a2aed61a5c4c87cf083c131e9eb", "type": "electric_scooter", "is_disabled": 0, "lat": 38.910616, "rental_uris": {"android": "https://dc.lft.to/lastmile_qr_scan", "ios": "https://dc.lft.to/lastmile_qr_scan"}, "bike_id": "513f1a2aed61a5c4c87cf083c131e9eb", "lon": -77.029744}, {"is_reserved": 0, "fusion_lon": 0.0, "fusion_lat": 0.0, "name": "05f3b9f54d61367d395528a73a08385f", "type": "electric_scooter", "is_disabled": 0, "lat": 38.90001766666666, "rental_uris": {"android": "https://dc.lft.to/lastmile_qr_scan", "ios": "https://dc.lft.to/lastmile_qr_scan"}, "bike_id": "05f3b9f54d61367d395528a73a08385f", "lon": -76.99833616666666}, {"is_reserved": 0, "fusion_lon": 0.0, "fusion_lat": 0.0, "name": "52c4e19ff1d45231314d7bda020d0c90", "type": "electric_scooter", "is_disabled": 0, "lat": 38.90666983333333, "rental_uris": {"android": "https://dc.lft.to/lastmile_qr_scan", "ios": "https://dc.lft.to/lastmile_qr_scan"}, "bike_id": "52c4e19ff1d45231314d7bda020d0c90", "lon": -77.04127733333333}, {"is_reserved": 0, "fusion_lon": 0.0, "fusion_lat": 0.0, "name": "52696ef2efffdd002d0494d422fb9922", "type": "electric_scooter", "is_disabled": 0, "lat": 38.905733166666664, "rental_uris": {"android": "https://dc.lft.to/lastmile_qr_scan", "ios": "https://dc.lft.to/lastmile_qr_scan"}, "bike_id": "52696ef2efffdd002d0494d422fb9922", "lon": -77.00581283333334}, {"is_reserved": 0, "fusion_lon": 0.0, "fusion_lat": 0.0, "name": "fff71b235cb5a024400dfc98341103f8", "type": "electric_scooter", "is_disabled": 0, "lat": 38.90242, "rental_uris": {"android": "https://dc.lft.to/lastmile_qr_scan", "ios": "https://dc.lft.to/lastmile_qr_scan"}, "bike_id": "fff71b235cb5a024400dfc98341103f8", "lon": -76.9897045}, {"is_reserved": 0, "fusion_lon": 0.0, "fusion_lat": 0.0, "name": "8734d1f2e6d9d789d7a76eb93bb1e02e", "type": "electric_scooter", "is_disabled": 0, "lat": 38.86692033333333, "rental_uris": {"android": "https://dc.lft.to/lastmile_qr_scan", "ios": "https://dc.lft.to/lastmile_qr_scan"}, "bike_id": "8734d1f2e6d9d789d7a76eb93bb1e02e", "lon": -76.98600466666667}, {"is_reserved": 0, "fusion_lon": 0.0, "fusion_lat": 0.0, "name": "d7de490c36e77a3a00af168435a9185a", "type": "electric_scooter", "is_disabled": 0, "lat": 38.894649666666666, "rental_uris": {"android": "https://dc.lft.to/lastmile_qr_scan", "ios": "https://dc.lft.to/lastmile_qr_scan"}, "bike_id": "d7de490c36e77a3a00af168435a9185a", "lon": -77.02296616666666}, {"is_reserved": 0, "fusion_lon": 0.0, "fusion_lat": 0.0, "name": "8d082f582056ae4fe0a16e813e308a6a", "type": "electric_scooter", "is_disabled": 0, "lat": 38.915598, "rental_uris": {"android": "https://dc.lft.to/lastmile_qr_scan", "ios": "https://dc.lft.to/lastmile_qr_scan"}, "bike_id": "8d082f582056ae4fe0a16e813e308a6a", "lon": -77.0237465}, {"is_reserved": 0, "fusion_lon": 0.0, "fusion_lat": 0.0, "name": "fa46a8c9b5e2bf813ec678bf8e53256c", "type": "electric_scooter", "is_disabled": 0, "lat": 38.89877166666667, "rental_uris": {"android": "https://dc.lft.to/lastmile_qr_scan", "ios": "https://dc.lft.to/lastmile_qr_scan"}, "bike_id": "fa46a8c9b5e2bf813ec678bf8e53256c", "lon": -76.93185733333334}, {"is_reserved": 0, "fusion_lon": 0.0, "fusion_lat": 0.0, "name": "b9ab43f9aa2bc7700cf6434cda4fb0ed", "type": "electric_bike", "is_disabled": 0, "lat": 38.8428065, "rental_uris": {"android": "https://dc.lft.to/lastmile_qr_scan", "ios": "https://dc.lft.to/lastmile_qr_scan"}, "bike_id": "b9ab43f9aa2bc7700cf6434cda4fb0ed", "lon": -76.98842966666666}, {"is_reserved": 0, "fusion_lon": 0.0, "fusion_lat": 0.0, "name": "f0c27f506482a56622122ea0c9346b8b", "type": "electric_scooter", "is_disabled": 0, "lat": 38.8873885, "rental_uris": {"android": "https://dc.lft.to/lastmile_qr_scan", "ios": "https://dc.lft.to/lastmile_qr_scan"}, "bike_id": "f0c27f506482a56622122ea0c9346b8b", "lon": -77.01744766666667}, {"is_reserved": 0, "fusion_lon": 0.0, "fusion_lat": 0.0, "name": "eac901a553ee050e1f2300733212cef3", "type": "electric_scooter", "is_disabled": 0, "lat": 38.9012395, "rental_uris": {"android": "https://dc.lft.to/lastmile_qr_scan", "ios": "https://dc.lft.to/lastmile_qr_scan"}, "bike_id": "eac901a553ee050e1f2300733212cef3", "lon": -77.04012966666667}, {"is_reserved": 0, "fusion_lon": 0.0, "fusion_lat": 0.0, "name": "714ffb6071dfe58e43f5351ec25983c8", "type": "electric_scooter", "is_disabled": 0, "lat": 38.93018983333333, "rental_uris": {"android": "https://dc.lft.to/lastmile_qr_scan", "ios": "https://dc.lft.to/lastmile_qr_scan"}, "bike_id": "714ffb6071dfe58e43f5351ec25983c8", "lon": -77.05536483333333}, {"is_reserved": 0, "fusion_lon": 0.0, "fusion_lat": 0.0, "name": "4145c105e0181484618a57db195da6c3", "type": "electric_scooter", "is_disabled": 0, "lat": 38.86659683333333, "rental_uris": {"android": "https://dc.lft.to/lastmile_qr_scan", "ios": "https://dc.lft.to/lastmile_qr_scan"}, "bike_id": "4145c105e0181484618a57db195da6c3", "lon": -76.98881066666667}, {"is_reserved": 0, "fusion_lon": 0.0, "fusion_lat": 0.0, "name": "3761a5e31b619f0b4b81224c459f432a", "type": "electric_scooter", "is_disabled": 0, "lat": 38.94186583333333, "rental_uris": {"android": "https://dc.lft.to/lastmile_qr_scan", "ios": "https://dc.lft.to/lastmile_qr_scan"}, "bike_id": "3761a5e31b619f0b4b81224c459f432a", "lon": -77.024907}, {"is_reserved": 0, "fusion_lon": 0.0, "fusion_lat": 0.0, "name": "bf25a2f08c02974a6523f42e9db8c161", "type": "electric_scooter", "is_disabled": 0, "lat": 38.90273633333334, "rental_uris": {"android": "https://dc.lft.to/lastmile_qr_scan", "ios": "https://dc.lft.to/lastmile_qr_scan"}, "bike_id": "bf25a2f08c02974a6523f42e9db8c161", "lon": -77.0335625}, {"is_reserved": 0, "fusion_lon": 0.0, "fusion_lat": 0.0, "name": "70f84c2e11f8f39ac47246b7dadba0ce", "type": "electric_scooter", "is_disabled": 0, "lat": 38.90473466666667, "rental_uris": {"android": "https://dc.lft.to/lastmile_qr_scan", "ios": "https://dc.lft.to/lastmile_qr_scan"}, "bike_id": "70f84c2e11f8f39ac47246b7dadba0ce", "lon": -77.04809966666667}, {"is_reserved": 0, "fusion_lon": 0.0, "fusion_lat": 0.0, "name": "8eb7d99a5ff8b52b1f2b3cddc1f955dd", "type": "electric_bike", "is_disabled": 0, "lat": 38.99348166666667, "rental_uris": {"android": "https://dc.lft.to/lastmile_qr_scan", "ios": "https://dc.lft.to/lastmile_qr_scan"}, "bike_id": "8eb7d99a5ff8b52b1f2b3cddc1f955dd", "lon": -77.11572283333334}, {"is_reserved": 0, "fusion_lon": 0.0, "fusion_lat": 0.0, "name": "ced67c32a87f14db90b793e3c3add017", "type": "electric_scooter", "is_disabled": 0, "lat": 38.938463166666665, "rental_uris": {"android": "https://dc.lft.to/lastmile_qr_scan", "ios": "https://dc.lft.to/lastmile_qr_scan"}, "bike_id": "ced67c32a87f14db90b793e3c3add017", "lon": -77.03373966666666}, {"is_reserved": 0, "fusion_lon": 0.0, "fusion_lat": 0.0, "name": "90f6b89e408f4a6cd0ca5d3509d31412", "type": "electric_bike", "is_disabled": 0, "lat": 38.84562416666667, "rental_uris": {"android": "https://dc.lft.to/lastmile_qr_scan", "ios": "https://dc.lft.to/lastmile_qr_scan"}, "bike_id": "90f6b89e408f4a6cd0ca5d3509d31412", "lon": -77.06694266666666}, {"is_reserved": 0, "fusion_lon": 0.0, "fusion_lat": 0.0, "name": "1a15c436a683045c31f4c061bb8f2be0", "type": "electric_scooter", "is_disabled": 0, "lat": 38.8699595, "rental_uris": {"android": "https://dc.lft.to/lastmile_qr_scan", "ios": "https://dc.lft.to/lastmile_qr_scan"}, "bike_id": "1a15c436a683045c31f4c061bb8f2be0", "lon": -76.97589333333333}, {"is_reserved": 0, "fusion_lon": 0.0, "fusion_lat": 0.0, "name": "c33b40a4bbc79aff6173a062208d35eb", "type": "electric_scooter", "is_disabled": 0, "lat": 38.90555116666667, "rental_uris": {"android": "https://dc.lft.to/lastmile_qr_scan", "ios": "https://dc.lft.to/lastmile_qr_scan"}, "bike_id": "c33b40a4bbc79aff6173a062208d35eb", "lon": -77.0059825}, {"is_reserved": 0, "fusion_lon": 0.0, "fusion_lat": 0.0, "name": "292ed7f7ce69a4dc8931e3ecca79a38d", "type": "electric_scooter", "is_disabled": 0, "lat": 38.902593833333334, "rental_uris": {"android": "https://dc.lft.to/lastmile_qr_scan", "ios": "https://dc.lft.to/lastmile_qr_scan"}, "bike_id": "292ed7f7ce69a4dc8931e3ecca79a38d", "lon": -76.99551216666667}, {"is_reserved": 0, "fusion_lon": 0.0, "fusion_lat": 0.0, "name": "b5c1e13f0bcaa6dd46d027de9f547486", "type": "electric_scooter", "is_disabled": 0, "lat": 38.984604833333336, "rental_uris": {"android": "https://dc.lft.to/lastmile_qr_scan", "ios": "https://dc.lft.to/lastmile_qr_scan"}, "bike_id": "b5c1e13f0bcaa6dd46d027de9f547486", "lon": -77.0264485}, {"is_reserved": 0, "fusion_lon": 0.0, "fusion_lat": 0.0, "name": "9792522a5f72fab7aca23f4aa1395c53", "type": "electric_scooter", "is_disabled": 0, "lat": 38.91555483333333, "rental_uris": {"android": "https://dc.lft.to/lastmile_qr_scan", "ios": "https://dc.lft.to/lastmile_qr_scan"}, "bike_id": "9792522a5f72fab7aca23f4aa1395c53", "lon": -77.02046816666666}, {"is_reserved": 0, "fusion_lon": 0.0, "fusion_lat": 0.0, "name": "8b2cbc056c88ba06dae79d54db43b287", "type": "electric_scooter", "is_disabled": 0, "lat": 38.932345166666664, "rental_uris": {"android": "https://dc.lft.to/lastmile_qr_scan", "ios": "https://dc.lft.to/lastmile_qr_scan"}, "bike_id": "8b2cbc056c88ba06dae79d54db43b287", "lon": -77.03862333333333}, {"is_reserved": 0, "fusion_lon": 0.0, "fusion_lat": 0.0, "name": "49dbf209dad96dbe6b48b2787dc2deba", "type": "electric_scooter", "is_disabled": 0, "lat": 38.8782745, "rental_uris": {"android": "https://dc.lft.to/lastmile_qr_scan", "ios": "https://dc.lft.to/lastmile_qr_scan"}, "bike_id": "49dbf209dad96dbe6b48b2787dc2deba", "lon": -76.96309516666666}, {"is_reserved": 0, "fusion_lon": 0.0, "fusion_lat": 0.0, "name": "fa3bfcb0f30b69cbf82b205e623c0809", "type": "electric_scooter", "is_disabled": 0, "lat": 38.92112, "rental_uris": {"android": "https://dc.lft.to/lastmile_qr_scan", "ios": "https://dc.lft.to/lastmile_qr_scan"}, "bike_id": "fa3bfcb0f30b69cbf82b205e623c0809", "lon": -77.04098933333333}, {"is_reserved": 0, "fusion_lon": 0.0, "fusion_lat": 0.0, "name": "8d228c92bbb43989be54fb62eef74266", "type": "electric_bike", "is_disabled": 0, "lat": 39.05280616666667, "rental_uris": {"android": "https://dc.lft.to/lastmile_qr_scan", "ios": "https://dc.lft.to/lastmile_qr_scan"}, "bike_id": "8d228c92bbb43989be54fb62eef74266", "lon": -77.08070566666666}, {"is_reserved": 0, "fusion_lon": 0.0, "fusion_lat": 0.0, "name": "b8ae1fb32678ab55a75ae3f628d54c67", "type": "electric_scooter", "is_disabled": 0, "lat": 38.8872275, "rental_uris": {"android": "https://dc.lft.to/lastmile_qr_scan", "ios": "https://dc.lft.to/lastmile_qr_scan"}, "bike_id": "b8ae1fb32678ab55a75ae3f628d54c67", "lon": -77.02834416666667}, {"is_reserved": 0, "fusion_lon": 0.0, "fusion_lat": 0.0, "name": "0b3aad1525a807a8d7e19825b4463229", "type": "electric_scooter", "is_disabled": 0, "lat": 38.91117116666667, "rental_uris": {"android": "https://dc.lft.to/lastmile_qr_scan", "ios": "https://dc.lft.to/lastmile_qr_scan"}, "bike_id": "0b3aad1525a807a8d7e19825b4463229", "lon": -77.03840183333334}, {"is_reserved": 0, "fusion_lon": 0.0, "fusion_lat": 0.0, "name": "77655bee8a42f2da069d37f0f64a5f19", "type": "electric_scooter", "is_disabled": 0, "lat": 38.86657916666667, "rental_uris": {"android": "https://dc.lft.to/lastmile_qr_scan", "ios": "https://dc.lft.to/lastmile_qr_scan"}, "bike_id": "77655bee8a42f2da069d37f0f64a5f19", "lon": -76.988874}, {"is_reserved": 0, "fusion_lon": 0.0, "fusion_lat": 0.0, "name": "2c73c6f82aeb1c8b28f265b2d2aada68", "type": "electric_scooter", "is_disabled": 0, "lat": 38.917601166666664, "rental_uris": {"android": "https://dc.lft.to/lastmile_qr_scan", "ios": "https://dc.lft.to/lastmile_qr_scan"}, "bike_id": "2c73c6f82aeb1c8b28f265b2d2aada68", "lon": -77.02512383333334}, {"is_reserved": 0, "fusion_lon": 0.0, "fusion_lat": 0.0, "name": "ac6c01ae8d3106aef223bcbfb4cd9b25", "type": "electric_scooter", "is_disabled": 0, "lat": 38.92012533333333, "rental_uris": {"android": "https://dc.lft.to/lastmile_qr_scan", "ios": "https://dc.lft.to/lastmile_qr_scan"}, "bike_id": "ac6c01ae8d3106aef223bcbfb4cd9b25", "lon": -77.03886}, {"is_reserved": 0, "fusion_lon": 0.0, "fusion_lat": 0.0, "name": "1341b39e306d46355771f69217add414", "type": "electric_bike", "is_disabled": 0, "lat": 38.800147833333334, "rental_uris": {"android": "https://dc.lft.to/lastmile_qr_scan", "ios": "https://dc.lft.to/lastmile_qr_scan"}, "bike_id": "1341b39e306d46355771f69217add414", "lon": -77.05479683333333}, {"is_reserved": 0, "fusion_lon": 0.0, "fusion_lat": 0.0, "name": "aa9ba9f112cf5c1d45920429899baf7d", "type": "electric_scooter", "is_disabled": 0, "lat": 38.8872595, "rental_uris": {"android": "https://dc.lft.to/lastmile_qr_scan", "ios": "https://dc.lft.to/lastmile_qr_scan"}, "bike_id": "aa9ba9f112cf5c1d45920429899baf7d", "lon": -77.0217425}, {"is_reserved": 0, "fusion_lon": 0.0, "fusion_lat": 0.0, "name": "9e69523395d4791f1f48c640b6a8d0d9", "type": "electric_scooter", "is_disabled": 0, "lat": 38.911129, "rental_uris": {"android": "https://dc.lft.to/lastmile_qr_scan", "ios": "https://dc.lft.to/lastmile_qr_scan"}, "bike_id": "9e69523395d4791f1f48c640b6a8d0d9", "lon": -77.03839716666667}, {"is_reserved": 0, "fusion_lon": 0.0, "fusion_lat": 0.0, "name": "a1de713b16eeee104018fca9c0529097", "type": "electric_scooter", "is_disabled": 0, "lat": 38.929519666666664, "rental_uris": {"android": "https://dc.lft.to/lastmile_qr_scan", "ios": "https://dc.lft.to/lastmile_qr_scan"}, "bike_id": "a1de713b16eeee104018fca9c0529097", "lon": -77.01637916666667}, {"is_reserved": 0, "fusion_lon": 0.0, "fusion_lat": 0.0, "name": "0d987d77df35cffca68044f4237ab005", "type": "electric_scooter", "is_disabled": 0, "lat": 38.9259005, "rental_uris": {"android": "https://dc.lft.to/lastmile_qr_scan", "ios": "https://dc.lft.to/lastmile_qr_scan"}, "bike_id": "0d987d77df35cffca68044f4237ab005", "lon": -77.03778366666667}, {"is_reserved": 0, "fusion_lon": 0.0, "fusion_lat": 0.0, "name": "a0e38c2da18150cfd6b60a6b426f4f2b", "type": "electric_scooter", "is_disabled": 0, "lat": 38.902388333333334, "rental_uris": {"android": "https://dc.lft.to/lastmile_qr_scan", "ios": "https://dc.lft.to/lastmile_qr_scan"}, "bike_id": "a0e38c2da18150cfd6b60a6b426f4f2b", "lon": -77.01772916666667}, {"is_reserved": 0, "fusion_lon": 0.0, "fusion_lat": 0.0, "name": "055228eddeb3a3b7c0e94d7799c85ac3", "type": "electric_scooter", "is_disabled": 0, "lat": 38.95732866666667, "rental_uris": {"android": "https://dc.lft.to/lastmile_qr_scan", "ios": "https://dc.lft.to/lastmile_qr_scan"}, "bike_id": "055228eddeb3a3b7c0e94d7799c85ac3", "lon": -77.02401816666666}, {"is_reserved": 0, "fusion_lon": 0.0, "fusion_lat": 0.0, "name": "305a1a62ec3ba2f05f3a062956ae1367", "type": "electric_scooter", "is_disabled": 0, "lat": 38.93699766666667, "rental_uris": {"android": "https://dc.lft.to/lastmile_qr_scan", "ios": "https://dc.lft.to/lastmile_qr_scan"}, "bike_id": "305a1a62ec3ba2f05f3a062956ae1367", "lon": -77.02411166666667}, {"is_reserved": 0, "fusion_lon": 0.0, "fusion_lat": 0.0, "name": "ac1ab4e0b0541d51a428490819109918", "type": "electric_scooter", "is_disabled": 0, "lat": 38.907656333333335, "rental_uris": {"android": "https://dc.lft.to/lastmile_qr_scan", "ios": "https://dc.lft.to/lastmile_qr_scan"}, "bike_id": "ac1ab4e0b0541d51a428490819109918", "lon": -77.03457883333333}, {"is_reserved": 0, "fusion_lon": 0.0, "fusion_lat": 0.0, "name": "98366d1a0f833f8434a9f22ef94c004f", "type": "electric_scooter", "is_disabled": 0, "lat": 38.91713633333333, "rental_uris": {"android": "https://dc.lft.to/lastmile_qr_scan", "ios": "https://dc.lft.to/lastmile_qr_scan"}, "bike_id": "98366d1a0f833f8434a9f22ef94c004f", "lon": -77.03858883333334}, {"is_reserved": 0, "fusion_lon": 0.0, "fusion_lat": 0.0, "name": "c644999a62d7de4feced6ded85f64deb", "type": "electric_scooter", "is_disabled": 0, "lat": 38.900792, "rental_uris": {"android": "https://dc.lft.to/lastmile_qr_scan", "ios": "https://dc.lft.to/lastmile_qr_scan"}, "bike_id": "c644999a62d7de4feced6ded85f64deb", "lon": -76.99372183333334}, {"is_reserved": 0, "fusion_lon": 0.0, "fusion_lat": 0.0, "name": "7698672f92a894e09305ff7944cffa8e", "type": "electric_scooter", "is_disabled": 0, "lat": 38.92067816666667, "rental_uris": {"android": "https://dc.lft.to/lastmile_qr_scan", "ios": "https://dc.lft.to/lastmile_qr_scan"}, "bike_id": "7698672f92a894e09305ff7944cffa8e", "lon": -77.0224755}, {"is_reserved": 0, "fusion_lon": 0.0, "fusion_lat": 0.0, "name": "060124cc17ae8024bc62bb387d7c6947", "type": "electric_scooter", "is_disabled": 0, "lat": 38.921664166666666, "rental_uris": {"android": "https://dc.lft.to/lastmile_qr_scan", "ios": "https://dc.lft.to/lastmile_qr_scan"}, "bike_id": "060124cc17ae8024bc62bb387d7c6947", "lon": -77.03382066666667}, {"is_reserved": 0, "fusion_lon": 0.0, "fusion_lat": 0.0, "name": "7eb6e846ab246842a486c9f134f553ab", "type": "electric_scooter", "is_disabled": 0, "lat": 38.88922183333333, "rental_uris": {"android": "https://dc.lft.to/lastmile_qr_scan", "ios": "https://dc.lft.to/lastmile_qr_scan"}, "bike_id": "7eb6e846ab246842a486c9f134f553ab", "lon": -76.99185833333334}, {"is_reserved": 0, "fusion_lon": 0.0, "fusion_lat": 0.0, "name": "c191408b3ecae767b6b587f4ea834815", "type": "electric_scooter", "is_disabled": 0, "lat": 38.90037316666667, "rental_uris": {"android": "https://dc.lft.to/lastmile_qr_scan", "ios": "https://dc.lft.to/lastmile_qr_scan"}, "bike_id": "c191408b3ecae767b6b587f4ea834815", "lon": -77.04335266666666}, {"is_reserved": 0, "fusion_lon": 0.0, "fusion_lat": 0.0, "name": "7923e4d7dc3e09663da347cf334d0ea3", "type": "electric_scooter", "is_disabled": 0, "lat": 38.88582616666667, "rental_uris": {"android": "https://dc.lft.to/lastmile_qr_scan", "ios": "https://dc.lft.to/lastmile_qr_scan"}, "bike_id": "7923e4d7dc3e09663da347cf334d0ea3", "lon": -77.0199665}, {"is_reserved": 0, "fusion_lon": 0.0, "fusion_lat": 0.0, "name": "1ceb0af58acf55a02c82eafc2969f288", "type": "electric_bike", "is_disabled": 0, "lat": 38.95044983333333, "rental_uris": {"android": "https://dc.lft.to/lastmile_qr_scan", "ios": "https://dc.lft.to/lastmile_qr_scan"}, "bike_id": "1ceb0af58acf55a02c82eafc2969f288", "lon": -77.0197145}, {"is_reserved": 0, "fusion_lon": 0.0, "fusion_lat": 0.0, "name": "f3d4aa500faf81faf1e4f663bfdb949a", "type": "electric_scooter", "is_disabled": 0, "lat": 38.91697883333333, "rental_uris": {"android": "https://dc.lft.to/lastmile_qr_scan", "ios": "https://dc.lft.to/lastmile_qr_scan"}, "bike_id": "f3d4aa500faf81faf1e4f663bfdb949a", "lon": -77.01165616666667}, {"is_reserved": 0, "fusion_lon": 0.0, "fusion_lat": 0.0, "name": "ba7e979a0a99c8e2ccbf76a36f2f514c", "type": "electric_scooter", "is_disabled": 0, "lat": 38.89867433333333, "rental_uris": {"android": "https://dc.lft.to/lastmile_qr_scan", "ios": "https://dc.lft.to/lastmile_qr_scan"}, "bike_id": "ba7e979a0a99c8e2ccbf76a36f2f514c", "lon": -76.946608}, {"is_reserved": 0, "fusion_lon": 0.0, "fusion_lat": 0.0, "name": "e05524c29361d2fb7f36d86665862649", "type": "electric_bike", "is_disabled": 0, "lat": 38.876769833333334, "rental_uris": {"android": "https://dc.lft.to/lastmile_qr_scan", "ios": "https://dc.lft.to/lastmile_qr_scan"}, "bike_id": "e05524c29361d2fb7f36d86665862649", "lon": -77.014529}, {"is_reserved": 0, "fusion_lon": 0.0, "fusion_lat": 0.0, "name": "26a09cbf72b2cdc8731d75f10ec92191", "type": "electric_scooter", "is_disabled": 0, "lat": 38.904080666666665, "rental_uris": {"android": "https://dc.lft.to/lastmile_qr_scan", "ios": "https://dc.lft.to/lastmile_qr_scan"}, "bike_id": "26a09cbf72b2cdc8731d75f10ec92191", "lon": -77.02952616666667}, {"is_reserved": 0, "fusion_lon": 0.0, "fusion_lat": 0.0, "name": "6b462ed2b903c1de16aca7e100b9a614", "type": "electric_scooter", "is_disabled": 0, "lat": 38.96114566666667, "rental_uris": {"android": "https://dc.lft.to/lastmile_qr_scan", "ios": "https://dc.lft.to/lastmile_qr_scan"}, "bike_id": "6b462ed2b903c1de16aca7e100b9a614", "lon": -77.00951}, {"is_reserved": 0, "fusion_lon": 0.0, "fusion_lat": 0.0, "name": "579cbe52ed1fc45102264f971ab73a43", "type": "electric_scooter", "is_disabled": 0, "lat": 38.91706, "rental_uris": {"android": "https://dc.lft.to/lastmile_qr_scan", "ios": "https://dc.lft.to/lastmile_qr_scan"}, "bike_id": "579cbe52ed1fc45102264f971ab73a43", "lon": -77.04187283333333}, {"is_reserved": 0, "fusion_lon": 0.0, "fusion_lat": 0.0, "name": "4fd31a712f3c63daedc7a82b50b1b194", "type": "electric_scooter", "is_disabled": 0, "lat": 38.900636166666665, "rental_uris": {"android": "https://dc.lft.to/lastmile_qr_scan", "ios": "https://dc.lft.to/lastmile_qr_scan"}, "bike_id": "4fd31a712f3c63daedc7a82b50b1b194", "lon": -77.04856483333333}, {"is_reserved": 0, "fusion_lon": 0.0, "fusion_lat": 0.0, "name": "e3344d96a76ebcdb11988d38586c5d09", "type": "electric_scooter", "is_disabled": 0, "lat": 38.93672, "rental_uris": {"android": "https://dc.lft.to/lastmile_qr_scan", "ios": "https://dc.lft.to/lastmile_qr_scan"}, "bike_id": "e3344d96a76ebcdb11988d38586c5d09", "lon": -77.03636116666667}, {"is_reserved": 0, "fusion_lon": 0.0, "fusion_lat": 0.0, "name": "9b3341a93a4f288bb490988e2008b655", "type": "electric_scooter", "is_disabled": 0, "lat": 38.91920316666667, "rental_uris": {"android": "https://dc.lft.to/lastmile_qr_scan", "ios": "https://dc.lft.to/lastmile_qr_scan"}, "bike_id": "9b3341a93a4f288bb490988e2008b655", "lon": -77.048103}, {"is_reserved": 0, "fusion_lon": 0.0, "fusion_lat": 0.0, "name": "a040f6afa43ba57a7645b2ae1c3bcd87", "type": "electric_scooter", "is_disabled": 0, "lat": 38.91691933333333, "rental_uris": {"android": "https://dc.lft.to/lastmile_qr_scan", "ios": "https://dc.lft.to/lastmile_qr_scan"}, "bike_id": "a040f6afa43ba57a7645b2ae1c3bcd87", "lon": -77.02598433333333}, {"is_reserved": 0, "fusion_lon": 0.0, "fusion_lat": 0.0, "name": "a36da501ba60cf9f2065a8c4f67ec747", "type": "electric_scooter", "is_disabled": 0, "lat": 38.883179166666665, "rental_uris": {"android": "https://dc.lft.to/lastmile_qr_scan", "ios": "https://dc.lft.to/lastmile_qr_scan"}, "bike_id": "a36da501ba60cf9f2065a8c4f67ec747", "lon": -77.0174795}, {"is_reserved": 0, "fusion_lon": 0.0, "fusion_lat": 0.0, "name": "230f90ae77a31d2ba3dc450e68e0e084", "type": "electric_scooter", "is_disabled": 0, "lat": 38.91709933333333, "rental_uris": {"android": "https://dc.lft.to/lastmile_qr_scan", "ios": "https://dc.lft.to/lastmile_qr_scan"}, "bike_id": "230f90ae77a31d2ba3dc450e68e0e084", "lon": -77.03473483333333}, {"is_reserved": 0, "fusion_lon": 0.0, "fusion_lat": 0.0, "name": "951020091af8bcf67c55475e71c0e95a", "type": "electric_scooter", "is_disabled": 0, "lat": 38.92308516666667, "rental_uris": {"android": "https://dc.lft.to/lastmile_qr_scan", "ios": "https://dc.lft.to/lastmile_qr_scan"}, "bike_id": "951020091af8bcf67c55475e71c0e95a", "lon": -76.9989415}, {"is_reserved": 0, "fusion_lon": 0.0, "fusion_lat": 0.0, "name": "4de4c93e55c9d92db77f051814965ba9", "type": "electric_scooter", "is_disabled": 0, "lat": 38.88028683333334, "rental_uris": {"android": "https://dc.lft.to/lastmile_qr_scan", "ios": "https://dc.lft.to/lastmile_qr_scan"}, "bike_id": "4de4c93e55c9d92db77f051814965ba9", "lon": -76.984755}, {"is_reserved": 0, "fusion_lon": 0.0, "fusion_lat": 0.0, "name": "fe055bc3a729eab0887c67a2661f4e46", "type": "electric_scooter", "is_disabled": 0, "lat": 38.905795166666664, "rental_uris": {"android": "https://dc.lft.to/lastmile_qr_scan", "ios": "https://dc.lft.to/lastmile_qr_scan"}, "bike_id": "fe055bc3a729eab0887c67a2661f4e46", "lon": -77.008822}, {"is_reserved": 0, "fusion_lon": 0.0, "fusion_lat": 0.0, "name": "8669efb59367ed056931c75907f9cddc", "type": "electric_scooter", "is_disabled": 0, "lat": 38.91889833333333, "rental_uris": {"android": "https://dc.lft.to/lastmile_qr_scan", "ios": "https://dc.lft.to/lastmile_qr_scan"}, "bike_id": "8669efb59367ed056931c75907f9cddc", "lon": -77.0348785}, {"is_reserved": 0, "fusion_lon": 0.0, "fusion_lat": 0.0, "name": "d66a370e7221ee4e7aef40f33fcb7896", "type": "electric_scooter", "is_disabled": 0, "lat": 38.90981166666667, "rental_uris": {"android": "https://dc.lft.to/lastmile_qr_scan", "ios": "https://dc.lft.to/lastmile_qr_scan"}, "bike_id": "d66a370e7221ee4e7aef40f33fcb7896", "lon": -77.03181866666667}, {"is_reserved": 0, "fusion_lon": 0.0, "fusion_lat": 0.0, "name": "4ae42b77e81c349d609478384b2ff934", "type": "electric_bike", "is_disabled": 0, "lat": 38.87987366666667, "rental_uris": {"android": "https://dc.lft.to/lastmile_qr_scan", "ios": "https://dc.lft.to/lastmile_qr_scan"}, "bike_id": "4ae42b77e81c349d609478384b2ff934", "lon": -76.91602633333333}, {"is_reserved": 0, "fusion_lon": 0.0, "fusion_lat": 0.0, "name": "b5ce99e2056b6e1880d412b23db36459", "type": "electric_scooter", "is_disabled": 0, "lat": 38.90653533333333, "rental_uris": {"android": "https://dc.lft.to/lastmile_qr_scan", "ios": "https://dc.lft.to/lastmile_qr_scan"}, "bike_id": "b5ce99e2056b6e1880d412b23db36459", "lon": -77.0487675}, {"is_reserved": 0, "fusion_lon": 0.0, "fusion_lat": 0.0, "name": "05d61f5572c27f222bf3c5dafa2a1e40", "type": "electric_scooter", "is_disabled": 0, "lat": 38.903624, "rental_uris": {"android": "https://dc.lft.to/lastmile_qr_scan", "ios": "https://dc.lft.to/lastmile_qr_scan"}, "bike_id": "05d61f5572c27f222bf3c5dafa2a1e40", "lon": -77.042276}, {"is_reserved": 0, "fusion_lon": 0.0, "fusion_lat": 0.0, "name": "a93a5c7138dc86d677fb4c1949bc36ea", "type": "electric_scooter", "is_disabled": 0, "lat": 38.905223166666666, "rental_uris": {"android": "https://dc.lft.to/lastmile_qr_scan", "ios": "https://dc.lft.to/lastmile_qr_scan"}, "bike_id": "a93a5c7138dc86d677fb4c1949bc36ea", "lon": -77.06380633333333}, {"is_reserved": 0, "fusion_lon": 0.0, "fusion_lat": 0.0, "name": "787b73733a33977b079fe1b5701bb9c0", "type": "electric_scooter", "is_disabled": 0, "lat": 38.91386933333333, "rental_uris": {"android": "https://dc.lft.to/lastmile_qr_scan", "ios": "https://dc.lft.to/lastmile_qr_scan"}, "bike_id": "787b73733a33977b079fe1b5701bb9c0", "lon": -77.01698583333334}, {"is_reserved": 0, "fusion_lon": 0.0, "fusion_lat": 0.0, "name": "3c171c1ce2938dd8530357c3b9d0d514", "type": "electric_scooter", "is_disabled": 0, "lat": 38.890171, "rental_uris": {"android": "https://dc.lft.to/lastmile_qr_scan", "ios": "https://dc.lft.to/lastmile_qr_scan"}, "bike_id": "3c171c1ce2938dd8530357c3b9d0d514", "lon": -76.937311}, {"is_reserved": 0, "fusion_lon": 0.0, "fusion_lat": 0.0, "name": "2e44a582da800805fab1f6b074bb3e04", "type": "electric_scooter", "is_disabled": 0, "lat": 38.9097085, "rental_uris": {"android": "https://dc.lft.to/lastmile_qr_scan", "ios": "https://dc.lft.to/lastmile_qr_scan"}, "bike_id": "2e44a582da800805fab1f6b074bb3e04", "lon": -77.03860183333333}, {"is_reserved": 0, "fusion_lon": 0.0, "fusion_lat": 0.0, "name": "a8ac933a2d6c83ded6387dbb66b143a8", "type": "electric_scooter", "is_disabled": 0, "lat": 38.91858, "rental_uris": {"android": "https://dc.lft.to/lastmile_qr_scan", "ios": "https://dc.lft.to/lastmile_qr_scan"}, "bike_id": "a8ac933a2d6c83ded6387dbb66b143a8", "lon": -77.04459033333333}, {"is_reserved": 0, "fusion_lon": 0.0, "fusion_lat": 0.0, "name": "d39e449b1a976de58c1865ecc5f80776", "type": "electric_scooter", "is_disabled": 0, "lat": 38.934831333333335, "rental_uris": {"android": "https://dc.lft.to/lastmile_qr_scan", "ios": "https://dc.lft.to/lastmile_qr_scan"}, "bike_id": "d39e449b1a976de58c1865ecc5f80776", "lon": -77.06483466666667}, {"is_reserved": 0, "fusion_lon": 0.0, "fusion_lat": 0.0, "name": "6fba413650b28ab819ff64de1971f7a8", "type": "electric_scooter", "is_disabled": 0, "lat": 38.89808766666667, "rental_uris": {"android": "https://dc.lft.to/lastmile_qr_scan", "ios": "https://dc.lft.to/lastmile_qr_scan"}, "bike_id": "6fba413650b28ab819ff64de1971f7a8", "lon": -77.04013416666666}, {"is_reserved": 0, "fusion_lon": 0.0, "fusion_lat": 0.0, "name": "dee3b61ba0829ab0ea95b50b5630b322", "type": "electric_scooter", "is_disabled": 0, "lat": 38.908010833333336, "rental_uris": {"android": "https://dc.lft.to/lastmile_qr_scan", "ios": "https://dc.lft.to/lastmile_qr_scan"}, "bike_id": "dee3b61ba0829ab0ea95b50b5630b322", "lon": -77.03820583333334}, {"is_reserved": 0, "fusion_lon": 0.0, "fusion_lat": 0.0, "name": "0f95d0dc3112e0f8f462bff2ae6e0604", "type": "electric_scooter", "is_disabled": 0, "lat": 38.952018833333334, "rental_uris": {"android": "https://dc.lft.to/lastmile_qr_scan", "ios": "https://dc.lft.to/lastmile_qr_scan"}, "bike_id": "0f95d0dc3112e0f8f462bff2ae6e0604", "lon": -77.027362}, {"is_reserved": 0, "fusion_lon": 0.0, "fusion_lat": 0.0, "name": "52b91374314d2f06c2f9210c7722f983", "type": "electric_scooter", "is_disabled": 0, "lat": 38.875402, "rental_uris": {"android": "https://dc.lft.to/lastmile_qr_scan", "ios": "https://dc.lft.to/lastmile_qr_scan"}, "bike_id": "52b91374314d2f06c2f9210c7722f983", "lon": -77.00603}, {"is_reserved": 0, "fusion_lon": 0.0, "fusion_lat": 0.0, "name": "d7218cc1d83f1e1d41d34b06ab73622c", "type": "electric_scooter", "is_disabled": 0, "lat": 38.90726016666667, "rental_uris": {"android": "https://dc.lft.to/lastmile_qr_scan", "ios": "https://dc.lft.to/lastmile_qr_scan"}, "bike_id": "d7218cc1d83f1e1d41d34b06ab73622c", "lon": -77.04810233333333}, {"is_reserved": 0, "fusion_lon": 0.0, "fusion_lat": 0.0, "name": "5b9d0cbd7952dea295f3201cdf75603f", "type": "electric_scooter", "is_disabled": 0, "lat": 38.918023, "rental_uris": {"android": "https://dc.lft.to/lastmile_qr_scan", "ios": "https://dc.lft.to/lastmile_qr_scan"}, "bike_id": "5b9d0cbd7952dea295f3201cdf75603f", "lon": -77.03184283333333}, {"is_reserved": 0, "fusion_lon": 0.0, "fusion_lat": 0.0, "name": "579bd8c83b43d6d5f2f65e085a8f9547", "type": "electric_scooter", "is_disabled": 0, "lat": 38.90138566666667, "rental_uris": {"android": "https://dc.lft.to/lastmile_qr_scan", "ios": "https://dc.lft.to/lastmile_qr_scan"}, "bike_id": "579bd8c83b43d6d5f2f65e085a8f9547", "lon": -77.04024966666667}, {"is_reserved": 0, "fusion_lon": 0.0, "fusion_lat": 0.0, "name": "6067d90cea23768fd301a7eeafc16f6a", "type": "electric_scooter", "is_disabled": 0, "lat": 38.9035005, "rental_uris": {"android": "https://dc.lft.to/lastmile_qr_scan", "ios": "https://dc.lft.to/lastmile_qr_scan"}, "bike_id": "6067d90cea23768fd301a7eeafc16f6a", "lon": -77.00585266666667}, {"is_reserved": 0, "fusion_lon": 0.0, "fusion_lat": 0.0, "name": "a664d82c7bdb0b0ee30f4e3072498b06", "type": "electric_scooter", "is_disabled": 0, "lat": 38.904281, "rental_uris": {"android": "https://dc.lft.to/lastmile_qr_scan", "ios": "https://dc.lft.to/lastmile_qr_scan"}, "bike_id": "a664d82c7bdb0b0ee30f4e3072498b06", "lon": -77.01703983333333}, {"is_reserved": 0, "fusion_lon": 0.0, "fusion_lat": 0.0, "name": "ec13b47c4da04076385cbb0d99a1ddcc", "type": "electric_scooter", "is_disabled": 0, "lat": 38.918213, "rental_uris": {"android": "https://dc.lft.to/lastmile_qr_scan", "ios": "https://dc.lft.to/lastmile_qr_scan"}, "bike_id": "ec13b47c4da04076385cbb0d99a1ddcc", "lon": -77.03456466666667}, {"is_reserved": 0, "fusion_lon": 0.0, "fusion_lat": 0.0, "name": "14578857bca6a9c40c1454bc776d5ea6", "type": "electric_scooter", "is_disabled": 0, "lat": 38.931026333333335, "rental_uris": {"android": "https://dc.lft.to/lastmile_qr_scan", "ios": "https://dc.lft.to/lastmile_qr_scan"}, "bike_id": "14578857bca6a9c40c1454bc776d5ea6", "lon": -77.02669516666667}, {"is_reserved": 0, "fusion_lon": 0.0, "fusion_lat": 0.0, "name": "129f8b041bfa37c28bfcb85d3cd4b7d1", "type": "electric_scooter", "is_disabled": 0, "lat": 38.90384566666667, "rental_uris": {"android": "https://dc.lft.to/lastmile_qr_scan", "ios": "https://dc.lft.to/lastmile_qr_scan"}, "bike_id": "129f8b041bfa37c28bfcb85d3cd4b7d1", "lon": -77.03009333333334}, {"is_reserved": 0, "fusion_lon": 0.0, "fusion_lat": 0.0, "name": "6de10e656861fb52c228534c451e46d4", "type": "electric_scooter", "is_disabled": 0, "lat": 38.89742233333333, "rental_uris": {"android": "https://dc.lft.to/lastmile_qr_scan", "ios": "https://dc.lft.to/lastmile_qr_scan"}, "bike_id": "6de10e656861fb52c228534c451e46d4", "lon": -77.03367783333333}, {"is_reserved": 0, "fusion_lon": 0.0, "fusion_lat": 0.0, "name": "ef5a98ac198df92db47dab344c841a79", "type": "electric_scooter", "is_disabled": 0, "lat": 38.90500266666667, "rental_uris": {"android": "https://dc.lft.to/lastmile_qr_scan", "ios": "https://dc.lft.to/lastmile_qr_scan"}, "bike_id": "ef5a98ac198df92db47dab344c841a79", "lon": -76.9742335}, {"is_reserved": 0, "fusion_lon": 0.0, "fusion_lat": 0.0, "name": "6c601f821820284067fb11961d8e5edf", "type": "electric_bike", "is_disabled": 0, "lat": 38.89615366666666, "rental_uris": {"android": "https://dc.lft.to/lastmile_qr_scan", "ios": "https://dc.lft.to/lastmile_qr_scan"}, "bike_id": "6c601f821820284067fb11961d8e5edf", "lon": -76.90742333333333}, {"is_reserved": 0, "fusion_lon": 0.0, "fusion_lat": 0.0, "name": "3578687604d50e7a73e2e1082b01dcd4", "type": "electric_scooter", "is_disabled": 0, "lat": 38.9332915, "rental_uris": {"android": "https://dc.lft.to/lastmile_qr_scan", "ios": "https://dc.lft.to/lastmile_qr_scan"}, "bike_id": "3578687604d50e7a73e2e1082b01dcd4", "lon": -77.03439016666667}, {"is_reserved": 0, "fusion_lon": 0.0, "fusion_lat": 0.0, "name": "9f122ea140b5a125933095d235045ac7", "type": "electric_scooter", "is_disabled": 0, "lat": 38.89735783333333, "rental_uris": {"android": "https://dc.lft.to/lastmile_qr_scan", "ios": "https://dc.lft.to/lastmile_qr_scan"}, "bike_id": "9f122ea140b5a125933095d235045ac7", "lon": -77.05565716666666}, {"is_reserved": 0, "fusion_lon": 0.0, "fusion_lat": 0.0, "name": "6d8041dfa2e51ba219979c47ac242730", "type": "electric_scooter", "is_disabled": 0, "lat": 38.885401, "rental_uris": {"android": "https://dc.lft.to/lastmile_qr_scan", "ios": "https://dc.lft.to/lastmile_qr_scan"}, "bike_id": "6d8041dfa2e51ba219979c47ac242730", "lon": -76.9827175}, {"is_reserved": 0, "fusion_lon": 0.0, "fusion_lat": 0.0, "name": "7e9b511d2b6cf518efd3ae2602e15623", "type": "electric_scooter", "is_disabled": 0, "lat": 38.8789745, "rental_uris": {"android": "https://dc.lft.to/lastmile_qr_scan", "ios": "https://dc.lft.to/lastmile_qr_scan"}, "bike_id": "7e9b511d2b6cf518efd3ae2602e15623", "lon": -77.007088}, {"is_reserved": 0, "fusion_lon": 0.0, "fusion_lat": 0.0, "name": "58e3a1e430dfff5bc8859db7a776f9c4", "type": "electric_scooter", "is_disabled": 0, "lat": 38.92673283333333, "rental_uris": {"android": "https://dc.lft.to/lastmile_qr_scan", "ios": "https://dc.lft.to/lastmile_qr_scan"}, "bike_id": "58e3a1e430dfff5bc8859db7a776f9c4", "lon": -77.043552}, {"is_reserved": 0, "fusion_lon": 0.0, "fusion_lat": 0.0, "name": "a5054cb9fd5f7f5b5f078773926da61d", "type": "electric_scooter", "is_disabled": 0, "lat": 38.922641, "rental_uris": {"android": "https://dc.lft.to/lastmile_qr_scan", "ios": "https://dc.lft.to/lastmile_qr_scan"}, "bike_id": "a5054cb9fd5f7f5b5f078773926da61d", "lon": -77.0182365}, {"is_reserved": 0, "fusion_lon": 0.0, "fusion_lat": 0.0, "name": "454f4c84a80e7ed7df5af4f3a35d6e8b", "type": "electric_scooter", "is_disabled": 0, "lat": 38.89728366666667, "rental_uris": {"android": "https://dc.lft.to/lastmile_qr_scan", "ios": "https://dc.lft.to/lastmile_qr_scan"}, "bike_id": "454f4c84a80e7ed7df5af4f3a35d6e8b", "lon": -77.0552125}, {"is_reserved": 0, "fusion_lon": 0.0, "fusion_lat": 0.0, "name": "840c7e6f0e01c27fcee6581cc03d46da", "type": "electric_bike", "is_disabled": 0, "lat": 38.8965395, "rental_uris": {"android": "https://dc.lft.to/lastmile_qr_scan", "ios": "https://dc.lft.to/lastmile_qr_scan"}, "bike_id": "840c7e6f0e01c27fcee6581cc03d46da", "lon": -76.93022316666666}, {"is_reserved": 0, "fusion_lon": 0.0, "fusion_lat": 0.0, "name": "157b5085bab199d763ad5c247682eb66", "type": "electric_bike", "is_disabled": 0, "lat": 38.9032785, "rental_uris": {"android": "https://dc.lft.to/lastmile_qr_scan", "ios": "https://dc.lft.to/lastmile_qr_scan"}, "bike_id": "157b5085bab199d763ad5c247682eb66", "lon": -76.97534916666666}, {"is_reserved": 0, "fusion_lon": 0.0, "fusion_lat": 0.0, "name": "75a056ffc014751cf1b77b9c352adb20", "type": "electric_bike", "is_disabled": 0, "lat": 38.9673815, "rental_uris": {"android": "https://dc.lft.to/lastmile_qr_scan", "ios": "https://dc.lft.to/lastmile_qr_scan"}, "bike_id": "75a056ffc014751cf1b77b9c352adb20", "lon": -76.9604975}, {"is_reserved": 0, "fusion_lon": 0.0, "fusion_lat": 0.0, "name": "8cbe1b289e7084e8cf6487c677116365", "type": "electric_scooter", "is_disabled": 0, "lat": 38.917714833333335, "rental_uris": {"android": "https://dc.lft.to/lastmile_qr_scan", "ios": "https://dc.lft.to/lastmile_qr_scan"}, "bike_id": "8cbe1b289e7084e8cf6487c677116365", "lon": -77.036329}, {"is_reserved": 0, "fusion_lon": 0.0, "fusion_lat": 0.0, "name": "ab5630de972e67785dcda915455afbd2", "type": "electric_scooter", "is_disabled": 0, "lat": 38.920098833333334, "rental_uris": {"android": "https://dc.lft.to/lastmile_qr_scan", "ios": "https://dc.lft.to/lastmile_qr_scan"}, "bike_id": "ab5630de972e67785dcda915455afbd2", "lon": -77.04170716666667}, {"is_reserved": 0, "fusion_lon": 0.0, "fusion_lat": 0.0, "name": "9040bff7b58d2714fde81a59d0010dc6", "type": "electric_scooter", "is_disabled": 0, "lat": 38.932942833333335, "rental_uris": {"android": "https://dc.lft.to/lastmile_qr_scan", "ios": "https://dc.lft.to/lastmile_qr_scan"}, "bike_id": "9040bff7b58d2714fde81a59d0010dc6", "lon": -77.02181583333333}, {"is_reserved": 0, "fusion_lon": 0.0, "fusion_lat": 0.0, "name": "7fd1124455fd1e0cce1ce9ce711219ca", "type": "electric_scooter", "is_disabled": 0, "lat": 38.88612716666667, "rental_uris": {"android": "https://dc.lft.to/lastmile_qr_scan", "ios": "https://dc.lft.to/lastmile_qr_scan"}, "bike_id": "7fd1124455fd1e0cce1ce9ce711219ca", "lon": -76.99512316666667}, {"is_reserved": 0, "fusion_lon": 0.0, "fusion_lat": 0.0, "name": "3b2e63c4bcee68981d50f655096e7b64", "type": "electric_bike", "is_disabled": 0, "lat": 38.9489975, "rental_uris": {"android": "https://dc.lft.to/lastmile_qr_scan", "ios": "https://dc.lft.to/lastmile_qr_scan"}, "bike_id": "3b2e63c4bcee68981d50f655096e7b64", "lon": -77.0345645}, {"is_reserved": 0, "fusion_lon": 0.0, "fusion_lat": 0.0, "name": "1b8c1e5b1f3af0f42895fa609a7f3ddf", "type": "electric_scooter", "is_disabled": 0, "lat": 38.902520333333335, "rental_uris": {"android": "https://dc.lft.to/lastmile_qr_scan", "ios": "https://dc.lft.to/lastmile_qr_scan"}, "bike_id": "1b8c1e5b1f3af0f42895fa609a7f3ddf", "lon": -77.04397816666666}, {"is_reserved": 0, "fusion_lon": 0.0, "fusion_lat": 0.0, "name": "a64c65da071ba439ee7272db898ddb32", "type": "electric_scooter", "is_disabled": 0, "lat": 38.9013665, "rental_uris": {"android": "https://dc.lft.to/lastmile_qr_scan", "ios": "https://dc.lft.to/lastmile_qr_scan"}, "bike_id": "a64c65da071ba439ee7272db898ddb32", "lon": -77.04027183333334}, {"is_reserved": 0, "fusion_lon": 0.0, "fusion_lat": 0.0, "name": "3955f04d36193f3feb3699410b445089", "type": "electric_scooter", "is_disabled": 0, "lat": 38.92662683333333, "rental_uris": {"android": "https://dc.lft.to/lastmile_qr_scan", "ios": "https://dc.lft.to/lastmile_qr_scan"}, "bike_id": "3955f04d36193f3feb3699410b445089", "lon": -77.0227505}, {"is_reserved": 0, "fusion_lon": 0.0, "fusion_lat": 0.0, "name": "3e6e22b932149da2c569d795da1f2b35", "type": "electric_scooter", "is_disabled": 0, "lat": 38.89644116666667, "rental_uris": {"android": "https://dc.lft.to/lastmile_qr_scan", "ios": "https://dc.lft.to/lastmile_qr_scan"}, "bike_id": "3e6e22b932149da2c569d795da1f2b35", "lon": -77.02187316666667}, {"is_reserved": 0, "fusion_lon": 0.0, "fusion_lat": 0.0, "name": "17d15cd210b36db0d4d9783bf11eb294", "type": "electric_scooter", "is_disabled": 0, "lat": 38.9156955, "rental_uris": {"android": "https://dc.lft.to/lastmile_qr_scan", "ios": "https://dc.lft.to/lastmile_qr_scan"}, "bike_id": "17d15cd210b36db0d4d9783bf11eb294", "lon": -77.031933}, {"is_reserved": 0, "fusion_lon": 0.0, "fusion_lat": 0.0, "name": "579fc5c6db1d3f14fbe72c0b689a175b", "type": "electric_scooter", "is_disabled": 0, "lat": 38.8903415, "rental_uris": {"android": "https://dc.lft.to/lastmile_qr_scan", "ios": "https://dc.lft.to/lastmile_qr_scan"}, "bike_id": "579fc5c6db1d3f14fbe72c0b689a175b", "lon": -76.93755116666667}, {"is_reserved": 0, "fusion_lon": 0.0, "fusion_lat": 0.0, "name": "fae37c0114e343fb08449e05b79396b3", "type": "electric_bike", "is_disabled": 0, "lat": 38.964714666666666, "rental_uris": {"android": "https://dc.lft.to/lastmile_qr_scan", "ios": "https://dc.lft.to/lastmile_qr_scan"}, "bike_id": "fae37c0114e343fb08449e05b79396b3", "lon": -77.035507}, {"is_reserved": 0, "fusion_lon": 0.0, "fusion_lat": 0.0, "name": "64c7b1bf809ffb5575e9766cc4dc0f1f", "type": "electric_scooter", "is_disabled": 0, "lat": 38.9166725, "rental_uris": {"android": "https://dc.lft.to/lastmile_qr_scan", "ios": "https://dc.lft.to/lastmile_qr_scan"}, "bike_id": "64c7b1bf809ffb5575e9766cc4dc0f1f", "lon": -77.038494}, {"is_reserved": 0, "fusion_lon": 0.0, "fusion_lat": 0.0, "name": "5375e1d5debafe180a8f9732196d2936", "type": "electric_bike", "is_disabled": 0, "lat": 38.81201733333333, "rental_uris": {"android": "https://dc.lft.to/lastmile_qr_scan", "ios": "https://dc.lft.to/lastmile_qr_scan"}, "bike_id": "5375e1d5debafe180a8f9732196d2936", "lon": -77.10835783333333}, {"is_reserved": 0, "fusion_lon": 0.0, "fusion_lat": 0.0, "name": "806ccbcbaea8c014ca37f7752058775b", "type": "electric_bike", "is_disabled": 0, "lat": 38.92458333333333, "rental_uris": {"android": "https://dc.lft.to/lastmile_qr_scan", "ios": "https://dc.lft.to/lastmile_qr_scan"}, "bike_id": "806ccbcbaea8c014ca37f7752058775b", "lon": -76.97559116666666}, {"is_reserved": 0, "fusion_lon": 0.0, "fusion_lat": 0.0, "name": "c810beb35a5f2d1b818400d5ed5cb2fb", "type": "electric_scooter", "is_disabled": 0, "lat": 38.928807, "rental_uris": {"android": "https://dc.lft.to/lastmile_qr_scan", "ios": "https://dc.lft.to/lastmile_qr_scan"}, "bike_id": "c810beb35a5f2d1b818400d5ed5cb2fb", "lon": -77.03340566666667}, {"is_reserved": 0, "fusion_lon": 0.0, "fusion_lat": 0.0, "name": "37bcf069f302ba7ba216ceca58586391", "type": "electric_scooter", "is_disabled": 0, "lat": 38.919793166666665, "rental_uris": {"android": "https://dc.lft.to/lastmile_qr_scan", "ios": "https://dc.lft.to/lastmile_qr_scan"}, "bike_id": "37bcf069f302ba7ba216ceca58586391", "lon": -77.02372483333333}, {"is_reserved": 0, "fusion_lon": 0.0, "fusion_lat": 0.0, "name": "0e6052beae62588fa03e2a7f1aa4e725", "type": "electric_scooter", "is_disabled": 0, "lat": 38.930981333333335, "rental_uris": {"android": "https://dc.lft.to/lastmile_qr_scan", "ios": "https://dc.lft.to/lastmile_qr_scan"}, "bike_id": "0e6052beae62588fa03e2a7f1aa4e725", "lon": -77.02791}, {"is_reserved": 0, "fusion_lon": 0.0, "fusion_lat": 0.0, "name": "dec9b2c4abdeb9a472493d94eb47233b", "type": "electric_scooter", "is_disabled": 0, "lat": 38.9171235, "rental_uris": {"android": "https://dc.lft.to/lastmile_qr_scan", "ios": "https://dc.lft.to/lastmile_qr_scan"}, "bike_id": "dec9b2c4abdeb9a472493d94eb47233b", "lon": -77.03310233333333}, {"is_reserved": 0, "fusion_lon": 0.0, "fusion_lat": 0.0, "name": "a4ec6ade08ba8211c6d908df8bb7ce1e", "type": "electric_scooter", "is_disabled": 0, "lat": 38.904457666666666, "rental_uris": {"android": "https://dc.lft.to/lastmile_qr_scan", "ios": "https://dc.lft.to/lastmile_qr_scan"}, "bike_id": "a4ec6ade08ba8211c6d908df8bb7ce1e", "lon": -77.04317816666666}, {"is_reserved": 0, "fusion_lon": 0.0, "fusion_lat": 0.0, "name": "1423be0d47fed7ac5676300335c07932", "type": "electric_scooter", "is_disabled": 0, "lat": 38.95502066666667, "rental_uris": {"android": "https://dc.lft.to/lastmile_qr_scan", "ios": "https://dc.lft.to/lastmile_qr_scan"}, "bike_id": "1423be0d47fed7ac5676300335c07932", "lon": -77.02961783333333}, {"is_reserved": 0, "fusion_lon": 0.0, "fusion_lat": 0.0, "name": "c7cbb4f0babd84d27aa42095ce115fbc", "type": "electric_scooter", "is_disabled": 0, "lat": 38.906421333333334, "rental_uris": {"android": "https://dc.lft.to/lastmile_qr_scan", "ios": "https://dc.lft.to/lastmile_qr_scan"}, "bike_id": "c7cbb4f0babd84d27aa42095ce115fbc", "lon": -77.0689385}, {"is_reserved": 0, "fusion_lon": 0.0, "fusion_lat": 0.0, "name": "bdf89cc45085b73dd1a5c63b9b924168", "type": "electric_scooter", "is_disabled": 0, "lat": 38.91723066666667, "rental_uris": {"android": "https://dc.lft.to/lastmile_qr_scan", "ios": "https://dc.lft.to/lastmile_qr_scan"}, "bike_id": "bdf89cc45085b73dd1a5c63b9b924168", "lon": -77.036608}, {"is_reserved": 0, "fusion_lon": 0.0, "fusion_lat": 0.0, "name": "104d1f6694d44de3931d063f695da414", "type": "electric_scooter", "is_disabled": 0, "lat": 38.900665333333336, "rental_uris": {"android": "https://dc.lft.to/lastmile_qr_scan", "ios": "https://dc.lft.to/lastmile_qr_scan"}, "bike_id": "104d1f6694d44de3931d063f695da414", "lon": -77.04534233333334}, {"is_reserved": 0, "fusion_lon": 0.0, "fusion_lat": 0.0, "name": "3376ba962fe506ca2a522d556d2169fe", "type": "electric_scooter", "is_disabled": 0, "lat": 38.90835516666667, "rental_uris": {"android": "https://dc.lft.to/lastmile_qr_scan", "ios": "https://dc.lft.to/lastmile_qr_scan"}, "bike_id": "3376ba962fe506ca2a522d556d2169fe", "lon": -77.0741165}, {"is_reserved": 0, "fusion_lon": 0.0, "fusion_lat": 0.0, "name": "db6b5e679e6d34cb246544e42db6287a", "type": "electric_scooter", "is_disabled": 0, "lat": 38.908339833333336, "rental_uris": {"android": "https://dc.lft.to/lastmile_qr_scan", "ios": "https://dc.lft.to/lastmile_qr_scan"}, "bike_id": "db6b5e679e6d34cb246544e42db6287a", "lon": -77.03311016666666}, {"is_reserved": 0, "fusion_lon": 0.0, "fusion_lat": 0.0, "name": "2149d4fc30280783e37b7cb2cda9b816", "type": "electric_scooter", "is_disabled": 0, "lat": 38.950760833333334, "rental_uris": {"android": "https://dc.lft.to/lastmile_qr_scan", "ios": "https://dc.lft.to/lastmile_qr_scan"}, "bike_id": "2149d4fc30280783e37b7cb2cda9b816", "lon": -76.9956955}, {"is_reserved": 0, "fusion_lon": 0.0, "fusion_lat": 0.0, "name": "4616a7a87595df3284232c54c50a0be2", "type": "electric_scooter", "is_disabled": 0, "lat": 38.915493833333336, "rental_uris": {"android": "https://dc.lft.to/lastmile_qr_scan", "ios": "https://dc.lft.to/lastmile_qr_scan"}, "bike_id": "4616a7a87595df3284232c54c50a0be2", "lon": -77.03854683333333}, {"is_reserved": 0, "fusion_lon": 0.0, "fusion_lat": 0.0, "name": "89934d28a01ff0be0f09c9603471618d", "type": "electric_bike", "is_disabled": 0, "lat": 38.95688466666667, "rental_uris": {"android": "https://dc.lft.to/lastmile_qr_scan", "ios": "https://dc.lft.to/lastmile_qr_scan"}, "bike_id": "89934d28a01ff0be0f09c9603471618d", "lon": -77.0222765}, {"is_reserved": 0, "fusion_lon": 0.0, "fusion_lat": 0.0, "name": "2f119a81a3d48d42892253f549dfc093", "type": "electric_scooter", "is_disabled": 0, "lat": 38.89546883333333, "rental_uris": {"android": "https://dc.lft.to/lastmile_qr_scan", "ios": "https://dc.lft.to/lastmile_qr_scan"}, "bike_id": "2f119a81a3d48d42892253f549dfc093", "lon": -77.0566005}, {"is_reserved": 0, "fusion_lon": 0.0, "fusion_lat": 0.0, "name": "e77c93763ba01cb998b66f68235530c8", "type": "electric_scooter", "is_disabled": 0, "lat": 38.90351533333333, "rental_uris": {"android": "https://dc.lft.to/lastmile_qr_scan", "ios": "https://dc.lft.to/lastmile_qr_scan"}, "bike_id": "e77c93763ba01cb998b66f68235530c8", "lon": -77.03934933333333}, {"is_reserved": 0, "fusion_lon": 0.0, "fusion_lat": 0.0, "name": "a5333db590530ead2cff765607e12619", "type": "electric_scooter", "is_disabled": 0, "lat": 38.914887, "rental_uris": {"android": "https://dc.lft.to/lastmile_qr_scan", "ios": "https://dc.lft.to/lastmile_qr_scan"}, "bike_id": "a5333db590530ead2cff765607e12619", "lon": -77.03817766666667}, {"is_reserved": 0, "fusion_lon": 0.0, "fusion_lat": 0.0, "name": "79ec257c1b2a21aebd7e2b556d20551c", "type": "electric_bike", "is_disabled": 0, "lat": 38.89563716666667, "rental_uris": {"android": "https://dc.lft.to/lastmile_qr_scan", "ios": "https://dc.lft.to/lastmile_qr_scan"}, "bike_id": "79ec257c1b2a21aebd7e2b556d20551c", "lon": -77.12729766666666}, {"is_reserved": 0, "fusion_lon": 0.0, "fusion_lat": 0.0, "name": "1d0020767dea50ee9a1fafe26a8c4b27", "type": "electric_scooter", "is_disabled": 0, "lat": 38.861488666666666, "rental_uris": {"android": "https://dc.lft.to/lastmile_qr_scan", "ios": "https://dc.lft.to/lastmile_qr_scan"}, "bike_id": "1d0020767dea50ee9a1fafe26a8c4b27", "lon": -76.9837235}, {"is_reserved": 0, "fusion_lon": 0.0, "fusion_lat": 0.0, "name": "4d3c798c192d0e0184297385964002ee", "type": "electric_scooter", "is_disabled": 0, "lat": 38.919700666666664, "rental_uris": {"android": "https://dc.lft.to/lastmile_qr_scan", "ios": "https://dc.lft.to/lastmile_qr_scan"}, "bike_id": "4d3c798c192d0e0184297385964002ee", "lon": -77.02365566666667}, {"is_reserved": 0, "fusion_lon": 0.0, "fusion_lat": 0.0, "name": "514f4cb48a24a98aab5f7521839864ac", "type": "electric_scooter", "is_disabled": 0, "lat": 38.9141565, "rental_uris": {"android": "https://dc.lft.to/lastmile_qr_scan", "ios": "https://dc.lft.to/lastmile_qr_scan"}, "bike_id": "514f4cb48a24a98aab5f7521839864ac", "lon": -77.0216075}, {"is_reserved": 0, "fusion_lon": 0.0, "fusion_lat": 0.0, "name": "7eb0dd6d507411593a96b5fd46fa24bf", "type": "electric_scooter", "is_disabled": 0, "lat": 38.8922675, "rental_uris": {"android": "https://dc.lft.to/lastmile_qr_scan", "ios": "https://dc.lft.to/lastmile_qr_scan"}, "bike_id": "7eb0dd6d507411593a96b5fd46fa24bf", "lon": -77.04333383333334}, {"is_reserved": 0, "fusion_lon": 0.0, "fusion_lat": 0.0, "name": "23286403c74d45ab5c68f0af46b0de6a", "type": "electric_scooter", "is_disabled": 0, "lat": 38.91603383333333, "rental_uris": {"android": "https://dc.lft.to/lastmile_qr_scan", "ios": "https://dc.lft.to/lastmile_qr_scan"}, "bike_id": "23286403c74d45ab5c68f0af46b0de6a", "lon": -77.02401483333334}, {"is_reserved": 0, "fusion_lon": 0.0, "fusion_lat": 0.0, "name": "a75549222cfa8f26e63420f399e9fbc8", "type": "electric_scooter", "is_disabled": 0, "lat": 38.9395125, "rental_uris": {"android": "https://dc.lft.to/lastmile_qr_scan", "ios": "https://dc.lft.to/lastmile_qr_scan"}, "bike_id": "a75549222cfa8f26e63420f399e9fbc8", "lon": -77.036625}, {"is_reserved": 0, "fusion_lon": 0.0, "fusion_lat": 0.0, "name": "5c4ee3e6489c8e126ee38b6a96fdc580", "type": "electric_scooter", "is_disabled": 0, "lat": 38.933407833333334, "rental_uris": {"android": "https://dc.lft.to/lastmile_qr_scan", "ios": "https://dc.lft.to/lastmile_qr_scan"}, "bike_id": "5c4ee3e6489c8e126ee38b6a96fdc580", "lon": -77.02621083333334}, {"is_reserved": 0, "fusion_lon": 0.0, "fusion_lat": 0.0, "name": "c3b76fabd804c82d4e0039620ca1bc86", "type": "electric_scooter", "is_disabled": 0, "lat": 38.8860215, "rental_uris": {"android": "https://dc.lft.to/lastmile_qr_scan", "ios": "https://dc.lft.to/lastmile_qr_scan"}, "bike_id": "c3b76fabd804c82d4e0039620ca1bc86", "lon": -77.01242916666666}, {"is_reserved": 0, "fusion_lon": 0.0, "fusion_lat": 0.0, "name": "e7d7d5fc915d36b956d51019e61d3c5d", "type": "electric_scooter", "is_disabled": 0, "lat": 38.88780783333333, "rental_uris": {"android": "https://dc.lft.to/lastmile_qr_scan", "ios": "https://dc.lft.to/lastmile_qr_scan"}, "bike_id": "e7d7d5fc915d36b956d51019e61d3c5d", "lon": -76.9552275}, {"is_reserved": 0, "fusion_lon": 0.0, "fusion_lat": 0.0, "name": "c63a8d0027d86a906fb8d1e39471f462", "type": "electric_scooter", "is_disabled": 0, "lat": 38.843148, "rental_uris": {"android": "https://dc.lft.to/lastmile_qr_scan", "ios": "https://dc.lft.to/lastmile_qr_scan"}, "bike_id": "c63a8d0027d86a906fb8d1e39471f462", "lon": -76.9993595}, {"is_reserved": 0, "fusion_lon": 0.0, "fusion_lat": 0.0, "name": "82d43f03583aba40f7286208ff811b49", "type": "electric_scooter", "is_disabled": 0, "lat": 38.93703083333333, "rental_uris": {"android": "https://dc.lft.to/lastmile_qr_scan", "ios": "https://dc.lft.to/lastmile_qr_scan"}, "bike_id": "82d43f03583aba40f7286208ff811b49", "lon": -77.024118}, {"is_reserved": 0, "fusion_lon": 0.0, "fusion_lat": 0.0, "name": "4c9d8d1096b00e359749937c1ad761d3", "type": "electric_scooter", "is_disabled": 0, "lat": 38.900070166666666, "rental_uris": {"android": "https://dc.lft.to/lastmile_qr_scan", "ios": "https://dc.lft.to/lastmile_qr_scan"}, "bike_id": "4c9d8d1096b00e359749937c1ad761d3", "lon": -76.99836433333333}, {"is_reserved": 0, "fusion_lon": 0.0, "fusion_lat": 0.0, "name": "54e1f31c5d3bb389d13843efd8ea924b", "type": "electric_bike", "is_disabled": 0, "lat": 39.013703666666665, "rental_uris": {"android": "https://dc.lft.to/lastmile_qr_scan", "ios": "https://dc.lft.to/lastmile_qr_scan"}, "bike_id": "54e1f31c5d3bb389d13843efd8ea924b", "lon": -76.921343}, {"is_reserved": 0, "fusion_lon": 0.0, "fusion_lat": 0.0, "name": "82dd66db4b40949f9a1969e92db14f2f", "type": "electric_scooter", "is_disabled": 0, "lat": 38.90891766666667, "rental_uris": {"android": "https://dc.lft.to/lastmile_qr_scan", "ios": "https://dc.lft.to/lastmile_qr_scan"}, "bike_id": "82dd66db4b40949f9a1969e92db14f2f", "lon": -76.98236083333333}, {"is_reserved": 0, "fusion_lon": 0.0, "fusion_lat": 0.0, "name": "1180593cdd0e40e71fb1f4cc9a1c9492", "type": "electric_scooter", "is_disabled": 0, "lat": 38.893633, "rental_uris": {"android": "https://dc.lft.to/lastmile_qr_scan", "ios": "https://dc.lft.to/lastmile_qr_scan"}, "bike_id": "1180593cdd0e40e71fb1f4cc9a1c9492", "lon": -77.03198716666667}, {"is_reserved": 0, "fusion_lon": 0.0, "fusion_lat": 0.0, "name": "90f5fd5a71736a99c9d689e24b5d7fdf", "type": "electric_scooter", "is_disabled": 0, "lat": 38.915462166666664, "rental_uris": {"android": "https://dc.lft.to/lastmile_qr_scan", "ios": "https://dc.lft.to/lastmile_qr_scan"}, "bike_id": "90f5fd5a71736a99c9d689e24b5d7fdf", "lon": -77.0385535}, {"is_reserved": 0, "fusion_lon": 0.0, "fusion_lat": 0.0, "name": "7b900b78cacbf8d0b7b2b96cd4c30555", "type": "electric_scooter", "is_disabled": 0, "lat": 38.900022, "rental_uris": {"android": "https://dc.lft.to/lastmile_qr_scan", "ios": "https://dc.lft.to/lastmile_qr_scan"}, "bike_id": "7b900b78cacbf8d0b7b2b96cd4c30555", "lon": -76.99628566666667}, {"is_reserved": 0, "fusion_lon": 0.0, "fusion_lat": 0.0, "name": "c5ab04070bcc779b425670a7041a918a", "type": "electric_scooter", "is_disabled": 0, "lat": 38.9232335, "rental_uris": {"android": "https://dc.lft.to/lastmile_qr_scan", "ios": "https://dc.lft.to/lastmile_qr_scan"}, "bike_id": "c5ab04070bcc779b425670a7041a918a", "lon": -77.04383833333333}, {"is_reserved": 0, "fusion_lon": 0.0, "fusion_lat": 0.0, "name": "586574749abcfa796137e03fe35e9803", "type": "electric_scooter", "is_disabled": 0, "lat": 38.823884666666665, "rental_uris": {"android": "https://dc.lft.to/lastmile_qr_scan", "ios": "https://dc.lft.to/lastmile_qr_scan"}, "bike_id": "586574749abcfa796137e03fe35e9803", "lon": -77.01192116666667}, {"is_reserved": 0, "fusion_lon": 0.0, "fusion_lat": 0.0, "name": "2cce43e56567a96407a84f769dffebad", "type": "electric_scooter", "is_disabled": 0, "lat": 38.87185783333334, "rental_uris": {"android": "https://dc.lft.to/lastmile_qr_scan", "ios": "https://dc.lft.to/lastmile_qr_scan"}, "bike_id": "2cce43e56567a96407a84f769dffebad", "lon": -77.0060095}, {"is_reserved": 0, "fusion_lon": 0.0, "fusion_lat": 0.0, "name": "8c517aa906a52b12684119503d7f28c6", "type": "electric_scooter", "is_disabled": 0, "lat": 38.90908566666667, "rental_uris": {"android": "https://dc.lft.to/lastmile_qr_scan", "ios": "https://dc.lft.to/lastmile_qr_scan"}, "bike_id": "8c517aa906a52b12684119503d7f28c6", "lon": -77.07269516666666}, {"is_reserved": 0, "fusion_lon": 0.0, "fusion_lat": 0.0, "name": "4f47af2875a76af491d56b1ae0f9881e", "type": "electric_bike", "is_disabled": 0, "lat": 38.920170666666664, "rental_uris": {"android": "https://dc.lft.to/lastmile_qr_scan", "ios": "https://dc.lft.to/lastmile_qr_scan"}, "bike_id": "4f47af2875a76af491d56b1ae0f9881e", "lon": -77.01312733333333}, {"is_reserved": 0, "fusion_lon": 0.0, "fusion_lat": 0.0, "name": "939751c0086c2c85356102e3ec44fb5a", "type": "electric_bike", "is_disabled": 0, "lat": 38.880415166666666, "rental_uris": {"android": "https://dc.lft.to/lastmile_qr_scan", "ios": "https://dc.lft.to/lastmile_qr_scan"}, "bike_id": "939751c0086c2c85356102e3ec44fb5a", "lon": -77.011325}, {"is_reserved": 0, "fusion_lon": 0.0, "fusion_lat": 0.0, "name": "faa1e7bb850d366ee3b56238c25b32ad", "type": "electric_scooter", "is_disabled": 0, "lat": 38.900058333333334, "rental_uris": {"android": "https://dc.lft.to/lastmile_qr_scan", "ios": "https://dc.lft.to/lastmile_qr_scan"}, "bike_id": "faa1e7bb850d366ee3b56238c25b32ad", "lon": -77.04032}, {"is_reserved": 0, "fusion_lon": 0.0, "fusion_lat": 0.0, "name": "a806bf02ba5a17e8c1122842009979de", "type": "electric_scooter", "is_disabled": 0, "lat": 38.86739816666667, "rental_uris": {"android": "https://dc.lft.to/lastmile_qr_scan", "ios": "https://dc.lft.to/lastmile_qr_scan"}, "bike_id": "a806bf02ba5a17e8c1122842009979de", "lon": -76.98779583333334}, {"is_reserved": 0, "fusion_lon": 0.0, "fusion_lat": 0.0, "name": "f480bf08b8c0097421aa75debd6c33d4", "type": "electric_scooter", "is_disabled": 0, "lat": 38.932398666666664, "rental_uris": {"android": "https://dc.lft.to/lastmile_qr_scan", "ios": "https://dc.lft.to/lastmile_qr_scan"}, "bike_id": "f480bf08b8c0097421aa75debd6c33d4", "lon": -77.02959533333333}, {"is_reserved": 0, "fusion_lon": 0.0, "fusion_lat": 0.0, "name": "0eca2e3e5c5488cdfef419ec37161e64", "type": "electric_scooter", "is_disabled": 0, "lat": 38.8949995, "rental_uris": {"android": "https://dc.lft.to/lastmile_qr_scan", "ios": "https://dc.lft.to/lastmile_qr_scan"}, "bike_id": "0eca2e3e5c5488cdfef419ec37161e64", "lon": -77.00944166666666}, {"is_reserved": 0, "fusion_lon": 0.0, "fusion_lat": 0.0, "name": "a7756834cd1bf3ed49d961cc66951090", "type": "electric_scooter", "is_disabled": 0, "lat": 38.92517933333333, "rental_uris": {"android": "https://dc.lft.to/lastmile_qr_scan", "ios": "https://dc.lft.to/lastmile_qr_scan"}, "bike_id": "a7756834cd1bf3ed49d961cc66951090", "lon": -77.05045583333333}, {"is_reserved": 0, "fusion_lon": 0.0, "fusion_lat": 0.0, "name": "46441d35e86950685066320d9510edb7", "type": "electric_scooter", "is_disabled": 0, "lat": 38.9167775, "rental_uris": {"android": "https://dc.lft.to/lastmile_qr_scan", "ios": "https://dc.lft.to/lastmile_qr_scan"}, "bike_id": "46441d35e86950685066320d9510edb7", "lon": -77.02946766666666}, {"is_reserved": 0, "fusion_lon": 0.0, "fusion_lat": 0.0, "name": "9a1d02bc0ce632fa30222ce46f65642e", "type": "electric_scooter", "is_disabled": 0, "lat": 38.92755316666667, "rental_uris": {"android": "https://dc.lft.to/lastmile_qr_scan", "ios": "https://dc.lft.to/lastmile_qr_scan"}, "bike_id": "9a1d02bc0ce632fa30222ce46f65642e", "lon": -77.02424083333334}, {"is_reserved": 0, "fusion_lon": 0.0, "fusion_lat": 0.0, "name": "7413e25a6eef6b3ad7630842c26dce83", "type": "electric_scooter", "is_disabled": 0, "lat": 38.895512, "rental_uris": {"android": "https://dc.lft.to/lastmile_qr_scan", "ios": "https://dc.lft.to/lastmile_qr_scan"}, "bike_id": "7413e25a6eef6b3ad7630842c26dce83", "lon": -76.94875083333334}, {"is_reserved": 0, "fusion_lon": 0.0, "fusion_lat": 0.0, "name": "76b2e98cede990a61449d732fc945113", "type": "electric_scooter", "is_disabled": 0, "lat": 38.872269833333334, "rental_uris": {"android": "https://dc.lft.to/lastmile_qr_scan", "ios": "https://dc.lft.to/lastmile_qr_scan"}, "bike_id": "76b2e98cede990a61449d732fc945113", "lon": -76.977312}, {"is_reserved": 0, "fusion_lon": 0.0, "fusion_lat": 0.0, "name": "2eb24f1308c306fb2ffad73f5677eb8e", "type": "electric_scooter", "is_disabled": 0, "lat": 38.89865966666667, "rental_uris": {"android": "https://dc.lft.to/lastmile_qr_scan", "ios": "https://dc.lft.to/lastmile_qr_scan"}, "bike_id": "2eb24f1308c306fb2ffad73f5677eb8e", "lon": -76.94661033333334}, {"is_reserved": 0, "fusion_lon": 0.0, "fusion_lat": 0.0, "name": "aeba5d67c38aff9c8c95eaf7541feecc", "type": "electric_scooter", "is_disabled": 0, "lat": 38.88509883333333, "rental_uris": {"android": "https://dc.lft.to/lastmile_qr_scan", "ios": "https://dc.lft.to/lastmile_qr_scan"}, "bike_id": "aeba5d67c38aff9c8c95eaf7541feecc", "lon": -76.9983795}, {"is_reserved": 0, "fusion_lon": 0.0, "fusion_lat": 0.0, "name": "108094dc5f6ebfdb084ccd859827065b", "type": "electric_scooter", "is_disabled": 0, "lat": 38.8924245, "rental_uris": {"android": "https://dc.lft.to/lastmile_qr_scan", "ios": "https://dc.lft.to/lastmile_qr_scan"}, "bike_id": "108094dc5f6ebfdb084ccd859827065b", "lon": -77.0416415}, {"is_reserved": 0, "fusion_lon": 0.0, "fusion_lat": 0.0, "name": "082ddfd0b9984c678315723f32b15c29", "type": "electric_scooter", "is_disabled": 0, "lat": 38.923681, "rental_uris": {"android": "https://dc.lft.to/lastmile_qr_scan", "ios": "https://dc.lft.to/lastmile_qr_scan"}, "bike_id": "082ddfd0b9984c678315723f32b15c29", "lon": -77.019514}, {"is_reserved": 0, "fusion_lon": 0.0, "fusion_lat": 0.0, "name": "6057ca4070fc3cde689e77039073f6bc", "type": "electric_scooter", "is_disabled": 0, "lat": 38.907936, "rental_uris": {"android": "https://dc.lft.to/lastmile_qr_scan", "ios": "https://dc.lft.to/lastmile_qr_scan"}, "bike_id": "6057ca4070fc3cde689e77039073f6bc", "lon": -77.034504}, {"is_reserved": 0, "fusion_lon": 0.0, "fusion_lat": 0.0, "name": "3342b8a4ae240b2dd126eb0f1f6df696", "type": "electric_scooter", "is_disabled": 0, "lat": 38.9065405, "rental_uris": {"android": "https://dc.lft.to/lastmile_qr_scan", "ios": "https://dc.lft.to/lastmile_qr_scan"}, "bike_id": "3342b8a4ae240b2dd126eb0f1f6df696", "lon": -77.04870216666667}, {"is_reserved": 0, "fusion_lon": 0.0, "fusion_lat": 0.0, "name": "baa2ca993e4ceb8bf22e8f9fe62a3c90", "type": "electric_scooter", "is_disabled": 0, "lat": 38.9110905, "rental_uris": {"android": "https://dc.lft.to/lastmile_qr_scan", "ios": "https://dc.lft.to/lastmile_qr_scan"}, "bike_id": "baa2ca993e4ceb8bf22e8f9fe62a3c90", "lon": -77.024216}, {"is_reserved": 0, "fusion_lon": 0.0, "fusion_lat": 0.0, "name": "d048f56ddadaa41db1c1e0786aa80848", "type": "electric_scooter", "is_disabled": 0, "lat": 38.90715, "rental_uris": {"android": "https://dc.lft.to/lastmile_qr_scan", "ios": "https://dc.lft.to/lastmile_qr_scan"}, "bike_id": "d048f56ddadaa41db1c1e0786aa80848", "lon": -76.99822216666666}, {"is_reserved": 0, "fusion_lon": 0.0, "fusion_lat": 0.0, "name": "df8cf1960fffa00d8773178440923c1f", "type": "electric_scooter", "is_disabled": 0, "lat": 38.8902315, "rental_uris": {"android": "https://dc.lft.to/lastmile_qr_scan", "ios": "https://dc.lft.to/lastmile_qr_scan"}, "bike_id": "df8cf1960fffa00d8773178440923c1f", "lon": -76.93734416666666}, {"is_reserved": 0, "fusion_lon": 0.0, "fusion_lat": 0.0, "name": "c62ac1959d38508ac30c900d0539fac8", "type": "electric_scooter", "is_disabled": 0, "lat": 38.93172166666667, "rental_uris": {"android": "https://dc.lft.to/lastmile_qr_scan", "ios": "https://dc.lft.to/lastmile_qr_scan"}, "bike_id": "c62ac1959d38508ac30c900d0539fac8", "lon": -77.02815566666666}, {"is_reserved": 0, "fusion_lon": 0.0, "fusion_lat": 0.0, "name": "89e32f5c51e70b7fa348ad3af19a4ef8", "type": "electric_scooter", "is_disabled": 0, "lat": 38.900357, "rental_uris": {"android": "https://dc.lft.to/lastmile_qr_scan", "ios": "https://dc.lft.to/lastmile_qr_scan"}, "bike_id": "89e32f5c51e70b7fa348ad3af19a4ef8", "lon": -77.002058}, {"is_reserved": 0, "fusion_lon": 0.0, "fusion_lat": 0.0, "name": "40f148d665d6d03b05efe21f2a5dd5ad", "type": "electric_scooter", "is_disabled": 0, "lat": 38.91575316666667, "rental_uris": {"android": "https://dc.lft.to/lastmile_qr_scan", "ios": "https://dc.lft.to/lastmile_qr_scan"}, "bike_id": "40f148d665d6d03b05efe21f2a5dd5ad", "lon": -77.03187633333333}, {"is_reserved": 0, "fusion_lon": 0.0, "fusion_lat": 0.0, "name": "8aa645f188588724ec26a368ce0fa6e5", "type": "electric_scooter", "is_disabled": 0, "lat": 38.93542033333333, "rental_uris": {"android": "https://dc.lft.to/lastmile_qr_scan", "ios": "https://dc.lft.to/lastmile_qr_scan"}, "bike_id": "8aa645f188588724ec26a368ce0fa6e5", "lon": -77.0347335}, {"is_reserved": 0, "fusion_lon": 0.0, "fusion_lat": 0.0, "name": "4fab85f9a971f429803b319a5eb48ac3", "type": "electric_scooter", "is_disabled": 0, "lat": 38.9276955, "rental_uris": {"android": "https://dc.lft.to/lastmile_qr_scan", "ios": "https://dc.lft.to/lastmile_qr_scan"}, "bike_id": "4fab85f9a971f429803b319a5eb48ac3", "lon": -77.0206485}, {"is_reserved": 0, "fusion_lon": 0.0, "fusion_lat": 0.0, "name": "da1d4628a98e0823016085e845e29a98", "type": "electric_scooter", "is_disabled": 0, "lat": 38.9007105, "rental_uris": {"android": "https://dc.lft.to/lastmile_qr_scan", "ios": "https://dc.lft.to/lastmile_qr_scan"}, "bike_id": "da1d4628a98e0823016085e845e29a98", "lon": -77.0022}, {"is_reserved": 0, "fusion_lon": 0.0, "fusion_lat": 0.0, "name": "732c31aea37c0248c927d0c27a8d3493", "type": "electric_bike", "is_disabled": 0, "lat": 38.89790833333333, "rental_uris": {"android": "https://dc.lft.to/lastmile_qr_scan", "ios": "https://dc.lft.to/lastmile_qr_scan"}, "bike_id": "732c31aea37c0248c927d0c27a8d3493", "lon": -77.007268}, {"is_reserved": 0, "fusion_lon": 0.0, "fusion_lat": 0.0, "name": "a4849c337ebb1ba6691e606986186a40", "type": "electric_scooter", "is_disabled": 0, "lat": 38.917020666666666, "rental_uris": {"android": "https://dc.lft.to/lastmile_qr_scan", "ios": "https://dc.lft.to/lastmile_qr_scan"}, "bike_id": "a4849c337ebb1ba6691e606986186a40", "lon": -77.02284}, {"is_reserved": 0, "fusion_lon": 0.0, "fusion_lat": 0.0, "name": "ca98b6bfc8c6144fedc18022bc6ae00f", "type": "electric_bike", "is_disabled": 0, "lat": 38.94759583333333, "rental_uris": {"android": "https://dc.lft.to/lastmile_qr_scan", "ios": "https://dc.lft.to/lastmile_qr_scan"}, "bike_id": "ca98b6bfc8c6144fedc18022bc6ae00f", "lon": -77.023688}, {"is_reserved": 0, "fusion_lon": 0.0, "fusion_lat": 0.0, "name": "8d6a0b1ec446aa9dcdeaa31e3ddd184a", "type": "electric_scooter", "is_disabled": 0, "lat": 38.922512833333336, "rental_uris": {"android": "https://dc.lft.to/lastmile_qr_scan", "ios": "https://dc.lft.to/lastmile_qr_scan"}, "bike_id": "8d6a0b1ec446aa9dcdeaa31e3ddd184a", "lon": -77.03082033333334}, {"is_reserved": 0, "fusion_lon": 0.0, "fusion_lat": 0.0, "name": "47b004d8bf8293cb386fa55b7bde9ef5", "type": "electric_scooter", "is_disabled": 0, "lat": 38.90515716666667, "rental_uris": {"android": "https://dc.lft.to/lastmile_qr_scan", "ios": "https://dc.lft.to/lastmile_qr_scan"}, "bike_id": "47b004d8bf8293cb386fa55b7bde9ef5", "lon": -77.00135633333333}, {"is_reserved": 0, "fusion_lon": 0.0, "fusion_lat": 0.0, "name": "07b8041909ea2c067cb7e2e8407afe15", "type": "electric_bike", "is_disabled": 0, "lat": 39.0423145, "rental_uris": {"android": "https://dc.lft.to/lastmile_qr_scan", "ios": "https://dc.lft.to/lastmile_qr_scan"}, "bike_id": "07b8041909ea2c067cb7e2e8407afe15", "lon": -76.997364}, {"is_reserved": 0, "fusion_lon": 0.0, "fusion_lat": 0.0, "name": "3c4bb08a4d7e6019d46ea769cabee033", "type": "electric_bike", "is_disabled": 0, "lat": 38.915550333333336, "rental_uris": {"android": "https://dc.lft.to/lastmile_qr_scan", "ios": "https://dc.lft.to/lastmile_qr_scan"}, "bike_id": "3c4bb08a4d7e6019d46ea769cabee033", "lon": -77.046153}, {"is_reserved": 0, "fusion_lon": 0.0, "fusion_lat": 0.0, "name": "f190543294555b2be31b70cc42e07729", "type": "electric_scooter", "is_disabled": 0, "lat": 38.90741233333333, "rental_uris": {"android": "https://dc.lft.to/lastmile_qr_scan", "ios": "https://dc.lft.to/lastmile_qr_scan"}, "bike_id": "f190543294555b2be31b70cc42e07729", "lon": -77.02693633333334}, {"is_reserved": 0, "fusion_lon": 0.0, "fusion_lat": 0.0, "name": "99da1056f8e00d74311f4c3ebdafc2a6", "type": "electric_scooter", "is_disabled": 0, "lat": 38.911035166666665, "rental_uris": {"android": "https://dc.lft.to/lastmile_qr_scan", "ios": "https://dc.lft.to/lastmile_qr_scan"}, "bike_id": "99da1056f8e00d74311f4c3ebdafc2a6", "lon": -77.02965866666666}, {"is_reserved": 0, "fusion_lon": 0.0, "fusion_lat": 0.0, "name": "2b67b9dcd74b4867ae5207444ca7ebf7", "type": "electric_scooter", "is_disabled": 0, "lat": 38.951768666666666, "rental_uris": {"android": "https://dc.lft.to/lastmile_qr_scan", "ios": "https://dc.lft.to/lastmile_qr_scan"}, "bike_id": "2b67b9dcd74b4867ae5207444ca7ebf7", "lon": -77.02727266666666}, {"is_reserved": 0, "fusion_lon": 0.0, "fusion_lat": 0.0, "name": "0b2e4cda61498bd603af68b568b77b01", "type": "electric_scooter", "is_disabled": 0, "lat": 38.89598183333333, "rental_uris": {"android": "https://dc.lft.to/lastmile_qr_scan", "ios": "https://dc.lft.to/lastmile_qr_scan"}, "bike_id": "0b2e4cda61498bd603af68b568b77b01", "lon": -77.00765383333334}, {"is_reserved": 0, "fusion_lon": 0.0, "fusion_lat": 0.0, "name": "8259d62bf71184fa3d3f3f4b533466f2", "type": "electric_scooter", "is_disabled": 0, "lat": 38.8943, "rental_uris": {"android": "https://dc.lft.to/lastmile_qr_scan", "ios": "https://dc.lft.to/lastmile_qr_scan"}, "bike_id": "8259d62bf71184fa3d3f3f4b533466f2", "lon": -76.911183}, {"is_reserved": 0, "fusion_lon": 0.0, "fusion_lat": 0.0, "name": "7f73c7aa47187d3fd50541bcb63b6108", "type": "electric_bike", "is_disabled": 0, "lat": 38.90272933333333, "rental_uris": {"android": "https://dc.lft.to/lastmile_qr_scan", "ios": "https://dc.lft.to/lastmile_qr_scan"}, "bike_id": "7f73c7aa47187d3fd50541bcb63b6108", "lon": -76.92926016666667}, {"is_reserved": 0, "fusion_lon": 0.0, "fusion_lat": 0.0, "name": "815cc7ea13dd06169833098d35c0fd0f", "type": "electric_scooter", "is_disabled": 0, "lat": 38.907211833333335, "rental_uris": {"android": "https://dc.lft.to/lastmile_qr_scan", "ios": "https://dc.lft.to/lastmile_qr_scan"}, "bike_id": "815cc7ea13dd06169833098d35c0fd0f", "lon": -77.00223433333333}, {"is_reserved": 0, "fusion_lon": 0.0, "fusion_lat": 0.0, "name": "d7a1f3be7e9a42787b4cccaa64aa8ab6", "type": "electric_scooter", "is_disabled": 0, "lat": 38.97217366666667, "rental_uris": {"android": "https://dc.lft.to/lastmile_qr_scan", "ios": "https://dc.lft.to/lastmile_qr_scan"}, "bike_id": "d7a1f3be7e9a42787b4cccaa64aa8ab6", "lon": -77.02636283333334}, {"is_reserved": 0, "fusion_lon": 0.0, "fusion_lat": 0.0, "name": "1c73ad2b896edf4dbf8ad91c763268ec", "type": "electric_scooter", "is_disabled": 0, "lat": 38.876852, "rental_uris": {"android": "https://dc.lft.to/lastmile_qr_scan", "ios": "https://dc.lft.to/lastmile_qr_scan"}, "bike_id": "1c73ad2b896edf4dbf8ad91c763268ec", "lon": -76.99829033333333}, {"is_reserved": 0, "fusion_lon": 0.0, "fusion_lat": 0.0, "name": "e63b5d2e6ea95223b2d6d9dabf944835", "type": "electric_scooter", "is_disabled": 0, "lat": 38.892227, "rental_uris": {"android": "https://dc.lft.to/lastmile_qr_scan", "ios": "https://dc.lft.to/lastmile_qr_scan"}, "bike_id": "e63b5d2e6ea95223b2d6d9dabf944835", "lon": -77.04372633333334}, {"is_reserved": 0, "fusion_lon": 0.0, "fusion_lat": 0.0, "name": "eff0e753cef80287fc09140ac0551bbe", "type": "electric_scooter", "is_disabled": 0, "lat": 38.91715333333333, "rental_uris": {"android": "https://dc.lft.to/lastmile_qr_scan", "ios": "https://dc.lft.to/lastmile_qr_scan"}, "bike_id": "eff0e753cef80287fc09140ac0551bbe", "lon": -77.00887666666667}, {"is_reserved": 0, "fusion_lon": 0.0, "fusion_lat": 0.0, "name": "33b8fa024cbc0e321ac2cd6ef1778415", "type": "electric_scooter", "is_disabled": 0, "lat": 38.92400833333333, "rental_uris": {"android": "https://dc.lft.to/lastmile_qr_scan", "ios": "https://dc.lft.to/lastmile_qr_scan"}, "bike_id": "33b8fa024cbc0e321ac2cd6ef1778415", "lon": -77.026988}, {"is_reserved": 0, "fusion_lon": 0.0, "fusion_lat": 0.0, "name": "fad9f0f9d57df4e9e91d1c52c0ab9fc4", "type": "electric_scooter", "is_disabled": 0, "lat": 38.90141116666667, "rental_uris": {"android": "https://dc.lft.to/lastmile_qr_scan", "ios": "https://dc.lft.to/lastmile_qr_scan"}, "bike_id": "fad9f0f9d57df4e9e91d1c52c0ab9fc4", "lon": -77.000114}, {"is_reserved": 0, "fusion_lon": 0.0, "fusion_lat": 0.0, "name": "47e38fd1ed08ed339ba0ce26cd904025", "type": "electric_scooter", "is_disabled": 0, "lat": 38.899192166666666, "rental_uris": {"android": "https://dc.lft.to/lastmile_qr_scan", "ios": "https://dc.lft.to/lastmile_qr_scan"}, "bike_id": "47e38fd1ed08ed339ba0ce26cd904025", "lon": -76.93364733333334}, {"is_reserved": 0, "fusion_lon": 0.0, "fusion_lat": 0.0, "name": "d64c5bf6fa118af1c66100ed354da213", "type": "electric_scooter", "is_disabled": 0, "lat": 38.90176566666667, "rental_uris": {"android": "https://dc.lft.to/lastmile_qr_scan", "ios": "https://dc.lft.to/lastmile_qr_scan"}, "bike_id": "d64c5bf6fa118af1c66100ed354da213", "lon": -77.022934}, {"is_reserved": 0, "fusion_lon": 0.0, "fusion_lat": 0.0, "name": "e18395b1b7f80a007bffee422c1834b9", "type": "electric_scooter", "is_disabled": 0, "lat": 38.9015595, "rental_uris": {"android": "https://dc.lft.to/lastmile_qr_scan", "ios": "https://dc.lft.to/lastmile_qr_scan"}, "bike_id": "e18395b1b7f80a007bffee422c1834b9", "lon": -76.97629216666667}, {"is_reserved": 0, "fusion_lon": 0.0, "fusion_lat": 0.0, "name": "f4eca52a483ca3ec1aaefde477072121", "type": "electric_scooter", "is_disabled": 0, "lat": 38.921722833333334, "rental_uris": {"android": "https://dc.lft.to/lastmile_qr_scan", "ios": "https://dc.lft.to/lastmile_qr_scan"}, "bike_id": "f4eca52a483ca3ec1aaefde477072121", "lon": -77.04005216666667}, {"is_reserved": 0, "fusion_lon": 0.0, "fusion_lat": 0.0, "name": "06c553731e71197df3f5e52e93a9ce1f", "type": "electric_scooter", "is_disabled": 0, "lat": 38.900676833333335, "rental_uris": {"android": "https://dc.lft.to/lastmile_qr_scan", "ios": "https://dc.lft.to/lastmile_qr_scan"}, "bike_id": "06c553731e71197df3f5e52e93a9ce1f", "lon": -76.9469115}, {"is_reserved": 0, "fusion_lon": 0.0, "fusion_lat": 0.0, "name": "d3a3e0fe87d042e3c844d9a845ad0bd1", "type": "electric_scooter", "is_disabled": 0, "lat": 38.892214, "rental_uris": {"android": "https://dc.lft.to/lastmile_qr_scan", "ios": "https://dc.lft.to/lastmile_qr_scan"}, "bike_id": "d3a3e0fe87d042e3c844d9a845ad0bd1", "lon": -77.02630016666667}, {"is_reserved": 0, "fusion_lon": 0.0, "fusion_lat": 0.0, "name": "9b6c4d93aec5ddfecb3a92ae0a53df4d", "type": "electric_bike", "is_disabled": 0, "lat": 38.962787666666664, "rental_uris": {"android": "https://dc.lft.to/lastmile_qr_scan", "ios": "https://dc.lft.to/lastmile_qr_scan"}, "bike_id": "9b6c4d93aec5ddfecb3a92ae0a53df4d", "lon": -77.01457333333333}, {"is_reserved": 0, "fusion_lon": 0.0, "fusion_lat": 0.0, "name": "e0e3bba1494aa8ed42310bba861c6934", "type": "electric_bike", "is_disabled": 0, "lat": 38.930896, "rental_uris": {"android": "https://dc.lft.to/lastmile_qr_scan", "ios": "https://dc.lft.to/lastmile_qr_scan"}, "bike_id": "e0e3bba1494aa8ed42310bba861c6934", "lon": -77.025992}, {"is_reserved": 0, "fusion_lon": 0.0, "fusion_lat": 0.0, "name": "5d58a1dadfa8ce88f05b6ffa8574a534", "type": "electric_scooter", "is_disabled": 0, "lat": 38.93443716666667, "rental_uris": {"android": "https://dc.lft.to/lastmile_qr_scan", "ios": "https://dc.lft.to/lastmile_qr_scan"}, "bike_id": "5d58a1dadfa8ce88f05b6ffa8574a534", "lon": -76.99877466666666}, {"is_reserved": 0, "fusion_lon": 0.0, "fusion_lat": 0.0, "name": "87191b21d8cd7bfa9f7934e461323c1f", "type": "electric_scooter", "is_disabled": 0, "lat": 38.92681416666667, "rental_uris": {"android": "https://dc.lft.to/lastmile_qr_scan", "ios": "https://dc.lft.to/lastmile_qr_scan"}, "bike_id": "87191b21d8cd7bfa9f7934e461323c1f", "lon": -77.02775283333334}, {"is_reserved": 0, "fusion_lon": 0.0, "fusion_lat": 0.0, "name": "e3a36972c281f28281b07bfa9bb2f7ba", "type": "electric_scooter", "is_disabled": 0, "lat": 38.908352, "rental_uris": {"android": "https://dc.lft.to/lastmile_qr_scan", "ios": "https://dc.lft.to/lastmile_qr_scan"}, "bike_id": "e3a36972c281f28281b07bfa9bb2f7ba", "lon": -77.03319883333333}, {"is_reserved": 0, "fusion_lon": 0.0, "fusion_lat": 0.0, "name": "646e27a6e60d0733adb49896837ac603", "type": "electric_scooter", "is_disabled": 0, "lat": 38.880842333333334, "rental_uris": {"android": "https://dc.lft.to/lastmile_qr_scan", "ios": "https://dc.lft.to/lastmile_qr_scan"}, "bike_id": "646e27a6e60d0733adb49896837ac603", "lon": -76.985065}, {"is_reserved": 0, "fusion_lon": 0.0, "fusion_lat": 0.0, "name": "3eb4340b68974ae3af6bf31038fb7b87", "type": "electric_scooter", "is_disabled": 0, "lat": 38.926505666666664, "rental_uris": {"android": "https://dc.lft.to/lastmile_qr_scan", "ios": "https://dc.lft.to/lastmile_qr_scan"}, "bike_id": "3eb4340b68974ae3af6bf31038fb7b87", "lon": -77.04136983333333}, {"is_reserved": 0, "fusion_lon": 0.0, "fusion_lat": 0.0, "name": "f20e7eaf83af9cea123f54524d0bd37c", "type": "electric_scooter", "is_disabled": 0, "lat": 38.9071755, "rental_uris": {"android": "https://dc.lft.to/lastmile_qr_scan", "ios": "https://dc.lft.to/lastmile_qr_scan"}, "bike_id": "f20e7eaf83af9cea123f54524d0bd37c", "lon": -77.04351966666667}, {"is_reserved": 0, "fusion_lon": 0.0, "fusion_lat": 0.0, "name": "859fe6ac8be89743821dc2c04fd764a3", "type": "electric_scooter", "is_disabled": 0, "lat": 38.918167833333335, "rental_uris": {"android": "https://dc.lft.to/lastmile_qr_scan", "ios": "https://dc.lft.to/lastmile_qr_scan"}, "bike_id": "859fe6ac8be89743821dc2c04fd764a3", "lon": -77.02978883333333}, {"is_reserved": 0, "fusion_lon": 0.0, "fusion_lat": 0.0, "name": "d8194d2cd4a329c600cae03643652400", "type": "electric_scooter", "is_disabled": 0, "lat": 38.909622166666665, "rental_uris": {"android": "https://dc.lft.to/lastmile_qr_scan", "ios": "https://dc.lft.to/lastmile_qr_scan"}, "bike_id": "d8194d2cd4a329c600cae03643652400", "lon": -77.03862433333333}, {"is_reserved": 0, "fusion_lon": 0.0, "fusion_lat": 0.0, "name": "07ced891ccd5641a9800df26e099ee26", "type": "electric_bike", "is_disabled": 0, "lat": 38.910182, "rental_uris": {"android": "https://dc.lft.to/lastmile_qr_scan", "ios": "https://dc.lft.to/lastmile_qr_scan"}, "bike_id": "07ced891ccd5641a9800df26e099ee26", "lon": -77.22803}, {"is_reserved": 0, "fusion_lon": 0.0, "fusion_lat": 0.0, "name": "3a837d2a6344314e5a1294f258faad62", "type": "electric_scooter", "is_disabled": 0, "lat": 38.924484666666665, "rental_uris": {"android": "https://dc.lft.to/lastmile_qr_scan", "ios": "https://dc.lft.to/lastmile_qr_scan"}, "bike_id": "3a837d2a6344314e5a1294f258faad62", "lon": -77.04118316666667}, {"is_reserved": 0, "fusion_lon": 0.0, "fusion_lat": 0.0, "name": "7a0d7b0af0296dd2008a38cc2203b66e", "type": "electric_scooter", "is_disabled": 0, "lat": 38.900041333333334, "rental_uris": {"android": "https://dc.lft.to/lastmile_qr_scan", "ios": "https://dc.lft.to/lastmile_qr_scan"}, "bike_id": "7a0d7b0af0296dd2008a38cc2203b66e", "lon": -77.01211083333334}, {"is_reserved": 0, "fusion_lon": 0.0, "fusion_lat": 0.0, "name": "27faa479c24b2e17ff7def1a8d07baac", "type": "electric_bike", "is_disabled": 0, "lat": 38.88058683333333, "rental_uris": {"android": "https://dc.lft.to/lastmile_qr_scan", "ios": "https://dc.lft.to/lastmile_qr_scan"}, "bike_id": "27faa479c24b2e17ff7def1a8d07baac", "lon": -76.9624165}, {"is_reserved": 0, "fusion_lon": 0.0, "fusion_lat": 0.0, "name": "2fbaf396dbb42a5d1d12d6038ffc2955", "type": "electric_bike", "is_disabled": 0, "lat": 38.961389, "rental_uris": {"android": "https://dc.lft.to/lastmile_qr_scan", "ios": "https://dc.lft.to/lastmile_qr_scan"}, "bike_id": "2fbaf396dbb42a5d1d12d6038ffc2955", "lon": -77.02297266666666}, {"is_reserved": 0, "fusion_lon": 0.0, "fusion_lat": 0.0, "name": "aaf62877ff2c3a5cd4859162b8123d1e", "type": "electric_scooter", "is_disabled": 0, "lat": 38.874962833333335, "rental_uris": {"android": "https://dc.lft.to/lastmile_qr_scan", "ios": "https://dc.lft.to/lastmile_qr_scan"}, "bike_id": "aaf62877ff2c3a5cd4859162b8123d1e", "lon": -76.99979133333333}, {"is_reserved": 0, "fusion_lon": 0.0, "fusion_lat": 0.0, "name": "3494e8bc84d20a89f74e7e843c8f9c4a", "type": "electric_scooter", "is_disabled": 0, "lat": 38.88727016666667, "rental_uris": {"android": "https://dc.lft.to/lastmile_qr_scan", "ios": "https://dc.lft.to/lastmile_qr_scan"}, "bike_id": "3494e8bc84d20a89f74e7e843c8f9c4a", "lon": -77.02830633333333}, {"is_reserved": 0, "fusion_lon": 0.0, "fusion_lat": 0.0, "name": "68222994601b46a7ff089992b1abb5cd", "type": "electric_scooter", "is_disabled": 0, "lat": 38.93537533333333, "rental_uris": {"android": "https://dc.lft.to/lastmile_qr_scan", "ios": "https://dc.lft.to/lastmile_qr_scan"}, "bike_id": "68222994601b46a7ff089992b1abb5cd", "lon": -77.02346133333333}, {"is_reserved": 0, "fusion_lon": 0.0, "fusion_lat": 0.0, "name": "72ae6d10d8345193a326ec8ac07a3333", "type": "electric_scooter", "is_disabled": 0, "lat": 38.903766, "rental_uris": {"android": "https://dc.lft.to/lastmile_qr_scan", "ios": "https://dc.lft.to/lastmile_qr_scan"}, "bike_id": "72ae6d10d8345193a326ec8ac07a3333", "lon": -77.0449055}, {"is_reserved": 0, "fusion_lon": 0.0, "fusion_lat": 0.0, "name": "2a214276b50942b02935d7268d648e85", "type": "electric_scooter", "is_disabled": 0, "lat": 38.907289666666664, "rental_uris": {"android": "https://dc.lft.to/lastmile_qr_scan", "ios": "https://dc.lft.to/lastmile_qr_scan"}, "bike_id": "2a214276b50942b02935d7268d648e85", "lon": -77.0113325}, {"is_reserved": 0, "fusion_lon": 0.0, "fusion_lat": 0.0, "name": "933bfe474c6926efe68ac177337d05f7", "type": "electric_bike", "is_disabled": 0, "lat": 38.87276283333333, "rental_uris": {"android": "https://dc.lft.to/lastmile_qr_scan", "ios": "https://dc.lft.to/lastmile_qr_scan"}, "bike_id": "933bfe474c6926efe68ac177337d05f7", "lon": -77.23319866666667}, {"is_reserved": 0, "fusion_lon": 0.0, "fusion_lat": 0.0, "name": "ac947aa87bb8f49f3d4b958a66f8afa3", "type": "electric_scooter", "is_disabled": 0, "lat": 38.92314, "rental_uris": {"android": "https://dc.lft.to/lastmile_qr_scan", "ios": "https://dc.lft.to/lastmile_qr_scan"}, "bike_id": "ac947aa87bb8f49f3d4b958a66f8afa3", "lon": -77.02755516666667}, {"is_reserved": 0, "fusion_lon": 0.0, "fusion_lat": 0.0, "name": "3c646f0ef59eb01bd799f9ec55f109d2", "type": "electric_scooter", "is_disabled": 0, "lat": 38.86541666666667, "rental_uris": {"android": "https://dc.lft.to/lastmile_qr_scan", "ios": "https://dc.lft.to/lastmile_qr_scan"}, "bike_id": "3c646f0ef59eb01bd799f9ec55f109d2", "lon": -76.98707833333333}, {"is_reserved": 0, "fusion_lon": 0.0, "fusion_lat": 0.0, "name": "01b0b012830ac9f9085e6f22f159934d", "type": "electric_scooter", "is_disabled": 0, "lat": 38.942103833333334, "rental_uris": {"android": "https://dc.lft.to/lastmile_qr_scan", "ios": "https://dc.lft.to/lastmile_qr_scan"}, "bike_id": "01b0b012830ac9f9085e6f22f159934d", "lon": -77.02510233333334}, {"is_reserved": 0, "fusion_lon": 0.0, "fusion_lat": 0.0, "name": "bf1a1ea38b77f4b44b7ce6694e0b469f", "type": "electric_scooter", "is_disabled": 0, "lat": 38.91558416666667, "rental_uris": {"android": "https://dc.lft.to/lastmile_qr_scan", "ios": "https://dc.lft.to/lastmile_qr_scan"}, "bike_id": "bf1a1ea38b77f4b44b7ce6694e0b469f", "lon": -77.0316325}, {"is_reserved": 0, "fusion_lon": 0.0, "fusion_lat": 0.0, "name": "9eb8d6ebbde13ce873ce76ae9449c1ef", "type": "electric_scooter", "is_disabled": 0, "lat": 38.866986, "rental_uris": {"android": "https://dc.lft.to/lastmile_qr_scan", "ios": "https://dc.lft.to/lastmile_qr_scan"}, "bike_id": "9eb8d6ebbde13ce873ce76ae9449c1ef", "lon": -76.98592183333334}, {"is_reserved": 0, "fusion_lon": 0.0, "fusion_lat": 0.0, "name": "1ba7f0150878fb773d502ab6f7164304", "type": "electric_scooter", "is_disabled": 0, "lat": 38.918545333333334, "rental_uris": {"android": "https://dc.lft.to/lastmile_qr_scan", "ios": "https://dc.lft.to/lastmile_qr_scan"}, "bike_id": "1ba7f0150878fb773d502ab6f7164304", "lon": -77.0166505}, {"is_reserved": 0, "fusion_lon": 0.0, "fusion_lat": 0.0, "name": "c71401503f9e0f06e0a63a6595b70ef4", "type": "electric_scooter", "is_disabled": 0, "lat": 38.908008833333334, "rental_uris": {"android": "https://dc.lft.to/lastmile_qr_scan", "ios": "https://dc.lft.to/lastmile_qr_scan"}, "bike_id": "c71401503f9e0f06e0a63a6595b70ef4", "lon": -77.03867433333333}, {"is_reserved": 0, "fusion_lon": 0.0, "fusion_lat": 0.0, "name": "6b7d0e3af68784a5537fe5944272ae56", "type": "electric_scooter", "is_disabled": 0, "lat": 38.90392383333333, "rental_uris": {"android": "https://dc.lft.to/lastmile_qr_scan", "ios": "https://dc.lft.to/lastmile_qr_scan"}, "bike_id": "6b7d0e3af68784a5537fe5944272ae56", "lon": -77.0383455}, {"is_reserved": 0, "fusion_lon": 0.0, "fusion_lat": 0.0, "name": "4eb71511b0cc5b4e7dc7c99c71e3da74", "type": "electric_scooter", "is_disabled": 0, "lat": 38.897407, "rental_uris": {"android": "https://dc.lft.to/lastmile_qr_scan", "ios": "https://dc.lft.to/lastmile_qr_scan"}, "bike_id": "4eb71511b0cc5b4e7dc7c99c71e3da74", "lon": -76.99570816666666}, {"is_reserved": 0, "fusion_lon": 0.0, "fusion_lat": 0.0, "name": "70425f90ec2894bf42e7a368b3183150", "type": "electric_scooter", "is_disabled": 0, "lat": 38.91627033333333, "rental_uris": {"android": "https://dc.lft.to/lastmile_qr_scan", "ios": "https://dc.lft.to/lastmile_qr_scan"}, "bike_id": "70425f90ec2894bf42e7a368b3183150", "lon": -77.04795916666667}, {"is_reserved": 0, "fusion_lon": 0.0, "fusion_lat": 0.0, "name": "f2cc140a700540096cd8dfd34efaff28", "type": "electric_scooter", "is_disabled": 0, "lat": 38.9177265, "rental_uris": {"android": "https://dc.lft.to/lastmile_qr_scan", "ios": "https://dc.lft.to/lastmile_qr_scan"}, "bike_id": "f2cc140a700540096cd8dfd34efaff28", "lon": -77.04060916666667}, {"is_reserved": 0, "fusion_lon": 0.0, "fusion_lat": 0.0, "name": "7264bb4889bdee0ad1c2a8f98d8b3516", "type": "electric_scooter", "is_disabled": 0, "lat": 38.951837166666664, "rental_uris": {"android": "https://dc.lft.to/lastmile_qr_scan", "ios": "https://dc.lft.to/lastmile_qr_scan"}, "bike_id": "7264bb4889bdee0ad1c2a8f98d8b3516", "lon": -77.02614966666667}, {"is_reserved": 0, "fusion_lon": 0.0, "fusion_lat": 0.0, "name": "2ea3af38ea7a9c81782b325e4f707f54", "type": "electric_bike", "is_disabled": 0, "lat": 38.93227683333333, "rental_uris": {"android": "https://dc.lft.to/lastmile_qr_scan", "ios": "https://dc.lft.to/lastmile_qr_scan"}, "bike_id": "2ea3af38ea7a9c81782b325e4f707f54", "lon": -77.1812245}, {"is_reserved": 0, "fusion_lon": 0.0, "fusion_lat": 0.0, "name": "affcf1c24332f452c56b9394e50389f1", "type": "electric_scooter", "is_disabled": 0, "lat": 38.92619933333334, "rental_uris": {"android": "https://dc.lft.to/lastmile_qr_scan", "ios": "https://dc.lft.to/lastmile_qr_scan"}, "bike_id": "affcf1c24332f452c56b9394e50389f1", "lon": -77.043269}, {"is_reserved": 0, "fusion_lon": 0.0, "fusion_lat": 0.0, "name": "4340ea91c40305e1b269caab438d4ffd", "type": "electric_scooter", "is_disabled": 0, "lat": 38.912628, "rental_uris": {"android": "https://dc.lft.to/lastmile_qr_scan", "ios": "https://dc.lft.to/lastmile_qr_scan"}, "bike_id": "4340ea91c40305e1b269caab438d4ffd", "lon": -77.041065}, {"is_reserved": 0, "fusion_lon": 0.0, "fusion_lat": 0.0, "name": "284416bf261738b312413eba036561e0", "type": "electric_scooter", "is_disabled": 0, "lat": 38.91857683333333, "rental_uris": {"android": "https://dc.lft.to/lastmile_qr_scan", "ios": "https://dc.lft.to/lastmile_qr_scan"}, "bike_id": "284416bf261738b312413eba036561e0", "lon": -77.04459766666666}, {"is_reserved": 0, "fusion_lon": 0.0, "fusion_lat": 0.0, "name": "50ba035a4658930149910bfb4e33760c", "type": "electric_scooter", "is_disabled": 0, "lat": 38.894269666666666, "rental_uris": {"android": "https://dc.lft.to/lastmile_qr_scan", "ios": "https://dc.lft.to/lastmile_qr_scan"}, "bike_id": "50ba035a4658930149910bfb4e33760c", "lon": -77.04005116666667}, {"is_reserved": 0, "fusion_lon": 0.0, "fusion_lat": 0.0, "name": "6714682937aae283ed28fcb4e5196561", "type": "electric_scooter", "is_disabled": 0, "lat": 38.912565666666666, "rental_uris": {"android": "https://dc.lft.to/lastmile_qr_scan", "ios": "https://dc.lft.to/lastmile_qr_scan"}, "bike_id": "6714682937aae283ed28fcb4e5196561", "lon": -77.07314483333333}, {"is_reserved": 0, "fusion_lon": 0.0, "fusion_lat": 0.0, "name": "defc2d9749e5af80eb647c2440ced235", "type": "electric_scooter", "is_disabled": 0, "lat": 38.90079583333333, "rental_uris": {"android": "https://dc.lft.to/lastmile_qr_scan", "ios": "https://dc.lft.to/lastmile_qr_scan"}, "bike_id": "defc2d9749e5af80eb647c2440ced235", "lon": -77.00203216666667}, {"is_reserved": 0, "fusion_lon": 0.0, "fusion_lat": 0.0, "name": "6844bd725389f19d4b6c582879e4fbfd", "type": "electric_bike", "is_disabled": 0, "lat": 38.9532645, "rental_uris": {"android": "https://dc.lft.to/lastmile_qr_scan", "ios": "https://dc.lft.to/lastmile_qr_scan"}, "bike_id": "6844bd725389f19d4b6c582879e4fbfd", "lon": -76.954331}, {"is_reserved": 0, "fusion_lon": 0.0, "fusion_lat": 0.0, "name": "960e1229d565a47db6fb589b66d8657c", "type": "electric_scooter", "is_disabled": 0, "lat": 38.9215875, "rental_uris": {"android": "https://dc.lft.to/lastmile_qr_scan", "ios": "https://dc.lft.to/lastmile_qr_scan"}, "bike_id": "960e1229d565a47db6fb589b66d8657c", "lon": -77.03383133333334}, {"is_reserved": 0, "fusion_lon": 0.0, "fusion_lat": 0.0, "name": "647bb195db15cf910809aba41e08e87c", "type": "electric_scooter", "is_disabled": 0, "lat": 38.907135333333336, "rental_uris": {"android": "https://dc.lft.to/lastmile_qr_scan", "ios": "https://dc.lft.to/lastmile_qr_scan"}, "bike_id": "647bb195db15cf910809aba41e08e87c", "lon": -77.04349733333333}, {"is_reserved": 0, "fusion_lon": 0.0, "fusion_lat": 0.0, "name": "acb3a9a269f1fc3ee5724fee4ff9b2ec", "type": "electric_scooter", "is_disabled": 0, "lat": 38.904943333333335, "rental_uris": {"android": "https://dc.lft.to/lastmile_qr_scan", "ios": "https://dc.lft.to/lastmile_qr_scan"}, "bike_id": "acb3a9a269f1fc3ee5724fee4ff9b2ec", "lon": -76.987161}, {"is_reserved": 0, "fusion_lon": 0.0, "fusion_lat": 0.0, "name": "8d0f7fa66f898d4790d842d7cf101693", "type": "electric_scooter", "is_disabled": 0, "lat": 38.916958, "rental_uris": {"android": "https://dc.lft.to/lastmile_qr_scan", "ios": "https://dc.lft.to/lastmile_qr_scan"}, "bike_id": "8d0f7fa66f898d4790d842d7cf101693", "lon": -77.03211466666667}, {"is_reserved": 0, "fusion_lon": 0.0, "fusion_lat": 0.0, "name": "1e4348c4fe1806f643973d71a10d481d", "type": "electric_scooter", "is_disabled": 0, "lat": 38.91112016666666, "rental_uris": {"android": "https://dc.lft.to/lastmile_qr_scan", "ios": "https://dc.lft.to/lastmile_qr_scan"}, "bike_id": "1e4348c4fe1806f643973d71a10d481d", "lon": -77.03257683333334}, {"is_reserved": 0, "fusion_lon": 0.0, "fusion_lat": 0.0, "name": "563b2b3a7237947523ca30ea19ae1e84", "type": "electric_scooter", "is_disabled": 0, "lat": 38.908639666666666, "rental_uris": {"android": "https://dc.lft.to/lastmile_qr_scan", "ios": "https://dc.lft.to/lastmile_qr_scan"}, "bike_id": "563b2b3a7237947523ca30ea19ae1e84", "lon": -77.045098}, {"is_reserved": 0, "fusion_lon": 0.0, "fusion_lat": 0.0, "name": "49b536d596f07b509a60331251102556", "type": "electric_scooter", "is_disabled": 0, "lat": 38.87366516666667, "rental_uris": {"android": "https://dc.lft.to/lastmile_qr_scan", "ios": "https://dc.lft.to/lastmile_qr_scan"}, "bike_id": "49b536d596f07b509a60331251102556", "lon": -76.9701305}, {"is_reserved": 0, "fusion_lon": 0.0, "fusion_lat": 0.0, "name": "8cdebf4c42e2031b4e78ac5a789a53aa", "type": "electric_scooter", "is_disabled": 0, "lat": 38.9077465, "rental_uris": {"android": "https://dc.lft.to/lastmile_qr_scan", "ios": "https://dc.lft.to/lastmile_qr_scan"}, "bike_id": "8cdebf4c42e2031b4e78ac5a789a53aa", "lon": -77.03826333333333}, {"is_reserved": 0, "fusion_lon": 0.0, "fusion_lat": 0.0, "name": "abb3a5388976d3791def6e6012bea61e", "type": "electric_scooter", "is_disabled": 0, "lat": 38.89553166666666, "rental_uris": {"android": "https://dc.lft.to/lastmile_qr_scan", "ios": "https://dc.lft.to/lastmile_qr_scan"}, "bike_id": "abb3a5388976d3791def6e6012bea61e", "lon": -76.998402}, {"is_reserved": 0, "fusion_lon": 0.0, "fusion_lat": 0.0, "name": "2167f1a879d5d4e8099186a493db94dd", "type": "electric_scooter", "is_disabled": 0, "lat": 38.911198, "rental_uris": {"android": "https://dc.lft.to/lastmile_qr_scan", "ios": "https://dc.lft.to/lastmile_qr_scan"}, "bike_id": "2167f1a879d5d4e8099186a493db94dd", "lon": -77.010295}, {"is_reserved": 0, "fusion_lon": 0.0, "fusion_lat": 0.0, "name": "d86f50f86cdf08ba51dcbcfae9b656c2", "type": "electric_scooter", "is_disabled": 0, "lat": 38.942912, "rental_uris": {"android": "https://dc.lft.to/lastmile_qr_scan", "ios": "https://dc.lft.to/lastmile_qr_scan"}, "bike_id": "d86f50f86cdf08ba51dcbcfae9b656c2", "lon": -77.02174666666667}, {"is_reserved": 0, "fusion_lon": 0.0, "fusion_lat": 0.0, "name": "afffa9e767265d27fbb558fdaf466d71", "type": "electric_scooter", "is_disabled": 0, "lat": 38.934502333333334, "rental_uris": {"android": "https://dc.lft.to/lastmile_qr_scan", "ios": "https://dc.lft.to/lastmile_qr_scan"}, "bike_id": "afffa9e767265d27fbb558fdaf466d71", "lon": -77.03082733333333}, {"is_reserved": 0, "fusion_lon": 0.0, "fusion_lat": 0.0, "name": "b3c260e29bfe5011e9296cbcb5084b71", "type": "electric_scooter", "is_disabled": 0, "lat": 38.89499266666667, "rental_uris": {"android": "https://dc.lft.to/lastmile_qr_scan", "ios": "https://dc.lft.to/lastmile_qr_scan"}, "bike_id": "b3c260e29bfe5011e9296cbcb5084b71", "lon": -77.00222666666667}, {"is_reserved": 0, "fusion_lon": 0.0, "fusion_lat": 0.0, "name": "de6d0ae0b7dfbba38d62dac10229fc9d", "type": "electric_bike", "is_disabled": 0, "lat": 38.912701, "rental_uris": {"android": "https://dc.lft.to/lastmile_qr_scan", "ios": "https://dc.lft.to/lastmile_qr_scan"}, "bike_id": "de6d0ae0b7dfbba38d62dac10229fc9d", "lon": -77.01223833333333}, {"is_reserved": 0, "fusion_lon": 0.0, "fusion_lat": 0.0, "name": "3f88ff63e24d3250c2c284251c867444", "type": "electric_scooter", "is_disabled": 0, "lat": 38.89899883333333, "rental_uris": {"android": "https://dc.lft.to/lastmile_qr_scan", "ios": "https://dc.lft.to/lastmile_qr_scan"}, "bike_id": "3f88ff63e24d3250c2c284251c867444", "lon": -77.03161366666667}, {"is_reserved": 0, "fusion_lon": 0.0, "fusion_lat": 0.0, "name": "3f054c803da7ed69f28544f0aebf7382", "type": "electric_scooter", "is_disabled": 0, "lat": 38.959371833333336, "rental_uris": {"android": "https://dc.lft.to/lastmile_qr_scan", "ios": "https://dc.lft.to/lastmile_qr_scan"}, "bike_id": "3f054c803da7ed69f28544f0aebf7382", "lon": -77.03128983333333}, {"is_reserved": 0, "fusion_lon": 0.0, "fusion_lat": 0.0, "name": "7a815cd416f348470e52bb81baa65472", "type": "electric_scooter", "is_disabled": 0, "lat": 38.90561233333333, "rental_uris": {"android": "https://dc.lft.to/lastmile_qr_scan", "ios": "https://dc.lft.to/lastmile_qr_scan"}, "bike_id": "7a815cd416f348470e52bb81baa65472", "lon": -77.04474416666666}, {"is_reserved": 0, "fusion_lon": 0.0, "fusion_lat": 0.0, "name": "f61ad8a0215296ea26dc96f233f76cc7", "type": "electric_scooter", "is_disabled": 0, "lat": 38.8832835, "rental_uris": {"android": "https://dc.lft.to/lastmile_qr_scan", "ios": "https://dc.lft.to/lastmile_qr_scan"}, "bike_id": "f61ad8a0215296ea26dc96f233f76cc7", "lon": -77.0202405}, {"is_reserved": 0, "fusion_lon": 0.0, "fusion_lat": 0.0, "name": "fc7cbf4f9b0881fc0896921b3e0e3b5e", "type": "electric_bike", "is_disabled": 0, "lat": 39.024367833333336, "rental_uris": {"android": "https://dc.lft.to/lastmile_qr_scan", "ios": "https://dc.lft.to/lastmile_qr_scan"}, "bike_id": "fc7cbf4f9b0881fc0896921b3e0e3b5e", "lon": -77.13097383333333}, {"is_reserved": 0, "fusion_lon": 0.0, "fusion_lat": 0.0, "name": "1d732b34ec19d932aaee04af89e21b6e", "type": "electric_scooter", "is_disabled": 0, "lat": 38.89224566666667, "rental_uris": {"android": "https://dc.lft.to/lastmile_qr_scan", "ios": "https://dc.lft.to/lastmile_qr_scan"}, "bike_id": "1d732b34ec19d932aaee04af89e21b6e", "lon": -77.04502616666667}, {"is_reserved": 0, "fusion_lon": 0.0, "fusion_lat": 0.0, "name": "d8489240c57b88e78068ff85b0b5e9ad", "type": "electric_scooter", "is_disabled": 0, "lat": 38.9222965, "rental_uris": {"android": "https://dc.lft.to/lastmile_qr_scan", "ios": "https://dc.lft.to/lastmile_qr_scan"}, "bike_id": "d8489240c57b88e78068ff85b0b5e9ad", "lon": -77.02333066666667}, {"is_reserved": 0, "fusion_lon": 0.0, "fusion_lat": 0.0, "name": "9a8897ffd79c30e9ef658aa9405dc766", "type": "electric_scooter", "is_disabled": 0, "lat": 38.90630383333333, "rental_uris": {"android": "https://dc.lft.to/lastmile_qr_scan", "ios": "https://dc.lft.to/lastmile_qr_scan"}, "bike_id": "9a8897ffd79c30e9ef658aa9405dc766", "lon": -77.047796}, {"is_reserved": 0, "fusion_lon": 0.0, "fusion_lat": 0.0, "name": "d79f64074be57b95fc883ac2158ce075", "type": "electric_scooter", "is_disabled": 0, "lat": 38.864082833333335, "rental_uris": {"android": "https://dc.lft.to/lastmile_qr_scan", "ios": "https://dc.lft.to/lastmile_qr_scan"}, "bike_id": "d79f64074be57b95fc883ac2158ce075", "lon": -76.97426783333333},