{"data": {"bikes": [{"lon": -77.22930533333333, "is_disabled": 0, "lat": 38.931892833333336, "fusion_lat": 0.0, "is_reserved": 0, "rental_uris": {"ios": "https://dc.lft.to/lastmile_qr_scan", "android": "https://dc.lft.to/lastmile_qr_scan"}, "fusion_lon": 0.0, "type": "electric_bike", "bike_id": "797b29236afb8442cf571c6699f9ebad", "name": "797b29236afb8442cf571c6699f9ebad"}, {"lon": -77.021605, "is_disabled": 0, "lat": 38.92599166666667, "fusion_lat": 0.0, "is_reserved": 0, "rental_uris": {"ios": "https://dc.lft.to/lastmile_qr_scan", "android": "https://dc.lft.to/lastmile_qr_scan"}, "fusion_lon": 0.0, "type": "electric_scooter", "bike_id": "aa26869cc499ae9de637cb6b2ca87416", "name": "aa26869cc499ae9de637cb6b2ca87416"}, {"lon": -77.02854933333333, "is_disabled": 0, "lat": 38.89635, "fusion_lat": 0.0, "is_reserved": 0, "rental_uris": {"ios": "https://dc.lft.to/lastmile_qr_scan", "android": "https://dc.lft.to/lastmile_qr_scan"}, "fusion_lon": 0.0, "type": "electric_scooter", "bike_id": "d0d1c1a927b72610faa7ab180f978940", "name": "d0d1c1a927b72610faa7ab180f978940"}, {"lon": -77.02717083333333, "is_disabled": 0, "lat": 38.927635333333335, "fusion_lat": 0.0, "is_reserved": 0, "rental_uris": {"ios": "https://dc.lft.to/lastmile_qr_scan", "android": "https://dc.lft.to/lastmile_qr_scan"}, "fusion_lon": 0.0, "type": "electric_scooter", "bike_id": "eaebc15656897a152364def8fc843e06", "name": "eaebc15656897a152364def8fc843e06"}, {"lon": -76.99161516666666, "is_disabled": 0, "lat": 38.90038666666667, "fusion_lat": 0.0, "is_reserved": 0, "rental_uris": {"ios": "https://dc.lft.to/lastmile_qr_scan", "android": "https://dc.lft.to/lastmile_qr_scan"}, "fusion_lon": 0.0, "type": "electric_scooter", "bike_id": "9fae84f9e97b701788096a071676bcb4", "name": "9fae84f9e97b701788096a071676bcb4"}, {"lon": -77.02727516666667, "is_disabled": 0, "lat": 38.95582, "fusion_lat": 0.0, "is_reserved": 0, "rental_uris": {"ios": "https://dc.lft.to/lastmile_qr_scan", "android": "https://dc.lft.to/lastmile_qr_scan"}, "fusion_lon": 0.0, "type": "electric_scooter", "bike_id": "00c16f9c4daf61178204903e80dab09f", "name": "00c16f9c4daf61178204903e80dab09f"}, {"lon": -77.02735483333333, "is_disabled": 0, "lat": 38.8984585, "fusion_lat": 0.0, "is_reserved": 0, "rental_uris": {"ios": "https://dc.lft.to/lastmile_qr_scan", "android": "https://dc.lft.to/lastmile_qr_scan"}, "fusion_lon": 0.0, "type": "electric_scooter", "bike_id": "25f7f4b5061b7ad5077385ba931bd0c9", "name": "25f7f4b5061b7ad5077385ba931bd0c9"}, {"lon": -77.083074, "is_disabled": 0, "lat": 38.8543695, "fusion_lat": 0.0, "is_reserved": 0, "rental_uris": {"ios": "https://dc.lft.to/lastmile_qr_scan", "android": "https://dc.lft.to/lastmile_qr_scan"}, "fusion_lon": 0.0, "type": "electric_bike", "bike_id": "ce7f520d52a5b072e9182bb93cb05add", "name": "ce7f520d52a5b072e9182bb93cb05add"}, {"lon": -76.99003516666667, "is_disabled": 0, "lat": 38.86501716666667, "fusion_lat": 0.0, "is_reserved": 0, "rental_uris": {"ios": "https://dc.lft.to/lastmile_qr_scan", "android": "https://dc.lft.to/lastmile_qr_scan"}, "fusion_lon": 0.0, "type": "electric_scooter", "bike_id": "f620b9bba8b20da279403881289a3fa2", "name": "f620b9bba8b20da279403881289a3fa2"}, {"lon": -77.02613566666666, "is_disabled": 0, "lat": 38.914138333333334, "fusion_lat": 0.0, "is_reserved": 0, "rental_uris": {"ios": "https://dc.lft.to/lastmile_qr_scan", "android": "https://dc.lft.to/lastmile_qr_scan"}, "fusion_lon": 0.0, "type": "electric_scooter", "bike_id": "8cdad2df0dd9ba2ed410624a93bfd2f5", "name": "8cdad2df0dd9ba2ed410624a93bfd2f5"}, {"lon": -77.04513883333334, "is_disabled": 0, "lat": 38.90027, "fusion_lat": 0.0, "is_reserved": 0, "rental_uris": {"ios": "https://dc.lft.to/lastmile_qr_scan", "android": "https://dc.lft.to/lastmile_qr_scan"}, "fusion_lon": 0.0, "type": "electric_scooter", "bike_id": "746bc08b1e8253d6d47ccc1b1807d8dc", "name": "746bc08b1e8253d6d47ccc1b1807d8dc"}, {"lon": -77.03637083333334, "is_disabled": 0, "lat": 38.93055783333333, "fusion_lat": 0.0, "is_reserved": 0, "rental_uris": {"ios": "https://dc.lft.to/lastmile_qr_scan", "android": "https://dc.lft.to/lastmile_qr_scan"}, "fusion_lon": 0.0, "type": "electric_scooter", "bike_id": "a1a18a0654a22493f90dd28afde7ef01", "name": "a1a18a0654a22493f90dd28afde7ef01"}, {"lon": -77.01726633333334, "is_disabled": 0, "lat": 38.94357633333333, "fusion_lat": 0.0, "is_reserved": 0, "rental_uris": {"ios": "https://dc.lft.to/lastmile_qr_scan", "android": "https://dc.lft.to/lastmile_qr_scan"}, "fusion_lon": 0.0, "type": "electric_scooter", "bike_id": "9a9c8583fa043dd88be3e208f7bde639", "name": "9a9c8583fa043dd88be3e208f7bde639"}, {"lon": -77.03326416666667, "is_disabled": 0, "lat": 38.89225583333333, "fusion_lat": 0.0, "is_reserved": 0, "rental_uris": {"ios": "https://dc.lft.to/lastmile_qr_scan", "android": "https://dc.lft.to/lastmile_qr_scan"}, "fusion_lon": 0.0, "type": "electric_scooter", "bike_id": "ae1cdbeec6b6799888bffb8913f102f2", "name": "ae1cdbeec6b6799888bffb8913f102f2"}, {"lon": -77.02465566666666, "is_disabled": 0, "lat": 38.938605333333335, "fusion_lat": 0.0, "is_reserved": 0, "rental_uris": {"ios": "https://dc.lft.to/lastmile_qr_scan", "android": "https://dc.lft.to/lastmile_qr_scan"}, "fusion_lon": 0.0, "type": "electric_scooter", "bike_id": "74ff8fe273c6b64a4ab3b64230340dd7", "name": "74ff8fe273c6b64a4ab3b64230340dd7"}, {"lon": -77.0148955, "is_disabled": 0, "lat": 38.89220066666667, "fusion_lat": 0.0, "is_reserved": 0, "rental_uris": {"ios": "https://dc.lft.to/lastmile_qr_scan", "android": "https://dc.lft.to/lastmile_qr_scan"}, "fusion_lon": 0.0, "type": "electric_scooter", "bike_id": "cac828397676445dd6b894ad86037cb0", "name": "cac828397676445dd6b894ad86037cb0"}, {"lon": -77.00074216666667, "is_disabled": 0, "lat": 38.8738385, "fusion_lat": 0.0, "is_reserved": 0, "rental_uris": {"ios": "https://dc.lft.to/lastmile_qr_scan", "android": "https://dc.lft.to/lastmile_qr_scan"}, "fusion_lon": 0.0, "type": "electric_scooter", "bike_id": "0480d1ce33a0de95ee74c6609ff3a0c3", "name": "0480d1ce33a0de95ee74c6609ff3a0c3"}, {"lon": -77.05177516666667, "is_disabled": 0, "lat": 38.90550116666667, "fusion_lat": 0.0, "is_reserved": 0, "rental_uris": {"ios": "https://dc.lft.to/lastmile_qr_scan", "android": "https://dc.lft.to/lastmile_qr_scan"}, "fusion_lon": 0.0, "type": "electric_scooter", "bike_id": "f851035164783ce0a25873f793d003c2", "name": "f851035164783ce0a25873f793d003c2"}, {"lon": -77.04098416666666, "is_disabled": 0, "lat": 38.917768, "fusion_lat": 0.0, "is_reserved": 0, "rental_uris": {"ios": "https://dc.lft.to/lastmile_qr_scan", "android": "https://dc.lft.to/lastmile_qr_scan"}, "fusion_lon": 0.0, "type": "electric_scooter", "bike_id": "1f8fb91deb8153baed94e920940949f5", "name": "1f8fb91deb8153baed94e920940949f5"}, {"lon": -77.028855, "is_disabled": 0, "lat": 38.90453933333333, "fusion_lat": 0.0, "is_reserved": 0, "rental_uris": {"ios": "https://dc.lft.to/lastmile_qr_scan", "android": "https://dc.lft.to/lastmile_qr_scan"}, "fusion_lon": 0.0, "type": "electric_scooter", "bike_id": "70cd66c6efefb217f96686bd327135f5", "name": "70cd66c6efefb217f96686bd327135f5"}, {"lon": -77.032854, "is_disabled": 0, "lat": 38.93513083333333, "fusion_lat": 0.0, "is_reserved": 0, "rental_uris": {"ios": "https://dc.lft.to/lastmile_qr_scan", "android": "https://dc.lft.to/lastmile_qr_scan"}, "fusion_lon": 0.0, "type": "electric_scooter", "bike_id": "a046267dc4d6722f5bd393067d93ed26", "name": "a046267dc4d6722f5bd393067d93ed26"}, {"lon": -77.05339383333333, "is_disabled": 0, "lat": 39.040823, "fusion_lat": 0.0, "is_reserved": 0, "rental_uris": {"ios": "https://dc.lft.to/lastmile_qr_scan", "android": "https://dc.lft.to/lastmile_qr_scan"}, "fusion_lon": 0.0, "type": "electric_bike", "bike_id": "f817aa8c88f45b7456d56f224b251de7", "name": "f817aa8c88f45b7456d56f224b251de7"}, {"lon": -76.95095116666667, "is_disabled": 0, "lat": 38.88449116666666, "fusion_lat": 0.0, "is_reserved": 0, "rental_uris": {"ios": "https://dc.lft.to/lastmile_qr_scan", "android": "https://dc.lft.to/lastmile_qr_scan"}, "fusion_lon": 0.0, "type": "electric_scooter", "bike_id": "8953b898cf6694a715829eefcb6ee089", "name": "8953b898cf6694a715829eefcb6ee089"}, {"lon": -77.032672, "is_disabled": 0, "lat": 38.9288535, "fusion_lat": 0.0, "is_reserved": 0, "rental_uris": {"ios": "https://dc.lft.to/lastmile_qr_scan", "android": "https://dc.lft.to/lastmile_qr_scan"}, "fusion_lon": 0.0, "type": "electric_scooter", "bike_id": "831657978d3d3407536a0f5cf60788cf", "name": "831657978d3d3407536a0f5cf60788cf"}, {"lon": -77.04494833333334, "is_disabled": 0, "lat": 38.908641833333334, "fusion_lat": 0.0, "is_reserved": 0, "rental_uris": {"ios": "https://dc.lft.to/lastmile_qr_scan", "android": "https://dc.lft.to/lastmile_qr_scan"}, "fusion_lon": 0.0, "type": "electric_scooter", "bike_id": "e294da3d78b878e94b167936a3d5387a", "name": "e294da3d78b878e94b167936a3d5387a"}, {"lon": -77.00921383333333, "is_disabled": 0, "lat": 38.9106665, "fusion_lat": 0.0, "is_reserved": 0, "rental_uris": {"ios": "https://dc.lft.to/lastmile_qr_scan", "android": "https://dc.lft.to/lastmile_qr_scan"}, "fusion_lon": 0.0, "type": "electric_scooter", "bike_id": "0f1ffe2125e7307d5c6742f1d196677b", "name": "0f1ffe2125e7307d5c6742f1d196677b"}, {"lon": -77.02343033333334, "is_disabled": 0, "lat": 38.929704, "fusion_lat": 0.0, "is_reserved": 0, "rental_uris": {"ios": "https://dc.lft.to/lastmile_qr_scan", "android": "https://dc.lft.to/lastmile_qr_scan"}, "fusion_lon": 0.0, "type": "electric_scooter", "bike_id": "c1efc48a8324952123857c14a27455bd", "name": "c1efc48a8324952123857c14a27455bd"}, {"lon": -77.0383425, "is_disabled": 0, "lat": 38.914889333333335, "fusion_lat": 0.0, "is_reserved": 0, "rental_uris": {"ios": "https://dc.lft.to/lastmile_qr_scan", "android": "https://dc.lft.to/lastmile_qr_scan"}, "fusion_lon": 0.0, "type": "electric_scooter", "bike_id": "c253bf42bcbaa48c17417c252a538fbb", "name": "c253bf42bcbaa48c17417c252a538fbb"}, {"lon": -77.05236533333333, "is_disabled": 0, "lat": 38.92470483333334, "fusion_lat": 0.0, "is_reserved": 0, "rental_uris": {"ios": "https://dc.lft.to/lastmile_qr_scan", "android": "https://dc.lft.to/lastmile_qr_scan"}, "fusion_lon": 0.0, "type": "electric_scooter", "bike_id": "d7556a1525a378ae26fbbf7d8d451d82", "name": "d7556a1525a378ae26fbbf7d8d451d82"}, {"lon": -77.046596, "is_disabled": 0, "lat": 38.90573333333333, "fusion_lat": 0.0, "is_reserved": 0, "rental_uris": {"ios": "https://dc.lft.to/lastmile_qr_scan", "android": "https://dc.lft.to/lastmile_qr_scan"}, "fusion_lon": 0.0, "type": "electric_scooter", "bike_id": "8b6a95a337b8dd12f9e5f4388b8cb993", "name": "8b6a95a337b8dd12f9e5f4388b8cb993"}, {"lon": -77.01778566666667, "is_disabled": 0, "lat": 38.887120333333336, "fusion_lat": 0.0, "is_reserved": 0, "rental_uris": {"ios": "https://dc.lft.to/lastmile_qr_scan", "android": "https://dc.lft.to/lastmile_qr_scan"}, "fusion_lon": 0.0, "type": "electric_scooter", "bike_id": "d80cf06e620a096918de1195e80ee5c6", "name": "d80cf06e620a096918de1195e80ee5c6"}, {"lon": -76.9833375, "is_disabled": 0, "lat": 38.90081933333333, "fusion_lat": 0.0, "is_reserved": 0, "rental_uris": {"ios": "https://dc.lft.to/lastmile_qr_scan", "android": "https://dc.lft.to/lastmile_qr_scan"}, "fusion_lon": 0.0, "type": "electric_scooter", "bike_id": "2e262ce14e7460b8bf0c80eb8b430554", "name": "2e262ce14e7460b8bf0c80eb8b430554"}, {"lon": -77.09673116666667, "is_disabled": 0, "lat": 38.946183, "fusion_lat": 0.0, "is_reserved": 0, "rental_uris": {"ios": "https://dc.lft.to/lastmile_qr_scan", "android": "https://dc.lft.to/lastmile_qr_scan"}, "fusion_lon": 0.0, "type": "electric_bike", "bike_id": "d8cb21e1429c826e8a569813dce1e5a6", "name": "d8cb21e1429c826e8a569813dce1e5a6"}, {"lon": -77.04420166666667, "is_disabled": 0, "lat": 38.91127816666667, "fusion_lat": 0.0, "is_reserved": 0, "rental_uris": {"ios": "https://dc.lft.to/lastmile_qr_scan", "android": "https://dc.lft.to/lastmile_qr_scan"}, "fusion_lon": 0.0, "type": "electric_scooter", "bike_id": "c3935463f1945d0029085ae8f426477b", "name": "c3935463f1945d0029085ae8f426477b"}, {"lon": -77.024478, "is_disabled": 0, "lat": 38.8974775, "fusion_lat": 0.0, "is_reserved": 0, "rental_uris": {"ios": "https://dc.lft.to/lastmile_qr_scan", "android": "https://dc.lft.to/lastmile_qr_scan"}, "fusion_lon": 0.0, "type": "electric_scooter", "bike_id": "36bf8f72405c467877b7424989c6ae94", "name": "36bf8f72405c467877b7424989c6ae94"}, {"lon": -77.0319865, "is_disabled": 0, "lat": 38.918057166666664, "fusion_lat": 0.0, "is_reserved": 0, "rental_uris": {"ios": "https://dc.lft.to/lastmile_qr_scan", "android": "https://dc.lft.to/lastmile_qr_scan"}, "fusion_lon": 0.0, "type": "electric_scooter", "bike_id": "877e59637343a83fef8dbc27ac574825", "name": "877e59637343a83fef8dbc27ac574825"}, {"lon": -77.05429933333333, "is_disabled": 0, "lat": 38.928490833333335, "fusion_lat": 0.0, "is_reserved": 0, "rental_uris": {"ios": "https://dc.lft.to/lastmile_qr_scan", "android": "https://dc.lft.to/lastmile_qr_scan"}, "fusion_lon": 0.0, "type": "electric_scooter", "bike_id": "0befc304a72a8cee249525f12b3c8b73", "name": "0befc304a72a8cee249525f12b3c8b73"}, {"lon": -77.03255983333334, "is_disabled": 0, "lat": 38.939639666666665, "fusion_lat": 0.0, "is_reserved": 0, "rental_uris": {"ios": "https://dc.lft.to/lastmile_qr_scan", "android": "https://dc.lft.to/lastmile_qr_scan"}, "fusion_lon": 0.0, "type": "electric_scooter", "bike_id": "309bd0e653384bd0dd6cf3f4a2875573", "name": "309bd0e653384bd0dd6cf3f4a2875573"}, {"lon": -77.01774783333333, "is_disabled": 0, "lat": 38.877738666666666, "fusion_lat": 0.0, "is_reserved": 0, "rental_uris": {"ios": "https://dc.lft.to/lastmile_qr_scan", "android": "https://dc.lft.to/lastmile_qr_scan"}, "fusion_lon": 0.0, "type": "electric_scooter", "bike_id": "7a5a91c753bea639e37b48c925015006", "name": "7a5a91c753bea639e37b48c925015006"}, {"lon": -77.02327883333334, "is_disabled": 0, "lat": 38.894943833333336, "fusion_lat": 0.0, "is_reserved": 0, "rental_uris": {"ios": "https://dc.lft.to/lastmile_qr_scan", "android": "https://dc.lft.to/lastmile_qr_scan"}, "fusion_lon": 0.0, "type": "electric_bike", "bike_id": "dcc73575d0da02db3af752f1af9b2178", "name": "dcc73575d0da02db3af752f1af9b2178"}, {"lon": -77.02223733333334, "is_disabled": 0, "lat": 38.89220133333333, "fusion_lat": 0.0, "is_reserved": 0, "rental_uris": {"ios": "https://dc.lft.to/lastmile_qr_scan", "android": "https://dc.lft.to/lastmile_qr_scan"}, "fusion_lon": 0.0, "type": "electric_scooter", "bike_id": "e2f6d95205c5137844262509555ec783", "name": "e2f6d95205c5137844262509555ec783"}, {"lon": -77.02289983333333, "is_disabled": 0, "lat": 38.9156235, "fusion_lat": 0.0, "is_reserved": 0, "rental_uris": {"ios": "https://dc.lft.to/lastmile_qr_scan", "android": "https://dc.lft.to/lastmile_qr_scan"}, "fusion_lon": 0.0, "type": "electric_scooter", "bike_id": "26431562233b5bccba746d98abcef8ac", "name": "26431562233b5bccba746d98abcef8ac"}, {"lon": -77.019007, "is_disabled": 0, "lat": 38.90921216666667, "fusion_lat": 0.0, "is_reserved": 0, "rental_uris": {"ios": "https://dc.lft.to/lastmile_qr_scan", "android": "https://dc.lft.to/lastmile_qr_scan"}, "fusion_lon": 0.0, "type": "electric_scooter", "bike_id": "204b4533a6ad4c0d19d010f94311dd5e", "name": "204b4533a6ad4c0d19d010f94311dd5e"}, {"lon": -77.0121895, "is_disabled": 0, "lat": 38.91750116666667, "fusion_lat": 0.0, "is_reserved": 0, "rental_uris": {"ios": "https://dc.lft.to/lastmile_qr_scan", "android": "https://dc.lft.to/lastmile_qr_scan"}, "fusion_lon": 0.0, "type": "electric_scooter", "bike_id": "4f2a90d0d70bf54b6ed37577bc2ad538", "name": "4f2a90d0d70bf54b6ed37577bc2ad538"}, {"lon": -77.01991583333333, "is_disabled": 0, "lat": 38.91423616666667, "fusion_lat": 0.0, "is_reserved": 0, "rental_uris": {"ios": "https://dc.lft.to/lastmile_qr_scan", "android": "https://dc.lft.to/lastmile_qr_scan"}, "fusion_lon": 0.0, "type": "electric_scooter", "bike_id": "e5e6485988c9afda294e7105defcf669", "name": "e5e6485988c9afda294e7105defcf669"}, {"lon": -77.00198866666666, "is_disabled": 0, "lat": 38.90267733333334, "fusion_lat": 0.0, "is_reserved": 0, "rental_uris": {"ios": "https://dc.lft.to/lastmile_qr_scan", "android": "https://dc.lft.to/lastmile_qr_scan"}, "fusion_lon": 0.0, "type": "electric_scooter", "bike_id": "2ce23645e152e069e641879933b8ef5e", "name": "2ce23645e152e069e641879933b8ef5e"}, {"lon": -76.98668066666667, "is_disabled": 0, "lat": 38.906091833333335, "fusion_lat": 0.0, "is_reserved": 0, "rental_uris": {"ios": "https://dc.lft.to/lastmile_qr_scan", "android": "https://dc.lft.to/lastmile_qr_scan"}, "fusion_lon": 0.0, "type": "electric_scooter", "bike_id": "bd97ab9853a2f14355c32b826e34cdf1", "name": "bd97ab9853a2f14355c32b826e34cdf1"}, {"lon": -77.0634385, "is_disabled": 0, "lat": 38.90679133333333, "fusion_lat": 0.0, "is_reserved": 0, "rental_uris": {"ios": "https://dc.lft.to/lastmile_qr_scan", "android": "https://dc.lft.to/lastmile_qr_scan"}, "fusion_lon": 0.0, "type": "electric_scooter", "bike_id": "545a6e75383ca19b69084a85735c60b3", "name": "545a6e75383ca19b69084a85735c60b3"}, {"lon": -77.02226316666666, "is_disabled": 0, "lat": 38.90563, "fusion_lat": 0.0, "is_reserved": 0, "rental_uris": {"ios": "https://dc.lft.to/lastmile_qr_scan", "android": "https://dc.lft.to/lastmile_qr_scan"}, "fusion_lon": 0.0, "type": "electric_scooter", "bike_id": "13292c625059e0d10610e491ae755f07", "name": "13292c625059e0d10610e491ae755f07"}, {"lon": -77.034017, "is_disabled": 0, "lat": 38.90969116666667, "fusion_lat": 0.0, "is_reserved": 0, "rental_uris": {"ios": "https://dc.lft.to/lastmile_qr_scan", "android": "https://dc.lft.to/lastmile_qr_scan"}, "fusion_lon": 0.0, "type": "electric_scooter", "bike_id": "d630e188c354bc96585c98e22d80e767", "name": "d630e188c354bc96585c98e22d80e767"}, {"lon": -77.02705266666666, "is_disabled": 0, "lat": 38.9066945, "fusion_lat": 0.0, "is_reserved": 0, "rental_uris": {"ios": "https://dc.lft.to/lastmile_qr_scan", "android": "https://dc.lft.to/lastmile_qr_scan"}, "fusion_lon": 0.0, "type": "electric_scooter", "bike_id": "764cf198d07e80951b4c73ff9708797d", "name": "764cf198d07e80951b4c73ff9708797d"}, {"lon": -77.02317583333334, "is_disabled": 0, "lat": 38.900975, "fusion_lat": 0.0, "is_reserved": 0, "rental_uris": {"ios": "https://dc.lft.to/lastmile_qr_scan", "android": "https://dc.lft.to/lastmile_qr_scan"}, "fusion_lon": 0.0, "type": "electric_scooter", "bike_id": "887c67f440ff361a74be13b2c8037c46", "name": "887c67f440ff361a74be13b2c8037c46"}, {"lon": -77.04103883333333, "is_disabled": 0, "lat": 38.903941833333334, "fusion_lat": 0.0, "is_reserved": 0, "rental_uris": {"ios": "https://dc.lft.to/lastmile_qr_scan", "android": "https://dc.lft.to/lastmile_qr_scan"}, "fusion_lon": 0.0, "type": "electric_bike", "bike_id": "650636e05dfaac4588f4288a9242f30b", "name": "650636e05dfaac4588f4288a9242f30b"}, {"lon": -77.033553, "is_disabled": 0, "lat": 38.902868166666664, "fusion_lat": 0.0, "is_reserved": 0, "rental_uris": {"ios": "https://dc.lft.to/lastmile_qr_scan", "android": "https://dc.lft.to/lastmile_qr_scan"}, "fusion_lon": 0.0, "type": "electric_scooter", "bike_id": "e8458e0ed6d761a300730b4c26531c99", "name": "e8458e0ed6d761a300730b4c26531c99"}, {"lon": -77.0597455, "is_disabled": 0, "lat": 38.901069, "fusion_lat": 0.0, "is_reserved": 0, "rental_uris": {"ios": "https://dc.lft.to/lastmile_qr_scan", "android": "https://dc.lft.to/lastmile_qr_scan"}, "fusion_lon": 0.0, "type": "electric_scooter", "bike_id": "a17dd78f26a1e149e6fa2bc5c38e3aa8", "name": "a17dd78f26a1e149e6fa2bc5c38e3aa8"}, {"lon": -77.024096, "is_disabled": 0, "lat": 38.914009, "fusion_lat": 0.0, "is_reserved": 0, "rental_uris": {"ios": "https://dc.lft.to/lastmile_qr_scan", "android": "https://dc.lft.to/lastmile_qr_scan"}, "fusion_lon": 0.0, "type": "electric_scooter", "bike_id": "217518854fb1d95debfd10b2e6bce7b3", "name": "217518854fb1d95debfd10b2e6bce7b3"}, {"lon": -77.02497266666667, "is_disabled": 0, "lat": 38.918083833333334, "fusion_lat": 0.0, "is_reserved": 0, "rental_uris": {"ios": "https://dc.lft.to/lastmile_qr_scan", "android": "https://dc.lft.to/lastmile_qr_scan"}, "fusion_lon": 0.0, "type": "electric_scooter", "bike_id": "b1df3dc32256af4138c3d960694439f8", "name": "b1df3dc32256af4138c3d960694439f8"}, {"lon": -76.975642, "is_disabled": 0, "lat": 38.924589833333336, "fusion_lat": 0.0, "is_reserved": 0, "rental_uris": {"ios": "https://dc.lft.to/lastmile_qr_scan", "android": "https://dc.lft.to/lastmile_qr_scan"}, "fusion_lon": 0.0, "type": "electric_bike", "bike_id": "a0af4938c259ea213ec2c643411c1fbe", "name": "a0af4938c259ea213ec2c643411c1fbe"}, {"lon": -77.12737833333334, "is_disabled": 0, "lat": 38.89568216666667, "fusion_lat": 0.0, "is_reserved": 0, "rental_uris": {"ios": "https://dc.lft.to/lastmile_qr_scan", "android": "https://dc.lft.to/lastmile_qr_scan"}, "fusion_lon": 0.0, "type": "electric_bike", "bike_id": "dd7aba9fd8bf07df746cc377aa7b37c4", "name": "dd7aba9fd8bf07df746cc377aa7b37c4"}, {"lon": -77.00383683333334, "is_disabled": 0, "lat": 38.836076, "fusion_lat": 0.0, "is_reserved": 0, "rental_uris": {"ios": "https://dc.lft.to/lastmile_qr_scan", "android": "https://dc.lft.to/lastmile_qr_scan"}, "fusion_lon": 0.0, "type": "electric_bike", "bike_id": "84d88a6f73551e89c96bb1d8b875e3e9", "name": "84d88a6f73551e89c96bb1d8b875e3e9"}, {"lon": -77.03182833333334, "is_disabled": 0, "lat": 38.90878516666667, "fusion_lat": 0.0, "is_reserved": 0, "rental_uris": {"ios": "https://dc.lft.to/lastmile_qr_scan", "android": "https://dc.lft.to/lastmile_qr_scan"}, "fusion_lon": 0.0, "type": "electric_scooter", "bike_id": "9d52661c3f56cf645d49d048ae230d21", "name": "9d52661c3f56cf645d49d048ae230d21"}, {"lon": -77.03356, "is_disabled": 0, "lat": 38.901384, "fusion_lat": 0.0, "is_reserved": 0, "rental_uris": {"ios": "https://dc.lft.to/lastmile_qr_scan", "android": "https://dc.lft.to/lastmile_qr_scan"}, "fusion_lon": 0.0, "type": "electric_scooter", "bike_id": "8de35b8da933af36f5a2e0de1427c8fc", "name": "8de35b8da933af36f5a2e0de1427c8fc"}, {"lon": -77.03830683333334, "is_disabled": 0, "lat": 38.90778566666667, "fusion_lat": 0.0, "is_reserved": 0, "rental_uris": {"ios": "https://dc.lft.to/lastmile_qr_scan", "android": "https://dc.lft.to/lastmile_qr_scan"}, "fusion_lon": 0.0, "type": "electric_scooter", "bike_id": "0c16885d7e144a0f7d99b9153193822d", "name": "0c16885d7e144a0f7d99b9153193822d"}, {"lon": -77.0140315, "is_disabled": 0, "lat": 38.92820833333333, "fusion_lat": 0.0, "is_reserved": 0, "rental_uris": {"ios": "https://dc.lft.to/lastmile_qr_scan", "android": "https://dc.lft.to/lastmile_qr_scan"}, "fusion_lon": 0.0, "type": "electric_scooter", "bike_id": "053e62ee88994051f2a15d8116981298", "name": "053e62ee88994051f2a15d8116981298"}, {"lon": -76.99872383333333, "is_disabled": 0, "lat": 38.8443185, "fusion_lat": 0.0, "is_reserved": 0, "rental_uris": {"ios": "https://dc.lft.to/lastmile_qr_scan", "android": "https://dc.lft.to/lastmile_qr_scan"}, "fusion_lon": 0.0, "type": "electric_scooter", "bike_id": "6a48513bce9201cf44d88fa3cf75bb44", "name": "6a48513bce9201cf44d88fa3cf75bb44"}, {"lon": -77.0418875, "is_disabled": 0, "lat": 38.9204045, "fusion_lat": 0.0, "is_reserved": 0, "rental_uris": {"ios": "https://dc.lft.to/lastmile_qr_scan", "android": "https://dc.lft.to/lastmile_qr_scan"}, "fusion_lon": 0.0, "type": "electric_scooter", "bike_id": "a743bd488db1409f7a833aa2f352a08e", "name": "a743bd488db1409f7a833aa2f352a08e"}, {"lon": -77.04767083333333, "is_disabled": 0, "lat": 38.917550166666665, "fusion_lat": 0.0, "is_reserved": 0, "rental_uris": {"ios": "https://dc.lft.to/lastmile_qr_scan", "android": "https://dc.lft.to/lastmile_qr_scan"}, "fusion_lon": 0.0, "type": "electric_scooter", "bike_id": "a29979fe940ded22c02bb0b87f682145", "name": "a29979fe940ded22c02bb0b87f682145"}, {"lon": -77.00200283333334, "is_disabled": 0, "lat": 38.902359, "fusion_lat": 0.0, "is_reserved": 0, "rental_uris": {"ios": "https://dc.lft.to/lastmile_qr_scan", "android": "https://dc.lft.to/lastmile_qr_scan"}, "fusion_lon": 0.0, "type": "electric_scooter", "bike_id": "d1e4ade36b01d16d722d93d368c1075d", "name": "d1e4ade36b01d16d722d93d368c1075d"}, {"lon": -77.00202133333333, "is_disabled": 0, "lat": 38.9650605, "fusion_lat": 0.0, "is_reserved": 0, "rental_uris": {"ios": "https://dc.lft.to/lastmile_qr_scan", "android": "https://dc.lft.to/lastmile_qr_scan"}, "fusion_lon": 0.0, "type": "electric_scooter", "bike_id": "173f58edbcd0cbd3e27848d3dbb04f97", "name": "173f58edbcd0cbd3e27848d3dbb04f97"}, {"lon": -77.0198675, "is_disabled": 0, "lat": 38.87675516666667, "fusion_lat": 0.0, "is_reserved": 0, "rental_uris": {"ios": "https://dc.lft.to/lastmile_qr_scan", "android": "https://dc.lft.to/lastmile_qr_scan"}, "fusion_lon": 0.0, "type": "electric_scooter", "bike_id": "dc82252ea230a5a4a5adb6b9587368e8", "name": "dc82252ea230a5a4a5adb6b9587368e8"}, {"lon": -77.02977416666667, "is_disabled": 0, "lat": 38.98695166666667, "fusion_lat": 0.0, "is_reserved": 0, "rental_uris": {"ios": "https://dc.lft.to/lastmile_qr_scan", "android": "https://dc.lft.to/lastmile_qr_scan"}, "fusion_lon": 0.0, "type": "electric_scooter", "bike_id": "d38d7d5db67cdb10844d088048eab18a", "name": "d38d7d5db67cdb10844d088048eab18a"}, {"lon": -77.03983083333334, "is_disabled": 0, "lat": 38.89227016666667, "fusion_lat": 0.0, "is_reserved": 0, "rental_uris": {"ios": "https://dc.lft.to/lastmile_qr_scan", "android": "https://dc.lft.to/lastmile_qr_scan"}, "fusion_lon": 0.0, "type": "electric_scooter", "bike_id": "aedc0e5a3f71bc39abbff38d6f270cd2", "name": "aedc0e5a3f71bc39abbff38d6f270cd2"}, {"lon": -77.02389916666667, "is_disabled": 0, "lat": 38.9070145, "fusion_lat": 0.0, "is_reserved": 0, "rental_uris": {"ios": "https://dc.lft.to/lastmile_qr_scan", "android": "https://dc.lft.to/lastmile_qr_scan"}, "fusion_lon": 0.0, "type": "electric_scooter", "bike_id": "5b3b99cc4ebb9c056fab69e7ce42f1ab", "name": "5b3b99cc4ebb9c056fab69e7ce42f1ab"}, {"lon": -77.04000166666667, "is_disabled": 0, "lat": 38.93428433333333, "fusion_lat": 0.0, "is_reserved": 0, "rental_uris": {"ios": "https://dc.lft.to/lastmile_qr_scan", "android": "https://dc.lft.to/lastmile_qr_scan"}, "fusion_lon": 0.0, "type": "electric_scooter", "bike_id": "30df86cd2b08803d834d6a17fa4860b0", "name": "30df86cd2b08803d834d6a17fa4860b0"}, {"lon": -77.02402583333334, "is_disabled": 0, "lat": 38.9345795, "fusion_lat": 0.0, "is_reserved": 0, "rental_uris": {"ios": "https://dc.lft.to/lastmile_qr_scan", "android": "https://dc.lft.to/lastmile_qr_scan"}, "fusion_lon": 0.0, "type": "electric_scooter", "bike_id": "7349493115457b806182df7650821c78", "name": "7349493115457b806182df7650821c78"}, {"lon": -77.02203116666666, "is_disabled": 0, "lat": 38.950086666666664, "fusion_lat": 0.0, "is_reserved": 0, "rental_uris": {"ios": "https://dc.lft.to/lastmile_qr_scan", "android": "https://dc.lft.to/lastmile_qr_scan"}, "fusion_lon": 0.0, "type": "electric_scooter", "bike_id": "4f3ad17fee59cb9332c2899f3d203a03", "name": "4f3ad17fee59cb9332c2899f3d203a03"}, {"lon": -76.9790895, "is_disabled": 0, "lat": 38.904277666666665, "fusion_lat": 0.0, "is_reserved": 0, "rental_uris": {"ios": "https://dc.lft.to/lastmile_qr_scan", "android": "https://dc.lft.to/lastmile_qr_scan"}, "fusion_lon": 0.0, "type": "electric_scooter", "bike_id": "73ee8c3aeabf84d72139b36ee7e7bce7", "name": "73ee8c3aeabf84d72139b36ee7e7bce7"}, {"lon": -77.04368516666666, "is_disabled": 0, "lat": 38.892226666666666, "fusion_lat": 0.0, "is_reserved": 0, "rental_uris": {"ios": "https://dc.lft.to/lastmile_qr_scan", "android": "https://dc.lft.to/lastmile_qr_scan"}, "fusion_lon": 0.0, "type": "electric_scooter", "bike_id": "c4e68842e509248394d84e42e6afb81e", "name": "c4e68842e509248394d84e42e6afb81e"}, {"lon": -77.0169885, "is_disabled": 0, "lat": 38.90757333333333, "fusion_lat": 0.0, "is_reserved": 0, "rental_uris": {"ios": "https://dc.lft.to/lastmile_qr_scan", "android": "https://dc.lft.to/lastmile_qr_scan"}, "fusion_lon": 0.0, "type": "electric_scooter", "bike_id": "c14cde2fc792a3eb26f310591d71c645", "name": "c14cde2fc792a3eb26f310591d71c645"}, {"lon": -76.94640283333334, "is_disabled": 0, "lat": 38.898673, "fusion_lat": 0.0, "is_reserved": 0, "rental_uris": {"ios": "https://dc.lft.to/lastmile_qr_scan", "android": "https://dc.lft.to/lastmile_qr_scan"}, "fusion_lon": 0.0, "type": "electric_scooter", "bike_id": "358dc1b29a4b916c6d7e23fd86bb24c2", "name": "358dc1b29a4b916c6d7e23fd86bb24c2"}, {"lon": -77.02321033333334, "is_disabled": 0, "lat": 38.90729266666666, "fusion_lat": 0.0, "is_reserved": 0, "rental_uris": {"ios": "https://dc.lft.to/lastmile_qr_scan", "android": "https://dc.lft.to/lastmile_qr_scan"}, "fusion_lon": 0.0, "type": "electric_scooter", "bike_id": "ddca4707d7da970f00bc96b4beaa38dd", "name": "ddca4707d7da970f00bc96b4beaa38dd"}, {"lon": -77.0706015, "is_disabled": 0, "lat": 38.901064833333336, "fusion_lat": 0.0, "is_reserved": 0, "rental_uris": {"ios": "https://dc.lft.to/lastmile_qr_scan", "android": "https://dc.lft.to/lastmile_qr_scan"}, "fusion_lon": 0.0, "type": "electric_scooter", "bike_id": "40096fba4110d926ad0b594752afdd48", "name": "40096fba4110d926ad0b594752afdd48"}, {"lon": -77.04483566666667, "is_disabled": 0, "lat": 38.89516033333334, "fusion_lat": 0.0, "is_reserved": 0, "rental_uris": {"ios": "https://dc.lft.to/lastmile_qr_scan", "android": "https://dc.lft.to/lastmile_qr_scan"}, "fusion_lon": 0.0, "type": "electric_scooter", "bike_id": "0be6daca4bd809f8457c6f443d6d5dfe", "name": "0be6daca4bd809f8457c6f443d6d5dfe"}, {"lon": -77.00197383333334, "is_disabled": 0, "lat": 38.902674833333336, "fusion_lat": 0.0, "is_reserved": 0, "rental_uris": {"ios": "https://dc.lft.to/lastmile_qr_scan", "android": "https://dc.lft.to/lastmile_qr_scan"}, "fusion_lon": 0.0, "type": "electric_scooter", "bike_id": "3f62ed299bfae85303e86c680bd1422d", "name": "3f62ed299bfae85303e86c680bd1422d"}, {"lon": -77.05028416666667, "is_disabled": 0, "lat": 38.8924695, "fusion_lat": 0.0, "is_reserved": 0, "rental_uris": {"ios": "https://dc.lft.to/lastmile_qr_scan", "android": "https://dc.lft.to/lastmile_qr_scan"}, "fusion_lon": 0.0, "type": "electric_scooter", "bike_id": "e8725e17ba492cd6de9d40ddca95985d", "name": "e8725e17ba492cd6de9d40ddca95985d"}, {"lon": -77.02955633333333, "is_disabled": 0, "lat": 38.934572333333335, "fusion_lat": 0.0, "is_reserved": 0, "rental_uris": {"ios": "https://dc.lft.to/lastmile_qr_scan", "android": "https://dc.lft.to/lastmile_qr_scan"}, "fusion_lon": 0.0, "type": "electric_scooter", "bike_id": "0d6eebb1f8ae87d865097be6700c6c0a", "name": "0d6eebb1f8ae87d865097be6700c6c0a"}, {"lon": -77.02615533333334, "is_disabled": 0, "lat": 38.88769666666666, "fusion_lat": 0.0, "is_reserved": 0, "rental_uris": {"ios": "https://dc.lft.to/lastmile_qr_scan", "android": "https://dc.lft.to/lastmile_qr_scan"}, "fusion_lon": 0.0, "type": "electric_scooter", "bike_id": "fe532d5459cef0acbd921fdfd48e1871", "name": "fe532d5459cef0acbd921fdfd48e1871"}, {"lon": -76.94639933333333, "is_disabled": 0, "lat": 38.89868333333333, "fusion_lat": 0.0, "is_reserved": 0, "rental_uris": {"ios": "https://dc.lft.to/lastmile_qr_scan", "android": "https://dc.lft.to/lastmile_qr_scan"}, "fusion_lon": 0.0, "type": "electric_scooter", "bike_id": "1f159dd324b3141e0fd94af281c725fa", "name": "1f159dd324b3141e0fd94af281c725fa"}, {"lon": -76.98711083333333, "is_disabled": 0, "lat": 38.866996, "fusion_lat": 0.0, "is_reserved": 0, "rental_uris": {"ios": "https://dc.lft.to/lastmile_qr_scan", "android": "https://dc.lft.to/lastmile_qr_scan"}, "fusion_lon": 0.0, "type": "electric_scooter", "bike_id": "838e4996cf0baf213975cdfd0a8612e9", "name": "838e4996cf0baf213975cdfd0a8612e9"}, {"lon": -76.94048933333333, "is_disabled": 0, "lat": 38.97857966666667, "fusion_lat": 0.0, "is_reserved": 0, "rental_uris": {"ios": "https://dc.lft.to/lastmile_qr_scan", "android": "https://dc.lft.to/lastmile_qr_scan"}, "fusion_lon": 0.0, "type": "electric_bike", "bike_id": "72370f83fcfe9321e4c96272199fb61c", "name": "72370f83fcfe9321e4c96272199fb61c"}, {"lon": -77.04873066666667, "is_disabled": 0, "lat": 38.904951833333335, "fusion_lat": 0.0, "is_reserved": 0, "rental_uris": {"ios": "https://dc.lft.to/lastmile_qr_scan", "android": "https://dc.lft.to/lastmile_qr_scan"}, "fusion_lon": 0.0, "type": "electric_scooter", "bike_id": "506384e988d2edbf522b05a65ace7b23", "name": "506384e988d2edbf522b05a65ace7b23"}, {"lon": -77.0453025, "is_disabled": 0, "lat": 38.903477, "fusion_lat": 0.0, "is_reserved": 0, "rental_uris": {"ios": "https://dc.lft.to/lastmile_qr_scan", "android": "https://dc.lft.to/lastmile_qr_scan"}, "fusion_lon": 0.0, "type": "electric_scooter", "bike_id": "1e30453fabf4e2bcd5f2492f96f1b38a", "name": "1e30453fabf4e2bcd5f2492f96f1b38a"}, {"lon": -77.04639866666666, "is_disabled": 0, "lat": 38.902047333333336, "fusion_lat": 0.0, "is_reserved": 0, "rental_uris": {"ios": "https://dc.lft.to/lastmile_qr_scan", "android": "https://dc.lft.to/lastmile_qr_scan"}, "fusion_lon": 0.0, "type": "electric_scooter", "bike_id": "0928eebb72539cdac6b4b9907b87e153", "name": "0928eebb72539cdac6b4b9907b87e153"}, {"lon": -77.02404866666667, "is_disabled": 0, "lat": 38.915492, "fusion_lat": 0.0, "is_reserved": 0, "rental_uris": {"ios": "https://dc.lft.to/lastmile_qr_scan", "android": "https://dc.lft.to/lastmile_qr_scan"}, "fusion_lon": 0.0, "type": "electric_scooter", "bike_id": "b64830f6ac0a6dc5a4404061ddb2c32a", "name": "b64830f6ac0a6dc5a4404061ddb2c32a"}, {"lon": -77.005428, "is_disabled": 0, "lat": 38.87638483333333, "fusion_lat": 0.0, "is_reserved": 0, "rental_uris": {"ios": "https://dc.lft.to/lastmile_qr_scan", "android": "https://dc.lft.to/lastmile_qr_scan"}, "fusion_lon": 0.0, "type": "electric_scooter", "bike_id": "6aa5250f1bf5b7b9ee75237aedea26a0", "name": "6aa5250f1bf5b7b9ee75237aedea26a0"}, {"lon": -77.00488983333334, "is_disabled": 0, "lat": 38.874663, "fusion_lat": 0.0, "is_reserved": 0, "rental_uris": {"ios": "https://dc.lft.to/lastmile_qr_scan", "android": "https://dc.lft.to/lastmile_qr_scan"}, "fusion_lon": 0.0, "type": "electric_scooter", "bike_id": "1e46827d2889fe340f7fedf33c2a2cc8", "name": "1e46827d2889fe340f7fedf33c2a2cc8"}, {"lon": -77.05836533333333, "is_disabled": 0, "lat": 38.93068383333333, "fusion_lat": 0.0, "is_reserved": 0, "rental_uris": {"ios": "https://dc.lft.to/lastmile_qr_scan", "android": "https://dc.lft.to/lastmile_qr_scan"}, "fusion_lon": 0.0, "type": "electric_scooter", "bike_id": "f6284aa3a82e267bb6f128bca60c5c45", "name": "f6284aa3a82e267bb6f128bca60c5c45"}, {"lon": -77.04876733333333, "is_disabled": 0, "lat": 38.892947166666666, "fusion_lat": 0.0, "is_reserved": 0, "rental_uris": {"ios": "https://dc.lft.to/lastmile_qr_scan", "android": "https://dc.lft.to/lastmile_qr_scan"}, "fusion_lon": 0.0, "type": "electric_scooter", "bike_id": "684e69d92301d88a7eb20bcb3bfd3511", "name": "684e69d92301d88a7eb20bcb3bfd3511"}, {"lon": -77.01224383333333, "is_disabled": 0, "lat": 38.897738333333336, "fusion_lat": 0.0, "is_reserved": 0, "rental_uris": {"ios": "https://dc.lft.to/lastmile_qr_scan", "android": "https://dc.lft.to/lastmile_qr_scan"}, "fusion_lon": 0.0, "type": "electric_scooter", "bike_id": "537029151e9f85b6bf859228b71a8f40", "name": "537029151e9f85b6bf859228b71a8f40"}, {"lon": -77.01980016666667, "is_disabled": 0, "lat": 38.88598266666666, "fusion_lat": 0.0, "is_reserved": 0, "rental_uris": {"ios": "https://dc.lft.to/lastmile_qr_scan", "android": "https://dc.lft.to/lastmile_qr_scan"}, "fusion_lon": 0.0, "type": "electric_scooter", "bike_id": "54f11fc1571242df93b9fa7ee487f7c9", "name": "54f11fc1571242df93b9fa7ee487f7c9"}, {"lon": -77.0098975, "is_disabled": 0, "lat": 38.872926166666666, "fusion_lat": 0.0, "is_reserved": 0, "rental_uris": {"ios": "https://dc.lft.to/lastmile_qr_scan", "android": "https://dc.lft.to/lastmile_qr_scan"}, "fusion_lon": 0.0, "type": "electric_scooter", "bike_id": "c354b81d49447942af118df484459c6e", "name": "c354b81d49447942af118df484459c6e"}, {"lon": -77.05322933333333, "is_disabled": 0, "lat": 38.90428383333333, "fusion_lat": 0.0, "is_reserved": 0, "rental_uris": {"ios": "https://dc.lft.to/lastmile_qr_scan", "android": "https://dc.lft.to/lastmile_qr_scan"}, "fusion_lon": 0.0, "type": "electric_scooter", "bike_id": "d034360656ae703dedcd1088648d8093", "name": "d034360656ae703dedcd1088648d8093"}, {"lon": -77.0183315, "is_disabled": 0, "lat": 38.9064435, "fusion_lat": 0.0, "is_reserved": 0, "rental_uris": {"ios": "https://dc.lft.to/lastmile_qr_scan", "android": "https://dc.lft.to/lastmile_qr_scan"}, "fusion_lon": 0.0, "type": "electric_scooter", "bike_id": "f848fa029cefa8293233d9c4bcef3250", "name": "f848fa029cefa8293233d9c4bcef3250"}, {"lon": -77.01767083333333, "is_disabled": 0, "lat": 38.872168333333335, "fusion_lat": 0.0, "is_reserved": 0, "rental_uris": {"ios": "https://dc.lft.to/lastmile_qr_scan", "android": "https://dc.lft.to/lastmile_qr_scan"}, "fusion_lon": 0.0, "type": "electric_scooter", "bike_id": "de2fd3e82a59a2c6054f1fc1a94cd6f7", "name": "de2fd3e82a59a2c6054f1fc1a94cd6f7"}, {"lon": -76.94942283333333, "is_disabled": 0, "lat": 38.893611, "fusion_lat": 0.0, "is_reserved": 0, "rental_uris": {"ios": "https://dc.lft.to/lastmile_qr_scan", "android": "https://dc.lft.to/lastmile_qr_scan"}, "fusion_lon": 0.0, "type": "electric_scooter", "bike_id": "49c8424793b9549dcc48f4348a18d5b4", "name": "49c8424793b9549dcc48f4348a18d5b4"}, {"lon": -77.02004416666666, "is_disabled": 0, "lat": 38.91184833333333, "fusion_lat": 0.0, "is_reserved": 0, "rental_uris": {"ios": "https://dc.lft.to/lastmile_qr_scan", "android": "https://dc.lft.to/lastmile_qr_scan"}, "fusion_lon": 0.0, "type": "electric_scooter", "bike_id": "ef79a0e98ef1d55e786a0ac390a3a076", "name": "ef79a0e98ef1d55e786a0ac390a3a076"}, {"lon": -77.03326616666666, "is_disabled": 0, "lat": 38.93895366666667, "fusion_lat": 0.0, "is_reserved": 0, "rental_uris": {"ios": "https://dc.lft.to/lastmile_qr_scan", "android": "https://dc.lft.to/lastmile_qr_scan"}, "fusion_lon": 0.0, "type": "electric_scooter", "bike_id": "f3b3777d18899e9eabf199ce1cff641a", "name": "f3b3777d18899e9eabf199ce1cff641a"}, {"lon": -77.02947916666666, "is_disabled": 0, "lat": 38.904846166666665, "fusion_lat": 0.0, "is_reserved": 0, "rental_uris": {"ios": "https://dc.lft.to/lastmile_qr_scan", "android": "https://dc.lft.to/lastmile_qr_scan"}, "fusion_lon": 0.0, "type": "electric_scooter", "bike_id": "f7f8812c71a2877cb7efc37dc3911d68", "name": "f7f8812c71a2877cb7efc37dc3911d68"}, {"lon": -76.9894505, "is_disabled": 0, "lat": 38.903957166666665, "fusion_lat": 0.0, "is_reserved": 0, "rental_uris": {"ios": "https://dc.lft.to/lastmile_qr_scan", "android": "https://dc.lft.to/lastmile_qr_scan"}, "fusion_lon": 0.0, "type": "electric_scooter", "bike_id": "55e2e63f85c5de7168ae2fc5afc13e3f", "name": "55e2e63f85c5de7168ae2fc5afc13e3f"}, {"lon": -77.03220383333333, "is_disabled": 0, "lat": 38.896325833333336, "fusion_lat": 0.0, "is_reserved": 0, "rental_uris": {"ios": "https://dc.lft.to/lastmile_qr_scan", "android": "https://dc.lft.to/lastmile_qr_scan"}, "fusion_lon": 0.0, "type": "electric_scooter", "bike_id": "259df23a9376434e4bfe2ca95ebaf6df", "name": "259df23a9376434e4bfe2ca95ebaf6df"}, {"lon": -77.0170445, "is_disabled": 0, "lat": 38.9138335, "fusion_lat": 0.0, "is_reserved": 0, "rental_uris": {"ios": "https://dc.lft.to/lastmile_qr_scan", "android": "https://dc.lft.to/lastmile_qr_scan"}, "fusion_lon": 0.0, "type": "electric_scooter", "bike_id": "f2eadaedac756a564c637841f7f86888", "name": "f2eadaedac756a564c637841f7f86888"}, {"lon": -76.932134, "is_disabled": 0, "lat": 38.896671166666664, "fusion_lat": 0.0, "is_reserved": 0, "rental_uris": {"ios": "https://dc.lft.to/lastmile_qr_scan", "android": "https://dc.lft.to/lastmile_qr_scan"}, "fusion_lon": 0.0, "type": "electric_scooter", "bike_id": "d203035a51519d061ce8dac4236e47d8", "name": "d203035a51519d061ce8dac4236e47d8"}, {"lon": -77.041455, "is_disabled": 0, "lat": 38.90657216666666, "fusion_lat": 0.0, "is_reserved": 0, "rental_uris": {"ios": "https://dc.lft.to/lastmile_qr_scan", "android": "https://dc.lft.to/lastmile_qr_scan"}, "fusion_lon": 0.0, "type": "electric_scooter", "bike_id": "82f4e53108c475c67a652ee5b62de941", "name": "82f4e53108c475c67a652ee5b62de941"}, {"lon": -77.01960716666666, "is_disabled": 0, "lat": 38.92430616666667, "fusion_lat": 0.0, "is_reserved": 0, "rental_uris": {"ios": "https://dc.lft.to/lastmile_qr_scan", "android": "https://dc.lft.to/lastmile_qr_scan"}, "fusion_lon": 0.0, "type": "electric_scooter", "bike_id": "08ed09086251776edd7ac7d0ea7b4ffc", "name": "08ed09086251776edd7ac7d0ea7b4ffc"}, {"lon": -77.02727, "is_disabled": 0, "lat": 38.90013533333333, "fusion_lat": 0.0, "is_reserved": 0, "rental_uris": {"ios": "https://dc.lft.to/lastmile_qr_scan", "android": "https://dc.lft.to/lastmile_qr_scan"}, "fusion_lon": 0.0, "type": "electric_scooter", "bike_id": "56ab4ab1fa6f426ee13ec0910dc9bdca", "name": "56ab4ab1fa6f426ee13ec0910dc9bdca"}, {"lon": -77.00075083333333, "is_disabled": 0, "lat": 38.901375333333334, "fusion_lat": 0.0, "is_reserved": 0, "rental_uris": {"ios": "https://dc.lft.to/lastmile_qr_scan", "android": "https://dc.lft.to/lastmile_qr_scan"}, "fusion_lon": 0.0, "type": "electric_scooter", "bike_id": "cc4b930971e7208c148afd4d05271df9", "name": "cc4b930971e7208c148afd4d05271df9"}, {"lon": -77.01767366666667, "is_disabled": 0, "lat": 38.9205655, "fusion_lat": 0.0, "is_reserved": 0, "rental_uris": {"ios": "https://dc.lft.to/lastmile_qr_scan", "android": "https://dc.lft.to/lastmile_qr_scan"}, "fusion_lon": 0.0, "type": "electric_scooter", "bike_id": "b86cebbebe2718eee49482c419e09e0c", "name": "b86cebbebe2718eee49482c419e09e0c"}, {"lon": -76.99618566666666, "is_disabled": 0, "lat": 38.90058883333333, "fusion_lat": 0.0, "is_reserved": 0, "rental_uris": {"ios": "https://dc.lft.to/lastmile_qr_scan", "android": "https://dc.lft.to/lastmile_qr_scan"}, "fusion_lon": 0.0, "type": "electric_scooter", "bike_id": "331c29a4509d864d7a67e6faafa6764a", "name": "331c29a4509d864d7a67e6faafa6764a"}, {"lon": -77.02792533333333, "is_disabled": 0, "lat": 38.929719166666665, "fusion_lat": 0.0, "is_reserved": 0, "rental_uris": {"ios": "https://dc.lft.to/lastmile_qr_scan", "android": "https://dc.lft.to/lastmile_qr_scan"}, "fusion_lon": 0.0, "type": "electric_scooter", "bike_id": "da6c5fa0937c05af69a6da3764e33c18", "name": "da6c5fa0937c05af69a6da3764e33c18"}, {"lon": -77.04021033333333, "is_disabled": 0, "lat": 38.903818333333334, "fusion_lat": 0.0, "is_reserved": 0, "rental_uris": {"ios": "https://dc.lft.to/lastmile_qr_scan", "android": "https://dc.lft.to/lastmile_qr_scan"}, "fusion_lon": 0.0, "type": "electric_scooter", "bike_id": "dfef6c17c629dec1f3f8d93dd1d76f6d", "name": "dfef6c17c629dec1f3f8d93dd1d76f6d"}, {"lon": -77.03204033333333, "is_disabled": 0, "lat": 38.91845, "fusion_lat": 0.0, "is_reserved": 0, "rental_uris": {"ios": "https://dc.lft.to/lastmile_qr_scan", "android": "https://dc.lft.to/lastmile_qr_scan"}, "fusion_lon": 0.0, "type": "electric_scooter", "bike_id": "8bc1ec86e374389a18eec6a0c213ae88", "name": "8bc1ec86e374389a18eec6a0c213ae88"}, {"lon": -77.02807383333334, "is_disabled": 0, "lat": 38.9297205, "fusion_lat": 0.0, "is_reserved": 0, "rental_uris": {"ios": "https://dc.lft.to/lastmile_qr_scan", "android": "https://dc.lft.to/lastmile_qr_scan"}, "fusion_lon": 0.0, "type": "electric_scooter", "bike_id": "cba4f443637236aee96a1b1cf58c35b6", "name": "cba4f443637236aee96a1b1cf58c35b6"}, {"lon": -77.06514083333333, "is_disabled": 0, "lat": 38.90395916666667, "fusion_lat": 0.0, "is_reserved": 0, "rental_uris": {"ios": "https://dc.lft.to/lastmile_qr_scan", "android": "https://dc.lft.to/lastmile_qr_scan"}, "fusion_lon": 0.0, "type": "electric_scooter", "bike_id": "8650a22dc6158bfa397dcba36aa8ed49", "name": "8650a22dc6158bfa397dcba36aa8ed49"}, {"lon": -77.029543, "is_disabled": 0, "lat": 38.91684716666666, "fusion_lat": 0.0, "is_reserved": 0, "rental_uris": {"ios": "https://dc.lft.to/lastmile_qr_scan", "android": "https://dc.lft.to/lastmile_qr_scan"}, "fusion_lon": 0.0, "type": "electric_scooter", "bike_id": "4e119c8c06e1696dae0b335d1f4c63ee", "name": "4e119c8c06e1696dae0b335d1f4c63ee"}, {"lon": -76.94639283333333, "is_disabled": 0, "lat": 38.89861633333334, "fusion_lat": 0.0, "is_reserved": 0, "rental_uris": {"ios": "https://dc.lft.to/lastmile_qr_scan", "android": "https://dc.lft.to/lastmile_qr_scan"}, "fusion_lon": 0.0, "type": "electric_scooter", "bike_id": "2e87f452de74ae9383c6113704b8e470", "name": "2e87f452de74ae9383c6113704b8e470"}, {"lon": -77.0572715, "is_disabled": 0, "lat": 38.93368816666667, "fusion_lat": 0.0, "is_reserved": 0, "rental_uris": {"ios": "https://dc.lft.to/lastmile_qr_scan", "android": "https://dc.lft.to/lastmile_qr_scan"}, "fusion_lon": 0.0, "type": "electric_scooter", "bike_id": "38f2cfcc598d59531789d6f01093b5ec", "name": "38f2cfcc598d59531789d6f01093b5ec"}, {"lon": -77.00204016666666, "is_disabled": 0, "lat": 38.9003205, "fusion_lat": 0.0, "is_reserved": 0, "rental_uris": {"ios": "https://dc.lft.to/lastmile_qr_scan", "android": "https://dc.lft.to/lastmile_qr_scan"}, "fusion_lon": 0.0, "type": "electric_scooter", "bike_id": "32a45dcc27d48466279cca55e4e3ea50", "name": "32a45dcc27d48466279cca55e4e3ea50"}, {"lon": -77.0234865, "is_disabled": 0, "lat": 38.909704, "fusion_lat": 0.0, "is_reserved": 0, "rental_uris": {"ios": "https://dc.lft.to/lastmile_qr_scan", "android": "https://dc.lft.to/lastmile_qr_scan"}, "fusion_lon": 0.0, "type": "electric_scooter", "bike_id": "8f31d607021c566c296934ef287a82fa", "name": "8f31d607021c566c296934ef287a82fa"}, {"lon": -77.04171933333333, "is_disabled": 0, "lat": 38.90543783333333, "fusion_lat": 0.0, "is_reserved": 0, "rental_uris": {"ios": "https://dc.lft.to/lastmile_qr_scan", "android": "https://dc.lft.to/lastmile_qr_scan"}, "fusion_lon": 0.0, "type": "electric_scooter", "bike_id": "8757fc2dbc47c325d2f6585c77b32349", "name": "8757fc2dbc47c325d2f6585c77b32349"}, {"lon": -77.02373833333333, "is_disabled": 0, "lat": 38.907306166666665, "fusion_lat": 0.0, "is_reserved": 0, "rental_uris": {"ios": "https://dc.lft.to/lastmile_qr_scan", "android": "https://dc.lft.to/lastmile_qr_scan"}, "fusion_lon": 0.0, "type": "electric_scooter", "bike_id": "086f40c067eb8b7ac3912cb651e6bc1a", "name": "086f40c067eb8b7ac3912cb651e6bc1a"}, {"lon": -77.045052, "is_disabled": 0, "lat": 38.90389783333333, "fusion_lat": 0.0, "is_reserved": 0, "rental_uris": {"ios": "https://dc.lft.to/lastmile_qr_scan", "android": "https://dc.lft.to/lastmile_qr_scan"}, "fusion_lon": 0.0, "type": "electric_scooter", "bike_id": "4f63b06c5faedfde6f5ab22cea74b158", "name": "4f63b06c5faedfde6f5ab22cea74b158"}, {"lon": -77.034066, "is_disabled": 0, "lat": 38.9286795, "fusion_lat": 0.0, "is_reserved": 0, "rental_uris": {"ios": "https://dc.lft.to/lastmile_qr_scan", "android": "https://dc.lft.to/lastmile_qr_scan"}, "fusion_lon": 0.0, "type": "electric_scooter", "bike_id": "31453f95bc36e0952055b3ca6fae87d1", "name": "31453f95bc36e0952055b3ca6fae87d1"}, {"lon": -77.125285, "is_disabled": 0, "lat": 39.056333, "fusion_lat": 0.0, "is_reserved": 0, "rental_uris": {"ios": "https://dc.lft.to/lastmile_qr_scan", "android": "https://dc.lft.to/lastmile_qr_scan"}, "fusion_lon": 0.0, "type": "electric_bike", "bike_id": "94412a0c2b9a0ab57008f3bd102756b7", "name": "94412a0c2b9a0ab57008f3bd102756b7"}, {"lon": -77.0349695, "is_disabled": 0, "lat": 38.9327225, "fusion_lat": 0.0, "is_reserved": 0, "rental_uris": {"ios": "https://dc.lft.to/lastmile_qr_scan", "android": "https://dc.lft.to/lastmile_qr_scan"}, "fusion_lon": 0.0, "type": "electric_scooter", "bike_id": "4117c3b6391182301f72bcb7e16d3d86", "name": "4117c3b6391182301f72bcb7e16d3d86"}, {"lon": -77.06039383333334, "is_disabled": 0, "lat": 38.944643, "fusion_lat": 0.0, "is_reserved": 0, "rental_uris": {"ios": "https://dc.lft.to/lastmile_qr_scan", "android": "https://dc.lft.to/lastmile_qr_scan"}, "fusion_lon": 0.0, "type": "electric_scooter", "bike_id": "d32125fa3eb0a1eea24bc72f74f3973e", "name": "d32125fa3eb0a1eea24bc72f74f3973e"}, {"lon": -77.03203883333333, "is_disabled": 0, "lat": 38.92058433333333, "fusion_lat": 0.0, "is_reserved": 0, "rental_uris": {"ios": "https://dc.lft.to/lastmile_qr_scan", "android": "https://dc.lft.to/lastmile_qr_scan"}, "fusion_lon": 0.0, "type": "electric_scooter", "bike_id": "71847d98aef987fb6e515d5145c2a9a4", "name": "71847d98aef987fb6e515d5145c2a9a4"}, {"lon": -77.024538, "is_disabled": 0, "lat": 38.908641833333334, "fusion_lat": 0.0, "is_reserved": 0, "rental_uris": {"ios": "https://dc.lft.to/lastmile_qr_scan", "android": "https://dc.lft.to/lastmile_qr_scan"}, "fusion_lon": 0.0, "type": "electric_scooter", "bike_id": "5691bd77095a55395a434c203f53a39d", "name": "5691bd77095a55395a434c203f53a39d"}, {"lon": -76.9717415, "is_disabled": 0, "lat": 38.86135433333333, "fusion_lat": 0.0, "is_reserved": 0, "rental_uris": {"ios": "https://dc.lft.to/lastmile_qr_scan", "android": "https://dc.lft.to/lastmile_qr_scan"}, "fusion_lon": 0.0, "type": "electric_scooter", "bike_id": "cb0e95ad3569359a6245f7b4d1530893", "name": "cb0e95ad3569359a6245f7b4d1530893"}, {"lon": -77.03172433333333, "is_disabled": 0, "lat": 38.8922755, "fusion_lat": 0.0, "is_reserved": 0, "rental_uris": {"ios": "https://dc.lft.to/lastmile_qr_scan", "android": "https://dc.lft.to/lastmile_qr_scan"}, "fusion_lon": 0.0, "type": "electric_scooter", "bike_id": "20278e5c3d1f253181bdffd87882b2af", "name": "20278e5c3d1f253181bdffd87882b2af"}, {"lon": -77.02200216666667, "is_disabled": 0, "lat": 38.911262666666666, "fusion_lat": 0.0, "is_reserved": 0, "rental_uris": {"ios": "https://dc.lft.to/lastmile_qr_scan", "android": "https://dc.lft.to/lastmile_qr_scan"}, "fusion_lon": 0.0, "type": "electric_scooter", "bike_id": "f9230a812aaab4aff10bb140795640c0", "name": "f9230a812aaab4aff10bb140795640c0"}, {"lon": -77.03239183333334, "is_disabled": 0, "lat": 38.905546333333334, "fusion_lat": 0.0, "is_reserved": 0, "rental_uris": {"ios": "https://dc.lft.to/lastmile_qr_scan", "android": "https://dc.lft.to/lastmile_qr_scan"}, "fusion_lon": 0.0, "type": "electric_scooter", "bike_id": "1cd77e557ed64cc824ecaa8339395ae3", "name": "1cd77e557ed64cc824ecaa8339395ae3"}, {"lon": -77.07163416666667, "is_disabled": 0, "lat": 38.93819833333333, "fusion_lat": 0.0, "is_reserved": 0, "rental_uris": {"ios": "https://dc.lft.to/lastmile_qr_scan", "android": "https://dc.lft.to/lastmile_qr_scan"}, "fusion_lon": 0.0, "type": "electric_scooter", "bike_id": "cd84e4a67bb0f636b06a64ca805bdeb0", "name": "cd84e4a67bb0f636b06a64ca805bdeb0"}, {"lon": -77.0724525, "is_disabled": 0, "lat": 38.939493666666664, "fusion_lat": 0.0, "is_reserved": 0, "rental_uris": {"ios": "https://dc.lft.to/lastmile_qr_scan", "android": "https://dc.lft.to/lastmile_qr_scan"}, "fusion_lon": 0.0, "type": "electric_scooter", "bike_id": "2ac45d2027deb9cacf8b0c9088352acb", "name": "2ac45d2027deb9cacf8b0c9088352acb"}, {"lon": -77.02155583333334, "is_disabled": 0, "lat": 38.926018166666665, "fusion_lat": 0.0, "is_reserved": 0, "rental_uris": {"ios": "https://dc.lft.to/lastmile_qr_scan", "android": "https://dc.lft.to/lastmile_qr_scan"}, "fusion_lon": 0.0, "type": "electric_scooter", "bike_id": "c409d81f4361445b26215012e722f736", "name": "c409d81f4361445b26215012e722f736"}, {"lon": -77.02877933333333, "is_disabled": 0, "lat": 38.9248345, "fusion_lat": 0.0, "is_reserved": 0, "rental_uris": {"ios": "https://dc.lft.to/lastmile_qr_scan", "android": "https://dc.lft.to/lastmile_qr_scan"}, "fusion_lon": 0.0, "type": "electric_scooter", "bike_id": "53fb4e2115c0a791fb8f4d1e48262860", "name": "53fb4e2115c0a791fb8f4d1e48262860"}, {"lon": -77.02940733333334, "is_disabled": 0, "lat": 38.904946833333334, "fusion_lat": 0.0, "is_reserved": 0, "rental_uris": {"ios": "https://dc.lft.to/lastmile_qr_scan", "android": "https://dc.lft.to/lastmile_qr_scan"}, "fusion_lon": 0.0, "type": "electric_scooter", "bike_id": "64b1f365f2cbe285c52c5eeb6dfbdaa5", "name": "64b1f365f2cbe285c52c5eeb6dfbdaa5"}, {"lon": -77.01727783333334, "is_disabled": 0, "lat": 38.88746416666667, "fusion_lat": 0.0, "is_reserved": 0, "rental_uris": {"ios": "https://dc.lft.to/lastmile_qr_scan", "android": "https://dc.lft.to/lastmile_qr_scan"}, "fusion_lon": 0.0, "type": "electric_scooter", "bike_id": "4b66ec7582c42920f439d058eb2eb56d", "name": "4b66ec7582c42920f439d058eb2eb56d"}, {"lon": -76.92045783333333, "is_disabled": 0, "lat": 38.89741033333333, "fusion_lat": 0.0, "is_reserved": 0, "rental_uris": {"ios": "https://dc.lft.to/lastmile_qr_scan", "android": "https://dc.lft.to/lastmile_qr_scan"}, "fusion_lon": 0.0, "type": "electric_bike", "bike_id": "bc96293fcbb779fc2864800b5c521bd9", "name": "bc96293fcbb779fc2864800b5c521bd9"}, {"lon": -77.00922733333333, "is_disabled": 0, "lat": 38.9007675, "fusion_lat": 0.0, "is_reserved": 0, "rental_uris": {"ios": "https://dc.lft.to/lastmile_qr_scan", "android": "https://dc.lft.to/lastmile_qr_scan"}, "fusion_lon": 0.0, "type": "electric_scooter", "bike_id": "5496b447cd46246064076fec9c766dbd", "name": "5496b447cd46246064076fec9c766dbd"}, {"lon": -77.0333865, "is_disabled": 0, "lat": 38.9171035, "fusion_lat": 0.0, "is_reserved": 0, "rental_uris": {"ios": "https://dc.lft.to/lastmile_qr_scan", "android": "https://dc.lft.to/lastmile_qr_scan"}, "fusion_lon": 0.0, "type": "electric_scooter", "bike_id": "b99deee397a4795477ade378563a5b2f", "name": "b99deee397a4795477ade378563a5b2f"}, {"lon": -77.03737883333334, "is_disabled": 0, "lat": 38.9247335, "fusion_lat": 0.0, "is_reserved": 0, "rental_uris": {"ios": "https://dc.lft.to/lastmile_qr_scan", "android": "https://dc.lft.to/lastmile_qr_scan"}, "fusion_lon": 0.0, "type": "electric_scooter", "bike_id": "5cb13d27c1b6d582daa37eb3d62a3dec", "name": "5cb13d27c1b6d582daa37eb3d62a3dec"}, {"lon": -77.03198933333333, "is_disabled": 0, "lat": 38.89955633333334, "fusion_lat": 0.0, "is_reserved": 0, "rental_uris": {"ios": "https://dc.lft.to/lastmile_qr_scan", "android": "https://dc.lft.to/lastmile_qr_scan"}, "fusion_lon": 0.0, "type": "electric_scooter", "bike_id": "34234a6bfaf8040e7075d5566055263b", "name": "34234a6bfaf8040e7075d5566055263b"}, {"lon": -77.02118983333334, "is_disabled": 0, "lat": 38.917384, "fusion_lat": 0.0, "is_reserved": 0, "rental_uris": {"ios": "https://dc.lft.to/lastmile_qr_scan", "android": "https://dc.lft.to/lastmile_qr_scan"}, "fusion_lon": 0.0, "type": "electric_scooter", "bike_id": "6f791b97d81923fa094df3520d52a424", "name": "6f791b97d81923fa094df3520d52a424"}, {"lon": -77.04028616666666, "is_disabled": 0, "lat": 38.917058, "fusion_lat": 0.0, "is_reserved": 0, "rental_uris": {"ios": "https://dc.lft.to/lastmile_qr_scan", "android": "https://dc.lft.to/lastmile_qr_scan"}, "fusion_lon": 0.0, "type": "electric_scooter", "bike_id": "4ac0d3a5f255407f2f29a47c278bbe85", "name": "4ac0d3a5f255407f2f29a47c278bbe85"}, {"lon": -77.00559983333333, "is_disabled": 0, "lat": 38.8747185, "fusion_lat": 0.0, "is_reserved": 0, "rental_uris": {"ios": "https://dc.lft.to/lastmile_qr_scan", "android": "https://dc.lft.to/lastmile_qr_scan"}, "fusion_lon": 0.0, "type": "electric_scooter", "bike_id": "77a5ae1aeaa90a0cc2384d63582302ae", "name": "77a5ae1aeaa90a0cc2384d63582302ae"}, {"lon": -77.088632, "is_disabled": 0, "lat": 38.916385166666664, "fusion_lat": 0.0, "is_reserved": 0, "rental_uris": {"ios": "https://dc.lft.to/lastmile_qr_scan", "android": "https://dc.lft.to/lastmile_qr_scan"}, "fusion_lon": 0.0, "type": "electric_scooter", "bike_id": "21e40a5c1d333a476ec12dbfa3b6bbff", "name": "21e40a5c1d333a476ec12dbfa3b6bbff"}, {"lon": -77.02783866666667, "is_disabled": 0, "lat": 38.89629816666667, "fusion_lat": 0.0, "is_reserved": 0, "rental_uris": {"ios": "https://dc.lft.to/lastmile_qr_scan", "android": "https://dc.lft.to/lastmile_qr_scan"}, "fusion_lon": 0.0, "type": "electric_scooter", "bike_id": "c9ea90811c99ce888d2976c5003849a2", "name": "c9ea90811c99ce888d2976c5003849a2"}, {"lon": -77.03345266666666, "is_disabled": 0, "lat": 38.89245533333333, "fusion_lat": 0.0, "is_reserved": 0, "rental_uris": {"ios": "https://dc.lft.to/lastmile_qr_scan", "android": "https://dc.lft.to/lastmile_qr_scan"}, "fusion_lon": 0.0, "type": "electric_scooter", "bike_id": "b50c46dfe398872e6bc7821fcc13aeef", "name": "b50c46dfe398872e6bc7821fcc13aeef"}, {"lon": -77.0317005, "is_disabled": 0, "lat": 38.89766083333333, "fusion_lat": 0.0, "is_reserved": 0, "rental_uris": {"ios": "https://dc.lft.to/lastmile_qr_scan", "android": "https://dc.lft.to/lastmile_qr_scan"}, "fusion_lon": 0.0, "type": "electric_scooter", "bike_id": "0b058708d3a06fc510cd1bf8a70fbabb", "name": "0b058708d3a06fc510cd1bf8a70fbabb"}, {"lon": -77.03221283333333, "is_disabled": 0, "lat": 38.9170675, "fusion_lat": 0.0, "is_reserved": 0, "rental_uris": {"ios": "https://dc.lft.to/lastmile_qr_scan", "android": "https://dc.lft.to/lastmile_qr_scan"}, "fusion_lon": 0.0, "type": "electric_scooter", "bike_id": "0473b5469103d06f7717db7ccc9d7b10", "name": "0473b5469103d06f7717db7ccc9d7b10"}, {"lon": -77.01778433333334, "is_disabled": 0, "lat": 38.8870915, "fusion_lat": 0.0, "is_reserved": 0, "rental_uris": {"ios": "https://dc.lft.to/lastmile_qr_scan", "android": "https://dc.lft.to/lastmile_qr_scan"}, "fusion_lon": 0.0, "type": "electric_scooter", "bike_id": "267dd53f4a8c8c1c1bf57254b7f305b5", "name": "267dd53f4a8c8c1c1bf57254b7f305b5"}, {"lon": -76.97099783333333, "is_disabled": 0, "lat": 38.870624, "fusion_lat": 0.0, "is_reserved": 0, "rental_uris": {"ios": "https://dc.lft.to/lastmile_qr_scan", "android": "https://dc.lft.to/lastmile_qr_scan"}, "fusion_lon": 0.0, "type": "electric_scooter", "bike_id": "05309869b01da0c75ea5366aa3e27374", "name": "05309869b01da0c75ea5366aa3e27374"}, {"lon": -76.94638066666667, "is_disabled": 0, "lat": 38.89865533333333, "fusion_lat": 0.0, "is_reserved": 0, "rental_uris": {"ios": "https://dc.lft.to/lastmile_qr_scan", "android": "https://dc.lft.to/lastmile_qr_scan"}, "fusion_lon": 0.0, "type": "electric_scooter", "bike_id": "b6ec741b0b637aa1ccc1aaa8d3decf6b", "name": "b6ec741b0b637aa1ccc1aaa8d3decf6b"}, {"lon": -77.02232783333334, "is_disabled": 0, "lat": 38.93476033333334, "fusion_lat": 0.0, "is_reserved": 0, "rental_uris": {"ios": "https://dc.lft.to/lastmile_qr_scan", "android": "https://dc.lft.to/lastmile_qr_scan"}, "fusion_lon": 0.0, "type": "electric_scooter", "bike_id": "3a2038d33cd1e4cb7c9ead1d495a00c0", "name": "3a2038d33cd1e4cb7c9ead1d495a00c0"}, {"lon": -77.037668, "is_disabled": 0, "lat": 38.9168945, "fusion_lat": 0.0, "is_reserved": 0, "rental_uris": {"ios": "https://dc.lft.to/lastmile_qr_scan", "android": "https://dc.lft.to/lastmile_qr_scan"}, "fusion_lon": 0.0, "type": "electric_scooter", "bike_id": "da05fe9ad954c95ab1f4557fa7542f5c", "name": "da05fe9ad954c95ab1f4557fa7542f5c"}, {"lon": -77.03288116666667, "is_disabled": 0, "lat": 38.92263116666667, "fusion_lat": 0.0, "is_reserved": 0, "rental_uris": {"ios": "https://dc.lft.to/lastmile_qr_scan", "android": "https://dc.lft.to/lastmile_qr_scan"}, "fusion_lon": 0.0, "type": "electric_scooter", "bike_id": "31c26727c841f0fb8e44c2a3298d5e19", "name": "31c26727c841f0fb8e44c2a3298d5e19"}, {"lon": -77.03158383333333, "is_disabled": 0, "lat": 38.964391666666664, "fusion_lat": 0.0, "is_reserved": 0, "rental_uris": {"ios": "https://dc.lft.to/lastmile_qr_scan", "android": "https://dc.lft.to/lastmile_qr_scan"}, "fusion_lon": 0.0, "type": "electric_bike", "bike_id": "3a48e8b8cb5bf42086a1079469b9eb49", "name": "3a48e8b8cb5bf42086a1079469b9eb49"}, {"lon": -77.02588083333333, "is_disabled": 0, "lat": 38.9421005, "fusion_lat": 0.0, "is_reserved": 0, "rental_uris": {"ios": "https://dc.lft.to/lastmile_qr_scan", "android": "https://dc.lft.to/lastmile_qr_scan"}, "fusion_lon": 0.0, "type": "electric_scooter", "bike_id": "4333b8254d1f19acb75c9e2bf23e0cc0", "name": "4333b8254d1f19acb75c9e2bf23e0cc0"}, {"lon": -76.97107266666667, "is_disabled": 0, "lat": 38.924436666666665, "fusion_lat": 0.0, "is_reserved": 0, "rental_uris": {"ios": "https://dc.lft.to/lastmile_qr_scan", "android": "https://dc.lft.to/lastmile_qr_scan"}, "fusion_lon": 0.0, "type": "electric_bike", "bike_id": "379ebe22c26b6c97d2c4ddfcb4240a2f", "name": "379ebe22c26b6c97d2c4ddfcb4240a2f"}, {"lon": -77.04501633333334, "is_disabled": 0, "lat": 38.9119355, "fusion_lat": 0.0, "is_reserved": 0, "rental_uris": {"ios": "https://dc.lft.to/lastmile_qr_scan", "android": "https://dc.lft.to/lastmile_qr_scan"}, "fusion_lon": 0.0, "type": "electric_scooter", "bike_id": "12f3b8a6be5f94822c981611ab361d40", "name": "12f3b8a6be5f94822c981611ab361d40"}, {"lon": -77.04676466666666, "is_disabled": 0, "lat": 38.893273666666666, "fusion_lat": 0.0, "is_reserved": 0, "rental_uris": {"ios": "https://dc.lft.to/lastmile_qr_scan", "android": "https://dc.lft.to/lastmile_qr_scan"}, "fusion_lon": 0.0, "type": "electric_scooter", "bike_id": "ff3b63a92757fb8f2c2990e1bcb73220", "name": "ff3b63a92757fb8f2c2990e1bcb73220"}, {"lon": -77.20140416666666, "is_disabled": 0, "lat": 38.9221965, "fusion_lat": 0.0, "is_reserved": 0, "rental_uris": {"ios": "https://dc.lft.to/lastmile_qr_scan", "android": "https://dc.lft.to/lastmile_qr_scan"}, "fusion_lon": 0.0, "type": "electric_bike", "bike_id": "78b18d27c0ec46e24f75f64647db90d9", "name": "78b18d27c0ec46e24f75f64647db90d9"}, {"lon": -77.057434, "is_disabled": 0, "lat": 38.933882, "fusion_lat": 0.0, "is_reserved": 0, "rental_uris": {"ios": "https://dc.lft.to/lastmile_qr_scan", "android": "https://dc.lft.to/lastmile_qr_scan"}, "fusion_lon": 0.0, "type": "electric_scooter", "bike_id": "bfcdfd521d1f997ad17b20bf02e0131b", "name": "bfcdfd521d1f997ad17b20bf02e0131b"}, {"lon": -77.0240515, "is_disabled": 0, "lat": 38.91761416666667, "fusion_lat": 0.0, "is_reserved": 0, "rental_uris": {"ios": "https://dc.lft.to/lastmile_qr_scan", "android": "https://dc.lft.to/lastmile_qr_scan"}, "fusion_lon": 0.0, "type": "electric_scooter", "bike_id": "5762bf096107986496c839bb9077b7c0", "name": "5762bf096107986496c839bb9077b7c0"}, {"lon": -77.03451266666667, "is_disabled": 0, "lat": 38.903551, "fusion_lat": 0.0, "is_reserved": 0, "rental_uris": {"ios": "https://dc.lft.to/lastmile_qr_scan", "android": "https://dc.lft.to/lastmile_qr_scan"}, "fusion_lon": 0.0, "type": "electric_scooter", "bike_id": "954e4084bb199a424c41f059a8733140", "name": "954e4084bb199a424c41f059a8733140"}, {"lon": -77.02138133333334, "is_disabled": 0, "lat": 38.9154845, "fusion_lat": 0.0, "is_reserved": 0, "rental_uris": {"ios": "https://dc.lft.to/lastmile_qr_scan", "android": "https://dc.lft.to/lastmile_qr_scan"}, "fusion_lon": 0.0, "type": "electric_scooter", "bike_id": "7e5f5d1ed9eab4b3357d5c71dab98a5c", "name": "7e5f5d1ed9eab4b3357d5c71dab98a5c"}, {"lon": -76.986036, "is_disabled": 0, "lat": 38.90375133333333, "fusion_lat": 0.0, "is_reserved": 0, "rental_uris": {"ios": "https://dc.lft.to/lastmile_qr_scan", "android": "https://dc.lft.to/lastmile_qr_scan"}, "fusion_lon": 0.0, "type": "electric_scooter", "bike_id": "c48c939069571255a4951481fb280de0", "name": "c48c939069571255a4951481fb280de0"}, {"lon": -77.05066516666666, "is_disabled": 0, "lat": 38.9253615, "fusion_lat": 0.0, "is_reserved": 0, "rental_uris": {"ios": "https://dc.lft.to/lastmile_qr_scan", "android": "https://dc.lft.to/lastmile_qr_scan"}, "fusion_lon": 0.0, "type": "electric_scooter", "bike_id": "ceb0e455ef59242e9ea4039ea41b981d", "name": "ceb0e455ef59242e9ea4039ea41b981d"}, {"lon": -77.04344466666667, "is_disabled": 0, "lat": 38.90583433333333, "fusion_lat": 0.0, "is_reserved": 0, "rental_uris": {"ios": "https://dc.lft.to/lastmile_qr_scan", "android": "https://dc.lft.to/lastmile_qr_scan"}, "fusion_lon": 0.0, "type": "electric_scooter", "bike_id": "7275cb14eb5171a0d3b189d80233a61d", "name": "7275cb14eb5171a0d3b189d80233a61d"}, {"lon": -76.9857475, "is_disabled": 0, "lat": 38.86682883333334, "fusion_lat": 0.0, "is_reserved": 0, "rental_uris": {"ios": "https://dc.lft.to/lastmile_qr_scan", "android": "https://dc.lft.to/lastmile_qr_scan"}, "fusion_lon": 0.0, "type": "electric_scooter", "bike_id": "eb6eed48416b7ea02a2c200d62b90c1b", "name": "eb6eed48416b7ea02a2c200d62b90c1b"}, {"lon": -77.02478266666667, "is_disabled": 0, "lat": 38.93753566666667, "fusion_lat": 0.0, "is_reserved": 0, "rental_uris": {"ios": "https://dc.lft.to/lastmile_qr_scan", "android": "https://dc.lft.to/lastmile_qr_scan"}, "fusion_lon": 0.0, "type": "electric_scooter", "bike_id": "1dd77fe5de0b926278851e23370e2be7", "name": "1dd77fe5de0b926278851e23370e2be7"}, {"lon": -77.01310366666667, "is_disabled": 0, "lat": 38.9014055, "fusion_lat": 0.0, "is_reserved": 0, "rental_uris": {"ios": "https://dc.lft.to/lastmile_qr_scan", "android": "https://dc.lft.to/lastmile_qr_scan"}, "fusion_lon": 0.0, "type": "electric_scooter", "bike_id": "fb9b2dc3d4297ea36be4adae6267df30", "name": "fb9b2dc3d4297ea36be4adae6267df30"}, {"lon": -76.97976066666666, "is_disabled": 0, "lat": 38.8974255, "fusion_lat": 0.0, "is_reserved": 0, "rental_uris": {"ios": "https://dc.lft.to/lastmile_qr_scan", "android": "https://dc.lft.to/lastmile_qr_scan"}, "fusion_lon": 0.0, "type": "electric_scooter", "bike_id": "b1e5fa1e3769a36c4d29b07a47a46ba0", "name": "b1e5fa1e3769a36c4d29b07a47a46ba0"}, {"lon": -77.0340105, "is_disabled": 0, "lat": 38.926333666666665, "fusion_lat": 0.0, "is_reserved": 0, "rental_uris": {"ios": "https://dc.lft.to/lastmile_qr_scan", "android": "https://dc.lft.to/lastmile_qr_scan"}, "fusion_lon": 0.0, "type": "electric_scooter", "bike_id": "794f23c0cdafc939719eaad50216da62", "name": "794f23c0cdafc939719eaad50216da62"}, {"lon": -77.02174633333334, "is_disabled": 0, "lat": 38.898944, "fusion_lat": 0.0, "is_reserved": 0, "rental_uris": {"ios": "https://dc.lft.to/lastmile_qr_scan", "android": "https://dc.lft.to/lastmile_qr_scan"}, "fusion_lon": 0.0, "type": "electric_scooter", "bike_id": "9db90da38e77980cd2796db796555a93", "name": "9db90da38e77980cd2796db796555a93"}, {"lon": -77.026961, "is_disabled": 0, "lat": 38.90873633333333, "fusion_lat": 0.0, "is_reserved": 0, "rental_uris": {"ios": "https://dc.lft.to/lastmile_qr_scan", "android": "https://dc.lft.to/lastmile_qr_scan"}, "fusion_lon": 0.0, "type": "electric_scooter", "bike_id": "705200fd5638660aed13e58013e90056", "name": "705200fd5638660aed13e58013e90056"}, {"lon": -77.04176116666666, "is_disabled": 0, "lat": 38.905222333333334, "fusion_lat": 0.0, "is_reserved": 0, "rental_uris": {"ios": "https://dc.lft.to/lastmile_qr_scan", "android": "https://dc.lft.to/lastmile_qr_scan"}, "fusion_lon": 0.0, "type": "electric_scooter", "bike_id": "66a72cf09ea59cb5f5fe7769e57ab3a8", "name": "66a72cf09ea59cb5f5fe7769e57ab3a8"}, {"lon": -77.07266733333333, "is_disabled": 0, "lat": 38.9347595, "fusion_lat": 0.0, "is_reserved": 0, "rental_uris": {"ios": "https://dc.lft.to/lastmile_qr_scan", "android": "https://dc.lft.to/lastmile_qr_scan"}, "fusion_lon": 0.0, "type": "electric_scooter", "bike_id": "1ee40ffee5e00329bb1cdf86ab9641b0", "name": "1ee40ffee5e00329bb1cdf86ab9641b0"}, {"lon": -77.13472183333333, "is_disabled": 0, "lat": 38.85350716666667, "fusion_lat": 0.0, "is_reserved": 0, "rental_uris": {"ios": "https://dc.lft.to/lastmile_qr_scan", "android": "https://dc.lft.to/lastmile_qr_scan"}, "fusion_lon": 0.0, "type": "electric_bike", "bike_id": "857a776d4ac9f063ac8bee9f565c49b5", "name": "857a776d4ac9f063ac8bee9f565c49b5"}, {"lon": -77.0489825, "is_disabled": 0, "lat": 38.905205333333335, "fusion_lat": 0.0, "is_reserved": 0, "rental_uris": {"ios": "https://dc.lft.to/lastmile_qr_scan", "android": "https://dc.lft.to/lastmile_qr_scan"}, "fusion_lon": 0.0, "type": "electric_scooter", "bike_id": "124fabda10ae5515ceee253317e5e60a", "name": "124fabda10ae5515ceee253317e5e60a"}, {"lon": -77.04255216666667, "is_disabled": 0, "lat": 38.9092375, "fusion_lat": 0.0, "is_reserved": 0, "rental_uris": {"ios": "https://dc.lft.to/lastmile_qr_scan", "android": "https://dc.lft.to/lastmile_qr_scan"}, "fusion_lon": 0.0, "type": "electric_scooter", "bike_id": "87932480441286b136d1bc47b87fd9c8", "name": "87932480441286b136d1bc47b87fd9c8"}, {"lon": -77.03657916666667, "is_disabled": 0, "lat": 38.93597366666667, "fusion_lat": 0.0, "is_reserved": 0, "rental_uris": {"ios": "https://dc.lft.to/lastmile_qr_scan", "android": "https://dc.lft.to/lastmile_qr_scan"}, "fusion_lon": 0.0, "type": "electric_scooter", "bike_id": "db409c6c1fd0e43ba052abe69826c54a", "name": "db409c6c1fd0e43ba052abe69826c54a"}, {"lon": -77.022901, "is_disabled": 0, "lat": 38.92694266666667, "fusion_lat": 0.0, "is_reserved": 0, "rental_uris": {"ios": "https://dc.lft.to/lastmile_qr_scan", "android": "https://dc.lft.to/lastmile_qr_scan"}, "fusion_lon": 0.0, "type": "electric_scooter", "bike_id": "e096a2084ad67d90fe03ab83bb309b8d", "name": "e096a2084ad67d90fe03ab83bb309b8d"}, {"lon": -77.024614, "is_disabled": 0, "lat": 38.89995116666667, "fusion_lat": 0.0, "is_reserved": 0, "rental_uris": {"ios": "https://dc.lft.to/lastmile_qr_scan", "android": "https://dc.lft.to/lastmile_qr_scan"}, "fusion_lon": 0.0, "type": "electric_scooter", "bike_id": "7ae0e67a588bc52f82a2ee3a86d29de9", "name": "7ae0e67a588bc52f82a2ee3a86d29de9"}, {"lon": -76.957594, "is_disabled": 0, "lat": 38.884297833333335, "fusion_lat": 0.0, "is_reserved": 0, "rental_uris": {"ios": "https://dc.lft.to/lastmile_qr_scan", "android": "https://dc.lft.to/lastmile_qr_scan"}, "fusion_lon": 0.0, "type": "electric_scooter", "bike_id": "06729f5e9729e47975c677b23b47bc8a", "name": "06729f5e9729e47975c677b23b47bc8a"}, {"lon": -77.08660616666667, "is_disabled": 0, "lat": 38.86245916666667, "fusion_lat": 0.0, "is_reserved": 0, "rental_uris": {"ios": "https://dc.lft.to/lastmile_qr_scan", "android": "https://dc.lft.to/lastmile_qr_scan"}, "fusion_lon": 0.0, "type": "electric_bike", "bike_id": "0abd3df1789145c5698536ecf799ca35", "name": "0abd3df1789145c5698536ecf799ca35"}, {"lon": -77.008863, "is_disabled": 0, "lat": 38.92510166666667, "fusion_lat": 0.0, "is_reserved": 0, "rental_uris": {"ios": "https://dc.lft.to/lastmile_qr_scan", "android": "https://dc.lft.to/lastmile_qr_scan"}, "fusion_lon": 0.0, "type": "electric_scooter", "bike_id": "c61f6b91aa147b1af316b5ed9560238a", "name": "c61f6b91aa147b1af316b5ed9560238a"}, {"lon": -77.0514405, "is_disabled": 0, "lat": 38.898252666666664, "fusion_lat": 0.0, "is_reserved": 0, "rental_uris": {"ios": "https://dc.lft.to/lastmile_qr_scan", "android": "https://dc.lft.to/lastmile_qr_scan"}, "fusion_lon": 0.0, "type": "electric_scooter", "bike_id": "5af69a4eb4acb570c390fd0c6e3958d9", "name": "5af69a4eb4acb570c390fd0c6e3958d9"}, {"lon": -77.0223785, "is_disabled": 0, "lat": 38.922426333333334, "fusion_lat": 0.0, "is_reserved": 0, "rental_uris": {"ios": "https://dc.lft.to/lastmile_qr_scan", "android": "https://dc.lft.to/lastmile_qr_scan"}, "fusion_lon": 0.0, "type": "electric_scooter", "bike_id": "a05f2c5dbce5f2d453df4ec67a661ba5", "name": "a05f2c5dbce5f2d453df4ec67a661ba5"}, {"lon": -77.00339666666666, "is_disabled": 0, "lat": 38.89507916666667, "fusion_lat": 0.0, "is_reserved": 0, "rental_uris": {"ios": "https://dc.lft.to/lastmile_qr_scan", "android": "https://dc.lft.to/lastmile_qr_scan"}, "fusion_lon": 0.0, "type": "electric_scooter", "bike_id": "996a7b6627ec7c31802a565999b5319d", "name": "996a7b6627ec7c31802a565999b5319d"}, {"lon": -77.03058216666666, "is_disabled": 0, "lat": 38.92373283333333, "fusion_lat": 0.0, "is_reserved": 0, "rental_uris": {"ios": "https://dc.lft.to/lastmile_qr_scan", "android": "https://dc.lft.to/lastmile_qr_scan"}, "fusion_lon": 0.0, "type": "electric_scooter", "bike_id": "8dbc124c63314a5aeb606d2d465d9c2d", "name": "8dbc124c63314a5aeb606d2d465d9c2d"}, {"lon": -76.9979965, "is_disabled": 0, "lat": 38.95086333333333, "fusion_lat": 0.0, "is_reserved": 0, "rental_uris": {"ios": "https://dc.lft.to/lastmile_qr_scan", "android": "https://dc.lft.to/lastmile_qr_scan"}, "fusion_lon": 0.0, "type": "electric_bike", "bike_id": "8ac5ba186440d4fd99306802b3921164", "name": "8ac5ba186440d4fd99306802b3921164"}, {"lon": -77.02640266666667, "is_disabled": 0, "lat": 38.9365335, "fusion_lat": 0.0, "is_reserved": 0, "rental_uris": {"ios": "https://dc.lft.to/lastmile_qr_scan", "android": "https://dc.lft.to/lastmile_qr_scan"}, "fusion_lon": 0.0, "type": "electric_scooter", "bike_id": "ca0f971cf4a87d2cd5baf3c03b0b38f9", "name": "ca0f971cf4a87d2cd5baf3c03b0b38f9"}, {"lon": -77.032978, "is_disabled": 0, "lat": 38.92350666666667, "fusion_lat": 0.0, "is_reserved": 0, "rental_uris": {"ios": "https://dc.lft.to/lastmile_qr_scan", "android": "https://dc.lft.to/lastmile_qr_scan"}, "fusion_lon": 0.0, "type": "electric_scooter", "bike_id": "49e635913a3d9f6c6eba28c729623e72", "name": "49e635913a3d9f6c6eba28c729623e72"}, {"lon": -76.99628816666667, "is_disabled": 0, "lat": 38.9007325, "fusion_lat": 0.0, "is_reserved": 0, "rental_uris": {"ios": "https://dc.lft.to/lastmile_qr_scan", "android": "https://dc.lft.to/lastmile_qr_scan"}, "fusion_lon": 0.0, "type": "electric_scooter", "bike_id": "6ba157d523db38b2a23c8e4aa35e4357", "name": "6ba157d523db38b2a23c8e4aa35e4357"}, {"lon": -77.042296, "is_disabled": 0, "lat": 38.92052733333333, "fusion_lat": 0.0, "is_reserved": 0, "rental_uris": {"ios": "https://dc.lft.to/lastmile_qr_scan", "android": "https://dc.lft.to/lastmile_qr_scan"}, "fusion_lon": 0.0, "type": "electric_scooter", "bike_id": "b92dc4ac5c2460b7b77a15285e66566c", "name": "b92dc4ac5c2460b7b77a15285e66566c"}, {"lon": -77.02199516666667, "is_disabled": 0, "lat": 38.911285, "fusion_lat": 0.0, "is_reserved": 0, "rental_uris": {"ios": "https://dc.lft.to/lastmile_qr_scan", "android": "https://dc.lft.to/lastmile_qr_scan"}, "fusion_lon": 0.0, "type": "electric_scooter", "bike_id": "38b1bab25e0a2d1e2190e4a5bb3a4ee2", "name": "38b1bab25e0a2d1e2190e4a5bb3a4ee2"}, {"lon": -77.0345925, "is_disabled": 0, "lat": 38.92218033333333, "fusion_lat": 0.0, "is_reserved": 0, "rental_uris": {"ios": "https://dc.lft.to/lastmile_qr_scan", "android": "https://dc.lft.to/lastmile_qr_scan"}, "fusion_lon": 0.0, "type": "electric_scooter", "bike_id": "7c1f717c5264e53263384c9ff89abdd2", "name": "7c1f717c5264e53263384c9ff89abdd2"}, {"lon": -77.02237466666666, "is_disabled": 0, "lat": 38.92242433333333, "fusion_lat": 0.0, "is_reserved": 0, "rental_uris": {"ios": "https://dc.lft.to/lastmile_qr_scan", "android": "https://dc.lft.to/lastmile_qr_scan"}, "fusion_lon": 0.0, "type": "electric_scooter", "bike_id": "61fc11b4e1ae65bff27db6ee83ab96c6", "name": "61fc11b4e1ae65bff27db6ee83ab96c6"}, {"lon": -77.043528, "is_disabled": 0, "lat": 38.90847683333333, "fusion_lat": 0.0, "is_reserved": 0, "rental_uris": {"ios": "https://dc.lft.to/lastmile_qr_scan", "android": "https://dc.lft.to/lastmile_qr_scan"}, "fusion_lon": 0.0, "type": "electric_scooter", "bike_id": "4fab560b5d56a862ce11c70a4be9c692", "name": "4fab560b5d56a862ce11c70a4be9c692"}, {"lon": -76.99637366666667, "is_disabled": 0, "lat": 38.905311166666664, "fusion_lat": 0.0, "is_reserved": 0, "rental_uris": {"ios": "https://dc.lft.to/lastmile_qr_scan", "android": "https://dc.lft.to/lastmile_qr_scan"}, "fusion_lon": 0.0, "type": "electric_scooter", "bike_id": "8d48a8587f21c4634726be84d3cd4c42", "name": "8d48a8587f21c4634726be84d3cd4c42"}, {"lon": -77.00578833333333, "is_disabled": 0, "lat": 38.900345333333334, "fusion_lat": 0.0, "is_reserved": 0, "rental_uris": {"ios": "https://dc.lft.to/lastmile_qr_scan", "android": "https://dc.lft.to/lastmile_qr_scan"}, "fusion_lon": 0.0, "type": "electric_scooter", "bike_id": "df77bcc91c7dfb4a5f20031c94dc10f5", "name": "df77bcc91c7dfb4a5f20031c94dc10f5"}, {"lon": -77.03193816666666, "is_disabled": 0, "lat": 38.917392666666665, "fusion_lat": 0.0, "is_reserved": 0, "rental_uris": {"ios": "https://dc.lft.to/lastmile_qr_scan", "android": "https://dc.lft.to/lastmile_qr_scan"}, "fusion_lon": 0.0, "type": "electric_scooter", "bike_id": "c3accd1f3e206db988015addc3a05885", "name": "c3accd1f3e206db988015addc3a05885"}, {"lon": -77.01783816666666, "is_disabled": 0, "lat": 38.87708633333333, "fusion_lat": 0.0, "is_reserved": 0, "rental_uris": {"ios": "https://dc.lft.to/lastmile_qr_scan", "android": "https://dc.lft.to/lastmile_qr_scan"}, "fusion_lon": 0.0, "type": "electric_scooter", "bike_id": "4df3ee6a66c2bfe77f73e25e9b567c8a", "name": "4df3ee6a66c2bfe77f73e25e9b567c8a"}, {"lon": -77.00669983333333, "is_disabled": 0, "lat": 39.02996066666667, "fusion_lat": 0.0, "is_reserved": 0, "rental_uris": {"ios": "https://dc.lft.to/lastmile_qr_scan", "android": "https://dc.lft.to/lastmile_qr_scan"}, "fusion_lon": 0.0, "type": "electric_bike", "bike_id": "4f825c5321459f2838824c0654cec119", "name": "4f825c5321459f2838824c0654cec119"}, {"lon": -77.011973, "is_disabled": 0, "lat": 38.9156885, "fusion_lat": 0.0, "is_reserved": 0, "rental_uris": {"ios": "https://dc.lft.to/lastmile_qr_scan", "android": "https://dc.lft.to/lastmile_qr_scan"}, "fusion_lon": 0.0, "type": "electric_scooter", "bike_id": "47991ab75e0c631cfbaed07978e369b4", "name": "47991ab75e0c631cfbaed07978e369b4"}, {"lon": -77.0543155, "is_disabled": 0, "lat": 38.9258225, "fusion_lat": 0.0, "is_reserved": 0, "rental_uris": {"ios": "https://dc.lft.to/lastmile_qr_scan", "android": "https://dc.lft.to/lastmile_qr_scan"}, "fusion_lon": 0.0, "type": "electric_scooter", "bike_id": "e35b584c0f9c6ec89fb048c0e3733482", "name": "e35b584c0f9c6ec89fb048c0e3733482"}, {"lon": -76.98762583333334, "is_disabled": 0, "lat": 38.857652, "fusion_lat": 0.0, "is_reserved": 0, "rental_uris": {"ios": "https://dc.lft.to/lastmile_qr_scan", "android": "https://dc.lft.to/lastmile_qr_scan"}, "fusion_lon": 0.0, "type": "electric_bike", "bike_id": "836dcea6b78600de04160212d2f729a7", "name": "836dcea6b78600de04160212d2f729a7"}, {"lon": -77.033394, "is_disabled": 0, "lat": 38.937855166666665, "fusion_lat": 0.0, "is_reserved": 0, "rental_uris": {"ios": "https://dc.lft.to/lastmile_qr_scan", "android": "https://dc.lft.to/lastmile_qr_scan"}, "fusion_lon": 0.0, "type": "electric_scooter", "bike_id": "3f04de5dcee0c4e41d318809e4f1f0dc", "name": "3f04de5dcee0c4e41d318809e4f1f0dc"}, {"lon": -77.0249045, "is_disabled": 0, "lat": 38.901735, "fusion_lat": 0.0, "is_reserved": 0, "rental_uris": {"ios": "https://dc.lft.to/lastmile_qr_scan", "android": "https://dc.lft.to/lastmile_qr_scan"}, "fusion_lon": 0.0, "type": "electric_scooter", "bike_id": "ed6a3e4a882948e59601984d706e57a0", "name": "ed6a3e4a882948e59601984d706e57a0"}, {"lon": -77.02395983333334, "is_disabled": 0, "lat": 38.90576216666667, "fusion_lat": 0.0, "is_reserved": 0, "rental_uris": {"ios": "https://dc.lft.to/lastmile_qr_scan", "android": "https://dc.lft.to/lastmile_qr_scan"}, "fusion_lon": 0.0, "type": "electric_scooter", "bike_id": "0547dddfe750d41e40aecdf89c645e28", "name": "0547dddfe750d41e40aecdf89c645e28"}, {"lon": -76.973765, "is_disabled": 0, "lat": 38.904225333333336, "fusion_lat": 0.0, "is_reserved": 0, "rental_uris": {"ios": "https://dc.lft.to/lastmile_qr_scan", "android": "https://dc.lft.to/lastmile_qr_scan"}, "fusion_lon": 0.0, "type": "electric_scooter", "bike_id": "be4cd4fba72d24c7d0a58df437b819ea", "name": "be4cd4fba72d24c7d0a58df437b819ea"}, {"lon": -77.03097966666667, "is_disabled": 0, "lat": 38.919269, "fusion_lat": 0.0, "is_reserved": 0, "rental_uris": {"ios": "https://dc.lft.to/lastmile_qr_scan", "android": "https://dc.lft.to/lastmile_qr_scan"}, "fusion_lon": 0.0, "type": "electric_scooter", "bike_id": "4c649de27ce452c658d2e9d4f15658ba", "name": "4c649de27ce452c658d2e9d4f15658ba"}, {"lon": -76.97538666666667, "is_disabled": 0, "lat": 38.899569666666665, "fusion_lat": 0.0, "is_reserved": 0, "rental_uris": {"ios": "https://dc.lft.to/lastmile_qr_scan", "android": "https://dc.lft.to/lastmile_qr_scan"}, "fusion_lon": 0.0, "type": "electric_scooter", "bike_id": "bfdaf6fcba84cff6fbadf0556818121a", "name": "bfdaf6fcba84cff6fbadf0556818121a"}, {"lon": -77.02715216666667, "is_disabled": 0, "lat": 38.905556833333335, "fusion_lat": 0.0, "is_reserved": 0, "rental_uris": {"ios": "https://dc.lft.to/lastmile_qr_scan", "android": "https://dc.lft.to/lastmile_qr_scan"}, "fusion_lon": 0.0, "type": "electric_scooter", "bike_id": "1ebaebfc64ff1eb152f710c53b52aea9", "name": "1ebaebfc64ff1eb152f710c53b52aea9"}, {"lon": -76.98887916666666, "is_disabled": 0, "lat": 38.866589, "fusion_lat": 0.0, "is_reserved": 0, "rental_uris": {"ios": "https://dc.lft.to/lastmile_qr_scan", "android": "https://dc.lft.to/lastmile_qr_scan"}, "fusion_lon": 0.0, "type": "electric_scooter", "bike_id": "7e875cf87851c5ef0825e94ff69a999f", "name": "7e875cf87851c5ef0825e94ff69a999f"}, {"lon": -77.03827783333334, "is_disabled": 0, "lat": 38.9026975, "fusion_lat": 0.0, "is_reserved": 0, "rental_uris": {"ios": "https://dc.lft.to/lastmile_qr_scan", "android": "https://dc.lft.to/lastmile_qr_scan"}, "fusion_lon": 0.0, "type": "electric_scooter", "bike_id": "e26fcb4d8f6838433de2607c6b1bae4a", "name": "e26fcb4d8f6838433de2607c6b1bae4a"}, {"lon": -77.033268, "is_disabled": 0, "lat": 38.89838366666667, "fusion_lat": 0.0, "is_reserved": 0, "rental_uris": {"ios": "https://dc.lft.to/lastmile_qr_scan", "android": "https://dc.lft.to/lastmile_qr_scan"}, "fusion_lon": 0.0, "type": "electric_scooter", "bike_id": "9808dfa661497a76c542333d19683689", "name": "9808dfa661497a76c542333d19683689"}, {"lon": -77.054029, "is_disabled": 0, "lat": 38.90126716666666, "fusion_lat": 0.0, "is_reserved": 0, "rental_uris": {"ios": "https://dc.lft.to/lastmile_qr_scan", "android": "https://dc.lft.to/lastmile_qr_scan"}, "fusion_lon": 0.0, "type": "electric_scooter", "bike_id": "52c802ee9111bbc908c992de0b73010f", "name": "52c802ee9111bbc908c992de0b73010f"}, {"lon": -77.0498865, "is_disabled": 0, "lat": 38.9013405, "fusion_lat": 0.0, "is_reserved": 0, "rental_uris": {"ios": "https://dc.lft.to/lastmile_qr_scan", "android": "https://dc.lft.to/lastmile_qr_scan"}, "fusion_lon": 0.0, "type": "electric_scooter", "bike_id": "717e568cad026c91a8a4d60f61425b95", "name": "717e568cad026c91a8a4d60f61425b95"}, {"lon": -76.93340183333333, "is_disabled": 0, "lat": 38.90866716666667, "fusion_lat": 0.0, "is_reserved": 0, "rental_uris": {"ios": "https://dc.lft.to/lastmile_qr_scan", "android": "https://dc.lft.to/lastmile_qr_scan"}, "fusion_lon": 0.0, "type": "electric_scooter", "bike_id": "d87a0db5c4bca146882fe43b7a6138a8", "name": "d87a0db5c4bca146882fe43b7a6138a8"}, {"lon": -76.97643866666667, "is_disabled": 0, "lat": 38.88692266666666, "fusion_lat": 0.0, "is_reserved": 0, "rental_uris": {"ios": "https://dc.lft.to/lastmile_qr_scan", "android": "https://dc.lft.to/lastmile_qr_scan"}, "fusion_lon": 0.0, "type": "electric_scooter", "bike_id": "27d95cf2934055129dcdb785eed53c33", "name": "27d95cf2934055129dcdb785eed53c33"}, {"lon": -77.02349833333334, "is_disabled": 0, "lat": 38.919856333333335, "fusion_lat": 0.0, "is_reserved": 0, "rental_uris": {"ios": "https://dc.lft.to/lastmile_qr_scan", "android": "https://dc.lft.to/lastmile_qr_scan"}, "fusion_lon": 0.0, "type": "electric_scooter", "bike_id": "0a8610b15b286548de05de4782713c53", "name": "0a8610b15b286548de05de4782713c53"}, {"lon": -77.005748, "is_disabled": 0, "lat": 38.87570016666667, "fusion_lat": 0.0, "is_reserved": 0, "rental_uris": {"ios": "https://dc.lft.to/lastmile_qr_scan", "android": "https://dc.lft.to/lastmile_qr_scan"}, "fusion_lon": 0.0, "type": "electric_scooter", "bike_id": "5261ae521d05f32adcc4c8dd2f43d879", "name": "5261ae521d05f32adcc4c8dd2f43d879"}, {"lon": -77.0281555, "is_disabled": 0, "lat": 38.902498333333334, "fusion_lat": 0.0, "is_reserved": 0, "rental_uris": {"ios": "https://dc.lft.to/lastmile_qr_scan", "android": "https://dc.lft.to/lastmile_qr_scan"}, "fusion_lon": 0.0, "type": "electric_scooter", "bike_id": "1e10896b9898cc2978a2c42122ca22f3", "name": "1e10896b9898cc2978a2c42122ca22f3"}, {"lon": -77.11789583333334, "is_disabled": 0, "lat": 39.05497833333333, "fusion_lat": 0.0, "is_reserved": 0, "rental_uris": {"ios": "https://dc.lft.to/lastmile_qr_scan", "android": "https://dc.lft.to/lastmile_qr_scan"}, "fusion_lon": 0.0, "type": "electric_bike", "bike_id": "760bf47ad999b5457b301e5fcc88d16b", "name": "760bf47ad999b5457b301e5fcc88d16b"}, {"lon": -77.01698066666667, "is_disabled": 0, "lat": 38.974999333333336, "fusion_lat": 0.0, "is_reserved": 0, "rental_uris": {"ios": "https://dc.lft.to/lastmile_qr_scan", "android": "https://dc.lft.to/lastmile_qr_scan"}, "fusion_lon": 0.0, "type": "electric_scooter", "bike_id": "530ab0a3942504adec9373d722b4d3c9", "name": "530ab0a3942504adec9373d722b4d3c9"}, {"lon": -77.00610533333334, "is_disabled": 0, "lat": 38.871796, "fusion_lat": 0.0, "is_reserved": 0, "rental_uris": {"ios": "https://dc.lft.to/lastmile_qr_scan", "android": "https://dc.lft.to/lastmile_qr_scan"}, "fusion_lon": 0.0, "type": "electric_scooter", "bike_id": "2b0d087f18ebf9523cb2e5464bbc9fd1", "name": "2b0d087f18ebf9523cb2e5464bbc9fd1"}, {"lon": -77.02820966666667, "is_disabled": 0, "lat": 38.89361383333333, "fusion_lat": 0.0, "is_reserved": 0, "rental_uris": {"ios": "https://dc.lft.to/lastmile_qr_scan", "android": "https://dc.lft.to/lastmile_qr_scan"}, "fusion_lon": 0.0, "type": "electric_scooter", "bike_id": "efe71d8c95825db0c74c391124da20e0", "name": "efe71d8c95825db0c74c391124da20e0"}, {"lon": -77.02683433333333, "is_disabled": 0, "lat": 38.9095025, "fusion_lat": 0.0, "is_reserved": 0, "rental_uris": {"ios": "https://dc.lft.to/lastmile_qr_scan", "android": "https://dc.lft.to/lastmile_qr_scan"}, "fusion_lon": 0.0, "type": "electric_scooter", "bike_id": "65fd84f94a8b254540510db5d2422988", "name": "65fd84f94a8b254540510db5d2422988"}, {"lon": -77.00848, "is_disabled": 0, "lat": 38.87694666666667, "fusion_lat": 0.0, "is_reserved": 0, "rental_uris": {"ios": "https://dc.lft.to/lastmile_qr_scan", "android": "https://dc.lft.to/lastmile_qr_scan"}, "fusion_lon": 0.0, "type": "electric_scooter", "bike_id": "1635b5ee025ce77862257e986b6ecab6", "name": "1635b5ee025ce77862257e986b6ecab6"}, {"lon": -77.00197666666666, "is_disabled": 0, "lat": 38.90267516666667, "fusion_lat": 0.0, "is_reserved": 0, "rental_uris": {"ios": "https://dc.lft.to/lastmile_qr_scan", "android": "https://dc.lft.to/lastmile_qr_scan"}, "fusion_lon": 0.0, "type": "electric_scooter", "bike_id": "be063184fc7ac47e55c48770311cc081", "name": "be063184fc7ac47e55c48770311cc081"}, {"lon": -77.01250316666666, "is_disabled": 0, "lat": 38.91573966666667, "fusion_lat": 0.0, "is_reserved": 0, "rental_uris": {"ios": "https://dc.lft.to/lastmile_qr_scan", "android": "https://dc.lft.to/lastmile_qr_scan"}, "fusion_lon": 0.0, "type": "electric_scooter", "bike_id": "079373be02919cf33d47cd066e213489", "name": "079373be02919cf33d47cd066e213489"}, {"lon": -77.06953683333333, "is_disabled": 0, "lat": 38.995286, "fusion_lat": 0.0, "is_reserved": 0, "rental_uris": {"ios": "https://dc.lft.to/lastmile_qr_scan", "android": "https://dc.lft.to/lastmile_qr_scan"}, "fusion_lon": 0.0, "type": "electric_bike", "bike_id": "57c0e54538d30c2b55d37b89d6a2886b", "name": "57c0e54538d30c2b55d37b89d6a2886b"}, {"lon": -77.02488066666666, "is_disabled": 0, "lat": 38.93878983333333, "fusion_lat": 0.0, "is_reserved": 0, "rental_uris": {"ios": "https://dc.lft.to/lastmile_qr_scan", "android": "https://dc.lft.to/lastmile_qr_scan"}, "fusion_lon": 0.0, "type": "electric_scooter", "bike_id": "eb47a01d40bca0cccd63be247783ebf0", "name": "eb47a01d40bca0cccd63be247783ebf0"}, {"lon": -76.937653, "is_disabled": 0, "lat": 38.902465666666664, "fusion_lat": 0.0, "is_reserved": 0, "rental_uris": {"ios": "https://dc.lft.to/lastmile_qr_scan", "android": "https://dc.lft.to/lastmile_qr_scan"}, "fusion_lon": 0.0, "type": "electric_scooter", "bike_id": "56852fe2f4914403d609c0315e794ae0", "name": "56852fe2f4914403d609c0315e794ae0"}, {"lon": -77.038727, "is_disabled": 0, "lat": 38.90269933333333, "fusion_lat": 0.0, "is_reserved": 0, "rental_uris": {"ios": "https://dc.lft.to/lastmile_qr_scan", "android": "https://dc.lft.to/lastmile_qr_scan"}, "fusion_lon": 0.0, "type": "electric_scooter", "bike_id": "b3e12ec2fbf271ba3aa2ac1039b36fe8", "name": "b3e12ec2fbf271ba3aa2ac1039b36fe8"}, {"lon": -77.04655266666667, "is_disabled": 0, "lat": 38.898805, "fusion_lat": 0.0, "is_reserved": 0, "rental_uris": {"ios": "https://dc.lft.to/lastmile_qr_scan", "android": "https://dc.lft.to/lastmile_qr_scan"}, "fusion_lon": 0.0, "type": "electric_scooter", "bike_id": "0c0366d4cea8e7bfca9238859e860a10", "name": "0c0366d4cea8e7bfca9238859e860a10"}, {"lon": -77.03659666666667, "is_disabled": 0, "lat": 38.94195583333333, "fusion_lat": 0.0, "is_reserved": 0, "rental_uris": {"ios": "https://dc.lft.to/lastmile_qr_scan", "android": "https://dc.lft.to/lastmile_qr_scan"}, "fusion_lon": 0.0, "type": "electric_scooter", "bike_id": "97c5337e9de703b86105bd5b910ebecc", "name": "97c5337e9de703b86105bd5b910ebecc"}, {"lon": -77.03343383333333, "is_disabled": 0, "lat": 38.89839833333333, "fusion_lat": 0.0, "is_reserved": 0, "rental_uris": {"ios": "https://dc.lft.to/lastmile_qr_scan", "android": "https://dc.lft.to/lastmile_qr_scan"}, "fusion_lon": 0.0, "type": "electric_scooter", "bike_id": "1b818679e7b7883725ccf6d57e8c10a3", "name": "1b818679e7b7883725ccf6d57e8c10a3"}, {"lon": -77.00066683333333, "is_disabled": 0, "lat": 38.83891033333333, "fusion_lat": 0.0, "is_reserved": 0, "rental_uris": {"ios": "https://dc.lft.to/lastmile_qr_scan", "android": "https://dc.lft.to/lastmile_qr_scan"}, "fusion_lon": 0.0, "type": "electric_scooter", "bike_id": "152e53e64ace4ddc5724af17011050ac", "name": "152e53e64ace4ddc5724af17011050ac"}, {"lon": -77.03261183333333, "is_disabled": 0, "lat": 38.9357195, "fusion_lat": 0.0, "is_reserved": 0, "rental_uris": {"ios": "https://dc.lft.to/lastmile_qr_scan", "android": "https://dc.lft.to/lastmile_qr_scan"}, "fusion_lon": 0.0, "type": "electric_scooter", "bike_id": "7be094d11371fe52f62b0489f710f624", "name": "7be094d11371fe52f62b0489f710f624"}, {"lon": -76.99450316666666, "is_disabled": 0, "lat": 38.900253, "fusion_lat": 0.0, "is_reserved": 0, "rental_uris": {"ios": "https://dc.lft.to/lastmile_qr_scan", "android": "https://dc.lft.to/lastmile_qr_scan"}, "fusion_lon": 0.0, "type": "electric_scooter", "bike_id": "60caaa3ccf617a43b205a9695ef20ba2", "name": "60caaa3ccf617a43b205a9695ef20ba2"}, {"lon": -77.04110616666667, "is_disabled": 0, "lat": 38.9238035, "fusion_lat": 0.0, "is_reserved": 0, "rental_uris": {"ios": "https://dc.lft.to/lastmile_qr_scan", "android": "https://dc.lft.to/lastmile_qr_scan"}, "fusion_lon": 0.0, "type": "electric_scooter", "bike_id": "c81f8d853d5a2e8f135075bb4a459ae6", "name": "c81f8d853d5a2e8f135075bb4a459ae6"}, {"lon": -77.02505166666667, "is_disabled": 0, "lat": 38.884376, "fusion_lat": 0.0, "is_reserved": 0, "rental_uris": {"ios": "https://dc.lft.to/lastmile_qr_scan", "android": "https://dc.lft.to/lastmile_qr_scan"}, "fusion_lon": 0.0, "type": "electric_scooter", "bike_id": "86498fd50f2eccd40bc40198eb5b7e6d", "name": "86498fd50f2eccd40bc40198eb5b7e6d"}, {"lon": -77.02960416666667, "is_disabled": 0, "lat": 38.922574, "fusion_lat": 0.0, "is_reserved": 0, "rental_uris": {"ios": "https://dc.lft.to/lastmile_qr_scan", "android": "https://dc.lft.to/lastmile_qr_scan"}, "fusion_lon": 0.0, "type": "electric_scooter", "bike_id": "11f7c3ffefa9a0693118ed67c62e8a3b", "name": "11f7c3ffefa9a0693118ed67c62e8a3b"}, {"lon": -77.02589933333333, "is_disabled": 0, "lat": 38.94210983333333, "fusion_lat": 0.0, "is_reserved": 0, "rental_uris": {"ios": "https://dc.lft.to/lastmile_qr_scan", "android": "https://dc.lft.to/lastmile_qr_scan"}, "fusion_lon": 0.0, "type": "electric_scooter", "bike_id": "f3b4d7fa52ab757fe1bd8f843be56765", "name": "f3b4d7fa52ab757fe1bd8f843be56765"}, {"lon": -77.0647535, "is_disabled": 0, "lat": 38.97383166666667, "fusion_lat": 0.0, "is_reserved": 0, "rental_uris": {"ios": "https://dc.lft.to/lastmile_qr_scan", "android": "https://dc.lft.to/lastmile_qr_scan"}, "fusion_lon": 0.0, "type": "electric_bike", "bike_id": "b4c7ebacdaa19053fc3464d7272bc8cf", "name": "b4c7ebacdaa19053fc3464d7272bc8cf"}, {"lon": -76.99505666666667, "is_disabled": 0, "lat": 38.862480833333336, "fusion_lat": 0.0, "is_reserved": 0, "rental_uris": {"ios": "https://dc.lft.to/lastmile_qr_scan", "android": "https://dc.lft.to/lastmile_qr_scan"}, "fusion_lon": 0.0, "type": "electric_scooter", "bike_id": "0c6f037ecbd65c82b601182eb18a405c", "name": "0c6f037ecbd65c82b601182eb18a405c"}, {"lon": -77.03896933333333, "is_disabled": 0, "lat": 38.9065095, "fusion_lat": 0.0, "is_reserved": 0, "rental_uris": {"ios": "https://dc.lft.to/lastmile_qr_scan", "android": "https://dc.lft.to/lastmile_qr_scan"}, "fusion_lon": 0.0, "type": "electric_scooter", "bike_id": "da2f32d4f8a07ffe1d79f89d281ddd49", "name": "da2f32d4f8a07ffe1d79f89d281ddd49"}, {"lon": -77.0007315, "is_disabled": 0, "lat": 38.87380066666667, "fusion_lat": 0.0, "is_reserved": 0, "rental_uris": {"ios": "https://dc.lft.to/lastmile_qr_scan", "android": "https://dc.lft.to/lastmile_qr_scan"}, "fusion_lon": 0.0, "type": "electric_scooter", "bike_id": "61948be7fe18a3448a515682433e363a", "name": "61948be7fe18a3448a515682433e363a"}, {"lon": -77.03841933333334, "is_disabled": 0, "lat": 38.90278583333333, "fusion_lat": 0.0, "is_reserved": 0, "rental_uris": {"ios": "https://dc.lft.to/lastmile_qr_scan", "android": "https://dc.lft.to/lastmile_qr_scan"}, "fusion_lon": 0.0, "type": "electric_scooter", "bike_id": "03c382bdabb98a74c552f8c77bc85107", "name": "03c382bdabb98a74c552f8c77bc85107"}, {"lon": -77.02468283333333, "is_disabled": 0, "lat": 38.897461666666665, "fusion_lat": 0.0, "is_reserved": 0, "rental_uris": {"ios": "https://dc.lft.to/lastmile_qr_scan", "android": "https://dc.lft.to/lastmile_qr_scan"}, "fusion_lon": 0.0, "type": "electric_scooter", "bike_id": "3334c1fe93dabc2a67977f850b715c14", "name": "3334c1fe93dabc2a67977f850b715c14"}, {"lon": -77.03216316666666, "is_disabled": 0, "lat": 38.957881, "fusion_lat": 0.0, "is_reserved": 0, "rental_uris": {"ios": "https://dc.lft.to/lastmile_qr_scan", "android": "https://dc.lft.to/lastmile_qr_scan"}, "fusion_lon": 0.0, "type": "electric_scooter", "bike_id": "92c116993959098425b6da1e66e8559c", "name": "92c116993959098425b6da1e66e8559c"}, {"lon": -76.99822083333333, "is_disabled": 0, "lat": 38.885325, "fusion_lat": 0.0, "is_reserved": 0, "rental_uris": {"ios": "https://dc.lft.to/lastmile_qr_scan", "android": "https://dc.lft.to/lastmile_qr_scan"}, "fusion_lon": 0.0, "type": "electric_scooter", "bike_id": "9422e80d70a5cc7f54db0b197976f946", "name": "9422e80d70a5cc7f54db0b197976f946"}, {"lon": -77.022909, "is_disabled": 0, "lat": 38.9160755, "fusion_lat": 0.0, "is_reserved": 0, "rental_uris": {"ios": "https://dc.lft.to/lastmile_qr_scan", "android": "https://dc.lft.to/lastmile_qr_scan"}, "fusion_lon": 0.0, "type": "electric_scooter", "bike_id": "45cf85a0d0610c4da44a9f0e434b7955", "name": "45cf85a0d0610c4da44a9f0e434b7955"}, {"lon": -77.0276225, "is_disabled": 0, "lat": 38.90092683333334, "fusion_lat": 0.0, "is_reserved": 0, "rental_uris": {"ios": "https://dc.lft.to/lastmile_qr_scan", "android": "https://dc.lft.to/lastmile_qr_scan"}, "fusion_lon": 0.0, "type": "electric_scooter", "bike_id": "b5a11cef18396f0e242a7c21e245523a", "name": "b5a11cef18396f0e242a7c21e245523a"}, {"lon": -77.03195, "is_disabled": 0, "lat": 38.917465666666665, "fusion_lat": 0.0, "is_reserved": 0, "rental_uris": {"ios": "https://dc.lft.to/lastmile_qr_scan", "android": "https://dc.lft.to/lastmile_qr_scan"}, "fusion_lon": 0.0, "type": "electric_scooter", "bike_id": "61953827e1ceeb79672326f05d1ac11c", "name": "61953827e1ceeb79672326f05d1ac11c"}, {"lon": -77.00647383333333, "is_disabled": 0, "lat": 38.915508, "fusion_lat": 0.0, "is_reserved": 0, "rental_uris": {"ios": "https://dc.lft.to/lastmile_qr_scan", "android": "https://dc.lft.to/lastmile_qr_scan"}, "fusion_lon": 0.0, "type": "electric_scooter", "bike_id": "2d7ad9977f2aff6d748a2959b8b067f6", "name": "2d7ad9977f2aff6d748a2959b8b067f6"}, {"lon": -77.0218855, "is_disabled": 0, "lat": 38.9451115, "fusion_lat": 0.0, "is_reserved": 0, "rental_uris": {"ios": "https://dc.lft.to/lastmile_qr_scan", "android": "https://dc.lft.to/lastmile_qr_scan"}, "fusion_lon": 0.0, "type": "electric_bike", "bike_id": "ee0c25a1eeff66fdbbe082dd9e39d0f0", "name": "ee0c25a1eeff66fdbbe082dd9e39d0f0"}, {"lon": -77.05151433333333, "is_disabled": 0, "lat": 38.923770833333336, "fusion_lat": 0.0, "is_reserved": 0, "rental_uris": {"ios": "https://dc.lft.to/lastmile_qr_scan", "android": "https://dc.lft.to/lastmile_qr_scan"}, "fusion_lon": 0.0, "type": "electric_scooter", "bike_id": "03b827e812ede3cf310cd0e33811b243", "name": "03b827e812ede3cf310cd0e33811b243"}, {"lon": -77.03524016666667, "is_disabled": 0, "lat": 38.922339666666666, "fusion_lat": 0.0, "is_reserved": 0, "rental_uris": {"ios": "https://dc.lft.to/lastmile_qr_scan", "android": "https://dc.lft.to/lastmile_qr_scan"}, "fusion_lon": 0.0, "type": "electric_scooter", "bike_id": "14dc737ba42e7265cda7501375c07f59", "name": "14dc737ba42e7265cda7501375c07f59"}, {"lon": -77.04160766666666, "is_disabled": 0, "lat": 38.90147833333333, "fusion_lat": 0.0, "is_reserved": 0, "rental_uris": {"ios": "https://dc.lft.to/lastmile_qr_scan", "android": "https://dc.lft.to/lastmile_qr_scan"}, "fusion_lon": 0.0, "type": "electric_scooter", "bike_id": "4b04fefc9658164220de50a016857a36", "name": "4b04fefc9658164220de50a016857a36"}, {"lon": -77.0186915, "is_disabled": 0, "lat": 38.874592666666665, "fusion_lat": 0.0, "is_reserved": 0, "rental_uris": {"ios": "https://dc.lft.to/lastmile_qr_scan", "android": "https://dc.lft.to/lastmile_qr_scan"}, "fusion_lon": 0.0, "type": "electric_scooter", "bike_id": "89715830835fb9e593c41514a7623bf1", "name": "89715830835fb9e593c41514a7623bf1"}, {"lon": -77.03270483333333, "is_disabled": 0, "lat": 38.927597, "fusion_lat": 0.0, "is_reserved": 0, "rental_uris": {"ios": "https://dc.lft.to/lastmile_qr_scan", "android": "https://dc.lft.to/lastmile_qr_scan"}, "fusion_lon": 0.0, "type": "electric_scooter", "bike_id": "112e095fbc8839a21951eaeed725f149", "name": "112e095fbc8839a21951eaeed725f149"}, {"lon": -77.0466115, "is_disabled": 0, "lat": 38.90364266666667, "fusion_lat": 0.0, "is_reserved": 0, "rental_uris": {"ios": "https://dc.lft.to/lastmile_qr_scan", "android": "https://dc.lft.to/lastmile_qr_scan"}, "fusion_lon": 0.0, "type": "electric_scooter", "bike_id": "f04dfcaad1a9a26d4a382a89a1eb4022", "name": "f04dfcaad1a9a26d4a382a89a1eb4022"}, {"lon": -77.08435116666666, "is_disabled": 0, "lat": 38.93187266666666, "fusion_lat": 0.0, "is_reserved": 0, "rental_uris": {"ios": "https://dc.lft.to/lastmile_qr_scan", "android": "https://dc.lft.to/lastmile_qr_scan"}, "fusion_lon": 0.0, "type": "electric_scooter", "bike_id": "586180fa2191c339d906bfd03f356387", "name": "586180fa2191c339d906bfd03f356387"}, {"lon": -77.023968, "is_disabled": 0, "lat": 38.915508333333335, "fusion_lat": 0.0, "is_reserved": 0, "rental_uris": {"ios": "https://dc.lft.to/lastmile_qr_scan", "android": "https://dc.lft.to/lastmile_qr_scan"}, "fusion_lon": 0.0, "type": "electric_scooter", "bike_id": "1fddcc6232512264ba6535ea70e95a1a", "name": "1fddcc6232512264ba6535ea70e95a1a"}, {"lon": -77.064079, "is_disabled": 0, "lat": 38.9444075, "fusion_lat": 0.0, "is_reserved": 0, "rental_uris": {"ios": "https://dc.lft.to/lastmile_qr_scan", "android": "https://dc.lft.to/lastmile_qr_scan"}, "fusion_lon": 0.0, "type": "electric_scooter", "bike_id": "eb0b8b6825228bbfc8cee81059212f34", "name": "eb0b8b6825228bbfc8cee81059212f34"}, {"lon": -77.00518866666667, "is_disabled": 0, "lat": 38.87468283333333, "fusion_lat": 0.0, "is_reserved": 0, "rental_uris": {"ios": "https://dc.lft.to/lastmile_qr_scan", "android": "https://dc.lft.to/lastmile_qr_scan"}, "fusion_lon": 0.0, "type": "electric_scooter", "bike_id": "90305a1e6777a940738c234b09980978", "name": "90305a1e6777a940738c234b09980978"}, {"lon": -76.99618533333333, "is_disabled": 0, "lat": 38.9006155, "fusion_lat": 0.0, "is_reserved": 0, "rental_uris": {"ios": "https://dc.lft.to/lastmile_qr_scan", "android": "https://dc.lft.to/lastmile_qr_scan"}, "fusion_lon": 0.0, "type": "electric_scooter", "bike_id": "a2c23634c1be42eda8871f65af4e09dd", "name": "a2c23634c1be42eda8871f65af4e09dd"}, {"lon": -77.0320695, "is_disabled": 0, "lat": 38.928609333333334, "fusion_lat": 0.0, "is_reserved": 0, "rental_uris": {"ios": "https://dc.lft.to/lastmile_qr_scan", "android": "https://dc.lft.to/lastmile_qr_scan"}, "fusion_lon": 0.0, "type": "electric_scooter", "bike_id": "32a7e37e54e70d4b4ddc490784382022", "name": "32a7e37e54e70d4b4ddc490784382022"},