{"data": {"bikes": [{"fusion_lat": 0.0, "lon": -77.03458916666666, "is_reserved": 0, "bike_id": "743e634cb421afd2739032ce6ee7207a", "fusion_lon": 0.0, "rental_uris": {"android": "https://dc.lft.to/lastmile_qr_scan", "ios": "https://dc.lft.to/lastmile_qr_scan"}, "name": "743e634cb421afd2739032ce6ee7207a", "type": "electric_scooter", "lat": 38.92350616666667, "is_disabled": 0}, {"fusion_lat": 0.0, "lon": -77.02677866666667, "is_reserved": 0, "bike_id": "708ff5c4d0e6084c5832b8028707fd64", "fusion_lon": 0.0, "rental_uris": {"android": "https://dc.lft.to/lastmile_qr_scan", "ios": "https://dc.lft.to/lastmile_qr_scan"}, "name": "708ff5c4d0e6084c5832b8028707fd64", "type": "electric_scooter", "lat": 38.917029666666664, "is_disabled": 0}, {"fusion_lat": 0.0, "lon": -77.04180866666667, "is_reserved": 0, "bike_id": "38038e3c53a500385ac74f9996b00c82", "fusion_lon": 0.0, "rental_uris": {"android": "https://dc.lft.to/lastmile_qr_scan", "ios": "https://dc.lft.to/lastmile_qr_scan"}, "name": "38038e3c53a500385ac74f9996b00c82", "type": "electric_scooter", "lat": 38.916597, "is_disabled": 0}, {"fusion_lat": 0.0, "lon": -76.9995675, "is_reserved": 0, "bike_id": "869526aa57bd3fffbd61608a4ae5cec2", "fusion_lon": 0.0, "rental_uris": {"android": "https://dc.lft.to/lastmile_qr_scan", "ios": "https://dc.lft.to/lastmile_qr_scan"}, "name": "869526aa57bd3fffbd61608a4ae5cec2", "type": "electric_scooter", "lat": 38.908577666666666, "is_disabled": 0}, {"fusion_lat": 0.0, "lon": -77.02393333333333, "is_reserved": 0, "bike_id": "5e1ca030c4076247da868589dba9d23a", "fusion_lon": 0.0, "rental_uris": {"android": "https://dc.lft.to/lastmile_qr_scan", "ios": "https://dc.lft.to/lastmile_qr_scan"}, "name": "5e1ca030c4076247da868589dba9d23a", "type": "electric_scooter", "lat": 38.91610466666667, "is_disabled": 0}, {"fusion_lat": 0.0, "lon": -77.03988933333333, "is_reserved": 0, "bike_id": "352a73b0cb14699e7b321534d2af72cf", "fusion_lon": 0.0, "rental_uris": {"android": "https://dc.lft.to/lastmile_qr_scan", "ios": "https://dc.lft.to/lastmile_qr_scan"}, "name": "352a73b0cb14699e7b321534d2af72cf", "type": "electric_scooter", "lat": 38.91759966666667, "is_disabled": 0}, {"fusion_lat": 0.0, "lon": -77.0006205, "is_reserved": 0, "bike_id": "c0e0faa2116563cf39df9990f3a35b24", "fusion_lon": 0.0, "rental_uris": {"android": "https://dc.lft.to/lastmile_qr_scan", "ios": "https://dc.lft.to/lastmile_qr_scan"}, "name": "c0e0faa2116563cf39df9990f3a35b24", "type": "electric_scooter", "lat": 38.8766325, "is_disabled": 0}, {"fusion_lat": 0.0, "lon": -77.03131633333334, "is_reserved": 0, "bike_id": "a3b26b7820ab828774436f8a7e579a12", "fusion_lon": 0.0, "rental_uris": {"android": "https://dc.lft.to/lastmile_qr_scan", "ios": "https://dc.lft.to/lastmile_qr_scan"}, "name": "a3b26b7820ab828774436f8a7e579a12", "type": "electric_scooter", "lat": 38.89630833333333, "is_disabled": 0}, {"fusion_lat": 0.0, "lon": -77.02696566666667, "is_reserved": 0, "bike_id": "d19302754428c8a839f6916bbe44f259", "fusion_lon": 0.0, "rental_uris": {"android": "https://dc.lft.to/lastmile_qr_scan", "ios": "https://dc.lft.to/lastmile_qr_scan"}, "name": "d19302754428c8a839f6916bbe44f259", "type": "electric_scooter", "lat": 38.923337, "is_disabled": 0}, {"fusion_lat": 0.0, "lon": -77.02310383333334, "is_reserved": 0, "bike_id": "7fe642c0fb74c8a5f9193d49ac77f6c4", "fusion_lon": 0.0, "rental_uris": {"android": "https://dc.lft.to/lastmile_qr_scan", "ios": "https://dc.lft.to/lastmile_qr_scan"}, "name": "7fe642c0fb74c8a5f9193d49ac77f6c4", "type": "electric_scooter", "lat": 38.91616533333333, "is_disabled": 0}, {"fusion_lat": 0.0, "lon": -77.00369216666667, "is_reserved": 0, "bike_id": "6cc76147ac483f4c54dbc869bb968068", "fusion_lon": 0.0, "rental_uris": {"android": "https://dc.lft.to/lastmile_qr_scan", "ios": "https://dc.lft.to/lastmile_qr_scan"}, "name": "6cc76147ac483f4c54dbc869bb968068", "type": "electric_scooter", "lat": 38.897385166666666, "is_disabled": 0}, {"fusion_lat": 0.0, "lon": -76.9388295, "is_reserved": 0, "bike_id": "c3908d66901219629bd0050a63e01869", "fusion_lon": 0.0, "rental_uris": {"android": "https://dc.lft.to/lastmile_qr_scan", "ios": "https://dc.lft.to/lastmile_qr_scan"}, "name": "c3908d66901219629bd0050a63e01869", "type": "electric_bike", "lat": 38.9564345, "is_disabled": 0}, {"fusion_lat": 0.0, "lon": -77.01141133333333, "is_reserved": 0, "bike_id": "cd608cd25b026ad74d17423a2b88bd70", "fusion_lon": 0.0, "rental_uris": {"android": "https://dc.lft.to/lastmile_qr_scan", "ios": "https://dc.lft.to/lastmile_qr_scan"}, "name": "cd608cd25b026ad74d17423a2b88bd70", "type": "electric_scooter", "lat": 38.88034783333333, "is_disabled": 0}, {"fusion_lat": 0.0, "lon": -76.99418166666666, "is_reserved": 0, "bike_id": "aac3a75bfa23d47ab97ee7cfce4a3bad", "fusion_lon": 0.0, "rental_uris": {"android": "https://dc.lft.to/lastmile_qr_scan", "ios": "https://dc.lft.to/lastmile_qr_scan"}, "name": "aac3a75bfa23d47ab97ee7cfce4a3bad", "type": "electric_scooter", "lat": 38.950552, "is_disabled": 0}, {"fusion_lat": 0.0, "lon": -77.0121325, "is_reserved": 0, "bike_id": "8e2c654b6b4ef996353bbd6d767aa254", "fusion_lon": 0.0, "rental_uris": {"android": "https://dc.lft.to/lastmile_qr_scan", "ios": "https://dc.lft.to/lastmile_qr_scan"}, "name": "8e2c654b6b4ef996353bbd6d767aa254", "type": "electric_scooter", "lat": 38.92118833333333, "is_disabled": 0}, {"fusion_lat": 0.0, "lon": -77.04511183333334, "is_reserved": 0, "bike_id": "9ecfe17cf6e17a5a02b1f86d0dd1aba1", "fusion_lon": 0.0, "rental_uris": {"android": "https://dc.lft.to/lastmile_qr_scan", "ios": "https://dc.lft.to/lastmile_qr_scan"}, "name": "9ecfe17cf6e17a5a02b1f86d0dd1aba1", "type": "electric_scooter", "lat": 38.907803, "is_disabled": 0}, {"fusion_lat": 0.0, "lon": -77.02150233333333, "is_reserved": 0, "bike_id": "cc7d8d837b2921269c0f9d20e73efc70", "fusion_lon": 0.0, "rental_uris": {"android": "https://dc.lft.to/lastmile_qr_scan", "ios": "https://dc.lft.to/lastmile_qr_scan"}, "name": "cc7d8d837b2921269c0f9d20e73efc70", "type": "electric_scooter", "lat": 38.89400166666667, "is_disabled": 0}, {"fusion_lat": 0.0, "lon": -77.01822083333333, "is_reserved": 0, "bike_id": "3e886b79923b28f4327fe6f8b796cee2", "fusion_lon": 0.0, "rental_uris": {"android": "https://dc.lft.to/lastmile_qr_scan", "ios": "https://dc.lft.to/lastmile_qr_scan"}, "name": "3e886b79923b28f4327fe6f8b796cee2", "type": "electric_scooter", "lat": 38.90970316666667, "is_disabled": 0}, {"fusion_lat": 0.0, "lon": -77.04819633333334, "is_reserved": 0, "bike_id": "9438148be6ecdaf748a38b3752345c10", "fusion_lon": 0.0, "rental_uris": {"android": "https://dc.lft.to/lastmile_qr_scan", "ios": "https://dc.lft.to/lastmile_qr_scan"}, "name": "9438148be6ecdaf748a38b3752345c10", "type": "electric_scooter", "lat": 38.919204, "is_disabled": 0}, {"fusion_lat": 0.0, "lon": -77.04248833333334, "is_reserved": 0, "bike_id": "96f1958a559b4ffefe52015234f915b5", "fusion_lon": 0.0, "rental_uris": {"android": "https://dc.lft.to/lastmile_qr_scan", "ios": "https://dc.lft.to/lastmile_qr_scan"}, "name": "96f1958a559b4ffefe52015234f915b5", "type": "electric_scooter", "lat": 38.92057483333333, "is_disabled": 0}, {"fusion_lat": 0.0, "lon": -77.02906933333334, "is_reserved": 0, "bike_id": "f9951c03aba4db77c421415da7fb79c6", "fusion_lon": 0.0, "rental_uris": {"android": "https://dc.lft.to/lastmile_qr_scan", "ios": "https://dc.lft.to/lastmile_qr_scan"}, "name": "f9951c03aba4db77c421415da7fb79c6", "type": "electric_scooter", "lat": 38.92819016666667, "is_disabled": 0}, {"fusion_lat": 0.0, "lon": -77.04191433333334, "is_reserved": 0, "bike_id": "fd3e20d178486839c321394e2b96dd6e", "fusion_lon": 0.0, "rental_uris": {"android": "https://dc.lft.to/lastmile_qr_scan", "ios": "https://dc.lft.to/lastmile_qr_scan"}, "name": "fd3e20d178486839c321394e2b96dd6e", "type": "electric_scooter", "lat": 38.905666333333336, "is_disabled": 0}, {"fusion_lat": 0.0, "lon": -76.9801855, "is_reserved": 0, "bike_id": "0a2d7b0039a438bb7e1c5dcfb7ca0fe4", "fusion_lon": 0.0, "rental_uris": {"android": "https://dc.lft.to/lastmile_qr_scan", "ios": "https://dc.lft.to/lastmile_qr_scan"}, "name": "0a2d7b0039a438bb7e1c5dcfb7ca0fe4", "type": "electric_scooter", "lat": 38.90288283333334, "is_disabled": 0}, {"fusion_lat": 0.0, "lon": -77.08040816666667, "is_reserved": 0, "bike_id": "de70e36752a673029175cbd6fd4d5b77", "fusion_lon": 0.0, "rental_uris": {"android": "https://dc.lft.to/lastmile_qr_scan", "ios": "https://dc.lft.to/lastmile_qr_scan"}, "name": "de70e36752a673029175cbd6fd4d5b77", "type": "electric_scooter", "lat": 38.923890666666665, "is_disabled": 0}, {"fusion_lat": 0.0, "lon": -77.042251, "is_reserved": 0, "bike_id": "d2c2335ba17556151dc0cbd9153f7bda", "fusion_lon": 0.0, "rental_uris": {"android": "https://dc.lft.to/lastmile_qr_scan", "ios": "https://dc.lft.to/lastmile_qr_scan"}, "name": "d2c2335ba17556151dc0cbd9153f7bda", "type": "electric_scooter", "lat": 38.9216375, "is_disabled": 0}, {"fusion_lat": 0.0, "lon": -76.96564983333333, "is_reserved": 0, "bike_id": "540c01c4002579a77f888ea59931a773", "fusion_lon": 0.0, "rental_uris": {"android": "https://dc.lft.to/lastmile_qr_scan", "ios": "https://dc.lft.to/lastmile_qr_scan"}, "name": "540c01c4002579a77f888ea59931a773", "type": "electric_scooter", "lat": 38.918450166666666, "is_disabled": 0}, {"fusion_lat": 0.0, "lon": -77.0312155, "is_reserved": 0, "bike_id": "45f16fd404c98ab98f06de0f2efb15da", "fusion_lon": 0.0, "rental_uris": {"android": "https://dc.lft.to/lastmile_qr_scan", "ios": "https://dc.lft.to/lastmile_qr_scan"}, "name": "45f16fd404c98ab98f06de0f2efb15da", "type": "electric_scooter", "lat": 38.92012066666667, "is_disabled": 0}, {"fusion_lat": 0.0, "lon": -76.99884383333334, "is_reserved": 0, "bike_id": "db38656338e51d406a184aa0941a2f43", "fusion_lon": 0.0, "rental_uris": {"android": "https://dc.lft.to/lastmile_qr_scan", "ios": "https://dc.lft.to/lastmile_qr_scan"}, "name": "db38656338e51d406a184aa0941a2f43", "type": "electric_scooter", "lat": 38.90126, "is_disabled": 0}, {"fusion_lat": 0.0, "lon": -77.02489, "is_reserved": 0, "bike_id": "7e693b272c53527e157a440ffff0eb79", "fusion_lon": 0.0, "rental_uris": {"android": "https://dc.lft.to/lastmile_qr_scan", "ios": "https://dc.lft.to/lastmile_qr_scan"}, "name": "7e693b272c53527e157a440ffff0eb79", "type": "electric_scooter", "lat": 38.937532833333336, "is_disabled": 0}, {"fusion_lat": 0.0, "lon": -76.99381566666666, "is_reserved": 0, "bike_id": "ae1ad403f6837e345091c02c903ded58", "fusion_lon": 0.0, "rental_uris": {"android": "https://dc.lft.to/lastmile_qr_scan", "ios": "https://dc.lft.to/lastmile_qr_scan"}, "name": "ae1ad403f6837e345091c02c903ded58", "type": "electric_bike", "lat": 38.9718705, "is_disabled": 0}, {"fusion_lat": 0.0, "lon": -77.01871083333333, "is_reserved": 0, "bike_id": "a543ba245add5a9c87f69721d60a500b", "fusion_lon": 0.0, "rental_uris": {"android": "https://dc.lft.to/lastmile_qr_scan", "ios": "https://dc.lft.to/lastmile_qr_scan"}, "name": "a543ba245add5a9c87f69721d60a500b", "type": "electric_scooter", "lat": 38.97370266666667, "is_disabled": 0}, {"fusion_lat": 0.0, "lon": -76.9985145, "is_reserved": 0, "bike_id": "41011b2282def1a80237149d62d626b0", "fusion_lon": 0.0, "rental_uris": {"android": "https://dc.lft.to/lastmile_qr_scan", "ios": "https://dc.lft.to/lastmile_qr_scan"}, "name": "41011b2282def1a80237149d62d626b0", "type": "electric_scooter", "lat": 38.9002935, "is_disabled": 0}, {"fusion_lat": 0.0, "lon": -77.0526515, "is_reserved": 0, "bike_id": "475f7d9581d15eeffc78e604b688b72d", "fusion_lon": 0.0, "rental_uris": {"android": "https://dc.lft.to/lastmile_qr_scan", "ios": "https://dc.lft.to/lastmile_qr_scan"}, "name": "475f7d9581d15eeffc78e604b688b72d", "type": "electric_scooter", "lat": 38.925628333333336, "is_disabled": 0}, {"fusion_lat": 0.0, "lon": -77.0107715, "is_reserved": 0, "bike_id": "592f6e1a34dae03d8c90df97b80190a7", "fusion_lon": 0.0, "rental_uris": {"android": "https://dc.lft.to/lastmile_qr_scan", "ios": "https://dc.lft.to/lastmile_qr_scan"}, "name": "592f6e1a34dae03d8c90df97b80190a7", "type": "electric_bike", "lat": 38.91769166666667, "is_disabled": 0}, {"fusion_lat": 0.0, "lon": -76.996351, "is_reserved": 0, "bike_id": "b2fd4ca523b60122adc24a8e3e1af366", "fusion_lon": 0.0, "rental_uris": {"android": "https://dc.lft.to/lastmile_qr_scan", "ios": "https://dc.lft.to/lastmile_qr_scan"}, "name": "b2fd4ca523b60122adc24a8e3e1af366", "type": "electric_scooter", "lat": 38.90011633333334, "is_disabled": 0}, {"fusion_lat": 0.0, "lon": -76.9487895, "is_reserved": 0, "bike_id": "7bc570fb4b19246f0155cba2cfc60341", "fusion_lon": 0.0, "rental_uris": {"android": "https://dc.lft.to/lastmile_qr_scan", "ios": "https://dc.lft.to/lastmile_qr_scan"}, "name": "7bc570fb4b19246f0155cba2cfc60341", "type": "electric_scooter", "lat": 38.895506166666664, "is_disabled": 0}, {"fusion_lat": 0.0, "lon": -77.01363283333333, "is_reserved": 0, "bike_id": "457da0236cae545c4194c69c85368626", "fusion_lon": 0.0, "rental_uris": {"android": "https://dc.lft.to/lastmile_qr_scan", "ios": "https://dc.lft.to/lastmile_qr_scan"}, "name": "457da0236cae545c4194c69c85368626", "type": "electric_scooter", "lat": 38.918168, "is_disabled": 0}, {"fusion_lat": 0.0, "lon": -77.07318633333334, "is_reserved": 0, "bike_id": "13e280d479d8e0f092eff1ba5f8648e2", "fusion_lon": 0.0, "rental_uris": {"android": "https://dc.lft.to/lastmile_qr_scan", "ios": "https://dc.lft.to/lastmile_qr_scan"}, "name": "13e280d479d8e0f092eff1ba5f8648e2", "type": "electric_scooter", "lat": 38.9260605, "is_disabled": 0}, {"fusion_lat": 0.0, "lon": -77.06022966666667, "is_reserved": 0, "bike_id": "eb5e9ca798fac2df79a4dd5beb184252", "fusion_lon": 0.0, "rental_uris": {"android": "https://dc.lft.to/lastmile_qr_scan", "ios": "https://dc.lft.to/lastmile_qr_scan"}, "name": "eb5e9ca798fac2df79a4dd5beb184252", "type": "electric_scooter", "lat": 38.902015666666664, "is_disabled": 0}, {"fusion_lat": 0.0, "lon": -77.0574375, "is_reserved": 0, "bike_id": "4b0b4739ed05a965cae1d117d1ad6e68", "fusion_lon": 0.0, "rental_uris": {"android": "https://dc.lft.to/lastmile_qr_scan", "ios": "https://dc.lft.to/lastmile_qr_scan"}, "name": "4b0b4739ed05a965cae1d117d1ad6e68", "type": "electric_scooter", "lat": 38.9338615, "is_disabled": 0}, {"fusion_lat": 0.0, "lon": -76.99934783333333, "is_reserved": 0, "bike_id": "e1f77ce298783e0d4280958a445bf2b8", "fusion_lon": 0.0, "rental_uris": {"android": "https://dc.lft.to/lastmile_qr_scan", "ios": "https://dc.lft.to/lastmile_qr_scan"}, "name": "e1f77ce298783e0d4280958a445bf2b8", "type": "electric_scooter", "lat": 38.84302116666667, "is_disabled": 0}, {"fusion_lat": 0.0, "lon": -77.041087, "is_reserved": 0, "bike_id": "4f54fa10d24a94e5d181a730e0c36cdb", "fusion_lon": 0.0, "rental_uris": {"android": "https://dc.lft.to/lastmile_qr_scan", "ios": "https://dc.lft.to/lastmile_qr_scan"}, "name": "4f54fa10d24a94e5d181a730e0c36cdb", "type": "electric_scooter", "lat": 38.91261766666667, "is_disabled": 0}, {"fusion_lat": 0.0, "lon": -77.03224066666667, "is_reserved": 0, "bike_id": "b96f02536f4a4f67824eeed4d20a66cb", "fusion_lon": 0.0, "rental_uris": {"android": "https://dc.lft.to/lastmile_qr_scan", "ios": "https://dc.lft.to/lastmile_qr_scan"}, "name": "b96f02536f4a4f67824eeed4d20a66cb", "type": "electric_scooter", "lat": 38.91405683333333, "is_disabled": 0}, {"fusion_lat": 0.0, "lon": -77.0660555, "is_reserved": 0, "bike_id": "1ee0ae7897ae6a7c3857f40e2d8e9871", "fusion_lon": 0.0, "rental_uris": {"android": "https://dc.lft.to/lastmile_qr_scan", "ios": "https://dc.lft.to/lastmile_qr_scan"}, "name": "1ee0ae7897ae6a7c3857f40e2d8e9871", "type": "electric_scooter", "lat": 38.903608, "is_disabled": 0}, {"fusion_lat": 0.0, "lon": -77.03425483333334, "is_reserved": 0, "bike_id": "dedf795ed02faaf26bc87748eddc4be6", "fusion_lon": 0.0, "rental_uris": {"android": "https://dc.lft.to/lastmile_qr_scan", "ios": "https://dc.lft.to/lastmile_qr_scan"}, "name": "dedf795ed02faaf26bc87748eddc4be6", "type": "electric_bike", "lat": 38.96533066666667, "is_disabled": 0}, {"fusion_lat": 0.0, "lon": -77.01413133333334, "is_reserved": 0, "bike_id": "055833501f63c94cca0d57bc02a643b5", "fusion_lon": 0.0, "rental_uris": {"android": "https://dc.lft.to/lastmile_qr_scan", "ios": "https://dc.lft.to/lastmile_qr_scan"}, "name": "055833501f63c94cca0d57bc02a643b5", "type": "electric_scooter", "lat": 38.92863716666667, "is_disabled": 0}, {"fusion_lat": 0.0, "lon": -76.990379, "is_reserved": 0, "bike_id": "1b46c69b163bf7b37628e1a778c7b95a", "fusion_lon": 0.0, "rental_uris": {"android": "https://dc.lft.to/lastmile_qr_scan", "ios": "https://dc.lft.to/lastmile_qr_scan"}, "name": "1b46c69b163bf7b37628e1a778c7b95a", "type": "electric_bike", "lat": 38.937552, "is_disabled": 0}, {"fusion_lat": 0.0, "lon": -77.0152225, "is_reserved": 0, "bike_id": "395114849bfe65c4f92b912770ca9b62", "fusion_lon": 0.0, "rental_uris": {"android": "https://dc.lft.to/lastmile_qr_scan", "ios": "https://dc.lft.to/lastmile_qr_scan"}, "name": "395114849bfe65c4f92b912770ca9b62", "type": "electric_scooter", "lat": 38.892427833333336, "is_disabled": 0}, {"fusion_lat": 0.0, "lon": -77.01775283333333, "is_reserved": 0, "bike_id": "16e0e584911788fb231b27328c7354fe", "fusion_lon": 0.0, "rental_uris": {"android": "https://dc.lft.to/lastmile_qr_scan", "ios": "https://dc.lft.to/lastmile_qr_scan"}, "name": "16e0e584911788fb231b27328c7354fe", "type": "electric_scooter", "lat": 38.885860666666666, "is_disabled": 0}, {"fusion_lat": 0.0, "lon": -77.02715633333334, "is_reserved": 0, "bike_id": "7447b3412eb9c68186a548c599c720d4", "fusion_lon": 0.0, "rental_uris": {"android": "https://dc.lft.to/lastmile_qr_scan", "ios": "https://dc.lft.to/lastmile_qr_scan"}, "name": "7447b3412eb9c68186a548c599c720d4", "type": "electric_scooter", "lat": 38.92460233333333, "is_disabled": 0}, {"fusion_lat": 0.0, "lon": -77.0539815, "is_reserved": 0, "bike_id": "3b443a5f50e62f49a6003aed1fd5974e", "fusion_lon": 0.0, "rental_uris": {"android": "https://dc.lft.to/lastmile_qr_scan", "ios": "https://dc.lft.to/lastmile_qr_scan"}, "name": "3b443a5f50e62f49a6003aed1fd5974e", "type": "electric_scooter", "lat": 38.91054716666667, "is_disabled": 0}, {"fusion_lat": 0.0, "lon": -77.07907216666666, "is_reserved": 0, "bike_id": "f77ac8f8ba9bd1f5abb4312a924fffc0", "fusion_lon": 0.0, "rental_uris": {"android": "https://dc.lft.to/lastmile_qr_scan", "ios": "https://dc.lft.to/lastmile_qr_scan"}, "name": "f77ac8f8ba9bd1f5abb4312a924fffc0", "type": "electric_scooter", "lat": 38.948037666666664, "is_disabled": 0}, {"fusion_lat": 0.0, "lon": -77.05574483333334, "is_reserved": 0, "bike_id": "82e66f28c4fd065f855e445c91dcd06a", "fusion_lon": 0.0, "rental_uris": {"android": "https://dc.lft.to/lastmile_qr_scan", "ios": "https://dc.lft.to/lastmile_qr_scan"}, "name": "82e66f28c4fd065f855e445c91dcd06a", "type": "electric_scooter", "lat": 38.91597866666667, "is_disabled": 0}, {"fusion_lat": 0.0, "lon": -77.03095166666667, "is_reserved": 0, "bike_id": "960d6cba0a0df2b194f763ec6b23ce02", "fusion_lon": 0.0, "rental_uris": {"android": "https://dc.lft.to/lastmile_qr_scan", "ios": "https://dc.lft.to/lastmile_qr_scan"}, "name": "960d6cba0a0df2b194f763ec6b23ce02", "type": "electric_scooter", "lat": 38.904386, "is_disabled": 0}, {"fusion_lat": 0.0, "lon": -77.0331315, "is_reserved": 0, "bike_id": "9581531c4cec7c4e9a2e227f44a8af7e", "fusion_lon": 0.0, "rental_uris": {"android": "https://dc.lft.to/lastmile_qr_scan", "ios": "https://dc.lft.to/lastmile_qr_scan"}, "name": "9581531c4cec7c4e9a2e227f44a8af7e", "type": "electric_scooter", "lat": 38.9013975, "is_disabled": 0}, {"fusion_lat": 0.0, "lon": -77.04454083333333, "is_reserved": 0, "bike_id": "281ea23495faa5990f5fb771ce294783", "fusion_lon": 0.0, "rental_uris": {"android": "https://dc.lft.to/lastmile_qr_scan", "ios": "https://dc.lft.to/lastmile_qr_scan"}, "name": "281ea23495faa5990f5fb771ce294783", "type": "electric_scooter", "lat": 38.91264616666667, "is_disabled": 0}, {"fusion_lat": 0.0, "lon": -77.00699216666666, "is_reserved": 0, "bike_id": "9125c3dced1b04200950448f33eb789d", "fusion_lon": 0.0, "rental_uris": {"android": "https://dc.lft.to/lastmile_qr_scan", "ios": "https://dc.lft.to/lastmile_qr_scan"}, "name": "9125c3dced1b04200950448f33eb789d", "type": "electric_scooter", "lat": 38.95245116666667, "is_disabled": 0}, {"fusion_lat": 0.0, "lon": -77.01720216666666, "is_reserved": 0, "bike_id": "3fb3c9fc5fa9d5acc73570002d5bbc05", "fusion_lon": 0.0, "rental_uris": {"android": "https://dc.lft.to/lastmile_qr_scan", "ios": "https://dc.lft.to/lastmile_qr_scan"}, "name": "3fb3c9fc5fa9d5acc73570002d5bbc05", "type": "electric_scooter", "lat": 38.91492216666666, "is_disabled": 0}, {"fusion_lat": 0.0, "lon": -77.012521, "is_reserved": 0, "bike_id": "43157f1bf1cac6e84c552ba0088bf423", "fusion_lon": 0.0, "rental_uris": {"android": "https://dc.lft.to/lastmile_qr_scan", "ios": "https://dc.lft.to/lastmile_qr_scan"}, "name": "43157f1bf1cac6e84c552ba0088bf423", "type": "electric_scooter", "lat": 38.830518166666664, "is_disabled": 0}, {"fusion_lat": 0.0, "lon": -76.99279933333334, "is_reserved": 0, "bike_id": "98b664f7912286703c7729c2228aeb5c", "fusion_lon": 0.0, "rental_uris": {"android": "https://dc.lft.to/lastmile_qr_scan", "ios": "https://dc.lft.to/lastmile_qr_scan"}, "name": "98b664f7912286703c7729c2228aeb5c", "type": "electric_scooter", "lat": 38.886206333333334, "is_disabled": 0}, {"fusion_lat": 0.0, "lon": -77.0448515, "is_reserved": 0, "bike_id": "9c1c1c3a9355dbfb894df9c2c043dc7f", "fusion_lon": 0.0, "rental_uris": {"android": "https://dc.lft.to/lastmile_qr_scan", "ios": "https://dc.lft.to/lastmile_qr_scan"}, "name": "9c1c1c3a9355dbfb894df9c2c043dc7f", "type": "electric_scooter", "lat": 38.924035, "is_disabled": 0}, {"fusion_lat": 0.0, "lon": -77.03536383333334, "is_reserved": 0, "bike_id": "9191523590ce6e4ae0add8eb08cdfcc4", "fusion_lon": 0.0, "rental_uris": {"android": "https://dc.lft.to/lastmile_qr_scan", "ios": "https://dc.lft.to/lastmile_qr_scan"}, "name": "9191523590ce6e4ae0add8eb08cdfcc4", "type": "electric_scooter", "lat": 38.92314433333333, "is_disabled": 0}, {"fusion_lat": 0.0, "lon": -77.03955783333333, "is_reserved": 0, "bike_id": "3368a2c39d4d85f513c97b390aef9e38", "fusion_lon": 0.0, "rental_uris": {"android": "https://dc.lft.to/lastmile_qr_scan", "ios": "https://dc.lft.to/lastmile_qr_scan"}, "name": "3368a2c39d4d85f513c97b390aef9e38", "type": "electric_scooter", "lat": 38.89241466666667, "is_disabled": 0}, {"fusion_lat": 0.0, "lon": -77.05597266666666, "is_reserved": 0, "bike_id": "55abafad15dc86edcbddb0d84675a6ae", "fusion_lon": 0.0, "rental_uris": {"android": "https://dc.lft.to/lastmile_qr_scan", "ios": "https://dc.lft.to/lastmile_qr_scan"}, "name": "55abafad15dc86edcbddb0d84675a6ae", "type": "electric_scooter", "lat": 38.936060833333336, "is_disabled": 0}, {"fusion_lat": 0.0, "lon": -77.04180766666667, "is_reserved": 0, "bike_id": "bfabc23d14e16ccbf6ed853616144646", "fusion_lon": 0.0, "rental_uris": {"android": "https://dc.lft.to/lastmile_qr_scan", "ios": "https://dc.lft.to/lastmile_qr_scan"}, "name": "bfabc23d14e16ccbf6ed853616144646", "type": "electric_scooter", "lat": 38.908016333333336, "is_disabled": 0}, {"fusion_lat": 0.0, "lon": -77.05421983333333, "is_reserved": 0, "bike_id": "3c7d8e7c7b2ff5b0a1f7664256b316cf", "fusion_lon": 0.0, "rental_uris": {"android": "https://dc.lft.to/lastmile_qr_scan", "ios": "https://dc.lft.to/lastmile_qr_scan"}, "name": "3c7d8e7c7b2ff5b0a1f7664256b316cf", "type": "electric_scooter", "lat": 38.923597, "is_disabled": 0}, {"fusion_lat": 0.0, "lon": -77.01895583333334, "is_reserved": 0, "bike_id": "f063b49b1614d4003659baa99ec40012", "fusion_lon": 0.0, "rental_uris": {"android": "https://dc.lft.to/lastmile_qr_scan", "ios": "https://dc.lft.to/lastmile_qr_scan"}, "name": "f063b49b1614d4003659baa99ec40012", "type": "electric_scooter", "lat": 38.91381833333333, "is_disabled": 0}, {"fusion_lat": 0.0, "lon": -77.03056683333334, "is_reserved": 0, "bike_id": "6a24160dc27f0f06e5a4d2b83e0b3b86", "fusion_lon": 0.0, "rental_uris": {"android": "https://dc.lft.to/lastmile_qr_scan", "ios": "https://dc.lft.to/lastmile_qr_scan"}, "name": "6a24160dc27f0f06e5a4d2b83e0b3b86", "type": "electric_scooter", "lat": 38.923725833333336, "is_disabled": 0}, {"fusion_lat": 0.0, "lon": -77.042377, "is_reserved": 0, "bike_id": "3139f9b6db20468e56a3d4bca9f7746b", "fusion_lon": 0.0, "rental_uris": {"android": "https://dc.lft.to/lastmile_qr_scan", "ios": "https://dc.lft.to/lastmile_qr_scan"}, "name": "3139f9b6db20468e56a3d4bca9f7746b", "type": "electric_scooter", "lat": 38.9064745, "is_disabled": 0}, {"fusion_lat": 0.0, "lon": -77.01988583333333, "is_reserved": 0, "bike_id": "374850bd47ccdbcd394789b986966fd6", "fusion_lon": 0.0, "rental_uris": {"android": "https://dc.lft.to/lastmile_qr_scan", "ios": "https://dc.lft.to/lastmile_qr_scan"}, "name": "374850bd47ccdbcd394789b986966fd6", "type": "electric_scooter", "lat": 38.91432016666667, "is_disabled": 0}, {"fusion_lat": 0.0, "lon": -77.01012666666666, "is_reserved": 0, "bike_id": "38f44a04bc284fbe2bb651fad3cbd5f9", "fusion_lon": 0.0, "rental_uris": {"android": "https://dc.lft.to/lastmile_qr_scan", "ios": "https://dc.lft.to/lastmile_qr_scan"}, "name": "38f44a04bc284fbe2bb651fad3cbd5f9", "type": "electric_bike", "lat": 38.87965116666667, "is_disabled": 0}, {"fusion_lat": 0.0, "lon": -77.0328445, "is_reserved": 0, "bike_id": "c6fa5ee47de5314e8c9132a313a7d7f3", "fusion_lon": 0.0, "rental_uris": {"android": "https://dc.lft.to/lastmile_qr_scan", "ios": "https://dc.lft.to/lastmile_qr_scan"}, "name": "c6fa5ee47de5314e8c9132a313a7d7f3", "type": "electric_scooter", "lat": 38.907258666666664, "is_disabled": 0}, {"fusion_lat": 0.0, "lon": -77.0467275, "is_reserved": 0, "bike_id": "948e13462e39f02ae554e396769c1f81", "fusion_lon": 0.0, "rental_uris": {"android": "https://dc.lft.to/lastmile_qr_scan", "ios": "https://dc.lft.to/lastmile_qr_scan"}, "name": "948e13462e39f02ae554e396769c1f81", "type": "electric_scooter", "lat": 38.913435666666665, "is_disabled": 0}, {"fusion_lat": 0.0, "lon": -77.04070716666666, "is_reserved": 0, "bike_id": "1ff997ad7eed1df20b0600e32bffdb95", "fusion_lon": 0.0, "rental_uris": {"android": "https://dc.lft.to/lastmile_qr_scan", "ios": "https://dc.lft.to/lastmile_qr_scan"}, "name": "1ff997ad7eed1df20b0600e32bffdb95", "type": "electric_scooter", "lat": 38.9170975, "is_disabled": 0}, {"fusion_lat": 0.0, "lon": -77.028907, "is_reserved": 0, "bike_id": "b975751b3dc582836d4df0933d55b0c9", "fusion_lon": 0.0, "rental_uris": {"android": "https://dc.lft.to/lastmile_qr_scan", "ios": "https://dc.lft.to/lastmile_qr_scan"}, "name": "b975751b3dc582836d4df0933d55b0c9", "type": "electric_scooter", "lat": 38.90322466666667, "is_disabled": 0}, {"fusion_lat": 0.0, "lon": -77.03483133333333, "is_reserved": 0, "bike_id": "2e236671438ca4e9b756d861f17bbf0c", "fusion_lon": 0.0, "rental_uris": {"android": "https://dc.lft.to/lastmile_qr_scan", "ios": "https://dc.lft.to/lastmile_qr_scan"}, "name": "2e236671438ca4e9b756d861f17bbf0c", "type": "electric_scooter", "lat": 38.932620166666666, "is_disabled": 0}, {"fusion_lat": 0.0, "lon": -77.02749483333334, "is_reserved": 0, "bike_id": "35e50fe26a595aa634401dfd381b11c3", "fusion_lon": 0.0, "rental_uris": {"android": "https://dc.lft.to/lastmile_qr_scan", "ios": "https://dc.lft.to/lastmile_qr_scan"}, "name": "35e50fe26a595aa634401dfd381b11c3", "type": "electric_scooter", "lat": 38.924092, "is_disabled": 0}, {"fusion_lat": 0.0, "lon": -77.01753366666667, "is_reserved": 0, "bike_id": "6bca76ab41fdcfadf6b2f3c0951fab64", "fusion_lon": 0.0, "rental_uris": {"android": "https://dc.lft.to/lastmile_qr_scan", "ios": "https://dc.lft.to/lastmile_qr_scan"}, "name": "6bca76ab41fdcfadf6b2f3c0951fab64", "type": "electric_scooter", "lat": 38.90250416666667, "is_disabled": 0}, {"fusion_lat": 0.0, "lon": -77.02099766666667, "is_reserved": 0, "bike_id": "efe85a4a6d6910a0ecc92abaa8961ec9", "fusion_lon": 0.0, "rental_uris": {"android": "https://dc.lft.to/lastmile_qr_scan", "ios": "https://dc.lft.to/lastmile_qr_scan"}, "name": "efe85a4a6d6910a0ecc92abaa8961ec9", "type": "electric_scooter", "lat": 38.91421833333333, "is_disabled": 0}, {"fusion_lat": 0.0, "lon": -77.032145, "is_reserved": 0, "bike_id": "d886294e0c87dc676b82f053f983c55d", "fusion_lon": 0.0, "rental_uris": {"android": "https://dc.lft.to/lastmile_qr_scan", "ios": "https://dc.lft.to/lastmile_qr_scan"}, "name": "d886294e0c87dc676b82f053f983c55d", "type": "electric_scooter", "lat": 38.91499833333334, "is_disabled": 0}, {"fusion_lat": 0.0, "lon": -77.01850316666666, "is_reserved": 0, "bike_id": "fc1d7da248d34c3fcdc18d66c0335312", "fusion_lon": 0.0, "rental_uris": {"android": "https://dc.lft.to/lastmile_qr_scan", "ios": "https://dc.lft.to/lastmile_qr_scan"}, "name": "fc1d7da248d34c3fcdc18d66c0335312", "type": "electric_scooter", "lat": 38.973676166666664, "is_disabled": 0}, {"fusion_lat": 0.0, "lon": -76.9375535, "is_reserved": 0, "bike_id": "d135c5ce023bb7880a0aca43805ad1dc", "fusion_lon": 0.0, "rental_uris": {"android": "https://dc.lft.to/lastmile_qr_scan", "ios": "https://dc.lft.to/lastmile_qr_scan"}, "name": "d135c5ce023bb7880a0aca43805ad1dc", "type": "electric_scooter", "lat": 38.890497333333336, "is_disabled": 0}, {"fusion_lat": 0.0, "lon": -77.03201083333333, "is_reserved": 0, "bike_id": "76b10d4258f041f8bae5d75597d68716", "fusion_lon": 0.0, "rental_uris": {"android": "https://dc.lft.to/lastmile_qr_scan", "ios": "https://dc.lft.to/lastmile_qr_scan"}, "name": "76b10d4258f041f8bae5d75597d68716", "type": "electric_scooter", "lat": 38.90364566666667, "is_disabled": 0}, {"fusion_lat": 0.0, "lon": -76.99333683333333, "is_reserved": 0, "bike_id": "8f5f74487a470429a6b19010d33bd97d", "fusion_lon": 0.0, "rental_uris": {"android": "https://dc.lft.to/lastmile_qr_scan", "ios": "https://dc.lft.to/lastmile_qr_scan"}, "name": "8f5f74487a470429a6b19010d33bd97d", "type": "electric_scooter", "lat": 38.87143666666667, "is_disabled": 0}, {"fusion_lat": 0.0, "lon": -76.97911733333333, "is_reserved": 0, "bike_id": "cabacb2038d775c9f528c25a87c56567", "fusion_lon": 0.0, "rental_uris": {"android": "https://dc.lft.to/lastmile_qr_scan", "ios": "https://dc.lft.to/lastmile_qr_scan"}, "name": "cabacb2038d775c9f528c25a87c56567", "type": "electric_bike", "lat": 38.87259233333333, "is_disabled": 0}, {"fusion_lat": 0.0, "lon": -76.96053566666667, "is_reserved": 0, "bike_id": "8d41ab8950180186fbbfc8119b41f298", "fusion_lon": 0.0, "rental_uris": {"android": "https://dc.lft.to/lastmile_qr_scan", "ios": "https://dc.lft.to/lastmile_qr_scan"}, "name": "8d41ab8950180186fbbfc8119b41f298", "type": "electric_bike", "lat": 38.884030333333335, "is_disabled": 0}, {"fusion_lat": 0.0, "lon": -77.03219266666666, "is_reserved": 0, "bike_id": "6d544082990038b5e8a878aa942defab", "fusion_lon": 0.0, "rental_uris": {"android": "https://dc.lft.to/lastmile_qr_scan", "ios": "https://dc.lft.to/lastmile_qr_scan"}, "name": "6d544082990038b5e8a878aa942defab", "type": "electric_scooter", "lat": 38.9199255, "is_disabled": 0}, {"fusion_lat": 0.0, "lon": -77.05498733333333, "is_reserved": 0, "bike_id": "3a1e0a07fe69004becf1ad0fc6389e20", "fusion_lon": 0.0, "rental_uris": {"android": "https://dc.lft.to/lastmile_qr_scan", "ios": "https://dc.lft.to/lastmile_qr_scan"}, "name": "3a1e0a07fe69004becf1ad0fc6389e20", "type": "electric_scooter", "lat": 38.89989116666667, "is_disabled": 0}, {"fusion_lat": 0.0, "lon": -76.988591, "is_reserved": 0, "bike_id": "e7a63e89e0c35e54dc889ecf2bf36564", "fusion_lon": 0.0, "rental_uris": {"android": "https://dc.lft.to/lastmile_qr_scan", "ios": "https://dc.lft.to/lastmile_qr_scan"}, "name": "e7a63e89e0c35e54dc889ecf2bf36564", "type": "electric_bike", "lat": 38.954773833333334, "is_disabled": 0}, {"fusion_lat": 0.0, "lon": -77.03342366666666, "is_reserved": 0, "bike_id": "f1420367bbb9c04cb19fbec492aaa5e2", "fusion_lon": 0.0, "rental_uris": {"android": "https://dc.lft.to/lastmile_qr_scan", "ios": "https://dc.lft.to/lastmile_qr_scan"}, "name": "f1420367bbb9c04cb19fbec492aaa5e2", "type": "electric_scooter", "lat": 38.920533166666665, "is_disabled": 0}, {"fusion_lat": 0.0, "lon": -76.98723683333333, "is_reserved": 0, "bike_id": "00d317b33b1e4908f76617fed75d89af", "fusion_lon": 0.0, "rental_uris": {"android": "https://dc.lft.to/lastmile_qr_scan", "ios": "https://dc.lft.to/lastmile_qr_scan"}, "name": "00d317b33b1e4908f76617fed75d89af", "type": "electric_scooter", "lat": 38.867093, "is_disabled": 0}, {"fusion_lat": 0.0, "lon": -76.98659733333334, "is_reserved": 0, "bike_id": "3b20b1858c467b877b41002311fe10b4", "fusion_lon": 0.0, "rental_uris": {"android": "https://dc.lft.to/lastmile_qr_scan", "ios": "https://dc.lft.to/lastmile_qr_scan"}, "name": "3b20b1858c467b877b41002311fe10b4", "type": "electric_scooter", "lat": 38.89826216666667, "is_disabled": 0}, {"fusion_lat": 0.0, "lon": -77.01765483333334, "is_reserved": 0, "bike_id": "71c8987dfc7eb71fc586df5e4d91814f", "fusion_lon": 0.0, "rental_uris": {"android": "https://dc.lft.to/lastmile_qr_scan", "ios": "https://dc.lft.to/lastmile_qr_scan"}, "name": "71c8987dfc7eb71fc586df5e4d91814f", "type": "electric_scooter", "lat": 38.885715, "is_disabled": 0}, {"fusion_lat": 0.0, "lon": -77.02513283333333, "is_reserved": 0, "bike_id": "383458961c9da54df008aced4a75cdb1", "fusion_lon": 0.0, "rental_uris": {"android": "https://dc.lft.to/lastmile_qr_scan", "ios": "https://dc.lft.to/lastmile_qr_scan"}, "name": "383458961c9da54df008aced4a75cdb1", "type": "electric_scooter", "lat": 38.9207965, "is_disabled": 0}, {"fusion_lat": 0.0, "lon": -77.02942533333334, "is_reserved": 0, "bike_id": "13cb023eb830e56bee430859fefa6680", "fusion_lon": 0.0, "rental_uris": {"android": "https://dc.lft.to/lastmile_qr_scan", "ios": "https://dc.lft.to/lastmile_qr_scan"}, "name": "13cb023eb830e56bee430859fefa6680", "type": "electric_scooter", "lat": 38.9207775, "is_disabled": 0}, {"fusion_lat": 0.0, "lon": -77.03832666666666, "is_reserved": 0, "bike_id": "f4cbb10db7a928dcf13fff6b2d58fee4", "fusion_lon": 0.0, "rental_uris": {"android": "https://dc.lft.to/lastmile_qr_scan", "ios": "https://dc.lft.to/lastmile_qr_scan"}, "name": "f4cbb10db7a928dcf13fff6b2d58fee4", "type": "electric_scooter", "lat": 38.91187216666667, "is_disabled": 0}, {"fusion_lat": 0.0, "lon": -76.93749333333334, "is_reserved": 0, "bike_id": "0b2134cd10d2b95568aa6a8dc95766fc", "fusion_lon": 0.0, "rental_uris": {"android": "https://dc.lft.to/lastmile_qr_scan", "ios": "https://dc.lft.to/lastmile_qr_scan"}, "name": "0b2134cd10d2b95568aa6a8dc95766fc", "type": "electric_scooter", "lat": 38.890488500000004, "is_disabled": 0}, {"fusion_lat": 0.0, "lon": -77.04714866666667, "is_reserved": 0, "bike_id": "0ff51a2859abc33f6d69f28031634e9d", "fusion_lon": 0.0, "rental_uris": {"android": "https://dc.lft.to/lastmile_qr_scan", "ios": "https://dc.lft.to/lastmile_qr_scan"}, "name": "0ff51a2859abc33f6d69f28031634e9d", "type": "electric_scooter", "lat": 38.92202983333333, "is_disabled": 0}, {"fusion_lat": 0.0, "lon": -77.046937, "is_reserved": 0, "bike_id": "2aae38a3608ec6a8e85aaca4dfaf7919", "fusion_lon": 0.0, "rental_uris": {"android": "https://dc.lft.to/lastmile_qr_scan", "ios": "https://dc.lft.to/lastmile_qr_scan"}, "name": "2aae38a3608ec6a8e85aaca4dfaf7919", "type": "electric_scooter", "lat": 38.9156555, "is_disabled": 0}, {"fusion_lat": 0.0, "lon": -77.00337466666667, "is_reserved": 0, "bike_id": "b236dab36044f92f8f80fde8f0711e73", "fusion_lon": 0.0, "rental_uris": {"android": "https://dc.lft.to/lastmile_qr_scan", "ios": "https://dc.lft.to/lastmile_qr_scan"}, "name": "b236dab36044f92f8f80fde8f0711e73", "type": "electric_scooter", "lat": 38.8898885, "is_disabled": 0}, {"fusion_lat": 0.0, "lon": -77.03211916666666, "is_reserved": 0, "bike_id": "86aa1f7e3132f4cf9316c393f34bba09", "fusion_lon": 0.0, "rental_uris": {"android": "https://dc.lft.to/lastmile_qr_scan", "ios": "https://dc.lft.to/lastmile_qr_scan"}, "name": "86aa1f7e3132f4cf9316c393f34bba09", "type": "electric_scooter", "lat": 38.912892166666666, "is_disabled": 0}, {"fusion_lat": 0.0, "lon": -77.01153966666666, "is_reserved": 0, "bike_id": "0762eaafa2e2288a7c066c2fd337c706", "fusion_lon": 0.0, "rental_uris": {"android": "https://dc.lft.to/lastmile_qr_scan", "ios": "https://dc.lft.to/lastmile_qr_scan"}, "name": "0762eaafa2e2288a7c066c2fd337c706", "type": "electric_scooter", "lat": 38.911050833333334, "is_disabled": 0}, {"fusion_lat": 0.0, "lon": -77.09468316666667, "is_reserved": 0, "bike_id": "24bef0d647392316947430084a6686bc", "fusion_lon": 0.0, "rental_uris": {"android": "https://dc.lft.to/lastmile_qr_scan", "ios": "https://dc.lft.to/lastmile_qr_scan"}, "name": "24bef0d647392316947430084a6686bc", "type": "electric_bike", "lat": 38.886137, "is_disabled": 0}, {"fusion_lat": 0.0, "lon": -76.995269, "is_reserved": 0, "bike_id": "b285f34069997fdfcef8c3805f1b3c0d", "fusion_lon": 0.0, "rental_uris": {"android": "https://dc.lft.to/lastmile_qr_scan", "ios": "https://dc.lft.to/lastmile_qr_scan"}, "name": "b285f34069997fdfcef8c3805f1b3c0d", "type": "electric_scooter", "lat": 38.896093, "is_disabled": 0}, {"fusion_lat": 0.0, "lon": -76.94806016666666, "is_reserved": 0, "bike_id": "7a1ad7050bc1b5b8941f7355a860be0f", "fusion_lon": 0.0, "rental_uris": {"android": "https://dc.lft.to/lastmile_qr_scan", "ios": "https://dc.lft.to/lastmile_qr_scan"}, "name": "7a1ad7050bc1b5b8941f7355a860be0f", "type": "electric_bike", "lat": 38.8619515, "is_disabled": 0}, {"fusion_lat": 0.0, "lon": -77.03840633333333, "is_reserved": 0, "bike_id": "5381465578a29e5849cec8cd15816f90", "fusion_lon": 0.0, "rental_uris": {"android": "https://dc.lft.to/lastmile_qr_scan", "ios": "https://dc.lft.to/lastmile_qr_scan"}, "name": "5381465578a29e5849cec8cd15816f90", "type": "electric_scooter", "lat": 38.917365833333335, "is_disabled": 0}, {"fusion_lat": 0.0, "lon": -77.04521016666666, "is_reserved": 0, "bike_id": "f77a17175fd2913362ac86923dca56f7", "fusion_lon": 0.0, "rental_uris": {"android": "https://dc.lft.to/lastmile_qr_scan", "ios": "https://dc.lft.to/lastmile_qr_scan"}, "name": "f77a17175fd2913362ac86923dca56f7", "type": "electric_bike", "lat": 38.94198866666667, "is_disabled": 0}, {"fusion_lat": 0.0, "lon": -77.03544783333334, "is_reserved": 0, "bike_id": "76f31aa82f5fa79608aaea0054c9c79e", "fusion_lon": 0.0, "rental_uris": {"android": "https://dc.lft.to/lastmile_qr_scan", "ios": "https://dc.lft.to/lastmile_qr_scan"}, "name": "76f31aa82f5fa79608aaea0054c9c79e", "type": "electric_scooter", "lat": 38.9242545, "is_disabled": 0}, {"fusion_lat": 0.0, "lon": -77.02792333333333, "is_reserved": 0, "bike_id": "0d7bd4e31849ad3c17dc4a2b38a5e215", "fusion_lon": 0.0, "rental_uris": {"android": "https://dc.lft.to/lastmile_qr_scan", "ios": "https://dc.lft.to/lastmile_qr_scan"}, "name": "0d7bd4e31849ad3c17dc4a2b38a5e215", "type": "electric_scooter", "lat": 38.93087933333334, "is_disabled": 0}, {"fusion_lat": 0.0, "lon": -77.02713033333333, "is_reserved": 0, "bike_id": "d6bc4c2ac1026d4388b15467406ba437", "fusion_lon": 0.0, "rental_uris": {"android": "https://dc.lft.to/lastmile_qr_scan", "ios": "https://dc.lft.to/lastmile_qr_scan"}, "name": "d6bc4c2ac1026d4388b15467406ba437", "type": "electric_scooter", "lat": 38.90672133333333, "is_disabled": 0}, {"fusion_lat": 0.0, "lon": -77.0097725, "is_reserved": 0, "bike_id": "c81bb1464ed5adb4eadd501a9f63869f", "fusion_lon": 0.0, "rental_uris": {"android": "https://dc.lft.to/lastmile_qr_scan", "ios": "https://dc.lft.to/lastmile_qr_scan"}, "name": "c81bb1464ed5adb4eadd501a9f63869f", "type": "electric_scooter", "lat": 38.914100166666664, "is_disabled": 0}, {"fusion_lat": 0.0, "lon": -77.070769, "is_reserved": 0, "bike_id": "fd3962e33ea86f27f4c17f03aca9b7db", "fusion_lon": 0.0, "rental_uris": {"android": "https://dc.lft.to/lastmile_qr_scan", "ios": "https://dc.lft.to/lastmile_qr_scan"}, "name": "fd3962e33ea86f27f4c17f03aca9b7db", "type": "electric_scooter", "lat": 38.93172066666666, "is_disabled": 0}, {"fusion_lat": 0.0, "lon": -77.014844, "is_reserved": 0, "bike_id": "e6c5b67383f96636992ea9b49bb4624a", "fusion_lon": 0.0, "rental_uris": {"android": "https://dc.lft.to/lastmile_qr_scan", "ios": "https://dc.lft.to/lastmile_qr_scan"}, "name": "e6c5b67383f96636992ea9b49bb4624a", "type": "electric_scooter", "lat": 38.876473833333336, "is_disabled": 0}, {"fusion_lat": 0.0, "lon": -77.03215816666666, "is_reserved": 0, "bike_id": "5b985903390be4aef7a2a887e9094a8d", "fusion_lon": 0.0, "rental_uris": {"android": "https://dc.lft.to/lastmile_qr_scan", "ios": "https://dc.lft.to/lastmile_qr_scan"}, "name": "5b985903390be4aef7a2a887e9094a8d", "type": "electric_scooter", "lat": 38.92882, "is_disabled": 0}, {"fusion_lat": 0.0, "lon": -77.027422, "is_reserved": 0, "bike_id": "0736cc42565379eed47b65f477c34f6d", "fusion_lon": 0.0, "rental_uris": {"android": "https://dc.lft.to/lastmile_qr_scan", "ios": "https://dc.lft.to/lastmile_qr_scan"}, "name": "0736cc42565379eed47b65f477c34f6d", "type": "electric_scooter", "lat": 38.928617833333334, "is_disabled": 0}, {"fusion_lat": 0.0, "lon": -76.93754666666666, "is_reserved": 0, "bike_id": "274ef588173f515cae73e638a1fcad52", "fusion_lon": 0.0, "rental_uris": {"android": "https://dc.lft.to/lastmile_qr_scan", "ios": "https://dc.lft.to/lastmile_qr_scan"}, "name": "274ef588173f515cae73e638a1fcad52", "type": "electric_scooter", "lat": 38.890420166666665, "is_disabled": 0}, {"fusion_lat": 0.0, "lon": -77.20845466666667, "is_reserved": 0, "bike_id": "08688ea3692341d43a99cb4e3cfadef7", "fusion_lon": 0.0, "rental_uris": {"android": "https://dc.lft.to/lastmile_qr_scan", "ios": "https://dc.lft.to/lastmile_qr_scan"}, "name": "08688ea3692341d43a99cb4e3cfadef7", "type": "electric_bike", "lat": 38.9246775, "is_disabled": 0}, {"fusion_lat": 0.0, "lon": -77.02822766666667, "is_reserved": 0, "bike_id": "26f9f12d8377988da5bc444906c74aa3", "fusion_lon": 0.0, "rental_uris": {"android": "https://dc.lft.to/lastmile_qr_scan", "ios": "https://dc.lft.to/lastmile_qr_scan"}, "name": "26f9f12d8377988da5bc444906c74aa3", "type": "electric_scooter", "lat": 38.89979016666667, "is_disabled": 0}, {"fusion_lat": 0.0, "lon": -77.01850183333333, "is_reserved": 0, "bike_id": "b629d12720e8cc6fe96b724c9b72dbdd", "fusion_lon": 0.0, "rental_uris": {"android": "https://dc.lft.to/lastmile_qr_scan", "ios": "https://dc.lft.to/lastmile_qr_scan"}, "name": "b629d12720e8cc6fe96b724c9b72dbdd", "type": "electric_scooter", "lat": 38.9226865, "is_disabled": 0}, {"fusion_lat": 0.0, "lon": -77.03419916666667, "is_reserved": 0, "bike_id": "58896ba40f63a70685d13e59e6830dfb", "fusion_lon": 0.0, "rental_uris": {"android": "https://dc.lft.to/lastmile_qr_scan", "ios": "https://dc.lft.to/lastmile_qr_scan"}, "name": "58896ba40f63a70685d13e59e6830dfb", "type": "electric_scooter", "lat": 38.91944983333333, "is_disabled": 0}, {"fusion_lat": 0.0, "lon": -77.03194483333333, "is_reserved": 0, "bike_id": "2635a7540b249413a6f1069d422c4615", "fusion_lon": 0.0, "rental_uris": {"android": "https://dc.lft.to/lastmile_qr_scan", "ios": "https://dc.lft.to/lastmile_qr_scan"}, "name": "2635a7540b249413a6f1069d422c4615", "type": "electric_scooter", "lat": 38.91769216666667, "is_disabled": 0}, {"fusion_lat": 0.0, "lon": -77.0094925, "is_reserved": 0, "bike_id": "e24cf2e86d204ae08a1cfcac574d64c8", "fusion_lon": 0.0, "rental_uris": {"android": "https://dc.lft.to/lastmile_qr_scan", "ios": "https://dc.lft.to/lastmile_qr_scan"}, "name": "e24cf2e86d204ae08a1cfcac574d64c8", "type": "electric_scooter", "lat": 38.8973745, "is_disabled": 0}, {"fusion_lat": 0.0, "lon": -77.03721, "is_reserved": 0, "bike_id": "5bde4c583ec8638bac479c645c76b92f", "fusion_lon": 0.0, "rental_uris": {"android": "https://dc.lft.to/lastmile_qr_scan", "ios": "https://dc.lft.to/lastmile_qr_scan"}, "name": "5bde4c583ec8638bac479c645c76b92f", "type": "electric_scooter", "lat": 38.935686833333335, "is_disabled": 0}, {"fusion_lat": 0.0, "lon": -76.93763533333333, "is_reserved": 0, "bike_id": "510bade4f1950e802c53d273f2d860f6", "fusion_lon": 0.0, "rental_uris": {"android": "https://dc.lft.to/lastmile_qr_scan", "ios": "https://dc.lft.to/lastmile_qr_scan"}, "name": "510bade4f1950e802c53d273f2d860f6", "type": "electric_scooter", "lat": 38.903817833333335, "is_disabled": 0}, {"fusion_lat": 0.0, "lon": -77.0361595, "is_reserved": 0, "bike_id": "2c443690e286cc591b0f1b82da74ee22", "fusion_lon": 0.0, "rental_uris": {"android": "https://dc.lft.to/lastmile_qr_scan", "ios": "https://dc.lft.to/lastmile_qr_scan"}, "name": "2c443690e286cc591b0f1b82da74ee22", "type": "electric_scooter", "lat": 38.9311315, "is_disabled": 0}, {"fusion_lat": 0.0, "lon": -77.05647066666667, "is_reserved": 0, "bike_id": "016da3fef8e6a7900d57c4b20ed64d7a", "fusion_lon": 0.0, "rental_uris": {"android": "https://dc.lft.to/lastmile_qr_scan", "ios": "https://dc.lft.to/lastmile_qr_scan"}, "name": "016da3fef8e6a7900d57c4b20ed64d7a", "type": "electric_scooter", "lat": 38.907636333333336, "is_disabled": 0}, {"fusion_lat": 0.0, "lon": -76.9988835, "is_reserved": 0, "bike_id": "1f8f9aac0df8733187e88c8eef47ddee", "fusion_lon": 0.0, "rental_uris": {"android": "https://dc.lft.to/lastmile_qr_scan", "ios": "https://dc.lft.to/lastmile_qr_scan"}, "name": "1f8f9aac0df8733187e88c8eef47ddee", "type": "electric_scooter", "lat": 38.92057883333333, "is_disabled": 0}, {"fusion_lat": 0.0, "lon": -76.9876455, "is_reserved": 0, "bike_id": "4a83bf224431042ce1b467a06e9e9620", "fusion_lon": 0.0, "rental_uris": {"android": "https://dc.lft.to/lastmile_qr_scan", "ios": "https://dc.lft.to/lastmile_qr_scan"}, "name": "4a83bf224431042ce1b467a06e9e9620", "type": "electric_scooter", "lat": 38.90027883333333, "is_disabled": 0}, {"fusion_lat": 0.0, "lon": -77.03256416666666, "is_reserved": 0, "bike_id": "a36a2710e81c78bb6a770de288857918", "fusion_lon": 0.0, "rental_uris": {"android": "https://dc.lft.to/lastmile_qr_scan", "ios": "https://dc.lft.to/lastmile_qr_scan"}, "name": "a36a2710e81c78bb6a770de288857918", "type": "electric_scooter", "lat": 38.938722, "is_disabled": 0}, {"fusion_lat": 0.0, "lon": -77.022829, "is_reserved": 0, "bike_id": "97a3d3f78b2b486a32cbd61d2742da79", "fusion_lon": 0.0, "rental_uris": {"android": "https://dc.lft.to/lastmile_qr_scan", "ios": "https://dc.lft.to/lastmile_qr_scan"}, "name": "97a3d3f78b2b486a32cbd61d2742da79", "type": "electric_scooter", "lat": 38.90958716666667, "is_disabled": 0}, {"fusion_lat": 0.0, "lon": -76.99751283333333, "is_reserved": 0, "bike_id": "a9fd7e1eb921e531790c20499b7ce63a", "fusion_lon": 0.0, "rental_uris": {"android": "https://dc.lft.to/lastmile_qr_scan", "ios": "https://dc.lft.to/lastmile_qr_scan"}, "name": "a9fd7e1eb921e531790c20499b7ce63a", "type": "electric_scooter", "lat": 38.9084555, "is_disabled": 0}, {"fusion_lat": 0.0, "lon": -76.994692, "is_reserved": 0, "bike_id": "6d658a09156cc06def00d8da5e22d776", "fusion_lon": 0.0, "rental_uris": {"android": "https://dc.lft.to/lastmile_qr_scan", "ios": "https://dc.lft.to/lastmile_qr_scan"}, "name": "6d658a09156cc06def00d8da5e22d776", "type": "electric_scooter", "lat": 38.862238833333336, "is_disabled": 0}, {"fusion_lat": 0.0, "lon": -77.026457, "is_reserved": 0, "bike_id": "7548b6f416f9ac58975c9514f78fedf9", "fusion_lon": 0.0, "rental_uris": {"android": "https://dc.lft.to/lastmile_qr_scan", "ios": "https://dc.lft.to/lastmile_qr_scan"}, "name": "7548b6f416f9ac58975c9514f78fedf9", "type": "electric_scooter", "lat": 38.881326, "is_disabled": 0}, {"fusion_lat": 0.0, "lon": -77.03192383333334, "is_reserved": 0, "bike_id": "a05657daba12b6a38b635b27a810c0ae", "fusion_lon": 0.0, "rental_uris": {"android": "https://dc.lft.to/lastmile_qr_scan", "ios": "https://dc.lft.to/lastmile_qr_scan"}, "name": "a05657daba12b6a38b635b27a810c0ae", "type": "electric_scooter", "lat": 38.9153435, "is_disabled": 0}, {"fusion_lat": 0.0, "lon": -77.02974416666666, "is_reserved": 0, "bike_id": "26b07880dcd685310e3aabce698ffe80", "fusion_lon": 0.0, "rental_uris": {"android": "https://dc.lft.to/lastmile_qr_scan", "ios": "https://dc.lft.to/lastmile_qr_scan"}, "name": "26b07880dcd685310e3aabce698ffe80", "type": "electric_scooter", "lat": 38.91057416666666, "is_disabled": 0}, {"fusion_lat": 0.0, "lon": -77.07272266666666, "is_reserved": 0, "bike_id": "ae1a0c7c54aea2da227c216f760bcb89", "fusion_lon": 0.0, "rental_uris": {"android": "https://dc.lft.to/lastmile_qr_scan", "ios": "https://dc.lft.to/lastmile_qr_scan"}, "name": "ae1a0c7c54aea2da227c216f760bcb89", "type": "electric_scooter", "lat": 38.911555666666665, "is_disabled": 0}, {"fusion_lat": 0.0, "lon": -77.04018466666666, "is_reserved": 0, "bike_id": "c29ea1a0763e9dd0eb4aad181e0c6cce", "fusion_lon": 0.0, "rental_uris": {"android": "https://dc.lft.to/lastmile_qr_scan", "ios": "https://dc.lft.to/lastmile_qr_scan"}, "name": "c29ea1a0763e9dd0eb4aad181e0c6cce", "type": "electric_scooter", "lat": 38.9245105, "is_disabled": 0}, {"fusion_lat": 0.0, "lon": -77.01733266666666, "is_reserved": 0, "bike_id": "d023acfca78e31cbde90aaddd9762367", "fusion_lon": 0.0, "rental_uris": {"android": "https://dc.lft.to/lastmile_qr_scan", "ios": "https://dc.lft.to/lastmile_qr_scan"}, "name": "d023acfca78e31cbde90aaddd9762367", "type": "electric_scooter", "lat": 38.8727005, "is_disabled": 0}, {"fusion_lat": 0.0, "lon": -77.042736, "is_reserved": 0, "bike_id": "a49084c2fbdfa665d42c2a6996ed97d1", "fusion_lon": 0.0, "rental_uris": {"android": "https://dc.lft.to/lastmile_qr_scan", "ios": "https://dc.lft.to/lastmile_qr_scan"}, "name": "a49084c2fbdfa665d42c2a6996ed97d1", "type": "electric_scooter", "lat": 38.91105066666667, "is_disabled": 0}, {"fusion_lat": 0.0, "lon": -77.03333216666667, "is_reserved": 0, "bike_id": "10ba9b17196a304d846feb09d7ab7adf", "fusion_lon": 0.0, "rental_uris": {"android": "https://dc.lft.to/lastmile_qr_scan", "ios": "https://dc.lft.to/lastmile_qr_scan"}, "name": "10ba9b17196a304d846feb09d7ab7adf", "type": "electric_scooter", "lat": 38.947176, "is_disabled": 0}, {"fusion_lat": 0.0, "lon": -77.06056583333333, "is_reserved": 0, "bike_id": "c737a2147a31d95c669dc665bbbd0cd4", "fusion_lon": 0.0, "rental_uris": {"android": "https://dc.lft.to/lastmile_qr_scan", "ios": "https://dc.lft.to/lastmile_qr_scan"}, "name": "c737a2147a31d95c669dc665bbbd0cd4", "type": "electric_scooter", "lat": 38.9391145, "is_disabled": 0}, {"fusion_lat": 0.0, "lon": -77.05712183333333, "is_reserved": 0, "bike_id": "3fa9377b71db073934833e9be22915c4", "fusion_lon": 0.0, "rental_uris": {"android": "https://dc.lft.to/lastmile_qr_scan", "ios": "https://dc.lft.to/lastmile_qr_scan"}, "name": "3fa9377b71db073934833e9be22915c4", "type": "electric_scooter", "lat": 38.9054555, "is_disabled": 0}, {"fusion_lat": 0.0, "lon": -77.0612925, "is_reserved": 0, "bike_id": "88056f370644e51ad786f82838eb64f0", "fusion_lon": 0.0, "rental_uris": {"android": "https://dc.lft.to/lastmile_qr_scan", "ios": "https://dc.lft.to/lastmile_qr_scan"}, "name": "88056f370644e51ad786f82838eb64f0", "type": "electric_scooter", "lat": 38.94081583333333, "is_disabled": 0}, {"fusion_lat": 0.0, "lon": -76.98150066666666, "is_reserved": 0, "bike_id": "485a8a6bc601479970a2865fa76b372c", "fusion_lon": 0.0, "rental_uris": {"android": "https://dc.lft.to/lastmile_qr_scan", "ios": "https://dc.lft.to/lastmile_qr_scan"}, "name": "485a8a6bc601479970a2865fa76b372c", "type": "electric_scooter", "lat": 38.90564766666667, "is_disabled": 0}, {"fusion_lat": 0.0, "lon": -77.03847416666666, "is_reserved": 0, "bike_id": "f3e219f792fd255122396bb99ecac261", "fusion_lon": 0.0, "rental_uris": {"android": "https://dc.lft.to/lastmile_qr_scan", "ios": "https://dc.lft.to/lastmile_qr_scan"}, "name": "f3e219f792fd255122396bb99ecac261", "type": "electric_scooter", "lat": 38.909906, "is_disabled": 0}, {"fusion_lat": 0.0, "lon": -77.03445433333333, "is_reserved": 0, "bike_id": "67895aad992aa31778787a4305e4ed98", "fusion_lon": 0.0, "rental_uris": {"android": "https://dc.lft.to/lastmile_qr_scan", "ios": "https://dc.lft.to/lastmile_qr_scan"}, "name": "67895aad992aa31778787a4305e4ed98", "type": "electric_scooter", "lat": 38.91826433333333, "is_disabled": 0}, {"fusion_lat": 0.0, "lon": -77.01615966666667, "is_reserved": 0, "bike_id": "1b222aa4e2839c53efbb83a47946a66b", "fusion_lon": 0.0, "rental_uris": {"android": "https://dc.lft.to/lastmile_qr_scan", "ios": "https://dc.lft.to/lastmile_qr_scan"}, "name": "1b222aa4e2839c53efbb83a47946a66b", "type": "electric_scooter", "lat": 38.88340916666667, "is_disabled": 0}, {"fusion_lat": 0.0, "lon": -77.02499216666666, "is_reserved": 0, "bike_id": "689ee87c34f050abbf0be983b0814fab", "fusion_lon": 0.0, "rental_uris": {"android": "https://dc.lft.to/lastmile_qr_scan", "ios": "https://dc.lft.to/lastmile_qr_scan"}, "name": "689ee87c34f050abbf0be983b0814fab", "type": "electric_scooter", "lat": 38.94187633333333, "is_disabled": 0}, {"fusion_lat": 0.0, "lon": -77.06583616666667, "is_reserved": 0, "bike_id": "bcb90ecf02655bb88d0e6592b5a3d554", "fusion_lon": 0.0, "rental_uris": {"android": "https://dc.lft.to/lastmile_qr_scan", "ios": "https://dc.lft.to/lastmile_qr_scan"}, "name": "bcb90ecf02655bb88d0e6592b5a3d554", "type": "electric_bike", "lat": 38.911311833333336, "is_disabled": 0}, {"fusion_lat": 0.0, "lon": -77.0228135, "is_reserved": 0, "bike_id": "b63e90619830ebea6d8e52175e6e1e1b", "fusion_lon": 0.0, "rental_uris": {"android": "https://dc.lft.to/lastmile_qr_scan", "ios": "https://dc.lft.to/lastmile_qr_scan"}, "name": "b63e90619830ebea6d8e52175e6e1e1b", "type": "electric_scooter", "lat": 38.9183695, "is_disabled": 0}, {"fusion_lat": 0.0, "lon": -76.96711083333334, "is_reserved": 0, "bike_id": "30b41b8b896faae4fab564519e460961", "fusion_lon": 0.0, "rental_uris": {"android": "https://dc.lft.to/lastmile_qr_scan", "ios": "https://dc.lft.to/lastmile_qr_scan"}, "name": "30b41b8b896faae4fab564519e460961", "type": "electric_scooter", "lat": 38.8479715, "is_disabled": 0}, {"fusion_lat": 0.0, "lon": -76.97329633333334, "is_reserved": 0, "bike_id": "bffb4a28973b3a10fa371330853f26d9", "fusion_lon": 0.0, "rental_uris": {"android": "https://dc.lft.to/lastmile_qr_scan", "ios": "https://dc.lft.to/lastmile_qr_scan"}, "name": "bffb4a28973b3a10fa371330853f26d9", "type": "electric_scooter", "lat": 38.904117, "is_disabled": 0}, {"fusion_lat": 0.0, "lon": -77.02446766666667, "is_reserved": 0, "bike_id": "96a613e62465ba1fcbe8da4593213989", "fusion_lon": 0.0, "rental_uris": {"android": "https://dc.lft.to/lastmile_qr_scan", "ios": "https://dc.lft.to/lastmile_qr_scan"}, "name": "96a613e62465ba1fcbe8da4593213989", "type": "electric_scooter", "lat": 38.91690533333333, "is_disabled": 0}, {"fusion_lat": 0.0, "lon": -77.02158383333334, "is_reserved": 0, "bike_id": "4632c37e1cc94b09d842898d9f189189", "fusion_lon": 0.0, "rental_uris": {"android": "https://dc.lft.to/lastmile_qr_scan", "ios": "https://dc.lft.to/lastmile_qr_scan"}, "name": "4632c37e1cc94b09d842898d9f189189", "type": "electric_scooter", "lat": 38.92597033333333, "is_disabled": 0}, {"fusion_lat": 0.0, "lon": -76.944252, "is_reserved": 0, "bike_id": "90c2400975d3226321a059ac3c845e81", "fusion_lon": 0.0, "rental_uris": {"android": "https://dc.lft.to/lastmile_qr_scan", "ios": "https://dc.lft.to/lastmile_qr_scan"}, "name": "90c2400975d3226321a059ac3c845e81", "type": "electric_bike", "lat": 38.96621316666667, "is_disabled": 0}, {"fusion_lat": 0.0, "lon": -77.005397, "is_reserved": 0, "bike_id": "238d58ee3fa2aa1f532dcf8e47236b74", "fusion_lon": 0.0, "rental_uris": {"android": "https://dc.lft.to/lastmile_qr_scan", "ios": "https://dc.lft.to/lastmile_qr_scan"}, "name": "238d58ee3fa2aa1f532dcf8e47236b74", "type": "electric_scooter", "lat": 38.87820933333333, "is_disabled": 0}, {"fusion_lat": 0.0, "lon": -77.05140733333333, "is_reserved": 0, "bike_id": "c4bf06da2af28fc68a0feb9f25eda20e", "fusion_lon": 0.0, "rental_uris": {"android": "https://dc.lft.to/lastmile_qr_scan", "ios": "https://dc.lft.to/lastmile_qr_scan"}, "name": "c4bf06da2af28fc68a0feb9f25eda20e", "type": "electric_scooter", "lat": 38.907182166666665, "is_disabled": 0}, {"fusion_lat": 0.0, "lon": -77.03845066666666, "is_reserved": 0, "bike_id": "9355898d1a19a83316310dcd80d2bfa4", "fusion_lon": 0.0, "rental_uris": {"android": "https://dc.lft.to/lastmile_qr_scan", "ios": "https://dc.lft.to/lastmile_qr_scan"}, "name": "9355898d1a19a83316310dcd80d2bfa4", "type": "electric_scooter", "lat": 38.91210233333334, "is_disabled": 0}, {"fusion_lat": 0.0, "lon": -77.0077605, "is_reserved": 0, "bike_id": "8ff351edd369f4dbaa95b1268f945d18", "fusion_lon": 0.0, "rental_uris": {"android": "https://dc.lft.to/lastmile_qr_scan", "ios": "https://dc.lft.to/lastmile_qr_scan"}, "name": "8ff351edd369f4dbaa95b1268f945d18", "type": "electric_scooter", "lat": 38.92671133333333, "is_disabled": 0}, {"fusion_lat": 0.0, "lon": -76.99936183333334, "is_reserved": 0, "bike_id": "c8c7c181caec74f78890d72c28404e3e", "fusion_lon": 0.0, "rental_uris": {"android": "https://dc.lft.to/lastmile_qr_scan", "ios": "https://dc.lft.to/lastmile_qr_scan"}, "name": "c8c7c181caec74f78890d72c28404e3e", "type": "electric_scooter", "lat": 38.843016166666665, "is_disabled": 0}, {"fusion_lat": 0.0, "lon": -77.00294, "is_reserved": 0, "bike_id": "b0043f7573b84b3213628ad885eb1586", "fusion_lon": 0.0, "rental_uris": {"android": "https://dc.lft.to/lastmile_qr_scan", "ios": "https://dc.lft.to/lastmile_qr_scan"}, "name": "b0043f7573b84b3213628ad885eb1586", "type": "electric_scooter", "lat": 38.894936333333334, "is_disabled": 0}, {"fusion_lat": 0.0, "lon": -76.99366383333333, "is_reserved": 0, "bike_id": "2ca16eb5f81497ac29859fc1889eb8a2", "fusion_lon": 0.0, "rental_uris": {"android": "https://dc.lft.to/lastmile_qr_scan", "ios": "https://dc.lft.to/lastmile_qr_scan"}, "name": "2ca16eb5f81497ac29859fc1889eb8a2", "type": "electric_scooter", "lat": 38.9283925, "is_disabled": 0}, {"fusion_lat": 0.0, "lon": -77.000499, "is_reserved": 0, "bike_id": "ef163dec08ad4d2838103e8e2eb087dd", "fusion_lon": 0.0, "rental_uris": {"android": "https://dc.lft.to/lastmile_qr_scan", "ios": "https://dc.lft.to/lastmile_qr_scan"}, "name": "ef163dec08ad4d2838103e8e2eb087dd", "type": "electric_scooter", "lat": 38.90017266666667, "is_disabled": 0}, {"fusion_lat": 0.0, "lon": -77.063032, "is_reserved": 0, "bike_id": "0e28beef522faf9f70a3f371a6777c08", "fusion_lon": 0.0, "rental_uris": {"android": "https://dc.lft.to/lastmile_qr_scan", "ios": "https://dc.lft.to/lastmile_qr_scan"}, "name": "0e28beef522faf9f70a3f371a6777c08", "type": "electric_scooter", "lat": 38.943485333333335, "is_disabled": 0}, {"fusion_lat": 0.0, "lon": -77.032002, "is_reserved": 0, "bike_id": "8feeedebf3cf40631f8f4d0b78208aa6", "fusion_lon": 0.0, "rental_uris": {"android": "https://dc.lft.to/lastmile_qr_scan", "ios": "https://dc.lft.to/lastmile_qr_scan"}, "name": "8feeedebf3cf40631f8f4d0b78208aa6", "type": "electric_scooter", "lat": 38.90788416666667, "is_disabled": 0}, {"fusion_lat": 0.0, "lon": -77.029406, "is_reserved": 0, "bike_id": "156b33603023977bffb3eac60ef7844c", "fusion_lon": 0.0, "rental_uris": {"android": "https://dc.lft.to/lastmile_qr_scan", "ios": "https://dc.lft.to/lastmile_qr_scan"}, "name": "156b33603023977bffb3eac60ef7844c", "type": "electric_scooter", "lat": 38.914052166666664, "is_disabled": 0}, {"fusion_lat": 0.0, "lon": -77.04366533333334, "is_reserved": 0, "bike_id": "2500fa56f9ed8ff8c171ed40e5e298ce", "fusion_lon": 0.0, "rental_uris": {"android": "https://dc.lft.to/lastmile_qr_scan", "ios": "https://dc.lft.to/lastmile_qr_scan"}, "name": "2500fa56f9ed8ff8c171ed40e5e298ce", "type": "electric_scooter", "lat": 38.921487166666665, "is_disabled": 0}, {"fusion_lat": 0.0, "lon": -77.00375066666666, "is_reserved": 0, "bike_id": "9960a8e824dab3a330958917659fe79c", "fusion_lon": 0.0, "rental_uris": {"android": "https://dc.lft.to/lastmile_qr_scan", "ios": "https://dc.lft.to/lastmile_qr_scan"}, "name": "9960a8e824dab3a330958917659fe79c", "type": "electric_scooter", "lat": 38.897392333333336, "is_disabled": 0}, {"fusion_lat": 0.0, "lon": -76.98698083333333, "is_reserved": 0, "bike_id": "9dd748e44a954a6a6900136370c901e9", "fusion_lon": 0.0, "rental_uris": {"android": "https://dc.lft.to/lastmile_qr_scan", "ios": "https://dc.lft.to/lastmile_qr_scan"}, "name": "9dd748e44a954a6a6900136370c901e9", "type": "electric_scooter", "lat": 38.86253816666667, "is_disabled": 0}, {"fusion_lat": 0.0, "lon": -77.0269405, "is_reserved": 0, "bike_id": "d00b711681deb55f35c47d7f50987ab2", "fusion_lon": 0.0, "rental_uris": {"android": "https://dc.lft.to/lastmile_qr_scan", "ios": "https://dc.lft.to/lastmile_qr_scan"}, "name": "d00b711681deb55f35c47d7f50987ab2", "type": "electric_scooter", "lat": 38.92328416666667, "is_disabled": 0}, {"fusion_lat": 0.0, "lon": -77.03648483333333, "is_reserved": 0, "bike_id": "fed5fb506d5d712049ef8e972d18f232", "fusion_lon": 0.0, "rental_uris": {"android": "https://dc.lft.to/lastmile_qr_scan", "ios": "https://dc.lft.to/lastmile_qr_scan"}, "name": "fed5fb506d5d712049ef8e972d18f232", "type": "electric_scooter", "lat": 38.93597066666667, "is_disabled": 0}, {"fusion_lat": 0.0, "lon": -77.00208783333333, "is_reserved": 0, "bike_id": "7589629329b00b30618ff6e3b45b9fd5", "fusion_lon": 0.0, "rental_uris": {"android": "https://dc.lft.to/lastmile_qr_scan", "ios": "https://dc.lft.to/lastmile_qr_scan"}, "name": "7589629329b00b30618ff6e3b45b9fd5", "type": "electric_scooter", "lat": 38.8954115, "is_disabled": 0}, {"fusion_lat": 0.0, "lon": -77.04889733333333, "is_reserved": 0, "bike_id": "a13ea61241fd397c1fd01577542d5610", "fusion_lon": 0.0, "rental_uris": {"android": "https://dc.lft.to/lastmile_qr_scan", "ios": "https://dc.lft.to/lastmile_qr_scan"}, "name": "a13ea61241fd397c1fd01577542d5610", "type": "electric_scooter", "lat": 38.9054165, "is_disabled": 0}, {"fusion_lat": 0.0, "lon": -76.9733215, "is_reserved": 0, "bike_id": "c66295054f5dc3d28afe96a8baf52596", "fusion_lon": 0.0, "rental_uris": {"android": "https://dc.lft.to/lastmile_qr_scan", "ios": "https://dc.lft.to/lastmile_qr_scan"}, "name": "c66295054f5dc3d28afe96a8baf52596", "type": "electric_scooter", "lat": 38.904084833333336, "is_disabled": 0}, {"fusion_lat": 0.0, "lon": -77.04338466666667, "is_reserved": 0, "bike_id": "9eac7b908676a0e98b26d397568483af", "fusion_lon": 0.0, "rental_uris": {"android": "https://dc.lft.to/lastmile_qr_scan", "ios": "https://dc.lft.to/lastmile_qr_scan"}, "name": "9eac7b908676a0e98b26d397568483af", "type": "electric_scooter", "lat": 38.89225883333334, "is_disabled": 0}, {"fusion_lat": 0.0, "lon": -77.03440716666667, "is_reserved": 0, "bike_id": "0221e2cec5bfd4b14630cc3c532aa238", "fusion_lon": 0.0, "rental_uris": {"android": "https://dc.lft.to/lastmile_qr_scan", "ios": "https://dc.lft.to/lastmile_qr_scan"}, "name": "0221e2cec5bfd4b14630cc3c532aa238", "type": "electric_scooter", "lat": 38.9193765, "is_disabled": 0}, {"fusion_lat": 0.0, "lon": -77.02060233333333, "is_reserved": 0, "bike_id": "f816f1f48588eef8f2f9cf0a08e5a6db", "fusion_lon": 0.0, "rental_uris": {"android": "https://dc.lft.to/lastmile_qr_scan", "ios": "https://dc.lft.to/lastmile_qr_scan"}, "name": "f816f1f48588eef8f2f9cf0a08e5a6db", "type": "electric_scooter", "lat": 38.8941545, "is_disabled": 0}, {"fusion_lat": 0.0, "lon": -77.0347945, "is_reserved": 0, "bike_id": "2938cbf25f2cb08dcc55f5adfd211690", "fusion_lon": 0.0, "rental_uris": {"android": "https://dc.lft.to/lastmile_qr_scan", "ios": "https://dc.lft.to/lastmile_qr_scan"}, "name": "2938cbf25f2cb08dcc55f5adfd211690", "type": "electric_scooter", "lat": 38.921482166666664, "is_disabled": 0}, {"fusion_lat": 0.0, "lon": -77.0430815, "is_reserved": 0, "bike_id": "db767ddeb88c4471e954e06d3c38f9e4", "fusion_lon": 0.0, "rental_uris": {"android": "https://dc.lft.to/lastmile_qr_scan", "ios": "https://dc.lft.to/lastmile_qr_scan"}, "name": "db767ddeb88c4471e954e06d3c38f9e4", "type": "electric_scooter", "lat": 38.9232765, "is_disabled": 0}, {"fusion_lat": 0.0, "lon": -77.085949, "is_reserved": 0, "bike_id": "352131096f9b0432ec5f4d2c8583eb4d", "fusion_lon": 0.0, "rental_uris": {"android": "https://dc.lft.to/lastmile_qr_scan", "ios": "https://dc.lft.to/lastmile_qr_scan"}, "name": "352131096f9b0432ec5f4d2c8583eb4d", "type": "electric_bike", "lat": 38.84443433333333, "is_disabled": 0}, {"fusion_lat": 0.0, "lon": -76.97325383333333, "is_reserved": 0, "bike_id": "6e0666880f88c989be3c8a6d1039d4e6", "fusion_lon": 0.0, "rental_uris": {"android": "https://dc.lft.to/lastmile_qr_scan", "ios": "https://dc.lft.to/lastmile_qr_scan"}, "name": "6e0666880f88c989be3c8a6d1039d4e6", "type": "electric_scooter", "lat": 38.91772116666667, "is_disabled": 0}, {"fusion_lat": 0.0, "lon": -76.97241966666667, "is_reserved": 0, "bike_id": "dfba83952bdb27255047633c2cd60706", "fusion_lon": 0.0, "rental_uris": {"android": "https://dc.lft.to/lastmile_qr_scan", "ios": "https://dc.lft.to/lastmile_qr_scan"}, "name": "dfba83952bdb27255047633c2cd60706", "type": "electric_bike", "lat": 38.9490785, "is_disabled": 0}, {"fusion_lat": 0.0, "lon": -76.98490266666667, "is_reserved": 0, "bike_id": "f0390a94bd30beed3d2545c8480c0b2a", "fusion_lon": 0.0, "rental_uris": {"android": "https://dc.lft.to/lastmile_qr_scan", "ios": "https://dc.lft.to/lastmile_qr_scan"}, "name": "f0390a94bd30beed3d2545c8480c0b2a", "type": "electric_scooter", "lat": 38.9152365, "is_disabled": 0}, {"fusion_lat": 0.0, "lon": -77.025683, "is_reserved": 0, "bike_id": "125e9f05716e261b8a2afc5662a272ee", "fusion_lon": 0.0, "rental_uris": {"android": "https://dc.lft.to/lastmile_qr_scan", "ios": "https://dc.lft.to/lastmile_qr_scan"}, "name": "125e9f05716e261b8a2afc5662a272ee", "type": "electric_scooter", "lat": 38.914047333333336, "is_disabled": 0}, {"fusion_lat": 0.0, "lon": -77.00683766666667, "is_reserved": 0, "bike_id": "8b25eb49a22e541f436d5ea4860f9cab", "fusion_lon": 0.0, "rental_uris": {"android": "https://dc.lft.to/lastmile_qr_scan", "ios": "https://dc.lft.to/lastmile_qr_scan"}, "name": "8b25eb49a22e541f436d5ea4860f9cab", "type": "electric_scooter", "lat": 38.90011616666666, "is_disabled": 0}, {"fusion_lat": 0.0, "lon": -76.99232883333333, "is_reserved": 0, "bike_id": "de992082ed5330bd7b5a424c2023d307", "fusion_lon": 0.0, "rental_uris": {"android": "https://dc.lft.to/lastmile_qr_scan", "ios": "https://dc.lft.to/lastmile_qr_scan"}, "name": "de992082ed5330bd7b5a424c2023d307", "type": "electric_bike", "lat": 38.938642333333334, "is_disabled": 0}, {"fusion_lat": 0.0, "lon": -77.05746833333333, "is_reserved": 0, "bike_id": "f67d081850a83fae61732541f5ca8f4f", "fusion_lon": 0.0, "rental_uris": {"android": "https://dc.lft.to/lastmile_qr_scan", "ios": "https://dc.lft.to/lastmile_qr_scan"}, "name": "f67d081850a83fae61732541f5ca8f4f", "type": "electric_scooter", "lat": 38.933933, "is_disabled": 0}, {"fusion_lat": 0.0, "lon": -77.001149, "is_reserved": 0, "bike_id": "e7c19a2db14149edc70adae9a41a9d0f", "fusion_lon": 0.0, "rental_uris": {"android": "https://dc.lft.to/lastmile_qr_scan", "ios": "https://dc.lft.to/lastmile_qr_scan"}, "name": "e7c19a2db14149edc70adae9a41a9d0f", "type": "electric_scooter", "lat": 38.917046666666664, "is_disabled": 0}, {"fusion_lat": 0.0, "lon": -77.04674116666666, "is_reserved": 0, "bike_id": "ad3575f10e46d5be079713c8656778c0", "fusion_lon": 0.0, "rental_uris": {"android": "https://dc.lft.to/lastmile_qr_scan", "ios": "https://dc.lft.to/lastmile_qr_scan"}, "name": "ad3575f10e46d5be079713c8656778c0", "type": "electric_scooter", "lat": 38.90333783333333, "is_disabled": 0}, {"fusion_lat": 0.0, "lon": -77.03169, "is_reserved": 0, "bike_id": "e1d5ae75caf82e831661ff346af31d38", "fusion_lon": 0.0, "rental_uris": {"android": "https://dc.lft.to/lastmile_qr_scan", "ios": "https://dc.lft.to/lastmile_qr_scan"}, "name": "e1d5ae75caf82e831661ff346af31d38", "type": "electric_scooter", "lat": 38.91716616666667, "is_disabled": 0}, {"fusion_lat": 0.0, "lon": -77.10921133333333, "is_reserved": 0, "bike_id": "c740d8610f0c61c078b3c56191c4831e", "fusion_lon": 0.0, "rental_uris": {"android": "https://dc.lft.to/lastmile_qr_scan", "ios": "https://dc.lft.to/lastmile_qr_scan"}, "name": "c740d8610f0c61c078b3c56191c4831e", "type": "electric_bike", "lat": 39.05202883333333, "is_disabled": 0}, {"fusion_lat": 0.0, "lon": -77.014142, "is_reserved": 0, "bike_id": "1f59707711d7bb6f214fe0bf83d552a4", "fusion_lon": 0.0, "rental_uris": {"android": "https://dc.lft.to/lastmile_qr_scan", "ios": "https://dc.lft.to/lastmile_qr_scan"}, "name": "1f59707711d7bb6f214fe0bf83d552a4", "type": "electric_scooter", "lat": 38.9288625, "is_disabled": 0}, {"fusion_lat": 0.0, "lon": -77.041765, "is_reserved": 0, "bike_id": "7c5ab9b63e1f258afc220ca78a0cb213", "fusion_lon": 0.0, "rental_uris": {"android": "https://dc.lft.to/lastmile_qr_scan", "ios": "https://dc.lft.to/lastmile_qr_scan"}, "name": "7c5ab9b63e1f258afc220ca78a0cb213", "type": "electric_scooter", "lat": 38.925489, "is_disabled": 0}, {"fusion_lat": 0.0, "lon": -77.03220433333334, "is_reserved": 0, "bike_id": "ac977559506f5e8f6ec18d8a51be44d1", "fusion_lon": 0.0, "rental_uris": {"android": "https://dc.lft.to/lastmile_qr_scan", "ios": "https://dc.lft.to/lastmile_qr_scan"}, "name": "ac977559506f5e8f6ec18d8a51be44d1", "type": "electric_scooter", "lat": 38.92527333333334, "is_disabled": 0}, {"fusion_lat": 0.0, "lon": -77.059566, "is_reserved": 0, "bike_id": "0abb0cebd8ea7e5b8857d7fe8c868f8c", "fusion_lon": 0.0, "rental_uris": {"android": "https://dc.lft.to/lastmile_qr_scan", "ios": "https://dc.lft.to/lastmile_qr_scan"}, "name": "0abb0cebd8ea7e5b8857d7fe8c868f8c", "type": "electric_scooter", "lat": 38.9053465, "is_disabled": 0}, {"fusion_lat": 0.0, "lon": -77.034018, "is_reserved": 0, "bike_id": "33201600075a8cc7f97b31bb3c0e8ad0", "fusion_lon": 0.0, "rental_uris": {"android": "https://dc.lft.to/lastmile_qr_scan", "ios": "https://dc.lft.to/lastmile_qr_scan"}, "name": "33201600075a8cc7f97b31bb3c0e8ad0", "type": "electric_scooter", "lat": 38.90973066666667, "is_disabled": 0}, {"fusion_lat": 0.0, "lon": -77.01977933333333, "is_reserved": 0, "bike_id": "c7c01f9979d4ef18f7ee4e26734caacd", "fusion_lon": 0.0, "rental_uris": {"android": "https://dc.lft.to/lastmile_qr_scan", "ios": "https://dc.lft.to/lastmile_qr_scan"}, "name": "c7c01f9979d4ef18f7ee4e26734caacd", "type": "electric_scooter", "lat": 38.923273, "is_disabled": 0}, {"fusion_lat": 0.0, "lon": -77.04306466666667, "is_reserved": 0, "bike_id": "b4a7f10dae53ee967d656be298a3dd5c", "fusion_lon": 0.0, "rental_uris": {"android": "https://dc.lft.to/lastmile_qr_scan", "ios": "https://dc.lft.to/lastmile_qr_scan"}, "name": "b4a7f10dae53ee967d656be298a3dd5c", "type": "electric_scooter", "lat": 38.9229815, "is_disabled": 0}, {"fusion_lat": 0.0, "lon": -76.99757933333333, "is_reserved": 0, "bike_id": "f44bb1e984b8c31d0c1f04cfe0f428e2", "fusion_lon": 0.0, "rental_uris": {"android": "https://dc.lft.to/lastmile_qr_scan", "ios": "https://dc.lft.to/lastmile_qr_scan"}, "name": "f44bb1e984b8c31d0c1f04cfe0f428e2", "type": "electric_scooter", "lat": 38.92199183333334, "is_disabled": 0}, {"fusion_lat": 0.0, "lon": -76.930029, "is_reserved": 0, "bike_id": "6612c36a5306b3631a148d83fdef64c6", "fusion_lon": 0.0, "rental_uris": {"android": "https://dc.lft.to/lastmile_qr_scan", "ios": "https://dc.lft.to/lastmile_qr_scan"}, "name": "6612c36a5306b3631a148d83fdef64c6", "type": "electric_scooter", "lat": 38.901912333333335, "is_disabled": 0}, {"fusion_lat": 0.0, "lon": -77.02836833333333, "is_reserved": 0, "bike_id": "7dc3f1813d6e1b98d3c542b250dccf5f", "fusion_lon": 0.0, "rental_uris": {"android": "https://dc.lft.to/lastmile_qr_scan", "ios": "https://dc.lft.to/lastmile_qr_scan"}, "name": "7dc3f1813d6e1b98d3c542b250dccf5f", "type": "electric_scooter", "lat": 38.924702333333336, "is_disabled": 0}, {"fusion_lat": 0.0, "lon": -76.99220566666666, "is_reserved": 0, "bike_id": "ac43a3ea3a1e36eddd634d74aa1db6f9", "fusion_lon": 0.0, "rental_uris": {"android": "https://dc.lft.to/lastmile_qr_scan", "ios": "https://dc.lft.to/lastmile_qr_scan"}, "name": "ac43a3ea3a1e36eddd634d74aa1db6f9", "type": "electric_scooter", "lat": 38.89518733333333, "is_disabled": 0}, {"fusion_lat": 0.0, "lon": -77.02363166666666, "is_reserved": 0, "bike_id": "63135b6ebf694a1f16d4c459d7306ab7", "fusion_lon": 0.0, "rental_uris": {"android": "https://dc.lft.to/lastmile_qr_scan", "ios": "https://dc.lft.to/lastmile_qr_scan"}, "name": "63135b6ebf694a1f16d4c459d7306ab7", "type": "electric_scooter", "lat": 38.91962566666667, "is_disabled": 0}, {"fusion_lat": 0.0, "lon": -76.99697516666667, "is_reserved": 0, "bike_id": "3940745124c89e8b7404729ddaed9b80", "fusion_lon": 0.0, "rental_uris": {"android": "https://dc.lft.to/lastmile_qr_scan", "ios": "https://dc.lft.to/lastmile_qr_scan"}, "name": "3940745124c89e8b7404729ddaed9b80", "type": "electric_scooter", "lat": 38.90829933333333, "is_disabled": 0}, {"fusion_lat": 0.0, "lon": -77.0289065, "is_reserved": 0, "bike_id": "73c2d91662495d19e3ec834d41b01ffc", "fusion_lon": 0.0, "rental_uris": {"android": "https://dc.lft.to/lastmile_qr_scan", "ios": "https://dc.lft.to/lastmile_qr_scan"}, "name": "73c2d91662495d19e3ec834d41b01ffc", "type": "electric_scooter", "lat": 38.91335683333333, "is_disabled": 0}, {"fusion_lat": 0.0, "lon": -77.02694033333333, "is_reserved": 0, "bike_id": "7311782e030510c80cd2fbd974024558", "fusion_lon": 0.0, "rental_uris": {"android": "https://dc.lft.to/lastmile_qr_scan", "ios": "https://dc.lft.to/lastmile_qr_scan"}, "name": "7311782e030510c80cd2fbd974024558", "type": "electric_scooter", "lat": 38.948874833333335, "is_disabled": 0}, {"fusion_lat": 0.0, "lon": -77.017944, "is_reserved": 0, "bike_id": "92cea08e1b479c9d7f303fae3b724fb1", "fusion_lon": 0.0, "rental_uris": {"android": "https://dc.lft.to/lastmile_qr_scan", "ios": "https://dc.lft.to/lastmile_qr_scan"}, "name": "92cea08e1b479c9d7f303fae3b724fb1", "type": "electric_scooter", "lat": 38.892914833333336, "is_disabled": 0}, {"fusion_lat": 0.0, "lon": -76.98531066666666, "is_reserved": 0, "bike_id": "86ee4566e7bf0ab0038e034e3f29fb7c", "fusion_lon": 0.0, "rental_uris": {"android": "https://dc.lft.to/lastmile_qr_scan", "ios": "https://dc.lft.to/lastmile_qr_scan"}, "name": "86ee4566e7bf0ab0038e034e3f29fb7c", "type": "electric_scooter", "lat": 38.91021116666667, "is_disabled": 0}, {"fusion_lat": 0.0, "lon": -77.08590716666667, "is_reserved": 0, "bike_id": "58c46818775ad975db3c5d673c434462", "fusion_lon": 0.0, "rental_uris": {"android": "https://dc.lft.to/lastmile_qr_scan", "ios": "https://dc.lft.to/lastmile_qr_scan"}, "name": "58c46818775ad975db3c5d673c434462", "type": "electric_scooter", "lat": 38.908586666666665, "is_disabled": 0}, {"fusion_lat": 0.0, "lon": -76.95017533333333, "is_reserved": 0, "bike_id": "31312be2bee16dea677b8b701f88f421", "fusion_lon": 0.0, "rental_uris": {"android": "https://dc.lft.to/lastmile_qr_scan", "ios": "https://dc.lft.to/lastmile_qr_scan"}, "name": "31312be2bee16dea677b8b701f88f421", "type": "electric_scooter", "lat": 38.893818, "is_disabled": 0}, {"fusion_lat": 0.0, "lon": -77.0317545, "is_reserved": 0, "bike_id": "706567e2d7cac80be6b7e379cdfdee79", "fusion_lon": 0.0, "rental_uris": {"android": "https://dc.lft.to/lastmile_qr_scan", "ios": "https://dc.lft.to/lastmile_qr_scan"}, "name": "706567e2d7cac80be6b7e379cdfdee79", "type": "electric_scooter", "lat": 38.884162333333336, "is_disabled": 0}, {"fusion_lat": 0.0, "lon": -77.03864483333334, "is_reserved": 0, "bike_id": "073f63248c00b2a4fd6f5dd33c5897f9", "fusion_lon": 0.0, "rental_uris": {"android": "https://dc.lft.to/lastmile_qr_scan", "ios": "https://dc.lft.to/lastmile_qr_scan"}, "name": "073f63248c00b2a4fd6f5dd33c5897f9", "type": "electric_scooter", "lat": 38.915559, "is_disabled": 0}, {"fusion_lat": 0.0, "lon": -77.02685783333334, "is_reserved": 0, "bike_id": "452a09c24435732f36da1410faf5e214", "fusion_lon": 0.0, "rental_uris": {"android": "https://dc.lft.to/lastmile_qr_scan", "ios": "https://dc.lft.to/lastmile_qr_scan"}, "name": "452a09c24435732f36da1410faf5e214", "type": "electric_scooter", "lat": 38.98488, "is_disabled": 0}, {"fusion_lat": 0.0, "lon": -77.07271866666666, "is_reserved": 0, "bike_id": "5dacd196b7ecd87fcc27d1b953b65b71", "fusion_lon": 0.0, "rental_uris": {"android": "https://dc.lft.to/lastmile_qr_scan", "ios": "https://dc.lft.to/lastmile_qr_scan"}, "name": "5dacd196b7ecd87fcc27d1b953b65b71", "type": "electric_scooter", "lat": 38.9347955, "is_disabled": 0}, {"fusion_lat": 0.0, "lon": -76.9875645, "is_reserved": 0, "bike_id": "122f6ec6dc5cb26d5a566483702a7189", "fusion_lon": 0.0, "rental_uris": {"android": "https://dc.lft.to/lastmile_qr_scan", "ios": "https://dc.lft.to/lastmile_qr_scan"}, "name": "122f6ec6dc5cb26d5a566483702a7189", "type": "electric_scooter", "lat": 38.844779, "is_disabled": 0}, {"fusion_lat": 0.0, "lon": -77.04621816666666, "is_reserved": 0, "bike_id": "227bfa0f0c211c9863b55eab24e7e7da", "fusion_lon": 0.0, "rental_uris": {"android": "https://dc.lft.to/lastmile_qr_scan", "ios": "https://dc.lft.to/lastmile_qr_scan"}, "name": "227bfa0f0c211c9863b55eab24e7e7da", "type": "electric_scooter", "lat": 38.916371833333336, "is_disabled": 0}, {"fusion_lat": 0.0, "lon": -76.96467683333333, "is_reserved": 0, "bike_id": "014353cf1335a2d00d1dd9b5d5331b7c", "fusion_lon": 0.0, "rental_uris": {"android": "https://dc.lft.to/lastmile_qr_scan", "ios": "https://dc.lft.to/lastmile_qr_scan"}, "name": "014353cf1335a2d00d1dd9b5d5331b7c", "type": "electric_scooter", "lat": 38.934481166666664, "is_disabled": 0}, {"fusion_lat": 0.0, "lon": -76.96557733333333, "is_reserved": 0, "bike_id": "21db447df69fb558e7a7e53f52030207", "fusion_lon": 0.0, "rental_uris": {"android": "https://dc.lft.to/lastmile_qr_scan", "ios": "https://dc.lft.to/lastmile_qr_scan"}, "name": "21db447df69fb558e7a7e53f52030207", "type": "electric_scooter", "lat": 38.91843383333333, "is_disabled": 0}, {"fusion_lat": 0.0, "lon": -77.0254135, "is_reserved": 0, "bike_id": "654a337227b26845b022dcb8b2e08314", "fusion_lon": 0.0, "rental_uris": {"android": "https://dc.lft.to/lastmile_qr_scan", "ios": "https://dc.lft.to/lastmile_qr_scan"}, "name": "654a337227b26845b022dcb8b2e08314", "type": "electric_scooter", "lat": 38.95256283333333, "is_disabled": 0}, {"fusion_lat": 0.0, "lon": -76.99700516666667, "is_reserved": 0, "bike_id": "93ef0199e0a063d0fb027a693e864571", "fusion_lon": 0.0, "rental_uris": {"android": "https://dc.lft.to/lastmile_qr_scan", "ios": "https://dc.lft.to/lastmile_qr_scan"}, "name": "93ef0199e0a063d0fb027a693e864571", "type": "electric_scooter", "lat": 38.90833766666667, "is_disabled": 0}, {"fusion_lat": 0.0, "lon": -77.0268485, "is_reserved": 0, "bike_id": "8a9124ce347b4c86aa8ca3ab4954e69c", "fusion_lon": 0.0, "rental_uris": {"android": "https://dc.lft.to/lastmile_qr_scan", "ios": "https://dc.lft.to/lastmile_qr_scan"}, "name": "8a9124ce347b4c86aa8ca3ab4954e69c", "type": "electric_scooter", "lat": 38.927720666666666, "is_disabled": 0}, {"fusion_lat": 0.0, "lon": -77.03776933333333, "is_reserved": 0, "bike_id": "e158e0e6c6268338be8e5932a0921744", "fusion_lon": 0.0, "rental_uris": {"android": "https://dc.lft.to/lastmile_qr_scan", "ios": "https://dc.lft.to/lastmile_qr_scan"}, "name": "e158e0e6c6268338be8e5932a0921744", "type": "electric_scooter", "lat": 38.916995666666665, "is_disabled": 0}, {"fusion_lat": 0.0, "lon": -76.965626, "is_reserved": 0, "bike_id": "7eee96417f0ed37a417e8321d6373ce5", "fusion_lon": 0.0, "rental_uris": {"android": "https://dc.lft.to/lastmile_qr_scan", "ios": "https://dc.lft.to/lastmile_qr_scan"}, "name": "7eee96417f0ed37a417e8321d6373ce5", "type": "electric_scooter", "lat": 38.918489666666666, "is_disabled": 0}, {"fusion_lat": 0.0, "lon": -77.05182866666667, "is_reserved": 0, "bike_id": "4f4c539af978ab23d49f6001e32e72ff", "fusion_lon": 0.0, "rental_uris": {"android": "https://dc.lft.to/lastmile_qr_scan", "ios": "https://dc.lft.to/lastmile_qr_scan"}, "name": "4f4c539af978ab23d49f6001e32e72ff", "type": "electric_scooter", "lat": 38.923747666666664, "is_disabled": 0}, {"fusion_lat": 0.0, "lon": -76.999522, "is_reserved": 0, "bike_id": "0ddd406384f8425ec60519f6526f7f34", "fusion_lon": 0.0, "rental_uris": {"android": "https://dc.lft.to/lastmile_qr_scan", "ios": "https://dc.lft.to/lastmile_qr_scan"}, "name": "0ddd406384f8425ec60519f6526f7f34", "type": "electric_scooter", "lat": 38.8964575, "is_disabled": 0}, {"fusion_lat": 0.0, "lon": -76.98888283333334, "is_reserved": 0, "bike_id": "99f5000d99aaa061eb0fac79c573dbfa", "fusion_lon": 0.0, "rental_uris": {"android": "https://dc.lft.to/lastmile_qr_scan", "ios": "https://dc.lft.to/lastmile_qr_scan"}, "name": "99f5000d99aaa061eb0fac79c573dbfa", "type": "electric_scooter", "lat": 38.86666, "is_disabled": 0}, {"fusion_lat": 0.0, "lon": -77.04501366666666, "is_reserved": 0, "bike_id": "d092792da77b2522678973b51d2b6613", "fusion_lon": 0.0, "rental_uris": {"android": "https://dc.lft.to/lastmile_qr_scan", "ios": "https://dc.lft.to/lastmile_qr_scan"}, "name": "d092792da77b2522678973b51d2b6613", "type": "electric_scooter", "lat": 38.91416316666667, "is_disabled": 0}, {"fusion_lat": 0.0, "lon": -77.0360975, "is_reserved": 0, "bike_id": "8441cc3e162b9abe828601ed4a2392a8", "fusion_lon": 0.0, "rental_uris": {"android": "https://dc.lft.to/lastmile_qr_scan", "ios": "https://dc.lft.to/lastmile_qr_scan"}, "name": "8441cc3e162b9abe828601ed4a2392a8", "type": "electric_scooter", "lat": 38.91749316666667, "is_disabled": 0}, {"fusion_lat": 0.0, "lon": -77.02944683333334, "is_reserved": 0, "bike_id": "05664576851539bbce9ca53731bf2798", "fusion_lon": 0.0, "rental_uris": {"android": "https://dc.lft.to/lastmile_qr_scan", "ios": "https://dc.lft.to/lastmile_qr_scan"}, "name": "05664576851539bbce9ca53731bf2798", "type": "electric_scooter", "lat": 38.89941116666667, "is_disabled": 0}, {"fusion_lat": 0.0, "lon": -77.043109, "is_reserved": 0, "bike_id": "699815f3cb1a300761e38e6add11bc6b", "fusion_lon": 0.0, "rental_uris": {"android": "https://dc.lft.to/lastmile_qr_scan", "ios": "https://dc.lft.to/lastmile_qr_scan"}, "name": "699815f3cb1a300761e38e6add11bc6b", "type": "electric_scooter", "lat": 38.92657333333333, "is_disabled": 0}, {"fusion_lat": 0.0, "lon": -77.01630283333333, "is_reserved": 0, "bike_id": "571ab19dd058dcdd3885757e25d08d50", "fusion_lon": 0.0, "rental_uris": {"android": "https://dc.lft.to/lastmile_qr_scan", "ios": "https://dc.lft.to/lastmile_qr_scan"}, "name": "571ab19dd058dcdd3885757e25d08d50", "type": "electric_scooter", "lat": 38.89964416666667, "is_disabled": 0}, {"fusion_lat": 0.0, "lon": -76.99781866666666, "is_reserved": 0, "bike_id": "192ee5cef1b93d33137442b31b810797", "fusion_lon": 0.0, "rental_uris": {"android": "https://dc.lft.to/lastmile_qr_scan", "ios": "https://dc.lft.to/lastmile_qr_scan"}, "name": "192ee5cef1b93d33137442b31b810797", "type": "electric_bike", "lat": 38.95305483333333, "is_disabled": 0}, {"fusion_lat": 0.0, "lon": -77.0317325, "is_reserved": 0, "bike_id": "d055363b9c90c230ac529d15749c56d7", "fusion_lon": 0.0, "rental_uris": {"android": "https://dc.lft.to/lastmile_qr_scan", "ios": "https://dc.lft.to/lastmile_qr_scan"}, "name": "d055363b9c90c230ac529d15749c56d7", "type": "electric_scooter", "lat": 38.908864, "is_disabled": 0}, {"fusion_lat": 0.0, "lon": -76.93080383333333, "is_reserved": 0, "bike_id": "7a8ba40a089c0773c8ca34edca79a0c7", "fusion_lon": 0.0, "rental_uris": {"android": "https://dc.lft.to/lastmile_qr_scan", "ios": "https://dc.lft.to/lastmile_qr_scan"}, "name": "7a8ba40a089c0773c8ca34edca79a0c7", "type": "electric_scooter", "lat": 38.90164883333333, "is_disabled": 0}, {"fusion_lat": 0.0, "lon": -77.03162466666667, "is_reserved": 0, "bike_id": "1e6e2d097b1739fda17f2246b517b254", "fusion_lon": 0.0, "rental_uris": {"android": "https://dc.lft.to/lastmile_qr_scan", "ios": "https://dc.lft.to/lastmile_qr_scan"}, "name": "1e6e2d097b1739fda17f2246b517b254", "type": "electric_scooter", "lat": 38.93058533333333, "is_disabled": 0}, {"fusion_lat": 0.0, "lon": -77.1392725, "is_reserved": 0, "bike_id": "5b9b8e7f39f98cc59a4d23bdb3744915", "fusion_lon": 0.0, "rental_uris": {"android": "https://dc.lft.to/lastmile_qr_scan", "ios": "https://dc.lft.to/lastmile_qr_scan"}, "name": "5b9b8e7f39f98cc59a4d23bdb3744915", "type": "electric_bike", "lat": 38.87305216666667, "is_disabled": 0}, {"fusion_lat": 0.0, "lon": -77.01320083333333, "is_reserved": 0, "bike_id": "51f950e42731e0bc1ae8f0d6e78e2ffd", "fusion_lon": 0.0, "rental_uris": {"android": "https://dc.lft.to/lastmile_qr_scan", "ios": "https://dc.lft.to/lastmile_qr_scan"}, "name": "51f950e42731e0bc1ae8f0d6e78e2ffd", "type": "electric_scooter", "lat": 38.90198633333333, "is_disabled": 0}, {"fusion_lat": 0.0, "lon": -77.02219666666667, "is_reserved": 0, "bike_id": "02a50d29734b56d268cbd24da946611a", "fusion_lon": 0.0, "rental_uris": {"android": "https://dc.lft.to/lastmile_qr_scan", "ios": "https://dc.lft.to/lastmile_qr_scan"}, "name": "02a50d29734b56d268cbd24da946611a", "type": "electric_scooter", "lat": 38.879083333333334, "is_disabled": 0}, {"fusion_lat": 0.0, "lon": -77.03180466666667, "is_reserved": 0, "bike_id": "83355ba85c0c7ea8cdd92681a5b494ed", "fusion_lon": 0.0, "rental_uris": {"android": "https://dc.lft.to/lastmile_qr_scan", "ios": "https://dc.lft.to/lastmile_qr_scan"}, "name": "83355ba85c0c7ea8cdd92681a5b494ed", "type": "electric_scooter", "lat": 38.9105085, "is_disabled": 0}, {"fusion_lat": 0.0, "lon": -77.03637616666667, "is_reserved": 0, "bike_id": "6111cccffd071ce6437e0d03dd522390", "fusion_lon": 0.0, "rental_uris": {"android": "https://dc.lft.to/lastmile_qr_scan", "ios": "https://dc.lft.to/lastmile_qr_scan"}, "name": "6111cccffd071ce6437e0d03dd522390", "type": "electric_scooter", "lat": 38.92748, "is_disabled": 0}, {"fusion_lat": 0.0, "lon": -76.99903183333333, "is_reserved": 0, "bike_id": "d89af347c0374d466afc14bbd36dc3ea", "fusion_lon": 0.0, "rental_uris": {"android": "https://dc.lft.to/lastmile_qr_scan", "ios": "https://dc.lft.to/lastmile_qr_scan"}, "name": "d89af347c0374d466afc14bbd36dc3ea", "type": "electric_scooter", "lat": 38.948196, "is_disabled": 0}, {"fusion_lat": 0.0, "lon": -76.99931833333333, "is_reserved": 0, "bike_id": "de28f859c068e653cb4662e6607703fa", "fusion_lon": 0.0, "rental_uris": {"android": "https://dc.lft.to/lastmile_qr_scan", "ios": "https://dc.lft.to/lastmile_qr_scan"}, "name": "de28f859c068e653cb4662e6607703fa", "type": "electric_scooter", "lat": 38.84300066666667, "is_disabled": 0}, {"fusion_lat": 0.0, "lon": -77.0372365, "is_reserved": 0, "bike_id": "e3149ccea7566f8d7acacf9a7f430e1a", "fusion_lon": 0.0, "rental_uris": {"android": "https://dc.lft.to/lastmile_qr_scan", "ios": "https://dc.lft.to/lastmile_qr_scan"}, "name": "e3149ccea7566f8d7acacf9a7f430e1a", "type": "electric_scooter", "lat": 38.91695716666667, "is_disabled": 0}, {"fusion_lat": 0.0, "lon": -77.13893866666666, "is_reserved": 0, "bike_id": "6d8e6d7446abe4ae286d9b773634688c", "fusion_lon": 0.0, "rental_uris": {"android": "https://dc.lft.to/lastmile_qr_scan", "ios": "https://dc.lft.to/lastmile_qr_scan"}, "name": "6d8e6d7446abe4ae286d9b773634688c", "type": "electric_bike", "lat": 38.896810333333335, "is_disabled": 0}, {"fusion_lat": 0.0, "lon": -77.02386316666667, "is_reserved": 0, "bike_id": "c337fddb634ee09d58be28c57a3ca116", "fusion_lon": 0.0, "rental_uris": {"android": "https://dc.lft.to/lastmile_qr_scan", "ios": "https://dc.lft.to/lastmile_qr_scan"}, "name": "c337fddb634ee09d58be28c57a3ca116", "type": "electric_scooter", "lat": 38.91988883333333, "is_disabled": 0}, {"fusion_lat": 0.0, "lon": -77.03179283333333, "is_reserved": 0, "bike_id": "1268886856a3bd555f851e9529628cb3", "fusion_lon": 0.0, "rental_uris": {"android": "https://dc.lft.to/lastmile_qr_scan", "ios": "https://dc.lft.to/lastmile_qr_scan"}, "name": "1268886856a3bd555f851e9529628cb3", "type": "electric_scooter", "lat": 38.919278166666665, "is_disabled": 0}, {"fusion_lat": 0.0, "lon": -77.039535, "is_reserved": 0, "bike_id": "12dba3388203da645b4e3fd669400ddb", "fusion_lon": 0.0, "rental_uris": {"android": "https://dc.lft.to/lastmile_qr_scan", "ios": "https://dc.lft.to/lastmile_qr_scan"}, "name": "12dba3388203da645b4e3fd669400ddb", "type": "electric_scooter", "lat": 38.90008516666666, "is_disabled": 0}, {"fusion_lat": 0.0, "lon": -76.98545, "is_reserved": 0, "bike_id": "8b097a3d5e943e39ed0774539406f502", "fusion_lon": 0.0, "rental_uris": {"android": "https://dc.lft.to/lastmile_qr_scan", "ios": "https://dc.lft.to/lastmile_qr_scan"}, "name": "8b097a3d5e943e39ed0774539406f502", "type": "electric_bike", "lat": 38.88191316666666, "is_disabled": 0}, {"fusion_lat": 0.0, "lon": -77.03852333333333, "is_reserved": 0, "bike_id": "5b3dc53f2c3298c9e408b62937c5a63c", "fusion_lon": 0.0, "rental_uris": {"android": "https://dc.lft.to/lastmile_qr_scan", "ios": "https://dc.lft.to/lastmile_qr_scan"}, "name": "5b3dc53f2c3298c9e408b62937c5a63c", "type": "electric_scooter", "lat": 38.911053, "is_disabled": 0}, {"fusion_lat": 0.0, "lon": -77.11593066666667, "is_reserved": 0, "bike_id": "27113f8ed1726b8537c210219cd5ef45", "fusion_lon": 0.0, "rental_uris": {"android": "https://dc.lft.to/lastmile_qr_scan", "ios": "https://dc.lft.to/lastmile_qr_scan"}, "name": "27113f8ed1726b8537c210219cd5ef45", "type": "electric_bike", "lat": 39.07493866666667, "is_disabled": 0}, {"fusion_lat": 0.0, "lon": -77.01762933333333, "is_reserved": 0, "bike_id": "c8304aa1d5d70ed01a153beac943b9dc", "fusion_lon": 0.0, "rental_uris": {"android": "https://dc.lft.to/lastmile_qr_scan", "ios": "https://dc.lft.to/lastmile_qr_scan"}, "name": "c8304aa1d5d70ed01a153beac943b9dc", "type": "electric_scooter", "lat": 38.876849, "is_disabled": 0}, {"fusion_lat": 0.0, "lon": -77.02974783333333, "is_reserved": 0, "bike_id": "e4ee8eddc89302b8fec19750474aa625", "fusion_lon": 0.0, "rental_uris": {"android": "https://dc.lft.to/lastmile_qr_scan", "ios": "https://dc.lft.to/lastmile_qr_scan"}, "name": "e4ee8eddc89302b8fec19750474aa625", "type": "electric_scooter", "lat": 38.92955383333333, "is_disabled": 0}, {"fusion_lat": 0.0, "lon": -77.006333, "is_reserved": 0, "bike_id": "450ff8031ee549d97f1bdbb6f5c24686", "fusion_lon": 0.0, "rental_uris": {"android": "https://dc.lft.to/lastmile_qr_scan", "ios": "https://dc.lft.to/lastmile_qr_scan"}, "name": "450ff8031ee549d97f1bdbb6f5c24686", "type": "electric_scooter", "lat": 38.9058615, "is_disabled": 0}, {"fusion_lat": 0.0, "lon": -77.03961166666667, "is_reserved": 0, "bike_id": "f20fb95985157a2a809e8c5053994f81", "fusion_lon": 0.0, "rental_uris": {"android": "https://dc.lft.to/lastmile_qr_scan", "ios": "https://dc.lft.to/lastmile_qr_scan"}, "name": "f20fb95985157a2a809e8c5053994f81", "type": "electric_scooter", "lat": 38.89845433333333, "is_disabled": 0}, {"fusion_lat": 0.0, "lon": -76.995538, "is_reserved": 0, "bike_id": "9810a52a7ded1e79d3d730cdb63d3476", "fusion_lon": 0.0, "rental_uris": {"android": "https://dc.lft.to/lastmile_qr_scan", "ios": "https://dc.lft.to/lastmile_qr_scan"}, "name": "9810a52a7ded1e79d3d730cdb63d3476", "type": "electric_scooter", "lat": 38.862612166666665, "is_disabled": 0}, {"fusion_lat": 0.0, "lon": -77.0248265, "is_reserved": 0, "bike_id": "f14754156721138eae53ffd6d5169661", "fusion_lon": 0.0, "rental_uris": {"android": "https://dc.lft.to/lastmile_qr_scan", "ios": "https://dc.lft.to/lastmile_qr_scan"}, "name": "f14754156721138eae53ffd6d5169661", "type": "electric_scooter", "lat": 38.90391833333334, "is_disabled": 0}, {"fusion_lat": 0.0, "lon": -77.02549333333333, "is_reserved": 0, "bike_id": "e6f2e45b2ae152971690a2cade0a4b73", "fusion_lon": 0.0, "rental_uris": {"android": "https://dc.lft.to/lastmile_qr_scan", "ios": "https://dc.lft.to/lastmile_qr_scan"}, "name": "e6f2e45b2ae152971690a2cade0a4b73", "type": "electric_scooter", "lat": 38.9422405, "is_disabled": 0}, {"fusion_lat": 0.0, "lon": -77.02700033333333, "is_reserved": 0, "bike_id": "72e48997e0b3cc3446e224f3b1f58e11", "fusion_lon": 0.0, "rental_uris": {"android": "https://dc.lft.to/lastmile_qr_scan", "ios": "https://dc.lft.to/lastmile_qr_scan"}, "name": "72e48997e0b3cc3446e224f3b1f58e11", "type": "electric_scooter", "lat": 38.908434666666665, "is_disabled": 0}, {"fusion_lat": 0.0, "lon": -77.0314375, "is_reserved": 0, "bike_id": "4c553e633ef42eb8d4d3d13faa05a631", "fusion_lon": 0.0, "rental_uris": {"android": "https://dc.lft.to/lastmile_qr_scan", "ios": "https://dc.lft.to/lastmile_qr_scan"}, "name": "4c553e633ef42eb8d4d3d13faa05a631", "type": "electric_scooter", "lat": 38.92568283333333, "is_disabled": 0}, {"fusion_lat": 0.0, "lon": -77.02616066666667, "is_reserved": 0, "bike_id": "b9548fba1b77500f79815be5f38de7bd", "fusion_lon": 0.0, "rental_uris": {"android": "https://dc.lft.to/lastmile_qr_scan", "ios": "https://dc.lft.to/lastmile_qr_scan"}, "name": "b9548fba1b77500f79815be5f38de7bd", "type": "electric_scooter", "lat": 38.9086045, "is_disabled": 0}, {"fusion_lat": 0.0, "lon": -77.0351375, "is_reserved": 0, "bike_id": "add93bfd414977ecfc6cc67c32e5fc11", "fusion_lon": 0.0, "rental_uris": {"android": "https://dc.lft.to/lastmile_qr_scan", "ios": "https://dc.lft.to/lastmile_qr_scan"}, "name": "add93bfd414977ecfc6cc67c32e5fc11", "type": "electric_scooter", "lat": 38.92156516666667, "is_disabled": 0}, {"fusion_lat": 0.0, "lon": -76.931359, "is_reserved": 0, "bike_id": "fbde713f5b8424b47dc025c7952439a1", "fusion_lon": 0.0, "rental_uris": {"android": "https://dc.lft.to/lastmile_qr_scan", "ios": "https://dc.lft.to/lastmile_qr_scan"}, "name": "fbde713f5b8424b47dc025c7952439a1", "type": "electric_scooter", "lat": 38.876122, "is_disabled": 0}, {"fusion_lat": 0.0, "lon": -77.03185016666667, "is_reserved": 0, "bike_id": "b16b609bcb8601892685a075490936da", "fusion_lon": 0.0, "rental_uris": {"android": "https://dc.lft.to/lastmile_qr_scan", "ios": "https://dc.lft.to/lastmile_qr_scan"}, "name": "b16b609bcb8601892685a075490936da", "type": "electric_scooter", "lat": 38.91096683333333, "is_disabled": 0}, {"fusion_lat": 0.0, "lon": -76.99542766666667, "is_reserved": 0, "bike_id": "96b6a0d7abf2b27c553d37f1c40ed916", "fusion_lon": 0.0, "rental_uris": {"android": "https://dc.lft.to/lastmile_qr_scan", "ios": "https://dc.lft.to/lastmile_qr_scan"}, "name": "96b6a0d7abf2b27c553d37f1c40ed916", "type": "electric_scooter", "lat": 38.92661533333333, "is_disabled": 0}, {"fusion_lat": 0.0, "lon": -77.03914566666667, "is_reserved": 0, "bike_id": "c8ac353abb27f3d14f0622ad164fbfd3", "fusion_lon": 0.0, "rental_uris": {"android": "https://dc.lft.to/lastmile_qr_scan", "ios": "https://dc.lft.to/lastmile_qr_scan"}, "name": "c8ac353abb27f3d14f0622ad164fbfd3", "type": "electric_scooter", "lat": 38.92307866666667, "is_disabled": 0}, {"fusion_lat": 0.0, "lon": -76.980991, "is_reserved": 0, "bike_id": "767dd4cc7b32be523ca0e040ef3e9829", "fusion_lon": 0.0, "rental_uris": {"android": "https://dc.lft.to/lastmile_qr_scan", "ios": "https://dc.lft.to/lastmile_qr_scan"}, "name": "767dd4cc7b32be523ca0e040ef3e9829", "type": "electric_bike", "lat": 38.9535685, "is_disabled": 0}, {"fusion_lat": 0.0, "lon": -77.02392483333334, "is_reserved": 0, "bike_id": "ee0b14645b9414e98798897501b933c1", "fusion_lon": 0.0, "rental_uris": {"android": "https://dc.lft.to/lastmile_qr_scan", "ios": "https://dc.lft.to/lastmile_qr_scan"}, "name": "ee0b14645b9414e98798897501b933c1", "type": "electric_scooter", "lat": 38.92072483333333, "is_disabled": 0}, {"fusion_lat": 0.0, "lon": -77.01040183333333, "is_reserved": 0, "bike_id": "3948c183df8bffaa3c39c475125bba24", "fusion_lon": 0.0, "rental_uris": {"android": "https://dc.lft.to/lastmile_qr_scan", "ios": "https://dc.lft.to/lastmile_qr_scan"}, "name": "3948c183df8bffaa3c39c475125bba24", "type": "electric_scooter", "lat": 38.919102, "is_disabled": 0}, {"fusion_lat": 0.0, "lon": -77.00533433333334, "is_reserved": 0, "bike_id": "b7a2c36c3755d1ba3a643d5568624fb1", "fusion_lon": 0.0, "rental_uris": {"android": "https://dc.lft.to/lastmile_qr_scan", "ios": "https://dc.lft.to/lastmile_qr_scan"}, "name": "b7a2c36c3755d1ba3a643d5568624fb1", "type": "electric_scooter", "lat": 38.87915733333333, "is_disabled": 0}, {"fusion_lat": 0.0, "lon": -77.02379733333333, "is_reserved": 0, "bike_id": "193404d675e2a0d72ec46e8a66be2337", "fusion_lon": 0.0, "rental_uris": {"android": "https://dc.lft.to/lastmile_qr_scan", "ios": "https://dc.lft.to/lastmile_qr_scan"}, "name": "193404d675e2a0d72ec46e8a66be2337", "type": "electric_scooter", "lat": 38.919927333333334, "is_disabled": 0}, {"fusion_lat": 0.0, "lon": -77.02495566666667, "is_reserved": 0, "bike_id": "6f5b3d0375473a31227744ce97fe395a", "fusion_lon": 0.0, "rental_uris": {"android": "https://dc.lft.to/lastmile_qr_scan", "ios": "https://dc.lft.to/lastmile_qr_scan"}, "name": "6f5b3d0375473a31227744ce97fe395a", "type": "electric_scooter", "lat": 38.938635, "is_disabled": 0}, {"fusion_lat": 0.0, "lon": -77.04377733333334, "is_reserved": 0, "bike_id": "d776562385a1db0e22865bae8227b5fd", "fusion_lon": 0.0, "rental_uris": {"android": "https://dc.lft.to/lastmile_qr_scan", "ios": "https://dc.lft.to/lastmile_qr_scan"}, "name": "d776562385a1db0e22865bae8227b5fd", "type": "electric_scooter", "lat": 38.9223195, "is_disabled": 0}, {"fusion_lat": 0.0, "lon": -77.03774883333334, "is_reserved": 0, "bike_id": "78bf960cbbb9acb04826d2ea3fc84082", "fusion_lon": 0.0, "rental_uris": {"android": "https://dc.lft.to/lastmile_qr_scan", "ios": "https://dc.lft.to/lastmile_qr_scan"}, "name": "78bf960cbbb9acb04826d2ea3fc84082", "type": "electric_scooter", "lat": 38.91693216666667, "is_disabled": 0}, {"fusion_lat": 0.0, "lon": -76.987453, "is_reserved": 0, "bike_id": "96590008e2b56633bf5b433e0b7c609c", "fusion_lon": 0.0, "rental_uris": {"android": "https://dc.lft.to/lastmile_qr_scan", "ios": "https://dc.lft.to/lastmile_qr_scan"}, "name": "96590008e2b56633bf5b433e0b7c609c", "type": "electric_scooter", "lat": 38.886109833333336, "is_disabled": 0}, {"fusion_lat": 0.0, "lon": -77.04844283333334, "is_reserved": 0, "bike_id": "27a99659f989066f6b286d81480943c5", "fusion_lon": 0.0, "rental_uris": {"android": "https://dc.lft.to/lastmile_qr_scan", "ios": "https://dc.lft.to/lastmile_qr_scan"}, "name": "27a99659f989066f6b286d81480943c5", "type": "electric_scooter", "lat": 38.919647833333336, "is_disabled": 0}, {"fusion_lat": 0.0, "lon": -77.0195075, "is_reserved": 0, "bike_id": "4fc43ed43a55f43a0e5d3d2910e3d246", "fusion_lon": 0.0, "rental_uris": {"android": "https://dc.lft.to/lastmile_qr_scan", "ios": "https://dc.lft.to/lastmile_qr_scan"}, "name": "4fc43ed43a55f43a0e5d3d2910e3d246", "type": "electric_scooter", "lat": 38.924206166666664, "is_disabled": 0}, {"fusion_lat": 0.0, "lon": -77.03780333333333, "is_reserved": 0, "bike_id": "a70ab5cbe993a77d9d2e14156f0e1246", "fusion_lon": 0.0, "rental_uris": {"android": "https://dc.lft.to/lastmile_qr_scan", "ios": "https://dc.lft.to/lastmile_qr_scan"}, "name": "a70ab5cbe993a77d9d2e14156f0e1246", "type": "electric_scooter", "lat": 38.916908666666664, "is_disabled": 0}, {"fusion_lat": 0.0, "lon": -76.98888266666667, "is_reserved": 0, "bike_id": "c61337c712afa8fd96178f2c58a1cf0b", "fusion_lon": 0.0, "rental_uris": {"android": "https://dc.lft.to/lastmile_qr_scan", "ios": "https://dc.lft.to/lastmile_qr_scan"}, "name": "c61337c712afa8fd96178f2c58a1cf0b", "type": "electric_scooter", "lat": 38.86662616666667, "is_disabled": 0}, {"fusion_lat": 0.0, "lon": -77.03989483333334, "is_reserved": 0, "bike_id": "cb81dc3e4cc28a7391c14829356e1476", "fusion_lon": 0.0, "rental_uris": {"android": "https://dc.lft.to/lastmile_qr_scan", "ios": "https://dc.lft.to/lastmile_qr_scan"}, "name": "cb81dc3e4cc28a7391c14829356e1476", "type": "electric_scooter", "lat": 38.892193, "is_disabled": 0}, {"fusion_lat": 0.0, "lon": -77.01997916666667, "is_reserved": 0, "bike_id": "4d5a903fb6ecb605c809b1464efb2cc8", "fusion_lon": 0.0, "rental_uris": {"android": "https://dc.lft.to/lastmile_qr_scan", "ios": "https://dc.lft.to/lastmile_qr_scan"}, "name": "4d5a903fb6ecb605c809b1464efb2cc8", "type": "electric_scooter", "lat": 38.87587116666667, "is_disabled": 0}, {"fusion_lat": 0.0, "lon": -77.0252975, "is_reserved": 0, "bike_id": "13ece9211b0926f24794418521bd2793", "fusion_lon": 0.0, "rental_uris": {"android": "https://dc.lft.to/lastmile_qr_scan", "ios": "https://dc.lft.to/lastmile_qr_scan"}, "name": "13ece9211b0926f24794418521bd2793", "type": "electric_scooter", "lat": 38.9425715, "is_disabled": 0}, {"fusion_lat": 0.0, "lon": -77.02970516666667, "is_reserved": 0, "bike_id": "fe2816ef6a3a1e34c3e500dc76880a4c", "fusion_lon": 0.0, "rental_uris": {"android": "https://dc.lft.to/lastmile_qr_scan", "ios": "https://dc.lft.to/lastmile_qr_scan"}, "name": "fe2816ef6a3a1e34c3e500dc76880a4c", "type": "electric_scooter", "lat": 38.907261, "is_disabled": 0},