{"data": {"bikes": [{"bike_id": "0cbdbbf2b5922e16c8997a90caed213f", "name": "0cbdbbf2b5922e16c8997a90caed213f", "lat": 38.9065945, "fusion_lat": 0.0, "type": "electric_scooter", "lon": -76.97949966666667, "is_disabled": 0, "fusion_lon": 0.0, "rental_uris": {"android": "https://dc.lft.to/lastmile_qr_scan", "ios": "https://dc.lft.to/lastmile_qr_scan"}, "is_reserved": 0}, {"bike_id": "9bd254f5e4a16852761e61c02569ce10", "name": "9bd254f5e4a16852761e61c02569ce10", "lat": 38.92377283333333, "fusion_lat": 0.0, "type": "electric_scooter", "lon": -77.01918016666667, "is_disabled": 0, "fusion_lon": 0.0, "rental_uris": {"android": "https://dc.lft.to/lastmile_qr_scan", "ios": "https://dc.lft.to/lastmile_qr_scan"}, "is_reserved": 0}, {"bike_id": "04e033109978c007553aba66e2b2de63", "name": "04e033109978c007553aba66e2b2de63", "lat": 38.90524583333333, "fusion_lat": 0.0, "type": "electric_scooter", "lon": -76.983987, "is_disabled": 0, "fusion_lon": 0.0, "rental_uris": {"android": "https://dc.lft.to/lastmile_qr_scan", "ios": "https://dc.lft.to/lastmile_qr_scan"}, "is_reserved": 0}, {"bike_id": "90f3216fb79dab3f14d410e230dc5fe6", "name": "90f3216fb79dab3f14d410e230dc5fe6", "lat": 38.916995666666665, "fusion_lat": 0.0, "type": "electric_scooter", "lon": -77.0316405, "is_disabled": 0, "fusion_lon": 0.0, "rental_uris": {"android": "https://dc.lft.to/lastmile_qr_scan", "ios": "https://dc.lft.to/lastmile_qr_scan"}, "is_reserved": 0}, {"bike_id": "f6f3235391d28d441da229381a7f8826", "name": "f6f3235391d28d441da229381a7f8826", "lat": 38.907366833333334, "fusion_lat": 0.0, "type": "electric_bike", "lon": -77.03208, "is_disabled": 0, "fusion_lon": 0.0, "rental_uris": {"android": "https://dc.lft.to/lastmile_qr_scan", "ios": "https://dc.lft.to/lastmile_qr_scan"}, "is_reserved": 0}, {"bike_id": "a755cad5c2cdc8eec0f2cc48ef0a2577", "name": "a755cad5c2cdc8eec0f2cc48ef0a2577", "lat": 38.91597383333333, "fusion_lat": 0.0, "type": "electric_scooter", "lon": -77.04535233333333, "is_disabled": 0, "fusion_lon": 0.0, "rental_uris": {"android": "https://dc.lft.to/lastmile_qr_scan", "ios": "https://dc.lft.to/lastmile_qr_scan"}, "is_reserved": 0}, {"bike_id": "07e100bf990346ae5b8b37ad2de5ccee", "name": "07e100bf990346ae5b8b37ad2de5ccee", "lat": 38.90873933333334, "fusion_lat": 0.0, "type": "electric_scooter", "lon": -77.06766, "is_disabled": 0, "fusion_lon": 0.0, "rental_uris": {"android": "https://dc.lft.to/lastmile_qr_scan", "ios": "https://dc.lft.to/lastmile_qr_scan"}, "is_reserved": 0}, {"bike_id": "329390b1799d27bc311ec2de7f5b83a7", "name": "329390b1799d27bc311ec2de7f5b83a7", "lat": 38.897399, "fusion_lat": 0.0, "type": "electric_scooter", "lon": -77.012765, "is_disabled": 0, "fusion_lon": 0.0, "rental_uris": {"android": "https://dc.lft.to/lastmile_qr_scan", "ios": "https://dc.lft.to/lastmile_qr_scan"}, "is_reserved": 0}, {"bike_id": "a7758514ef4bcdc54257e53d27a89008", "name": "a7758514ef4bcdc54257e53d27a89008", "lat": 38.9266845, "fusion_lat": 0.0, "type": "electric_scooter", "lon": -77.02755766666667, "is_disabled": 0, "fusion_lon": 0.0, "rental_uris": {"android": "https://dc.lft.to/lastmile_qr_scan", "ios": "https://dc.lft.to/lastmile_qr_scan"}, "is_reserved": 0}, {"bike_id": "21ff3cd16bbb8153faac9128e41cdbb5", "name": "21ff3cd16bbb8153faac9128e41cdbb5", "lat": 38.90443883333333, "fusion_lat": 0.0, "type": "electric_scooter", "lon": -77.0514565, "is_disabled": 0, "fusion_lon": 0.0, "rental_uris": {"android": "https://dc.lft.to/lastmile_qr_scan", "ios": "https://dc.lft.to/lastmile_qr_scan"}, "is_reserved": 0}, {"bike_id": "aeb832445e6c26bffbb35550e237ad8e", "name": "aeb832445e6c26bffbb35550e237ad8e", "lat": 38.91567966666667, "fusion_lat": 0.0, "type": "electric_scooter", "lon": -77.03134866666667, "is_disabled": 0, "fusion_lon": 0.0, "rental_uris": {"android": "https://dc.lft.to/lastmile_qr_scan", "ios": "https://dc.lft.to/lastmile_qr_scan"}, "is_reserved": 0}, {"bike_id": "7397096779abed7f7cd61b687f60ad79", "name": "7397096779abed7f7cd61b687f60ad79", "lat": 38.89210033333333, "fusion_lat": 0.0, "type": "electric_scooter", "lon": -76.92922783333333, "is_disabled": 0, "fusion_lon": 0.0, "rental_uris": {"android": "https://dc.lft.to/lastmile_qr_scan", "ios": "https://dc.lft.to/lastmile_qr_scan"}, "is_reserved": 0}, {"bike_id": "d601868e46505726fd1cc6e6a7fadfba", "name": "d601868e46505726fd1cc6e6a7fadfba", "lat": 38.897303, "fusion_lat": 0.0, "type": "electric_scooter", "lon": -77.05519983333333, "is_disabled": 0, "fusion_lon": 0.0, "rental_uris": {"android": "https://dc.lft.to/lastmile_qr_scan", "ios": "https://dc.lft.to/lastmile_qr_scan"}, "is_reserved": 0}, {"bike_id": "c4cc66396fa42a69a46037ab065aa95b", "name": "c4cc66396fa42a69a46037ab065aa95b", "lat": 38.95768483333333, "fusion_lat": 0.0, "type": "electric_bike", "lon": -76.96759183333333, "is_disabled": 0, "fusion_lon": 0.0, "rental_uris": {"android": "https://dc.lft.to/lastmile_qr_scan", "ios": "https://dc.lft.to/lastmile_qr_scan"}, "is_reserved": 0}, {"bike_id": "19df1f732fe5923039d09b0c42233f7c", "name": "19df1f732fe5923039d09b0c42233f7c", "lat": 38.91177916666667, "fusion_lat": 0.0, "type": "electric_scooter", "lon": -77.04446766666666, "is_disabled": 0, "fusion_lon": 0.0, "rental_uris": {"android": "https://dc.lft.to/lastmile_qr_scan", "ios": "https://dc.lft.to/lastmile_qr_scan"}, "is_reserved": 0}, {"bike_id": "31781d8f30b3c60dc6597d6c06f1adb4", "name": "31781d8f30b3c60dc6597d6c06f1adb4", "lat": 38.915833166666665, "fusion_lat": 0.0, "type": "electric_bike", "lon": -77.07556116666666, "is_disabled": 0, "fusion_lon": 0.0, "rental_uris": {"android": "https://dc.lft.to/lastmile_qr_scan", "ios": "https://dc.lft.to/lastmile_qr_scan"}, "is_reserved": 0}, {"bike_id": "5709e02045bfdef22fa4468db08e21cd", "name": "5709e02045bfdef22fa4468db08e21cd", "lat": 38.87275016666667, "fusion_lat": 0.0, "type": "electric_scooter", "lon": -77.01700733333334, "is_disabled": 0, "fusion_lon": 0.0, "rental_uris": {"android": "https://dc.lft.to/lastmile_qr_scan", "ios": "https://dc.lft.to/lastmile_qr_scan"}, "is_reserved": 0}, {"bike_id": "6f50445b58161901eb058d1b8f2c2873", "name": "6f50445b58161901eb058d1b8f2c2873", "lat": 38.914067833333334, "fusion_lat": 0.0, "type": "electric_scooter", "lon": -77.032282, "is_disabled": 0, "fusion_lon": 0.0, "rental_uris": {"android": "https://dc.lft.to/lastmile_qr_scan", "ios": "https://dc.lft.to/lastmile_qr_scan"}, "is_reserved": 0}, {"bike_id": "eb45d83c1ee37875efe4e044790ea576", "name": "eb45d83c1ee37875efe4e044790ea576", "lat": 38.900512666666664, "fusion_lat": 0.0, "type": "electric_bike", "lon": -76.97791566666666, "is_disabled": 0, "fusion_lon": 0.0, "rental_uris": {"android": "https://dc.lft.to/lastmile_qr_scan", "ios": "https://dc.lft.to/lastmile_qr_scan"}, "is_reserved": 0}, {"bike_id": "03bbcd00492bacacda1f297ab64922f7", "name": "03bbcd00492bacacda1f297ab64922f7", "lat": 38.923273, "fusion_lat": 0.0, "type": "electric_scooter", "lon": -77.0401875, "is_disabled": 0, "fusion_lon": 0.0, "rental_uris": {"android": "https://dc.lft.to/lastmile_qr_scan", "ios": "https://dc.lft.to/lastmile_qr_scan"}, "is_reserved": 0}, {"bike_id": "9c6410dc248a3211525d1141021b42c3", "name": "9c6410dc248a3211525d1141021b42c3", "lat": 38.9236675, "fusion_lat": 0.0, "type": "electric_scooter", "lon": -77.01915233333334, "is_disabled": 0, "fusion_lon": 0.0, "rental_uris": {"android": "https://dc.lft.to/lastmile_qr_scan", "ios": "https://dc.lft.to/lastmile_qr_scan"}, "is_reserved": 0}, {"bike_id": "e4972a8a9eed984b124292e82e1c86a2", "name": "e4972a8a9eed984b124292e82e1c86a2", "lat": 38.936105, "fusion_lat": 0.0, "type": "electric_scooter", "lon": -77.05870283333333, "is_disabled": 0, "fusion_lon": 0.0, "rental_uris": {"android": "https://dc.lft.to/lastmile_qr_scan", "ios": "https://dc.lft.to/lastmile_qr_scan"}, "is_reserved": 0}, {"bike_id": "5f71442e66153e8ccae3bbccf8cd2ef5", "name": "5f71442e66153e8ccae3bbccf8cd2ef5", "lat": 38.928004666666666, "fusion_lat": 0.0, "type": "electric_scooter", "lon": -77.02598866666666, "is_disabled": 0, "fusion_lon": 0.0, "rental_uris": {"android": "https://dc.lft.to/lastmile_qr_scan", "ios": "https://dc.lft.to/lastmile_qr_scan"}, "is_reserved": 0}, {"bike_id": "e292e67699354d73363545425c4d6336", "name": "e292e67699354d73363545425c4d6336", "lat": 38.914152, "fusion_lat": 0.0, "type": "electric_scooter", "lon": -77.03998416666667, "is_disabled": 0, "fusion_lon": 0.0, "rental_uris": {"android": "https://dc.lft.to/lastmile_qr_scan", "ios": "https://dc.lft.to/lastmile_qr_scan"}, "is_reserved": 0}, {"bike_id": "39d145a42d54b30fc446ffecb66cb319", "name": "39d145a42d54b30fc446ffecb66cb319", "lat": 38.87152866666667, "fusion_lat": 0.0, "type": "electric_scooter", "lon": -77.01309233333333, "is_disabled": 0, "fusion_lon": 0.0, "rental_uris": {"android": "https://dc.lft.to/lastmile_qr_scan", "ios": "https://dc.lft.to/lastmile_qr_scan"}, "is_reserved": 0}, {"bike_id": "888011b64c7cf25e949ad195fcf3e986", "name": "888011b64c7cf25e949ad195fcf3e986", "lat": 38.880403, "fusion_lat": 0.0, "type": "electric_bike", "lon": -77.0251245, "is_disabled": 0, "fusion_lon": 0.0, "rental_uris": {"android": "https://dc.lft.to/lastmile_qr_scan", "ios": "https://dc.lft.to/lastmile_qr_scan"}, "is_reserved": 0}, {"bike_id": "ce61b703b158261457a6c8928ffdc937", "name": "ce61b703b158261457a6c8928ffdc937", "lat": 38.9131235, "fusion_lat": 0.0, "type": "electric_scooter", "lon": -77.03216366666666, "is_disabled": 0, "fusion_lon": 0.0, "rental_uris": {"android": "https://dc.lft.to/lastmile_qr_scan", "ios": "https://dc.lft.to/lastmile_qr_scan"}, "is_reserved": 0}, {"bike_id": "42d7a14c1d56cf0d1732eac29fde60e1", "name": "42d7a14c1d56cf0d1732eac29fde60e1", "lat": 38.920571, "fusion_lat": 0.0, "type": "electric_scooter", "lon": -77.03221916666666, "is_disabled": 0, "fusion_lon": 0.0, "rental_uris": {"android": "https://dc.lft.to/lastmile_qr_scan", "ios": "https://dc.lft.to/lastmile_qr_scan"}, "is_reserved": 0}, {"bike_id": "42852533640d81b7fecd52aaa130ac9f", "name": "42852533640d81b7fecd52aaa130ac9f", "lat": 38.8757945, "fusion_lat": 0.0, "type": "electric_scooter", "lon": -77.00583233333333, "is_disabled": 0, "fusion_lon": 0.0, "rental_uris": {"android": "https://dc.lft.to/lastmile_qr_scan", "ios": "https://dc.lft.to/lastmile_qr_scan"}, "is_reserved": 0}, {"bike_id": "cffe81bf883825a4ef4ab95be4f9ab6d", "name": "cffe81bf883825a4ef4ab95be4f9ab6d", "lat": 38.92976, "fusion_lat": 0.0, "type": "electric_scooter", "lon": -77.02792416666666, "is_disabled": 0, "fusion_lon": 0.0, "rental_uris": {"android": "https://dc.lft.to/lastmile_qr_scan", "ios": "https://dc.lft.to/lastmile_qr_scan"}, "is_reserved": 0}, {"bike_id": "23cb1ed46d2f50a71fa5edef957e9ee6", "name": "23cb1ed46d2f50a71fa5edef957e9ee6", "lat": 39.03566383333333, "fusion_lat": 0.0, "type": "electric_bike", "lon": -77.039152, "is_disabled": 0, "fusion_lon": 0.0, "rental_uris": {"android": "https://dc.lft.to/lastmile_qr_scan", "ios": "https://dc.lft.to/lastmile_qr_scan"}, "is_reserved": 0}, {"bike_id": "045a03217904a4a50de0b40fa4e8afcd", "name": "045a03217904a4a50de0b40fa4e8afcd", "lat": 38.94564, "fusion_lat": 0.0, "type": "electric_bike", "lon": -76.958416, "is_disabled": 0, "fusion_lon": 0.0, "rental_uris": {"android": "https://dc.lft.to/lastmile_qr_scan", "ios": "https://dc.lft.to/lastmile_qr_scan"}, "is_reserved": 0}, {"bike_id": "9309217d44bceefb578268ae49271f37", "name": "9309217d44bceefb578268ae49271f37", "lat": 38.93240333333333, "fusion_lat": 0.0, "type": "electric_scooter", "lon": -76.99746916666666, "is_disabled": 0, "fusion_lon": 0.0, "rental_uris": {"android": "https://dc.lft.to/lastmile_qr_scan", "ios": "https://dc.lft.to/lastmile_qr_scan"}, "is_reserved": 0}, {"bike_id": "f132f5ce34703eeecbc8bb2855ad9e51", "name": "f132f5ce34703eeecbc8bb2855ad9e51", "lat": 38.92133066666667, "fusion_lat": 0.0, "type": "electric_scooter", "lon": -77.01897816666667, "is_disabled": 0, "fusion_lon": 0.0, "rental_uris": {"android": "https://dc.lft.to/lastmile_qr_scan", "ios": "https://dc.lft.to/lastmile_qr_scan"}, "is_reserved": 0}, {"bike_id": "99e1fe198e793160e405a069d1a65425", "name": "99e1fe198e793160e405a069d1a65425", "lat": 38.958725333333334, "fusion_lat": 0.0, "type": "electric_bike", "lon": -76.970495, "is_disabled": 0, "fusion_lon": 0.0, "rental_uris": {"android": "https://dc.lft.to/lastmile_qr_scan", "ios": "https://dc.lft.to/lastmile_qr_scan"}, "is_reserved": 0}, {"bike_id": "56456d858173cc2a1aeb42b8376d3f85", "name": "56456d858173cc2a1aeb42b8376d3f85", "lat": 38.89941366666667, "fusion_lat": 0.0, "type": "electric_scooter", "lon": -76.9464715, "is_disabled": 0, "fusion_lon": 0.0, "rental_uris": {"android": "https://dc.lft.to/lastmile_qr_scan", "ios": "https://dc.lft.to/lastmile_qr_scan"}, "is_reserved": 0}, {"bike_id": "f210275a9d574bb4adcb16f73280db87", "name": "f210275a9d574bb4adcb16f73280db87", "lat": 38.90722733333333, "fusion_lat": 0.0, "type": "electric_scooter", "lon": -77.00803566666667, "is_disabled": 0, "fusion_lon": 0.0, "rental_uris": {"android": "https://dc.lft.to/lastmile_qr_scan", "ios": "https://dc.lft.to/lastmile_qr_scan"}, "is_reserved": 0}, {"bike_id": "ebcc417496280b9d8cb2855a8981bb11", "name": "ebcc417496280b9d8cb2855a8981bb11", "lat": 38.8933615, "fusion_lat": 0.0, "type": "electric_scooter", "lon": -77.03176733333333, "is_disabled": 0, "fusion_lon": 0.0, "rental_uris": {"android": "https://dc.lft.to/lastmile_qr_scan", "ios": "https://dc.lft.to/lastmile_qr_scan"}, "is_reserved": 0}, {"bike_id": "2c731438441a4590d4cf86963583c132", "name": "2c731438441a4590d4cf86963583c132", "lat": 38.900724, "fusion_lat": 0.0, "type": "electric_scooter", "lon": -77.03370616666666, "is_disabled": 0, "fusion_lon": 0.0, "rental_uris": {"android": "https://dc.lft.to/lastmile_qr_scan", "ios": "https://dc.lft.to/lastmile_qr_scan"}, "is_reserved": 0}, {"bike_id": "84c9bfa9afc09accb43c0dc9e751ae63", "name": "84c9bfa9afc09accb43c0dc9e751ae63", "lat": 38.896207, "fusion_lat": 0.0, "type": "electric_scooter", "lon": -76.99731466666667, "is_disabled": 0, "fusion_lon": 0.0, "rental_uris": {"android": "https://dc.lft.to/lastmile_qr_scan", "ios": "https://dc.lft.to/lastmile_qr_scan"}, "is_reserved": 0}, {"bike_id": "f82363c1b4f711cab14f3abe1fcc2c56", "name": "f82363c1b4f711cab14f3abe1fcc2c56", "lat": 38.91679833333333, "fusion_lat": 0.0, "type": "electric_scooter", "lon": -77.02713916666667, "is_disabled": 0, "fusion_lon": 0.0, "rental_uris": {"android": "https://dc.lft.to/lastmile_qr_scan", "ios": "https://dc.lft.to/lastmile_qr_scan"}, "is_reserved": 0}, {"bike_id": "a3c155b90f4e61fd6dbcb90a91debbdb", "name": "a3c155b90f4e61fd6dbcb90a91debbdb", "lat": 38.915319833333335, "fusion_lat": 0.0, "type": "electric_scooter", "lon": -77.02188133333334, "is_disabled": 0, "fusion_lon": 0.0, "rental_uris": {"android": "https://dc.lft.to/lastmile_qr_scan", "ios": "https://dc.lft.to/lastmile_qr_scan"}, "is_reserved": 0}, {"bike_id": "3e93f9801b6cdfdf32bd0820c1ffc1e9", "name": "3e93f9801b6cdfdf32bd0820c1ffc1e9", "lat": 38.922358833333334, "fusion_lat": 0.0, "type": "electric_scooter", "lon": -77.03748016666667, "is_disabled": 0, "fusion_lon": 0.0, "rental_uris": {"android": "https://dc.lft.to/lastmile_qr_scan", "ios": "https://dc.lft.to/lastmile_qr_scan"}, "is_reserved": 0}, {"bike_id": "df3f1d5e3f24b5496ebe4352764af3ce", "name": "df3f1d5e3f24b5496ebe4352764af3ce", "lat": 38.908611666666665, "fusion_lat": 0.0, "type": "electric_scooter", "lon": -77.03185816666667, "is_disabled": 0, "fusion_lon": 0.0, "rental_uris": {"android": "https://dc.lft.to/lastmile_qr_scan", "ios": "https://dc.lft.to/lastmile_qr_scan"}, "is_reserved": 0}, {"bike_id": "a14e7d6a1ca5a41fb953581019b058f9", "name": "a14e7d6a1ca5a41fb953581019b058f9", "lat": 38.902642, "fusion_lat": 0.0, "type": "electric_scooter", "lon": -77.01767333333333, "is_disabled": 0, "fusion_lon": 0.0, "rental_uris": {"android": "https://dc.lft.to/lastmile_qr_scan", "ios": "https://dc.lft.to/lastmile_qr_scan"}, "is_reserved": 0}, {"bike_id": "e402ebf6d38c7baa6a5ec20e2844e63a", "name": "e402ebf6d38c7baa6a5ec20e2844e63a", "lat": 38.975221, "fusion_lat": 0.0, "type": "electric_scooter", "lon": -77.01742416666667, "is_disabled": 0, "fusion_lon": 0.0, "rental_uris": {"android": "https://dc.lft.to/lastmile_qr_scan", "ios": "https://dc.lft.to/lastmile_qr_scan"}, "is_reserved": 0}, {"bike_id": "3a16037d346e2b05c852349bf9c4c5d5", "name": "3a16037d346e2b05c852349bf9c4c5d5", "lat": 38.90242966666667, "fusion_lat": 0.0, "type": "electric_scooter", "lon": -77.02816283333334, "is_disabled": 0, "fusion_lon": 0.0, "rental_uris": {"android": "https://dc.lft.to/lastmile_qr_scan", "ios": "https://dc.lft.to/lastmile_qr_scan"}, "is_reserved": 0}, {"bike_id": "43f2e96faa9dc4932f9b34565a3bb1bf", "name": "43f2e96faa9dc4932f9b34565a3bb1bf", "lat": 38.90252566666667, "fusion_lat": 0.0, "type": "electric_scooter", "lon": -77.03758116666667, "is_disabled": 0, "fusion_lon": 0.0, "rental_uris": {"android": "https://dc.lft.to/lastmile_qr_scan", "ios": "https://dc.lft.to/lastmile_qr_scan"}, "is_reserved": 0}, {"bike_id": "a925d680a62c5d086afa5c83c9840622", "name": "a925d680a62c5d086afa5c83c9840622", "lat": 38.91424716666667, "fusion_lat": 0.0, "type": "electric_scooter", "lon": -77.01806766666667, "is_disabled": 0, "fusion_lon": 0.0, "rental_uris": {"android": "https://dc.lft.to/lastmile_qr_scan", "ios": "https://dc.lft.to/lastmile_qr_scan"}, "is_reserved": 0}, {"bike_id": "f664db94ecb717a2480e016e663ca06c", "name": "f664db94ecb717a2480e016e663ca06c", "lat": 38.90347516666667, "fusion_lat": 0.0, "type": "electric_scooter", "lon": -76.98619316666667, "is_disabled": 0, "fusion_lon": 0.0, "rental_uris": {"android": "https://dc.lft.to/lastmile_qr_scan", "ios": "https://dc.lft.to/lastmile_qr_scan"}, "is_reserved": 0}, {"bike_id": "a8d8b06a66f6128c5fa2d34ccae51889", "name": "a8d8b06a66f6128c5fa2d34ccae51889", "lat": 38.909805666666664, "fusion_lat": 0.0, "type": "electric_scooter", "lon": -77.03177616666666, "is_disabled": 0, "fusion_lon": 0.0, "rental_uris": {"android": "https://dc.lft.to/lastmile_qr_scan", "ios": "https://dc.lft.to/lastmile_qr_scan"}, "is_reserved": 0}, {"bike_id": "d861640da25779fbf81607189e42ed11", "name": "d861640da25779fbf81607189e42ed11", "lat": 38.90672716666667, "fusion_lat": 0.0, "type": "electric_scooter", "lon": -76.980297, "is_disabled": 0, "fusion_lon": 0.0, "rental_uris": {"android": "https://dc.lft.to/lastmile_qr_scan", "ios": "https://dc.lft.to/lastmile_qr_scan"}, "is_reserved": 0}, {"bike_id": "08d3238d2cbbb3fcadad059682fbd3db", "name": "08d3238d2cbbb3fcadad059682fbd3db", "lat": 38.9369505, "fusion_lat": 0.0, "type": "electric_scooter", "lon": -77.02714016666667, "is_disabled": 0, "fusion_lon": 0.0, "rental_uris": {"android": "https://dc.lft.to/lastmile_qr_scan", "ios": "https://dc.lft.to/lastmile_qr_scan"}, "is_reserved": 0}, {"bike_id": "c7628ac9eb3c5e52050156ee9b20ba8a", "name": "c7628ac9eb3c5e52050156ee9b20ba8a", "lat": 38.871630333333336, "fusion_lat": 0.0, "type": "electric_scooter", "lon": -77.01351983333333, "is_disabled": 0, "fusion_lon": 0.0, "rental_uris": {"android": "https://dc.lft.to/lastmile_qr_scan", "ios": "https://dc.lft.to/lastmile_qr_scan"}, "is_reserved": 0}, {"bike_id": "28229733b511fac267894ec8ccd23541", "name": "28229733b511fac267894ec8ccd23541", "lat": 38.91389383333333, "fusion_lat": 0.0, "type": "electric_scooter", "lon": -77.03209616666666, "is_disabled": 0, "fusion_lon": 0.0, "rental_uris": {"android": "https://dc.lft.to/lastmile_qr_scan", "ios": "https://dc.lft.to/lastmile_qr_scan"}, "is_reserved": 0}, {"bike_id": "6964bdbfec862b4c7feae5114f98fcfc", "name": "6964bdbfec862b4c7feae5114f98fcfc", "lat": 38.91860616666666, "fusion_lat": 0.0, "type": "electric_scooter", "lon": -77.04047316666667, "is_disabled": 0, "fusion_lon": 0.0, "rental_uris": {"android": "https://dc.lft.to/lastmile_qr_scan", "ios": "https://dc.lft.to/lastmile_qr_scan"}, "is_reserved": 0}, {"bike_id": "b59ab17b3ce8cf97088a30eaac4be233", "name": "b59ab17b3ce8cf97088a30eaac4be233", "lat": 38.898394333333336, "fusion_lat": 0.0, "type": "electric_scooter", "lon": -77.03306116666667, "is_disabled": 0, "fusion_lon": 0.0, "rental_uris": {"android": "https://dc.lft.to/lastmile_qr_scan", "ios": "https://dc.lft.to/lastmile_qr_scan"}, "is_reserved": 0}, {"bike_id": "ccdb653a4ff80d755535207a8585265b", "name": "ccdb653a4ff80d755535207a8585265b", "lat": 38.911263166666664, "fusion_lat": 0.0, "type": "electric_scooter", "lon": -77.021981, "is_disabled": 0, "fusion_lon": 0.0, "rental_uris": {"android": "https://dc.lft.to/lastmile_qr_scan", "ios": "https://dc.lft.to/lastmile_qr_scan"}, "is_reserved": 0}, {"bike_id": "2503b5e6d3125d4e59b851b6b1314a3b", "name": "2503b5e6d3125d4e59b851b6b1314a3b", "lat": 38.92418966666666, "fusion_lat": 0.0, "type": "electric_scooter", "lon": -77.0455385, "is_disabled": 0, "fusion_lon": 0.0, "rental_uris": {"android": "https://dc.lft.to/lastmile_qr_scan", "ios": "https://dc.lft.to/lastmile_qr_scan"}, "is_reserved": 0}, {"bike_id": "a3c0e46e19690dbedc1fbd4542fe0b7e", "name": "a3c0e46e19690dbedc1fbd4542fe0b7e", "lat": 38.90027583333333, "fusion_lat": 0.0, "type": "electric_scooter", "lon": -77.024244, "is_disabled": 0, "fusion_lon": 0.0, "rental_uris": {"android": "https://dc.lft.to/lastmile_qr_scan", "ios": "https://dc.lft.to/lastmile_qr_scan"}, "is_reserved": 0}, {"bike_id": "fb0a354e71091d6385e0d4fa30dd0e03", "name": "fb0a354e71091d6385e0d4fa30dd0e03", "lat": 38.8985475, "fusion_lat": 0.0, "type": "electric_scooter", "lon": -76.92758383333333, "is_disabled": 0, "fusion_lon": 0.0, "rental_uris": {"android": "https://dc.lft.to/lastmile_qr_scan", "ios": "https://dc.lft.to/lastmile_qr_scan"}, "is_reserved": 0}, {"bike_id": "355b1741ea342244b6a96baad624faa1", "name": "355b1741ea342244b6a96baad624faa1", "lat": 38.917025833333334, "fusion_lat": 0.0, "type": "electric_scooter", "lon": -77.02825383333334, "is_disabled": 0, "fusion_lon": 0.0, "rental_uris": {"android": "https://dc.lft.to/lastmile_qr_scan", "ios": "https://dc.lft.to/lastmile_qr_scan"}, "is_reserved": 0}, {"bike_id": "b0657c6926330b0ec266e1bdc1d540b0", "name": "b0657c6926330b0ec266e1bdc1d540b0", "lat": 38.944435166666665, "fusion_lat": 0.0, "type": "electric_scooter", "lon": -77.02912566666667, "is_disabled": 0, "fusion_lon": 0.0, "rental_uris": {"android": "https://dc.lft.to/lastmile_qr_scan", "ios": "https://dc.lft.to/lastmile_qr_scan"}, "is_reserved": 0}, {"bike_id": "08daff4fee598556568961f83bae1fbb", "name": "08daff4fee598556568961f83bae1fbb", "lat": 38.91715283333333, "fusion_lat": 0.0, "type": "electric_scooter", "lon": -77.0372445, "is_disabled": 0, "fusion_lon": 0.0, "rental_uris": {"android": "https://dc.lft.to/lastmile_qr_scan", "ios": "https://dc.lft.to/lastmile_qr_scan"}, "is_reserved": 0}, {"bike_id": "a89cc4c399e419e114ba23bfb40c8894", "name": "a89cc4c399e419e114ba23bfb40c8894", "lat": 38.90161666666667, "fusion_lat": 0.0, "type": "electric_scooter", "lon": -77.02860416666667, "is_disabled": 0, "fusion_lon": 0.0, "rental_uris": {"android": "https://dc.lft.to/lastmile_qr_scan", "ios": "https://dc.lft.to/lastmile_qr_scan"}, "is_reserved": 0}, {"bike_id": "23b18e1317c0f6361f6fc510b227f03e", "name": "23b18e1317c0f6361f6fc510b227f03e", "lat": 38.914104333333334, "fusion_lat": 0.0, "type": "electric_scooter", "lon": -77.03214633333333, "is_disabled": 0, "fusion_lon": 0.0, "rental_uris": {"android": "https://dc.lft.to/lastmile_qr_scan", "ios": "https://dc.lft.to/lastmile_qr_scan"}, "is_reserved": 0}, {"bike_id": "17490c209b3a20a673f5b605d6b5f8ff", "name": "17490c209b3a20a673f5b605d6b5f8ff", "lat": 38.948201833333336, "fusion_lat": 0.0, "type": "electric_scooter", "lon": -77.02614233333334, "is_disabled": 0, "fusion_lon": 0.0, "rental_uris": {"android": "https://dc.lft.to/lastmile_qr_scan", "ios": "https://dc.lft.to/lastmile_qr_scan"}, "is_reserved": 0}, {"bike_id": "f65a5e17130941204adb649553fe2632", "name": "f65a5e17130941204adb649553fe2632", "lat": 38.881416333333334, "fusion_lat": 0.0, "type": "electric_scooter", "lon": -76.99640366666667, "is_disabled": 0, "fusion_lon": 0.0, "rental_uris": {"android": "https://dc.lft.to/lastmile_qr_scan", "ios": "https://dc.lft.to/lastmile_qr_scan"}, "is_reserved": 0}, {"bike_id": "ef86ab6093a665ba9e72136cd8f8aa12", "name": "ef86ab6093a665ba9e72136cd8f8aa12", "lat": 38.93247983333333, "fusion_lat": 0.0, "type": "electric_scooter", "lon": -77.03250216666666, "is_disabled": 0, "fusion_lon": 0.0, "rental_uris": {"android": "https://dc.lft.to/lastmile_qr_scan", "ios": "https://dc.lft.to/lastmile_qr_scan"}, "is_reserved": 0}, {"bike_id": "4995a127a0866169156a844b01510373", "name": "4995a127a0866169156a844b01510373", "lat": 38.92611183333333, "fusion_lat": 0.0, "type": "electric_scooter", "lon": -77.02163, "is_disabled": 0, "fusion_lon": 0.0, "rental_uris": {"android": "https://dc.lft.to/lastmile_qr_scan", "ios": "https://dc.lft.to/lastmile_qr_scan"}, "is_reserved": 0}, {"bike_id": "bea7cab2e0d819c969e3ef6f4258f84f", "name": "bea7cab2e0d819c969e3ef6f4258f84f", "lat": 38.89655833333333, "fusion_lat": 0.0, "type": "electric_scooter", "lon": -77.050247, "is_disabled": 0, "fusion_lon": 0.0, "rental_uris": {"android": "https://dc.lft.to/lastmile_qr_scan", "ios": "https://dc.lft.to/lastmile_qr_scan"}, "is_reserved": 0}, {"bike_id": "d59dd0a178eaf6c73dac3c507d78deb2", "name": "d59dd0a178eaf6c73dac3c507d78deb2", "lat": 38.89924583333333, "fusion_lat": 0.0, "type": "electric_scooter", "lon": -76.978349, "is_disabled": 0, "fusion_lon": 0.0, "rental_uris": {"android": "https://dc.lft.to/lastmile_qr_scan", "ios": "https://dc.lft.to/lastmile_qr_scan"}, "is_reserved": 0}, {"bike_id": "9bedc31a494cedfceff0aadd56399eb6", "name": "9bedc31a494cedfceff0aadd56399eb6", "lat": 38.917075833333335, "fusion_lat": 0.0, "type": "electric_scooter", "lon": -77.01074066666666, "is_disabled": 0, "fusion_lon": 0.0, "rental_uris": {"android": "https://dc.lft.to/lastmile_qr_scan", "ios": "https://dc.lft.to/lastmile_qr_scan"}, "is_reserved": 0}, {"bike_id": "30736ecb9bf2ef808c6909fccb6507c5", "name": "30736ecb9bf2ef808c6909fccb6507c5", "lat": 38.89353066666666, "fusion_lat": 0.0, "type": "electric_scooter", "lon": -77.01171066666667, "is_disabled": 0, "fusion_lon": 0.0, "rental_uris": {"android": "https://dc.lft.to/lastmile_qr_scan", "ios": "https://dc.lft.to/lastmile_qr_scan"}, "is_reserved": 0}, {"bike_id": "6c487fa9146be357f84816e46d1bc4f6", "name": "6c487fa9146be357f84816e46d1bc4f6", "lat": 38.882747, "fusion_lat": 0.0, "type": "electric_scooter", "lon": -77.003538, "is_disabled": 0, "fusion_lon": 0.0, "rental_uris": {"android": "https://dc.lft.to/lastmile_qr_scan", "ios": "https://dc.lft.to/lastmile_qr_scan"}, "is_reserved": 0}, {"bike_id": "8dbdd20f93680cffb4e353fa364897b4", "name": "8dbdd20f93680cffb4e353fa364897b4", "lat": 38.908318333333334, "fusion_lat": 0.0, "type": "electric_scooter", "lon": -76.98715183333333, "is_disabled": 0, "fusion_lon": 0.0, "rental_uris": {"android": "https://dc.lft.to/lastmile_qr_scan", "ios": "https://dc.lft.to/lastmile_qr_scan"}, "is_reserved": 0}, {"bike_id": "2321ae13b8b6745790d3e3154e7ec51c", "name": "2321ae13b8b6745790d3e3154e7ec51c", "lat": 38.912996166666666, "fusion_lat": 0.0, "type": "electric_scooter", "lon": -76.98471483333333, "is_disabled": 0, "fusion_lon": 0.0, "rental_uris": {"android": "https://dc.lft.to/lastmile_qr_scan", "ios": "https://dc.lft.to/lastmile_qr_scan"}, "is_reserved": 0}, {"bike_id": "bb8a994245fb550a86affb7e01c19124", "name": "bb8a994245fb550a86affb7e01c19124", "lat": 38.90257366666667, "fusion_lat": 0.0, "type": "electric_scooter", "lon": -77.0435375, "is_disabled": 0, "fusion_lon": 0.0, "rental_uris": {"android": "https://dc.lft.to/lastmile_qr_scan", "ios": "https://dc.lft.to/lastmile_qr_scan"}, "is_reserved": 0}, {"bike_id": "e85be610609b0644841d54064889d0f6", "name": "e85be610609b0644841d54064889d0f6", "lat": 38.8860675, "fusion_lat": 0.0, "type": "electric_scooter", "lon": -77.00402433333333, "is_disabled": 0, "fusion_lon": 0.0, "rental_uris": {"android": "https://dc.lft.to/lastmile_qr_scan", "ios": "https://dc.lft.to/lastmile_qr_scan"}, "is_reserved": 0}, {"bike_id": "3664f1f81f40ee8da6c91a28b9004926", "name": "3664f1f81f40ee8da6c91a28b9004926", "lat": 39.010784, "fusion_lat": 0.0, "type": "electric_bike", "lon": -76.9106415, "is_disabled": 0, "fusion_lon": 0.0, "rental_uris": {"android": "https://dc.lft.to/lastmile_qr_scan", "ios": "https://dc.lft.to/lastmile_qr_scan"}, "is_reserved": 0}, {"bike_id": "442cfbb6ec1e384f14619cc93fbad3a7", "name": "442cfbb6ec1e384f14619cc93fbad3a7", "lat": 38.924252333333335, "fusion_lat": 0.0, "type": "electric_scooter", "lon": -77.019453, "is_disabled": 0, "fusion_lon": 0.0, "rental_uris": {"android": "https://dc.lft.to/lastmile_qr_scan", "ios": "https://dc.lft.to/lastmile_qr_scan"}, "is_reserved": 0}, {"bike_id": "d59b88396173bd92c6f9b8d6cf16756f", "name": "d59b88396173bd92c6f9b8d6cf16756f", "lat": 38.94615833333334, "fusion_lat": 0.0, "type": "electric_scooter", "lon": -77.03054633333333, "is_disabled": 0, "fusion_lon": 0.0, "rental_uris": {"android": "https://dc.lft.to/lastmile_qr_scan", "ios": "https://dc.lft.to/lastmile_qr_scan"}, "is_reserved": 0}, {"bike_id": "d708ee8beb55bb7e59a9a6015fa1e709", "name": "d708ee8beb55bb7e59a9a6015fa1e709", "lat": 38.902417, "fusion_lat": 0.0, "type": "electric_scooter", "lon": -77.0268915, "is_disabled": 0, "fusion_lon": 0.0, "rental_uris": {"android": "https://dc.lft.to/lastmile_qr_scan", "ios": "https://dc.lft.to/lastmile_qr_scan"}, "is_reserved": 0}, {"bike_id": "ff6969b5718bae48498ed9d44a7aecdd", "name": "ff6969b5718bae48498ed9d44a7aecdd", "lat": 38.89754683333334, "fusion_lat": 0.0, "type": "electric_bike", "lon": -77.02921766666667, "is_disabled": 0, "fusion_lon": 0.0, "rental_uris": {"android": "https://dc.lft.to/lastmile_qr_scan", "ios": "https://dc.lft.to/lastmile_qr_scan"}, "is_reserved": 0}, {"bike_id": "49f2244c05e8ac1b1480a7c82b70a3a8", "name": "49f2244c05e8ac1b1480a7c82b70a3a8", "lat": 38.901749333333335, "fusion_lat": 0.0, "type": "electric_scooter", "lon": -77.02592916666667, "is_disabled": 0, "fusion_lon": 0.0, "rental_uris": {"android": "https://dc.lft.to/lastmile_qr_scan", "ios": "https://dc.lft.to/lastmile_qr_scan"}, "is_reserved": 0}, {"bike_id": "b545d9d851e2cf61570f0b3977d13913", "name": "b545d9d851e2cf61570f0b3977d13913", "lat": 38.882855, "fusion_lat": 0.0, "type": "electric_bike", "lon": -76.93237083333334, "is_disabled": 0, "fusion_lon": 0.0, "rental_uris": {"android": "https://dc.lft.to/lastmile_qr_scan", "ios": "https://dc.lft.to/lastmile_qr_scan"}, "is_reserved": 0}, {"bike_id": "d4d5ea0b8ff1b65ad19e8cd442a8b7b5", "name": "d4d5ea0b8ff1b65ad19e8cd442a8b7b5", "lat": 38.91390233333333, "fusion_lat": 0.0, "type": "electric_scooter", "lon": -77.03211183333333, "is_disabled": 0, "fusion_lon": 0.0, "rental_uris": {"android": "https://dc.lft.to/lastmile_qr_scan", "ios": "https://dc.lft.to/lastmile_qr_scan"}, "is_reserved": 0}, {"bike_id": "94fcbd79ca1f10fa1103c6d514292a7d", "name": "94fcbd79ca1f10fa1103c6d514292a7d", "lat": 38.898580833333334, "fusion_lat": 0.0, "type": "electric_scooter", "lon": -77.039609, "is_disabled": 0, "fusion_lon": 0.0, "rental_uris": {"android": "https://dc.lft.to/lastmile_qr_scan", "ios": "https://dc.lft.to/lastmile_qr_scan"}, "is_reserved": 0}, {"bike_id": "248119148dfe0e33f67516fb20e9d9da", "name": "248119148dfe0e33f67516fb20e9d9da", "lat": 38.894076166666665, "fusion_lat": 0.0, "type": "electric_scooter", "lon": -77.0232935, "is_disabled": 0, "fusion_lon": 0.0, "rental_uris": {"android": "https://dc.lft.to/lastmile_qr_scan", "ios": "https://dc.lft.to/lastmile_qr_scan"}, "is_reserved": 0}, {"bike_id": "05f077670742f03b3f5a0e0047ec011e", "name": "05f077670742f03b3f5a0e0047ec011e", "lat": 38.92856533333333, "fusion_lat": 0.0, "type": "electric_scooter", "lon": -77.0373515, "is_disabled": 0, "fusion_lon": 0.0, "rental_uris": {"android": "https://dc.lft.to/lastmile_qr_scan", "ios": "https://dc.lft.to/lastmile_qr_scan"}, "is_reserved": 0}, {"bike_id": "e3edc535b1a82bbc428119350c98d198", "name": "e3edc535b1a82bbc428119350c98d198", "lat": 38.91759883333334, "fusion_lat": 0.0, "type": "electric_scooter", "lon": -77.03856633333334, "is_disabled": 0, "fusion_lon": 0.0, "rental_uris": {"android": "https://dc.lft.to/lastmile_qr_scan", "ios": "https://dc.lft.to/lastmile_qr_scan"}, "is_reserved": 0}, {"bike_id": "cde25eeee4e5cd265a880b4456343b3f", "name": "cde25eeee4e5cd265a880b4456343b3f", "lat": 38.92008116666667, "fusion_lat": 0.0, "type": "electric_scooter", "lon": -77.01794383333333, "is_disabled": 0, "fusion_lon": 0.0, "rental_uris": {"android": "https://dc.lft.to/lastmile_qr_scan", "ios": "https://dc.lft.to/lastmile_qr_scan"}, "is_reserved": 0}, {"bike_id": "c47fc37a156b654c0ddef8abb3e853e1", "name": "c47fc37a156b654c0ddef8abb3e853e1", "lat": 38.91849966666667, "fusion_lat": 0.0, "type": "electric_scooter", "lon": -77.04112, "is_disabled": 0, "fusion_lon": 0.0, "rental_uris": {"android": "https://dc.lft.to/lastmile_qr_scan", "ios": "https://dc.lft.to/lastmile_qr_scan"}, "is_reserved": 0}, {"bike_id": "cb8feb76bc4b777ddc87208153b8697f", "name": "cb8feb76bc4b777ddc87208153b8697f", "lat": 38.89405216666667, "fusion_lat": 0.0, "type": "electric_bike", "lon": -76.868432, "is_disabled": 0, "fusion_lon": 0.0, "rental_uris": {"android": "https://dc.lft.to/lastmile_qr_scan", "ios": "https://dc.lft.to/lastmile_qr_scan"}, "is_reserved": 0}, {"bike_id": "2967c362dd992ced9d5933aa9eddd6bd", "name": "2967c362dd992ced9d5933aa9eddd6bd", "lat": 38.905885166666664, "fusion_lat": 0.0, "type": "electric_scooter", "lon": -76.9841455, "is_disabled": 0, "fusion_lon": 0.0, "rental_uris": {"android": "https://dc.lft.to/lastmile_qr_scan", "ios": "https://dc.lft.to/lastmile_qr_scan"}, "is_reserved": 0}, {"bike_id": "11f3a433d61d68d1d85763579d2348fc", "name": "11f3a433d61d68d1d85763579d2348fc", "lat": 38.957679, "fusion_lat": 0.0, "type": "electric_scooter", "lon": -77.01497766666667, "is_disabled": 0, "fusion_lon": 0.0, "rental_uris": {"android": "https://dc.lft.to/lastmile_qr_scan", "ios": "https://dc.lft.to/lastmile_qr_scan"}, "is_reserved": 0}, {"bike_id": "46370028ce651253ffad9ae7ff15b31c", "name": "46370028ce651253ffad9ae7ff15b31c", "lat": 38.93051166666667, "fusion_lat": 0.0, "type": "electric_scooter", "lon": -77.02356816666666, "is_disabled": 0, "fusion_lon": 0.0, "rental_uris": {"android": "https://dc.lft.to/lastmile_qr_scan", "ios": "https://dc.lft.to/lastmile_qr_scan"}, "is_reserved": 0}, {"bike_id": "3c73bb1041854b662e775f3bd97b0d05", "name": "3c73bb1041854b662e775f3bd97b0d05", "lat": 38.88732383333333, "fusion_lat": 0.0, "type": "electric_scooter", "lon": -76.98382883333333, "is_disabled": 0, "fusion_lon": 0.0, "rental_uris": {"android": "https://dc.lft.to/lastmile_qr_scan", "ios": "https://dc.lft.to/lastmile_qr_scan"}, "is_reserved": 0}, {"bike_id": "db72a60a44193e4943a1eab79963efb9", "name": "db72a60a44193e4943a1eab79963efb9", "lat": 38.927560166666666, "fusion_lat": 0.0, "type": "electric_scooter", "lon": -77.02110533333334, "is_disabled": 0, "fusion_lon": 0.0, "rental_uris": {"android": "https://dc.lft.to/lastmile_qr_scan", "ios": "https://dc.lft.to/lastmile_qr_scan"}, "is_reserved": 0}, {"bike_id": "0a44f3a7db3b7ec73f9d50cc85f91500", "name": "0a44f3a7db3b7ec73f9d50cc85f91500", "lat": 38.90091416666667, "fusion_lat": 0.0, "type": "electric_scooter", "lon": -76.98014966666666, "is_disabled": 0, "fusion_lon": 0.0, "rental_uris": {"android": "https://dc.lft.to/lastmile_qr_scan", "ios": "https://dc.lft.to/lastmile_qr_scan"}, "is_reserved": 0}, {"bike_id": "dec810468819553561b381af58fb23d3", "name": "dec810468819553561b381af58fb23d3", "lat": 38.895858, "fusion_lat": 0.0, "type": "electric_scooter", "lon": -77.04147616666667, "is_disabled": 0, "fusion_lon": 0.0, "rental_uris": {"android": "https://dc.lft.to/lastmile_qr_scan", "ios": "https://dc.lft.to/lastmile_qr_scan"}, "is_reserved": 0}, {"bike_id": "a1874c312b0b75d4628b3c86adfdf591", "name": "a1874c312b0b75d4628b3c86adfdf591", "lat": 38.894474833333334, "fusion_lat": 0.0, "type": "electric_scooter", "lon": -77.045293, "is_disabled": 0, "fusion_lon": 0.0, "rental_uris": {"android": "https://dc.lft.to/lastmile_qr_scan", "ios": "https://dc.lft.to/lastmile_qr_scan"}, "is_reserved": 0}, {"bike_id": "d5d851ca9efb67779089d464b2d62358", "name": "d5d851ca9efb67779089d464b2d62358", "lat": 38.91121166666667, "fusion_lat": 0.0, "type": "electric_scooter", "lon": -77.0219305, "is_disabled": 0, "fusion_lon": 0.0, "rental_uris": {"android": "https://dc.lft.to/lastmile_qr_scan", "ios": "https://dc.lft.to/lastmile_qr_scan"}, "is_reserved": 0}, {"bike_id": "02d948b4979ff2cb7da1cd1a7b778468", "name": "02d948b4979ff2cb7da1cd1a7b778468", "lat": 38.918759, "fusion_lat": 0.0, "type": "electric_scooter", "lon": -77.0357505, "is_disabled": 0, "fusion_lon": 0.0, "rental_uris": {"android": "https://dc.lft.to/lastmile_qr_scan", "ios": "https://dc.lft.to/lastmile_qr_scan"}, "is_reserved": 0}, {"bike_id": "4f7db73cf2a90759832cdeed3a89e91a", "name": "4f7db73cf2a90759832cdeed3a89e91a", "lat": 38.90574933333333, "fusion_lat": 0.0, "type": "electric_scooter", "lon": -77.04171383333333, "is_disabled": 0, "fusion_lon": 0.0, "rental_uris": {"android": "https://dc.lft.to/lastmile_qr_scan", "ios": "https://dc.lft.to/lastmile_qr_scan"}, "is_reserved": 0}, {"bike_id": "630d65b8cfaed291df1ff080c7d5ad77", "name": "630d65b8cfaed291df1ff080c7d5ad77", "lat": 38.898581166666666, "fusion_lat": 0.0, "type": "electric_scooter", "lon": -77.0396595, "is_disabled": 0, "fusion_lon": 0.0, "rental_uris": {"android": "https://dc.lft.to/lastmile_qr_scan", "ios": "https://dc.lft.to/lastmile_qr_scan"}, "is_reserved": 0}, {"bike_id": "0697e81837d1650735a024d30c007b38", "name": "0697e81837d1650735a024d30c007b38", "lat": 38.919276333333336, "fusion_lat": 0.0, "type": "electric_scooter", "lon": -77.04493366666667, "is_disabled": 0, "fusion_lon": 0.0, "rental_uris": {"android": "https://dc.lft.to/lastmile_qr_scan", "ios": "https://dc.lft.to/lastmile_qr_scan"}, "is_reserved": 0}, {"bike_id": "bca50695834941f2c2257ff3ecb70641", "name": "bca50695834941f2c2257ff3ecb70641", "lat": 38.94135416666667, "fusion_lat": 0.0, "type": "electric_scooter", "lon": -77.06175083333333, "is_disabled": 0, "fusion_lon": 0.0, "rental_uris": {"android": "https://dc.lft.to/lastmile_qr_scan", "ios": "https://dc.lft.to/lastmile_qr_scan"}, "is_reserved": 0}, {"bike_id": "250dbe29c157d3ae9294a74e6a35378b", "name": "250dbe29c157d3ae9294a74e6a35378b", "lat": 38.8816485, "fusion_lat": 0.0, "type": "electric_scooter", "lon": -77.00069616666667, "is_disabled": 0, "fusion_lon": 0.0, "rental_uris": {"android": "https://dc.lft.to/lastmile_qr_scan", "ios": "https://dc.lft.to/lastmile_qr_scan"}, "is_reserved": 0}, {"bike_id": "fc0ba4a729b8b15062f27d92d77e7326", "name": "fc0ba4a729b8b15062f27d92d77e7326", "lat": 38.914028333333334, "fusion_lat": 0.0, "type": "electric_scooter", "lon": -77.026956, "is_disabled": 0, "fusion_lon": 0.0, "rental_uris": {"android": "https://dc.lft.to/lastmile_qr_scan", "ios": "https://dc.lft.to/lastmile_qr_scan"}, "is_reserved": 0}, {"bike_id": "72e9f1d85f90d5faf4164eb019f11998", "name": "72e9f1d85f90d5faf4164eb019f11998", "lat": 38.912374666666665, "fusion_lat": 0.0, "type": "electric_scooter", "lon": -77.02967483333333, "is_disabled": 0, "fusion_lon": 0.0, "rental_uris": {"android": "https://dc.lft.to/lastmile_qr_scan", "ios": "https://dc.lft.to/lastmile_qr_scan"}, "is_reserved": 0}, {"bike_id": "6df27b26fea37178c20815bd2832a59b", "name": "6df27b26fea37178c20815bd2832a59b", "lat": 38.859586, "fusion_lat": 0.0, "type": "electric_scooter", "lon": -76.991513, "is_disabled": 0, "fusion_lon": 0.0, "rental_uris": {"android": "https://dc.lft.to/lastmile_qr_scan", "ios": "https://dc.lft.to/lastmile_qr_scan"}, "is_reserved": 0}, {"bike_id": "1d540f0864dda0c3695602deef357f9c", "name": "1d540f0864dda0c3695602deef357f9c", "lat": 38.899975833333336, "fusion_lat": 0.0, "type": "electric_bike", "lon": -76.98041333333333, "is_disabled": 0, "fusion_lon": 0.0, "rental_uris": {"android": "https://dc.lft.to/lastmile_qr_scan", "ios": "https://dc.lft.to/lastmile_qr_scan"}, "is_reserved": 0}, {"bike_id": "f905ac790f2605827c0fc2bcf7671739", "name": "f905ac790f2605827c0fc2bcf7671739", "lat": 38.885209333333336, "fusion_lat": 0.0, "type": "electric_scooter", "lon": -76.97710166666667, "is_disabled": 0, "fusion_lon": 0.0, "rental_uris": {"android": "https://dc.lft.to/lastmile_qr_scan", "ios": "https://dc.lft.to/lastmile_qr_scan"}, "is_reserved": 0}, {"bike_id": "31fb948e8493891cd319ad7da1815486", "name": "31fb948e8493891cd319ad7da1815486", "lat": 38.934983333333335, "fusion_lat": 0.0, "type": "electric_scooter", "lon": -77.02725166666667, "is_disabled": 0, "fusion_lon": 0.0, "rental_uris": {"android": "https://dc.lft.to/lastmile_qr_scan", "ios": "https://dc.lft.to/lastmile_qr_scan"}, "is_reserved": 0}, {"bike_id": "5274f72b4c9307153876e29e0feafeda", "name": "5274f72b4c9307153876e29e0feafeda", "lat": 38.96035783333333, "fusion_lat": 0.0, "type": "electric_scooter", "lon": -77.02426616666666, "is_disabled": 0, "fusion_lon": 0.0, "rental_uris": {"android": "https://dc.lft.to/lastmile_qr_scan", "ios": "https://dc.lft.to/lastmile_qr_scan"}, "is_reserved": 0}, {"bike_id": "651492a01ce336431eb256e38523807a", "name": "651492a01ce336431eb256e38523807a", "lat": 38.903901, "fusion_lat": 0.0, "type": "electric_scooter", "lon": -77.034395, "is_disabled": 0, "fusion_lon": 0.0, "rental_uris": {"android": "https://dc.lft.to/lastmile_qr_scan", "ios": "https://dc.lft.to/lastmile_qr_scan"}, "is_reserved": 0}, {"bike_id": "de49185e4b824ef09f4df28f13281866", "name": "de49185e4b824ef09f4df28f13281866", "lat": 38.925846666666665, "fusion_lat": 0.0, "type": "electric_scooter", "lon": -77.022595, "is_disabled": 0, "fusion_lon": 0.0, "rental_uris": {"android": "https://dc.lft.to/lastmile_qr_scan", "ios": "https://dc.lft.to/lastmile_qr_scan"}, "is_reserved": 0}, {"bike_id": "a59bac12b29c77edea19efb8d057f295", "name": "a59bac12b29c77edea19efb8d057f295", "lat": 38.907251333333335, "fusion_lat": 0.0, "type": "electric_scooter", "lon": -77.033849, "is_disabled": 0, "fusion_lon": 0.0, "rental_uris": {"android": "https://dc.lft.to/lastmile_qr_scan", "ios": "https://dc.lft.to/lastmile_qr_scan"}, "is_reserved": 0}, {"bike_id": "b687d405a114115b1113339e27ec9bc5", "name": "b687d405a114115b1113339e27ec9bc5", "lat": 38.909047666666666, "fusion_lat": 0.0, "type": "electric_scooter", "lon": -77.024049, "is_disabled": 0, "fusion_lon": 0.0, "rental_uris": {"android": "https://dc.lft.to/lastmile_qr_scan", "ios": "https://dc.lft.to/lastmile_qr_scan"}, "is_reserved": 0}, {"bike_id": "c0987cca967ff184629108d67f35be16", "name": "c0987cca967ff184629108d67f35be16", "lat": 38.899643, "fusion_lat": 0.0, "type": "electric_scooter", "lon": -77.044831, "is_disabled": 0, "fusion_lon": 0.0, "rental_uris": {"android": "https://dc.lft.to/lastmile_qr_scan", "ios": "https://dc.lft.to/lastmile_qr_scan"}, "is_reserved": 0}, {"bike_id": "3855e2deb5ad6efa28c837c19702a84f", "name": "3855e2deb5ad6efa28c837c19702a84f", "lat": 38.915365, "fusion_lat": 0.0, "type": "electric_scooter", "lon": -77.02178633333334, "is_disabled": 0, "fusion_lon": 0.0, "rental_uris": {"android": "https://dc.lft.to/lastmile_qr_scan", "ios": "https://dc.lft.to/lastmile_qr_scan"}, "is_reserved": 0}, {"bike_id": "eeab809c2b8200a20b29e3d9a16d1f13", "name": "eeab809c2b8200a20b29e3d9a16d1f13", "lat": 38.92423866666667, "fusion_lat": 0.0, "type": "electric_scooter", "lon": -77.01952483333334, "is_disabled": 0, "fusion_lon": 0.0, "rental_uris": {"android": "https://dc.lft.to/lastmile_qr_scan", "ios": "https://dc.lft.to/lastmile_qr_scan"}, "is_reserved": 0}, {"bike_id": "7a8e0b46ab6750b9ce9f23b3bd7d8b96", "name": "7a8e0b46ab6750b9ce9f23b3bd7d8b96", "lat": 38.8638515, "fusion_lat": 0.0, "type": "electric_scooter", "lon": -76.99059483333333, "is_disabled": 0, "fusion_lon": 0.0, "rental_uris": {"android": "https://dc.lft.to/lastmile_qr_scan", "ios": "https://dc.lft.to/lastmile_qr_scan"}, "is_reserved": 0}, {"bike_id": "c7f96a9fdb718b751ed2c8b8886ebd59", "name": "c7f96a9fdb718b751ed2c8b8886ebd59", "lat": 38.899724666666664, "fusion_lat": 0.0, "type": "electric_scooter", "lon": -77.04773816666666, "is_disabled": 0, "fusion_lon": 0.0, "rental_uris": {"android": "https://dc.lft.to/lastmile_qr_scan", "ios": "https://dc.lft.to/lastmile_qr_scan"}, "is_reserved": 0}, {"bike_id": "df79c12d286dfad41142f2325b4acdc0", "name": "df79c12d286dfad41142f2325b4acdc0", "lat": 38.920051666666666, "fusion_lat": 0.0, "type": "electric_scooter", "lon": -77.0713515, "is_disabled": 0, "fusion_lon": 0.0, "rental_uris": {"android": "https://dc.lft.to/lastmile_qr_scan", "ios": "https://dc.lft.to/lastmile_qr_scan"}, "is_reserved": 0}, {"bike_id": "bade973d01a5c50aeedf325483c239d8", "name": "bade973d01a5c50aeedf325483c239d8", "lat": 38.899416, "fusion_lat": 0.0, "type": "electric_scooter", "lon": -76.97705333333333, "is_disabled": 0, "fusion_lon": 0.0, "rental_uris": {"android": "https://dc.lft.to/lastmile_qr_scan", "ios": "https://dc.lft.to/lastmile_qr_scan"}, "is_reserved": 0}, {"bike_id": "3dbe2d1dea3cd1ba017886100e5948f3", "name": "3dbe2d1dea3cd1ba017886100e5948f3", "lat": 38.9202555, "fusion_lat": 0.0, "type": "electric_scooter", "lon": -77.03118583333334, "is_disabled": 0, "fusion_lon": 0.0, "rental_uris": {"android": "https://dc.lft.to/lastmile_qr_scan", "ios": "https://dc.lft.to/lastmile_qr_scan"}, "is_reserved": 0}, {"bike_id": "a5b45912598619ccad27e4bf8a122b29", "name": "a5b45912598619ccad27e4bf8a122b29", "lat": 38.91919633333333, "fusion_lat": 0.0, "type": "electric_scooter", "lon": -77.03339583333333, "is_disabled": 0, "fusion_lon": 0.0, "rental_uris": {"android": "https://dc.lft.to/lastmile_qr_scan", "ios": "https://dc.lft.to/lastmile_qr_scan"}, "is_reserved": 0}, {"bike_id": "7cd5ecdc016de056ad24e37eccc911b6", "name": "7cd5ecdc016de056ad24e37eccc911b6", "lat": 38.995243333333335, "fusion_lat": 0.0, "type": "electric_bike", "lon": -77.03779783333333, "is_disabled": 0, "fusion_lon": 0.0, "rental_uris": {"android": "https://dc.lft.to/lastmile_qr_scan", "ios": "https://dc.lft.to/lastmile_qr_scan"}, "is_reserved": 0}, {"bike_id": "69125363401ef2c70aeb01617bf96e45", "name": "69125363401ef2c70aeb01617bf96e45", "lat": 38.89531616666667, "fusion_lat": 0.0, "type": "electric_scooter", "lon": -77.04472633333333, "is_disabled": 0, "fusion_lon": 0.0, "rental_uris": {"android": "https://dc.lft.to/lastmile_qr_scan", "ios": "https://dc.lft.to/lastmile_qr_scan"}, "is_reserved": 0}, {"bike_id": "b3e55410ab4f0d631e16d4c1c124234e", "name": "b3e55410ab4f0d631e16d4c1c124234e", "lat": 38.90650216666667, "fusion_lat": 0.0, "type": "electric_scooter", "lon": -76.99377233333334, "is_disabled": 0, "fusion_lon": 0.0, "rental_uris": {"android": "https://dc.lft.to/lastmile_qr_scan", "ios": "https://dc.lft.to/lastmile_qr_scan"}, "is_reserved": 0}, {"bike_id": "7368675fd7a54cd05022dc2bea017919", "name": "7368675fd7a54cd05022dc2bea017919", "lat": 39.084927, "fusion_lat": 0.0, "type": "electric_bike", "lon": -76.95062983333334, "is_disabled": 0, "fusion_lon": 0.0, "rental_uris": {"android": "https://dc.lft.to/lastmile_qr_scan", "ios": "https://dc.lft.to/lastmile_qr_scan"}, "is_reserved": 0}, {"bike_id": "571c9b35dcc96dccb534195687e41526", "name": "571c9b35dcc96dccb534195687e41526", "lat": 38.9204785, "fusion_lat": 0.0, "type": "electric_scooter", "lon": -77.016794, "is_disabled": 0, "fusion_lon": 0.0, "rental_uris": {"android": "https://dc.lft.to/lastmile_qr_scan", "ios": "https://dc.lft.to/lastmile_qr_scan"}, "is_reserved": 0}, {"bike_id": "3ac88a02f0117aa01ebddd63b7647d1d", "name": "3ac88a02f0117aa01ebddd63b7647d1d", "lat": 38.921459666666664, "fusion_lat": 0.0, "type": "electric_scooter", "lon": -77.04584566666666, "is_disabled": 0, "fusion_lon": 0.0, "rental_uris": {"android": "https://dc.lft.to/lastmile_qr_scan", "ios": "https://dc.lft.to/lastmile_qr_scan"}, "is_reserved": 0}, {"bike_id": "4de5096e4477230beb157c417e338e9f", "name": "4de5096e4477230beb157c417e338e9f", "lat": 38.95745333333333, "fusion_lat": 0.0, "type": "electric_scooter", "lon": -77.03023866666666, "is_disabled": 0, "fusion_lon": 0.0, "rental_uris": {"android": "https://dc.lft.to/lastmile_qr_scan", "ios": "https://dc.lft.to/lastmile_qr_scan"}, "is_reserved": 0}, {"bike_id": "5a3f67d67c2090b5e8d7f1732e35ee2d", "name": "5a3f67d67c2090b5e8d7f1732e35ee2d", "lat": 38.914862166666666, "fusion_lat": 0.0, "type": "electric_scooter", "lon": -77.03228483333334, "is_disabled": 0, "fusion_lon": 0.0, "rental_uris": {"android": "https://dc.lft.to/lastmile_qr_scan", "ios": "https://dc.lft.to/lastmile_qr_scan"}, "is_reserved": 0}, {"bike_id": "0861c08d0a0dbc1dc6d35f244abed47a", "name": "0861c08d0a0dbc1dc6d35f244abed47a", "lat": 38.870174, "fusion_lat": 0.0, "type": "electric_bike", "lon": -77.22994383333334, "is_disabled": 0, "fusion_lon": 0.0, "rental_uris": {"android": "https://dc.lft.to/lastmile_qr_scan", "ios": "https://dc.lft.to/lastmile_qr_scan"}, "is_reserved": 0}, {"bike_id": "4c7863042840beae92d812259cda08de", "name": "4c7863042840beae92d812259cda08de", "lat": 38.90923733333333, "fusion_lat": 0.0, "type": "electric_scooter", "lon": -77.0442715, "is_disabled": 0, "fusion_lon": 0.0, "rental_uris": {"android": "https://dc.lft.to/lastmile_qr_scan", "ios": "https://dc.lft.to/lastmile_qr_scan"}, "is_reserved": 0}, {"bike_id": "34edb0ff80784bba20efc0557011014f", "name": "34edb0ff80784bba20efc0557011014f", "lat": 38.885360166666665, "fusion_lat": 0.0, "type": "electric_bike", "lon": -76.99823866666667, "is_disabled": 0, "fusion_lon": 0.0, "rental_uris": {"android": "https://dc.lft.to/lastmile_qr_scan", "ios": "https://dc.lft.to/lastmile_qr_scan"}, "is_reserved": 0}, {"bike_id": "2f7798967eb5053ac9d9501a20a4c0e8", "name": "2f7798967eb5053ac9d9501a20a4c0e8", "lat": 38.916706166666664, "fusion_lat": 0.0, "type": "electric_scooter", "lon": -77.04678566666666, "is_disabled": 0, "fusion_lon": 0.0, "rental_uris": {"android": "https://dc.lft.to/lastmile_qr_scan", "ios": "https://dc.lft.to/lastmile_qr_scan"}, "is_reserved": 0}, {"bike_id": "d37dce0f0a55cc5f69a42f31063eb0c1", "name": "d37dce0f0a55cc5f69a42f31063eb0c1", "lat": 38.954801333333336, "fusion_lat": 0.0, "type": "electric_scooter", "lon": -77.019745, "is_disabled": 0, "fusion_lon": 0.0, "rental_uris": {"android": "https://dc.lft.to/lastmile_qr_scan", "ios": "https://dc.lft.to/lastmile_qr_scan"}, "is_reserved": 0}, {"bike_id": "33c934451c9963f5def7a426940e82df", "name": "33c934451c9963f5def7a426940e82df", "lat": 38.88373983333334, "fusion_lat": 0.0, "type": "electric_scooter", "lon": -77.02008516666666, "is_disabled": 0, "fusion_lon": 0.0, "rental_uris": {"android": "https://dc.lft.to/lastmile_qr_scan", "ios": "https://dc.lft.to/lastmile_qr_scan"}, "is_reserved": 0}, {"bike_id": "0d4f5d370251dc8210da2248bab40e85", "name": "0d4f5d370251dc8210da2248bab40e85", "lat": 38.914945833333334, "fusion_lat": 0.0, "type": "electric_scooter", "lon": -77.0199745, "is_disabled": 0, "fusion_lon": 0.0, "rental_uris": {"android": "https://dc.lft.to/lastmile_qr_scan", "ios": "https://dc.lft.to/lastmile_qr_scan"}, "is_reserved": 0}, {"bike_id": "874159d0704b94280a8b231927caa958", "name": "874159d0704b94280a8b231927caa958", "lat": 38.91423533333333, "fusion_lat": 0.0, "type": "electric_scooter", "lon": -77.018033, "is_disabled": 0, "fusion_lon": 0.0, "rental_uris": {"android": "https://dc.lft.to/lastmile_qr_scan", "ios": "https://dc.lft.to/lastmile_qr_scan"}, "is_reserved": 0}, {"bike_id": "98ce167982219c0fc4afa8336fcf6d91", "name": "98ce167982219c0fc4afa8336fcf6d91", "lat": 38.916945, "fusion_lat": 0.0, "type": "electric_scooter", "lon": -77.0318495, "is_disabled": 0, "fusion_lon": 0.0, "rental_uris": {"android": "https://dc.lft.to/lastmile_qr_scan", "ios": "https://dc.lft.to/lastmile_qr_scan"}, "is_reserved": 0}, {"bike_id": "a4621e39f7038a225a54316c2a602cec", "name": "a4621e39f7038a225a54316c2a602cec", "lat": 38.92378, "fusion_lat": 0.0, "type": "electric_scooter", "lon": -77.08056233333333, "is_disabled": 0, "fusion_lon": 0.0, "rental_uris": {"android": "https://dc.lft.to/lastmile_qr_scan", "ios": "https://dc.lft.to/lastmile_qr_scan"}, "is_reserved": 0}, {"bike_id": "61726029fd2defee1f7bc633a583d536", "name": "61726029fd2defee1f7bc633a583d536", "lat": 38.897152166666665, "fusion_lat": 0.0, "type": "electric_scooter", "lon": -76.99118633333333, "is_disabled": 0, "fusion_lon": 0.0, "rental_uris": {"android": "https://dc.lft.to/lastmile_qr_scan", "ios": "https://dc.lft.to/lastmile_qr_scan"}, "is_reserved": 0}, {"bike_id": "25ca393a491f0bbc9d5d5022ef2b4c2f", "name": "25ca393a491f0bbc9d5d5022ef2b4c2f", "lat": 38.91706883333333, "fusion_lat": 0.0, "type": "electric_scooter", "lon": -77.01072616666667, "is_disabled": 0, "fusion_lon": 0.0, "rental_uris": {"android": "https://dc.lft.to/lastmile_qr_scan", "ios": "https://dc.lft.to/lastmile_qr_scan"}, "is_reserved": 0}, {"bike_id": "e52a12d0b34f2c513565a223ef508aee", "name": "e52a12d0b34f2c513565a223ef508aee", "lat": 38.93645816666667, "fusion_lat": 0.0, "type": "electric_scooter", "lon": -77.06008533333333, "is_disabled": 0, "fusion_lon": 0.0, "rental_uris": {"android": "https://dc.lft.to/lastmile_qr_scan", "ios": "https://dc.lft.to/lastmile_qr_scan"}, "is_reserved": 0}, {"bike_id": "8f5556d2abf6546dc251014d04896d0d", "name": "8f5556d2abf6546dc251014d04896d0d", "lat": 38.972376833333335, "fusion_lat": 0.0, "type": "electric_scooter", "lon": -77.027144, "is_disabled": 0, "fusion_lon": 0.0, "rental_uris": {"android": "https://dc.lft.to/lastmile_qr_scan", "ios": "https://dc.lft.to/lastmile_qr_scan"}, "is_reserved": 0}, {"bike_id": "bfcbab8326716b61144f6afff7b88795", "name": "bfcbab8326716b61144f6afff7b88795", "lat": 38.9038715, "fusion_lat": 0.0, "type": "electric_scooter", "lon": -76.99857333333334, "is_disabled": 0, "fusion_lon": 0.0, "rental_uris": {"android": "https://dc.lft.to/lastmile_qr_scan", "ios": "https://dc.lft.to/lastmile_qr_scan"}, "is_reserved": 0}, {"bike_id": "79a2d0d915b6a0643bdbc07ddca6042f", "name": "79a2d0d915b6a0643bdbc07ddca6042f", "lat": 38.92553216666667, "fusion_lat": 0.0, "type": "electric_scooter", "lon": -77.05301383333334, "is_disabled": 0, "fusion_lon": 0.0, "rental_uris": {"android": "https://dc.lft.to/lastmile_qr_scan", "ios": "https://dc.lft.to/lastmile_qr_scan"}, "is_reserved": 0}, {"bike_id": "9fe1a3efae32c497e375fe41c191ad62", "name": "9fe1a3efae32c497e375fe41c191ad62", "lat": 38.92886133333333, "fusion_lat": 0.0, "type": "electric_bike", "lon": -77.04015583333333, "is_disabled": 0, "fusion_lon": 0.0, "rental_uris": {"android": "https://dc.lft.to/lastmile_qr_scan", "ios": "https://dc.lft.to/lastmile_qr_scan"}, "is_reserved": 0}, {"bike_id": "7f8da0c14ce264facdb4b06dc761460d", "name": "7f8da0c14ce264facdb4b06dc761460d", "lat": 38.920691, "fusion_lat": 0.0, "type": "electric_scooter", "lon": -77.0437545, "is_disabled": 0, "fusion_lon": 0.0, "rental_uris": {"android": "https://dc.lft.to/lastmile_qr_scan", "ios": "https://dc.lft.to/lastmile_qr_scan"}, "is_reserved": 0}, {"bike_id": "0d48d436f6bd02c1f2115d9bf74a86e6", "name": "0d48d436f6bd02c1f2115d9bf74a86e6", "lat": 39.0945445, "fusion_lat": 0.0, "type": "electric_bike", "lon": -77.13460983333333, "is_disabled": 0, "fusion_lon": 0.0, "rental_uris": {"android": "https://dc.lft.to/lastmile_qr_scan", "ios": "https://dc.lft.to/lastmile_qr_scan"}, "is_reserved": 0}, {"bike_id": "80ca5b81b09e0910afa82ee0afbc998c", "name": "80ca5b81b09e0910afa82ee0afbc998c", "lat": 38.9114975, "fusion_lat": 0.0, "type": "electric_scooter", "lon": -77.03845366666667, "is_disabled": 0, "fusion_lon": 0.0, "rental_uris": {"android": "https://dc.lft.to/lastmile_qr_scan", "ios": "https://dc.lft.to/lastmile_qr_scan"}, "is_reserved": 0}, {"bike_id": "a53f0909e137bf06e343c4dde6fe7784", "name": "a53f0909e137bf06e343c4dde6fe7784", "lat": 38.91247116666667, "fusion_lat": 0.0, "type": "electric_scooter", "lon": -77.02972416666667, "is_disabled": 0, "fusion_lon": 0.0, "rental_uris": {"android": "https://dc.lft.to/lastmile_qr_scan", "ios": "https://dc.lft.to/lastmile_qr_scan"}, "is_reserved": 0}, {"bike_id": "ccbbd72b64f0ff3166835c7efea81b80", "name": "ccbbd72b64f0ff3166835c7efea81b80", "lat": 38.86455766666667, "fusion_lat": 0.0, "type": "electric_scooter", "lon": -76.99127783333333, "is_disabled": 0, "fusion_lon": 0.0, "rental_uris": {"android": "https://dc.lft.to/lastmile_qr_scan", "ios": "https://dc.lft.to/lastmile_qr_scan"}, "is_reserved": 0}, {"bike_id": "e361002e00f5998a4acf547e063c4b8c", "name": "e361002e00f5998a4acf547e063c4b8c", "lat": 38.9241545, "fusion_lat": 0.0, "type": "electric_scooter", "lon": -77.02008533333333, "is_disabled": 0, "fusion_lon": 0.0, "rental_uris": {"android": "https://dc.lft.to/lastmile_qr_scan", "ios": "https://dc.lft.to/lastmile_qr_scan"}, "is_reserved": 0}, {"bike_id": "bc253570d4beac3e29739c6f12e64fa2", "name": "bc253570d4beac3e29739c6f12e64fa2", "lat": 38.917183333333334, "fusion_lat": 0.0, "type": "electric_scooter", "lon": -77.03430083333333, "is_disabled": 0, "fusion_lon": 0.0, "rental_uris": {"android": "https://dc.lft.to/lastmile_qr_scan", "ios": "https://dc.lft.to/lastmile_qr_scan"}, "is_reserved": 0}, {"bike_id": "1285c44ae53c2c81fbc4103268475ab1", "name": "1285c44ae53c2c81fbc4103268475ab1", "lat": 38.9241725, "fusion_lat": 0.0, "type": "electric_scooter", "lon": -77.01942566666666, "is_disabled": 0, "fusion_lon": 0.0, "rental_uris": {"android": "https://dc.lft.to/lastmile_qr_scan", "ios": "https://dc.lft.to/lastmile_qr_scan"}, "is_reserved": 0}, {"bike_id": "5596a891845d9a7d05bcbd96f35d5611", "name": "5596a891845d9a7d05bcbd96f35d5611", "lat": 38.915882833333335, "fusion_lat": 0.0, "type": "electric_scooter", "lon": -77.0321315, "is_disabled": 0, "fusion_lon": 0.0, "rental_uris": {"android": "https://dc.lft.to/lastmile_qr_scan", "ios": "https://dc.lft.to/lastmile_qr_scan"}, "is_reserved": 0}, {"bike_id": "a8c89784ff2005e9c020096fd8acc689", "name": "a8c89784ff2005e9c020096fd8acc689", "lat": 38.9220985, "fusion_lat": 0.0, "type": "electric_scooter", "lon": -77.02033, "is_disabled": 0, "fusion_lon": 0.0, "rental_uris": {"android": "https://dc.lft.to/lastmile_qr_scan", "ios": "https://dc.lft.to/lastmile_qr_scan"}, "is_reserved": 0}, {"bike_id": "5d367be045550b13b6141b660f2a6565", "name": "5d367be045550b13b6141b660f2a6565", "lat": 38.910211333333336, "fusion_lat": 0.0, "type": "electric_scooter", "lon": -76.993741, "is_disabled": 0, "fusion_lon": 0.0, "rental_uris": {"android": "https://dc.lft.to/lastmile_qr_scan", "ios": "https://dc.lft.to/lastmile_qr_scan"}, "is_reserved": 0}, {"bike_id": "85e571afcd83b58432914e545f733687", "name": "85e571afcd83b58432914e545f733687", "lat": 38.90272916666667, "fusion_lat": 0.0, "type": "electric_scooter", "lon": -77.0272525, "is_disabled": 0, "fusion_lon": 0.0, "rental_uris": {"android": "https://dc.lft.to/lastmile_qr_scan", "ios": "https://dc.lft.to/lastmile_qr_scan"}, "is_reserved": 0}, {"bike_id": "936f99fb955775196f9a859023605d26", "name": "936f99fb955775196f9a859023605d26", "lat": 38.89708566666667, "fusion_lat": 0.0, "type": "electric_scooter", "lon": -77.00505766666667, "is_disabled": 0, "fusion_lon": 0.0, "rental_uris": {"android": "https://dc.lft.to/lastmile_qr_scan", "ios": "https://dc.lft.to/lastmile_qr_scan"}, "is_reserved": 0}, {"bike_id": "5067f4260263e2b0245a56b259d465f5", "name": "5067f4260263e2b0245a56b259d465f5", "lat": 38.926890666666665, "fusion_lat": 0.0, "type": "electric_scooter", "lon": -77.025761, "is_disabled": 0, "fusion_lon": 0.0, "rental_uris": {"android": "https://dc.lft.to/lastmile_qr_scan", "ios": "https://dc.lft.to/lastmile_qr_scan"}, "is_reserved": 0}, {"bike_id": "410850a6704e6327c008f3b7129ec9a3", "name": "410850a6704e6327c008f3b7129ec9a3", "lat": 38.909511, "fusion_lat": 0.0, "type": "electric_scooter", "lon": -77.03185733333333, "is_disabled": 0, "fusion_lon": 0.0, "rental_uris": {"android": "https://dc.lft.to/lastmile_qr_scan", "ios": "https://dc.lft.to/lastmile_qr_scan"}, "is_reserved": 0}, {"bike_id": "477a2fc2c499399f859191b6e6e250bd", "name": "477a2fc2c499399f859191b6e6e250bd", "lat": 38.9135475, "fusion_lat": 0.0, "type": "electric_scooter", "lon": -77.03176116666667, "is_disabled": 0, "fusion_lon": 0.0, "rental_uris": {"android": "https://dc.lft.to/lastmile_qr_scan", "ios": "https://dc.lft.to/lastmile_qr_scan"}, "is_reserved": 0}, {"bike_id": "cb2d4c6b70c0062621aa319e6beb0b8e", "name": "cb2d4c6b70c0062621aa319e6beb0b8e", "lat": 38.91607583333333, "fusion_lat": 0.0, "type": "electric_scooter", "lon": -77.02301516666667, "is_disabled": 0, "fusion_lon": 0.0, "rental_uris": {"android": "https://dc.lft.to/lastmile_qr_scan", "ios": "https://dc.lft.to/lastmile_qr_scan"}, "is_reserved": 0}, {"bike_id": "cc7da39f9047bd69c2b6a734b55665a0", "name": "cc7da39f9047bd69c2b6a734b55665a0", "lat": 38.9079085, "fusion_lat": 0.0, "type": "electric_scooter", "lon": -76.994208, "is_disabled": 0, "fusion_lon": 0.0, "rental_uris": {"android": "https://dc.lft.to/lastmile_qr_scan", "ios": "https://dc.lft.to/lastmile_qr_scan"}, "is_reserved": 0}, {"bike_id": "9a04182d4da884af26b7bd3ce530edcb", "name": "9a04182d4da884af26b7bd3ce530edcb", "lat": 38.922908666666665, "fusion_lat": 0.0, "type": "electric_scooter", "lon": -77.03663883333333, "is_disabled": 0, "fusion_lon": 0.0, "rental_uris": {"android": "https://dc.lft.to/lastmile_qr_scan", "ios": "https://dc.lft.to/lastmile_qr_scan"}, "is_reserved": 0}, {"bike_id": "c857dad869d328f7dc8b51c7ed8b9bed", "name": "c857dad869d328f7dc8b51c7ed8b9bed", "lat": 38.94309, "fusion_lat": 0.0, "type": "electric_scooter", "lon": -77.05932033333333, "is_disabled": 0, "fusion_lon": 0.0, "rental_uris": {"android": "https://dc.lft.to/lastmile_qr_scan", "ios": "https://dc.lft.to/lastmile_qr_scan"}, "is_reserved": 0}, {"bike_id": "9deb5259ae3ff621bea111b59105eb98", "name": "9deb5259ae3ff621bea111b59105eb98", "lat": 38.90777216666667, "fusion_lat": 0.0, "type": "electric_bike", "lon": -77.04234183333334, "is_disabled": 0, "fusion_lon": 0.0, "rental_uris": {"android": "https://dc.lft.to/lastmile_qr_scan", "ios": "https://dc.lft.to/lastmile_qr_scan"}, "is_reserved": 0}, {"bike_id": "fddfd053c44802d48ade22fd51fd988d", "name": "fddfd053c44802d48ade22fd51fd988d", "lat": 38.83814233333333, "fusion_lat": 0.0, "type": "electric_bike", "lon": -77.09524566666667, "is_disabled": 0, "fusion_lon": 0.0, "rental_uris": {"android": "https://dc.lft.to/lastmile_qr_scan", "ios": "https://dc.lft.to/lastmile_qr_scan"}, "is_reserved": 0}, {"bike_id": "33aa157c1588dddcf8117665f2d76daf", "name": "33aa157c1588dddcf8117665f2d76daf", "lat": 38.909804666666666, "fusion_lat": 0.0, "type": "electric_scooter", "lon": -77.02410483333334, "is_disabled": 0, "fusion_lon": 0.0, "rental_uris": {"android": "https://dc.lft.to/lastmile_qr_scan", "ios": "https://dc.lft.to/lastmile_qr_scan"}, "is_reserved": 0}, {"bike_id": "8086100e2740548bbbb120b2d06274f1", "name": "8086100e2740548bbbb120b2d06274f1", "lat": 38.905257166666665, "fusion_lat": 0.0, "type": "electric_scooter", "lon": -77.04182566666667, "is_disabled": 0, "fusion_lon": 0.0, "rental_uris": {"android": "https://dc.lft.to/lastmile_qr_scan", "ios": "https://dc.lft.to/lastmile_qr_scan"}, "is_reserved": 0}, {"bike_id": "5caf0486c215ef62d8a8d4559f1e9e1b", "name": "5caf0486c215ef62d8a8d4559f1e9e1b", "lat": 38.93506883333333, "fusion_lat": 0.0, "type": "electric_scooter", "lon": -77.02005383333334, "is_disabled": 0, "fusion_lon": 0.0, "rental_uris": {"android": "https://dc.lft.to/lastmile_qr_scan", "ios": "https://dc.lft.to/lastmile_qr_scan"}, "is_reserved": 0}, {"bike_id": "853db14a67b655284023d7c232130ef7", "name": "853db14a67b655284023d7c232130ef7", "lat": 38.914769, "fusion_lat": 0.0, "type": "electric_scooter", "lon": -77.03215816666666, "is_disabled": 0, "fusion_lon": 0.0, "rental_uris": {"android": "https://dc.lft.to/lastmile_qr_scan", "ios": "https://dc.lft.to/lastmile_qr_scan"}, "is_reserved": 0}, {"bike_id": "8e9ef9eafab6d1d7db6765eeba07b5b3", "name": "8e9ef9eafab6d1d7db6765eeba07b5b3", "lat": 38.89602566666667, "fusion_lat": 0.0, "type": "electric_scooter", "lon": -77.02783816666667, "is_disabled": 0, "fusion_lon": 0.0, "rental_uris": {"android": "https://dc.lft.to/lastmile_qr_scan", "ios": "https://dc.lft.to/lastmile_qr_scan"}, "is_reserved": 0}, {"bike_id": "79cf546894ee1de8ed8d0e8d9901d5d8", "name": "79cf546894ee1de8ed8d0e8d9901d5d8", "lat": 38.84039766666667, "fusion_lat": 0.0, "type": "electric_bike", "lon": -76.9762295, "is_disabled": 0, "fusion_lon": 0.0, "rental_uris": {"android": "https://dc.lft.to/lastmile_qr_scan", "ios": "https://dc.lft.to/lastmile_qr_scan"}, "is_reserved": 0}, {"bike_id": "40bd5a186cfb9bd05cd46e092a624efb", "name": "40bd5a186cfb9bd05cd46e092a624efb", "lat": 38.93062316666666, "fusion_lat": 0.0, "type": "electric_scooter", "lon": -77.03816516666667, "is_disabled": 0, "fusion_lon": 0.0, "rental_uris": {"android": "https://dc.lft.to/lastmile_qr_scan", "ios": "https://dc.lft.to/lastmile_qr_scan"}, "is_reserved": 0}, {"bike_id": "0e5cb5e22c4a2b02f4c15811c0b6899b", "name": "0e5cb5e22c4a2b02f4c15811c0b6899b", "lat": 38.936601333333336, "fusion_lat": 0.0, "type": "electric_scooter", "lon": -77.0549775, "is_disabled": 0, "fusion_lon": 0.0, "rental_uris": {"android": "https://dc.lft.to/lastmile_qr_scan", "ios": "https://dc.lft.to/lastmile_qr_scan"}, "is_reserved": 0}, {"bike_id": "07a56cec111fdf452aaccd5139e56beb", "name": "07a56cec111fdf452aaccd5139e56beb", "lat": 38.906318666666664, "fusion_lat": 0.0, "type": "electric_scooter", "lon": -77.0398605, "is_disabled": 0, "fusion_lon": 0.0, "rental_uris": {"android": "https://dc.lft.to/lastmile_qr_scan", "ios": "https://dc.lft.to/lastmile_qr_scan"}, "is_reserved": 0}, {"bike_id": "edc224071e0196a83a0c3fb4122d5c3d", "name": "edc224071e0196a83a0c3fb4122d5c3d", "lat": 39.04237283333333, "fusion_lat": 0.0, "type": "electric_bike", "lon": -76.99735916666667, "is_disabled": 0, "fusion_lon": 0.0, "rental_uris": {"android": "https://dc.lft.to/lastmile_qr_scan", "ios": "https://dc.lft.to/lastmile_qr_scan"}, "is_reserved": 0}, {"bike_id": "a895bce258f48eee5e292191e5abdd93", "name": "a895bce258f48eee5e292191e5abdd93", "lat": 38.9142035, "fusion_lat": 0.0, "type": "electric_scooter", "lon": -77.03210083333333, "is_disabled": 0, "fusion_lon": 0.0, "rental_uris": {"android": "https://dc.lft.to/lastmile_qr_scan", "ios": "https://dc.lft.to/lastmile_qr_scan"}, "is_reserved": 0}, {"bike_id": "6de106db9b26536bf296343d297ae159", "name": "6de106db9b26536bf296343d297ae159", "lat": 38.973486333333334, "fusion_lat": 0.0, "type": "electric_bike", "lon": -76.99587883333334, "is_disabled": 0, "fusion_lon": 0.0, "rental_uris": {"android": "https://dc.lft.to/lastmile_qr_scan", "ios": "https://dc.lft.to/lastmile_qr_scan"}, "is_reserved": 0}, {"bike_id": "5c7b54b5939a5ab48604fa9ea5691e2a", "name": "5c7b54b5939a5ab48604fa9ea5691e2a", "lat": 38.8962375, "fusion_lat": 0.0, "type": "electric_scooter", "lon": -77.01629466666667, "is_disabled": 0, "fusion_lon": 0.0, "rental_uris": {"android": "https://dc.lft.to/lastmile_qr_scan", "ios": "https://dc.lft.to/lastmile_qr_scan"}, "is_reserved": 0}, {"bike_id": "b240a6b7eef0dcda3f4f628da4f3c3c4", "name": "b240a6b7eef0dcda3f4f628da4f3c3c4", "lat": 38.921709166666666, "fusion_lat": 0.0, "type": "electric_scooter", "lon": -77.0209135, "is_disabled": 0, "fusion_lon": 0.0, "rental_uris": {"android": "https://dc.lft.to/lastmile_qr_scan", "ios": "https://dc.lft.to/lastmile_qr_scan"}, "is_reserved": 0}, {"bike_id": "e624fafd9cfdcfdfba3e19c4db5ca214", "name": "e624fafd9cfdcfdfba3e19c4db5ca214", "lat": 38.929556, "fusion_lat": 0.0, "type": "electric_scooter", "lon": -77.03775183333333, "is_disabled": 0, "fusion_lon": 0.0, "rental_uris": {"android": "https://dc.lft.to/lastmile_qr_scan", "ios": "https://dc.lft.to/lastmile_qr_scan"}, "is_reserved": 0}, {"bike_id": "3c59c424c8cfe7226e8b435b7b0fa089", "name": "3c59c424c8cfe7226e8b435b7b0fa089", "lat": 38.901447166666664, "fusion_lat": 0.0, "type": "electric_scooter", "lon": -77.04674216666666, "is_disabled": 0, "fusion_lon": 0.0, "rental_uris": {"android": "https://dc.lft.to/lastmile_qr_scan", "ios": "https://dc.lft.to/lastmile_qr_scan"}, "is_reserved": 0}, {"bike_id": "21260a520a3b2fde558a4a80d725376f", "name": "21260a520a3b2fde558a4a80d725376f", "lat": 38.902848166666665, "fusion_lat": 0.0, "type": "electric_scooter", "lon": -77.019977, "is_disabled": 0, "fusion_lon": 0.0, "rental_uris": {"android": "https://dc.lft.to/lastmile_qr_scan", "ios": "https://dc.lft.to/lastmile_qr_scan"}, "is_reserved": 0}, {"bike_id": "d280c59f25ae5505b3c1f3fab3daf332", "name": "d280c59f25ae5505b3c1f3fab3daf332", "lat": 38.91410916666667, "fusion_lat": 0.0, "type": "electric_scooter", "lon": -77.039032, "is_disabled": 0, "fusion_lon": 0.0, "rental_uris": {"android": "https://dc.lft.to/lastmile_qr_scan", "ios": "https://dc.lft.to/lastmile_qr_scan"}, "is_reserved": 0}, {"bike_id": "44afbd50657f3e8019e6a4fdfccbd169", "name": "44afbd50657f3e8019e6a4fdfccbd169", "lat": 38.9736775, "fusion_lat": 0.0, "type": "electric_scooter", "lon": -77.01864916666666, "is_disabled": 0, "fusion_lon": 0.0, "rental_uris": {"android": "https://dc.lft.to/lastmile_qr_scan", "ios": "https://dc.lft.to/lastmile_qr_scan"}, "is_reserved": 0}, {"bike_id": "a66366e8095de6aaa851c57e5caf969a", "name": "a66366e8095de6aaa851c57e5caf969a", "lat": 38.898280166666666, "fusion_lat": 0.0, "type": "electric_scooter", "lon": -77.02498716666666, "is_disabled": 0, "fusion_lon": 0.0, "rental_uris": {"android": "https://dc.lft.to/lastmile_qr_scan", "ios": "https://dc.lft.to/lastmile_qr_scan"}, "is_reserved": 0}, {"bike_id": "a8abd32e53ba9982317e81e7545a07ef", "name": "a8abd32e53ba9982317e81e7545a07ef", "lat": 38.952153833333334, "fusion_lat": 0.0, "type": "electric_scooter", "lon": -77.01600433333333, "is_disabled": 0, "fusion_lon": 0.0, "rental_uris": {"android": "https://dc.lft.to/lastmile_qr_scan", "ios": "https://dc.lft.to/lastmile_qr_scan"}, "is_reserved": 0}, {"bike_id": "59a3d780865fd51a446593ab172a6f85", "name": "59a3d780865fd51a446593ab172a6f85", "lat": 38.900865, "fusion_lat": 0.0, "type": "electric_scooter", "lon": -77.03455883333334, "is_disabled": 0, "fusion_lon": 0.0, "rental_uris": {"android": "https://dc.lft.to/lastmile_qr_scan", "ios": "https://dc.lft.to/lastmile_qr_scan"}, "is_reserved": 0}, {"bike_id": "d32cf73a11e2d5f3c416375fb247e2f3", "name": "d32cf73a11e2d5f3c416375fb247e2f3", "lat": 38.920551833333334, "fusion_lat": 0.0, "type": "electric_scooter", "lon": -77.029861, "is_disabled": 0, "fusion_lon": 0.0, "rental_uris": {"android": "https://dc.lft.to/lastmile_qr_scan", "ios": "https://dc.lft.to/lastmile_qr_scan"}, "is_reserved": 0}, {"bike_id": "89ba80ed53d3096f917b5874995eb295", "name": "89ba80ed53d3096f917b5874995eb295", "lat": 38.8868925, "fusion_lat": 0.0, "type": "electric_scooter", "lon": -77.00341966666667, "is_disabled": 0, "fusion_lon": 0.0, "rental_uris": {"android": "https://dc.lft.to/lastmile_qr_scan", "ios": "https://dc.lft.to/lastmile_qr_scan"}, "is_reserved": 0}, {"bike_id": "10f98df0669e1f05eaaa0c1cab1eee2b", "name": "10f98df0669e1f05eaaa0c1cab1eee2b", "lat": 38.9473235, "fusion_lat": 0.0, "type": "electric_scooter", "lon": -77.0246515, "is_disabled": 0, "fusion_lon": 0.0, "rental_uris": {"android": "https://dc.lft.to/lastmile_qr_scan", "ios": "https://dc.lft.to/lastmile_qr_scan"}, "is_reserved": 0}, {"bike_id": "98d2eea59ddd1897e0c2e4a0f91c6f5b", "name": "98d2eea59ddd1897e0c2e4a0f91c6f5b", "lat": 38.900756333333334, "fusion_lat": 0.0, "type": "electric_scooter", "lon": -76.92746483333333, "is_disabled": 0, "fusion_lon": 0.0, "rental_uris": {"android": "https://dc.lft.to/lastmile_qr_scan", "ios": "https://dc.lft.to/lastmile_qr_scan"}, "is_reserved": 0}, {"bike_id": "5766e66892bf1c987ca17a40f18b6059", "name": "5766e66892bf1c987ca17a40f18b6059", "lat": 38.89608366666667, "fusion_lat": 0.0, "type": "electric_scooter", "lon": -77.00925066666667, "is_disabled": 0, "fusion_lon": 0.0, "rental_uris": {"android": "https://dc.lft.to/lastmile_qr_scan", "ios": "https://dc.lft.to/lastmile_qr_scan"}, "is_reserved": 0}, {"bike_id": "90f8f8e0202011ce6b60f9cfd957356e", "name": "90f8f8e0202011ce6b60f9cfd957356e", "lat": 38.929724, "fusion_lat": 0.0, "type": "electric_scooter", "lon": -77.02336183333334, "is_disabled": 0, "fusion_lon": 0.0, "rental_uris": {"android": "https://dc.lft.to/lastmile_qr_scan", "ios": "https://dc.lft.to/lastmile_qr_scan"}, "is_reserved": 0}, {"bike_id": "1b20a6649b82eb4f314f6b73585e6787", "name": "1b20a6649b82eb4f314f6b73585e6787", "lat": 38.91401333333334, "fusion_lat": 0.0, "type": "electric_scooter", "lon": -77.01794533333333, "is_disabled": 0, "fusion_lon": 0.0, "rental_uris": {"android": "https://dc.lft.to/lastmile_qr_scan", "ios": "https://dc.lft.to/lastmile_qr_scan"}, "is_reserved": 0}, {"bike_id": "0583f391746327b8c66048c226fa020a", "name": "0583f391746327b8c66048c226fa020a", "lat": 38.92049333333333, "fusion_lat": 0.0, "type": "electric_scooter", "lon": -77.01670566666667, "is_disabled": 0, "fusion_lon": 0.0, "rental_uris": {"android": "https://dc.lft.to/lastmile_qr_scan", "ios": "https://dc.lft.to/lastmile_qr_scan"}, "is_reserved": 0}, {"bike_id": "4352c0cdecd3e1b97bcea53d2bd30d59", "name": "4352c0cdecd3e1b97bcea53d2bd30d59", "lat": 38.998891, "fusion_lat": 0.0, "type": "electric_bike", "lon": -76.90856783333334, "is_disabled": 0, "fusion_lon": 0.0, "rental_uris": {"android": "https://dc.lft.to/lastmile_qr_scan", "ios": "https://dc.lft.to/lastmile_qr_scan"}, "is_reserved": 0}, {"bike_id": "58543fb3507768673f729322ace3a936", "name": "58543fb3507768673f729322ace3a936", "lat": 38.945574, "fusion_lat": 0.0, "type": "electric_bike", "lon": -76.97092483333333, "is_disabled": 0, "fusion_lon": 0.0, "rental_uris": {"android": "https://dc.lft.to/lastmile_qr_scan", "ios": "https://dc.lft.to/lastmile_qr_scan"}, "is_reserved": 0}, {"bike_id": "11e4453b9c0fc38ce6c36108d3737d90", "name": "11e4453b9c0fc38ce6c36108d3737d90", "lat": 38.9245575, "fusion_lat": 0.0, "type": "electric_scooter", "lon": -77.02033583333333, "is_disabled": 0, "fusion_lon": 0.0, "rental_uris": {"android": "https://dc.lft.to/lastmile_qr_scan", "ios": "https://dc.lft.to/lastmile_qr_scan"}, "is_reserved": 0}, {"bike_id": "3697489f38dccde658f0d7776eb63a5a", "name": "3697489f38dccde658f0d7776eb63a5a", "lat": 38.870455, "fusion_lat": 0.0, "type": "electric_bike", "lon": -77.229143, "is_disabled": 0, "fusion_lon": 0.0, "rental_uris": {"android": "https://dc.lft.to/lastmile_qr_scan", "ios": "https://dc.lft.to/lastmile_qr_scan"}, "is_reserved": 0}, {"bike_id": "478d7ef6076d60eab9d32dc7b1a0892b", "name": "478d7ef6076d60eab9d32dc7b1a0892b", "lat": 38.90110816666667, "fusion_lat": 0.0, "type": "electric_scooter", "lon": -77.01247333333333, "is_disabled": 0, "fusion_lon": 0.0, "rental_uris": {"android": "https://dc.lft.to/lastmile_qr_scan", "ios": "https://dc.lft.to/lastmile_qr_scan"}, "is_reserved": 0}, {"bike_id": "01d899bb6ea78b8263728f76589d3224", "name": "01d899bb6ea78b8263728f76589d3224", "lat": 38.91495233333333, "fusion_lat": 0.0, "type": "electric_scooter", "lon": -77.03287416666667, "is_disabled": 0, "fusion_lon": 0.0, "rental_uris": {"android": "https://dc.lft.to/lastmile_qr_scan", "ios": "https://dc.lft.to/lastmile_qr_scan"}, "is_reserved": 0}, {"bike_id": "a69cc4cd0795adb6bed79ed7cdf431ac", "name": "a69cc4cd0795adb6bed79ed7cdf431ac", "lat": 38.908183666666666, "fusion_lat": 0.0, "type": "electric_bike", "lon": -76.997142, "is_disabled": 0, "fusion_lon": 0.0, "rental_uris": {"android": "https://dc.lft.to/lastmile_qr_scan", "ios": "https://dc.lft.to/lastmile_qr_scan"}, "is_reserved": 0}, {"bike_id": "bc665bd31ec1dc19dfcce597a5edff81", "name": "bc665bd31ec1dc19dfcce597a5edff81", "lat": 38.8543915, "fusion_lat": 0.0, "type": "electric_bike", "lon": -77.0831915, "is_disabled": 0, "fusion_lon": 0.0, "rental_uris": {"android": "https://dc.lft.to/lastmile_qr_scan", "ios": "https://dc.lft.to/lastmile_qr_scan"}, "is_reserved": 0}, {"bike_id": "d73a4a227350ba9911d9898266221f36", "name": "d73a4a227350ba9911d9898266221f36", "lat": 38.897103, "fusion_lat": 0.0, "type": "electric_scooter", "lon": -76.9911985, "is_disabled": 0, "fusion_lon": 0.0, "rental_uris": {"android": "https://dc.lft.to/lastmile_qr_scan", "ios": "https://dc.lft.to/lastmile_qr_scan"}, "is_reserved": 0}, {"bike_id": "0d3e1c29fd659a88fdfed018772969a0", "name": "0d3e1c29fd659a88fdfed018772969a0", "lat": 38.9422595, "fusion_lat": 0.0, "type": "electric_scooter", "lon": -77.02964333333334, "is_disabled": 0, "fusion_lon": 0.0, "rental_uris": {"android": "https://dc.lft.to/lastmile_qr_scan", "ios": "https://dc.lft.to/lastmile_qr_scan"}, "is_reserved": 0}, {"bike_id": "0db199fb909847a6a2f7f7d8562887db", "name": "0db199fb909847a6a2f7f7d8562887db", "lat": 38.92329066666667, "fusion_lat": 0.0, "type": "electric_scooter", "lon": -77.01963366666666, "is_disabled": 0, "fusion_lon": 0.0, "rental_uris": {"android": "https://dc.lft.to/lastmile_qr_scan", "ios": "https://dc.lft.to/lastmile_qr_scan"}, "is_reserved": 0}, {"bike_id": "52cd001258927bac3bf7395ef6f33c91", "name": "52cd001258927bac3bf7395ef6f33c91", "lat": 38.90701716666667, "fusion_lat": 0.0, "type": "electric_scooter", "lon": -77.02385633333333, "is_disabled": 0, "fusion_lon": 0.0, "rental_uris": {"android": "https://dc.lft.to/lastmile_qr_scan", "ios": "https://dc.lft.to/lastmile_qr_scan"}, "is_reserved": 0}, {"bike_id": "911b8c347e00e64a4145a4fa345879e1", "name": "911b8c347e00e64a4145a4fa345879e1", "lat": 38.922398666666666, "fusion_lat": 0.0, "type": "electric_scooter", "lon": -77.04384066666667, "is_disabled": 0, "fusion_lon": 0.0, "rental_uris": {"android": "https://dc.lft.to/lastmile_qr_scan", "ios": "https://dc.lft.to/lastmile_qr_scan"}, "is_reserved": 0}, {"bike_id": "201c49f83c42af62939723a337517e1a", "name": "201c49f83c42af62939723a337517e1a", "lat": 38.932491666666664, "fusion_lat": 0.0, "type": "electric_scooter", "lon": -77.03636266666666, "is_disabled": 0, "fusion_lon": 0.0, "rental_uris": {"android": "https://dc.lft.to/lastmile_qr_scan", "ios": "https://dc.lft.to/lastmile_qr_scan"}, "is_reserved": 0}, {"bike_id": "0656b0b84b21db258a000e04479bf140", "name": "0656b0b84b21db258a000e04479bf140", "lat": 38.92017233333333, "fusion_lat": 0.0, "type": "electric_scooter", "lon": -77.03207233333333, "is_disabled": 0, "fusion_lon": 0.0, "rental_uris": {"android": "https://dc.lft.to/lastmile_qr_scan", "ios": "https://dc.lft.to/lastmile_qr_scan"}, "is_reserved": 0}, {"bike_id": "1d27049ec895aaaca66b03435110669d", "name": "1d27049ec895aaaca66b03435110669d", "lat": 38.91846966666667, "fusion_lat": 0.0, "type": "electric_scooter", "lon": -77.04176566666666, "is_disabled": 0, "fusion_lon": 0.0, "rental_uris": {"android": "https://dc.lft.to/lastmile_qr_scan", "ios": "https://dc.lft.to/lastmile_qr_scan"}, "is_reserved": 0}, {"bike_id": "077ad6ca729e3ccef3dcee744da23007", "name": "077ad6ca729e3ccef3dcee744da23007", "lat": 38.89427333333333, "fusion_lat": 0.0, "type": "electric_scooter", "lon": -77.055924, "is_disabled": 0, "fusion_lon": 0.0, "rental_uris": {"android": "https://dc.lft.to/lastmile_qr_scan", "ios": "https://dc.lft.to/lastmile_qr_scan"}, "is_reserved": 0}, {"bike_id": "bf974506d72935e7bcccf9591c914b44", "name": "bf974506d72935e7bcccf9591c914b44", "lat": 38.88122466666667, "fusion_lat": 0.0, "type": "electric_scooter", "lon": -77.0009375, "is_disabled": 0, "fusion_lon": 0.0, "rental_uris": {"android": "https://dc.lft.to/lastmile_qr_scan", "ios": "https://dc.lft.to/lastmile_qr_scan"}, "is_reserved": 0}, {"bike_id": "a44280a04c2162a39760cdc238a8516a", "name": "a44280a04c2162a39760cdc238a8516a", "lat": 38.9070175, "fusion_lat": 0.0, "type": "electric_scooter", "lon": -77.036296, "is_disabled": 0, "fusion_lon": 0.0, "rental_uris": {"android": "https://dc.lft.to/lastmile_qr_scan", "ios": "https://dc.lft.to/lastmile_qr_scan"}, "is_reserved": 0}, {"bike_id": "5b785045de14e4657a2a4f76dadd3cc9", "name": "5b785045de14e4657a2a4f76dadd3cc9", "lat": 38.8948385, "fusion_lat": 0.0, "type": "electric_scooter", "lon": -76.99581666666667, "is_disabled": 0, "fusion_lon": 0.0, "rental_uris": {"android": "https://dc.lft.to/lastmile_qr_scan", "ios": "https://dc.lft.to/lastmile_qr_scan"}, "is_reserved": 0}, {"bike_id": "95934d7a1e55fb5f4c83699f8fe44417", "name": "95934d7a1e55fb5f4c83699f8fe44417", "lat": 38.922041166666666, "fusion_lat": 0.0, "type": "electric_scooter", "lon": -76.99767516666667, "is_disabled": 0, "fusion_lon": 0.0, "rental_uris": {"android": "https://dc.lft.to/lastmile_qr_scan", "ios": "https://dc.lft.to/lastmile_qr_scan"}, "is_reserved": 0}, {"bike_id": "292c235d7a246ca09eb6f4513432b326", "name": "292c235d7a246ca09eb6f4513432b326", "lat": 38.8649745, "fusion_lat": 0.0, "type": "electric_scooter", "lon": -76.97753833333333, "is_disabled": 0, "fusion_lon": 0.0, "rental_uris": {"android": "https://dc.lft.to/lastmile_qr_scan", "ios": "https://dc.lft.to/lastmile_qr_scan"}, "is_reserved": 0}, {"bike_id": "9b7c6e983fd484ebc83016e7ffb06a8e", "name": "9b7c6e983fd484ebc83016e7ffb06a8e", "lat": 38.8961505, "fusion_lat": 0.0, "type": "electric_bike", "lon": -76.90736166666667, "is_disabled": 0, "fusion_lon": 0.0, "rental_uris": {"android": "https://dc.lft.to/lastmile_qr_scan", "ios": "https://dc.lft.to/lastmile_qr_scan"}, "is_reserved": 0}, {"bike_id": "e6e002c5e37e368d53d4788ed0af43df", "name": "e6e002c5e37e368d53d4788ed0af43df", "lat": 38.92497983333333, "fusion_lat": 0.0, "type": "electric_scooter", "lon": -77.03926083333333, "is_disabled": 0, "fusion_lon": 0.0, "rental_uris": {"android": "https://dc.lft.to/lastmile_qr_scan", "ios": "https://dc.lft.to/lastmile_qr_scan"}, "is_reserved": 0}, {"bike_id": "f2258e679cb45d174ca0f6758872f365", "name": "f2258e679cb45d174ca0f6758872f365", "lat": 38.89354183333333, "fusion_lat": 0.0, "type": "electric_scooter", "lon": -77.01744233333334, "is_disabled": 0, "fusion_lon": 0.0, "rental_uris": {"android": "https://dc.lft.to/lastmile_qr_scan", "ios": "https://dc.lft.to/lastmile_qr_scan"}, "is_reserved": 0}, {"bike_id": "8abb90e7a537c2d2f898b2deb165d342", "name": "8abb90e7a537c2d2f898b2deb165d342", "lat": 38.906161166666664, "fusion_lat": 0.0, "type": "electric_scooter", "lon": -77.05035033333333, "is_disabled": 0, "fusion_lon": 0.0, "rental_uris": {"android": "https://dc.lft.to/lastmile_qr_scan", "ios": "https://dc.lft.to/lastmile_qr_scan"}, "is_reserved": 0}, {"bike_id": "8dd6f886ee07a4d48ac334c8cc6db4e9", "name": "8dd6f886ee07a4d48ac334c8cc6db4e9", "lat": 38.905902833333336, "fusion_lat": 0.0, "type": "electric_scooter", "lon": -77.016088, "is_disabled": 0, "fusion_lon": 0.0, "rental_uris": {"android": "https://dc.lft.to/lastmile_qr_scan", "ios": "https://dc.lft.to/lastmile_qr_scan"}, "is_reserved": 0}, {"bike_id": "078561dcca95dfa680cd8f6c92eab616", "name": "078561dcca95dfa680cd8f6c92eab616", "lat": 38.90847383333333, "fusion_lat": 0.0, "type": "electric_scooter", "lon": -76.99973266666667, "is_disabled": 0, "fusion_lon": 0.0, "rental_uris": {"android": "https://dc.lft.to/lastmile_qr_scan", "ios": "https://dc.lft.to/lastmile_qr_scan"}, "is_reserved": 0}, {"bike_id": "ad462bcd9d014a8c0e94cbdf1bb5421b", "name": "ad462bcd9d014a8c0e94cbdf1bb5421b", "lat": 38.92935216666667, "fusion_lat": 0.0, "type": "electric_scooter", "lon": -77.037629, "is_disabled": 0, "fusion_lon": 0.0, "rental_uris": {"android": "https://dc.lft.to/lastmile_qr_scan", "ios": "https://dc.lft.to/lastmile_qr_scan"}, "is_reserved": 0}, {"bike_id": "6582fa493f102fc2e417c1057fe0b497", "name": "6582fa493f102fc2e417c1057fe0b497", "lat": 38.901611, "fusion_lat": 0.0, "type": "electric_scooter", "lon": -77.05108733333333, "is_disabled": 0, "fusion_lon": 0.0, "rental_uris": {"android": "https://dc.lft.to/lastmile_qr_scan", "ios": "https://dc.lft.to/lastmile_qr_scan"}, "is_reserved": 0}, {"bike_id": "29293453c063f2072c7a1dca4a32998f", "name": "29293453c063f2072c7a1dca4a32998f", "lat": 38.887902, "fusion_lat": 0.0, "type": "electric_scooter", "lon": -76.97713866666666, "is_disabled": 0, "fusion_lon": 0.0, "rental_uris": {"android": "https://dc.lft.to/lastmile_qr_scan", "ios": "https://dc.lft.to/lastmile_qr_scan"}, "is_reserved": 0}, {"bike_id": "265061bfe411d1db153a5169194cfb3f", "name": "265061bfe411d1db153a5169194cfb3f", "lat": 38.882822166666664, "fusion_lat": 0.0, "type": "electric_bike", "lon": -77.11186783333333, "is_disabled": 0, "fusion_lon": 0.0, "rental_uris": {"android": "https://dc.lft.to/lastmile_qr_scan", "ios": "https://dc.lft.to/lastmile_qr_scan"}, "is_reserved": 0}, {"bike_id": "0a7da9fd6ebb1ecf0472babe8e91e635", "name": "0a7da9fd6ebb1ecf0472babe8e91e635", "lat": 38.87299316666667, "fusion_lat": 0.0, "type": "electric_scooter", "lon": -77.01558116666666, "is_disabled": 0, "fusion_lon": 0.0, "rental_uris": {"android": "https://dc.lft.to/lastmile_qr_scan", "ios": "https://dc.lft.to/lastmile_qr_scan"}, "is_reserved": 0}, {"bike_id": "2a030b60fa59bb47e80ce2fdd19cb648", "name": "2a030b60fa59bb47e80ce2fdd19cb648", "lat": 38.9242295, "fusion_lat": 0.0, "type": "electric_scooter", "lon": -77.0194565, "is_disabled": 0, "fusion_lon": 0.0, "rental_uris": {"android": "https://dc.lft.to/lastmile_qr_scan", "ios": "https://dc.lft.to/lastmile_qr_scan"}, "is_reserved": 0}, {"bike_id": "384f3f435d68bd8dff6e853fefd19a50", "name": "384f3f435d68bd8dff6e853fefd19a50", "lat": 38.9127205, "fusion_lat": 0.0, "type": "electric_scooter", "lon": -77.0317555, "is_disabled": 0, "fusion_lon": 0.0, "rental_uris": {"android": "https://dc.lft.to/lastmile_qr_scan", "ios": "https://dc.lft.to/lastmile_qr_scan"}, "is_reserved": 0}, {"bike_id": "3322fe4b1446dee311f658ceb0ea39ff", "name": "3322fe4b1446dee311f658ceb0ea39ff", "lat": 38.914254, "fusion_lat": 0.0, "type": "electric_scooter", "lon": -77.018044, "is_disabled": 0, "fusion_lon": 0.0, "rental_uris": {"android": "https://dc.lft.to/lastmile_qr_scan", "ios": "https://dc.lft.to/lastmile_qr_scan"}, "is_reserved": 0}, {"bike_id": "4f6248e792398390124729367fdecd77", "name": "4f6248e792398390124729367fdecd77", "lat": 38.903149166666665, "fusion_lat": 0.0, "type": "electric_scooter", "lon": -77.0163185, "is_disabled": 0, "fusion_lon": 0.0, "rental_uris": {"android": "https://dc.lft.to/lastmile_qr_scan", "ios": "https://dc.lft.to/lastmile_qr_scan"}, "is_reserved": 0}, {"bike_id": "c932b08781d3118ee4afde0c7e96547d", "name": "c932b08781d3118ee4afde0c7e96547d", "lat": 38.915382, "fusion_lat": 0.0, "type": "electric_scooter", "lon": -77.02184233333334, "is_disabled": 0, "fusion_lon": 0.0, "rental_uris": {"android": "https://dc.lft.to/lastmile_qr_scan", "ios": "https://dc.lft.to/lastmile_qr_scan"}, "is_reserved": 0}, {"bike_id": "7b6d1e0d2cccea1a2a30ee22f7d587b4", "name": "7b6d1e0d2cccea1a2a30ee22f7d587b4", "lat": 38.89637283333333, "fusion_lat": 0.0, "type": "electric_scooter", "lon": -77.00215433333334, "is_disabled": 0, "fusion_lon": 0.0, "rental_uris": {"android": "https://dc.lft.to/lastmile_qr_scan", "ios": "https://dc.lft.to/lastmile_qr_scan"}, "is_reserved": 0}, {"bike_id": "0821af1392640e90a7f2d86633b88c24", "name": "0821af1392640e90a7f2d86633b88c24", "lat": 38.87895316666667, "fusion_lat": 0.0, "type": "electric_scooter", "lon": -76.99159433333334, "is_disabled": 0, "fusion_lon": 0.0, "rental_uris": {"android": "https://dc.lft.to/lastmile_qr_scan", "ios": "https://dc.lft.to/lastmile_qr_scan"}, "is_reserved": 0}, {"bike_id": "12e2127d2289b53e74d9610bf9d3673e", "name": "12e2127d2289b53e74d9610bf9d3673e", "lat": 38.927956, "fusion_lat": 0.0, "type": "electric_scooter", "lon": -77.03647633333334, "is_disabled": 0, "fusion_lon": 0.0, "rental_uris": {"android": "https://dc.lft.to/lastmile_qr_scan", "ios": "https://dc.lft.to/lastmile_qr_scan"}, "is_reserved": 0}, {"bike_id": "0f3e8612a381e8833c4d10ab71b9680e", "name": "0f3e8612a381e8833c4d10ab71b9680e", "lat": 38.898607, "fusion_lat": 0.0, "type": "electric_scooter", "lon": -77.02726733333333, "is_disabled": 0, "fusion_lon": 0.0, "rental_uris": {"android": "https://dc.lft.to/lastmile_qr_scan", "ios": "https://dc.lft.to/lastmile_qr_scan"}, "is_reserved": 0}, {"bike_id": "9675561000a3312be2fbb6cda65cabda", "name": "9675561000a3312be2fbb6cda65cabda", "lat": 38.90961716666666, "fusion_lat": 0.0, "type": "electric_scooter", "lon": -77.01438633333333, "is_disabled": 0, "fusion_lon": 0.0, "rental_uris": {"android": "https://dc.lft.to/lastmile_qr_scan", "ios": "https://dc.lft.to/lastmile_qr_scan"}, "is_reserved": 0}, {"bike_id": "95d2c914ce614063bd170a79461b64c0", "name": "95d2c914ce614063bd170a79461b64c0", "lat": 38.901743833333335, "fusion_lat": 0.0, "type": "electric_scooter", "lon": -77.04869483333333, "is_disabled": 0, "fusion_lon": 0.0, "rental_uris": {"android": "https://dc.lft.to/lastmile_qr_scan", "ios": "https://dc.lft.to/lastmile_qr_scan"}, "is_reserved": 0}, {"bike_id": "97ed09748a91446a6cccceb5a7caab66", "name": "97ed09748a91446a6cccceb5a7caab66", "lat": 38.907727, "fusion_lat": 0.0, "type": "electric_scooter", "lon": -77.022014, "is_disabled": 0, "fusion_lon": 0.0, "rental_uris": {"android": "https://dc.lft.to/lastmile_qr_scan", "ios": "https://dc.lft.to/lastmile_qr_scan"}, "is_reserved": 0}, {"bike_id": "59b6e74faeb977e3344966020d20f731", "name": "59b6e74faeb977e3344966020d20f731", "lat": 38.9240605, "fusion_lat": 0.0, "type": "electric_scooter", "lon": -76.9514625, "is_disabled": 0, "fusion_lon": 0.0, "rental_uris": {"android": "https://dc.lft.to/lastmile_qr_scan", "ios": "https://dc.lft.to/lastmile_qr_scan"}, "is_reserved": 0}, {"bike_id": "d46cc9b15bae30d91af3ffc2a47bfa24", "name": "d46cc9b15bae30d91af3ffc2a47bfa24", "lat": 38.898884333333335, "fusion_lat": 0.0, "type": "electric_bike", "lon": -76.97878116666666, "is_disabled": 0, "fusion_lon": 0.0, "rental_uris": {"android": "https://dc.lft.to/lastmile_qr_scan", "ios": "https://dc.lft.to/lastmile_qr_scan"}, "is_reserved": 0}, {"bike_id": "e051610ac6c0f11802d7e6d8a9ec612f", "name": "e051610ac6c0f11802d7e6d8a9ec612f", "lat": 38.91406166666667, "fusion_lat": 0.0, "type": "electric_scooter", "lon": -77.04677583333333, "is_disabled": 0, "fusion_lon": 0.0, "rental_uris": {"android": "https://dc.lft.to/lastmile_qr_scan", "ios": "https://dc.lft.to/lastmile_qr_scan"}, "is_reserved": 0}, {"bike_id": "44e3be65dc911fef30f7339c494447f4", "name": "44e3be65dc911fef30f7339c494447f4", "lat": 38.916429, "fusion_lat": 0.0, "type": "electric_scooter", "lon": -77.0209765, "is_disabled": 0, "fusion_lon": 0.0, "rental_uris": {"android": "https://dc.lft.to/lastmile_qr_scan", "ios": "https://dc.lft.to/lastmile_qr_scan"}, "is_reserved": 0}, {"bike_id": "dc04c83bec558cb8f8696a9296444e8f", "name": "dc04c83bec558cb8f8696a9296444e8f", "lat": 38.88613316666667, "fusion_lat": 0.0, "type": "electric_scooter", "lon": -76.9965625, "is_disabled": 0, "fusion_lon": 0.0, "rental_uris": {"android": "https://dc.lft.to/lastmile_qr_scan", "ios": "https://dc.lft.to/lastmile_qr_scan"}, "is_reserved": 0}, {"bike_id": "1d22f807b63b4cf956069b253a77e7a9", "name": "1d22f807b63b4cf956069b253a77e7a9", "lat": 38.931132, "fusion_lat": 0.0, "type": "electric_scooter", "lon": -77.0350945, "is_disabled": 0, "fusion_lon": 0.0, "rental_uris": {"android": "https://dc.lft.to/lastmile_qr_scan", "ios": "https://dc.lft.to/lastmile_qr_scan"}, "is_reserved": 0}, {"bike_id": "52ed4f13d3f6dc60aa18263be31a407c", "name": "52ed4f13d3f6dc60aa18263be31a407c", "lat": 38.89966833333333, "fusion_lat": 0.0, "type": "electric_scooter", "lon": -77.04484033333334, "is_disabled": 0, "fusion_lon": 0.0, "rental_uris": {"android": "https://dc.lft.to/lastmile_qr_scan", "ios": "https://dc.lft.to/lastmile_qr_scan"}, "is_reserved": 0}, {"bike_id": "7b9780dfbbf0cf5c1b9417b6b50b3cc5", "name": "7b9780dfbbf0cf5c1b9417b6b50b3cc5", "lat": 38.908716166666665, "fusion_lat": 0.0, "type": "electric_scooter", "lon": -77.04395866666667, "is_disabled": 0, "fusion_lon": 0.0, "rental_uris": {"android": "https://dc.lft.to/lastmile_qr_scan", "ios": "https://dc.lft.to/lastmile_qr_scan"}, "is_reserved": 0}, {"bike_id": "82cf677f63c4ae166a12e48b8211146f", "name": "82cf677f63c4ae166a12e48b8211146f", "lat": 38.9261195, "fusion_lat": 0.0, "type": "electric_scooter", "lon": -77.05702616666666, "is_disabled": 0, "fusion_lon": 0.0, "rental_uris": {"android": "https://dc.lft.to/lastmile_qr_scan", "ios": "https://dc.lft.to/lastmile_qr_scan"}, "is_reserved": 0}, {"bike_id": "8ed127b06385d8de140f6fb02a028c7c", "name": "8ed127b06385d8de140f6fb02a028c7c", "lat": 38.8875725, "fusion_lat": 0.0, "type": "electric_bike", "lon": -77.08921783333334, "is_disabled": 0, "fusion_lon": 0.0, "rental_uris": {"android": "https://dc.lft.to/lastmile_qr_scan", "ios": "https://dc.lft.to/lastmile_qr_scan"}, "is_reserved": 0}, {"bike_id": "46172ed82d21fbd87a5e0905a9f93802", "name": "46172ed82d21fbd87a5e0905a9f93802", "lat": 38.92227316666666, "fusion_lat": 0.0, "type": "electric_scooter", "lon": -77.04330666666667, "is_disabled": 0, "fusion_lon": 0.0, "rental_uris": {"android": "https://dc.lft.to/lastmile_qr_scan", "ios": "https://dc.lft.to/lastmile_qr_scan"}, "is_reserved": 0}, {"bike_id": "ebe6efafeb212762493f2d2688e3fffe", "name": "ebe6efafeb212762493f2d2688e3fffe", "lat": 38.926115333333335, "fusion_lat": 0.0, "type": "electric_scooter", "lon": -77.02153633333333, "is_disabled": 0, "fusion_lon": 0.0, "rental_uris": {"android": "https://dc.lft.to/lastmile_qr_scan", "ios": "https://dc.lft.to/lastmile_qr_scan"}, "is_reserved": 0}, {"bike_id": "32d16292ef43d98fa8d001e6c6743552", "name": "32d16292ef43d98fa8d001e6c6743552", "lat": 38.91823933333333, "fusion_lat": 0.0, "type": "electric_scooter", "lon": -77.02822566666667, "is_disabled": 0, "fusion_lon": 0.0, "rental_uris": {"android": "https://dc.lft.to/lastmile_qr_scan", "ios": "https://dc.lft.to/lastmile_qr_scan"}, "is_reserved": 0}, {"bike_id": "18f209ba8837bd95a5d2cb0c0152cabc", "name": "18f209ba8837bd95a5d2cb0c0152cabc", "lat": 38.9004555, "fusion_lat": 0.0, "type": "electric_scooter", "lon": -77.00201416666667, "is_disabled": 0, "fusion_lon": 0.0, "rental_uris": {"android": "https://dc.lft.to/lastmile_qr_scan", "ios": "https://dc.lft.to/lastmile_qr_scan"}, "is_reserved": 0}, {"bike_id": "9c84657c0d0e0ad0e78a12647ec88f2e", "name": "9c84657c0d0e0ad0e78a12647ec88f2e", "lat": 38.923366, "fusion_lat": 0.0, "type": "electric_scooter", "lon": -77.0365955, "is_disabled": 0, "fusion_lon": 0.0, "rental_uris": {"android": "https://dc.lft.to/lastmile_qr_scan", "ios": "https://dc.lft.to/lastmile_qr_scan"}, "is_reserved": 0}, {"bike_id": "dbdcd8730409fd47e7abf1f840ff565d", "name": "dbdcd8730409fd47e7abf1f840ff565d", "lat": 38.905283833333336, "fusion_lat": 0.0, "type": "electric_scooter", "lon": -77.04165333333333, "is_disabled": 0, "fusion_lon": 0.0, "rental_uris": {"android": "https://dc.lft.to/lastmile_qr_scan", "ios": "https://dc.lft.to/lastmile_qr_scan"}, "is_reserved": 0}, {"bike_id": "96638e44c77ce854c0fba924a01ba770", "name": "96638e44c77ce854c0fba924a01ba770", "lat": 38.91987483333333, "fusion_lat": 0.0, "type": "electric_scooter", "lon": -77.03306516666666, "is_disabled": 0, "fusion_lon": 0.0, "rental_uris": {"android": "https://dc.lft.to/lastmile_qr_scan", "ios": "https://dc.lft.to/lastmile_qr_scan"}, "is_reserved": 0}, {"bike_id": "60beeb04a314988c990b36e8bc538910", "name": "60beeb04a314988c990b36e8bc538910", "lat": 38.9040785, "fusion_lat": 0.0, "type": "electric_scooter", "lon": -77.02502383333334, "is_disabled": 0, "fusion_lon": 0.0, "rental_uris": {"android": "https://dc.lft.to/lastmile_qr_scan", "ios": "https://dc.lft.to/lastmile_qr_scan"}, "is_reserved": 0}, {"bike_id": "422d820c82b2aca018f60700b15e1950", "name": "422d820c82b2aca018f60700b15e1950", "lat": 38.92059233333333, "fusion_lat": 0.0, "type": "electric_scooter", "lon": -77.0313475, "is_disabled": 0, "fusion_lon": 0.0, "rental_uris": {"android": "https://dc.lft.to/lastmile_qr_scan", "ios": "https://dc.lft.to/lastmile_qr_scan"}, "is_reserved": 0}, {"bike_id": "5ad51d998438f6c46bbaecd226cb9a03", "name": "5ad51d998438f6c46bbaecd226cb9a03", "lat": 38.904057333333334, "fusion_lat": 0.0, "type": "electric_scooter", "lon": -77.06770233333333, "is_disabled": 0, "fusion_lon": 0.0, "rental_uris": {"android": "https://dc.lft.to/lastmile_qr_scan", "ios": "https://dc.lft.to/lastmile_qr_scan"}, "is_reserved": 0}, {"bike_id": "652e8dfd3953dc99655ef7d6b4252afd", "name": "652e8dfd3953dc99655ef7d6b4252afd", "lat": 38.91430666666667, "fusion_lat": 0.0, "type": "electric_scooter", "lon": -77.03184366666666, "is_disabled": 0, "fusion_lon": 0.0, "rental_uris": {"android": "https://dc.lft.to/lastmile_qr_scan", "ios": "https://dc.lft.to/lastmile_qr_scan"}, "is_reserved": 0}, {"bike_id": "68789651b83c77e026fcecbec6627599", "name": "68789651b83c77e026fcecbec6627599", "lat": 38.91820166666667, "fusion_lat": 0.0, "type": "electric_scooter", "lon": -77.03158866666666, "is_disabled": 0, "fusion_lon": 0.0, "rental_uris": {"android": "https://dc.lft.to/lastmile_qr_scan", "ios": "https://dc.lft.to/lastmile_qr_scan"}, "is_reserved": 0}, {"bike_id": "0d9c72b698fba5bf8621ba33ffd5a14e", "name": "0d9c72b698fba5bf8621ba33ffd5a14e", "lat": 38.929253, "fusion_lat": 0.0, "type": "electric_scooter", "lon": -76.998146, "is_disabled": 0, "fusion_lon": 0.0, "rental_uris": {"android": "https://dc.lft.to/lastmile_qr_scan", "ios": "https://dc.lft.to/lastmile_qr_scan"}, "is_reserved": 0}, {"bike_id": "5125d646b5e64d2bf9afa6dca8164338", "name": "5125d646b5e64d2bf9afa6dca8164338", "lat": 38.900341166666664, "fusion_lat": 0.0, "type": "electric_scooter", "lon": -77.02180783333333, "is_disabled": 0, "fusion_lon": 0.0, "rental_uris": {"android": "https://dc.lft.to/lastmile_qr_scan", "ios": "https://dc.lft.to/lastmile_qr_scan"}, "is_reserved": 0}, {"bike_id": "a02c6d555975d3991c5d0630e48c508f", "name": "a02c6d555975d3991c5d0630e48c508f", "lat": 38.914033333333336, "fusion_lat": 0.0, "type": "electric_scooter", "lon": -77.031846, "is_disabled": 0, "fusion_lon": 0.0, "rental_uris": {"android": "https://dc.lft.to/lastmile_qr_scan", "ios": "https://dc.lft.to/lastmile_qr_scan"}, "is_reserved": 0}, {"bike_id": "043350c1fc183861dd43c73f5ac9395e", "name": "043350c1fc183861dd43c73f5ac9395e", "lat": 38.89682216666667, "fusion_lat": 0.0, "type": "electric_scooter", "lon": -77.005154, "is_disabled": 0, "fusion_lon": 0.0, "rental_uris": {"android": "https://dc.lft.to/lastmile_qr_scan", "ios": "https://dc.lft.to/lastmile_qr_scan"}, "is_reserved": 0}, {"bike_id": "32536939f13add67dfa784f6b555b6f8", "name": "32536939f13add67dfa784f6b555b6f8", "lat": 38.886087833333335, "fusion_lat": 0.0, "type": "electric_bike", "lon": -77.1423325, "is_disabled": 0, "fusion_lon": 0.0, "rental_uris": {"android": "https://dc.lft.to/lastmile_qr_scan", "ios": "https://dc.lft.to/lastmile_qr_scan"}, "is_reserved": 0}, {"bike_id": "3c16aa72b79047d9d81f5d7db315692e", "name": "3c16aa72b79047d9d81f5d7db315692e", "lat": 38.90553233333333, "fusion_lat": 0.0, "type": "electric_scooter", "lon": -77.00553716666667, "is_disabled": 0, "fusion_lon": 0.0, "rental_uris": {"android": "https://dc.lft.to/lastmile_qr_scan", "ios": "https://dc.lft.to/lastmile_qr_scan"}, "is_reserved": 0}, {"bike_id": "b65f18226ffc93733becc3c4315fedc0", "name": "b65f18226ffc93733becc3c4315fedc0", "lat": 38.8851695, "fusion_lat": 0.0, "type": "electric_scooter", "lon": -77.011181, "is_disabled": 0, "fusion_lon": 0.0, "rental_uris": {"android": "https://dc.lft.to/lastmile_qr_scan", "ios": "https://dc.lft.to/lastmile_qr_scan"}, "is_reserved": 0}, {"bike_id": "afa0b6d0ac3141f69c9042de653c931c", "name": "afa0b6d0ac3141f69c9042de653c931c", "lat": 38.898722666666664, "fusion_lat": 0.0, "type": "electric_scooter", "lon": -77.02938716666667, "is_disabled": 0, "fusion_lon": 0.0, "rental_uris": {"android": "https://dc.lft.to/lastmile_qr_scan", "ios": "https://dc.lft.to/lastmile_qr_scan"}, "is_reserved": 0}, {"bike_id": "bace1171c18834dd2676fa495132bf24", "name": "bace1171c18834dd2676fa495132bf24", "lat": 38.90119683333333, "fusion_lat": 0.0, "type": "electric_scooter", "lon": -77.03172183333334, "is_disabled": 0, "fusion_lon": 0.0, "rental_uris": {"android": "https://dc.lft.to/lastmile_qr_scan", "ios": "https://dc.lft.to/lastmile_qr_scan"}, "is_reserved": 0},