{"data": {"bikes": [{"type": "electric_scooter", "rental_uris": {"ios": "https://dc.lft.to/lastmile_qr_scan", "android": "https://dc.lft.to/lastmile_qr_scan"}, "lon": -76.9938425, "fusion_lon": 0.0, "is_disabled": 0, "lat": 38.910162666666665, "bike_id": "00e4e0dd4ca350c30fa2866bdd6bf3f8", "name": "00e4e0dd4ca350c30fa2866bdd6bf3f8", "is_reserved": 0, "fusion_lat": 0.0}, {"type": "electric_scooter", "rental_uris": {"ios": "https://dc.lft.to/lastmile_qr_scan", "android": "https://dc.lft.to/lastmile_qr_scan"}, "lon": -77.03682216666667, "fusion_lon": 0.0, "is_disabled": 0, "lat": 38.91908033333333, "bike_id": "7ceceed4ca23b123d9bad9f32d99e50c", "name": "7ceceed4ca23b123d9bad9f32d99e50c", "is_reserved": 0, "fusion_lat": 0.0}, {"type": "electric_scooter", "rental_uris": {"ios": "https://dc.lft.to/lastmile_qr_scan", "android": "https://dc.lft.to/lastmile_qr_scan"}, "lon": -77.04861783333334, "fusion_lon": 0.0, "is_disabled": 0, "lat": 38.909609833333334, "bike_id": "e76874a35e7f8e85c5ae5624c2654c8e", "name": "e76874a35e7f8e85c5ae5624c2654c8e", "is_reserved": 0, "fusion_lat": 0.0}, {"type": "electric_bike", "rental_uris": {"ios": "https://dc.lft.to/lastmile_qr_scan", "android": "https://dc.lft.to/lastmile_qr_scan"}, "lon": -76.99835816666666, "fusion_lon": 0.0, "is_disabled": 0, "lat": 38.899911, "bike_id": "b2e6df37d4feb3e3f2927dc3fa21233a", "name": "b2e6df37d4feb3e3f2927dc3fa21233a", "is_reserved": 0, "fusion_lat": 0.0}, {"type": "electric_scooter", "rental_uris": {"ios": "https://dc.lft.to/lastmile_qr_scan", "android": "https://dc.lft.to/lastmile_qr_scan"}, "lon": -77.03277216666666, "fusion_lon": 0.0, "is_disabled": 0, "lat": 38.89911133333333, "bike_id": "d6feba514eebd41780930d59d0997e9d", "name": "d6feba514eebd41780930d59d0997e9d", "is_reserved": 0, "fusion_lat": 0.0}, {"type": "electric_scooter", "rental_uris": {"ios": "https://dc.lft.to/lastmile_qr_scan", "android": "https://dc.lft.to/lastmile_qr_scan"}, "lon": -77.03189516666667, "fusion_lon": 0.0, "is_disabled": 0, "lat": 38.91329916666667, "bike_id": "b694b76ff8667b6be30b01394e5660a2", "name": "b694b76ff8667b6be30b01394e5660a2", "is_reserved": 0, "fusion_lat": 0.0}, {"type": "electric_scooter", "rental_uris": {"ios": "https://dc.lft.to/lastmile_qr_scan", "android": "https://dc.lft.to/lastmile_qr_scan"}, "lon": -77.01742333333333, "fusion_lon": 0.0, "is_disabled": 0, "lat": 38.920366666666666, "bike_id": "909141db36fa915c5287c1fbc4f5067e", "name": "909141db36fa915c5287c1fbc4f5067e", "is_reserved": 0, "fusion_lat": 0.0}, {"type": "electric_scooter", "rental_uris": {"ios": "https://dc.lft.to/lastmile_qr_scan", "android": "https://dc.lft.to/lastmile_qr_scan"}, "lon": -77.03212383333333, "fusion_lon": 0.0, "is_disabled": 0, "lat": 38.89572866666666, "bike_id": "b5296038d581238282d24a3c0e32ad05", "name": "b5296038d581238282d24a3c0e32ad05", "is_reserved": 0, "fusion_lat": 0.0}, {"type": "electric_scooter", "rental_uris": {"ios": "https://dc.lft.to/lastmile_qr_scan", "android": "https://dc.lft.to/lastmile_qr_scan"}, "lon": -77.01067133333333, "fusion_lon": 0.0, "is_disabled": 0, "lat": 38.89594733333333, "bike_id": "bb39d64942880902a664b32e8ac106eb", "name": "bb39d64942880902a664b32e8ac106eb", "is_reserved": 0, "fusion_lat": 0.0}, {"type": "electric_scooter", "rental_uris": {"ios": "https://dc.lft.to/lastmile_qr_scan", "android": "https://dc.lft.to/lastmile_qr_scan"}, "lon": -76.935254, "fusion_lon": 0.0, "is_disabled": 0, "lat": 38.87897, "bike_id": "7f279f5172d48a74d85a9c4336b3e429", "name": "7f279f5172d48a74d85a9c4336b3e429", "is_reserved": 0, "fusion_lat": 0.0}, {"type": "electric_scooter", "rental_uris": {"ios": "https://dc.lft.to/lastmile_qr_scan", "android": "https://dc.lft.to/lastmile_qr_scan"}, "lon": -77.04197583333334, "fusion_lon": 0.0, "is_disabled": 0, "lat": 38.89222516666667, "bike_id": "3cbb46bcb1de249b53057ee28a116f1f", "name": "3cbb46bcb1de249b53057ee28a116f1f", "is_reserved": 0, "fusion_lat": 0.0}, {"type": "electric_scooter", "rental_uris": {"ios": "https://dc.lft.to/lastmile_qr_scan", "android": "https://dc.lft.to/lastmile_qr_scan"}, "lon": -77.06887733333333, "fusion_lon": 0.0, "is_disabled": 0, "lat": 38.9042015, "bike_id": "b9292b6b5679db8afcbd30f40b0f4f85", "name": "b9292b6b5679db8afcbd30f40b0f4f85", "is_reserved": 0, "fusion_lat": 0.0}, {"type": "electric_scooter", "rental_uris": {"ios": "https://dc.lft.to/lastmile_qr_scan", "android": "https://dc.lft.to/lastmile_qr_scan"}, "lon": -77.05333433333334, "fusion_lon": 0.0, "is_disabled": 0, "lat": 38.92336183333333, "bike_id": "e36bb5122764f5bba24043efb52f04d2", "name": "e36bb5122764f5bba24043efb52f04d2", "is_reserved": 0, "fusion_lat": 0.0}, {"type": "electric_scooter", "rental_uris": {"ios": "https://dc.lft.to/lastmile_qr_scan", "android": "https://dc.lft.to/lastmile_qr_scan"}, "lon": -77.036369, "fusion_lon": 0.0, "is_disabled": 0, "lat": 38.92086283333333, "bike_id": "d18cc16a8b8f1735f65db905db013bac", "name": "d18cc16a8b8f1735f65db905db013bac", "is_reserved": 0, "fusion_lat": 0.0}, {"type": "electric_scooter", "rental_uris": {"ios": "https://dc.lft.to/lastmile_qr_scan", "android": "https://dc.lft.to/lastmile_qr_scan"}, "lon": -77.03095816666666, "fusion_lon": 0.0, "is_disabled": 0, "lat": 38.93861016666666, "bike_id": "85ee1e19839ec5cb2e0d5c66a26d30ec", "name": "85ee1e19839ec5cb2e0d5c66a26d30ec", "is_reserved": 0, "fusion_lat": 0.0}, {"type": "electric_scooter", "rental_uris": {"ios": "https://dc.lft.to/lastmile_qr_scan", "android": "https://dc.lft.to/lastmile_qr_scan"}, "lon": -77.02479833333334, "fusion_lon": 0.0, "is_disabled": 0, "lat": 38.919563, "bike_id": "d4842120893c49ee094c7329ad722611", "name": "d4842120893c49ee094c7329ad722611", "is_reserved": 0, "fusion_lat": 0.0}, {"type": "electric_scooter", "rental_uris": {"ios": "https://dc.lft.to/lastmile_qr_scan", "android": "https://dc.lft.to/lastmile_qr_scan"}, "lon": -77.02195866666666, "fusion_lon": 0.0, "is_disabled": 0, "lat": 38.91128033333333, "bike_id": "5f271c75246b5c8f7a89a32c02a6d3d6", "name": "5f271c75246b5c8f7a89a32c02a6d3d6", "is_reserved": 0, "fusion_lat": 0.0}, {"type": "electric_scooter", "rental_uris": {"ios": "https://dc.lft.to/lastmile_qr_scan", "android": "https://dc.lft.to/lastmile_qr_scan"}, "lon": -77.03296083333333, "fusion_lon": 0.0, "is_disabled": 0, "lat": 38.907549833333334, "bike_id": "193c7867cffce5a7aa36517f43688c85", "name": "193c7867cffce5a7aa36517f43688c85", "is_reserved": 0, "fusion_lat": 0.0}, {"type": "electric_scooter", "rental_uris": {"ios": "https://dc.lft.to/lastmile_qr_scan", "android": "https://dc.lft.to/lastmile_qr_scan"}, "lon": -77.01159716666666, "fusion_lon": 0.0, "is_disabled": 0, "lat": 38.90029916666667, "bike_id": "6a646ec6c41f2a821be0df7d5e14a0bc", "name": "6a646ec6c41f2a821be0df7d5e14a0bc", "is_reserved": 0, "fusion_lat": 0.0}, {"type": "electric_scooter", "rental_uris": {"ios": "https://dc.lft.to/lastmile_qr_scan", "android": "https://dc.lft.to/lastmile_qr_scan"}, "lon": -77.004664, "fusion_lon": 0.0, "is_disabled": 0, "lat": 38.911033333333336, "bike_id": "b7348de7772bfc5fe2fb0cb7535f7cda", "name": "b7348de7772bfc5fe2fb0cb7535f7cda", "is_reserved": 0, "fusion_lat": 0.0}, {"type": "electric_bike", "rental_uris": {"ios": "https://dc.lft.to/lastmile_qr_scan", "android": "https://dc.lft.to/lastmile_qr_scan"}, "lon": -77.06077116666667, "fusion_lon": 0.0, "is_disabled": 0, "lat": 38.88579083333333, "bike_id": "9da61ce1aa17bba0a774b475b24e0bfe", "name": "9da61ce1aa17bba0a774b475b24e0bfe", "is_reserved": 0, "fusion_lat": 0.0}, {"type": "electric_bike", "rental_uris": {"ios": "https://dc.lft.to/lastmile_qr_scan", "android": "https://dc.lft.to/lastmile_qr_scan"}, "lon": -77.13096116666667, "fusion_lon": 0.0, "is_disabled": 0, "lat": 39.02428916666667, "bike_id": "2c600060bc6f6d0f92276b186ea1e1ce", "name": "2c600060bc6f6d0f92276b186ea1e1ce", "is_reserved": 0, "fusion_lat": 0.0}, {"type": "electric_scooter", "rental_uris": {"ios": "https://dc.lft.to/lastmile_qr_scan", "android": "https://dc.lft.to/lastmile_qr_scan"}, "lon": -77.02654266666667, "fusion_lon": 0.0, "is_disabled": 0, "lat": 38.89216066666667, "bike_id": "cbe0bd7f96601c8ca54ca97d0dda8eff", "name": "cbe0bd7f96601c8ca54ca97d0dda8eff", "is_reserved": 0, "fusion_lat": 0.0}, {"type": "electric_scooter", "rental_uris": {"ios": "https://dc.lft.to/lastmile_qr_scan", "android": "https://dc.lft.to/lastmile_qr_scan"}, "lon": -77.0284835, "fusion_lon": 0.0, "is_disabled": 0, "lat": 38.9611505, "bike_id": "460bb72d71a4c00a80685927fcb26eec", "name": "460bb72d71a4c00a80685927fcb26eec", "is_reserved": 0, "fusion_lat": 0.0}, {"type": "electric_scooter", "rental_uris": {"ios": "https://dc.lft.to/lastmile_qr_scan", "android": "https://dc.lft.to/lastmile_qr_scan"}, "lon": -76.94890933333333, "fusion_lon": 0.0, "is_disabled": 0, "lat": 38.895276, "bike_id": "b03097fda7c6ef668cf4b7ffe1c107c9", "name": "b03097fda7c6ef668cf4b7ffe1c107c9", "is_reserved": 0, "fusion_lat": 0.0}, {"type": "electric_scooter", "rental_uris": {"ios": "https://dc.lft.to/lastmile_qr_scan", "android": "https://dc.lft.to/lastmile_qr_scan"}, "lon": -77.03211116666667, "fusion_lon": 0.0, "is_disabled": 0, "lat": 38.91202416666667, "bike_id": "396a4c1b66dc08815a8fa550b6afb6ce", "name": "396a4c1b66dc08815a8fa550b6afb6ce", "is_reserved": 0, "fusion_lat": 0.0}, {"type": "electric_bike", "rental_uris": {"ios": "https://dc.lft.to/lastmile_qr_scan", "android": "https://dc.lft.to/lastmile_qr_scan"}, "lon": -77.09480816666667, "fusion_lon": 0.0, "is_disabled": 0, "lat": 39.030451, "bike_id": "cb11f51c8849e3ffd4061a8b22e2141f", "name": "cb11f51c8849e3ffd4061a8b22e2141f", "is_reserved": 0, "fusion_lat": 0.0}, {"type": "electric_scooter", "rental_uris": {"ios": "https://dc.lft.to/lastmile_qr_scan", "android": "https://dc.lft.to/lastmile_qr_scan"}, "lon": -76.984773, "fusion_lon": 0.0, "is_disabled": 0, "lat": 38.91311483333333, "bike_id": "90468e78dcbaa491c953679b1cb4c04a", "name": "90468e78dcbaa491c953679b1cb4c04a", "is_reserved": 0, "fusion_lat": 0.0}, {"type": "electric_scooter", "rental_uris": {"ios": "https://dc.lft.to/lastmile_qr_scan", "android": "https://dc.lft.to/lastmile_qr_scan"}, "lon": -77.0464535, "fusion_lon": 0.0, "is_disabled": 0, "lat": 38.89222516666667, "bike_id": "98ed527ca56aea09299581b0cf3d7bf1", "name": "98ed527ca56aea09299581b0cf3d7bf1", "is_reserved": 0, "fusion_lat": 0.0}, {"type": "electric_scooter", "rental_uris": {"ios": "https://dc.lft.to/lastmile_qr_scan", "android": "https://dc.lft.to/lastmile_qr_scan"}, "lon": -77.038691, "fusion_lon": 0.0, "is_disabled": 0, "lat": 38.9117655, "bike_id": "99d5ad61e78fe7bf8554b5055286a61c", "name": "99d5ad61e78fe7bf8554b5055286a61c", "is_reserved": 0, "fusion_lat": 0.0}, {"type": "electric_scooter", "rental_uris": {"ios": "https://dc.lft.to/lastmile_qr_scan", "android": "https://dc.lft.to/lastmile_qr_scan"}, "lon": -77.0546955, "fusion_lon": 0.0, "is_disabled": 0, "lat": 38.89607616666667, "bike_id": "ec6c77a587c6630ab2b5ac7154e9f08f", "name": "ec6c77a587c6630ab2b5ac7154e9f08f", "is_reserved": 0, "fusion_lat": 0.0}, {"type": "electric_scooter", "rental_uris": {"ios": "https://dc.lft.to/lastmile_qr_scan", "android": "https://dc.lft.to/lastmile_qr_scan"}, "lon": -77.02559333333333, "fusion_lon": 0.0, "is_disabled": 0, "lat": 38.924276666666664, "bike_id": "6d4f6a9bc123c6daccdd3302257a9376", "name": "6d4f6a9bc123c6daccdd3302257a9376", "is_reserved": 0, "fusion_lat": 0.0}, {"type": "electric_scooter", "rental_uris": {"ios": "https://dc.lft.to/lastmile_qr_scan", "android": "https://dc.lft.to/lastmile_qr_scan"}, "lon": -77.0489535, "fusion_lon": 0.0, "is_disabled": 0, "lat": 38.892256333333336, "bike_id": "838d5489d483247b55a62f8358d0775b", "name": "838d5489d483247b55a62f8358d0775b", "is_reserved": 0, "fusion_lat": 0.0}, {"type": "electric_scooter", "rental_uris": {"ios": "https://dc.lft.to/lastmile_qr_scan", "android": "https://dc.lft.to/lastmile_qr_scan"}, "lon": -77.01227316666666, "fusion_lon": 0.0, "is_disabled": 0, "lat": 38.914994666666665, "bike_id": "c690cc71c148173119de42ea0b8ab77f", "name": "c690cc71c148173119de42ea0b8ab77f", "is_reserved": 0, "fusion_lat": 0.0}, {"type": "electric_scooter", "rental_uris": {"ios": "https://dc.lft.to/lastmile_qr_scan", "android": "https://dc.lft.to/lastmile_qr_scan"}, "lon": -77.02284766666666, "fusion_lon": 0.0, "is_disabled": 0, "lat": 38.92421366666667, "bike_id": "ecb6492e186fa658553393f8ec1d4c36", "name": "ecb6492e186fa658553393f8ec1d4c36", "is_reserved": 0, "fusion_lat": 0.0}, {"type": "electric_scooter", "rental_uris": {"ios": "https://dc.lft.to/lastmile_qr_scan", "android": "https://dc.lft.to/lastmile_qr_scan"}, "lon": -77.02497783333334, "fusion_lon": 0.0, "is_disabled": 0, "lat": 38.91972916666667, "bike_id": "be065bcbb94c126e60d63a9094f30e43", "name": "be065bcbb94c126e60d63a9094f30e43", "is_reserved": 0, "fusion_lat": 0.0}, {"type": "electric_scooter", "rental_uris": {"ios": "https://dc.lft.to/lastmile_qr_scan", "android": "https://dc.lft.to/lastmile_qr_scan"}, "lon": -77.03906616666667, "fusion_lon": 0.0, "is_disabled": 0, "lat": 38.924774, "bike_id": "18db5e22cd8dd089c7fe84c83cbbe2e1", "name": "18db5e22cd8dd089c7fe84c83cbbe2e1", "is_reserved": 0, "fusion_lat": 0.0}, {"type": "electric_scooter", "rental_uris": {"ios": "https://dc.lft.to/lastmile_qr_scan", "android": "https://dc.lft.to/lastmile_qr_scan"}, "lon": -77.05762916666667, "fusion_lon": 0.0, "is_disabled": 0, "lat": 38.92464416666667, "bike_id": "c6bd8efbc84d958ab52d1df52ad75792", "name": "c6bd8efbc84d958ab52d1df52ad75792", "is_reserved": 0, "fusion_lat": 0.0}, {"type": "electric_scooter", "rental_uris": {"ios": "https://dc.lft.to/lastmile_qr_scan", "android": "https://dc.lft.to/lastmile_qr_scan"}, "lon": -76.99495716666667, "fusion_lon": 0.0, "is_disabled": 0, "lat": 38.86243133333333, "bike_id": "d81399f4188f241397239b8e831bf528", "name": "d81399f4188f241397239b8e831bf528", "is_reserved": 0, "fusion_lat": 0.0}, {"type": "electric_scooter", "rental_uris": {"ios": "https://dc.lft.to/lastmile_qr_scan", "android": "https://dc.lft.to/lastmile_qr_scan"}, "lon": -77.0363815, "fusion_lon": 0.0, "is_disabled": 0, "lat": 38.916854, "bike_id": "3206ec7dc506943248f89ba7af9de918", "name": "3206ec7dc506943248f89ba7af9de918", "is_reserved": 0, "fusion_lat": 0.0}, {"type": "electric_scooter", "rental_uris": {"ios": "https://dc.lft.to/lastmile_qr_scan", "android": "https://dc.lft.to/lastmile_qr_scan"}, "lon": -76.99494983333334, "fusion_lon": 0.0, "is_disabled": 0, "lat": 38.862418166666664, "bike_id": "86dd771608ff91e6e3d7dd8dccc92455", "name": "86dd771608ff91e6e3d7dd8dccc92455", "is_reserved": 0, "fusion_lat": 0.0}, {"type": "electric_scooter", "rental_uris": {"ios": "https://dc.lft.to/lastmile_qr_scan", "android": "https://dc.lft.to/lastmile_qr_scan"}, "lon": -77.03864516666667, "fusion_lon": 0.0, "is_disabled": 0, "lat": 38.91042866666667, "bike_id": "7d5fc228a55ed14347b0dffaddc1dfb9", "name": "7d5fc228a55ed14347b0dffaddc1dfb9", "is_reserved": 0, "fusion_lat": 0.0}, {"type": "electric_scooter", "rental_uris": {"ios": "https://dc.lft.to/lastmile_qr_scan", "android": "https://dc.lft.to/lastmile_qr_scan"}, "lon": -76.985155, "fusion_lon": 0.0, "is_disabled": 0, "lat": 38.9155135, "bike_id": "6c6de5aeede21631f2b36c7865d474de", "name": "6c6de5aeede21631f2b36c7865d474de", "is_reserved": 0, "fusion_lat": 0.0}, {"type": "electric_scooter", "rental_uris": {"ios": "https://dc.lft.to/lastmile_qr_scan", "android": "https://dc.lft.to/lastmile_qr_scan"}, "lon": -77.02988083333334, "fusion_lon": 0.0, "is_disabled": 0, "lat": 38.905092, "bike_id": "7cf3a120b1ba0d090a5e73847e1deade", "name": "7cf3a120b1ba0d090a5e73847e1deade", "is_reserved": 0, "fusion_lat": 0.0}, {"type": "electric_scooter", "rental_uris": {"ios": "https://dc.lft.to/lastmile_qr_scan", "android": "https://dc.lft.to/lastmile_qr_scan"}, "lon": -77.05018583333333, "fusion_lon": 0.0, "is_disabled": 0, "lat": 38.90666483333333, "bike_id": "95ad21055e2e3a0e5e16879aa762f014", "name": "95ad21055e2e3a0e5e16879aa762f014", "is_reserved": 0, "fusion_lat": 0.0}, {"type": "electric_bike", "rental_uris": {"ios": "https://dc.lft.to/lastmile_qr_scan", "android": "https://dc.lft.to/lastmile_qr_scan"}, "lon": -77.03728883333333, "fusion_lon": 0.0, "is_disabled": 0, "lat": 38.920312333333335, "bike_id": "b2a5147973fe81fafe05dbec9dc35318", "name": "b2a5147973fe81fafe05dbec9dc35318", "is_reserved": 0, "fusion_lat": 0.0}, {"type": "electric_scooter", "rental_uris": {"ios": "https://dc.lft.to/lastmile_qr_scan", "android": "https://dc.lft.to/lastmile_qr_scan"}, "lon": -77.017693, "fusion_lon": 0.0, "is_disabled": 0, "lat": 38.881469833333334, "bike_id": "3bda44877fd0c9c170743ca1531ce8f0", "name": "3bda44877fd0c9c170743ca1531ce8f0", "is_reserved": 0, "fusion_lat": 0.0}, {"type": "electric_scooter", "rental_uris": {"ios": "https://dc.lft.to/lastmile_qr_scan", "android": "https://dc.lft.to/lastmile_qr_scan"}, "lon": -77.0282495, "fusion_lon": 0.0, "is_disabled": 0, "lat": 38.88734983333333, "bike_id": "50d22af9afa319ddb52709cbecd5953a", "name": "50d22af9afa319ddb52709cbecd5953a", "is_reserved": 0, "fusion_lat": 0.0}, {"type": "electric_scooter", "rental_uris": {"ios": "https://dc.lft.to/lastmile_qr_scan", "android": "https://dc.lft.to/lastmile_qr_scan"}, "lon": -76.93988383333334, "fusion_lon": 0.0, "is_disabled": 0, "lat": 38.899787333333336, "bike_id": "4daa5acbebcbabd022c2964f6e184c22", "name": "4daa5acbebcbabd022c2964f6e184c22", "is_reserved": 0, "fusion_lat": 0.0}, {"type": "electric_scooter", "rental_uris": {"ios": "https://dc.lft.to/lastmile_qr_scan", "android": "https://dc.lft.to/lastmile_qr_scan"}, "lon": -77.03376333333334, "fusion_lon": 0.0, "is_disabled": 0, "lat": 38.892397833333334, "bike_id": "8e4f47b4b3baed9917a24abe8a715e5b", "name": "8e4f47b4b3baed9917a24abe8a715e5b", "is_reserved": 0, "fusion_lat": 0.0}, {"type": "electric_scooter", "rental_uris": {"ios": "https://dc.lft.to/lastmile_qr_scan", "android": "https://dc.lft.to/lastmile_qr_scan"}, "lon": -77.03009266666666, "fusion_lon": 0.0, "is_disabled": 0, "lat": 38.922474, "bike_id": "0e1bccc0847e3e85ec329b837c29ee62", "name": "0e1bccc0847e3e85ec329b837c29ee62", "is_reserved": 0, "fusion_lat": 0.0}, {"type": "electric_scooter", "rental_uris": {"ios": "https://dc.lft.to/lastmile_qr_scan", "android": "https://dc.lft.to/lastmile_qr_scan"}, "lon": -77.01892266666667, "fusion_lon": 0.0, "is_disabled": 0, "lat": 38.92371416666667, "bike_id": "5b7f9c979dfd60d6e5c9abc5d2acad40", "name": "5b7f9c979dfd60d6e5c9abc5d2acad40", "is_reserved": 0, "fusion_lat": 0.0}, {"type": "electric_scooter", "rental_uris": {"ios": "https://dc.lft.to/lastmile_qr_scan", "android": "https://dc.lft.to/lastmile_qr_scan"}, "lon": -76.9977735, "fusion_lon": 0.0, "is_disabled": 0, "lat": 38.8442605, "bike_id": "9498ca1ccf28da77b174670346a6483d", "name": "9498ca1ccf28da77b174670346a6483d", "is_reserved": 0, "fusion_lat": 0.0}, {"type": "electric_scooter", "rental_uris": {"ios": "https://dc.lft.to/lastmile_qr_scan", "android": "https://dc.lft.to/lastmile_qr_scan"}, "lon": -76.94637916666667, "fusion_lon": 0.0, "is_disabled": 0, "lat": 38.898438166666665, "bike_id": "2b03851c3543671236cc2bdcbdfef4a7", "name": "2b03851c3543671236cc2bdcbdfef4a7", "is_reserved": 0, "fusion_lat": 0.0}, {"type": "electric_scooter", "rental_uris": {"ios": "https://dc.lft.to/lastmile_qr_scan", "android": "https://dc.lft.to/lastmile_qr_scan"}, "lon": -77.02322366666667, "fusion_lon": 0.0, "is_disabled": 0, "lat": 38.91681283333333, "bike_id": "ad602c43acfda343595c7fa67c87f0c3", "name": "ad602c43acfda343595c7fa67c87f0c3", "is_reserved": 0, "fusion_lat": 0.0}, {"type": "electric_scooter", "rental_uris": {"ios": "https://dc.lft.to/lastmile_qr_scan", "android": "https://dc.lft.to/lastmile_qr_scan"}, "lon": -77.05119316666666, "fusion_lon": 0.0, "is_disabled": 0, "lat": 38.901985, "bike_id": "9e306ff9b01181f0a6fac2c60e23aa39", "name": "9e306ff9b01181f0a6fac2c60e23aa39", "is_reserved": 0, "fusion_lat": 0.0}, {"type": "electric_scooter", "rental_uris": {"ios": "https://dc.lft.to/lastmile_qr_scan", "android": "https://dc.lft.to/lastmile_qr_scan"}, "lon": -77.02428333333333, "fusion_lon": 0.0, "is_disabled": 0, "lat": 38.91919516666667, "bike_id": "1eb7cbb93d847f3e81c6513cc47f562e", "name": "1eb7cbb93d847f3e81c6513cc47f562e", "is_reserved": 0, "fusion_lat": 0.0}, {"type": "electric_bike", "rental_uris": {"ios": "https://dc.lft.to/lastmile_qr_scan", "android": "https://dc.lft.to/lastmile_qr_scan"}, "lon": -76.93696033333333, "fusion_lon": 0.0, "is_disabled": 0, "lat": 38.8714485, "bike_id": "c2e572254b740b4c3e4812eb2841b7bd", "name": "c2e572254b740b4c3e4812eb2841b7bd", "is_reserved": 0, "fusion_lat": 0.0}, {"type": "electric_scooter", "rental_uris": {"ios": "https://dc.lft.to/lastmile_qr_scan", "android": "https://dc.lft.to/lastmile_qr_scan"}, "lon": -76.95760283333334, "fusion_lon": 0.0, "is_disabled": 0, "lat": 38.884308, "bike_id": "c704da5214ecd55ab1081a0c524d8909", "name": "c704da5214ecd55ab1081a0c524d8909", "is_reserved": 0, "fusion_lat": 0.0}, {"type": "electric_scooter", "rental_uris": {"ios": "https://dc.lft.to/lastmile_qr_scan", "android": "https://dc.lft.to/lastmile_qr_scan"}, "lon": -77.02237333333333, "fusion_lon": 0.0, "is_disabled": 0, "lat": 38.96132816666667, "bike_id": "cb868370c6125193ea7edadd95184354", "name": "cb868370c6125193ea7edadd95184354", "is_reserved": 0, "fusion_lat": 0.0}, {"type": "electric_bike", "rental_uris": {"ios": "https://dc.lft.to/lastmile_qr_scan", "android": "https://dc.lft.to/lastmile_qr_scan"}, "lon": -76.97084733333334, "fusion_lon": 0.0, "is_disabled": 0, "lat": 38.8572685, "bike_id": "14bc27aeea040f4ccfe89c8aa01be929", "name": "14bc27aeea040f4ccfe89c8aa01be929", "is_reserved": 0, "fusion_lat": 0.0}, {"type": "electric_scooter", "rental_uris": {"ios": "https://dc.lft.to/lastmile_qr_scan", "android": "https://dc.lft.to/lastmile_qr_scan"}, "lon": -76.9977925, "fusion_lon": 0.0, "is_disabled": 0, "lat": 38.844345833333335, "bike_id": "b93a6227a830e5a7b69126b335dd48d7", "name": "b93a6227a830e5a7b69126b335dd48d7", "is_reserved": 0, "fusion_lat": 0.0}, {"type": "electric_scooter", "rental_uris": {"ios": "https://dc.lft.to/lastmile_qr_scan", "android": "https://dc.lft.to/lastmile_qr_scan"}, "lon": -77.04770316666666, "fusion_lon": 0.0, "is_disabled": 0, "lat": 38.917655833333335, "bike_id": "26f90db9451aa885f13cfb8af2967858", "name": "26f90db9451aa885f13cfb8af2967858", "is_reserved": 0, "fusion_lat": 0.0}, {"type": "electric_scooter", "rental_uris": {"ios": "https://dc.lft.to/lastmile_qr_scan", "android": "https://dc.lft.to/lastmile_qr_scan"}, "lon": -77.0296775, "fusion_lon": 0.0, "is_disabled": 0, "lat": 38.9233335, "bike_id": "19285b8659d6d8a2ef7e642e2eef24c7", "name": "19285b8659d6d8a2ef7e642e2eef24c7", "is_reserved": 0, "fusion_lat": 0.0}, {"type": "electric_scooter", "rental_uris": {"ios": "https://dc.lft.to/lastmile_qr_scan", "android": "https://dc.lft.to/lastmile_qr_scan"}, "lon": -77.04358383333333, "fusion_lon": 0.0, "is_disabled": 0, "lat": 38.92066666666667, "bike_id": "5cad3154cbb269f332e3e3c291a5df59", "name": "5cad3154cbb269f332e3e3c291a5df59", "is_reserved": 0, "fusion_lat": 0.0}, {"type": "electric_scooter", "rental_uris": {"ios": "https://dc.lft.to/lastmile_qr_scan", "android": "https://dc.lft.to/lastmile_qr_scan"}, "lon": -77.031662, "fusion_lon": 0.0, "is_disabled": 0, "lat": 38.91557066666667, "bike_id": "159e4a004ea7f0372d70ad108c7fd399", "name": "159e4a004ea7f0372d70ad108c7fd399", "is_reserved": 0, "fusion_lat": 0.0}, {"type": "electric_scooter", "rental_uris": {"ios": "https://dc.lft.to/lastmile_qr_scan", "android": "https://dc.lft.to/lastmile_qr_scan"}, "lon": -77.03483, "fusion_lon": 0.0, "is_disabled": 0, "lat": 38.9248055, "bike_id": "1f8d48aab3914ec8a12a8f45a1403b36", "name": "1f8d48aab3914ec8a12a8f45a1403b36", "is_reserved": 0, "fusion_lat": 0.0}, {"type": "electric_scooter", "rental_uris": {"ios": "https://dc.lft.to/lastmile_qr_scan", "android": "https://dc.lft.to/lastmile_qr_scan"}, "lon": -76.9852645, "fusion_lon": 0.0, "is_disabled": 0, "lat": 38.866870166666665, "bike_id": "f8df757311195bb25fbb2dca0ab1c047", "name": "f8df757311195bb25fbb2dca0ab1c047", "is_reserved": 0, "fusion_lat": 0.0}, {"type": "electric_scooter", "rental_uris": {"ios": "https://dc.lft.to/lastmile_qr_scan", "android": "https://dc.lft.to/lastmile_qr_scan"}, "lon": -77.02954833333334, "fusion_lon": 0.0, "is_disabled": 0, "lat": 38.9224945, "bike_id": "3548ab6c4ef4eb54e07305c29dd6b237", "name": "3548ab6c4ef4eb54e07305c29dd6b237", "is_reserved": 0, "fusion_lat": 0.0}, {"type": "electric_scooter", "rental_uris": {"ios": "https://dc.lft.to/lastmile_qr_scan", "android": "https://dc.lft.to/lastmile_qr_scan"}, "lon": -77.03452616666667, "fusion_lon": 0.0, "is_disabled": 0, "lat": 38.9374655, "bike_id": "9c8a28ec0889aa02c5fb81fd0dee7289", "name": "9c8a28ec0889aa02c5fb81fd0dee7289", "is_reserved": 0, "fusion_lat": 0.0}, {"type": "electric_scooter", "rental_uris": {"ios": "https://dc.lft.to/lastmile_qr_scan", "android": "https://dc.lft.to/lastmile_qr_scan"}, "lon": -77.03422016666667, "fusion_lon": 0.0, "is_disabled": 0, "lat": 38.90979333333333, "bike_id": "4447471b449d4d3b03e28003e0657b7d", "name": "4447471b449d4d3b03e28003e0657b7d", "is_reserved": 0, "fusion_lat": 0.0}, {"type": "electric_scooter", "rental_uris": {"ios": "https://dc.lft.to/lastmile_qr_scan", "android": "https://dc.lft.to/lastmile_qr_scan"}, "lon": -77.03923283333333, "fusion_lon": 0.0, "is_disabled": 0, "lat": 38.917084833333334, "bike_id": "8957ba64116cab4883c290b873ddd642", "name": "8957ba64116cab4883c290b873ddd642", "is_reserved": 0, "fusion_lat": 0.0}, {"type": "electric_scooter", "rental_uris": {"ios": "https://dc.lft.to/lastmile_qr_scan", "android": "https://dc.lft.to/lastmile_qr_scan"}, "lon": -77.01413083333334, "fusion_lon": 0.0, "is_disabled": 0, "lat": 38.88123183333333, "bike_id": "db50534fbbb13d1a97b546f8371a1665", "name": "db50534fbbb13d1a97b546f8371a1665", "is_reserved": 0, "fusion_lat": 0.0}, {"type": "electric_scooter", "rental_uris": {"ios": "https://dc.lft.to/lastmile_qr_scan", "android": "https://dc.lft.to/lastmile_qr_scan"}, "lon": -77.02432666666667, "fusion_lon": 0.0, "is_disabled": 0, "lat": 38.91851966666667, "bike_id": "1a1a2c0555755b8daff99d794a67f3be", "name": "1a1a2c0555755b8daff99d794a67f3be", "is_reserved": 0, "fusion_lat": 0.0}, {"type": "electric_scooter", "rental_uris": {"ios": "https://dc.lft.to/lastmile_qr_scan", "android": "https://dc.lft.to/lastmile_qr_scan"}, "lon": -77.04325033333333, "fusion_lon": 0.0, "is_disabled": 0, "lat": 38.892264833333336, "bike_id": "e29b02d87d711168cf79b2448bfadf61", "name": "e29b02d87d711168cf79b2448bfadf61", "is_reserved": 0, "fusion_lat": 0.0}, {"type": "electric_scooter", "rental_uris": {"ios": "https://dc.lft.to/lastmile_qr_scan", "android": "https://dc.lft.to/lastmile_qr_scan"}, "lon": -77.0136925, "fusion_lon": 0.0, "is_disabled": 0, "lat": 38.8922815, "bike_id": "532a70edf03c20789d0fc896969e5bcb", "name": "532a70edf03c20789d0fc896969e5bcb", "is_reserved": 0, "fusion_lat": 0.0}, {"type": "electric_scooter", "rental_uris": {"ios": "https://dc.lft.to/lastmile_qr_scan", "android": "https://dc.lft.to/lastmile_qr_scan"}, "lon": -76.98925583333333, "fusion_lon": 0.0, "is_disabled": 0, "lat": 38.84081116666667, "bike_id": "313077f466cf135aaff9da020657b415", "name": "313077f466cf135aaff9da020657b415", "is_reserved": 0, "fusion_lat": 0.0}, {"type": "electric_scooter", "rental_uris": {"ios": "https://dc.lft.to/lastmile_qr_scan", "android": "https://dc.lft.to/lastmile_qr_scan"}, "lon": -77.0038485, "fusion_lon": 0.0, "is_disabled": 0, "lat": 38.91073383333333, "bike_id": "af6bab8709d8e4ce41123c2ccf46256c", "name": "af6bab8709d8e4ce41123c2ccf46256c", "is_reserved": 0, "fusion_lat": 0.0}, {"type": "electric_scooter", "rental_uris": {"ios": "https://dc.lft.to/lastmile_qr_scan", "android": "https://dc.lft.to/lastmile_qr_scan"}, "lon": -77.02218516666667, "fusion_lon": 0.0, "is_disabled": 0, "lat": 38.91273916666667, "bike_id": "4fda47cb1963125b8e9c1f43b5b55a84", "name": "4fda47cb1963125b8e9c1f43b5b55a84", "is_reserved": 0, "fusion_lat": 0.0}, {"type": "electric_scooter", "rental_uris": {"ios": "https://dc.lft.to/lastmile_qr_scan", "android": "https://dc.lft.to/lastmile_qr_scan"}, "lon": -77.037319, "fusion_lon": 0.0, "is_disabled": 0, "lat": 38.917083166666664, "bike_id": "a960cb039ee2da81ceeb2c11e8d9df31", "name": "a960cb039ee2da81ceeb2c11e8d9df31", "is_reserved": 0, "fusion_lat": 0.0}, {"type": "electric_scooter", "rental_uris": {"ios": "https://dc.lft.to/lastmile_qr_scan", "android": "https://dc.lft.to/lastmile_qr_scan"}, "lon": -77.0333865, "fusion_lon": 0.0, "is_disabled": 0, "lat": 38.8922195, "bike_id": "9398ffaa35a854eb3b7716fb35c9c529", "name": "9398ffaa35a854eb3b7716fb35c9c529", "is_reserved": 0, "fusion_lat": 0.0}, {"type": "electric_scooter", "rental_uris": {"ios": "https://dc.lft.to/lastmile_qr_scan", "android": "https://dc.lft.to/lastmile_qr_scan"}, "lon": -77.03534566666667, "fusion_lon": 0.0, "is_disabled": 0, "lat": 38.926471666666664, "bike_id": "acf1d729d70792a8e464db261122a4b8", "name": "acf1d729d70792a8e464db261122a4b8", "is_reserved": 0, "fusion_lat": 0.0}, {"type": "electric_scooter", "rental_uris": {"ios": "https://dc.lft.to/lastmile_qr_scan", "android": "https://dc.lft.to/lastmile_qr_scan"}, "lon": -77.02713666666666, "fusion_lon": 0.0, "is_disabled": 0, "lat": 38.90737166666667, "bike_id": "85f08c32c40de5f7cc0914a14c64e1b3", "name": "85f08c32c40de5f7cc0914a14c64e1b3", "is_reserved": 0, "fusion_lat": 0.0}, {"type": "electric_scooter", "rental_uris": {"ios": "https://dc.lft.to/lastmile_qr_scan", "android": "https://dc.lft.to/lastmile_qr_scan"}, "lon": -77.02798866666667, "fusion_lon": 0.0, "is_disabled": 0, "lat": 38.892383833333334, "bike_id": "4440354029416a1e04d266a4da1bef58", "name": "4440354029416a1e04d266a4da1bef58", "is_reserved": 0, "fusion_lat": 0.0}, {"type": "electric_scooter", "rental_uris": {"ios": "https://dc.lft.to/lastmile_qr_scan", "android": "https://dc.lft.to/lastmile_qr_scan"}, "lon": -77.02776083333333, "fusion_lon": 0.0, "is_disabled": 0, "lat": 38.8972615, "bike_id": "407ad9b248f4eded256aebee28bcfd25", "name": "407ad9b248f4eded256aebee28bcfd25", "is_reserved": 0, "fusion_lat": 0.0}, {"type": "electric_scooter", "rental_uris": {"ios": "https://dc.lft.to/lastmile_qr_scan", "android": "https://dc.lft.to/lastmile_qr_scan"}, "lon": -77.04680383333333, "fusion_lon": 0.0, "is_disabled": 0, "lat": 38.91582116666667, "bike_id": "24fe6fb703b60c2af7668fe669163676", "name": "24fe6fb703b60c2af7668fe669163676", "is_reserved": 0, "fusion_lat": 0.0}, {"type": "electric_scooter", "rental_uris": {"ios": "https://dc.lft.to/lastmile_qr_scan", "android": "https://dc.lft.to/lastmile_qr_scan"}, "lon": -77.02983183333333, "fusion_lon": 0.0, "is_disabled": 0, "lat": 38.91566233333333, "bike_id": "a943980aad4123534a200dfaad57a5ca", "name": "a943980aad4123534a200dfaad57a5ca", "is_reserved": 0, "fusion_lat": 0.0}, {"type": "electric_scooter", "rental_uris": {"ios": "https://dc.lft.to/lastmile_qr_scan", "android": "https://dc.lft.to/lastmile_qr_scan"}, "lon": -77.03223233333334, "fusion_lon": 0.0, "is_disabled": 0, "lat": 38.892231833333334, "bike_id": "ed983fd9eeb6be69aee6b5637c2dd44b", "name": "ed983fd9eeb6be69aee6b5637c2dd44b", "is_reserved": 0, "fusion_lat": 0.0}, {"type": "electric_scooter", "rental_uris": {"ios": "https://dc.lft.to/lastmile_qr_scan", "android": "https://dc.lft.to/lastmile_qr_scan"}, "lon": -77.04344533333334, "fusion_lon": 0.0, "is_disabled": 0, "lat": 38.90818866666667, "bike_id": "b06facf1c8a7e4ba41e2a6b47c186f96", "name": "b06facf1c8a7e4ba41e2a6b47c186f96", "is_reserved": 0, "fusion_lat": 0.0}, {"type": "electric_scooter", "rental_uris": {"ios": "https://dc.lft.to/lastmile_qr_scan", "android": "https://dc.lft.to/lastmile_qr_scan"}, "lon": -77.02223733333334, "fusion_lon": 0.0, "is_disabled": 0, "lat": 38.8922145, "bike_id": "9b049fb0ee21831a02d7a3dc49907c55", "name": "9b049fb0ee21831a02d7a3dc49907c55", "is_reserved": 0, "fusion_lat": 0.0}, {"type": "electric_bike", "rental_uris": {"ios": "https://dc.lft.to/lastmile_qr_scan", "android": "https://dc.lft.to/lastmile_qr_scan"}, "lon": -77.11719283333333, "fusion_lon": 0.0, "is_disabled": 0, "lat": 39.054574, "bike_id": "ad3823b1c67a224fadda366de90ff01b", "name": "ad3823b1c67a224fadda366de90ff01b", "is_reserved": 0, "fusion_lat": 0.0}, {"type": "electric_scooter", "rental_uris": {"ios": "https://dc.lft.to/lastmile_qr_scan", "android": "https://dc.lft.to/lastmile_qr_scan"}, "lon": -77.00192083333333, "fusion_lon": 0.0, "is_disabled": 0, "lat": 38.90041316666667, "bike_id": "fd5a9954aaf3d7759f129d09c07268e8", "name": "fd5a9954aaf3d7759f129d09c07268e8", "is_reserved": 0, "fusion_lat": 0.0}, {"type": "electric_scooter", "rental_uris": {"ios": "https://dc.lft.to/lastmile_qr_scan", "android": "https://dc.lft.to/lastmile_qr_scan"}, "lon": -77.0283295, "fusion_lon": 0.0, "is_disabled": 0, "lat": 38.93278933333333, "bike_id": "ca9de6f2bbbd00f24a521c3d9f57417d", "name": "ca9de6f2bbbd00f24a521c3d9f57417d", "is_reserved": 0, "fusion_lat": 0.0}, {"type": "electric_scooter", "rental_uris": {"ios": "https://dc.lft.to/lastmile_qr_scan", "android": "https://dc.lft.to/lastmile_qr_scan"}, "lon": -77.03125333333334, "fusion_lon": 0.0, "is_disabled": 0, "lat": 38.92021616666667, "bike_id": "001e8ed97bb34691c145f86f9533f1f0", "name": "001e8ed97bb34691c145f86f9533f1f0", "is_reserved": 0, "fusion_lat": 0.0}, {"type": "electric_scooter", "rental_uris": {"ios": "https://dc.lft.to/lastmile_qr_scan", "android": "https://dc.lft.to/lastmile_qr_scan"}, "lon": -77.03910783333333, "fusion_lon": 0.0, "is_disabled": 0, "lat": 38.91818716666667, "bike_id": "65329132c2914ec2011e0202a6e8e400", "name": "65329132c2914ec2011e0202a6e8e400", "is_reserved": 0, "fusion_lat": 0.0}, {"type": "electric_scooter", "rental_uris": {"ios": "https://dc.lft.to/lastmile_qr_scan", "android": "https://dc.lft.to/lastmile_qr_scan"}, "lon": -77.07682133333333, "fusion_lon": 0.0, "is_disabled": 0, "lat": 38.942285, "bike_id": "4d9dfb78a6302cd2594d8a3d57f5483b", "name": "4d9dfb78a6302cd2594d8a3d57f5483b", "is_reserved": 0, "fusion_lat": 0.0}, {"type": "electric_scooter", "rental_uris": {"ios": "https://dc.lft.to/lastmile_qr_scan", "android": "https://dc.lft.to/lastmile_qr_scan"}, "lon": -77.0444285, "fusion_lon": 0.0, "is_disabled": 0, "lat": 38.90991233333333, "bike_id": "8713981adef0382e9dd32e4c8d02a93c", "name": "8713981adef0382e9dd32e4c8d02a93c", "is_reserved": 0, "fusion_lat": 0.0}, {"type": "electric_scooter", "rental_uris": {"ios": "https://dc.lft.to/lastmile_qr_scan", "android": "https://dc.lft.to/lastmile_qr_scan"}, "lon": -77.02332316666667, "fusion_lon": 0.0, "is_disabled": 0, "lat": 38.9176895, "bike_id": "276db3f862526dbbe7961cb082e173f9", "name": "276db3f862526dbbe7961cb082e173f9", "is_reserved": 0, "fusion_lat": 0.0}, {"type": "electric_scooter", "rental_uris": {"ios": "https://dc.lft.to/lastmile_qr_scan", "android": "https://dc.lft.to/lastmile_qr_scan"}, "lon": -77.031848, "fusion_lon": 0.0, "is_disabled": 0, "lat": 38.892337166666664, "bike_id": "db270a49188be8f3f25de7dc82ec5b19", "name": "db270a49188be8f3f25de7dc82ec5b19", "is_reserved": 0, "fusion_lat": 0.0}, {"type": "electric_scooter", "rental_uris": {"ios": "https://dc.lft.to/lastmile_qr_scan", "android": "https://dc.lft.to/lastmile_qr_scan"}, "lon": -77.03658916666667, "fusion_lon": 0.0, "is_disabled": 0, "lat": 38.9202625, "bike_id": "a52c089c8335e2c60fc9d31260e24394", "name": "a52c089c8335e2c60fc9d31260e24394", "is_reserved": 0, "fusion_lat": 0.0}, {"type": "electric_scooter", "rental_uris": {"ios": "https://dc.lft.to/lastmile_qr_scan", "android": "https://dc.lft.to/lastmile_qr_scan"}, "lon": -77.04916966666667, "fusion_lon": 0.0, "is_disabled": 0, "lat": 38.90062483333333, "bike_id": "d0c33538ddd57307a77c278e66299775", "name": "d0c33538ddd57307a77c278e66299775", "is_reserved": 0, "fusion_lat": 0.0}, {"type": "electric_scooter", "rental_uris": {"ios": "https://dc.lft.to/lastmile_qr_scan", "android": "https://dc.lft.to/lastmile_qr_scan"}, "lon": -76.99037783333333, "fusion_lon": 0.0, "is_disabled": 0, "lat": 38.89145766666667, "bike_id": "f01d9b013c6e17204886d5c02f7dc59b", "name": "f01d9b013c6e17204886d5c02f7dc59b", "is_reserved": 0, "fusion_lat": 0.0}, {"type": "electric_scooter", "rental_uris": {"ios": "https://dc.lft.to/lastmile_qr_scan", "android": "https://dc.lft.to/lastmile_qr_scan"}, "lon": -77.04073683333333, "fusion_lon": 0.0, "is_disabled": 0, "lat": 38.91416266666667, "bike_id": "07eb4c17d04e4b4ee81c78a86f671811", "name": "07eb4c17d04e4b4ee81c78a86f671811", "is_reserved": 0, "fusion_lat": 0.0}, {"type": "electric_bike", "rental_uris": {"ios": "https://dc.lft.to/lastmile_qr_scan", "android": "https://dc.lft.to/lastmile_qr_scan"}, "lon": -77.079187, "fusion_lon": 0.0, "is_disabled": 0, "lat": 38.802282166666664, "bike_id": "8cdb386c104636d774940ce9012b76cb", "name": "8cdb386c104636d774940ce9012b76cb", "is_reserved": 0, "fusion_lat": 0.0}, {"type": "electric_scooter", "rental_uris": {"ios": "https://dc.lft.to/lastmile_qr_scan", "android": "https://dc.lft.to/lastmile_qr_scan"}, "lon": -77.043577, "fusion_lon": 0.0, "is_disabled": 0, "lat": 38.902277833333336, "bike_id": "a8d5a327cfd50b627b1d1ee1ec0011fe", "name": "a8d5a327cfd50b627b1d1ee1ec0011fe", "is_reserved": 0, "fusion_lat": 0.0}, {"type": "electric_scooter", "rental_uris": {"ios": "https://dc.lft.to/lastmile_qr_scan", "android": "https://dc.lft.to/lastmile_qr_scan"}, "lon": -77.04354016666667, "fusion_lon": 0.0, "is_disabled": 0, "lat": 38.92239416666666, "bike_id": "a6191b12bbb65a3a240fee13af732231", "name": "a6191b12bbb65a3a240fee13af732231", "is_reserved": 0, "fusion_lat": 0.0}, {"type": "electric_scooter", "rental_uris": {"ios": "https://dc.lft.to/lastmile_qr_scan", "android": "https://dc.lft.to/lastmile_qr_scan"}, "lon": -76.990396, "fusion_lon": 0.0, "is_disabled": 0, "lat": 38.863594166666665, "bike_id": "5fb954518048dfe8e6be22257b0c4b3b", "name": "5fb954518048dfe8e6be22257b0c4b3b", "is_reserved": 0, "fusion_lat": 0.0}, {"type": "electric_scooter", "rental_uris": {"ios": "https://dc.lft.to/lastmile_qr_scan", "android": "https://dc.lft.to/lastmile_qr_scan"}, "lon": -77.00920083333334, "fusion_lon": 0.0, "is_disabled": 0, "lat": 38.918498166666666, "bike_id": "88b268e38ae3b355ad1ecfd37f02b28f", "name": "88b268e38ae3b355ad1ecfd37f02b28f", "is_reserved": 0, "fusion_lat": 0.0}, {"type": "electric_scooter", "rental_uris": {"ios": "https://dc.lft.to/lastmile_qr_scan", "android": "https://dc.lft.to/lastmile_qr_scan"}, "lon": -77.04029233333333, "fusion_lon": 0.0, "is_disabled": 0, "lat": 38.92444783333333, "bike_id": "c8144bfa1e6fc7528f07493803b8f0a9", "name": "c8144bfa1e6fc7528f07493803b8f0a9", "is_reserved": 0, "fusion_lat": 0.0}, {"type": "electric_scooter", "rental_uris": {"ios": "https://dc.lft.to/lastmile_qr_scan", "android": "https://dc.lft.to/lastmile_qr_scan"}, "lon": -77.04154933333334, "fusion_lon": 0.0, "is_disabled": 0, "lat": 38.905452333333336, "bike_id": "5f5098f37a4e0fd3e4a05d5b8a981a5c", "name": "5f5098f37a4e0fd3e4a05d5b8a981a5c", "is_reserved": 0, "fusion_lat": 0.0}, {"type": "electric_scooter", "rental_uris": {"ios": "https://dc.lft.to/lastmile_qr_scan", "android": "https://dc.lft.to/lastmile_qr_scan"}, "lon": -77.03430533333334, "fusion_lon": 0.0, "is_disabled": 0, "lat": 38.902585, "bike_id": "e2e9f6248a6a54d79867860b0feb50d3", "name": "e2e9f6248a6a54d79867860b0feb50d3", "is_reserved": 0, "fusion_lat": 0.0}, {"type": "electric_scooter", "rental_uris": {"ios": "https://dc.lft.to/lastmile_qr_scan", "android": "https://dc.lft.to/lastmile_qr_scan"}, "lon": -77.01461366666666, "fusion_lon": 0.0, "is_disabled": 0, "lat": 38.877308, "bike_id": "af922fa0cba0b5f78441de29e30ec5b1", "name": "af922fa0cba0b5f78441de29e30ec5b1", "is_reserved": 0, "fusion_lat": 0.0}, {"type": "electric_scooter", "rental_uris": {"ios": "https://dc.lft.to/lastmile_qr_scan", "android": "https://dc.lft.to/lastmile_qr_scan"}, "lon": -77.00208766666667, "fusion_lon": 0.0, "is_disabled": 0, "lat": 38.90037366666667, "bike_id": "6f5318c0222ad0a337a2ac6110433890", "name": "6f5318c0222ad0a337a2ac6110433890", "is_reserved": 0, "fusion_lat": 0.0}, {"type": "electric_scooter", "rental_uris": {"ios": "https://dc.lft.to/lastmile_qr_scan", "android": "https://dc.lft.to/lastmile_qr_scan"}, "lon": -76.96981666666667, "fusion_lon": 0.0, "is_disabled": 0, "lat": 38.919518833333335, "bike_id": "471e55e5904d509d309a3b04603fdce0", "name": "471e55e5904d509d309a3b04603fdce0", "is_reserved": 0, "fusion_lat": 0.0}, {"type": "electric_bike", "rental_uris": {"ios": "https://dc.lft.to/lastmile_qr_scan", "android": "https://dc.lft.to/lastmile_qr_scan"}, "lon": -76.98428416666667, "fusion_lon": 0.0, "is_disabled": 0, "lat": 38.8552275, "bike_id": "fc61f58de8ee1e3defd10113ea862b3d", "name": "fc61f58de8ee1e3defd10113ea862b3d", "is_reserved": 0, "fusion_lat": 0.0}, {"type": "electric_bike", "rental_uris": {"ios": "https://dc.lft.to/lastmile_qr_scan", "android": "https://dc.lft.to/lastmile_qr_scan"}, "lon": -76.97521933333333, "fusion_lon": 0.0, "is_disabled": 0, "lat": 38.9670145, "bike_id": "ae07b97346604063dc0054312cd9c6d9", "name": "ae07b97346604063dc0054312cd9c6d9", "is_reserved": 0, "fusion_lat": 0.0}, {"type": "electric_scooter", "rental_uris": {"ios": "https://dc.lft.to/lastmile_qr_scan", "android": "https://dc.lft.to/lastmile_qr_scan"}, "lon": -77.02325833333333, "fusion_lon": 0.0, "is_disabled": 0, "lat": 38.930608166666666, "bike_id": "0eacb73906ff46fe21f5d3f1a06a2985", "name": "0eacb73906ff46fe21f5d3f1a06a2985", "is_reserved": 0, "fusion_lat": 0.0}, {"type": "electric_bike", "rental_uris": {"ios": "https://dc.lft.to/lastmile_qr_scan", "android": "https://dc.lft.to/lastmile_qr_scan"}, "lon": -77.09963816666667, "fusion_lon": 0.0, "is_disabled": 0, "lat": 38.857937166666666, "bike_id": "8700a249bda0df67eddf64d3235e6d43", "name": "8700a249bda0df67eddf64d3235e6d43", "is_reserved": 0, "fusion_lat": 0.0}, {"type": "electric_scooter", "rental_uris": {"ios": "https://dc.lft.to/lastmile_qr_scan", "android": "https://dc.lft.to/lastmile_qr_scan"}, "lon": -77.04204383333334, "fusion_lon": 0.0, "is_disabled": 0, "lat": 38.91118266666667, "bike_id": "52c67c940dd5de04d8069e0e2a5eb5ce", "name": "52c67c940dd5de04d8069e0e2a5eb5ce", "is_reserved": 0, "fusion_lat": 0.0}, {"type": "electric_scooter", "rental_uris": {"ios": "https://dc.lft.to/lastmile_qr_scan", "android": "https://dc.lft.to/lastmile_qr_scan"}, "lon": -77.03287566666667, "fusion_lon": 0.0, "is_disabled": 0, "lat": 38.956507, "bike_id": "84b383a2b69fe514d52e85f374ee712f", "name": "84b383a2b69fe514d52e85f374ee712f", "is_reserved": 0, "fusion_lat": 0.0}, {"type": "electric_scooter", "rental_uris": {"ios": "https://dc.lft.to/lastmile_qr_scan", "android": "https://dc.lft.to/lastmile_qr_scan"}, "lon": -77.0704705, "fusion_lon": 0.0, "is_disabled": 0, "lat": 38.919216666666664, "bike_id": "33bbf60392236bae5bd5639f3676ab2c", "name": "33bbf60392236bae5bd5639f3676ab2c", "is_reserved": 0, "fusion_lat": 0.0}, {"type": "electric_scooter", "rental_uris": {"ios": "https://dc.lft.to/lastmile_qr_scan", "android": "https://dc.lft.to/lastmile_qr_scan"}, "lon": -77.0502465, "fusion_lon": 0.0, "is_disabled": 0, "lat": 38.92355033333333, "bike_id": "cd90eca979748a72e175e575f02b4042", "name": "cd90eca979748a72e175e575f02b4042", "is_reserved": 0, "fusion_lat": 0.0}, {"type": "electric_scooter", "rental_uris": {"ios": "https://dc.lft.to/lastmile_qr_scan", "android": "https://dc.lft.to/lastmile_qr_scan"}, "lon": -77.0347105, "fusion_lon": 0.0, "is_disabled": 0, "lat": 38.922553666666666, "bike_id": "2f4a15ea57a2bd2aa4a8a6cbb177358e", "name": "2f4a15ea57a2bd2aa4a8a6cbb177358e", "is_reserved": 0, "fusion_lat": 0.0}, {"type": "electric_scooter", "rental_uris": {"ios": "https://dc.lft.to/lastmile_qr_scan", "android": "https://dc.lft.to/lastmile_qr_scan"}, "lon": -77.04180683333334, "fusion_lon": 0.0, "is_disabled": 0, "lat": 38.90307816666667, "bike_id": "3d910debf66f793ad66475a273ef0ee5", "name": "3d910debf66f793ad66475a273ef0ee5", "is_reserved": 0, "fusion_lat": 0.0}, {"type": "electric_scooter", "rental_uris": {"ios": "https://dc.lft.to/lastmile_qr_scan", "android": "https://dc.lft.to/lastmile_qr_scan"}, "lon": -77.05311866666666, "fusion_lon": 0.0, "is_disabled": 0, "lat": 38.900759, "bike_id": "ba1d9897a7599876bb61202262d25295", "name": "ba1d9897a7599876bb61202262d25295", "is_reserved": 0, "fusion_lat": 0.0}, {"type": "electric_scooter", "rental_uris": {"ios": "https://dc.lft.to/lastmile_qr_scan", "android": "https://dc.lft.to/lastmile_qr_scan"}, "lon": -77.03632366666666, "fusion_lon": 0.0, "is_disabled": 0, "lat": 38.93740533333333, "bike_id": "6ff5ec9b4598c76e57bcf8d0fc1554f8", "name": "6ff5ec9b4598c76e57bcf8d0fc1554f8", "is_reserved": 0, "fusion_lat": 0.0}, {"type": "electric_bike", "rental_uris": {"ios": "https://dc.lft.to/lastmile_qr_scan", "android": "https://dc.lft.to/lastmile_qr_scan"}, "lon": -77.03444916666666, "fusion_lon": 0.0, "is_disabled": 0, "lat": 38.92479483333334, "bike_id": "a1591d4418e59bfd7458c97c864fe13c", "name": "a1591d4418e59bfd7458c97c864fe13c", "is_reserved": 0, "fusion_lat": 0.0}, {"type": "electric_scooter", "rental_uris": {"ios": "https://dc.lft.to/lastmile_qr_scan", "android": "https://dc.lft.to/lastmile_qr_scan"}, "lon": -76.946383, "fusion_lon": 0.0, "is_disabled": 0, "lat": 38.898427, "bike_id": "da52fd387454b71cec69b7bd6f64371c", "name": "da52fd387454b71cec69b7bd6f64371c", "is_reserved": 0, "fusion_lat": 0.0}, {"type": "electric_scooter", "rental_uris": {"ios": "https://dc.lft.to/lastmile_qr_scan", "android": "https://dc.lft.to/lastmile_qr_scan"}, "lon": -77.0465795, "fusion_lon": 0.0, "is_disabled": 0, "lat": 38.89240266666667, "bike_id": "9f3c2b08f5e1a1fea583bac0ec10747f", "name": "9f3c2b08f5e1a1fea583bac0ec10747f", "is_reserved": 0, "fusion_lat": 0.0}, {"type": "electric_scooter", "rental_uris": {"ios": "https://dc.lft.to/lastmile_qr_scan", "android": "https://dc.lft.to/lastmile_qr_scan"}, "lon": -77.0464925, "fusion_lon": 0.0, "is_disabled": 0, "lat": 38.896306833333334, "bike_id": "12ed9f18ae061565a5e712a6aee92d45", "name": "12ed9f18ae061565a5e712a6aee92d45", "is_reserved": 0, "fusion_lat": 0.0}, {"type": "electric_bike", "rental_uris": {"ios": "https://dc.lft.to/lastmile_qr_scan", "android": "https://dc.lft.to/lastmile_qr_scan"}, "lon": -76.94625083333334, "fusion_lon": 0.0, "is_disabled": 0, "lat": 38.83235066666667, "bike_id": "1c74f137d09f98a92b55611b8b665d35", "name": "1c74f137d09f98a92b55611b8b665d35", "is_reserved": 0, "fusion_lat": 0.0}, {"type": "electric_scooter", "rental_uris": {"ios": "https://dc.lft.to/lastmile_qr_scan", "android": "https://dc.lft.to/lastmile_qr_scan"}, "lon": -77.0464825, "fusion_lon": 0.0, "is_disabled": 0, "lat": 38.892228833333334, "bike_id": "50070b0bca4f225efae8b81c7e11a0f5", "name": "50070b0bca4f225efae8b81c7e11a0f5", "is_reserved": 0, "fusion_lat": 0.0}, {"type": "electric_scooter", "rental_uris": {"ios": "https://dc.lft.to/lastmile_qr_scan", "android": "https://dc.lft.to/lastmile_qr_scan"}, "lon": -77.0397065, "fusion_lon": 0.0, "is_disabled": 0, "lat": 38.89896733333333, "bike_id": "116a4252db38913b7868d80ce42df57a", "name": "116a4252db38913b7868d80ce42df57a", "is_reserved": 0, "fusion_lat": 0.0}, {"type": "electric_scooter", "rental_uris": {"ios": "https://dc.lft.to/lastmile_qr_scan", "android": "https://dc.lft.to/lastmile_qr_scan"}, "lon": -77.02649766666667, "fusion_lon": 0.0, "is_disabled": 0, "lat": 38.9247775, "bike_id": "15b17bf03e8012f1436fadb9c8ccc253", "name": "15b17bf03e8012f1436fadb9c8ccc253", "is_reserved": 0, "fusion_lat": 0.0}, {"type": "electric_scooter", "rental_uris": {"ios": "https://dc.lft.to/lastmile_qr_scan", "android": "https://dc.lft.to/lastmile_qr_scan"}, "lon": -77.0399845, "fusion_lon": 0.0, "is_disabled": 0, "lat": 38.91419283333333, "bike_id": "6f9960b0b9c2bf044174eb8e21850da5", "name": "6f9960b0b9c2bf044174eb8e21850da5", "is_reserved": 0, "fusion_lat": 0.0}, {"type": "electric_scooter", "rental_uris": {"ios": "https://dc.lft.to/lastmile_qr_scan", "android": "https://dc.lft.to/lastmile_qr_scan"}, "lon": -76.9868955, "fusion_lon": 0.0, "is_disabled": 0, "lat": 38.867231, "bike_id": "6ce1b7f88908f3dfd4db8de342e08642", "name": "6ce1b7f88908f3dfd4db8de342e08642", "is_reserved": 0, "fusion_lat": 0.0}, {"type": "electric_scooter", "rental_uris": {"ios": "https://dc.lft.to/lastmile_qr_scan", "android": "https://dc.lft.to/lastmile_qr_scan"}, "lon": -77.03937016666667, "fusion_lon": 0.0, "is_disabled": 0, "lat": 38.915667166666665, "bike_id": "7ace4e141fcfda7840858e4243017644", "name": "7ace4e141fcfda7840858e4243017644", "is_reserved": 0, "fusion_lat": 0.0}, {"type": "electric_scooter", "rental_uris": {"ios": "https://dc.lft.to/lastmile_qr_scan", "android": "https://dc.lft.to/lastmile_qr_scan"}, "lon": -76.97743783333334, "fusion_lon": 0.0, "is_disabled": 0, "lat": 38.868332, "bike_id": "191b536fc77922433f1c0f438c629467", "name": "191b536fc77922433f1c0f438c629467", "is_reserved": 0, "fusion_lat": 0.0}, {"type": "electric_scooter", "rental_uris": {"ios": "https://dc.lft.to/lastmile_qr_scan", "android": "https://dc.lft.to/lastmile_qr_scan"}, "lon": -77.0316815, "fusion_lon": 0.0, "is_disabled": 0, "lat": 38.897706166666666, "bike_id": "5438d4003c3c11b6a23bbc74c3957e52", "name": "5438d4003c3c11b6a23bbc74c3957e52", "is_reserved": 0, "fusion_lat": 0.0}, {"type": "electric_scooter", "rental_uris": {"ios": "https://dc.lft.to/lastmile_qr_scan", "android": "https://dc.lft.to/lastmile_qr_scan"}, "lon": -77.01763116666666, "fusion_lon": 0.0, "is_disabled": 0, "lat": 38.876731, "bike_id": "d8488c0be52fbae150491e9f9f2abef2", "name": "d8488c0be52fbae150491e9f9f2abef2", "is_reserved": 0, "fusion_lat": 0.0}, {"type": "electric_scooter", "rental_uris": {"ios": "https://dc.lft.to/lastmile_qr_scan", "android": "https://dc.lft.to/lastmile_qr_scan"}, "lon": -77.031598, "fusion_lon": 0.0, "is_disabled": 0, "lat": 38.89219466666667, "bike_id": "45ff0c90ddaf8ba706e4c6ff6b5a236d", "name": "45ff0c90ddaf8ba706e4c6ff6b5a236d", "is_reserved": 0, "fusion_lat": 0.0}, {"type": "electric_scooter", "rental_uris": {"ios": "https://dc.lft.to/lastmile_qr_scan", "android": "https://dc.lft.to/lastmile_qr_scan"}, "lon": -77.03865516666667, "fusion_lon": 0.0, "is_disabled": 0, "lat": 38.90967966666667, "bike_id": "8b8ad9e774bfd8825bbac1cbaff97751", "name": "8b8ad9e774bfd8825bbac1cbaff97751", "is_reserved": 0, "fusion_lat": 0.0}, {"type": "electric_scooter", "rental_uris": {"ios": "https://dc.lft.to/lastmile_qr_scan", "android": "https://dc.lft.to/lastmile_qr_scan"}, "lon": -77.03449133333334, "fusion_lon": 0.0, "is_disabled": 0, "lat": 38.91849066666666, "bike_id": "ecaaf32622a179af4b794e9c3358226a", "name": "ecaaf32622a179af4b794e9c3358226a", "is_reserved": 0, "fusion_lat": 0.0}, {"type": "electric_scooter", "rental_uris": {"ios": "https://dc.lft.to/lastmile_qr_scan", "android": "https://dc.lft.to/lastmile_qr_scan"}, "lon": -77.05577866666667, "fusion_lon": 0.0, "is_disabled": 0, "lat": 38.91054416666667, "bike_id": "fc55d479b651018d43f41ae68e08119c", "name": "fc55d479b651018d43f41ae68e08119c", "is_reserved": 0, "fusion_lat": 0.0}, {"type": "electric_scooter", "rental_uris": {"ios": "https://dc.lft.to/lastmile_qr_scan", "android": "https://dc.lft.to/lastmile_qr_scan"}, "lon": -77.02540216666667, "fusion_lon": 0.0, "is_disabled": 0, "lat": 38.9240715, "bike_id": "68f1e18fc3f3ad3b2b8c841dfc13cdfa", "name": "68f1e18fc3f3ad3b2b8c841dfc13cdfa", "is_reserved": 0, "fusion_lat": 0.0}, {"type": "electric_scooter", "rental_uris": {"ios": "https://dc.lft.to/lastmile_qr_scan", "android": "https://dc.lft.to/lastmile_qr_scan"}, "lon": -77.0459515, "fusion_lon": 0.0, "is_disabled": 0, "lat": 38.908665, "bike_id": "83ecac0fba840312880843db67f30145", "name": "83ecac0fba840312880843db67f30145", "is_reserved": 0, "fusion_lat": 0.0}, {"type": "electric_scooter", "rental_uris": {"ios": "https://dc.lft.to/lastmile_qr_scan", "android": "https://dc.lft.to/lastmile_qr_scan"}, "lon": -77.02208483333334, "fusion_lon": 0.0, "is_disabled": 0, "lat": 38.912557666666665, "bike_id": "97555c0ebcd99370f30a80d6176e330d", "name": "97555c0ebcd99370f30a80d6176e330d", "is_reserved": 0, "fusion_lat": 0.0}, {"type": "electric_scooter", "rental_uris": {"ios": "https://dc.lft.to/lastmile_qr_scan", "android": "https://dc.lft.to/lastmile_qr_scan"}, "lon": -77.03358633333333, "fusion_lon": 0.0, "is_disabled": 0, "lat": 38.93147233333333, "bike_id": "5d1ff04f2acf9c9c586b7e2f35c276e9", "name": "5d1ff04f2acf9c9c586b7e2f35c276e9", "is_reserved": 0, "fusion_lat": 0.0}, {"type": "electric_scooter", "rental_uris": {"ios": "https://dc.lft.to/lastmile_qr_scan", "android": "https://dc.lft.to/lastmile_qr_scan"}, "lon": -76.9982815, "fusion_lon": 0.0, "is_disabled": 0, "lat": 38.900165333333334, "bike_id": "09e4bb714d1cbcd5f6be2537d5069698", "name": "09e4bb714d1cbcd5f6be2537d5069698", "is_reserved": 0, "fusion_lat": 0.0}, {"type": "electric_scooter", "rental_uris": {"ios": "https://dc.lft.to/lastmile_qr_scan", "android": "https://dc.lft.to/lastmile_qr_scan"}, "lon": -76.975966, "fusion_lon": 0.0, "is_disabled": 0, "lat": 38.903341833333336, "bike_id": "5055de339219fd81efc0acaeeaab1046", "name": "5055de339219fd81efc0acaeeaab1046", "is_reserved": 0, "fusion_lat": 0.0}, {"type": "electric_scooter", "rental_uris": {"ios": "https://dc.lft.to/lastmile_qr_scan", "android": "https://dc.lft.to/lastmile_qr_scan"}, "lon": -77.051266, "fusion_lon": 0.0, "is_disabled": 0, "lat": 38.923653, "bike_id": "d82c4ce8d0435f0c6b1fcae0271efa3c", "name": "d82c4ce8d0435f0c6b1fcae0271efa3c", "is_reserved": 0, "fusion_lat": 0.0}, {"type": "electric_bike", "rental_uris": {"ios": "https://dc.lft.to/lastmile_qr_scan", "android": "https://dc.lft.to/lastmile_qr_scan"}, "lon": -77.13147333333333, "fusion_lon": 0.0, "is_disabled": 0, "lat": 38.861738333333335, "bike_id": "a570a00498c1b1047a124528f9139123", "name": "a570a00498c1b1047a124528f9139123", "is_reserved": 0, "fusion_lat": 0.0}, {"type": "electric_bike", "rental_uris": {"ios": "https://dc.lft.to/lastmile_qr_scan", "android": "https://dc.lft.to/lastmile_qr_scan"}, "lon": -76.9853445, "fusion_lon": 0.0, "is_disabled": 0, "lat": 38.88081016666667, "bike_id": "7a97c1fad21702c3cd12e9f46283271a", "name": "7a97c1fad21702c3cd12e9f46283271a", "is_reserved": 0, "fusion_lat": 0.0}, {"type": "electric_scooter", "rental_uris": {"ios": "https://dc.lft.to/lastmile_qr_scan", "android": "https://dc.lft.to/lastmile_qr_scan"}, "lon": -77.05502, "fusion_lon": 0.0, "is_disabled": 0, "lat": 38.936670166666666, "bike_id": "c05990ca544df5c381e5403e7e955f55", "name": "c05990ca544df5c381e5403e7e955f55", "is_reserved": 0, "fusion_lat": 0.0}, {"type": "electric_scooter", "rental_uris": {"ios": "https://dc.lft.to/lastmile_qr_scan", "android": "https://dc.lft.to/lastmile_qr_scan"}, "lon": -77.02627016666666, "fusion_lon": 0.0, "is_disabled": 0, "lat": 38.887494, "bike_id": "56bd20f0e39e228d3d93b2abbde8e929", "name": "56bd20f0e39e228d3d93b2abbde8e929", "is_reserved": 0, "fusion_lat": 0.0}, {"type": "electric_scooter", "rental_uris": {"ios": "https://dc.lft.to/lastmile_qr_scan", "android": "https://dc.lft.to/lastmile_qr_scan"}, "lon": -77.026907, "fusion_lon": 0.0, "is_disabled": 0, "lat": 38.906827666666665, "bike_id": "b8af6ee6c7fdf4c2fdc458bf466179cb", "name": "b8af6ee6c7fdf4c2fdc458bf466179cb", "is_reserved": 0, "fusion_lat": 0.0}, {"type": "electric_scooter", "rental_uris": {"ios": "https://dc.lft.to/lastmile_qr_scan", "android": "https://dc.lft.to/lastmile_qr_scan"}, "lon": -77.02492116666667, "fusion_lon": 0.0, "is_disabled": 0, "lat": 38.94184933333333, "bike_id": "480b206724eb1534b1b3abd651db83fe", "name": "480b206724eb1534b1b3abd651db83fe", "is_reserved": 0, "fusion_lat": 0.0}, {"type": "electric_bike", "rental_uris": {"ios": "https://dc.lft.to/lastmile_qr_scan", "android": "https://dc.lft.to/lastmile_qr_scan"}, "lon": -76.97185016666667, "fusion_lon": 0.0, "is_disabled": 0, "lat": 38.917897333333336, "bike_id": "084f93e96a57efe5de0e1f3a12e9bb17", "name": "084f93e96a57efe5de0e1f3a12e9bb17", "is_reserved": 0, "fusion_lat": 0.0}, {"type": "electric_scooter", "rental_uris": {"ios": "https://dc.lft.to/lastmile_qr_scan", "android": "https://dc.lft.to/lastmile_qr_scan"}, "lon": -76.98708916666666, "fusion_lon": 0.0, "is_disabled": 0, "lat": 38.865386, "bike_id": "15a9fe14a677acb5a4c22c79cc775cd5", "name": "15a9fe14a677acb5a4c22c79cc775cd5", "is_reserved": 0, "fusion_lat": 0.0}, {"type": "electric_scooter", "rental_uris": {"ios": "https://dc.lft.to/lastmile_qr_scan", "android": "https://dc.lft.to/lastmile_qr_scan"}, "lon": -77.04160716666667, "fusion_lon": 0.0, "is_disabled": 0, "lat": 38.916196666666664, "bike_id": "b5db08ce7c313707d9966862dace5aa9", "name": "b5db08ce7c313707d9966862dace5aa9", "is_reserved": 0, "fusion_lat": 0.0}, {"type": "electric_scooter", "rental_uris": {"ios": "https://dc.lft.to/lastmile_qr_scan", "android": "https://dc.lft.to/lastmile_qr_scan"}, "lon": -77.01139966666666, "fusion_lon": 0.0, "is_disabled": 0, "lat": 38.88530333333333, "bike_id": "6e18dd9d2a19ab5541c769087f7bb490", "name": "6e18dd9d2a19ab5541c769087f7bb490", "is_reserved": 0, "fusion_lat": 0.0}, {"type": "electric_scooter", "rental_uris": {"ios": "https://dc.lft.to/lastmile_qr_scan", "android": "https://dc.lft.to/lastmile_qr_scan"}, "lon": -77.029559, "fusion_lon": 0.0, "is_disabled": 0, "lat": 38.93472666666667, "bike_id": "3e37bf0e1960ed64aec58b9c990cbc2b", "name": "3e37bf0e1960ed64aec58b9c990cbc2b", "is_reserved": 0, "fusion_lat": 0.0}, {"type": "electric_scooter", "rental_uris": {"ios": "https://dc.lft.to/lastmile_qr_scan", "android": "https://dc.lft.to/lastmile_qr_scan"}, "lon": -77.03508433333333, "fusion_lon": 0.0, "is_disabled": 0, "lat": 38.921534333333334, "bike_id": "0c33cfa3698a880971bc9a4cc041d18f", "name": "0c33cfa3698a880971bc9a4cc041d18f", "is_reserved": 0, "fusion_lat": 0.0}, {"type": "electric_bike", "rental_uris": {"ios": "https://dc.lft.to/lastmile_qr_scan", "android": "https://dc.lft.to/lastmile_qr_scan"}, "lon": -77.02782383333333, "fusion_lon": 0.0, "is_disabled": 0, "lat": 38.9293035, "bike_id": "e9bf3c6906a9f4f6082ce30359aa28a5", "name": "e9bf3c6906a9f4f6082ce30359aa28a5", "is_reserved": 0, "fusion_lat": 0.0}, {"type": "electric_scooter", "rental_uris": {"ios": "https://dc.lft.to/lastmile_qr_scan", "android": "https://dc.lft.to/lastmile_qr_scan"}, "lon": -77.01774233333333, "fusion_lon": 0.0, "is_disabled": 0, "lat": 38.90560166666667, "bike_id": "f3a6288daac0ab2449e2ba5fb22fa7cb", "name": "f3a6288daac0ab2449e2ba5fb22fa7cb", "is_reserved": 0, "fusion_lat": 0.0}, {"type": "electric_scooter", "rental_uris": {"ios": "https://dc.lft.to/lastmile_qr_scan", "android": "https://dc.lft.to/lastmile_qr_scan"}, "lon": -77.0241435, "fusion_lon": 0.0, "is_disabled": 0, "lat": 38.8919655, "bike_id": "a713d48cbaae3eb4e70fb2d618d06243", "name": "a713d48cbaae3eb4e70fb2d618d06243", "is_reserved": 0, "fusion_lat": 0.0}, {"type": "electric_scooter", "rental_uris": {"ios": "https://dc.lft.to/lastmile_qr_scan", "android": "https://dc.lft.to/lastmile_qr_scan"}, "lon": -77.03174, "fusion_lon": 0.0, "is_disabled": 0, "lat": 38.914212, "bike_id": "839c0f4feb96d3cfad68b461d93c6d64", "name": "839c0f4feb96d3cfad68b461d93c6d64", "is_reserved": 0, "fusion_lat": 0.0}, {"type": "electric_scooter", "rental_uris": {"ios": "https://dc.lft.to/lastmile_qr_scan", "android": "https://dc.lft.to/lastmile_qr_scan"}, "lon": -76.98500016666667, "fusion_lon": 0.0, "is_disabled": 0, "lat": 38.89473866666667, "bike_id": "1ae3968ca11fac02078106ef59107eea", "name": "1ae3968ca11fac02078106ef59107eea", "is_reserved": 0, "fusion_lat": 0.0}, {"type": "electric_scooter", "rental_uris": {"ios": "https://dc.lft.to/lastmile_qr_scan", "android": "https://dc.lft.to/lastmile_qr_scan"}, "lon": -77.04293533333333, "fusion_lon": 0.0, "is_disabled": 0, "lat": 38.922568166666665, "bike_id": "d1906cc9e9dfe60fe5a09b03b5d10032", "name": "d1906cc9e9dfe60fe5a09b03b5d10032", "is_reserved": 0, "fusion_lat": 0.0}, {"type": "electric_scooter", "rental_uris": {"ios": "https://dc.lft.to/lastmile_qr_scan", "android": "https://dc.lft.to/lastmile_qr_scan"}, "lon": -77.0433885, "fusion_lon": 0.0, "is_disabled": 0, "lat": 38.905309333333335, "bike_id": "84114deb818d013176b10042c5ef493a", "name": "84114deb818d013176b10042c5ef493a", "is_reserved": 0, "fusion_lat": 0.0}, {"type": "electric_scooter", "rental_uris": {"ios": "https://dc.lft.to/lastmile_qr_scan", "android": "https://dc.lft.to/lastmile_qr_scan"}, "lon": -77.04215583333334, "fusion_lon": 0.0, "is_disabled": 0, "lat": 38.91125, "bike_id": "8da0af93bb99f0d8cf3fa95a9d72d2a2", "name": "8da0af93bb99f0d8cf3fa95a9d72d2a2", "is_reserved": 0, "fusion_lat": 0.0}, {"type": "electric_scooter", "rental_uris": {"ios": "https://dc.lft.to/lastmile_qr_scan", "android": "https://dc.lft.to/lastmile_qr_scan"}, "lon": -77.0320265, "fusion_lon": 0.0, "is_disabled": 0, "lat": 38.920648666666665, "bike_id": "8397182b88876ea67272af0c8fea7102", "name": "8397182b88876ea67272af0c8fea7102", "is_reserved": 0, "fusion_lat": 0.0}, {"type": "electric_scooter", "rental_uris": {"ios": "https://dc.lft.to/lastmile_qr_scan", "android": "https://dc.lft.to/lastmile_qr_scan"}, "lon": -77.02681816666667, "fusion_lon": 0.0, "is_disabled": 0, "lat": 38.90610083333333, "bike_id": "8436b0cabac31b7b5fcfefdbec4f52c2", "name": "8436b0cabac31b7b5fcfefdbec4f52c2", "is_reserved": 0, "fusion_lat": 0.0}, {"type": "electric_scooter", "rental_uris": {"ios": "https://dc.lft.to/lastmile_qr_scan", "android": "https://dc.lft.to/lastmile_qr_scan"}, "lon": -77.04842066666667, "fusion_lon": 0.0, "is_disabled": 0, "lat": 38.911799, "bike_id": "e020e308f1bb60c813c039832232282e", "name": "e020e308f1bb60c813c039832232282e", "is_reserved": 0, "fusion_lat": 0.0}, {"type": "electric_scooter", "rental_uris": {"ios": "https://dc.lft.to/lastmile_qr_scan", "android": "https://dc.lft.to/lastmile_qr_scan"}, "lon": -77.040115, "fusion_lon": 0.0, "is_disabled": 0, "lat": 38.924342, "bike_id": "0e7753f6dc6d8e49d5f2fe2410e31f88", "name": "0e7753f6dc6d8e49d5f2fe2410e31f88", "is_reserved": 0, "fusion_lat": 0.0}, {"type": "electric_scooter", "rental_uris": {"ios": "https://dc.lft.to/lastmile_qr_scan", "android": "https://dc.lft.to/lastmile_qr_scan"}, "lon": -77.02596233333334, "fusion_lon": 0.0, "is_disabled": 0, "lat": 38.9061145, "bike_id": "53ad982d890b1037aeed6cd3aa04e5a3", "name": "53ad982d890b1037aeed6cd3aa04e5a3", "is_reserved": 0, "fusion_lat": 0.0}, {"type": "electric_scooter", "rental_uris": {"ios": "https://dc.lft.to/lastmile_qr_scan", "android": "https://dc.lft.to/lastmile_qr_scan"}, "lon": -77.04410633333333, "fusion_lon": 0.0, "is_disabled": 0, "lat": 38.91354116666667, "bike_id": "4d5c167f1d6a97f9cd22e402b408653a", "name": "4d5c167f1d6a97f9cd22e402b408653a", "is_reserved": 0, "fusion_lat": 0.0}, {"type": "electric_scooter", "rental_uris": {"ios": "https://dc.lft.to/lastmile_qr_scan", "android": "https://dc.lft.to/lastmile_qr_scan"}, "lon": -76.948767, "fusion_lon": 0.0, "is_disabled": 0, "lat": 38.8950275, "bike_id": "9318700bc7c1a7986702ee6d578d5947", "name": "9318700bc7c1a7986702ee6d578d5947", "is_reserved": 0, "fusion_lat": 0.0}, {"type": "electric_scooter", "rental_uris": {"ios": "https://dc.lft.to/lastmile_qr_scan", "android": "https://dc.lft.to/lastmile_qr_scan"}, "lon": -77.042361, "fusion_lon": 0.0, "is_disabled": 0, "lat": 38.922174166666665, "bike_id": "0841cf9ae93771c97e4b64bcdd774be8", "name": "0841cf9ae93771c97e4b64bcdd774be8", "is_reserved": 0, "fusion_lat": 0.0}, {"type": "electric_bike", "rental_uris": {"ios": "https://dc.lft.to/lastmile_qr_scan", "android": "https://dc.lft.to/lastmile_qr_scan"}, "lon": -77.00205966666667, "fusion_lon": 0.0, "is_disabled": 0, "lat": 38.8193425, "bike_id": "cc177d3659f7b6271af16a5a6c91f6d6", "name": "cc177d3659f7b6271af16a5a6c91f6d6", "is_reserved": 0, "fusion_lat": 0.0}, {"type": "electric_scooter", "rental_uris": {"ios": "https://dc.lft.to/lastmile_qr_scan", "android": "https://dc.lft.to/lastmile_qr_scan"}, "lon": -77.03183816666666, "fusion_lon": 0.0, "is_disabled": 0, "lat": 38.91767516666667, "bike_id": "5dd1ef144bba348c905aaa3a31c2500b", "name": "5dd1ef144bba348c905aaa3a31c2500b", "is_reserved": 0, "fusion_lat": 0.0}, {"type": "electric_scooter", "rental_uris": {"ios": "https://dc.lft.to/lastmile_qr_scan", "android": "https://dc.lft.to/lastmile_qr_scan"}, "lon": -77.0417045, "fusion_lon": 0.0, "is_disabled": 0, "lat": 38.91985233333333, "bike_id": "72ecb5d67304c4d9687e06bba5edeb61", "name": "72ecb5d67304c4d9687e06bba5edeb61", "is_reserved": 0, "fusion_lat": 0.0}, {"type": "electric_scooter", "rental_uris": {"ios": "https://dc.lft.to/lastmile_qr_scan", "android": "https://dc.lft.to/lastmile_qr_scan"}, "lon": -76.99945466666667, "fusion_lon": 0.0, "is_disabled": 0, "lat": 38.90863316666667, "bike_id": "99341375fde7710bd952f1fbb10c35e8", "name": "99341375fde7710bd952f1fbb10c35e8", "is_reserved": 0, "fusion_lat": 0.0}, {"type": "electric_scooter", "rental_uris": {"ios": "https://dc.lft.to/lastmile_qr_scan", "android": "https://dc.lft.to/lastmile_qr_scan"}, "lon": -77.02399683333333, "fusion_lon": 0.0, "is_disabled": 0, "lat": 38.91747733333333, "bike_id": "09e129d2db91822563fa4fd2bb653662", "name": "09e129d2db91822563fa4fd2bb653662", "is_reserved": 0, "fusion_lat": 0.0}, {"type": "electric_bike", "rental_uris": {"ios": "https://dc.lft.to/lastmile_qr_scan", "android": "https://dc.lft.to/lastmile_qr_scan"}, "lon": -76.95988716666666, "fusion_lon": 0.0, "is_disabled": 0, "lat": 38.870146166666665, "bike_id": "71ce500f50adf9cbee35fece3a8c5015", "name": "71ce500f50adf9cbee35fece3a8c5015", "is_reserved": 0, "fusion_lat": 0.0}, {"type": "electric_scooter", "rental_uris": {"ios": "https://dc.lft.to/lastmile_qr_scan", "android": "https://dc.lft.to/lastmile_qr_scan"}, "lon": -76.99828, "fusion_lon": 0.0, "is_disabled": 0, "lat": 38.90014083333333, "bike_id": "74a5094c719f500f50f43f63ada515d0", "name": "74a5094c719f500f50f43f63ada515d0", "is_reserved": 0, "fusion_lat": 0.0}, {"type": "electric_bike", "rental_uris": {"ios": "https://dc.lft.to/lastmile_qr_scan", "android": "https://dc.lft.to/lastmile_qr_scan"}, "lon": -77.0413045, "fusion_lon": 0.0, "is_disabled": 0, "lat": 38.80493583333333, "bike_id": "ae1a1385abf4ab3b6e31117e86f4e332", "name": "ae1a1385abf4ab3b6e31117e86f4e332", "is_reserved": 0, "fusion_lat": 0.0}, {"type": "electric_scooter", "rental_uris": {"ios": "https://dc.lft.to/lastmile_qr_scan", "android": "https://dc.lft.to/lastmile_qr_scan"}, "lon": -77.0249295, "fusion_lon": 0.0, "is_disabled": 0, "lat": 38.91809766666667, "bike_id": "c4d85e52e44f8d3fd8be14936a2bb695", "name": "c4d85e52e44f8d3fd8be14936a2bb695", "is_reserved": 0, "fusion_lat": 0.0}, {"type": "electric_scooter", "rental_uris": {"ios": "https://dc.lft.to/lastmile_qr_scan", "android": "https://dc.lft.to/lastmile_qr_scan"}, "lon": -77.03407583333333, "fusion_lon": 0.0, "is_disabled": 0, "lat": 38.920468166666666, "bike_id": "21fe63349e3aa1e65439cb195d5902b8", "name": "21fe63349e3aa1e65439cb195d5902b8", "is_reserved": 0, "fusion_lat": 0.0}, {"type": "electric_bike", "rental_uris": {"ios": "https://dc.lft.to/lastmile_qr_scan", "android": "https://dc.lft.to/lastmile_qr_scan"}, "lon": -77.03327366666667, "fusion_lon": 0.0, "is_disabled": 0, "lat": 38.920561166666666, "bike_id": "4d1303ee7ec2feab2168c38a8daa5f36", "name": "4d1303ee7ec2feab2168c38a8daa5f36", "is_reserved": 0, "fusion_lat": 0.0}, {"type": "electric_scooter", "rental_uris": {"ios": "https://dc.lft.to/lastmile_qr_scan", "android": "https://dc.lft.to/lastmile_qr_scan"}, "lon": -76.93347583333333, "fusion_lon": 0.0, "is_disabled": 0, "lat": 38.888147333333336, "bike_id": "dc25a33fec144d820a37108b0cdf44e2", "name": "dc25a33fec144d820a37108b0cdf44e2", "is_reserved": 0, "fusion_lat": 0.0}, {"type": "electric_scooter", "rental_uris": {"ios": "https://dc.lft.to/lastmile_qr_scan", "android": "https://dc.lft.to/lastmile_qr_scan"}, "lon": -77.03996666666667, "fusion_lon": 0.0, "is_disabled": 0, "lat": 38.913317, "bike_id": "6e830a3f4a35f3e05fa7c18467b5c526", "name": "6e830a3f4a35f3e05fa7c18467b5c526", "is_reserved": 0, "fusion_lat": 0.0}, {"type": "electric_bike", "rental_uris": {"ios": "https://dc.lft.to/lastmile_qr_scan", "android": "https://dc.lft.to/lastmile_qr_scan"}, "lon": -77.00572616666666, "fusion_lon": 0.0, "is_disabled": 0, "lat": 38.83991816666666, "bike_id": "8bd2303085a08c0f4df731ef1a542135", "name": "8bd2303085a08c0f4df731ef1a542135", "is_reserved": 0, "fusion_lat": 0.0}, {"type": "electric_bike", "rental_uris": {"ios": "https://dc.lft.to/lastmile_qr_scan", "android": "https://dc.lft.to/lastmile_qr_scan"}, "lon": -77.0144845, "fusion_lon": 0.0, "is_disabled": 0, "lat": 38.876751166666665, "bike_id": "da2312f516dfd09456ecde29db51a539", "name": "da2312f516dfd09456ecde29db51a539", "is_reserved": 0, "fusion_lat": 0.0}, {"type": "electric_scooter", "rental_uris": {"ios": "https://dc.lft.to/lastmile_qr_scan", "android": "https://dc.lft.to/lastmile_qr_scan"}, "lon": -77.031902, "fusion_lon": 0.0, "is_disabled": 0, "lat": 38.917872833333334, "bike_id": "d3a922438941e3db31be7aa55d58c496", "name": "d3a922438941e3db31be7aa55d58c496", "is_reserved": 0, "fusion_lat": 0.0}, {"type": "electric_scooter", "rental_uris": {"ios": "https://dc.lft.to/lastmile_qr_scan", "android": "https://dc.lft.to/lastmile_qr_scan"}, "lon": -77.031595, "fusion_lon": 0.0, "is_disabled": 0, "lat": 38.89225716666667, "bike_id": "a7acc0d010d6de1271b683b6ca2a45a5", "name": "a7acc0d010d6de1271b683b6ca2a45a5", "is_reserved": 0, "fusion_lat": 0.0}, {"type": "electric_scooter", "rental_uris": {"ios": "https://dc.lft.to/lastmile_qr_scan", "android": "https://dc.lft.to/lastmile_qr_scan"}, "lon": -77.03207616666667, "fusion_lon": 0.0, "is_disabled": 0, "lat": 38.90893966666667, "bike_id": "fc5f5a42856a8872a909956c5a46d811", "name": "fc5f5a42856a8872a909956c5a46d811", "is_reserved": 0, "fusion_lat": 0.0}, {"type": "electric_scooter", "rental_uris": {"ios": "https://dc.lft.to/lastmile_qr_scan", "android": "https://dc.lft.to/lastmile_qr_scan"}, "lon": -77.07064683333333, "fusion_lon": 0.0, "is_disabled": 0, "lat": 38.931785833333336, "bike_id": "9c78443a952d542f5bf760018e506435", "name": "9c78443a952d542f5bf760018e506435", "is_reserved": 0, "fusion_lat": 0.0}, {"type": "electric_scooter", "rental_uris": {"ios": "https://dc.lft.to/lastmile_qr_scan", "android": "https://dc.lft.to/lastmile_qr_scan"}, "lon": -76.98521666666667, "fusion_lon": 0.0, "is_disabled": 0, "lat": 38.866877833333334, "bike_id": "047c67d1e977bac98445d00f55a0385b", "name": "047c67d1e977bac98445d00f55a0385b", "is_reserved": 0, "fusion_lat": 0.0}, {"type": "electric_scooter", "rental_uris": {"ios": "https://dc.lft.to/lastmile_qr_scan", "android": "https://dc.lft.to/lastmile_qr_scan"}, "lon": -77.05270033333333, "fusion_lon": 0.0, "is_disabled": 0, "lat": 38.92535816666667, "bike_id": "a66b995a1fe4c7c128aa25f39b49f97e", "name": "a66b995a1fe4c7c128aa25f39b49f97e", "is_reserved": 0, "fusion_lat": 0.0}, {"type": "electric_scooter", "rental_uris": {"ios": "https://dc.lft.to/lastmile_qr_scan", "android": "https://dc.lft.to/lastmile_qr_scan"}, "lon": -77.02949016666666, "fusion_lon": 0.0, "is_disabled": 0, "lat": 38.932491, "bike_id": "97c21ce5b1fb080aa752ff67d7ca95dd", "name": "97c21ce5b1fb080aa752ff67d7ca95dd", "is_reserved": 0, "fusion_lat": 0.0}, {"type": "electric_scooter", "rental_uris": {"ios": "https://dc.lft.to/lastmile_qr_scan", "android": "https://dc.lft.to/lastmile_qr_scan"}, "lon": -77.02717, "fusion_lon": 0.0, "is_disabled": 0, "lat": 38.906927833333334, "bike_id": "be02cfcce91fc99c1007440d6178515a", "name": "be02cfcce91fc99c1007440d6178515a", "is_reserved": 0, "fusion_lat": 0.0}, {"type": "electric_scooter", "rental_uris": {"ios": "https://dc.lft.to/lastmile_qr_scan", "android": "https://dc.lft.to/lastmile_qr_scan"}, "lon": -77.02591, "fusion_lon": 0.0, "is_disabled": 0, "lat": 38.9141405, "bike_id": "6109ea5f625754543da5247d413a7407", "name": "6109ea5f625754543da5247d413a7407", "is_reserved": 0, "fusion_lat": 0.0}, {"type": "electric_bike", "rental_uris": {"ios": "https://dc.lft.to/lastmile_qr_scan", "android": "https://dc.lft.to/lastmile_qr_scan"}, "lon": -76.99354433333333, "fusion_lon": 0.0, "is_disabled": 0, "lat": 38.845075, "bike_id": "9385145a6b94b5d4e360cc4465215034", "name": "9385145a6b94b5d4e360cc4465215034", "is_reserved": 0, "fusion_lat": 0.0}, {"type": "electric_scooter", "rental_uris": {"ios": "https://dc.lft.to/lastmile_qr_scan", "android": "https://dc.lft.to/lastmile_qr_scan"}, "lon": -77.03118533333334, "fusion_lon": 0.0, "is_disabled": 0, "lat": 38.9376515, "bike_id": "c0beff02014ba6376d4ae1e1fafa4300", "name": "c0beff02014ba6376d4ae1e1fafa4300", "is_reserved": 0, "fusion_lat": 0.0}, {"type": "electric_scooter", "rental_uris": {"ios": "https://dc.lft.to/lastmile_qr_scan", "android": "https://dc.lft.to/lastmile_qr_scan"}, "lon": -76.998294, "fusion_lon": 0.0, "is_disabled": 0, "lat": 38.88533283333334, "bike_id": "051b329b430b5a810e4b6c81d6dc3c64", "name": "051b329b430b5a810e4b6c81d6dc3c64", "is_reserved": 0, "fusion_lat": 0.0}, {"type": "electric_scooter", "rental_uris": {"ios": "https://dc.lft.to/lastmile_qr_scan", "android": "https://dc.lft.to/lastmile_qr_scan"}, "lon": -77.0218395, "fusion_lon": 0.0, "is_disabled": 0, "lat": 38.906289666666666, "bike_id": "ca2e71a0eba350fa92d9230a60459141", "name": "ca2e71a0eba350fa92d9230a60459141", "is_reserved": 0, "fusion_lat": 0.0}, {"type": "electric_scooter", "rental_uris": {"ios": "https://dc.lft.to/lastmile_qr_scan", "android": "https://dc.lft.to/lastmile_qr_scan"}, "lon": -77.05024533333334, "fusion_lon": 0.0, "is_disabled": 0, "lat": 38.923578, "bike_id": "1735edf401fb56076577baacda7862b1", "name": "1735edf401fb56076577baacda7862b1", "is_reserved": 0, "fusion_lat": 0.0}, {"type": "electric_scooter", "rental_uris": {"ios": "https://dc.lft.to/lastmile_qr_scan", "android": "https://dc.lft.to/lastmile_qr_scan"}, "lon": -77.02534016666667, "fusion_lon": 0.0, "is_disabled": 0, "lat": 38.914868166666665, "bike_id": "bd36da3a88f997408a3175055625d74d", "name": "bd36da3a88f997408a3175055625d74d", "is_reserved": 0, "fusion_lat": 0.0}, {"type": "electric_scooter", "rental_uris": {"ios": "https://dc.lft.to/lastmile_qr_scan", "android": "https://dc.lft.to/lastmile_qr_scan"}, "lon": -77.0375445, "fusion_lon": 0.0, "is_disabled": 0, "lat": 38.935761, "bike_id": "a5975d9c55a2dcd91319ca7f8ca1b004", "name": "a5975d9c55a2dcd91319ca7f8ca1b004", "is_reserved": 0, "fusion_lat": 0.0}, {"type": "electric_bike", "rental_uris": {"ios": "https://dc.lft.to/lastmile_qr_scan", "android": "https://dc.lft.to/lastmile_qr_scan"}, "lon": -77.0120025, "fusion_lon": 0.0, "is_disabled": 0, "lat": 38.950793166666664, "bike_id": "1c165a64a8b7ab92a5d990e50ad520aa", "name": "1c165a64a8b7ab92a5d990e50ad520aa", "is_reserved": 0, "fusion_lat": 0.0}, {"type": "electric_scooter", "rental_uris": {"ios": "https://dc.lft.to/lastmile_qr_scan", "android": "https://dc.lft.to/lastmile_qr_scan"}, "lon": -77.03826983333333, "fusion_lon": 0.0, "is_disabled": 0, "lat": 38.91107516666667, "bike_id": "f6d0c3060989f5fdbe1473bcc85ae36a", "name": "f6d0c3060989f5fdbe1473bcc85ae36a", "is_reserved": 0, "fusion_lat": 0.0}, {"type": "electric_scooter", "rental_uris": {"ios": "https://dc.lft.to/lastmile_qr_scan", "android": "https://dc.lft.to/lastmile_qr_scan"}, "lon": -77.03183216666666, "fusion_lon": 0.0, "is_disabled": 0, "lat": 38.89230116666667, "bike_id": "5c32da2e96dbaea621815d8178fbe7f0", "name": "5c32da2e96dbaea621815d8178fbe7f0", "is_reserved": 0, "fusion_lat": 0.0}, {"type": "electric_scooter", "rental_uris": {"ios": "https://dc.lft.to/lastmile_qr_scan", "android": "https://dc.lft.to/lastmile_qr_scan"}, "lon": -77.04177233333333, "fusion_lon": 0.0, "is_disabled": 0, "lat": 38.903059999999996, "bike_id": "2d6f8892a943d520d259edbd1608070c", "name": "2d6f8892a943d520d259edbd1608070c", "is_reserved": 0, "fusion_lat": 0.0}, {"type": "electric_scooter", "rental_uris": {"ios": "https://dc.lft.to/lastmile_qr_scan", "android": "https://dc.lft.to/lastmile_qr_scan"}, "lon": -77.04359633333333, "fusion_lon": 0.0, "is_disabled": 0, "lat": 38.9213985, "bike_id": "0818d8ff62687ec6dd1c6a02fcd8c99d", "name": "0818d8ff62687ec6dd1c6a02fcd8c99d", "is_reserved": 0, "fusion_lat": 0.0}, {"type": "electric_scooter", "rental_uris": {"ios": "https://dc.lft.to/lastmile_qr_scan", "android": "https://dc.lft.to/lastmile_qr_scan"}, "lon": -77.0603495, "fusion_lon": 0.0, "is_disabled": 0, "lat": 38.90232916666667, "bike_id": "5c4c1eafc053f2af62e6195349e6292a", "name": "5c4c1eafc053f2af62e6195349e6292a", "is_reserved": 0, "fusion_lat": 0.0}, {"type": "electric_scooter", "rental_uris": {"ios": "https://dc.lft.to/lastmile_qr_scan", "android": "https://dc.lft.to/lastmile_qr_scan"}, "lon": -77.02792133333334, "fusion_lon": 0.0, "is_disabled": 0, "lat": 38.93086233333333, "bike_id": "4972021d89cc3b5913009ab007146b31", "name": "4972021d89cc3b5913009ab007146b31", "is_reserved": 0, "fusion_lat": 0.0}, {"type": "electric_scooter", "rental_uris": {"ios": "https://dc.lft.to/lastmile_qr_scan", "android": "https://dc.lft.to/lastmile_qr_scan"}, "lon": -77.052652, "fusion_lon": 0.0, "is_disabled": 0, "lat": 38.92551016666667, "bike_id": "512e96be833567b6e98f442d48ca53bd", "name": "512e96be833567b6e98f442d48ca53bd", "is_reserved": 0, "fusion_lat": 0.0}, {"type": "electric_scooter", "rental_uris": {"ios": "https://dc.lft.to/lastmile_qr_scan", "android": "https://dc.lft.to/lastmile_qr_scan"}, "lon": -77.036393, "fusion_lon": 0.0, "is_disabled": 0, "lat": 38.932773833333336, "bike_id": "ff89389539a02cf6ab9cd42be01e0205", "name": "ff89389539a02cf6ab9cd42be01e0205", "is_reserved": 0, "fusion_lat": 0.0}, {"type": "electric_scooter", "rental_uris": {"ios": "https://dc.lft.to/lastmile_qr_scan", "android": "https://dc.lft.to/lastmile_qr_scan"}, "lon": -77.03423616666667, "fusion_lon": 0.0, "is_disabled": 0, "lat": 38.90967766666667, "bike_id": "7dbed291ab2cbf7d44e764ec0ee139f5", "name": "7dbed291ab2cbf7d44e764ec0ee139f5", "is_reserved": 0, "fusion_lat": 0.0}, {"type": "electric_scooter", "rental_uris": {"ios": "https://dc.lft.to/lastmile_qr_scan", "android": "https://dc.lft.to/lastmile_qr_scan"}, "lon": -77.03295766666666, "fusion_lon": 0.0, "is_disabled": 0, "lat": 38.920672, "bike_id": "b539ff9d23ca89ec80210d290402e80c", "name": "b539ff9d23ca89ec80210d290402e80c", "is_reserved": 0, "fusion_lat": 0.0}, {"type": "electric_bike", "rental_uris": {"ios": "https://dc.lft.to/lastmile_qr_scan", "android": "https://dc.lft.to/lastmile_qr_scan"}, "lon": -76.93237216666667, "fusion_lon": 0.0, "is_disabled": 0, "lat": 38.882772833333334, "bike_id": "9223080106a7fbd3e2891b65cc8409c4", "name": "9223080106a7fbd3e2891b65cc8409c4", "is_reserved": 0, "fusion_lat": 0.0}, {"type": "electric_bike", "rental_uris": {"ios": "https://dc.lft.to/lastmile_qr_scan", "android": "https://dc.lft.to/lastmile_qr_scan"}, "lon": -77.01209766666666, "fusion_lon": 0.0, "is_disabled": 0, "lat": 38.87087966666667, "bike_id": "95c412fb5f763b8affcd268058cb3a47", "name": "95c412fb5f763b8affcd268058cb3a47", "is_reserved": 0, "fusion_lat": 0.0}, {"type": "electric_bike", "rental_uris": {"ios": "https://dc.lft.to/lastmile_qr_scan", "android": "https://dc.lft.to/lastmile_qr_scan"}, "lon": -77.01283666666667, "fusion_lon": 0.0, "is_disabled": 0, "lat": 38.95666716666667, "bike_id": "a4f81bacda70f7522b4b04be9f4ebbde", "name": "a4f81bacda70f7522b4b04be9f4ebbde", "is_reserved": 0, "fusion_lat": 0.0}, {"type": "electric_scooter", "rental_uris": {"ios": "https://dc.lft.to/lastmile_qr_scan", "android": "https://dc.lft.to/lastmile_qr_scan"}, "lon": -77.04896566666666, "fusion_lon": 0.0, "is_disabled": 0, "lat": 38.8922805, "bike_id": "7fb966e210ba35d4c14b0593b58e9f29", "name": "7fb966e210ba35d4c14b0593b58e9f29", "is_reserved": 0, "fusion_lat": 0.0}, {"type": "electric_scooter", "rental_uris": {"ios": "https://dc.lft.to/lastmile_qr_scan", "android": "https://dc.lft.to/lastmile_qr_scan"}, "lon": -76.979522, "fusion_lon": 0.0, "is_disabled": 0, "lat": 38.91693866666667, "bike_id": "636c02bd8c08abe29c811aa555ac95c3", "name": "636c02bd8c08abe29c811aa555ac95c3", "is_reserved": 0, "fusion_lat": 0.0}, {"type": "electric_scooter", "rental_uris": {"ios": "https://dc.lft.to/lastmile_qr_scan", "android": "https://dc.lft.to/lastmile_qr_scan"}, "lon": -77.05077, "fusion_lon": 0.0, "is_disabled": 0, "lat": 38.90418483333333, "bike_id": "5896c1520f3a7afaef6ef65e2d87220c", "name": "5896c1520f3a7afaef6ef65e2d87220c", "is_reserved": 0, "fusion_lat": 0.0}, {"type": "electric_scooter", "rental_uris": {"ios": "https://dc.lft.to/lastmile_qr_scan", "android": "https://dc.lft.to/lastmile_qr_scan"}, "lon": -77.03442116666666, "fusion_lon": 0.0, "is_disabled": 0, "lat": 38.90732833333333, "bike_id": "620cec67d9ba096082cacb40d61c5733", "name": "620cec67d9ba096082cacb40d61c5733", "is_reserved": 0, "fusion_lat": 0.0}, {"type": "electric_bike", "rental_uris": {"ios": "https://dc.lft.to/lastmile_qr_scan", "android": "https://dc.lft.to/lastmile_qr_scan"}, "lon": -77.11044633333333, "fusion_lon": 0.0, "is_disabled": 0, "lat": 38.870805, "bike_id": "95097d11ff446f94b1808b3bbc8fd883", "name": "95097d11ff446f94b1808b3bbc8fd883", "is_reserved": 0, "fusion_lat": 0.0}, {"type": "electric_scooter", "rental_uris": {"ios": "https://dc.lft.to/lastmile_qr_scan", "android": "https://dc.lft.to/lastmile_qr_scan"}, "lon": -77.03227583333333, "fusion_lon": 0.0, "is_disabled": 0, "lat": 38.909694333333334, "bike_id": "681da98632f7dbe91d0023cb1db8b016", "name": "681da98632f7dbe91d0023cb1db8b016", "is_reserved": 0, "fusion_lat": 0.0}, {"type": "electric_scooter", "rental_uris": {"ios": "https://dc.lft.to/lastmile_qr_scan", "android": "https://dc.lft.to/lastmile_qr_scan"}, "lon": -77.03203466666666, "fusion_lon": 0.0, "is_disabled": 0, "lat": 38.91795, "bike_id": "c13c4327cc8ff0fede424f57d3386c60", "name": "c13c4327cc8ff0fede424f57d3386c60", "is_reserved": 0, "fusion_lat": 0.0}, {"type": "electric_scooter", "rental_uris": {"ios": "https://dc.lft.to/lastmile_qr_scan", "android": "https://dc.lft.to/lastmile_qr_scan"}, "lon": -77.02604783333334, "fusion_lon": 0.0, "is_disabled": 0, "lat": 38.901271666666666, "bike_id": "5e8494729755be53011fd4c8025764e9", "name": "5e8494729755be53011fd4c8025764e9", "is_reserved": 0, "fusion_lat": 0.0}, {"type": "electric_scooter", "rental_uris": {"ios": "https://dc.lft.to/lastmile_qr_scan", "android": "https://dc.lft.to/lastmile_qr_scan"}, "lon": -77.03179233333333, "fusion_lon": 0.0, "is_disabled": 0, "lat": 38.919171166666665, "bike_id": "fcdc59a42bae9a451bc80947c3ee3264", "name": "fcdc59a42bae9a451bc80947c3ee3264", "is_reserved": 0, "fusion_lat": 0.0}, {"type": "electric_scooter", "rental_uris": {"ios": "https://dc.lft.to/lastmile_qr_scan", "android": "https://dc.lft.to/lastmile_qr_scan"}, "lon": -76.99908383333333, "fusion_lon": 0.0, "is_disabled": 0, "lat": 38.94818466666667, "bike_id": "8fe9b669b502bb65c0fffc21dc180b4c", "name": "8fe9b669b502bb65c0fffc21dc180b4c", "is_reserved": 0, "fusion_lat": 0.0}, {"type": "electric_scooter", "rental_uris": {"ios": "https://dc.lft.to/lastmile_qr_scan", "android": "https://dc.lft.to/lastmile_qr_scan"}, "lon": -77.01613083333334, "fusion_lon": 0.0, "is_disabled": 0, "lat": 38.915990666666666, "bike_id": "74a6cc666098cb8b76f083d0922d1c9e", "name": "74a6cc666098cb8b76f083d0922d1c9e", "is_reserved": 0, "fusion_lat": 0.0}, {"type": "electric_scooter", "rental_uris": {"ios": "https://dc.lft.to/lastmile_qr_scan", "android": "https://dc.lft.to/lastmile_qr_scan"}, "lon": -77.03173283333334, "fusion_lon": 0.0, "is_disabled": 0, "lat": 38.914181166666665, "bike_id": "ae5c60d22a05536970a8a807226d9690", "name": "ae5c60d22a05536970a8a807226d9690", "is_reserved": 0, "fusion_lat": 0.0}, {"type": "electric_scooter", "rental_uris": {"ios": "https://dc.lft.to/lastmile_qr_scan", "android": "https://dc.lft.to/lastmile_qr_scan"}, "lon": -77.02728266666666, "fusion_lon": 0.0, "is_disabled": 0, "lat": 38.9015135, "bike_id": "6b95fb5a0f0f321e5d3c752b1ada970d", "name": "6b95fb5a0f0f321e5d3c752b1ada970d", "is_reserved": 0, "fusion_lat": 0.0}, {"type": "electric_scooter", "rental_uris": {"ios": "https://dc.lft.to/lastmile_qr_scan", "android": "https://dc.lft.to/lastmile_qr_scan"}, "lon": -77.04849016666667, "fusion_lon": 0.0, "is_disabled": 0, "lat": 38.90464633333333, "bike_id": "29edfd9f6299b815ba7297009709ebc6", "name": "29edfd9f6299b815ba7297009709ebc6", "is_reserved": 0, "fusion_lat": 0.0}, {"type": "electric_scooter", "rental_uris": {"ios": "https://dc.lft.to/lastmile_qr_scan", "android": "https://dc.lft.to/lastmile_qr_scan"}, "lon": -77.03217116666667, "fusion_lon": 0.0, "is_disabled": 0, "lat": 38.90968933333333, "bike_id": "28df42d5d77abf4c921580cea7a17fa0", "name": "28df42d5d77abf4c921580cea7a17fa0", "is_reserved": 0, "fusion_lat": 0.0}, {"type": "electric_scooter", "rental_uris": {"ios": "https://dc.lft.to/lastmile_qr_scan", "android": "https://dc.lft.to/lastmile_qr_scan"}, "lon": -76.936099, "fusion_lon": 0.0, "is_disabled": 0, "lat": 38.896856666666665, "bike_id": "15df7ee85cd1b0bf518ca596b2b9d23f", "name": "15df7ee85cd1b0bf518ca596b2b9d23f", "is_reserved": 0, "fusion_lat": 0.0}, {"type": "electric_scooter", "rental_uris": {"ios": "https://dc.lft.to/lastmile_qr_scan", "android": "https://dc.lft.to/lastmile_qr_scan"}, "lon": -77.05220083333333, "fusion_lon": 0.0, "is_disabled": 0, "lat": 38.924969, "bike_id": "7f52ea8e0362355bef4a3c5394dfda23", "name": "7f52ea8e0362355bef4a3c5394dfda23", "is_reserved": 0, "fusion_lat": 0.0}, {"type": "electric_scooter", "rental_uris": {"ios": "https://dc.lft.to/lastmile_qr_scan", "android": "https://dc.lft.to/lastmile_qr_scan"}, "lon": -77.03184733333333, "fusion_lon": 0.0, "is_disabled": 0, "lat": 38.917484, "bike_id": "8c3ba63edfa67c92b80b7d61c4b0b9ab", "name": "8c3ba63edfa67c92b80b7d61c4b0b9ab", "is_reserved": 0, "fusion_lat": 0.0}, {"type": "electric_scooter", "rental_uris": {"ios": "https://dc.lft.to/lastmile_qr_scan", "android": "https://dc.lft.to/lastmile_qr_scan"}, "lon": -76.99907816666666, "fusion_lon": 0.0, "is_disabled": 0, "lat": 38.9482625, "bike_id": "b52f29f23a1973a55054d6a8008918d3", "name": "b52f29f23a1973a55054d6a8008918d3", "is_reserved": 0, "fusion_lat": 0.0}, {"type": "electric_scooter", "rental_uris": {"ios": "https://dc.lft.to/lastmile_qr_scan", "android": "https://dc.lft.to/lastmile_qr_scan"}, "lon": -77.0212725, "fusion_lon": 0.0, "is_disabled": 0, "lat": 38.8874245, "bike_id": "b39edc70804e95fa058209adbb9863fd", "name": "b39edc70804e95fa058209adbb9863fd", "is_reserved": 0, "fusion_lat": 0.0}, {"type": "electric_scooter", "rental_uris": {"ios": "https://dc.lft.to/lastmile_qr_scan", "android": "https://dc.lft.to/lastmile_qr_scan"}, "lon": -77.02197133333334, "fusion_lon": 0.0, "is_disabled": 0, "lat": 38.915001333333336, "bike_id": "37848087c8662ad35eccaf6e1a0d0f1f", "name": "37848087c8662ad35eccaf6e1a0d0f1f", "is_reserved": 0, "fusion_lat": 0.0}, {"type": "electric_scooter", "rental_uris": {"ios": "https://dc.lft.to/lastmile_qr_scan", "android": "https://dc.lft.to/lastmile_qr_scan"}, "lon": -77.06026566666667, "fusion_lon": 0.0, "is_disabled": 0, "lat": 38.944583333333334, "bike_id": "f1f59853845c26ba57f031f237fd5c50", "name": "f1f59853845c26ba57f031f237fd5c50", "is_reserved": 0, "fusion_lat": 0.0}, {"type": "electric_scooter", "rental_uris": {"ios": "https://dc.lft.to/lastmile_qr_scan", "android": "https://dc.lft.to/lastmile_qr_scan"}, "lon": -77.0605205, "fusion_lon": 0.0, "is_disabled": 0, "lat": 38.90239183333333, "bike_id": "aa3eaf8088c50945779969620d999592", "name": "aa3eaf8088c50945779969620d999592", "is_reserved": 0, "fusion_lat": 0.0}, {"type": "electric_scooter", "rental_uris": {"ios": "https://dc.lft.to/lastmile_qr_scan", "android": "https://dc.lft.to/lastmile_qr_scan"}, "lon": -77.04688133333333, "fusion_lon": 0.0, "is_disabled": 0, "lat": 38.897365666666666, "bike_id": "737ad6c98fb71269138ed1452caba496", "name": "737ad6c98fb71269138ed1452caba496", "is_reserved": 0, "fusion_lat": 0.0}, {"type": "electric_scooter", "rental_uris": {"ios": "https://dc.lft.to/lastmile_qr_scan", "android": "https://dc.lft.to/lastmile_qr_scan"}, "lon": -77.03244633333334, "fusion_lon": 0.0, "is_disabled": 0, "lat": 38.90874, "bike_id": "7847ff4f8e3c204b1873346976117c4b", "name": "7847ff4f8e3c204b1873346976117c4b", "is_reserved": 0, "fusion_lat": 0.0}, {"type": "electric_scooter", "rental_uris": {"ios": "https://dc.lft.to/lastmile_qr_scan", "android": "https://dc.lft.to/lastmile_qr_scan"}, "lon": -77.03891783333333, "fusion_lon": 0.0, "is_disabled": 0, "lat": 38.906442166666665, "bike_id": "cd023f3a9d8d9fbb2534d7dfcc6f1ddd", "name": "cd023f3a9d8d9fbb2534d7dfcc6f1ddd", "is_reserved": 0, "fusion_lat": 0.0}, {"type": "electric_scooter", "rental_uris": {"ios": "https://dc.lft.to/lastmile_qr_scan", "android": "https://dc.lft.to/lastmile_qr_scan"}, "lon": -77.045135, "fusion_lon": 0.0, "is_disabled": 0, "lat": 38.915915166666665, "bike_id": "0ac77c8c54f0c7a2baa2ac889b37634f", "name": "0ac77c8c54f0c7a2baa2ac889b37634f", "is_reserved": 0, "fusion_lat": 0.0}, {"type": "electric_bike", "rental_uris": {"ios": "https://dc.lft.to/lastmile_qr_scan", "android": "https://dc.lft.to/lastmile_qr_scan"}, "lon": -77.02100733333333, "fusion_lon": 0.0, "is_disabled": 0, "lat": 38.93714816666667, "bike_id": "bb98c37b7f4284e72b3ff1b33c71a2a2", "name": "bb98c37b7f4284e72b3ff1b33c71a2a2", "is_reserved": 0, "fusion_lat": 0.0}, {"type": "electric_scooter", "rental_uris": {"ios": "https://dc.lft.to/lastmile_qr_scan", "android": "https://dc.lft.to/lastmile_qr_scan"}, "lon": -77.04478816666666, "fusion_lon": 0.0, "is_disabled": 0, "lat": 38.9112915, "bike_id": "3079358ad25b75992b131852dc518fca", "name": "3079358ad25b75992b131852dc518fca", "is_reserved": 0, "fusion_lat": 0.0}, {"type": "electric_scooter", "rental_uris": {"ios": "https://dc.lft.to/lastmile_qr_scan", "android": "https://dc.lft.to/lastmile_qr_scan"}, "lon": -76.965205, "fusion_lon": 0.0, "is_disabled": 0, "lat": 38.8763105, "bike_id": "e789d8c1328d041fb141372cab46c528", "name": "e789d8c1328d041fb141372cab46c528", "is_reserved": 0, "fusion_lat": 0.0}, {"type": "electric_bike", "rental_uris": {"ios": "https://dc.lft.to/lastmile_qr_scan", "android": "https://dc.lft.to/lastmile_qr_scan"}, "lon": -77.11799083333334, "fusion_lon": 0.0, "is_disabled": 0, "lat": 38.87373433333333, "bike_id": "9a660805bcd0f50f9faff18ae09c3321", "name": "9a660805bcd0f50f9faff18ae09c3321", "is_reserved": 0, "fusion_lat": 0.0}, {"type": "electric_scooter", "rental_uris": {"ios": "https://dc.lft.to/lastmile_qr_scan", "android": "https://dc.lft.to/lastmile_qr_scan"}, "lon": -76.93736533333333, "fusion_lon": 0.0, "is_disabled": 0, "lat": 38.890178666666664, "bike_id": "2dd38e69d6a1a3fe91761ff425a97693", "name": "2dd38e69d6a1a3fe91761ff425a97693", "is_reserved": 0, "fusion_lat": 0.0}, {"type": "electric_scooter", "rental_uris": {"ios": "https://dc.lft.to/lastmile_qr_scan", "android": "https://dc.lft.to/lastmile_qr_scan"}, "lon": -76.96526066666667, "fusion_lon": 0.0, "is_disabled": 0, "lat": 38.8763105, "bike_id": "6eb2dbd3ed27167302c85ec084e32992", "name": "6eb2dbd3ed27167302c85ec084e32992", "is_reserved": 0, "fusion_lat": 0.0}, {"type": "electric_bike", "rental_uris": {"ios": "https://dc.lft.to/lastmile_qr_scan", "android": "https://dc.lft.to/lastmile_qr_scan"}, "lon": -77.0261875, "fusion_lon": 0.0, "is_disabled": 0, "lat": 38.96930366666667, "bike_id": "186d2a170ea3afaf17fd73ff8017dc69", "name": "186d2a170ea3afaf17fd73ff8017dc69", "is_reserved": 0, "fusion_lat": 0.0}, {"type": "electric_scooter", "rental_uris": {"ios": "https://dc.lft.to/lastmile_qr_scan", "android": "https://dc.lft.to/lastmile_qr_scan"}, "lon": -77.031963, "fusion_lon": 0.0, "is_disabled": 0, "lat": 38.916178333333335, "bike_id": "e2a1fceee226fa4de608b7a23c018431", "name": "e2a1fceee226fa4de608b7a23c018431", "is_reserved": 0, "fusion_lat": 0.0}, {"type": "electric_scooter", "rental_uris": {"ios": "https://dc.lft.to/lastmile_qr_scan", "android": "https://dc.lft.to/lastmile_qr_scan"}, "lon": -77.022867, "fusion_lon": 0.0, "is_disabled": 0, "lat": 38.91437233333333, "bike_id": "81e2c895b85281c2b62ec178d4fca888", "name": "81e2c895b85281c2b62ec178d4fca888", "is_reserved": 0, "fusion_lat": 0.0}, {"type": "electric_scooter", "rental_uris": {"ios": "https://dc.lft.to/lastmile_qr_scan", "android": "https://dc.lft.to/lastmile_qr_scan"}, "lon": -77.03661316666667, "fusion_lon": 0.0, "is_disabled": 0, "lat": 38.922517166666665, "bike_id": "4df738037ef7dafe6b01b670f2fe8716", "name": "4df738037ef7dafe6b01b670f2fe8716", "is_reserved": 0, "fusion_lat": 0.0}, {"type": "electric_scooter", "rental_uris": {"ios": "https://dc.lft.to/lastmile_qr_scan", "android": "https://dc.lft.to/lastmile_qr_scan"}, "lon": -77.04031, "fusion_lon": 0.0, "is_disabled": 0, "lat": 38.91805033333333, "bike_id": "7ff547654dddc8d9f0961364784bdf4e", "name": "7ff547654dddc8d9f0961364784bdf4e", "is_reserved": 0, "fusion_lat": 0.0}, {"type": "electric_scooter", "rental_uris": {"ios": "https://dc.lft.to/lastmile_qr_scan", "android": "https://dc.lft.to/lastmile_qr_scan"}, "lon": -77.0315175, "fusion_lon": 0.0, "is_disabled": 0, "lat": 38.91110916666667, "bike_id": "c1e1cb5abd2ea0f3aa10bc2f577b449e", "name": "c1e1cb5abd2ea0f3aa10bc2f577b449e", "is_reserved": 0, "fusion_lat": 0.0}, {"type": "electric_scooter", "rental_uris": {"ios": "https://dc.lft.to/lastmile_qr_scan", "android": "https://dc.lft.to/lastmile_qr_scan"}, "lon": -77.05513916666666, "fusion_lon": 0.0, "is_disabled": 0, "lat": 38.944155333333335, "bike_id": "ce8951b3b404d3f7ce9be8574378d516", "name": "ce8951b3b404d3f7ce9be8574378d516", "is_reserved": 0, "fusion_lat": 0.0}, {"type": "electric_scooter", "rental_uris": {"ios": "https://dc.lft.to/lastmile_qr_scan", "android": "https://dc.lft.to/lastmile_qr_scan"}, "lon": -77.04477633333333, "fusion_lon": 0.0, "is_disabled": 0, "lat": 38.91118783333334, "bike_id": "2a94a9443f1dab9d034bc61c5c0312c5", "name": "2a94a9443f1dab9d034bc61c5c0312c5", "is_reserved": 0, "fusion_lat": 0.0}, {"type": "electric_scooter", "rental_uris": {"ios": "https://dc.lft.to/lastmile_qr_scan", "android": "https://dc.lft.to/lastmile_qr_scan"}, "lon": -77.02798383333334, "fusion_lon": 0.0, "is_disabled": 0, "lat": 38.8923565, "bike_id": "16b07c91ddcc673a8c4d68b1219b49f3", "name": "16b07c91ddcc673a8c4d68b1219b49f3", "is_reserved": 0, "fusion_lat": 0.0}, {"type": "electric_scooter", "rental_uris": {"ios": "https://dc.lft.to/lastmile_qr_scan", "android": "https://dc.lft.to/lastmile_qr_scan"}, "lon": -77.04212933333334, "fusion_lon": 0.0, "is_disabled": 0, "lat": 38.9111985, "bike_id": "b6331bd36a9ab38abcbc6a536adb5003", "name": "b6331bd36a9ab38abcbc6a536adb5003", "is_reserved": 0, "fusion_lat": 0.0}, {"type": "electric_scooter", "rental_uris": {"ios": "https://dc.lft.to/lastmile_qr_scan", "android": "https://dc.lft.to/lastmile_qr_scan"}, "lon": -77.03383766666667, "fusion_lon": 0.0, "is_disabled": 0, "lat": 38.90972383333333, "bike_id": "40af5794367c26c3b89fc454c21479ee", "name": "40af5794367c26c3b89fc454c21479ee", "is_reserved": 0, "fusion_lat": 0.0}, {"type": "electric_scooter", "rental_uris": {"ios": "https://dc.lft.to/lastmile_qr_scan", "android": "https://dc.lft.to/lastmile_qr_scan"}, "lon": -77.02004116666667, "fusion_lon": 0.0, "is_disabled": 0, "lat": 38.915658666666666, "bike_id": "fc73a4c9da42b4fa4bed82ee9eef3e14", "name": "fc73a4c9da42b4fa4bed82ee9eef3e14", "is_reserved": 0, "fusion_lat": 0.0}, {"type": "electric_scooter", "rental_uris": {"ios": "https://dc.lft.to/lastmile_qr_scan", "android": "https://dc.lft.to/lastmile_qr_scan"}, "lon": -77.02625666666667, "fusion_lon": 0.0, "is_disabled": 0, "lat": 38.892192, "bike_id": "0e17a95ab14af5feef18a162e0afdbc8", "name": "0e17a95ab14af5feef18a162e0afdbc8", "is_reserved": 0, "fusion_lat": 0.0}, {"type": "electric_scooter", "rental_uris": {"ios": "https://dc.lft.to/lastmile_qr_scan", "android": "https://dc.lft.to/lastmile_qr_scan"}, "lon": -76.99946083333333, "fusion_lon": 0.0, "is_disabled": 0, "lat": 38.84299083333333, "bike_id": "f80917fbdaeec12049b2bffb48f89600", "name": "f80917fbdaeec12049b2bffb48f89600", "is_reserved": 0, "fusion_lat": 0.0}, {"type": "electric_scooter", "rental_uris": {"ios": "https://dc.lft.to/lastmile_qr_scan", "android": "https://dc.lft.to/lastmile_qr_scan"}, "lon": -77.02185516666667, "fusion_lon": 0.0, "is_disabled": 0, "lat": 38.90629283333333, "bike_id": "01b1d9aa967b026c73943120a9b5ad5a", "name": "01b1d9aa967b026c73943120a9b5ad5a", "is_reserved": 0, "fusion_lat": 0.0}, {"type": "electric_scooter", "rental_uris": {"ios": "https://dc.lft.to/lastmile_qr_scan", "android": "https://dc.lft.to/lastmile_qr_scan"}, "lon": -77.051252, "fusion_lon": 0.0, "is_disabled": 0, "lat": 38.92360733333334, "bike_id": "c228cb17eb889d103df3cb7f8842e7fc", "name": "c228cb17eb889d103df3cb7f8842e7fc", "is_reserved": 0, "fusion_lat": 0.0}, {"type": "electric_scooter", "rental_uris": {"ios": "https://dc.lft.to/lastmile_qr_scan", "android": "https://dc.lft.to/lastmile_qr_scan"}, "lon": -77.00706483333333, "fusion_lon": 0.0, "is_disabled": 0, "lat": 38.9057185, "bike_id": "728cde52fe373eb419df1c4867af8598", "name": "728cde52fe373eb419df1c4867af8598", "is_reserved": 0, "fusion_lat": 0.0}, {"type": "electric_scooter", "rental_uris": {"ios": "https://dc.lft.to/lastmile_qr_scan", "android": "https://dc.lft.to/lastmile_qr_scan"}, "lon": -77.04252083333333, "fusion_lon": 0.0, "is_disabled": 0, "lat": 38.922007666666666, "bike_id": "837e8416296a0ee58a1dbe03b4e33dca", "name": "837e8416296a0ee58a1dbe03b4e33dca", "is_reserved": 0, "fusion_lat": 0.0}, {"type": "electric_scooter", "rental_uris": {"ios": "https://dc.lft.to/lastmile_qr_scan", "android": "https://dc.lft.to/lastmile_qr_scan"}, "lon": -76.94983383333333, "fusion_lon": 0.0, "is_disabled": 0, "lat": 38.894098, "bike_id": "d6a85b2e15247593b9fe6f18f5023da4", "name": "d6a85b2e15247593b9fe6f18f5023da4", "is_reserved": 0, "fusion_lat": 0.0}, {"type": "electric_scooter", "rental_uris": {"ios": "https://dc.lft.to/lastmile_qr_scan", "android": "https://dc.lft.to/lastmile_qr_scan"}, "lon": -77.03837916666667, "fusion_lon": 0.0, "is_disabled": 0, "lat": 38.917603, "bike_id": "13e3284330816636c3498e67b647cad0", "name": "13e3284330816636c3498e67b647cad0", "is_reserved": 0, "fusion_lat": 0.0}, {"type": "electric_scooter", "rental_uris": {"ios": "https://dc.lft.to/lastmile_qr_scan", "android": "https://dc.lft.to/lastmile_qr_scan"}, "lon": -77.017627, "fusion_lon": 0.0, "is_disabled": 0, "lat": 38.87720783333333, "bike_id": "6d353a61aceec4e668e761ca22a237c5", "name": "6d353a61aceec4e668e761ca22a237c5", "is_reserved": 0, "fusion_lat": 0.0}, {"type": "electric_bike", "rental_uris": {"ios": "https://dc.lft.to/lastmile_qr_scan", "android": "https://dc.lft.to/lastmile_qr_scan"}, "lon": -77.08086866666666, "fusion_lon": 0.0, "is_disabled": 0, "lat": 38.90856316666667, "bike_id": "bf91948f1f48caa3edf05a754207f843", "name": "bf91948f1f48caa3edf05a754207f843", "is_reserved": 0, "fusion_lat": 0.0}, {"type": "electric_scooter", "rental_uris": {"ios": "https://dc.lft.to/lastmile_qr_scan", "android": "https://dc.lft.to/lastmile_qr_scan"}, "lon": -77.0383205, "fusion_lon": 0.0, "is_disabled": 0, "lat": 38.92174633333333, "bike_id": "e61aa41ee7c4b200a65d8dd0b62f1cda", "name": "e61aa41ee7c4b200a65d8dd0b62f1cda", "is_reserved": 0, "fusion_lat": 0.0}, {"type": "electric_scooter", "rental_uris": {"ios": "https://dc.lft.to/lastmile_qr_scan", "android": "https://dc.lft.to/lastmile_qr_scan"}, "lon": -77.022813, "fusion_lon": 0.0, "is_disabled": 0, "lat": 38.916857666666665, "bike_id": "3bbbc268362e775be36eafb2f675e46f", "name": "3bbbc268362e775be36eafb2f675e46f", "is_reserved": 0, "fusion_lat": 0.0}, {"type": "electric_scooter", "rental_uris": {"ios": "https://dc.lft.to/lastmile_qr_scan", "android": "https://dc.lft.to/lastmile_qr_scan"}, "lon": -77.04548866666667, "fusion_lon": 0.0, "is_disabled": 0, "lat": 38.9341085, "bike_id": "939282f49c0a155e23bb31a06eb8df26", "name": "939282f49c0a155e23bb31a06eb8df26", "is_reserved": 0, "fusion_lat": 0.0},