{"data": {"bikes": [{"is_disabled": 0, "fusion_lon": 0.0, "fusion_lat": 0.0, "lat": 38.903738, "type": "electric_scooter", "lon": -77.03981466666667, "bike_id": "90e2c804c976ce0ea744c6f3dfbda883", "rental_uris": {"android": "https://dc.lft.to/lastmile_qr_scan", "ios": "https://dc.lft.to/lastmile_qr_scan"}, "name": "90e2c804c976ce0ea744c6f3dfbda883", "is_reserved": 0}, {"is_disabled": 0, "fusion_lon": 0.0, "fusion_lat": 0.0, "lat": 39.022957166666664, "type": "electric_bike", "lon": -77.021038, "bike_id": "bfbf3ae8ae1a4a56c44e2e0daf568e5a", "rental_uris": {"android": "https://dc.lft.to/lastmile_qr_scan", "ios": "https://dc.lft.to/lastmile_qr_scan"}, "name": "bfbf3ae8ae1a4a56c44e2e0daf568e5a", "is_reserved": 0}, {"is_disabled": 0, "fusion_lon": 0.0, "fusion_lat": 0.0, "lat": 38.908645666666665, "type": "electric_scooter", "lon": -77.030148, "bike_id": "9aece11f52d8d08a82f29b9e3bf6c5e5", "rental_uris": {"android": "https://dc.lft.to/lastmile_qr_scan", "ios": "https://dc.lft.to/lastmile_qr_scan"}, "name": "9aece11f52d8d08a82f29b9e3bf6c5e5", "is_reserved": 0}, {"is_disabled": 0, "fusion_lon": 0.0, "fusion_lat": 0.0, "lat": 38.8984395, "type": "electric_scooter", "lon": -76.94498616666667, "bike_id": "37c831ed54d888a6f7bb0bf1fbfa23f4", "rental_uris": {"android": "https://dc.lft.to/lastmile_qr_scan", "ios": "https://dc.lft.to/lastmile_qr_scan"}, "name": "37c831ed54d888a6f7bb0bf1fbfa23f4", "is_reserved": 0}, {"is_disabled": 0, "fusion_lon": 0.0, "fusion_lat": 0.0, "lat": 38.88878916666667, "type": "electric_bike", "lon": -77.0286045, "bike_id": "b6543e0f81765292b4f55eec2f3f4a7f", "rental_uris": {"android": "https://dc.lft.to/lastmile_qr_scan", "ios": "https://dc.lft.to/lastmile_qr_scan"}, "name": "b6543e0f81765292b4f55eec2f3f4a7f", "is_reserved": 0}, {"is_disabled": 0, "fusion_lon": 0.0, "fusion_lat": 0.0, "lat": 38.9126425, "type": "electric_scooter", "lon": -77.036782, "bike_id": "cf436e1f9720a48d2f07fe4e02f1582b", "rental_uris": {"android": "https://dc.lft.to/lastmile_qr_scan", "ios": "https://dc.lft.to/lastmile_qr_scan"}, "name": "cf436e1f9720a48d2f07fe4e02f1582b", "is_reserved": 0}, {"is_disabled": 0, "fusion_lon": 0.0, "fusion_lat": 0.0, "lat": 38.899595166666664, "type": "electric_scooter", "lon": -77.01614416666666, "bike_id": "ff4d07d16be742dcdbbf988716f655ab", "rental_uris": {"android": "https://dc.lft.to/lastmile_qr_scan", "ios": "https://dc.lft.to/lastmile_qr_scan"}, "name": "ff4d07d16be742dcdbbf988716f655ab", "is_reserved": 0}, {"is_disabled": 0, "fusion_lon": 0.0, "fusion_lat": 0.0, "lat": 38.8652525, "type": "electric_scooter", "lon": -76.9896955, "bike_id": "b4339a04fbaecd374167aa7c424ad2e2", "rental_uris": {"android": "https://dc.lft.to/lastmile_qr_scan", "ios": "https://dc.lft.to/lastmile_qr_scan"}, "name": "b4339a04fbaecd374167aa7c424ad2e2", "is_reserved": 0}, {"is_disabled": 0, "fusion_lon": 0.0, "fusion_lat": 0.0, "lat": 38.89550666666667, "type": "electric_scooter", "lon": -76.94874516666667, "bike_id": "ba32f5174284c603ed29414c4bd0cb16", "rental_uris": {"android": "https://dc.lft.to/lastmile_qr_scan", "ios": "https://dc.lft.to/lastmile_qr_scan"}, "name": "ba32f5174284c603ed29414c4bd0cb16", "is_reserved": 0}, {"is_disabled": 0, "fusion_lon": 0.0, "fusion_lat": 0.0, "lat": 38.9018585, "type": "electric_scooter", "lon": -77.05010833333333, "bike_id": "ee07fa742797e7ad76d89dcc8f8ae6ce", "rental_uris": {"android": "https://dc.lft.to/lastmile_qr_scan", "ios": "https://dc.lft.to/lastmile_qr_scan"}, "name": "ee07fa742797e7ad76d89dcc8f8ae6ce", "is_reserved": 0}, {"is_disabled": 0, "fusion_lon": 0.0, "fusion_lat": 0.0, "lat": 38.893326333333334, "type": "electric_scooter", "lon": -77.02125066666666, "bike_id": "dd9b2e0693ff5985d67434089a27e1e3", "rental_uris": {"android": "https://dc.lft.to/lastmile_qr_scan", "ios": "https://dc.lft.to/lastmile_qr_scan"}, "name": "dd9b2e0693ff5985d67434089a27e1e3", "is_reserved": 0}, {"is_disabled": 0, "fusion_lon": 0.0, "fusion_lat": 0.0, "lat": 38.9315145, "type": "electric_scooter", "lon": -77.0413195, "bike_id": "36cc100781e8e86db6bd45680e356982", "rental_uris": {"android": "https://dc.lft.to/lastmile_qr_scan", "ios": "https://dc.lft.to/lastmile_qr_scan"}, "name": "36cc100781e8e86db6bd45680e356982", "is_reserved": 0}, {"is_disabled": 0, "fusion_lon": 0.0, "fusion_lat": 0.0, "lat": 38.94185483333333, "type": "electric_scooter", "lon": -77.04258866666666, "bike_id": "a0c57234d4b038a53344b93ac79e0bc7", "rental_uris": {"android": "https://dc.lft.to/lastmile_qr_scan", "ios": "https://dc.lft.to/lastmile_qr_scan"}, "name": "a0c57234d4b038a53344b93ac79e0bc7", "is_reserved": 0}, {"is_disabled": 0, "fusion_lon": 0.0, "fusion_lat": 0.0, "lat": 38.925484, "type": "electric_scooter", "lon": -77.02564466666666, "bike_id": "4ed5982083d8ebf56cd1810d15135c77", "rental_uris": {"android": "https://dc.lft.to/lastmile_qr_scan", "ios": "https://dc.lft.to/lastmile_qr_scan"}, "name": "4ed5982083d8ebf56cd1810d15135c77", "is_reserved": 0}, {"is_disabled": 0, "fusion_lon": 0.0, "fusion_lat": 0.0, "lat": 38.90669066666667, "type": "electric_scooter", "lon": -77.027166, "bike_id": "680c3b5ded9caa9b8838dc77265a9500", "rental_uris": {"android": "https://dc.lft.to/lastmile_qr_scan", "ios": "https://dc.lft.to/lastmile_qr_scan"}, "name": "680c3b5ded9caa9b8838dc77265a9500", "is_reserved": 0}, {"is_disabled": 0, "fusion_lon": 0.0, "fusion_lat": 0.0, "lat": 38.905729666666666, "type": "electric_scooter", "lon": -77.0467, "bike_id": "750f68dc1ece1cf234fa4c89fdc965d6", "rental_uris": {"android": "https://dc.lft.to/lastmile_qr_scan", "ios": "https://dc.lft.to/lastmile_qr_scan"}, "name": "750f68dc1ece1cf234fa4c89fdc965d6", "is_reserved": 0}, {"is_disabled": 0, "fusion_lon": 0.0, "fusion_lat": 0.0, "lat": 38.894903666666664, "type": "electric_scooter", "lon": -77.022094, "bike_id": "a90fd2a74be22c57488c70ccfe92c313", "rental_uris": {"android": "https://dc.lft.to/lastmile_qr_scan", "ios": "https://dc.lft.to/lastmile_qr_scan"}, "name": "a90fd2a74be22c57488c70ccfe92c313", "is_reserved": 0}, {"is_disabled": 0, "fusion_lon": 0.0, "fusion_lat": 0.0, "lat": 38.90010183333333, "type": "electric_scooter", "lon": -77.0397945, "bike_id": "596faaca9833df500d31da1a6fb33582", "rental_uris": {"android": "https://dc.lft.to/lastmile_qr_scan", "ios": "https://dc.lft.to/lastmile_qr_scan"}, "name": "596faaca9833df500d31da1a6fb33582", "is_reserved": 0}, {"is_disabled": 0, "fusion_lon": 0.0, "fusion_lat": 0.0, "lat": 38.92370233333333, "type": "electric_scooter", "lon": -77.028181, "bike_id": "b007add75baf3b38aef9c048cf408bee", "rental_uris": {"android": "https://dc.lft.to/lastmile_qr_scan", "ios": "https://dc.lft.to/lastmile_qr_scan"}, "name": "b007add75baf3b38aef9c048cf408bee", "is_reserved": 0}, {"is_disabled": 0, "fusion_lon": 0.0, "fusion_lat": 0.0, "lat": 38.927928, "type": "electric_scooter", "lon": -77.014136, "bike_id": "841167f0c86393fa0da4c3a4dc22ce96", "rental_uris": {"android": "https://dc.lft.to/lastmile_qr_scan", "ios": "https://dc.lft.to/lastmile_qr_scan"}, "name": "841167f0c86393fa0da4c3a4dc22ce96", "is_reserved": 0}, {"is_disabled": 0, "fusion_lon": 0.0, "fusion_lat": 0.0, "lat": 38.934935333333335, "type": "electric_scooter", "lon": -77.026108, "bike_id": "02d8ffb35ed8776ec51c585cdc846482", "rental_uris": {"android": "https://dc.lft.to/lastmile_qr_scan", "ios": "https://dc.lft.to/lastmile_qr_scan"}, "name": "02d8ffb35ed8776ec51c585cdc846482", "is_reserved": 0}, {"is_disabled": 0, "fusion_lon": 0.0, "fusion_lat": 0.0, "lat": 38.892481333333336, "type": "electric_scooter", "lon": -77.02002916666666, "bike_id": "59827fe17ed2900a786a60da68a624d1", "rental_uris": {"android": "https://dc.lft.to/lastmile_qr_scan", "ios": "https://dc.lft.to/lastmile_qr_scan"}, "name": "59827fe17ed2900a786a60da68a624d1", "is_reserved": 0}, {"is_disabled": 0, "fusion_lon": 0.0, "fusion_lat": 0.0, "lat": 38.85916133333333, "type": "electric_scooter", "lon": -76.98781016666666, "bike_id": "55b614034f698fd852cac09b52222d92", "rental_uris": {"android": "https://dc.lft.to/lastmile_qr_scan", "ios": "https://dc.lft.to/lastmile_qr_scan"}, "name": "55b614034f698fd852cac09b52222d92", "is_reserved": 0}, {"is_disabled": 0, "fusion_lon": 0.0, "fusion_lat": 0.0, "lat": 38.91179616666667, "type": "electric_scooter", "lon": -77.04162833333334, "bike_id": "3b322b7eae2f58a40007f8e8d6d6ecad", "rental_uris": {"android": "https://dc.lft.to/lastmile_qr_scan", "ios": "https://dc.lft.to/lastmile_qr_scan"}, "name": "3b322b7eae2f58a40007f8e8d6d6ecad", "is_reserved": 0}, {"is_disabled": 0, "fusion_lon": 0.0, "fusion_lat": 0.0, "lat": 38.905223666666664, "type": "electric_scooter", "lon": -77.06528483333334, "bike_id": "80c739f07c620f3d84d8ba72dcf8d3d0", "rental_uris": {"android": "https://dc.lft.to/lastmile_qr_scan", "ios": "https://dc.lft.to/lastmile_qr_scan"}, "name": "80c739f07c620f3d84d8ba72dcf8d3d0", "is_reserved": 0}, {"is_disabled": 0, "fusion_lon": 0.0, "fusion_lat": 0.0, "lat": 38.92316, "type": "electric_scooter", "lon": -77.04519933333333, "bike_id": "e7095c8cb2eb549c2c330aeeec24650c", "rental_uris": {"android": "https://dc.lft.to/lastmile_qr_scan", "ios": "https://dc.lft.to/lastmile_qr_scan"}, "name": "e7095c8cb2eb549c2c330aeeec24650c", "is_reserved": 0}, {"is_disabled": 0, "fusion_lon": 0.0, "fusion_lat": 0.0, "lat": 38.8988565, "type": "electric_scooter", "lon": -76.99141383333334, "bike_id": "fa478969b0a2b7be8ef8428a73db56ca", "rental_uris": {"android": "https://dc.lft.to/lastmile_qr_scan", "ios": "https://dc.lft.to/lastmile_qr_scan"}, "name": "fa478969b0a2b7be8ef8428a73db56ca", "is_reserved": 0}, {"is_disabled": 0, "fusion_lon": 0.0, "fusion_lat": 0.0, "lat": 38.916267833333336, "type": "electric_scooter", "lon": -77.04100983333333, "bike_id": "51b241c4ec90ed4edf6aa210b6a60c57", "rental_uris": {"android": "https://dc.lft.to/lastmile_qr_scan", "ios": "https://dc.lft.to/lastmile_qr_scan"}, "name": "51b241c4ec90ed4edf6aa210b6a60c57", "is_reserved": 0}, {"is_disabled": 0, "fusion_lon": 0.0, "fusion_lat": 0.0, "lat": 38.92155866666667, "type": "electric_scooter", "lon": -77.03394466666667, "bike_id": "43db7f2274bc425356370855527fff24", "rental_uris": {"android": "https://dc.lft.to/lastmile_qr_scan", "ios": "https://dc.lft.to/lastmile_qr_scan"}, "name": "43db7f2274bc425356370855527fff24", "is_reserved": 0}, {"is_disabled": 0, "fusion_lon": 0.0, "fusion_lat": 0.0, "lat": 38.900242166666665, "type": "electric_scooter", "lon": -77.05218816666667, "bike_id": "b35d7c63583808cf6b84b2d3fa8adba2", "rental_uris": {"android": "https://dc.lft.to/lastmile_qr_scan", "ios": "https://dc.lft.to/lastmile_qr_scan"}, "name": "b35d7c63583808cf6b84b2d3fa8adba2", "is_reserved": 0}, {"is_disabled": 0, "fusion_lon": 0.0, "fusion_lat": 0.0, "lat": 38.923232666666664, "type": "electric_scooter", "lon": -77.04000166666667, "bike_id": "2cd7f61f377dc7a4ca64c0370a6d94b1", "rental_uris": {"android": "https://dc.lft.to/lastmile_qr_scan", "ios": "https://dc.lft.to/lastmile_qr_scan"}, "name": "2cd7f61f377dc7a4ca64c0370a6d94b1", "is_reserved": 0}, {"is_disabled": 0, "fusion_lon": 0.0, "fusion_lat": 0.0, "lat": 38.9205455, "type": "electric_scooter", "lon": -77.041921, "bike_id": "1bf83904ab6a8bd3f7fc1e892d3485c4", "rental_uris": {"android": "https://dc.lft.to/lastmile_qr_scan", "ios": "https://dc.lft.to/lastmile_qr_scan"}, "name": "1bf83904ab6a8bd3f7fc1e892d3485c4", "is_reserved": 0}, {"is_disabled": 0, "fusion_lon": 0.0, "fusion_lat": 0.0, "lat": 39.026855833333336, "type": "electric_bike", "lon": -77.12598316666667, "bike_id": "5ba6cb0025b06aff5a6cf0e0ceb7048f", "rental_uris": {"android": "https://dc.lft.to/lastmile_qr_scan", "ios": "https://dc.lft.to/lastmile_qr_scan"}, "name": "5ba6cb0025b06aff5a6cf0e0ceb7048f", "is_reserved": 0}, {"is_disabled": 0, "fusion_lon": 0.0, "fusion_lat": 0.0, "lat": 38.89845366666667, "type": "electric_scooter", "lon": -77.03351366666666, "bike_id": "e917c00685de6f613e73235055c39d04", "rental_uris": {"android": "https://dc.lft.to/lastmile_qr_scan", "ios": "https://dc.lft.to/lastmile_qr_scan"}, "name": "e917c00685de6f613e73235055c39d04", "is_reserved": 0}, {"is_disabled": 0, "fusion_lon": 0.0, "fusion_lat": 0.0, "lat": 38.93076533333333, "type": "electric_scooter", "lon": -77.0362955, "bike_id": "2e85de0456cdb5a0ad7ac379b1e6f117", "rental_uris": {"android": "https://dc.lft.to/lastmile_qr_scan", "ios": "https://dc.lft.to/lastmile_qr_scan"}, "name": "2e85de0456cdb5a0ad7ac379b1e6f117", "is_reserved": 0}, {"is_disabled": 0, "fusion_lon": 0.0, "fusion_lat": 0.0, "lat": 38.91395416666667, "type": "electric_scooter", "lon": -77.02387416666667, "bike_id": "f404be6bc72d594e7599464e13512a2d", "rental_uris": {"android": "https://dc.lft.to/lastmile_qr_scan", "ios": "https://dc.lft.to/lastmile_qr_scan"}, "name": "f404be6bc72d594e7599464e13512a2d", "is_reserved": 0}, {"is_disabled": 0, "fusion_lon": 0.0, "fusion_lat": 0.0, "lat": 38.884559333333335, "type": "electric_bike", "lon": -76.91637183333333, "bike_id": "f8b9ccc1aa4c55abbbb718e0157b2d71", "rental_uris": {"android": "https://dc.lft.to/lastmile_qr_scan", "ios": "https://dc.lft.to/lastmile_qr_scan"}, "name": "f8b9ccc1aa4c55abbbb718e0157b2d71", "is_reserved": 0}, {"is_disabled": 0, "fusion_lon": 0.0, "fusion_lat": 0.0, "lat": 38.91592633333333, "type": "electric_scooter", "lon": -77.07281883333333, "bike_id": "84b7f3c2e203f0d2a9936d042b77eab1", "rental_uris": {"android": "https://dc.lft.to/lastmile_qr_scan", "ios": "https://dc.lft.to/lastmile_qr_scan"}, "name": "84b7f3c2e203f0d2a9936d042b77eab1", "is_reserved": 0}, {"is_disabled": 0, "fusion_lon": 0.0, "fusion_lat": 0.0, "lat": 38.90862516666667, "type": "electric_scooter", "lon": -77.03830516666666, "bike_id": "33384aeeeddf319b24f61da82eeadd14", "rental_uris": {"android": "https://dc.lft.to/lastmile_qr_scan", "ios": "https://dc.lft.to/lastmile_qr_scan"}, "name": "33384aeeeddf319b24f61da82eeadd14", "is_reserved": 0}, {"is_disabled": 0, "fusion_lon": 0.0, "fusion_lat": 0.0, "lat": 38.91632633333333, "type": "electric_scooter", "lon": -77.02294333333333, "bike_id": "047f3f7c6ce9da297ae2a1c0adadfd94", "rental_uris": {"android": "https://dc.lft.to/lastmile_qr_scan", "ios": "https://dc.lft.to/lastmile_qr_scan"}, "name": "047f3f7c6ce9da297ae2a1c0adadfd94", "is_reserved": 0}, {"is_disabled": 0, "fusion_lon": 0.0, "fusion_lat": 0.0, "lat": 38.915963, "type": "electric_bike", "lon": -77.040289, "bike_id": "2e23d2625a18977d5bac275639fa015c", "rental_uris": {"android": "https://dc.lft.to/lastmile_qr_scan", "ios": "https://dc.lft.to/lastmile_qr_scan"}, "name": "2e23d2625a18977d5bac275639fa015c", "is_reserved": 0}, {"is_disabled": 0, "fusion_lon": 0.0, "fusion_lat": 0.0, "lat": 39.05266616666667, "type": "electric_bike", "lon": -77.04385016666667, "bike_id": "5087aad65e2bb74b1d5e4ede62488c59", "rental_uris": {"android": "https://dc.lft.to/lastmile_qr_scan", "ios": "https://dc.lft.to/lastmile_qr_scan"}, "name": "5087aad65e2bb74b1d5e4ede62488c59", "is_reserved": 0}, {"is_disabled": 0, "fusion_lon": 0.0, "fusion_lat": 0.0, "lat": 38.90530366666667, "type": "electric_scooter", "lon": -77.05013833333334, "bike_id": "3a191a532a1ca697b69e96babe4d0bba", "rental_uris": {"android": "https://dc.lft.to/lastmile_qr_scan", "ios": "https://dc.lft.to/lastmile_qr_scan"}, "name": "3a191a532a1ca697b69e96babe4d0bba", "is_reserved": 0}, {"is_disabled": 0, "fusion_lon": 0.0, "fusion_lat": 0.0, "lat": 38.9489315, "type": "electric_bike", "lon": -76.96378766666666, "bike_id": "87fd100a90f0a278d1601b5556ba4a9b", "rental_uris": {"android": "https://dc.lft.to/lastmile_qr_scan", "ios": "https://dc.lft.to/lastmile_qr_scan"}, "name": "87fd100a90f0a278d1601b5556ba4a9b", "is_reserved": 0}, {"is_disabled": 0, "fusion_lon": 0.0, "fusion_lat": 0.0, "lat": 38.93695616666667, "type": "electric_scooter", "lon": -77.05601833333333, "bike_id": "3ccebdafb10bf0cccf96c08dbcee1a4c", "rental_uris": {"android": "https://dc.lft.to/lastmile_qr_scan", "ios": "https://dc.lft.to/lastmile_qr_scan"}, "name": "3ccebdafb10bf0cccf96c08dbcee1a4c", "is_reserved": 0}, {"is_disabled": 0, "fusion_lon": 0.0, "fusion_lat": 0.0, "lat": 38.917040166666666, "type": "electric_scooter", "lon": -77.00120516666667, "bike_id": "f6cb45f68fe88928f3d38cd4e4314389", "rental_uris": {"android": "https://dc.lft.to/lastmile_qr_scan", "ios": "https://dc.lft.to/lastmile_qr_scan"}, "name": "f6cb45f68fe88928f3d38cd4e4314389", "is_reserved": 0}, {"is_disabled": 0, "fusion_lon": 0.0, "fusion_lat": 0.0, "lat": 38.8974195, "type": "electric_scooter", "lon": -77.0218395, "bike_id": "d324a9e04044b454635be9e13b7ee795", "rental_uris": {"android": "https://dc.lft.to/lastmile_qr_scan", "ios": "https://dc.lft.to/lastmile_qr_scan"}, "name": "d324a9e04044b454635be9e13b7ee795", "is_reserved": 0}, {"is_disabled": 0, "fusion_lon": 0.0, "fusion_lat": 0.0, "lat": 38.83931233333333, "type": "electric_bike", "lon": -77.07900666666667, "bike_id": "e345c5fa5ce201e09b8e7a2260a69649", "rental_uris": {"android": "https://dc.lft.to/lastmile_qr_scan", "ios": "https://dc.lft.to/lastmile_qr_scan"}, "name": "e345c5fa5ce201e09b8e7a2260a69649", "is_reserved": 0}, {"is_disabled": 0, "fusion_lon": 0.0, "fusion_lat": 0.0, "lat": 38.89504483333333, "type": "electric_scooter", "lon": -77.01099116666667, "bike_id": "cb864def9f5968bb1cb3dc3505d8c92d", "rental_uris": {"android": "https://dc.lft.to/lastmile_qr_scan", "ios": "https://dc.lft.to/lastmile_qr_scan"}, "name": "cb864def9f5968bb1cb3dc3505d8c92d", "is_reserved": 0}, {"is_disabled": 0, "fusion_lon": 0.0, "fusion_lat": 0.0, "lat": 38.917666833333335, "type": "electric_scooter", "lon": -77.04746483333334, "bike_id": "7a1a7ded5e79f9268b82298e9156e735", "rental_uris": {"android": "https://dc.lft.to/lastmile_qr_scan", "ios": "https://dc.lft.to/lastmile_qr_scan"}, "name": "7a1a7ded5e79f9268b82298e9156e735", "is_reserved": 0}, {"is_disabled": 0, "fusion_lon": 0.0, "fusion_lat": 0.0, "lat": 38.91913183333333, "type": "electric_scooter", "lon": -77.033987, "bike_id": "eb9112c01d7b6a0b2b6a80997bfb0537", "rental_uris": {"android": "https://dc.lft.to/lastmile_qr_scan", "ios": "https://dc.lft.to/lastmile_qr_scan"}, "name": "eb9112c01d7b6a0b2b6a80997bfb0537", "is_reserved": 0}, {"is_disabled": 0, "fusion_lon": 0.0, "fusion_lat": 0.0, "lat": 38.8973845, "type": "electric_scooter", "lon": -77.01000866666666, "bike_id": "1b1b7e78e7e24974031ab91ee0d4a84e", "rental_uris": {"android": "https://dc.lft.to/lastmile_qr_scan", "ios": "https://dc.lft.to/lastmile_qr_scan"}, "name": "1b1b7e78e7e24974031ab91ee0d4a84e", "is_reserved": 0}, {"is_disabled": 0, "fusion_lon": 0.0, "fusion_lat": 0.0, "lat": 38.8943465, "type": "electric_scooter", "lon": -77.01079966666667, "bike_id": "cbc79d27dd24ece46ec1530df548a60a", "rental_uris": {"android": "https://dc.lft.to/lastmile_qr_scan", "ios": "https://dc.lft.to/lastmile_qr_scan"}, "name": "cbc79d27dd24ece46ec1530df548a60a", "is_reserved": 0}, {"is_disabled": 0, "fusion_lon": 0.0, "fusion_lat": 0.0, "lat": 38.93466016666667, "type": "electric_scooter", "lon": -77.06878316666666, "bike_id": "3c81b397ca10670248e005c5d1afe71b", "rental_uris": {"android": "https://dc.lft.to/lastmile_qr_scan", "ios": "https://dc.lft.to/lastmile_qr_scan"}, "name": "3c81b397ca10670248e005c5d1afe71b", "is_reserved": 0}, {"is_disabled": 0, "fusion_lon": 0.0, "fusion_lat": 0.0, "lat": 38.97257583333333, "type": "electric_bike", "lon": -76.991678, "bike_id": "64e7cff4dae65e2d495c33a0faf5b716", "rental_uris": {"android": "https://dc.lft.to/lastmile_qr_scan", "ios": "https://dc.lft.to/lastmile_qr_scan"}, "name": "64e7cff4dae65e2d495c33a0faf5b716", "is_reserved": 0}, {"is_disabled": 0, "fusion_lon": 0.0, "fusion_lat": 0.0, "lat": 38.87777533333333, "type": "electric_scooter", "lon": -77.01437666666666, "bike_id": "43457ce8abf9bf2b2d7410dac6bb7d82", "rental_uris": {"android": "https://dc.lft.to/lastmile_qr_scan", "ios": "https://dc.lft.to/lastmile_qr_scan"}, "name": "43457ce8abf9bf2b2d7410dac6bb7d82", "is_reserved": 0}, {"is_disabled": 0, "fusion_lon": 0.0, "fusion_lat": 0.0, "lat": 38.981342833333336, "type": "electric_bike", "lon": -77.00766816666666, "bike_id": "1821e6326b26739fbc73cf01e5d18585", "rental_uris": {"android": "https://dc.lft.to/lastmile_qr_scan", "ios": "https://dc.lft.to/lastmile_qr_scan"}, "name": "1821e6326b26739fbc73cf01e5d18585", "is_reserved": 0}, {"is_disabled": 0, "fusion_lon": 0.0, "fusion_lat": 0.0, "lat": 38.899290666666666, "type": "electric_scooter", "lon": -77.0393165, "bike_id": "d4c7c0efbb29a98f2344dc06ff58da0e", "rental_uris": {"android": "https://dc.lft.to/lastmile_qr_scan", "ios": "https://dc.lft.to/lastmile_qr_scan"}, "name": "d4c7c0efbb29a98f2344dc06ff58da0e", "is_reserved": 0}, {"is_disabled": 0, "fusion_lon": 0.0, "fusion_lat": 0.0, "lat": 38.848900666666665, "type": "electric_scooter", "lon": -77.00518566666666, "bike_id": "259b1ff4d8060602c8042ed50bd0bd60", "rental_uris": {"android": "https://dc.lft.to/lastmile_qr_scan", "ios": "https://dc.lft.to/lastmile_qr_scan"}, "name": "259b1ff4d8060602c8042ed50bd0bd60", "is_reserved": 0}, {"is_disabled": 0, "fusion_lon": 0.0, "fusion_lat": 0.0, "lat": 38.937006833333335, "type": "electric_scooter", "lon": -77.06102733333333, "bike_id": "637c9291f6d8c25927fa8a4a220877c2", "rental_uris": {"android": "https://dc.lft.to/lastmile_qr_scan", "ios": "https://dc.lft.to/lastmile_qr_scan"}, "name": "637c9291f6d8c25927fa8a4a220877c2", "is_reserved": 0}, {"is_disabled": 0, "fusion_lon": 0.0, "fusion_lat": 0.0, "lat": 38.898458833333336, "type": "electric_scooter", "lon": -77.00744783333333, "bike_id": "2469013074fd7848cf2325bc9e667b83", "rental_uris": {"android": "https://dc.lft.to/lastmile_qr_scan", "ios": "https://dc.lft.to/lastmile_qr_scan"}, "name": "2469013074fd7848cf2325bc9e667b83", "is_reserved": 0}, {"is_disabled": 0, "fusion_lon": 0.0, "fusion_lat": 0.0, "lat": 38.9141605, "type": "electric_scooter", "lon": -77.03582616666667, "bike_id": "e09dde00185aa3e4ad4c552277c64b6a", "rental_uris": {"android": "https://dc.lft.to/lastmile_qr_scan", "ios": "https://dc.lft.to/lastmile_qr_scan"}, "name": "e09dde00185aa3e4ad4c552277c64b6a", "is_reserved": 0}, {"is_disabled": 0, "fusion_lon": 0.0, "fusion_lat": 0.0, "lat": 38.905812166666664, "type": "electric_scooter", "lon": -77.05143466666667, "bike_id": "fd873715057b58218d7db82100977b7a", "rental_uris": {"android": "https://dc.lft.to/lastmile_qr_scan", "ios": "https://dc.lft.to/lastmile_qr_scan"}, "name": "fd873715057b58218d7db82100977b7a", "is_reserved": 0}, {"is_disabled": 0, "fusion_lon": 0.0, "fusion_lat": 0.0, "lat": 38.91042016666667, "type": "electric_scooter", "lon": -77.01384416666667, "bike_id": "7a4961cae82cebb54ff79d5e6f130822", "rental_uris": {"android": "https://dc.lft.to/lastmile_qr_scan", "ios": "https://dc.lft.to/lastmile_qr_scan"}, "name": "7a4961cae82cebb54ff79d5e6f130822", "is_reserved": 0}, {"is_disabled": 0, "fusion_lon": 0.0, "fusion_lat": 0.0, "lat": 38.86358533333333, "type": "electric_scooter", "lon": -76.99071933333333, "bike_id": "b0e2ce05ae56697f2364fdb35d066892", "rental_uris": {"android": "https://dc.lft.to/lastmile_qr_scan", "ios": "https://dc.lft.to/lastmile_qr_scan"}, "name": "b0e2ce05ae56697f2364fdb35d066892", "is_reserved": 0}, {"is_disabled": 0, "fusion_lon": 0.0, "fusion_lat": 0.0, "lat": 38.901836333333335, "type": "electric_scooter", "lon": -77.0392305, "bike_id": "c8d764c1ee1b59ad3d5cf60c0f60531f", "rental_uris": {"android": "https://dc.lft.to/lastmile_qr_scan", "ios": "https://dc.lft.to/lastmile_qr_scan"}, "name": "c8d764c1ee1b59ad3d5cf60c0f60531f", "is_reserved": 0}, {"is_disabled": 0, "fusion_lon": 0.0, "fusion_lat": 0.0, "lat": 38.907357, "type": "electric_scooter", "lon": -77.03442066666666, "bike_id": "619dfe3b6975ab4f4e8955557bda376b", "rental_uris": {"android": "https://dc.lft.to/lastmile_qr_scan", "ios": "https://dc.lft.to/lastmile_qr_scan"}, "name": "619dfe3b6975ab4f4e8955557bda376b", "is_reserved": 0}, {"is_disabled": 0, "fusion_lon": 0.0, "fusion_lat": 0.0, "lat": 38.90171733333333, "type": "electric_scooter", "lon": -77.02499616666667, "bike_id": "ef7499c15d3cc76799959b9ac2fab885", "rental_uris": {"android": "https://dc.lft.to/lastmile_qr_scan", "ios": "https://dc.lft.to/lastmile_qr_scan"}, "name": "ef7499c15d3cc76799959b9ac2fab885", "is_reserved": 0}, {"is_disabled": 0, "fusion_lon": 0.0, "fusion_lat": 0.0, "lat": 38.906831, "type": "electric_scooter", "lon": -77.02696116666667, "bike_id": "d597118306de31f8ee32b73ad804f4de", "rental_uris": {"android": "https://dc.lft.to/lastmile_qr_scan", "ios": "https://dc.lft.to/lastmile_qr_scan"}, "name": "d597118306de31f8ee32b73ad804f4de", "is_reserved": 0}, {"is_disabled": 0, "fusion_lon": 0.0, "fusion_lat": 0.0, "lat": 38.9167875, "type": "electric_scooter", "lon": -77.02714166666667, "bike_id": "1418fa758397b0f0c9c6d598689d7497", "rental_uris": {"android": "https://dc.lft.to/lastmile_qr_scan", "ios": "https://dc.lft.to/lastmile_qr_scan"}, "name": "1418fa758397b0f0c9c6d598689d7497", "is_reserved": 0}, {"is_disabled": 0, "fusion_lon": 0.0, "fusion_lat": 0.0, "lat": 38.897238, "type": "electric_scooter", "lon": -77.00336516666667, "bike_id": "9e5f4abc389ca5f43386f54c18dd44cb", "rental_uris": {"android": "https://dc.lft.to/lastmile_qr_scan", "ios": "https://dc.lft.to/lastmile_qr_scan"}, "name": "9e5f4abc389ca5f43386f54c18dd44cb", "is_reserved": 0}, {"is_disabled": 0, "fusion_lon": 0.0, "fusion_lat": 0.0, "lat": 38.90835716666667, "type": "electric_scooter", "lon": -76.99695233333334, "bike_id": "ccf89dc9ab7630dcc6e5100d76ab4e77", "rental_uris": {"android": "https://dc.lft.to/lastmile_qr_scan", "ios": "https://dc.lft.to/lastmile_qr_scan"}, "name": "ccf89dc9ab7630dcc6e5100d76ab4e77", "is_reserved": 0}, {"is_disabled": 0, "fusion_lon": 0.0, "fusion_lat": 0.0, "lat": 38.84513716666667, "type": "electric_bike", "lon": -77.07801016666667, "bike_id": "4f6ff2fe679c6cb277b599f05c0234e7", "rental_uris": {"android": "https://dc.lft.to/lastmile_qr_scan", "ios": "https://dc.lft.to/lastmile_qr_scan"}, "name": "4f6ff2fe679c6cb277b599f05c0234e7", "is_reserved": 0}, {"is_disabled": 0, "fusion_lon": 0.0, "fusion_lat": 0.0, "lat": 38.90075266666667, "type": "electric_scooter", "lon": -77.04991066666666, "bike_id": "ac2c80f377bf67591ac0367e62687ce3", "rental_uris": {"android": "https://dc.lft.to/lastmile_qr_scan", "ios": "https://dc.lft.to/lastmile_qr_scan"}, "name": "ac2c80f377bf67591ac0367e62687ce3", "is_reserved": 0}, {"is_disabled": 0, "fusion_lon": 0.0, "fusion_lat": 0.0, "lat": 38.922597833333334, "type": "electric_bike", "lon": -77.0772065, "bike_id": "979a9ba0773586b3b96c8a659c7136d7", "rental_uris": {"android": "https://dc.lft.to/lastmile_qr_scan", "ios": "https://dc.lft.to/lastmile_qr_scan"}, "name": "979a9ba0773586b3b96c8a659c7136d7", "is_reserved": 0}, {"is_disabled": 0, "fusion_lon": 0.0, "fusion_lat": 0.0, "lat": 38.920482166666666, "type": "electric_scooter", "lon": -77.02612983333333, "bike_id": "bc6c18b07499cb47b6888b8b9dbc986e", "rental_uris": {"android": "https://dc.lft.to/lastmile_qr_scan", "ios": "https://dc.lft.to/lastmile_qr_scan"}, "name": "bc6c18b07499cb47b6888b8b9dbc986e", "is_reserved": 0}, {"is_disabled": 0, "fusion_lon": 0.0, "fusion_lat": 0.0, "lat": 38.9073235, "type": "electric_scooter", "lon": -77.0241715, "bike_id": "d70c47e6b7a1fd3c96b6c2d5b0a32fa0", "rental_uris": {"android": "https://dc.lft.to/lastmile_qr_scan", "ios": "https://dc.lft.to/lastmile_qr_scan"}, "name": "d70c47e6b7a1fd3c96b6c2d5b0a32fa0", "is_reserved": 0}, {"is_disabled": 0, "fusion_lon": 0.0, "fusion_lat": 0.0, "lat": 38.90256566666667, "type": "electric_scooter", "lon": -77.00016233333334, "bike_id": "624827d9ed75f3b747388f69cb0f9207", "rental_uris": {"android": "https://dc.lft.to/lastmile_qr_scan", "ios": "https://dc.lft.to/lastmile_qr_scan"}, "name": "624827d9ed75f3b747388f69cb0f9207", "is_reserved": 0}, {"is_disabled": 0, "fusion_lon": 0.0, "fusion_lat": 0.0, "lat": 38.93069766666667, "type": "electric_scooter", "lon": -77.038054, "bike_id": "cfd7c5f0e39d7b8eb3bae7a3f53a906b", "rental_uris": {"android": "https://dc.lft.to/lastmile_qr_scan", "ios": "https://dc.lft.to/lastmile_qr_scan"}, "name": "cfd7c5f0e39d7b8eb3bae7a3f53a906b", "is_reserved": 0}, {"is_disabled": 0, "fusion_lon": 0.0, "fusion_lat": 0.0, "lat": 38.921394666666664, "type": "electric_scooter", "lon": -77.009173, "bike_id": "51b76fa193b8662bf21206a0014ca047", "rental_uris": {"android": "https://dc.lft.to/lastmile_qr_scan", "ios": "https://dc.lft.to/lastmile_qr_scan"}, "name": "51b76fa193b8662bf21206a0014ca047", "is_reserved": 0}, {"is_disabled": 0, "fusion_lon": 0.0, "fusion_lat": 0.0, "lat": 38.86465, "type": "electric_scooter", "lon": -76.99611183333333, "bike_id": "a7a412615b4227986755bdeb36d9e7e0", "rental_uris": {"android": "https://dc.lft.to/lastmile_qr_scan", "ios": "https://dc.lft.to/lastmile_qr_scan"}, "name": "a7a412615b4227986755bdeb36d9e7e0", "is_reserved": 0}, {"is_disabled": 0, "fusion_lon": 0.0, "fusion_lat": 0.0, "lat": 38.87998316666667, "type": "electric_scooter", "lon": -77.024302, "bike_id": "930bd21f92f4375413fb0d5b2d6c3392", "rental_uris": {"android": "https://dc.lft.to/lastmile_qr_scan", "ios": "https://dc.lft.to/lastmile_qr_scan"}, "name": "930bd21f92f4375413fb0d5b2d6c3392", "is_reserved": 0}, {"is_disabled": 0, "fusion_lon": 0.0, "fusion_lat": 0.0, "lat": 38.87499616666667, "type": "electric_scooter", "lon": -76.9979795, "bike_id": "d6d0db4198628e2589ea2b9427e50602", "rental_uris": {"android": "https://dc.lft.to/lastmile_qr_scan", "ios": "https://dc.lft.to/lastmile_qr_scan"}, "name": "d6d0db4198628e2589ea2b9427e50602", "is_reserved": 0}, {"is_disabled": 0, "fusion_lon": 0.0, "fusion_lat": 0.0, "lat": 38.95211066666667, "type": "electric_scooter", "lon": -77.03630833333334, "bike_id": "c5e7b77d43d223c26686015edc94c49b", "rental_uris": {"android": "https://dc.lft.to/lastmile_qr_scan", "ios": "https://dc.lft.to/lastmile_qr_scan"}, "name": "c5e7b77d43d223c26686015edc94c49b", "is_reserved": 0}, {"is_disabled": 0, "fusion_lon": 0.0, "fusion_lat": 0.0, "lat": 38.92120383333334, "type": "electric_scooter", "lon": -77.043909, "bike_id": "ca646e4cd9ffbe5e2543c3eb55683310", "rental_uris": {"android": "https://dc.lft.to/lastmile_qr_scan", "ios": "https://dc.lft.to/lastmile_qr_scan"}, "name": "ca646e4cd9ffbe5e2543c3eb55683310", "is_reserved": 0}, {"is_disabled": 0, "fusion_lon": 0.0, "fusion_lat": 0.0, "lat": 38.921317, "type": "electric_scooter", "lon": -77.04444366666667, "bike_id": "590f037de837b43ccd28a6129af85eec", "rental_uris": {"android": "https://dc.lft.to/lastmile_qr_scan", "ios": "https://dc.lft.to/lastmile_qr_scan"}, "name": "590f037de837b43ccd28a6129af85eec", "is_reserved": 0}, {"is_disabled": 0, "fusion_lon": 0.0, "fusion_lat": 0.0, "lat": 38.90428933333333, "type": "electric_scooter", "lon": -77.0241815, "bike_id": "8147bc45799a05b96ee8f5bcf0f8edf1", "rental_uris": {"android": "https://dc.lft.to/lastmile_qr_scan", "ios": "https://dc.lft.to/lastmile_qr_scan"}, "name": "8147bc45799a05b96ee8f5bcf0f8edf1", "is_reserved": 0}, {"is_disabled": 0, "fusion_lon": 0.0, "fusion_lat": 0.0, "lat": 38.89221966666667, "type": "electric_scooter", "lon": -77.04864966666666, "bike_id": "bcfd59f9fa53a70cb0b124580580d524", "rental_uris": {"android": "https://dc.lft.to/lastmile_qr_scan", "ios": "https://dc.lft.to/lastmile_qr_scan"}, "name": "bcfd59f9fa53a70cb0b124580580d524", "is_reserved": 0}, {"is_disabled": 0, "fusion_lon": 0.0, "fusion_lat": 0.0, "lat": 38.90558466666667, "type": "electric_scooter", "lon": -77.02763566666667, "bike_id": "0b79491eca9c6a1f62389a85d1e40be7", "rental_uris": {"android": "https://dc.lft.to/lastmile_qr_scan", "ios": "https://dc.lft.to/lastmile_qr_scan"}, "name": "0b79491eca9c6a1f62389a85d1e40be7", "is_reserved": 0}, {"is_disabled": 0, "fusion_lon": 0.0, "fusion_lat": 0.0, "lat": 38.8528615, "type": "electric_bike", "lon": -76.9815595, "bike_id": "db4512ccab305d9c6ec326546ed5974a", "rental_uris": {"android": "https://dc.lft.to/lastmile_qr_scan", "ios": "https://dc.lft.to/lastmile_qr_scan"}, "name": "db4512ccab305d9c6ec326546ed5974a", "is_reserved": 0}, {"is_disabled": 0, "fusion_lon": 0.0, "fusion_lat": 0.0, "lat": 38.85789, "type": "electric_bike", "lon": -76.98750566666666, "bike_id": "b2cbc00fd9eb62adf03ddcaaeb8beb88", "rental_uris": {"android": "https://dc.lft.to/lastmile_qr_scan", "ios": "https://dc.lft.to/lastmile_qr_scan"}, "name": "b2cbc00fd9eb62adf03ddcaaeb8beb88", "is_reserved": 0}, {"is_disabled": 0, "fusion_lon": 0.0, "fusion_lat": 0.0, "lat": 38.8999735, "type": "electric_scooter", "lon": -77.03357533333333, "bike_id": "6766a28bfb9e71eea6778fc532e37d88", "rental_uris": {"android": "https://dc.lft.to/lastmile_qr_scan", "ios": "https://dc.lft.to/lastmile_qr_scan"}, "name": "6766a28bfb9e71eea6778fc532e37d88", "is_reserved": 0}, {"is_disabled": 0, "fusion_lon": 0.0, "fusion_lat": 0.0, "lat": 38.943306666666665, "type": "electric_bike", "lon": -77.01477666666666, "bike_id": "bed6dc6f429b282ab363a3ca56b2376a", "rental_uris": {"android": "https://dc.lft.to/lastmile_qr_scan", "ios": "https://dc.lft.to/lastmile_qr_scan"}, "name": "bed6dc6f429b282ab363a3ca56b2376a", "is_reserved": 0}, {"is_disabled": 0, "fusion_lon": 0.0, "fusion_lat": 0.0, "lat": 38.91121733333333, "type": "electric_scooter", "lon": -77.04211583333333, "bike_id": "b2f55df826699d3ce57f7e57fcc60b00", "rental_uris": {"android": "https://dc.lft.to/lastmile_qr_scan", "ios": "https://dc.lft.to/lastmile_qr_scan"}, "name": "b2f55df826699d3ce57f7e57fcc60b00", "is_reserved": 0}, {"is_disabled": 0, "fusion_lon": 0.0, "fusion_lat": 0.0, "lat": 38.892216166666664, "type": "electric_scooter", "lon": -77.04697116666667, "bike_id": "c985c35a07bb95cf469610af4fbef9d8", "rental_uris": {"android": "https://dc.lft.to/lastmile_qr_scan", "ios": "https://dc.lft.to/lastmile_qr_scan"}, "name": "c985c35a07bb95cf469610af4fbef9d8", "is_reserved": 0}, {"is_disabled": 0, "fusion_lon": 0.0, "fusion_lat": 0.0, "lat": 38.92334683333333, "type": "electric_scooter", "lon": -77.04191066666667, "bike_id": "1fde2cf864d73359222bd14078500933", "rental_uris": {"android": "https://dc.lft.to/lastmile_qr_scan", "ios": "https://dc.lft.to/lastmile_qr_scan"}, "name": "1fde2cf864d73359222bd14078500933", "is_reserved": 0}, {"is_disabled": 0, "fusion_lon": 0.0, "fusion_lat": 0.0, "lat": 38.887213333333335, "type": "electric_scooter", "lon": -77.01742366666667, "bike_id": "ab472d7faf37563a8250301e75326be7", "rental_uris": {"android": "https://dc.lft.to/lastmile_qr_scan", "ios": "https://dc.lft.to/lastmile_qr_scan"}, "name": "ab472d7faf37563a8250301e75326be7", "is_reserved": 0}, {"is_disabled": 0, "fusion_lon": 0.0, "fusion_lat": 0.0, "lat": 38.90060666666667, "type": "electric_scooter", "lon": -76.93387766666666, "bike_id": "af8ce32e4b2c1a046d128dc0635da634", "rental_uris": {"android": "https://dc.lft.to/lastmile_qr_scan", "ios": "https://dc.lft.to/lastmile_qr_scan"}, "name": "af8ce32e4b2c1a046d128dc0635da634", "is_reserved": 0}, {"is_disabled": 0, "fusion_lon": 0.0, "fusion_lat": 0.0, "lat": 38.931346166666664, "type": "electric_scooter", "lon": -77.0573335, "bike_id": "3d104a33ae91ff733560e058f1d97f82", "rental_uris": {"android": "https://dc.lft.to/lastmile_qr_scan", "ios": "https://dc.lft.to/lastmile_qr_scan"}, "name": "3d104a33ae91ff733560e058f1d97f82", "is_reserved": 0}, {"is_disabled": 0, "fusion_lon": 0.0, "fusion_lat": 0.0, "lat": 38.87894, "type": "electric_scooter", "lon": -76.9352295, "bike_id": "2735a06df211df59935e277444a0e050", "rental_uris": {"android": "https://dc.lft.to/lastmile_qr_scan", "ios": "https://dc.lft.to/lastmile_qr_scan"}, "name": "2735a06df211df59935e277444a0e050", "is_reserved": 0}, {"is_disabled": 0, "fusion_lon": 0.0, "fusion_lat": 0.0, "lat": 38.936048666666665, "type": "electric_scooter", "lon": -77.05862816666667, "bike_id": "a5e54a0d839aa618e9067571bedae81d", "rental_uris": {"android": "https://dc.lft.to/lastmile_qr_scan", "ios": "https://dc.lft.to/lastmile_qr_scan"}, "name": "a5e54a0d839aa618e9067571bedae81d", "is_reserved": 0}, {"is_disabled": 0, "fusion_lon": 0.0, "fusion_lat": 0.0, "lat": 38.92006883333333, "type": "electric_scooter", "lon": -77.02536783333333, "bike_id": "0c1286a767ba13170d96295e8e4302d0", "rental_uris": {"android": "https://dc.lft.to/lastmile_qr_scan", "ios": "https://dc.lft.to/lastmile_qr_scan"}, "name": "0c1286a767ba13170d96295e8e4302d0", "is_reserved": 0}, {"is_disabled": 0, "fusion_lon": 0.0, "fusion_lat": 0.0, "lat": 38.925795666666666, "type": "electric_scooter", "lon": -76.99493083333333, "bike_id": "adc7cad4f3f386a905d6ebc1389a7e94", "rental_uris": {"android": "https://dc.lft.to/lastmile_qr_scan", "ios": "https://dc.lft.to/lastmile_qr_scan"}, "name": "adc7cad4f3f386a905d6ebc1389a7e94", "is_reserved": 0}, {"is_disabled": 0, "fusion_lon": 0.0, "fusion_lat": 0.0, "lat": 38.89564266666667, "type": "electric_bike", "lon": -77.127399, "bike_id": "90da0fa3f3a00239ad7ef5951d9d382a", "rental_uris": {"android": "https://dc.lft.to/lastmile_qr_scan", "ios": "https://dc.lft.to/lastmile_qr_scan"}, "name": "90da0fa3f3a00239ad7ef5951d9d382a", "is_reserved": 0}, {"is_disabled": 0, "fusion_lon": 0.0, "fusion_lat": 0.0, "lat": 38.92258416666667, "type": "electric_scooter", "lon": -77.04134183333333, "bike_id": "f8d97ff2389ce6e4066b23fea8e762bc", "rental_uris": {"android": "https://dc.lft.to/lastmile_qr_scan", "ios": "https://dc.lft.to/lastmile_qr_scan"}, "name": "f8d97ff2389ce6e4066b23fea8e762bc", "is_reserved": 0}, {"is_disabled": 0, "fusion_lon": 0.0, "fusion_lat": 0.0, "lat": 38.915613, "type": "electric_scooter", "lon": -77.01170883333333, "bike_id": "7bbdbf491f10793f272a8d006be0350d", "rental_uris": {"android": "https://dc.lft.to/lastmile_qr_scan", "ios": "https://dc.lft.to/lastmile_qr_scan"}, "name": "7bbdbf491f10793f272a8d006be0350d", "is_reserved": 0}, {"is_disabled": 0, "fusion_lon": 0.0, "fusion_lat": 0.0, "lat": 38.937839, "type": "electric_scooter", "lon": -77.01881016666667, "bike_id": "85426e362405d7e0caf366dccef69b92", "rental_uris": {"android": "https://dc.lft.to/lastmile_qr_scan", "ios": "https://dc.lft.to/lastmile_qr_scan"}, "name": "85426e362405d7e0caf366dccef69b92", "is_reserved": 0}, {"is_disabled": 0, "fusion_lon": 0.0, "fusion_lat": 0.0, "lat": 38.92218783333333, "type": "electric_scooter", "lon": -77.03296366666666, "bike_id": "1a66ee15b88fa8b2276f7893745e339d", "rental_uris": {"android": "https://dc.lft.to/lastmile_qr_scan", "ios": "https://dc.lft.to/lastmile_qr_scan"}, "name": "1a66ee15b88fa8b2276f7893745e339d", "is_reserved": 0}, {"is_disabled": 0, "fusion_lon": 0.0, "fusion_lat": 0.0, "lat": 38.88744833333333, "type": "electric_scooter", "lon": -77.01543266666667, "bike_id": "ffa01626c31679c99dd78c4bed666aba", "rental_uris": {"android": "https://dc.lft.to/lastmile_qr_scan", "ios": "https://dc.lft.to/lastmile_qr_scan"}, "name": "ffa01626c31679c99dd78c4bed666aba", "is_reserved": 0}, {"is_disabled": 0, "fusion_lon": 0.0, "fusion_lat": 0.0, "lat": 38.94621333333333, "type": "electric_bike", "lon": -77.03118516666666, "bike_id": "d1100349af4d3d98117b3dd3d96a9e9d", "rental_uris": {"android": "https://dc.lft.to/lastmile_qr_scan", "ios": "https://dc.lft.to/lastmile_qr_scan"}, "name": "d1100349af4d3d98117b3dd3d96a9e9d", "is_reserved": 0}, {"is_disabled": 0, "fusion_lon": 0.0, "fusion_lat": 0.0, "lat": 38.9162495, "type": "electric_scooter", "lon": -77.04862633333333, "bike_id": "ee8abc6f8bb12edfeebc725cb223aee6", "rental_uris": {"android": "https://dc.lft.to/lastmile_qr_scan", "ios": "https://dc.lft.to/lastmile_qr_scan"}, "name": "ee8abc6f8bb12edfeebc725cb223aee6", "is_reserved": 0}, {"is_disabled": 0, "fusion_lon": 0.0, "fusion_lat": 0.0, "lat": 38.905735166666666, "type": "electric_scooter", "lon": -77.04676016666667, "bike_id": "9a0afe35c1e5884ccf1c842de3238e4f", "rental_uris": {"android": "https://dc.lft.to/lastmile_qr_scan", "ios": "https://dc.lft.to/lastmile_qr_scan"}, "name": "9a0afe35c1e5884ccf1c842de3238e4f", "is_reserved": 0}, {"is_disabled": 0, "fusion_lon": 0.0, "fusion_lat": 0.0, "lat": 38.90559833333333, "type": "electric_scooter", "lon": -77.03640716666666, "bike_id": "5f58515b4ed707cf67d02377b54760ae", "rental_uris": {"android": "https://dc.lft.to/lastmile_qr_scan", "ios": "https://dc.lft.to/lastmile_qr_scan"}, "name": "5f58515b4ed707cf67d02377b54760ae", "is_reserved": 0}, {"is_disabled": 0, "fusion_lon": 0.0, "fusion_lat": 0.0, "lat": 38.90513466666667, "type": "electric_scooter", "lon": -77.04986833333334, "bike_id": "0c0d6d271b727087ceeaa41374d9ed49", "rental_uris": {"android": "https://dc.lft.to/lastmile_qr_scan", "ios": "https://dc.lft.to/lastmile_qr_scan"}, "name": "0c0d6d271b727087ceeaa41374d9ed49", "is_reserved": 0}, {"is_disabled": 0, "fusion_lon": 0.0, "fusion_lat": 0.0, "lat": 38.902662166666666, "type": "electric_scooter", "lon": -77.00213633333334, "bike_id": "0dede61c04e3016f05d2e59bdb1fb6c9", "rental_uris": {"android": "https://dc.lft.to/lastmile_qr_scan", "ios": "https://dc.lft.to/lastmile_qr_scan"}, "name": "0dede61c04e3016f05d2e59bdb1fb6c9", "is_reserved": 0}, {"is_disabled": 0, "fusion_lon": 0.0, "fusion_lat": 0.0, "lat": 38.905121666666666, "type": "electric_bike", "lon": -76.98129116666667, "bike_id": "2f1776b7fe95ef0a3efc1aed9fa17678", "rental_uris": {"android": "https://dc.lft.to/lastmile_qr_scan", "ios": "https://dc.lft.to/lastmile_qr_scan"}, "name": "2f1776b7fe95ef0a3efc1aed9fa17678", "is_reserved": 0}, {"is_disabled": 0, "fusion_lon": 0.0, "fusion_lat": 0.0, "lat": 38.907687833333334, "type": "electric_scooter", "lon": -77.06315166666667, "bike_id": "8ea9fe58e4921335083c72aa470c1b54", "rental_uris": {"android": "https://dc.lft.to/lastmile_qr_scan", "ios": "https://dc.lft.to/lastmile_qr_scan"}, "name": "8ea9fe58e4921335083c72aa470c1b54", "is_reserved": 0}, {"is_disabled": 0, "fusion_lon": 0.0, "fusion_lat": 0.0, "lat": 38.85202483333333, "type": "electric_bike", "lon": -77.10126966666667, "bike_id": "5d5942cae912b09bf60affc827fb7a87", "rental_uris": {"android": "https://dc.lft.to/lastmile_qr_scan", "ios": "https://dc.lft.to/lastmile_qr_scan"}, "name": "5d5942cae912b09bf60affc827fb7a87", "is_reserved": 0}, {"is_disabled": 0, "fusion_lon": 0.0, "fusion_lat": 0.0, "lat": 38.932762333333336, "type": "electric_scooter", "lon": -76.974216, "bike_id": "2734a54bf32f9494eedd8a64613d73e9", "rental_uris": {"android": "https://dc.lft.to/lastmile_qr_scan", "ios": "https://dc.lft.to/lastmile_qr_scan"}, "name": "2734a54bf32f9494eedd8a64613d73e9", "is_reserved": 0}, {"is_disabled": 0, "fusion_lon": 0.0, "fusion_lat": 0.0, "lat": 38.8768005, "type": "electric_scooter", "lon": -77.01786016666667, "bike_id": "babd92f6dd2338ba942c6e723646b650", "rental_uris": {"android": "https://dc.lft.to/lastmile_qr_scan", "ios": "https://dc.lft.to/lastmile_qr_scan"}, "name": "babd92f6dd2338ba942c6e723646b650", "is_reserved": 0}, {"is_disabled": 0, "fusion_lon": 0.0, "fusion_lat": 0.0, "lat": 38.99071416666666, "type": "electric_bike", "lon": -77.02381333333334, "bike_id": "58ca054b9845e1f5a6a324b33efe3c45", "rental_uris": {"android": "https://dc.lft.to/lastmile_qr_scan", "ios": "https://dc.lft.to/lastmile_qr_scan"}, "name": "58ca054b9845e1f5a6a324b33efe3c45", "is_reserved": 0}, {"is_disabled": 0, "fusion_lon": 0.0, "fusion_lat": 0.0, "lat": 38.881249333333336, "type": "electric_scooter", "lon": -77.02081483333333, "bike_id": "545f265de34d2adbc5d395e7fa3d87c3", "rental_uris": {"android": "https://dc.lft.to/lastmile_qr_scan", "ios": "https://dc.lft.to/lastmile_qr_scan"}, "name": "545f265de34d2adbc5d395e7fa3d87c3", "is_reserved": 0}, {"is_disabled": 0, "fusion_lon": 0.0, "fusion_lat": 0.0, "lat": 38.907343166666664, "type": "electric_scooter", "lon": -77.02247283333334, "bike_id": "f66e51cc7bc0bdaeca7248c68c883305", "rental_uris": {"android": "https://dc.lft.to/lastmile_qr_scan", "ios": "https://dc.lft.to/lastmile_qr_scan"}, "name": "f66e51cc7bc0bdaeca7248c68c883305", "is_reserved": 0}, {"is_disabled": 0, "fusion_lon": 0.0, "fusion_lat": 0.0, "lat": 38.892404666666664, "type": "electric_scooter", "lon": -77.03349183333333, "bike_id": "bf4fef665c2b66f095160f14ad24a72b", "rental_uris": {"android": "https://dc.lft.to/lastmile_qr_scan", "ios": "https://dc.lft.to/lastmile_qr_scan"}, "name": "bf4fef665c2b66f095160f14ad24a72b", "is_reserved": 0}, {"is_disabled": 0, "fusion_lon": 0.0, "fusion_lat": 0.0, "lat": 38.89650783333333, "type": "electric_scooter", "lon": -77.0120225, "bike_id": "862b46ab9d2d3dbb2660b3d2b8aff05a", "rental_uris": {"android": "https://dc.lft.to/lastmile_qr_scan", "ios": "https://dc.lft.to/lastmile_qr_scan"}, "name": "862b46ab9d2d3dbb2660b3d2b8aff05a", "is_reserved": 0}, {"is_disabled": 0, "fusion_lon": 0.0, "fusion_lat": 0.0, "lat": 38.908457166666665, "type": "electric_scooter", "lon": -77.06348266666667, "bike_id": "3639b489abfea00f6487ea9cd68508a9", "rental_uris": {"android": "https://dc.lft.to/lastmile_qr_scan", "ios": "https://dc.lft.to/lastmile_qr_scan"}, "name": "3639b489abfea00f6487ea9cd68508a9", "is_reserved": 0}, {"is_disabled": 0, "fusion_lon": 0.0, "fusion_lat": 0.0, "lat": 38.917848, "type": "electric_scooter", "lon": -77.04359216666667, "bike_id": "002cb00a6bb6f53f01428330e227da1c", "rental_uris": {"android": "https://dc.lft.to/lastmile_qr_scan", "ios": "https://dc.lft.to/lastmile_qr_scan"}, "name": "002cb00a6bb6f53f01428330e227da1c", "is_reserved": 0}, {"is_disabled": 0, "fusion_lon": 0.0, "fusion_lat": 0.0, "lat": 38.911727, "type": "electric_bike", "lon": -77.01152116666667, "bike_id": "44414c0cdc2cc858289a84c71e8e82c3", "rental_uris": {"android": "https://dc.lft.to/lastmile_qr_scan", "ios": "https://dc.lft.to/lastmile_qr_scan"}, "name": "44414c0cdc2cc858289a84c71e8e82c3", "is_reserved": 0}, {"is_disabled": 0, "fusion_lon": 0.0, "fusion_lat": 0.0, "lat": 38.9234745, "type": "electric_bike", "lon": -76.99251866666667, "bike_id": "955469ba62dea1014dbdd948f79778bf", "rental_uris": {"android": "https://dc.lft.to/lastmile_qr_scan", "ios": "https://dc.lft.to/lastmile_qr_scan"}, "name": "955469ba62dea1014dbdd948f79778bf", "is_reserved": 0}, {"is_disabled": 0, "fusion_lon": 0.0, "fusion_lat": 0.0, "lat": 38.89741083333333, "type": "electric_scooter", "lon": -77.04655816666667, "bike_id": "8546ae4ced7525a6407be58bc5011995", "rental_uris": {"android": "https://dc.lft.to/lastmile_qr_scan", "ios": "https://dc.lft.to/lastmile_qr_scan"}, "name": "8546ae4ced7525a6407be58bc5011995", "is_reserved": 0}, {"is_disabled": 0, "fusion_lon": 0.0, "fusion_lat": 0.0, "lat": 38.909514, "type": "electric_scooter", "lon": -77.02183466666666, "bike_id": "0fbeb9dc54f1de0696761dcca19cb068", "rental_uris": {"android": "https://dc.lft.to/lastmile_qr_scan", "ios": "https://dc.lft.to/lastmile_qr_scan"}, "name": "0fbeb9dc54f1de0696761dcca19cb068", "is_reserved": 0}, {"is_disabled": 0, "fusion_lon": 0.0, "fusion_lat": 0.0, "lat": 38.924799, "type": "electric_scooter", "lon": -77.034884, "bike_id": "974bbc4ca215267c8f96d49b903a595e", "rental_uris": {"android": "https://dc.lft.to/lastmile_qr_scan", "ios": "https://dc.lft.to/lastmile_qr_scan"}, "name": "974bbc4ca215267c8f96d49b903a595e", "is_reserved": 0}, {"is_disabled": 0, "fusion_lon": 0.0, "fusion_lat": 0.0, "lat": 38.9248165, "type": "electric_scooter", "lon": -77.02715983333333, "bike_id": "ad81299dab19ba66f59d7869833c8bfb", "rental_uris": {"android": "https://dc.lft.to/lastmile_qr_scan", "ios": "https://dc.lft.to/lastmile_qr_scan"}, "name": "ad81299dab19ba66f59d7869833c8bfb", "is_reserved": 0}, {"is_disabled": 0, "fusion_lon": 0.0, "fusion_lat": 0.0, "lat": 38.91707433333333, "type": "electric_scooter", "lon": -77.03475933333333, "bike_id": "4d44a0746e4759ef7d9fb587ece435b0", "rental_uris": {"android": "https://dc.lft.to/lastmile_qr_scan", "ios": "https://dc.lft.to/lastmile_qr_scan"}, "name": "4d44a0746e4759ef7d9fb587ece435b0", "is_reserved": 0}, {"is_disabled": 0, "fusion_lon": 0.0, "fusion_lat": 0.0, "lat": 38.89238016666667, "type": "electric_scooter", "lon": -77.02831783333333, "bike_id": "74253b0a3b672cd937aa1c07734c4f2b", "rental_uris": {"android": "https://dc.lft.to/lastmile_qr_scan", "ios": "https://dc.lft.to/lastmile_qr_scan"}, "name": "74253b0a3b672cd937aa1c07734c4f2b", "is_reserved": 0}, {"is_disabled": 0, "fusion_lon": 0.0, "fusion_lat": 0.0, "lat": 38.845980833333336, "type": "electric_bike", "lon": -76.96887516666666, "bike_id": "2a6bf02c6fd9b2b01e289733ba42db89", "rental_uris": {"android": "https://dc.lft.to/lastmile_qr_scan", "ios": "https://dc.lft.to/lastmile_qr_scan"}, "name": "2a6bf02c6fd9b2b01e289733ba42db89", "is_reserved": 0}, {"is_disabled": 0, "fusion_lon": 0.0, "fusion_lat": 0.0, "lat": 38.8973485, "type": "electric_scooter", "lon": -77.02601116666666, "bike_id": "d6cbe7e7a638930c0d63d5cc31ad8196", "rental_uris": {"android": "https://dc.lft.to/lastmile_qr_scan", "ios": "https://dc.lft.to/lastmile_qr_scan"}, "name": "d6cbe7e7a638930c0d63d5cc31ad8196", "is_reserved": 0}, {"is_disabled": 0, "fusion_lon": 0.0, "fusion_lat": 0.0, "lat": 38.85805833333333, "type": "electric_scooter", "lon": -76.98655366666667, "bike_id": "adf4bb2f72d64b91916e024a3361555c", "rental_uris": {"android": "https://dc.lft.to/lastmile_qr_scan", "ios": "https://dc.lft.to/lastmile_qr_scan"}, "name": "adf4bb2f72d64b91916e024a3361555c", "is_reserved": 0}, {"is_disabled": 0, "fusion_lon": 0.0, "fusion_lat": 0.0, "lat": 38.92785666666666, "type": "electric_scooter", "lon": -77.014161, "bike_id": "6ee9a0843bd41e19041fe76871a58c3f", "rental_uris": {"android": "https://dc.lft.to/lastmile_qr_scan", "ios": "https://dc.lft.to/lastmile_qr_scan"}, "name": "6ee9a0843bd41e19041fe76871a58c3f", "is_reserved": 0}, {"is_disabled": 0, "fusion_lon": 0.0, "fusion_lat": 0.0, "lat": 38.86317833333333, "type": "electric_scooter", "lon": -76.99045033333333, "bike_id": "9a2860d986ea4a5e160f3a0cb06151a1", "rental_uris": {"android": "https://dc.lft.to/lastmile_qr_scan", "ios": "https://dc.lft.to/lastmile_qr_scan"}, "name": "9a2860d986ea4a5e160f3a0cb06151a1", "is_reserved": 0}, {"is_disabled": 0, "fusion_lon": 0.0, "fusion_lat": 0.0, "lat": 38.84200366666666, "type": "electric_bike", "lon": -77.10683383333334, "bike_id": "a25297758fbdd0353ec721404af57314", "rental_uris": {"android": "https://dc.lft.to/lastmile_qr_scan", "ios": "https://dc.lft.to/lastmile_qr_scan"}, "name": "a25297758fbdd0353ec721404af57314", "is_reserved": 0}, {"is_disabled": 0, "fusion_lon": 0.0, "fusion_lat": 0.0, "lat": 38.89744066666667, "type": "electric_scooter", "lon": -77.04648883333333, "bike_id": "9dcb909c600486e8f5db5fc0d952f501", "rental_uris": {"android": "https://dc.lft.to/lastmile_qr_scan", "ios": "https://dc.lft.to/lastmile_qr_scan"}, "name": "9dcb909c600486e8f5db5fc0d952f501", "is_reserved": 0}, {"is_disabled": 0, "fusion_lon": 0.0, "fusion_lat": 0.0, "lat": 38.967618333333334, "type": "electric_bike", "lon": -77.091635, "bike_id": "332684810980e52addfb0aaf9f890ab4", "rental_uris": {"android": "https://dc.lft.to/lastmile_qr_scan", "ios": "https://dc.lft.to/lastmile_qr_scan"}, "name": "332684810980e52addfb0aaf9f890ab4", "is_reserved": 0}, {"is_disabled": 0, "fusion_lon": 0.0, "fusion_lat": 0.0, "lat": 38.998818166666666, "type": "electric_bike", "lon": -77.0287885, "bike_id": "ed519183fd732338f4f5af81f1c7ef75", "rental_uris": {"android": "https://dc.lft.to/lastmile_qr_scan", "ios": "https://dc.lft.to/lastmile_qr_scan"}, "name": "ed519183fd732338f4f5af81f1c7ef75", "is_reserved": 0}, {"is_disabled": 0, "fusion_lon": 0.0, "fusion_lat": 0.0, "lat": 38.892613, "type": "electric_scooter", "lon": -77.03201883333334, "bike_id": "645bc74e9c09e92d07a87e0c1ed25686", "rental_uris": {"android": "https://dc.lft.to/lastmile_qr_scan", "ios": "https://dc.lft.to/lastmile_qr_scan"}, "name": "645bc74e9c09e92d07a87e0c1ed25686", "is_reserved": 0}, {"is_disabled": 0, "fusion_lon": 0.0, "fusion_lat": 0.0, "lat": 38.904803, "type": "electric_scooter", "lon": -77.02720616666667, "bike_id": "ce102227490d345e509ec454c3976acf", "rental_uris": {"android": "https://dc.lft.to/lastmile_qr_scan", "ios": "https://dc.lft.to/lastmile_qr_scan"}, "name": "ce102227490d345e509ec454c3976acf", "is_reserved": 0}, {"is_disabled": 0, "fusion_lon": 0.0, "fusion_lat": 0.0, "lat": 38.885754166666665, "type": "electric_scooter", "lon": -76.9190845, "bike_id": "7baf6300b65247720a4f0b856a03841d", "rental_uris": {"android": "https://dc.lft.to/lastmile_qr_scan", "ios": "https://dc.lft.to/lastmile_qr_scan"}, "name": "7baf6300b65247720a4f0b856a03841d", "is_reserved": 0}, {"is_disabled": 0, "fusion_lon": 0.0, "fusion_lat": 0.0, "lat": 39.038810833333336, "type": "electric_bike", "lon": -77.10910183333333, "bike_id": "2bb1a22185d06ba07c537f2904d0d30c", "rental_uris": {"android": "https://dc.lft.to/lastmile_qr_scan", "ios": "https://dc.lft.to/lastmile_qr_scan"}, "name": "2bb1a22185d06ba07c537f2904d0d30c", "is_reserved": 0}, {"is_disabled": 0, "fusion_lon": 0.0, "fusion_lat": 0.0, "lat": 38.8928985, "type": "electric_bike", "lon": -77.001442, "bike_id": "ced652765195cc7a04c9dea488205984", "rental_uris": {"android": "https://dc.lft.to/lastmile_qr_scan", "ios": "https://dc.lft.to/lastmile_qr_scan"}, "name": "ced652765195cc7a04c9dea488205984", "is_reserved": 0}, {"is_disabled": 0, "fusion_lon": 0.0, "fusion_lat": 0.0, "lat": 38.93667766666667, "type": "electric_bike", "lon": -76.95208183333334, "bike_id": "7051d1689e4517e2593741438598a9b2", "rental_uris": {"android": "https://dc.lft.to/lastmile_qr_scan", "ios": "https://dc.lft.to/lastmile_qr_scan"}, "name": "7051d1689e4517e2593741438598a9b2", "is_reserved": 0}, {"is_disabled": 0, "fusion_lon": 0.0, "fusion_lat": 0.0, "lat": 38.95330516666667, "type": "electric_scooter", "lon": -77.06853, "bike_id": "f2f2eeedb7f463ca005ca5ea24122711", "rental_uris": {"android": "https://dc.lft.to/lastmile_qr_scan", "ios": "https://dc.lft.to/lastmile_qr_scan"}, "name": "f2f2eeedb7f463ca005ca5ea24122711", "is_reserved": 0}, {"is_disabled": 0, "fusion_lon": 0.0, "fusion_lat": 0.0, "lat": 38.922172333333336, "type": "electric_scooter", "lon": -77.04335233333333, "bike_id": "fdf6b610e4f0cf18e33c2b0b39c36da4", "rental_uris": {"android": "https://dc.lft.to/lastmile_qr_scan", "ios": "https://dc.lft.to/lastmile_qr_scan"}, "name": "fdf6b610e4f0cf18e33c2b0b39c36da4", "is_reserved": 0}, {"is_disabled": 0, "fusion_lon": 0.0, "fusion_lat": 0.0, "lat": 38.91650216666667, "type": "electric_scooter", "lon": -77.02180983333334, "bike_id": "ca50e51b2553fd8c1c68e22b1eb68d17", "rental_uris": {"android": "https://dc.lft.to/lastmile_qr_scan", "ios": "https://dc.lft.to/lastmile_qr_scan"}, "name": "ca50e51b2553fd8c1c68e22b1eb68d17", "is_reserved": 0}, {"is_disabled": 0, "fusion_lon": 0.0, "fusion_lat": 0.0, "lat": 38.95611133333333, "type": "electric_scooter", "lon": -77.02784083333333, "bike_id": "cb9bb01219d6cb3d36f1628258c054cf", "rental_uris": {"android": "https://dc.lft.to/lastmile_qr_scan", "ios": "https://dc.lft.to/lastmile_qr_scan"}, "name": "cb9bb01219d6cb3d36f1628258c054cf", "is_reserved": 0}, {"is_disabled": 0, "fusion_lon": 0.0, "fusion_lat": 0.0, "lat": 38.91035433333333, "type": "electric_scooter", "lon": -77.01377933333333, "bike_id": "ed3e473957bf89bbb083c1a5c089e25a", "rental_uris": {"android": "https://dc.lft.to/lastmile_qr_scan", "ios": "https://dc.lft.to/lastmile_qr_scan"}, "name": "ed3e473957bf89bbb083c1a5c089e25a", "is_reserved": 0}, {"is_disabled": 0, "fusion_lon": 0.0, "fusion_lat": 0.0, "lat": 38.922827833333336, "type": "electric_scooter", "lon": -77.0235225, "bike_id": "6aa27b4c7f36d972a53c93f6c91bc2b4", "rental_uris": {"android": "https://dc.lft.to/lastmile_qr_scan", "ios": "https://dc.lft.to/lastmile_qr_scan"}, "name": "6aa27b4c7f36d972a53c93f6c91bc2b4", "is_reserved": 0}, {"is_disabled": 0, "fusion_lon": 0.0, "fusion_lat": 0.0, "lat": 38.90923516666667, "type": "electric_scooter", "lon": -77.032116, "bike_id": "087fd685145072e79c8cf0c45daad9bd", "rental_uris": {"android": "https://dc.lft.to/lastmile_qr_scan", "ios": "https://dc.lft.to/lastmile_qr_scan"}, "name": "087fd685145072e79c8cf0c45daad9bd", "is_reserved": 0}, {"is_disabled": 0, "fusion_lon": 0.0, "fusion_lat": 0.0, "lat": 38.905626, "type": "electric_scooter", "lon": -77.00427866666666, "bike_id": "13e3aa4837b77195df0ddfaf514618ff", "rental_uris": {"android": "https://dc.lft.to/lastmile_qr_scan", "ios": "https://dc.lft.to/lastmile_qr_scan"}, "name": "13e3aa4837b77195df0ddfaf514618ff", "is_reserved": 0}, {"is_disabled": 0, "fusion_lon": 0.0, "fusion_lat": 0.0, "lat": 38.949838, "type": "electric_scooter", "lon": -77.0270235, "bike_id": "50933321a876c09867c4b9498c27176b", "rental_uris": {"android": "https://dc.lft.to/lastmile_qr_scan", "ios": "https://dc.lft.to/lastmile_qr_scan"}, "name": "50933321a876c09867c4b9498c27176b", "is_reserved": 0}, {"is_disabled": 0, "fusion_lon": 0.0, "fusion_lat": 0.0, "lat": 38.895502, "type": "electric_scooter", "lon": -77.01111933333334, "bike_id": "8e1ceb34ed9cb41bf7842d613e1ac121", "rental_uris": {"android": "https://dc.lft.to/lastmile_qr_scan", "ios": "https://dc.lft.to/lastmile_qr_scan"}, "name": "8e1ceb34ed9cb41bf7842d613e1ac121", "is_reserved": 0}, {"is_disabled": 0, "fusion_lon": 0.0, "fusion_lat": 0.0, "lat": 38.892429666666665, "type": "electric_scooter", "lon": -77.03346816666667, "bike_id": "f9a6be1c2de37c753b86bd60849bac2e", "rental_uris": {"android": "https://dc.lft.to/lastmile_qr_scan", "ios": "https://dc.lft.to/lastmile_qr_scan"}, "name": "f9a6be1c2de37c753b86bd60849bac2e", "is_reserved": 0}, {"is_disabled": 0, "fusion_lon": 0.0, "fusion_lat": 0.0, "lat": 38.91821266666667, "type": "electric_scooter", "lon": -77.034434, "bike_id": "190c25a6312536339e057fe7a257886e", "rental_uris": {"android": "https://dc.lft.to/lastmile_qr_scan", "ios": "https://dc.lft.to/lastmile_qr_scan"}, "name": "190c25a6312536339e057fe7a257886e", "is_reserved": 0}, {"is_disabled": 0, "fusion_lon": 0.0, "fusion_lat": 0.0, "lat": 38.892203, "type": "electric_scooter", "lon": -77.02258983333333, "bike_id": "de185f4a4483453b28fc6b9f72b2d7a0", "rental_uris": {"android": "https://dc.lft.to/lastmile_qr_scan", "ios": "https://dc.lft.to/lastmile_qr_scan"}, "name": "de185f4a4483453b28fc6b9f72b2d7a0", "is_reserved": 0}, {"is_disabled": 0, "fusion_lon": 0.0, "fusion_lat": 0.0, "lat": 38.88995716666667, "type": "electric_scooter", "lon": -77.015062, "bike_id": "e56c7230361bfa667fc94fef5fe86809", "rental_uris": {"android": "https://dc.lft.to/lastmile_qr_scan", "ios": "https://dc.lft.to/lastmile_qr_scan"}, "name": "e56c7230361bfa667fc94fef5fe86809", "is_reserved": 0}, {"is_disabled": 0, "fusion_lon": 0.0, "fusion_lat": 0.0, "lat": 38.90030466666666, "type": "electric_scooter", "lon": -77.00210183333333, "bike_id": "1372f107f9ba506eabb9187122ef6d7a", "rental_uris": {"android": "https://dc.lft.to/lastmile_qr_scan", "ios": "https://dc.lft.to/lastmile_qr_scan"}, "name": "1372f107f9ba506eabb9187122ef6d7a", "is_reserved": 0}, {"is_disabled": 0, "fusion_lon": 0.0, "fusion_lat": 0.0, "lat": 38.9190975, "type": "electric_scooter", "lon": -77.030255, "bike_id": "2e58fe8202a0d033fab201dce29a1129", "rental_uris": {"android": "https://dc.lft.to/lastmile_qr_scan", "ios": "https://dc.lft.to/lastmile_qr_scan"}, "name": "2e58fe8202a0d033fab201dce29a1129", "is_reserved": 0}, {"is_disabled": 0, "fusion_lon": 0.0, "fusion_lat": 0.0, "lat": 38.89488466666667, "type": "electric_scooter", "lon": -77.02289766666667, "bike_id": "73093749ee6f6f21c21a2ca0578a5f4a", "rental_uris": {"android": "https://dc.lft.to/lastmile_qr_scan", "ios": "https://dc.lft.to/lastmile_qr_scan"}, "name": "73093749ee6f6f21c21a2ca0578a5f4a", "is_reserved": 0}, {"is_disabled": 0, "fusion_lon": 0.0, "fusion_lat": 0.0, "lat": 38.8985105, "type": "electric_scooter", "lon": -77.03996883333333, "bike_id": "8bbf1dfc0fe96903a5fec385e277794e", "rental_uris": {"android": "https://dc.lft.to/lastmile_qr_scan", "ios": "https://dc.lft.to/lastmile_qr_scan"}, "name": "8bbf1dfc0fe96903a5fec385e277794e", "is_reserved": 0}, {"is_disabled": 0, "fusion_lon": 0.0, "fusion_lat": 0.0, "lat": 38.892339, "type": "electric_scooter", "lon": -77.04674566666667, "bike_id": "cebce6a6e219c92df8b4fb99dc484d7a", "rental_uris": {"android": "https://dc.lft.to/lastmile_qr_scan", "ios": "https://dc.lft.to/lastmile_qr_scan"}, "name": "cebce6a6e219c92df8b4fb99dc484d7a", "is_reserved": 0}, {"is_disabled": 0, "fusion_lon": 0.0, "fusion_lat": 0.0, "lat": 38.935462666666666, "type": "electric_scooter", "lon": -77.034083, "bike_id": "d9289b3d49d8d36a4ee293469421e205", "rental_uris": {"android": "https://dc.lft.to/lastmile_qr_scan", "ios": "https://dc.lft.to/lastmile_qr_scan"}, "name": "d9289b3d49d8d36a4ee293469421e205", "is_reserved": 0}, {"is_disabled": 0, "fusion_lon": 0.0, "fusion_lat": 0.0, "lat": 38.90465416666667, "type": "electric_scooter", "lon": -76.99211766666667, "bike_id": "9cb546f8e36d22901cdfad5e911045f2", "rental_uris": {"android": "https://dc.lft.to/lastmile_qr_scan", "ios": "https://dc.lft.to/lastmile_qr_scan"}, "name": "9cb546f8e36d22901cdfad5e911045f2", "is_reserved": 0}, {"is_disabled": 0, "fusion_lon": 0.0, "fusion_lat": 0.0, "lat": 38.92263833333333, "type": "electric_scooter", "lon": -77.07131433333333, "bike_id": "ebca1274a040cd0fd6e8fb3d3c2d99ac", "rental_uris": {"android": "https://dc.lft.to/lastmile_qr_scan", "ios": "https://dc.lft.to/lastmile_qr_scan"}, "name": "ebca1274a040cd0fd6e8fb3d3c2d99ac", "is_reserved": 0}, {"is_disabled": 0, "fusion_lon": 0.0, "fusion_lat": 0.0, "lat": 38.91150016666667, "type": "electric_scooter", "lon": -76.98502216666667, "bike_id": "d5d927cc5766aa9979f0b2ef7c8c934b", "rental_uris": {"android": "https://dc.lft.to/lastmile_qr_scan", "ios": "https://dc.lft.to/lastmile_qr_scan"}, "name": "d5d927cc5766aa9979f0b2ef7c8c934b", "is_reserved": 0}, {"is_disabled": 0, "fusion_lon": 0.0, "fusion_lat": 0.0, "lat": 38.90912933333333, "type": "electric_scooter", "lon": -77.02296816666667, "bike_id": "8b081e831db60fa3c18399375cb0e7a5", "rental_uris": {"android": "https://dc.lft.to/lastmile_qr_scan", "ios": "https://dc.lft.to/lastmile_qr_scan"}, "name": "8b081e831db60fa3c18399375cb0e7a5", "is_reserved": 0}, {"is_disabled": 0, "fusion_lon": 0.0, "fusion_lat": 0.0, "lat": 38.916995, "type": "electric_scooter", "lon": -77.00115416666667, "bike_id": "ec12980e24583ba2debbb9f64959656f", "rental_uris": {"android": "https://dc.lft.to/lastmile_qr_scan", "ios": "https://dc.lft.to/lastmile_qr_scan"}, "name": "ec12980e24583ba2debbb9f64959656f", "is_reserved": 0}, {"is_disabled": 0, "fusion_lon": 0.0, "fusion_lat": 0.0, "lat": 38.917935, "type": "electric_scooter", "lon": -77.02398383333333, "bike_id": "2e93ac22963c7fe3550d55e5b3c30919", "rental_uris": {"android": "https://dc.lft.to/lastmile_qr_scan", "ios": "https://dc.lft.to/lastmile_qr_scan"}, "name": "2e93ac22963c7fe3550d55e5b3c30919", "is_reserved": 0}, {"is_disabled": 0, "fusion_lon": 0.0, "fusion_lat": 0.0, "lat": 38.98500283333333, "type": "electric_bike", "lon": -76.98194116666667, "bike_id": "a75432da658a6186abe76b5878ff90ef", "rental_uris": {"android": "https://dc.lft.to/lastmile_qr_scan", "ios": "https://dc.lft.to/lastmile_qr_scan"}, "name": "a75432da658a6186abe76b5878ff90ef", "is_reserved": 0}, {"is_disabled": 0, "fusion_lon": 0.0, "fusion_lat": 0.0, "lat": 38.905147, "type": "electric_scooter", "lon": -77.02499383333334, "bike_id": "e155f17ebd549d522fa75802edb787d7", "rental_uris": {"android": "https://dc.lft.to/lastmile_qr_scan", "ios": "https://dc.lft.to/lastmile_qr_scan"}, "name": "e155f17ebd549d522fa75802edb787d7", "is_reserved": 0}, {"is_disabled": 0, "fusion_lon": 0.0, "fusion_lat": 0.0, "lat": 38.9180725, "type": "electric_scooter", "lon": -77.0321935, "bike_id": "d77fbed30d3dec441341322ed9fc1d23", "rental_uris": {"android": "https://dc.lft.to/lastmile_qr_scan", "ios": "https://dc.lft.to/lastmile_qr_scan"}, "name": "d77fbed30d3dec441341322ed9fc1d23", "is_reserved": 0}, {"is_disabled": 0, "fusion_lon": 0.0, "fusion_lat": 0.0, "lat": 38.90373066666667, "type": "electric_scooter", "lon": -77.0321775, "bike_id": "62f5832628fa67c96fed5ddaf11100ef", "rental_uris": {"android": "https://dc.lft.to/lastmile_qr_scan", "ios": "https://dc.lft.to/lastmile_qr_scan"}, "name": "62f5832628fa67c96fed5ddaf11100ef", "is_reserved": 0}, {"is_disabled": 0, "fusion_lon": 0.0, "fusion_lat": 0.0, "lat": 38.915602166666666, "type": "electric_scooter", "lon": -77.01021966666667, "bike_id": "85b87ac766a27898a33fb7e2d74c6853", "rental_uris": {"android": "https://dc.lft.to/lastmile_qr_scan", "ios": "https://dc.lft.to/lastmile_qr_scan"}, "name": "85b87ac766a27898a33fb7e2d74c6853", "is_reserved": 0}, {"is_disabled": 0, "fusion_lon": 0.0, "fusion_lat": 0.0, "lat": 38.949747, "type": "electric_scooter", "lon": -77.067627, "bike_id": "805e6be58917130850ef633a0b83b8c7", "rental_uris": {"android": "https://dc.lft.to/lastmile_qr_scan", "ios": "https://dc.lft.to/lastmile_qr_scan"}, "name": "805e6be58917130850ef633a0b83b8c7", "is_reserved": 0}, {"is_disabled": 0, "fusion_lon": 0.0, "fusion_lat": 0.0, "lat": 38.9999835, "type": "electric_bike", "lon": -76.91806733333334, "bike_id": "651690ce2ab03eb759672dc6928057b5", "rental_uris": {"android": "https://dc.lft.to/lastmile_qr_scan", "ios": "https://dc.lft.to/lastmile_qr_scan"}, "name": "651690ce2ab03eb759672dc6928057b5", "is_reserved": 0}, {"is_disabled": 0, "fusion_lon": 0.0, "fusion_lat": 0.0, "lat": 38.93315716666667, "type": "electric_scooter", "lon": -77.02934416666666, "bike_id": "85be68f967fb0e23d294fd53516d3dd1", "rental_uris": {"android": "https://dc.lft.to/lastmile_qr_scan", "ios": "https://dc.lft.to/lastmile_qr_scan"}, "name": "85be68f967fb0e23d294fd53516d3dd1", "is_reserved": 0}, {"is_disabled": 0, "fusion_lon": 0.0, "fusion_lat": 0.0, "lat": 38.905810833333334, "type": "electric_scooter", "lon": -77.024222, "bike_id": "a2868376a4737e45f7d2a75c219cbdd9", "rental_uris": {"android": "https://dc.lft.to/lastmile_qr_scan", "ios": "https://dc.lft.to/lastmile_qr_scan"}, "name": "a2868376a4737e45f7d2a75c219cbdd9", "is_reserved": 0}, {"is_disabled": 0, "fusion_lon": 0.0, "fusion_lat": 0.0, "lat": 38.935323333333336, "type": "electric_scooter", "lon": -77.02067383333333, "bike_id": "e4101bcf45953fe55893481b13e646fe", "rental_uris": {"android": "https://dc.lft.to/lastmile_qr_scan", "ios": "https://dc.lft.to/lastmile_qr_scan"}, "name": "e4101bcf45953fe55893481b13e646fe", "is_reserved": 0}, {"is_disabled": 0, "fusion_lon": 0.0, "fusion_lat": 0.0, "lat": 38.97367283333333, "type": "electric_scooter", "lon": -77.018564, "bike_id": "470ba115fa9acabbb94fcd67da17e541", "rental_uris": {"android": "https://dc.lft.to/lastmile_qr_scan", "ios": "https://dc.lft.to/lastmile_qr_scan"}, "name": "470ba115fa9acabbb94fcd67da17e541", "is_reserved": 0}, {"is_disabled": 0, "fusion_lon": 0.0, "fusion_lat": 0.0, "lat": 38.92453066666667, "type": "electric_scooter", "lon": -76.99905133333333, "bike_id": "8f904e1c60c9ea4b686055e272e570f1", "rental_uris": {"android": "https://dc.lft.to/lastmile_qr_scan", "ios": "https://dc.lft.to/lastmile_qr_scan"}, "name": "8f904e1c60c9ea4b686055e272e570f1", "is_reserved": 0}, {"is_disabled": 0, "fusion_lon": 0.0, "fusion_lat": 0.0, "lat": 38.909628, "type": "electric_scooter", "lon": -77.048227, "bike_id": "44d13742b909621f232f2ee9d2776d01", "rental_uris": {"android": "https://dc.lft.to/lastmile_qr_scan", "ios": "https://dc.lft.to/lastmile_qr_scan"}, "name": "44d13742b909621f232f2ee9d2776d01", "is_reserved": 0}, {"is_disabled": 0, "fusion_lon": 0.0, "fusion_lat": 0.0, "lat": 38.914134, "type": "electric_scooter", "lon": -77.04327033333334, "bike_id": "7e4be787426d8d63ebd9b5889420a405", "rental_uris": {"android": "https://dc.lft.to/lastmile_qr_scan", "ios": "https://dc.lft.to/lastmile_qr_scan"}, "name": "7e4be787426d8d63ebd9b5889420a405", "is_reserved": 0}, {"is_disabled": 0, "fusion_lon": 0.0, "fusion_lat": 0.0, "lat": 38.941947666666664, "type": "electric_scooter", "lon": -77.02579333333334, "bike_id": "8be736f5cd9193af5242db7d2b3fe29a", "rental_uris": {"android": "https://dc.lft.to/lastmile_qr_scan", "ios": "https://dc.lft.to/lastmile_qr_scan"}, "name": "8be736f5cd9193af5242db7d2b3fe29a", "is_reserved": 0}, {"is_disabled": 0, "fusion_lon": 0.0, "fusion_lat": 0.0, "lat": 38.9041125, "type": "electric_scooter", "lon": -77.048785, "bike_id": "4b6934d64153d11216af0e3dd9328fb9", "rental_uris": {"android": "https://dc.lft.to/lastmile_qr_scan", "ios": "https://dc.lft.to/lastmile_qr_scan"}, "name": "4b6934d64153d11216af0e3dd9328fb9", "is_reserved": 0}, {"is_disabled": 0, "fusion_lon": 0.0, "fusion_lat": 0.0, "lat": 38.89234366666667, "type": "electric_scooter", "lon": -77.04677216666667, "bike_id": "8b6dd2cefc3391eb36fdbebb25cb69aa", "rental_uris": {"android": "https://dc.lft.to/lastmile_qr_scan", "ios": "https://dc.lft.to/lastmile_qr_scan"}, "name": "8b6dd2cefc3391eb36fdbebb25cb69aa", "is_reserved": 0}, {"is_disabled": 0, "fusion_lon": 0.0, "fusion_lat": 0.0, "lat": 38.9156245, "type": "electric_scooter", "lon": -77.038061, "bike_id": "d1d35efa3d7509ffa2b9fff3de49473a", "rental_uris": {"android": "https://dc.lft.to/lastmile_qr_scan", "ios": "https://dc.lft.to/lastmile_qr_scan"}, "name": "d1d35efa3d7509ffa2b9fff3de49473a", "is_reserved": 0}, {"is_disabled": 0, "fusion_lon": 0.0, "fusion_lat": 0.0, "lat": 38.833191166666666, "type": "electric_scooter", "lon": -77.00007516666666, "bike_id": "a90a5012849da778a822ccdd1fccf87c", "rental_uris": {"android": "https://dc.lft.to/lastmile_qr_scan", "ios": "https://dc.lft.to/lastmile_qr_scan"}, "name": "a90a5012849da778a822ccdd1fccf87c", "is_reserved": 0}, {"is_disabled": 0, "fusion_lon": 0.0, "fusion_lat": 0.0, "lat": 38.886793, "type": "electric_scooter", "lon": -77.0019715, "bike_id": "3df10d2d50c4fe74fcb3f46ee3f21635", "rental_uris": {"android": "https://dc.lft.to/lastmile_qr_scan", "ios": "https://dc.lft.to/lastmile_qr_scan"}, "name": "3df10d2d50c4fe74fcb3f46ee3f21635", "is_reserved": 0}, {"is_disabled": 0, "fusion_lon": 0.0, "fusion_lat": 0.0, "lat": 38.87479866666666, "type": "electric_scooter", "lon": -77.01067983333333, "bike_id": "244db7f4d068ce908e8fce8a70fff53e", "rental_uris": {"android": "https://dc.lft.to/lastmile_qr_scan", "ios": "https://dc.lft.to/lastmile_qr_scan"}, "name": "244db7f4d068ce908e8fce8a70fff53e", "is_reserved": 0}, {"is_disabled": 0, "fusion_lon": 0.0, "fusion_lat": 0.0, "lat": 38.8287315, "type": "electric_bike", "lon": -77.11221733333333, "bike_id": "ad80fa18da5048d3b24f6682cf90b3cf", "rental_uris": {"android": "https://dc.lft.to/lastmile_qr_scan", "ios": "https://dc.lft.to/lastmile_qr_scan"}, "name": "ad80fa18da5048d3b24f6682cf90b3cf", "is_reserved": 0}, {"is_disabled": 0, "fusion_lon": 0.0, "fusion_lat": 0.0, "lat": 38.91336866666666, "type": "electric_scooter", "lon": -77.0486365, "bike_id": "18e3725caa62391676e9b6cbb6bde56d", "rental_uris": {"android": "https://dc.lft.to/lastmile_qr_scan", "ios": "https://dc.lft.to/lastmile_qr_scan"}, "name": "18e3725caa62391676e9b6cbb6bde56d", "is_reserved": 0}, {"is_disabled": 0, "fusion_lon": 0.0, "fusion_lat": 0.0, "lat": 38.951756, "type": "electric_scooter", "lon": -77.05653483333333, "bike_id": "09f68db4422c98509a699b1eb6817963", "rental_uris": {"android": "https://dc.lft.to/lastmile_qr_scan", "ios": "https://dc.lft.to/lastmile_qr_scan"}, "name": "09f68db4422c98509a699b1eb6817963", "is_reserved": 0}, {"is_disabled": 0, "fusion_lon": 0.0, "fusion_lat": 0.0, "lat": 38.9555075, "type": "electric_bike", "lon": -76.935397, "bike_id": "e49518b64be9e1f49eb27b17c7e10076", "rental_uris": {"android": "https://dc.lft.to/lastmile_qr_scan", "ios": "https://dc.lft.to/lastmile_qr_scan"}, "name": "e49518b64be9e1f49eb27b17c7e10076", "is_reserved": 0}, {"is_disabled": 0, "fusion_lon": 0.0, "fusion_lat": 0.0, "lat": 38.83191583333333, "type": "electric_bike", "lon": -77.07685833333333, "bike_id": "61586ddf0b2f8177f877ea7e5dca9475", "rental_uris": {"android": "https://dc.lft.to/lastmile_qr_scan", "ios": "https://dc.lft.to/lastmile_qr_scan"}, "name": "61586ddf0b2f8177f877ea7e5dca9475", "is_reserved": 0}, {"is_disabled": 0, "fusion_lon": 0.0, "fusion_lat": 0.0, "lat": 38.909647666666665, "type": "electric_scooter", "lon": -77.02283083333333, "bike_id": "72543c7e3996adfd44851cb48b29ebe2", "rental_uris": {"android": "https://dc.lft.to/lastmile_qr_scan", "ios": "https://dc.lft.to/lastmile_qr_scan"}, "name": "72543c7e3996adfd44851cb48b29ebe2", "is_reserved": 0}, {"is_disabled": 0, "fusion_lon": 0.0, "fusion_lat": 0.0, "lat": 38.925900666666664, "type": "electric_scooter", "lon": -77.05527333333333, "bike_id": "c94a69ce1344f3d797776b9dc966e3b4", "rental_uris": {"android": "https://dc.lft.to/lastmile_qr_scan", "ios": "https://dc.lft.to/lastmile_qr_scan"}, "name": "c94a69ce1344f3d797776b9dc966e3b4", "is_reserved": 0}, {"is_disabled": 0, "fusion_lon": 0.0, "fusion_lat": 0.0, "lat": 38.898429, "type": "electric_scooter", "lon": -76.9456565, "bike_id": "fd996f7ccec6caee6738b3edf9c5c8fe", "rental_uris": {"android": "https://dc.lft.to/lastmile_qr_scan", "ios": "https://dc.lft.to/lastmile_qr_scan"}, "name": "fd996f7ccec6caee6738b3edf9c5c8fe", "is_reserved": 0}, {"is_disabled": 0, "fusion_lon": 0.0, "fusion_lat": 0.0, "lat": 38.860305, "type": "electric_scooter", "lon": -76.99695716666666, "bike_id": "3b830e6d5cdbf0fb25759b3e2ab02d5e", "rental_uris": {"android": "https://dc.lft.to/lastmile_qr_scan", "ios": "https://dc.lft.to/lastmile_qr_scan"}, "name": "3b830e6d5cdbf0fb25759b3e2ab02d5e", "is_reserved": 0}, {"is_disabled": 0, "fusion_lon": 0.0, "fusion_lat": 0.0, "lat": 38.99933216666667, "type": "electric_bike", "lon": -77.00119533333333, "bike_id": "66337e907d5ac63dcf7d080260f3aa0a", "rental_uris": {"android": "https://dc.lft.to/lastmile_qr_scan", "ios": "https://dc.lft.to/lastmile_qr_scan"}, "name": "66337e907d5ac63dcf7d080260f3aa0a", "is_reserved": 0}, {"is_disabled": 0, "fusion_lon": 0.0, "fusion_lat": 0.0, "lat": 38.9035685, "type": "electric_scooter", "lon": -77.03928083333334, "bike_id": "ae5c0c88c3b148f73309ed1898c8e921", "rental_uris": {"android": "https://dc.lft.to/lastmile_qr_scan", "ios": "https://dc.lft.to/lastmile_qr_scan"}, "name": "ae5c0c88c3b148f73309ed1898c8e921", "is_reserved": 0}, {"is_disabled": 0, "fusion_lon": 0.0, "fusion_lat": 0.0, "lat": 39.0959225, "type": "electric_bike", "lon": -77.14777033333333, "bike_id": "ee4dbf3f2fe07b857f5569dd891f1264", "rental_uris": {"android": "https://dc.lft.to/lastmile_qr_scan", "ios": "https://dc.lft.to/lastmile_qr_scan"}, "name": "ee4dbf3f2fe07b857f5569dd891f1264", "is_reserved": 0}, {"is_disabled": 0, "fusion_lon": 0.0, "fusion_lat": 0.0, "lat": 38.90634033333333, "type": "electric_scooter", "lon": -77.0250085, "bike_id": "57e82ffa4ee78eed21995513faf27b7c", "rental_uris": {"android": "https://dc.lft.to/lastmile_qr_scan", "ios": "https://dc.lft.to/lastmile_qr_scan"}, "name": "57e82ffa4ee78eed21995513faf27b7c", "is_reserved": 0}, {"is_disabled": 0, "fusion_lon": 0.0, "fusion_lat": 0.0, "lat": 38.895013, "type": "electric_scooter", "lon": -76.94879383333334, "bike_id": "cc6a88f471fdf85f6c4e65e5b2a5eb41", "rental_uris": {"android": "https://dc.lft.to/lastmile_qr_scan", "ios": "https://dc.lft.to/lastmile_qr_scan"}, "name": "cc6a88f471fdf85f6c4e65e5b2a5eb41", "is_reserved": 0}, {"is_disabled": 0, "fusion_lon": 0.0, "fusion_lat": 0.0, "lat": 38.91940066666667, "type": "electric_scooter", "lon": -77.08136166666667, "bike_id": "61dbc2aa6034975448e5543fa6d97eda", "rental_uris": {"android": "https://dc.lft.to/lastmile_qr_scan", "ios": "https://dc.lft.to/lastmile_qr_scan"}, "name": "61dbc2aa6034975448e5543fa6d97eda", "is_reserved": 0}, {"is_disabled": 0, "fusion_lon": 0.0, "fusion_lat": 0.0, "lat": 38.89995833333333, "type": "electric_scooter", "lon": -77.03199183333334, "bike_id": "232b5bb8bb958917fdb60fe5ef6f51e2", "rental_uris": {"android": "https://dc.lft.to/lastmile_qr_scan", "ios": "https://dc.lft.to/lastmile_qr_scan"}, "name": "232b5bb8bb958917fdb60fe5ef6f51e2", "is_reserved": 0}, {"is_disabled": 0, "fusion_lon": 0.0, "fusion_lat": 0.0, "lat": 38.85525466666667, "type": "electric_bike", "lon": -77.10729166666667, "bike_id": "b335a99dc138f8bb1783a016b430c1b0", "rental_uris": {"android": "https://dc.lft.to/lastmile_qr_scan", "ios": "https://dc.lft.to/lastmile_qr_scan"}, "name": "b335a99dc138f8bb1783a016b430c1b0", "is_reserved": 0}, {"is_disabled": 0, "fusion_lon": 0.0, "fusion_lat": 0.0, "lat": 38.842886666666665, "type": "electric_scooter", "lon": -76.9995145, "bike_id": "f6e1cb38598a7384c32a9a5bb3054bd1", "rental_uris": {"android": "https://dc.lft.to/lastmile_qr_scan", "ios": "https://dc.lft.to/lastmile_qr_scan"}, "name": "f6e1cb38598a7384c32a9a5bb3054bd1", "is_reserved": 0}, {"is_disabled": 0, "fusion_lon": 0.0, "fusion_lat": 0.0, "lat": 38.88704233333333, "type": "electric_scooter", "lon": -76.95363333333333, "bike_id": "94bb0dcf4a8daccba00d9f91cf0efe76", "rental_uris": {"android": "https://dc.lft.to/lastmile_qr_scan", "ios": "https://dc.lft.to/lastmile_qr_scan"}, "name": "94bb0dcf4a8daccba00d9f91cf0efe76", "is_reserved": 0}, {"is_disabled": 0, "fusion_lon": 0.0, "fusion_lat": 0.0, "lat": 38.914051, "type": "electric_scooter", "lon": -77.04563966666667, "bike_id": "e532083365c157c2b9d9199e824f4c11", "rental_uris": {"android": "https://dc.lft.to/lastmile_qr_scan", "ios": "https://dc.lft.to/lastmile_qr_scan"}, "name": "e532083365c157c2b9d9199e824f4c11", "is_reserved": 0}, {"is_disabled": 0, "fusion_lon": 0.0, "fusion_lat": 0.0, "lat": 38.908327666666665, "type": "electric_scooter", "lon": -76.99697966666666, "bike_id": "c59d09434828ea749d1b6ac8b8d6b414", "rental_uris": {"android": "https://dc.lft.to/lastmile_qr_scan", "ios": "https://dc.lft.to/lastmile_qr_scan"}, "name": "c59d09434828ea749d1b6ac8b8d6b414", "is_reserved": 0}, {"is_disabled": 0, "fusion_lon": 0.0, "fusion_lat": 0.0, "lat": 38.9042835, "type": "electric_scooter", "lon": -77.05148366666667, "bike_id": "cf100dd7997f7fa1f924ba53991dfa92", "rental_uris": {"android": "https://dc.lft.to/lastmile_qr_scan", "ios": "https://dc.lft.to/lastmile_qr_scan"}, "name": "cf100dd7997f7fa1f924ba53991dfa92", "is_reserved": 0}, {"is_disabled": 0, "fusion_lon": 0.0, "fusion_lat": 0.0, "lat": 38.9006615, "type": "electric_scooter", "lon": -77.04995766666667, "bike_id": "2422e7481b40839a25cacb1e54359973", "rental_uris": {"android": "https://dc.lft.to/lastmile_qr_scan", "ios": "https://dc.lft.to/lastmile_qr_scan"}, "name": "2422e7481b40839a25cacb1e54359973", "is_reserved": 0}, {"is_disabled": 0, "fusion_lon": 0.0, "fusion_lat": 0.0, "lat": 38.91660183333333, "type": "electric_scooter", "lon": -77.02812966666667, "bike_id": "348b19f4799c2900a9f67d9f1961c701", "rental_uris": {"android": "https://dc.lft.to/lastmile_qr_scan", "ios": "https://dc.lft.to/lastmile_qr_scan"}, "name": "348b19f4799c2900a9f67d9f1961c701", "is_reserved": 0}, {"is_disabled": 0, "fusion_lon": 0.0, "fusion_lat": 0.0, "lat": 38.91302566666667, "type": "electric_scooter", "lon": -77.03214366666667, "bike_id": "867b7d868b8f29bc5f0dae297f4d02ca", "rental_uris": {"android": "https://dc.lft.to/lastmile_qr_scan", "ios": "https://dc.lft.to/lastmile_qr_scan"}, "name": "867b7d868b8f29bc5f0dae297f4d02ca", "is_reserved": 0}, {"is_disabled": 0, "fusion_lon": 0.0, "fusion_lat": 0.0, "lat": 38.89997416666667, "type": "electric_scooter", "lon": -77.03202, "bike_id": "071cdefb11e0ad6879e5a43aed9d6212", "rental_uris": {"android": "https://dc.lft.to/lastmile_qr_scan", "ios": "https://dc.lft.to/lastmile_qr_scan"}, "name": "071cdefb11e0ad6879e5a43aed9d6212", "is_reserved": 0}, {"is_disabled": 0, "fusion_lon": 0.0, "fusion_lat": 0.0, "lat": 38.907139, "type": "electric_scooter", "lon": -77.02717216666667, "bike_id": "5879632d94391e8a648b3c5294522049", "rental_uris": {"android": "https://dc.lft.to/lastmile_qr_scan", "ios": "https://dc.lft.to/lastmile_qr_scan"}, "name": "5879632d94391e8a648b3c5294522049", "is_reserved": 0}, {"is_disabled": 0, "fusion_lon": 0.0, "fusion_lat": 0.0, "lat": 38.9560255, "type": "electric_scooter", "lon": -77.03628116666667, "bike_id": "28d53b3f1f61f4dd0f9e41d1ddac9a0a", "rental_uris": {"android": "https://dc.lft.to/lastmile_qr_scan", "ios": "https://dc.lft.to/lastmile_qr_scan"}, "name": "28d53b3f1f61f4dd0f9e41d1ddac9a0a", "is_reserved": 0}, {"is_disabled": 0, "fusion_lon": 0.0, "fusion_lat": 0.0, "lat": 38.8450945, "type": "electric_bike", "lon": -76.9721225, "bike_id": "74101d07cfcf40574b99dc32eae44291", "rental_uris": {"android": "https://dc.lft.to/lastmile_qr_scan", "ios": "https://dc.lft.to/lastmile_qr_scan"}, "name": "74101d07cfcf40574b99dc32eae44291", "is_reserved": 0}, {"is_disabled": 0, "fusion_lon": 0.0, "fusion_lat": 0.0, "lat": 38.894019166666666, "type": "electric_bike", "lon": -76.98279066666667, "bike_id": "a1970dd8b9954bd5472da2426d7daade", "rental_uris": {"android": "https://dc.lft.to/lastmile_qr_scan", "ios": "https://dc.lft.to/lastmile_qr_scan"}, "name": "a1970dd8b9954bd5472da2426d7daade", "is_reserved": 0}, {"is_disabled": 0, "fusion_lon": 0.0, "fusion_lat": 0.0, "lat": 38.92034116666667, "type": "electric_scooter", "lon": -77.02587616666666, "bike_id": "aaa564174904a18ee4b7b29a301167f0", "rental_uris": {"android": "https://dc.lft.to/lastmile_qr_scan", "ios": "https://dc.lft.to/lastmile_qr_scan"}, "name": "aaa564174904a18ee4b7b29a301167f0", "is_reserved": 0}, {"is_disabled": 0, "fusion_lon": 0.0, "fusion_lat": 0.0, "lat": 38.88512383333333, "type": "electric_scooter", "lon": -76.99848583333333, "bike_id": "81424bd4c97613482885096766838a5c", "rental_uris": {"android": "https://dc.lft.to/lastmile_qr_scan", "ios": "https://dc.lft.to/lastmile_qr_scan"}, "name": "81424bd4c97613482885096766838a5c", "is_reserved": 0}, {"is_disabled": 0, "fusion_lon": 0.0, "fusion_lat": 0.0, "lat": 38.87542083333334, "type": "electric_scooter", "lon": -77.00537583333333, "bike_id": "22408e53e2a69cba458a22e59c183e66", "rental_uris": {"android": "https://dc.lft.to/lastmile_qr_scan", "ios": "https://dc.lft.to/lastmile_qr_scan"}, "name": "22408e53e2a69cba458a22e59c183e66", "is_reserved": 0}, {"is_disabled": 0, "fusion_lon": 0.0, "fusion_lat": 0.0, "lat": 38.9521105, "type": "electric_scooter", "lon": -77.03631483333334, "bike_id": "2b826948c2671b8eba601cd3bc324128", "rental_uris": {"android": "https://dc.lft.to/lastmile_qr_scan", "ios": "https://dc.lft.to/lastmile_qr_scan"}, "name": "2b826948c2671b8eba601cd3bc324128", "is_reserved": 0}, {"is_disabled": 0, "fusion_lon": 0.0, "fusion_lat": 0.0, "lat": 38.89522933333333, "type": "electric_scooter", "lon": -77.02838883333334, "bike_id": "1217643ee0062d2abcf5a18ee4589454", "rental_uris": {"android": "https://dc.lft.to/lastmile_qr_scan", "ios": "https://dc.lft.to/lastmile_qr_scan"}, "name": "1217643ee0062d2abcf5a18ee4589454", "is_reserved": 0}, {"is_disabled": 0, "fusion_lon": 0.0, "fusion_lat": 0.0, "lat": 38.988246833333335, "type": "electric_bike", "lon": -76.98748066666667, "bike_id": "d52e43a69dcfa59bf160359580b12fcf", "rental_uris": {"android": "https://dc.lft.to/lastmile_qr_scan", "ios": "https://dc.lft.to/lastmile_qr_scan"}, "name": "d52e43a69dcfa59bf160359580b12fcf", "is_reserved": 0}, {"is_disabled": 0, "fusion_lon": 0.0, "fusion_lat": 0.0, "lat": 38.9070305, "type": "electric_scooter", "lon": -77.02695516666667, "bike_id": "bec4eb23950d3fda1ad9d114736f6bd7", "rental_uris": {"android": "https://dc.lft.to/lastmile_qr_scan", "ios": "https://dc.lft.to/lastmile_qr_scan"}, "name": "bec4eb23950d3fda1ad9d114736f6bd7", "is_reserved": 0}, {"is_disabled": 0, "fusion_lon": 0.0, "fusion_lat": 0.0, "lat": 38.90952466666667, "type": "electric_scooter", "lon": -77.03283366666666, "bike_id": "b80bdb0bb25da6bf62cba1174598d4d2", "rental_uris": {"android": "https://dc.lft.to/lastmile_qr_scan", "ios": "https://dc.lft.to/lastmile_qr_scan"}, "name": "b80bdb0bb25da6bf62cba1174598d4d2", "is_reserved": 0}, {"is_disabled": 0, "fusion_lon": 0.0, "fusion_lat": 0.0, "lat": 38.886299666666666, "type": "electric_scooter", "lon": -76.99851716666667, "bike_id": "894592d225fdfb49044cd53701449d51", "rental_uris": {"android": "https://dc.lft.to/lastmile_qr_scan", "ios": "https://dc.lft.to/lastmile_qr_scan"}, "name": "894592d225fdfb49044cd53701449d51", "is_reserved": 0}, {"is_disabled": 0, "fusion_lon": 0.0, "fusion_lat": 0.0, "lat": 38.838094, "type": "electric_scooter", "lon": -77.0043385, "bike_id": "6f659311128216987ff1aa98c783a49c", "rental_uris": {"android": "https://dc.lft.to/lastmile_qr_scan", "ios": "https://dc.lft.to/lastmile_qr_scan"}, "name": "6f659311128216987ff1aa98c783a49c", "is_reserved": 0}, {"is_disabled": 0, "fusion_lon": 0.0, "fusion_lat": 0.0, "lat": 38.842945, "type": "electric_scooter", "lon": -76.9995235, "bike_id": "0cc5b1b56389b233afefe7b3f4beeff5", "rental_uris": {"android": "https://dc.lft.to/lastmile_qr_scan", "ios": "https://dc.lft.to/lastmile_qr_scan"}, "name": "0cc5b1b56389b233afefe7b3f4beeff5", "is_reserved": 0}, {"is_disabled": 0, "fusion_lon": 0.0, "fusion_lat": 0.0, "lat": 38.907976833333336, "type": "electric_scooter", "lon": -77.0498565, "bike_id": "f7a05eeca52c585c4c51ff7b8633b7ab", "rental_uris": {"android": "https://dc.lft.to/lastmile_qr_scan", "ios": "https://dc.lft.to/lastmile_qr_scan"}, "name": "f7a05eeca52c585c4c51ff7b8633b7ab", "is_reserved": 0}, {"is_disabled": 0, "fusion_lon": 0.0, "fusion_lat": 0.0, "lat": 38.897408166666665, "type": "electric_scooter", "lon": -77.028287, "bike_id": "02e50ae8ed48095b3c0bae8517b0a56d", "rental_uris": {"android": "https://dc.lft.to/lastmile_qr_scan", "ios": "https://dc.lft.to/lastmile_qr_scan"}, "name": "02e50ae8ed48095b3c0bae8517b0a56d", "is_reserved": 0}, {"is_disabled": 0, "fusion_lon": 0.0, "fusion_lat": 0.0, "lat": 38.92153166666667, "type": "electric_scooter", "lon": -77.03382266666667, "bike_id": "c528952975a950904a3f9f5034dc0787", "rental_uris": {"android": "https://dc.lft.to/lastmile_qr_scan", "ios": "https://dc.lft.to/lastmile_qr_scan"}, "name": "c528952975a950904a3f9f5034dc0787", "is_reserved": 0}, {"is_disabled": 0, "fusion_lon": 0.0, "fusion_lat": 0.0, "lat": 39.0994305, "type": "electric_bike", "lon": -77.18789333333334, "bike_id": "d7bc27413b756b77f9648378feb56823", "rental_uris": {"android": "https://dc.lft.to/lastmile_qr_scan", "ios": "https://dc.lft.to/lastmile_qr_scan"}, "name": "d7bc27413b756b77f9648378feb56823", "is_reserved": 0}, {"is_disabled": 0, "fusion_lon": 0.0, "fusion_lat": 0.0, "lat": 38.894619, "type": "electric_scooter", "lon": -76.99491516666667, "bike_id": "7e163b21934d07fa299ff0c6230d5b70", "rental_uris": {"android": "https://dc.lft.to/lastmile_qr_scan", "ios": "https://dc.lft.to/lastmile_qr_scan"}, "name": "7e163b21934d07fa299ff0c6230d5b70", "is_reserved": 0}, {"is_disabled": 0, "fusion_lon": 0.0, "fusion_lat": 0.0, "lat": 38.90299533333334, "type": "electric_scooter", "lon": -77.02217083333333, "bike_id": "e13a732cad294d251af0b26f67b22f36", "rental_uris": {"android": "https://dc.lft.to/lastmile_qr_scan", "ios": "https://dc.lft.to/lastmile_qr_scan"}, "name": "e13a732cad294d251af0b26f67b22f36", "is_reserved": 0}, {"is_disabled": 0, "fusion_lon": 0.0, "fusion_lat": 0.0, "lat": 38.907225, "type": "electric_scooter", "lon": -77.02981566666666, "bike_id": "46dee029d43f88e4b46245728c4c26dc", "rental_uris": {"android": "https://dc.lft.to/lastmile_qr_scan", "ios": "https://dc.lft.to/lastmile_qr_scan"}, "name": "46dee029d43f88e4b46245728c4c26dc", "is_reserved": 0}, {"is_disabled": 0, "fusion_lon": 0.0, "fusion_lat": 0.0, "lat": 38.93497833333333, "type": "electric_bike", "lon": -76.949589, "bike_id": "d3ca3270f982c43084401cc3d753f146", "rental_uris": {"android": "https://dc.lft.to/lastmile_qr_scan", "ios": "https://dc.lft.to/lastmile_qr_scan"}, "name": "d3ca3270f982c43084401cc3d753f146", "is_reserved": 0}, {"is_disabled": 0, "fusion_lon": 0.0, "fusion_lat": 0.0, "lat": 38.89879716666667, "type": "electric_scooter", "lon": -76.93163483333333, "bike_id": "7966a9fa7807b33a5cd465f7d0f84cc3", "rental_uris": {"android": "https://dc.lft.to/lastmile_qr_scan", "ios": "https://dc.lft.to/lastmile_qr_scan"}, "name": "7966a9fa7807b33a5cd465f7d0f84cc3", "is_reserved": 0}, {"is_disabled": 0, "fusion_lon": 0.0, "fusion_lat": 0.0, "lat": 38.91173083333334, "type": "electric_scooter", "lon": -77.031913, "bike_id": "541c604e4e213e62582af960e09cb4ab", "rental_uris": {"android": "https://dc.lft.to/lastmile_qr_scan", "ios": "https://dc.lft.to/lastmile_qr_scan"}, "name": "541c604e4e213e62582af960e09cb4ab", "is_reserved": 0}, {"is_disabled": 0, "fusion_lon": 0.0, "fusion_lat": 0.0, "lat": 38.90642033333334, "type": "electric_bike", "lon": -77.06425233333333, "bike_id": "16803108e74ea50d102e58a45aabc362", "rental_uris": {"android": "https://dc.lft.to/lastmile_qr_scan", "ios": "https://dc.lft.to/lastmile_qr_scan"}, "name": "16803108e74ea50d102e58a45aabc362", "is_reserved": 0}, {"is_disabled": 0, "fusion_lon": 0.0, "fusion_lat": 0.0, "lat": 38.9086615, "type": "electric_scooter", "lon": -77.03555183333333, "bike_id": "0623c41a0a9a527baa089e28c5c697e9", "rental_uris": {"android": "https://dc.lft.to/lastmile_qr_scan", "ios": "https://dc.lft.to/lastmile_qr_scan"}, "name": "0623c41a0a9a527baa089e28c5c697e9", "is_reserved": 0}, {"is_disabled": 0, "fusion_lon": 0.0, "fusion_lat": 0.0, "lat": 38.92496, "type": "electric_scooter", "lon": -76.99567716666667, "bike_id": "acdf3f171b5a76a114f2635abc8b3f33", "rental_uris": {"android": "https://dc.lft.to/lastmile_qr_scan", "ios": "https://dc.lft.to/lastmile_qr_scan"}, "name": "acdf3f171b5a76a114f2635abc8b3f33", "is_reserved": 0}, {"is_disabled": 0, "fusion_lon": 0.0, "fusion_lat": 0.0, "lat": 38.841057166666666, "type": "electric_bike", "lon": -77.08947516666667, "bike_id": "8d2aeadeed4b2392d00dc28d285db924", "rental_uris": {"android": "https://dc.lft.to/lastmile_qr_scan", "ios": "https://dc.lft.to/lastmile_qr_scan"}, "name": "8d2aeadeed4b2392d00dc28d285db924", "is_reserved": 0}, {"is_disabled": 0, "fusion_lon": 0.0, "fusion_lat": 0.0, "lat": 38.8761915, "type": "electric_scooter", "lon": -76.96542333333333, "bike_id": "88d5be6bc22ecb7896964fb1b0b8d581", "rental_uris": {"android": "https://dc.lft.to/lastmile_qr_scan", "ios": "https://dc.lft.to/lastmile_qr_scan"}, "name": "88d5be6bc22ecb7896964fb1b0b8d581", "is_reserved": 0}, {"is_disabled": 0, "fusion_lon": 0.0, "fusion_lat": 0.0, "lat": 38.841032, "type": "electric_bike", "lon": -77.0894465, "bike_id": "4045f54452cd152b132fd724460eadea", "rental_uris": {"android": "https://dc.lft.to/lastmile_qr_scan", "ios": "https://dc.lft.to/lastmile_qr_scan"}, "name": "4045f54452cd152b132fd724460eadea", "is_reserved": 0}, {"is_disabled": 0, "fusion_lon": 0.0, "fusion_lat": 0.0, "lat": 38.943018, "type": "electric_scooter", "lon": -77.033543, "bike_id": "d4af1667305a2a9e42df82ef13aa38cf", "rental_uris": {"android": "https://dc.lft.to/lastmile_qr_scan", "ios": "https://dc.lft.to/lastmile_qr_scan"}, "name": "d4af1667305a2a9e42df82ef13aa38cf", "is_reserved": 0}, {"is_disabled": 0, "fusion_lon": 0.0, "fusion_lat": 0.0, "lat": 38.9644855, "type": "electric_bike", "lon": -76.97725516666667, "bike_id": "e7864b6afa3d2673924bb784c7e991d8", "rental_uris": {"android": "https://dc.lft.to/lastmile_qr_scan", "ios": "https://dc.lft.to/lastmile_qr_scan"}, "name": "e7864b6afa3d2673924bb784c7e991d8", "is_reserved": 0}, {"is_disabled": 0, "fusion_lon": 0.0, "fusion_lat": 0.0, "lat": 38.88746183333333, "type": "electric_scooter", "lon": -77.01609033333334, "bike_id": "f64fc43c9fb62d30168ab6ca6f37ee0d", "rental_uris": {"android": "https://dc.lft.to/lastmile_qr_scan", "ios": "https://dc.lft.to/lastmile_qr_scan"}, "name": "f64fc43c9fb62d30168ab6ca6f37ee0d", "is_reserved": 0}, {"is_disabled": 0, "fusion_lon": 0.0, "fusion_lat": 0.0, "lat": 39.0299715, "type": "electric_bike", "lon": -77.10653716666667, "bike_id": "48c4ace5e198c49791315d8a9b645e51", "rental_uris": {"android": "https://dc.lft.to/lastmile_qr_scan", "ios": "https://dc.lft.to/lastmile_qr_scan"}, "name": "48c4ace5e198c49791315d8a9b645e51", "is_reserved": 0}, {"is_disabled": 0, "fusion_lon": 0.0, "fusion_lat": 0.0, "lat": 38.8429075, "type": "electric_scooter", "lon": -76.99950216666667, "bike_id": "8e9a2558f3ed840414a52d699b130d97", "rental_uris": {"android": "https://dc.lft.to/lastmile_qr_scan", "ios": "https://dc.lft.to/lastmile_qr_scan"}, "name": "8e9a2558f3ed840414a52d699b130d97", "is_reserved": 0}, {"is_disabled": 0, "fusion_lon": 0.0, "fusion_lat": 0.0, "lat": 38.928849166666666, "type": "electric_scooter", "lon": -77.023093, "bike_id": "2a808e9408747598c426cbd75114e636", "rental_uris": {"android": "https://dc.lft.to/lastmile_qr_scan", "ios": "https://dc.lft.to/lastmile_qr_scan"}, "name": "2a808e9408747598c426cbd75114e636", "is_reserved": 0}, {"is_disabled": 0, "fusion_lon": 0.0, "fusion_lat": 0.0, "lat": 38.94052283333333, "type": "electric_scooter", "lon": -77.02497083333333, "bike_id": "b2908b64b44dcf436ea7c710eac49d06", "rental_uris": {"android": "https://dc.lft.to/lastmile_qr_scan", "ios": "https://dc.lft.to/lastmile_qr_scan"}, "name": "b2908b64b44dcf436ea7c710eac49d06", "is_reserved": 0}, {"is_disabled": 0, "fusion_lon": 0.0, "fusion_lat": 0.0, "lat": 38.8995165, "type": "electric_scooter", "lon": -77.05218616666667, "bike_id": "caa64cd574bce5ab3263c9518bb6e75f", "rental_uris": {"android": "https://dc.lft.to/lastmile_qr_scan", "ios": "https://dc.lft.to/lastmile_qr_scan"}, "name": "caa64cd574bce5ab3263c9518bb6e75f", "is_reserved": 0}, {"is_disabled": 0, "fusion_lon": 0.0, "fusion_lat": 0.0, "lat": 38.90531566666667, "type": "electric_scooter", "lon": -76.98784716666667, "bike_id": "2f9a8ffa6e5c5fb8aedc5b80678088e5", "rental_uris": {"android": "https://dc.lft.to/lastmile_qr_scan", "ios": "https://dc.lft.to/lastmile_qr_scan"}, "name": "2f9a8ffa6e5c5fb8aedc5b80678088e5", "is_reserved": 0}, {"is_disabled": 0, "fusion_lon": 0.0, "fusion_lat": 0.0, "lat": 38.8930745, "type": "electric_scooter", "lon": -77.0221065, "bike_id": "9d00b2be09e02b2e7fb10c9fff29dde0", "rental_uris": {"android": "https://dc.lft.to/lastmile_qr_scan", "ios": "https://dc.lft.to/lastmile_qr_scan"}, "name": "9d00b2be09e02b2e7fb10c9fff29dde0", "is_reserved": 0}, {"is_disabled": 0, "fusion_lon": 0.0, "fusion_lat": 0.0, "lat": 38.910330333333334, "type": "electric_scooter", "lon": -77.04058416666666, "bike_id": "b66575c0b81c6cd1a1cd06fed0306a48", "rental_uris": {"android": "https://dc.lft.to/lastmile_qr_scan", "ios": "https://dc.lft.to/lastmile_qr_scan"}, "name": "b66575c0b81c6cd1a1cd06fed0306a48", "is_reserved": 0}, {"is_disabled": 0, "fusion_lon": 0.0, "fusion_lat": 0.0, "lat": 38.905026666666664, "type": "electric_scooter", "lon": -76.98854116666666, "bike_id": "ef19ea78c5942ca8b0eaae4ba0b598db", "rental_uris": {"android": "https://dc.lft.to/lastmile_qr_scan", "ios": "https://dc.lft.to/lastmile_qr_scan"}, "name": "ef19ea78c5942ca8b0eaae4ba0b598db", "is_reserved": 0}, {"is_disabled": 0, "fusion_lon": 0.0, "fusion_lat": 0.0, "lat": 38.89372866666667, "type": "electric_scooter", "lon": -76.95000083333333, "bike_id": "0c90ce4b5815f0795e8b8546f4e659f1", "rental_uris": {"android": "https://dc.lft.to/lastmile_qr_scan", "ios": "https://dc.lft.to/lastmile_qr_scan"}, "name": "0c90ce4b5815f0795e8b8546f4e659f1", "is_reserved": 0}, {"is_disabled": 0, "fusion_lon": 0.0, "fusion_lat": 0.0, "lat": 38.89228966666667, "type": "electric_scooter", "lon": -77.04362033333334, "bike_id": "d122951dd765796f2ec9f0a110a54583", "rental_uris": {"android": "https://dc.lft.to/lastmile_qr_scan", "ios": "https://dc.lft.to/lastmile_qr_scan"}, "name": "d122951dd765796f2ec9f0a110a54583", "is_reserved": 0}, {"is_disabled": 0, "fusion_lon": 0.0, "fusion_lat": 0.0, "lat": 38.952819833333336, "type": "electric_scooter", "lon": -77.06852166666667, "bike_id": "294618bedfa73cadec68ae61f8bf605e", "rental_uris": {"android": "https://dc.lft.to/lastmile_qr_scan", "ios": "https://dc.lft.to/lastmile_qr_scan"}, "name": "294618bedfa73cadec68ae61f8bf605e", "is_reserved": 0}, {"is_disabled": 0, "fusion_lon": 0.0, "fusion_lat": 0.0, "lat": 38.926186333333334, "type": "electric_scooter", "lon": -77.0570865, "bike_id": "4270750a3b19774f437de7780fdcf696", "rental_uris": {"android": "https://dc.lft.to/lastmile_qr_scan", "ios": "https://dc.lft.to/lastmile_qr_scan"}, "name": "4270750a3b19774f437de7780fdcf696", "is_reserved": 0}, {"is_disabled": 0, "fusion_lon": 0.0, "fusion_lat": 0.0, "lat": 38.936036333333334, "type": "electric_scooter", "lon": -77.05860766666666, "bike_id": "a815e570524419c474965fc65ccd8d5e", "rental_uris": {"android": "https://dc.lft.to/lastmile_qr_scan", "ios": "https://dc.lft.to/lastmile_qr_scan"}, "name": "a815e570524419c474965fc65ccd8d5e", "is_reserved": 0}, {"is_disabled": 0, "fusion_lon": 0.0, "fusion_lat": 0.0, "lat": 38.8988935, "type": "electric_scooter", "lon": -77.03960433333333, "bike_id": "c192360a009e35a464ce89e96af20c23", "rental_uris": {"android": "https://dc.lft.to/lastmile_qr_scan", "ios": "https://dc.lft.to/lastmile_qr_scan"}, "name": "c192360a009e35a464ce89e96af20c23", "is_reserved": 0}, {"is_disabled": 0, "fusion_lon": 0.0, "fusion_lat": 0.0, "lat": 38.940862, "type": "electric_scooter", "lon": -77.0381855, "bike_id": "3ed89f652a1d4bb74a69daf7a692f348", "rental_uris": {"android": "https://dc.lft.to/lastmile_qr_scan", "ios": "https://dc.lft.to/lastmile_qr_scan"}, "name": "3ed89f652a1d4bb74a69daf7a692f348", "is_reserved": 0}, {"is_disabled": 0, "fusion_lon": 0.0, "fusion_lat": 0.0, "lat": 38.8792055, "type": "electric_scooter", "lon": -76.94504166666667, "bike_id": "13186306e434c0f6cd60844b6b49ced0", "rental_uris": {"android": "https://dc.lft.to/lastmile_qr_scan", "ios": "https://dc.lft.to/lastmile_qr_scan"}, "name": "13186306e434c0f6cd60844b6b49ced0", "is_reserved": 0}, {"is_disabled": 0, "fusion_lon": 0.0, "fusion_lat": 0.0, "lat": 38.909591666666664, "type": "electric_scooter", "lon": -77.0394275, "bike_id": "e2b2966160d4c4f520c95a95f97e654e", "rental_uris": {"android": "https://dc.lft.to/lastmile_qr_scan", "ios": "https://dc.lft.to/lastmile_qr_scan"}, "name": "e2b2966160d4c4f520c95a95f97e654e", "is_reserved": 0}, {"is_disabled": 0, "fusion_lon": 0.0, "fusion_lat": 0.0, "lat": 38.90135266666667, "type": "electric_scooter", "lon": -77.03987066666667, "bike_id": "1c7cfbbd2ee7a3627f0cb49a194e10ed", "rental_uris": {"android": "https://dc.lft.to/lastmile_qr_scan", "ios": "https://dc.lft.to/lastmile_qr_scan"}, "name": "1c7cfbbd2ee7a3627f0cb49a194e10ed", "is_reserved": 0}, {"is_disabled": 0, "fusion_lon": 0.0, "fusion_lat": 0.0, "lat": 38.91557666666667, "type": "electric_scooter", "lon": -77.03838416666666, "bike_id": "fb592ee881b660ed543d896464595d07", "rental_uris": {"android": "https://dc.lft.to/lastmile_qr_scan", "ios": "https://dc.lft.to/lastmile_qr_scan"}, "name": "fb592ee881b660ed543d896464595d07", "is_reserved": 0}, {"is_disabled": 0, "fusion_lon": 0.0, "fusion_lat": 0.0, "lat": 38.887338, "type": "electric_scooter", "lon": -77.01751483333334, "bike_id": "72159758656acae2841deb721042b721", "rental_uris": {"android": "https://dc.lft.to/lastmile_qr_scan", "ios": "https://dc.lft.to/lastmile_qr_scan"}, "name": "72159758656acae2841deb721042b721", "is_reserved": 0}, {"is_disabled": 0, "fusion_lon": 0.0, "fusion_lat": 0.0, "lat": 38.893496666666664, "type": "electric_scooter", "lon": -76.984732, "bike_id": "ab65f2754c22c48056534009b1cc2f23", "rental_uris": {"android": "https://dc.lft.to/lastmile_qr_scan", "ios": "https://dc.lft.to/lastmile_qr_scan"}, "name": "ab65f2754c22c48056534009b1cc2f23", "is_reserved": 0}, {"is_disabled": 0, "fusion_lon": 0.0, "fusion_lat": 0.0, "lat": 38.91817616666667, "type": "electric_scooter", "lon": -77.0344615, "bike_id": "f311b52b39eb6e4c2fa16c36b1afac45", "rental_uris": {"android": "https://dc.lft.to/lastmile_qr_scan", "ios": "https://dc.lft.to/lastmile_qr_scan"}, "name": "f311b52b39eb6e4c2fa16c36b1afac45", "is_reserved": 0}, {"is_disabled": 0, "fusion_lon": 0.0, "fusion_lat": 0.0, "lat": 38.89354483333334, "type": "electric_scooter", "lon": -77.0222395, "bike_id": "669e1f85b02fa6a0236c6d86e0c2599e", "rental_uris": {"android": "https://dc.lft.to/lastmile_qr_scan", "ios": "https://dc.lft.to/lastmile_qr_scan"}, "name": "669e1f85b02fa6a0236c6d86e0c2599e", "is_reserved": 0}, {"is_disabled": 0, "fusion_lon": 0.0, "fusion_lat": 0.0, "lat": 38.880178666666666, "type": "electric_scooter", "lon": -76.98236366666667, "bike_id": "7c002e730e2291b14f44fb346cb1479e", "rental_uris": {"android": "https://dc.lft.to/lastmile_qr_scan", "ios": "https://dc.lft.to/lastmile_qr_scan"}, "name": "7c002e730e2291b14f44fb346cb1479e", "is_reserved": 0},