{"data": {"bikes": [{"type": "electric_scooter", "rental_uris": {"ios": "https://dc.lft.to/lastmile_qr_scan", "android": "https://dc.lft.to/lastmile_qr_scan"}, "lon": -76.98073683333334, "fusion_lon": 0.0, "is_disabled": 0, "lat": 38.9195295, "bike_id": "7bdddb6015307eda1cc198ee44f03b65", "name": "7bdddb6015307eda1cc198ee44f03b65", "is_reserved": 0, "fusion_lat": 0.0}, {"type": "electric_scooter", "rental_uris": {"ios": "https://dc.lft.to/lastmile_qr_scan", "android": "https://dc.lft.to/lastmile_qr_scan"}, "lon": -77.01133316666666, "fusion_lon": 0.0, "is_disabled": 0, "lat": 38.88525166666667, "bike_id": "584d354b841df3b73899c1c391061d3c", "name": "584d354b841df3b73899c1c391061d3c", "is_reserved": 0, "fusion_lat": 0.0}, {"type": "electric_scooter", "rental_uris": {"ios": "https://dc.lft.to/lastmile_qr_scan", "android": "https://dc.lft.to/lastmile_qr_scan"}, "lon": -77.03422966666666, "fusion_lon": 0.0, "is_disabled": 0, "lat": 38.93093733333333, "bike_id": "3f8e42ef11371625af7e2d2546a89c63", "name": "3f8e42ef11371625af7e2d2546a89c63", "is_reserved": 0, "fusion_lat": 0.0}, {"type": "electric_bike", "rental_uris": {"ios": "https://dc.lft.to/lastmile_qr_scan", "android": "https://dc.lft.to/lastmile_qr_scan"}, "lon": -77.0100895, "fusion_lon": 0.0, "is_disabled": 0, "lat": 38.95590516666667, "bike_id": "651bf45f6150d242af859a474447091f", "name": "651bf45f6150d242af859a474447091f", "is_reserved": 0, "fusion_lat": 0.0}, {"type": "electric_scooter", "rental_uris": {"ios": "https://dc.lft.to/lastmile_qr_scan", "android": "https://dc.lft.to/lastmile_qr_scan"}, "lon": -77.03877583333333, "fusion_lon": 0.0, "is_disabled": 0, "lat": 38.90250783333333, "bike_id": "a1ecf53590c97d9385d28f6ee0ccd6d4", "name": "a1ecf53590c97d9385d28f6ee0ccd6d4", "is_reserved": 0, "fusion_lat": 0.0}, {"type": "electric_bike", "rental_uris": {"ios": "https://dc.lft.to/lastmile_qr_scan", "android": "https://dc.lft.to/lastmile_qr_scan"}, "lon": -77.03318616666667, "fusion_lon": 0.0, "is_disabled": 0, "lat": 38.92628533333333, "bike_id": "9c825ea18a5fe2d32e540d8517569c82", "name": "9c825ea18a5fe2d32e540d8517569c82", "is_reserved": 0, "fusion_lat": 0.0}, {"type": "electric_bike", "rental_uris": {"ios": "https://dc.lft.to/lastmile_qr_scan", "android": "https://dc.lft.to/lastmile_qr_scan"}, "lon": -77.08609, "fusion_lon": 0.0, "is_disabled": 0, "lat": 38.85941366666667, "bike_id": "b11119997ed2bc6d9aa9f51e75493e5f", "name": "b11119997ed2bc6d9aa9f51e75493e5f", "is_reserved": 0, "fusion_lat": 0.0}, {"type": "electric_scooter", "rental_uris": {"ios": "https://dc.lft.to/lastmile_qr_scan", "android": "https://dc.lft.to/lastmile_qr_scan"}, "lon": -77.02723283333333, "fusion_lon": 0.0, "is_disabled": 0, "lat": 38.93250783333333, "bike_id": "44d51d8fbd5f8835b132a0e484a7e2b7", "name": "44d51d8fbd5f8835b132a0e484a7e2b7", "is_reserved": 0, "fusion_lat": 0.0}, {"type": "electric_scooter", "rental_uris": {"ios": "https://dc.lft.to/lastmile_qr_scan", "android": "https://dc.lft.to/lastmile_qr_scan"}, "lon": -76.97704766666666, "fusion_lon": 0.0, "is_disabled": 0, "lat": 38.90256883333333, "bike_id": "e34439b7c3a53a38e6e92c90e3884f50", "name": "e34439b7c3a53a38e6e92c90e3884f50", "is_reserved": 0, "fusion_lat": 0.0}, {"type": "electric_scooter", "rental_uris": {"ios": "https://dc.lft.to/lastmile_qr_scan", "android": "https://dc.lft.to/lastmile_qr_scan"}, "lon": -77.042208, "fusion_lon": 0.0, "is_disabled": 0, "lat": 38.921757166666666, "bike_id": "aeef17c1b0a046821c89ae909cb1317e", "name": "aeef17c1b0a046821c89ae909cb1317e", "is_reserved": 0, "fusion_lat": 0.0}, {"type": "electric_scooter", "rental_uris": {"ios": "https://dc.lft.to/lastmile_qr_scan", "android": "https://dc.lft.to/lastmile_qr_scan"}, "lon": -77.01748833333333, "fusion_lon": 0.0, "is_disabled": 0, "lat": 38.92033266666667, "bike_id": "f8c3afced834425b0244ba4a97754f03", "name": "f8c3afced834425b0244ba4a97754f03", "is_reserved": 0, "fusion_lat": 0.0}, {"type": "electric_scooter", "rental_uris": {"ios": "https://dc.lft.to/lastmile_qr_scan", "android": "https://dc.lft.to/lastmile_qr_scan"}, "lon": -77.04367716666667, "fusion_lon": 0.0, "is_disabled": 0, "lat": 38.933294, "bike_id": "297bc931d3de26741ea1c161a87cdc3c", "name": "297bc931d3de26741ea1c161a87cdc3c", "is_reserved": 0, "fusion_lat": 0.0}, {"type": "electric_scooter", "rental_uris": {"ios": "https://dc.lft.to/lastmile_qr_scan", "android": "https://dc.lft.to/lastmile_qr_scan"}, "lon": -77.03956716666667, "fusion_lon": 0.0, "is_disabled": 0, "lat": 38.89241283333333, "bike_id": "ed887ab70038c5bc755a3bd703535b5f", "name": "ed887ab70038c5bc755a3bd703535b5f", "is_reserved": 0, "fusion_lat": 0.0}, {"type": "electric_scooter", "rental_uris": {"ios": "https://dc.lft.to/lastmile_qr_scan", "android": "https://dc.lft.to/lastmile_qr_scan"}, "lon": -77.026514, "fusion_lon": 0.0, "is_disabled": 0, "lat": 38.892221166666666, "bike_id": "b205860593d742d075c78cb002dac4fd", "name": "b205860593d742d075c78cb002dac4fd", "is_reserved": 0, "fusion_lat": 0.0}, {"type": "electric_scooter", "rental_uris": {"ios": "https://dc.lft.to/lastmile_qr_scan", "android": "https://dc.lft.to/lastmile_qr_scan"}, "lon": -77.00465283333334, "fusion_lon": 0.0, "is_disabled": 0, "lat": 38.911063166666665, "bike_id": "1077a6d6a86537b858d5dcbcd7ea4b5e", "name": "1077a6d6a86537b858d5dcbcd7ea4b5e", "is_reserved": 0, "fusion_lat": 0.0}, {"type": "electric_scooter", "rental_uris": {"ios": "https://dc.lft.to/lastmile_qr_scan", "android": "https://dc.lft.to/lastmile_qr_scan"}, "lon": -77.0329275, "fusion_lon": 0.0, "is_disabled": 0, "lat": 38.907873, "bike_id": "fda911c5ca5393ed955db287e2e70912", "name": "fda911c5ca5393ed955db287e2e70912", "is_reserved": 0, "fusion_lat": 0.0}, {"type": "electric_bike", "rental_uris": {"ios": "https://dc.lft.to/lastmile_qr_scan", "android": "https://dc.lft.to/lastmile_qr_scan"}, "lon": -77.09481633333333, "fusion_lon": 0.0, "is_disabled": 0, "lat": 39.0305145, "bike_id": "96761b861ad208a4d616392a149c6cb7", "name": "96761b861ad208a4d616392a149c6cb7", "is_reserved": 0, "fusion_lat": 0.0}, {"type": "electric_scooter", "rental_uris": {"ios": "https://dc.lft.to/lastmile_qr_scan", "android": "https://dc.lft.to/lastmile_qr_scan"}, "lon": -76.94892866666666, "fusion_lon": 0.0, "is_disabled": 0, "lat": 38.89530116666667, "bike_id": "edc5614ba8d038867cd1ada9ee8decde", "name": "edc5614ba8d038867cd1ada9ee8decde", "is_reserved": 0, "fusion_lat": 0.0}, {"type": "electric_scooter", "rental_uris": {"ios": "https://dc.lft.to/lastmile_qr_scan", "android": "https://dc.lft.to/lastmile_qr_scan"}, "lon": -77.02848166666666, "fusion_lon": 0.0, "is_disabled": 0, "lat": 38.961155, "bike_id": "3bffaf70d242e3495c139cb0347faaa4", "name": "3bffaf70d242e3495c139cb0347faaa4", "is_reserved": 0, "fusion_lat": 0.0}, {"type": "electric_bike", "rental_uris": {"ios": "https://dc.lft.to/lastmile_qr_scan", "android": "https://dc.lft.to/lastmile_qr_scan"}, "lon": -77.06078316666667, "fusion_lon": 0.0, "is_disabled": 0, "lat": 38.88579083333333, "bike_id": "baedba4398dbbb2847956a731ffed9be", "name": "baedba4398dbbb2847956a731ffed9be", "is_reserved": 0, "fusion_lat": 0.0}, {"type": "electric_scooter", "rental_uris": {"ios": "https://dc.lft.to/lastmile_qr_scan", "android": "https://dc.lft.to/lastmile_qr_scan"}, "lon": -76.984791, "fusion_lon": 0.0, "is_disabled": 0, "lat": 38.913121, "bike_id": "292090386a2f495860467dd238c178b0", "name": "292090386a2f495860467dd238c178b0", "is_reserved": 0, "fusion_lat": 0.0}, {"type": "electric_scooter", "rental_uris": {"ios": "https://dc.lft.to/lastmile_qr_scan", "android": "https://dc.lft.to/lastmile_qr_scan"}, "lon": -77.02489966666667, "fusion_lon": 0.0, "is_disabled": 0, "lat": 38.91948433333334, "bike_id": "8568c516d0873b013ddb6d78257fc4ca", "name": "8568c516d0873b013ddb6d78257fc4ca", "is_reserved": 0, "fusion_lat": 0.0}, {"type": "electric_scooter", "rental_uris": {"ios": "https://dc.lft.to/lastmile_qr_scan", "android": "https://dc.lft.to/lastmile_qr_scan"}, "lon": -77.01164, "fusion_lon": 0.0, "is_disabled": 0, "lat": 38.90034033333333, "bike_id": "fdca1de74916887dcc9da9202fe5da01", "name": "fdca1de74916887dcc9da9202fe5da01", "is_reserved": 0, "fusion_lat": 0.0}, {"type": "electric_scooter", "rental_uris": {"ios": "https://dc.lft.to/lastmile_qr_scan", "android": "https://dc.lft.to/lastmile_qr_scan"}, "lon": -77.03098, "fusion_lon": 0.0, "is_disabled": 0, "lat": 38.938611, "bike_id": "8e657de97f382c29c09cd6c6693cc69f", "name": "8e657de97f382c29c09cd6c6693cc69f", "is_reserved": 0, "fusion_lat": 0.0}, {"type": "electric_bike", "rental_uris": {"ios": "https://dc.lft.to/lastmile_qr_scan", "android": "https://dc.lft.to/lastmile_qr_scan"}, "lon": -77.13094566666666, "fusion_lon": 0.0, "is_disabled": 0, "lat": 39.02432183333333, "bike_id": "f9f54b59a73724b2e8bba767f56e2e16", "name": "f9f54b59a73724b2e8bba767f56e2e16", "is_reserved": 0, "fusion_lat": 0.0}, {"type": "electric_scooter", "rental_uris": {"ios": "https://dc.lft.to/lastmile_qr_scan", "android": "https://dc.lft.to/lastmile_qr_scan"}, "lon": -77.02192666666667, "fusion_lon": 0.0, "is_disabled": 0, "lat": 38.91121583333333, "bike_id": "bf5d4212e28d6662224984daaec14ebe", "name": "bf5d4212e28d6662224984daaec14ebe", "is_reserved": 0, "fusion_lat": 0.0}, {"type": "electric_scooter", "rental_uris": {"ios": "https://dc.lft.to/lastmile_qr_scan", "android": "https://dc.lft.to/lastmile_qr_scan"}, "lon": -77.038669, "fusion_lon": 0.0, "is_disabled": 0, "lat": 38.91254516666667, "bike_id": "a3ba802ec555d1781b738195c52bc60d", "name": "a3ba802ec555d1781b738195c52bc60d", "is_reserved": 0, "fusion_lat": 0.0}, {"type": "electric_scooter", "rental_uris": {"ios": "https://dc.lft.to/lastmile_qr_scan", "android": "https://dc.lft.to/lastmile_qr_scan"}, "lon": -77.023294, "fusion_lon": 0.0, "is_disabled": 0, "lat": 38.936056666666666, "bike_id": "9a53f3b7d774078823bbdafc9311ffe8", "name": "9a53f3b7d774078823bbdafc9311ffe8", "is_reserved": 0, "fusion_lat": 0.0}, {"type": "electric_scooter", "rental_uris": {"ios": "https://dc.lft.to/lastmile_qr_scan", "android": "https://dc.lft.to/lastmile_qr_scan"}, "lon": -77.02292333333334, "fusion_lon": 0.0, "is_disabled": 0, "lat": 38.91672233333333, "bike_id": "c7650d0333e333fbdbfb067088a88a97", "name": "c7650d0333e333fbdbfb067088a88a97", "is_reserved": 0, "fusion_lat": 0.0}, {"type": "electric_scooter", "rental_uris": {"ios": "https://dc.lft.to/lastmile_qr_scan", "android": "https://dc.lft.to/lastmile_qr_scan"}, "lon": -77.02199366666666, "fusion_lon": 0.0, "is_disabled": 0, "lat": 38.910842333333335, "bike_id": "b73cbe55dcb89b5615bf480be81c6dac", "name": "b73cbe55dcb89b5615bf480be81c6dac", "is_reserved": 0, "fusion_lat": 0.0}, {"type": "electric_scooter", "rental_uris": {"ios": "https://dc.lft.to/lastmile_qr_scan", "android": "https://dc.lft.to/lastmile_qr_scan"}, "lon": -77.0401905, "fusion_lon": 0.0, "is_disabled": 0, "lat": 38.92216916666667, "bike_id": "6cc29d555054bd731d871b00611c9e5d", "name": "6cc29d555054bd731d871b00611c9e5d", "is_reserved": 0, "fusion_lat": 0.0}, {"type": "electric_scooter", "rental_uris": {"ios": "https://dc.lft.to/lastmile_qr_scan", "android": "https://dc.lft.to/lastmile_qr_scan"}, "lon": -77.04520266666667, "fusion_lon": 0.0, "is_disabled": 0, "lat": 38.933156833333335, "bike_id": "bb6762c97670d61391fa7e59c1be6eae", "name": "bb6762c97670d61391fa7e59c1be6eae", "is_reserved": 0, "fusion_lat": 0.0}, {"type": "electric_scooter", "rental_uris": {"ios": "https://dc.lft.to/lastmile_qr_scan", "android": "https://dc.lft.to/lastmile_qr_scan"}, "lon": -77.03165916666667, "fusion_lon": 0.0, "is_disabled": 0, "lat": 38.892218166666666, "bike_id": "59b638b1c37ee07571d289b08ed2d7db", "name": "59b638b1c37ee07571d289b08ed2d7db", "is_reserved": 0, "fusion_lat": 0.0}, {"type": "electric_scooter", "rental_uris": {"ios": "https://dc.lft.to/lastmile_qr_scan", "android": "https://dc.lft.to/lastmile_qr_scan"}, "lon": -77.046589, "fusion_lon": 0.0, "is_disabled": 0, "lat": 38.89243466666667, "bike_id": "3fc1ce2cb7ba3cd8632a5af432abe14e", "name": "3fc1ce2cb7ba3cd8632a5af432abe14e", "is_reserved": 0, "fusion_lat": 0.0}, {"type": "electric_scooter", "rental_uris": {"ios": "https://dc.lft.to/lastmile_qr_scan", "android": "https://dc.lft.to/lastmile_qr_scan"}, "lon": -77.02589233333333, "fusion_lon": 0.0, "is_disabled": 0, "lat": 38.94201366666667, "bike_id": "a63135deab54034e48d1152686528399", "name": "a63135deab54034e48d1152686528399", "is_reserved": 0, "fusion_lat": 0.0}, {"type": "electric_scooter", "rental_uris": {"ios": "https://dc.lft.to/lastmile_qr_scan", "android": "https://dc.lft.to/lastmile_qr_scan"}, "lon": -77.00612633333333, "fusion_lon": 0.0, "is_disabled": 0, "lat": 38.905818833333335, "bike_id": "9534b2ab081314d9c73b736f36808a0f", "name": "9534b2ab081314d9c73b736f36808a0f", "is_reserved": 0, "fusion_lat": 0.0}, {"type": "electric_scooter", "rental_uris": {"ios": "https://dc.lft.to/lastmile_qr_scan", "android": "https://dc.lft.to/lastmile_qr_scan"}, "lon": -77.03640566666667, "fusion_lon": 0.0, "is_disabled": 0, "lat": 38.909976, "bike_id": "3ca3cd09e2d54720cc0f99ef335af38c", "name": "3ca3cd09e2d54720cc0f99ef335af38c", "is_reserved": 0, "fusion_lat": 0.0}, {"type": "electric_scooter", "rental_uris": {"ios": "https://dc.lft.to/lastmile_qr_scan", "android": "https://dc.lft.to/lastmile_qr_scan"}, "lon": -77.04163416666667, "fusion_lon": 0.0, "is_disabled": 0, "lat": 38.915241, "bike_id": "7a8f29701ba09e61da663449691380b9", "name": "7a8f29701ba09e61da663449691380b9", "is_reserved": 0, "fusion_lat": 0.0}, {"type": "electric_scooter", "rental_uris": {"ios": "https://dc.lft.to/lastmile_qr_scan", "android": "https://dc.lft.to/lastmile_qr_scan"}, "lon": -76.9853565, "fusion_lon": 0.0, "is_disabled": 0, "lat": 38.86673233333333, "bike_id": "b2b4f04f457dc22dc0abb9d70ddbe9f2", "name": "b2b4f04f457dc22dc0abb9d70ddbe9f2", "is_reserved": 0, "fusion_lat": 0.0}, {"type": "electric_bike", "rental_uris": {"ios": "https://dc.lft.to/lastmile_qr_scan", "android": "https://dc.lft.to/lastmile_qr_scan"}, "lon": -76.98109616666666, "fusion_lon": 0.0, "is_disabled": 0, "lat": 38.87731133333333, "bike_id": "27281a2a5ca49e64c5ebc157223d01b2", "name": "27281a2a5ca49e64c5ebc157223d01b2", "is_reserved": 0, "fusion_lat": 0.0}, {"type": "electric_scooter", "rental_uris": {"ios": "https://dc.lft.to/lastmile_qr_scan", "android": "https://dc.lft.to/lastmile_qr_scan"}, "lon": -77.00395366666666, "fusion_lon": 0.0, "is_disabled": 0, "lat": 38.905749666666665, "bike_id": "f83f0f74f6f68911b2dee38199cb345d", "name": "f83f0f74f6f68911b2dee38199cb345d", "is_reserved": 0, "fusion_lat": 0.0}, {"type": "electric_scooter", "rental_uris": {"ios": "https://dc.lft.to/lastmile_qr_scan", "android": "https://dc.lft.to/lastmile_qr_scan"}, "lon": -76.99005166666667, "fusion_lon": 0.0, "is_disabled": 0, "lat": 38.90011466666667, "bike_id": "94df205070d510eeb8b36db921405745", "name": "94df205070d510eeb8b36db921405745", "is_reserved": 0, "fusion_lat": 0.0}, {"type": "electric_scooter", "rental_uris": {"ios": "https://dc.lft.to/lastmile_qr_scan", "android": "https://dc.lft.to/lastmile_qr_scan"}, "lon": -77.02053016666666, "fusion_lon": 0.0, "is_disabled": 0, "lat": 38.898693333333334, "bike_id": "6a78ed669752e175c3612b732a7b69b6", "name": "6a78ed669752e175c3612b732a7b69b6", "is_reserved": 0, "fusion_lat": 0.0}, {"type": "electric_scooter", "rental_uris": {"ios": "https://dc.lft.to/lastmile_qr_scan", "android": "https://dc.lft.to/lastmile_qr_scan"}, "lon": -77.0465465, "fusion_lon": 0.0, "is_disabled": 0, "lat": 38.8963705, "bike_id": "207e66c479853725bf1422c2e6adcb12", "name": "207e66c479853725bf1422c2e6adcb12", "is_reserved": 0, "fusion_lat": 0.0}, {"type": "electric_scooter", "rental_uris": {"ios": "https://dc.lft.to/lastmile_qr_scan", "android": "https://dc.lft.to/lastmile_qr_scan"}, "lon": -77.04642683333333, "fusion_lon": 0.0, "is_disabled": 0, "lat": 38.8921955, "bike_id": "d8ee4909e2fcd8a3b410e9e09083020a", "name": "d8ee4909e2fcd8a3b410e9e09083020a", "is_reserved": 0, "fusion_lat": 0.0}, {"type": "electric_scooter", "rental_uris": {"ios": "https://dc.lft.to/lastmile_qr_scan", "android": "https://dc.lft.to/lastmile_qr_scan"}, "lon": -77.04662216666667, "fusion_lon": 0.0, "is_disabled": 0, "lat": 38.89239166666667, "bike_id": "3a682b7b745818f5ae65d9943fd8bec5", "name": "3a682b7b745818f5ae65d9943fd8bec5", "is_reserved": 0, "fusion_lat": 0.0}, {"type": "electric_scooter", "rental_uris": {"ios": "https://dc.lft.to/lastmile_qr_scan", "android": "https://dc.lft.to/lastmile_qr_scan"}, "lon": -77.02655433333334, "fusion_lon": 0.0, "is_disabled": 0, "lat": 38.9247925, "bike_id": "bb6ec95f2d72ffcd7755a69b1c646dfe", "name": "bb6ec95f2d72ffcd7755a69b1c646dfe", "is_reserved": 0, "fusion_lat": 0.0}, {"type": "electric_scooter", "rental_uris": {"ios": "https://dc.lft.to/lastmile_qr_scan", "android": "https://dc.lft.to/lastmile_qr_scan"}, "lon": -77.03998066666666, "fusion_lon": 0.0, "is_disabled": 0, "lat": 38.91415533333333, "bike_id": "a1d3de1e53e6c2aa7ea4fc4cc262e8b6", "name": "a1d3de1e53e6c2aa7ea4fc4cc262e8b6", "is_reserved": 0, "fusion_lat": 0.0}, {"type": "electric_scooter", "rental_uris": {"ios": "https://dc.lft.to/lastmile_qr_scan", "android": "https://dc.lft.to/lastmile_qr_scan"}, "lon": -77.0395725, "fusion_lon": 0.0, "is_disabled": 0, "lat": 38.898864333333336, "bike_id": "5d399f1c4835f7f4544df43e752618a4", "name": "5d399f1c4835f7f4544df43e752618a4", "is_reserved": 0, "fusion_lat": 0.0}, {"type": "electric_scooter", "rental_uris": {"ios": "https://dc.lft.to/lastmile_qr_scan", "android": "https://dc.lft.to/lastmile_qr_scan"}, "lon": -76.986984, "fusion_lon": 0.0, "is_disabled": 0, "lat": 38.86718183333333, "bike_id": "3dc5e8c62dbe66fd65c02752a1f533bc", "name": "3dc5e8c62dbe66fd65c02752a1f533bc", "is_reserved": 0, "fusion_lat": 0.0}, {"type": "electric_scooter", "rental_uris": {"ios": "https://dc.lft.to/lastmile_qr_scan", "android": "https://dc.lft.to/lastmile_qr_scan"}, "lon": -77.01762766666667, "fusion_lon": 0.0, "is_disabled": 0, "lat": 38.8767405, "bike_id": "9dcf16c981804e8adc28fd96bef04ebb", "name": "9dcf16c981804e8adc28fd96bef04ebb", "is_reserved": 0, "fusion_lat": 0.0}, {"type": "electric_scooter", "rental_uris": {"ios": "https://dc.lft.to/lastmile_qr_scan", "android": "https://dc.lft.to/lastmile_qr_scan"}, "lon": -77.0393825, "fusion_lon": 0.0, "is_disabled": 0, "lat": 38.915723666666665, "bike_id": "2155d02e1f1551ee5eba1a4fb904a083", "name": "2155d02e1f1551ee5eba1a4fb904a083", "is_reserved": 0, "fusion_lat": 0.0}, {"type": "electric_bike", "rental_uris": {"ios": "https://dc.lft.to/lastmile_qr_scan", "android": "https://dc.lft.to/lastmile_qr_scan"}, "lon": -77.034452, "fusion_lon": 0.0, "is_disabled": 0, "lat": 38.9247905, "bike_id": "ddcc01f117b1014dacd4b9b4b7b562c6", "name": "ddcc01f117b1014dacd4b9b4b7b562c6", "is_reserved": 0, "fusion_lat": 0.0}, {"type": "electric_scooter", "rental_uris": {"ios": "https://dc.lft.to/lastmile_qr_scan", "android": "https://dc.lft.to/lastmile_qr_scan"}, "lon": -76.97742716666667, "fusion_lon": 0.0, "is_disabled": 0, "lat": 38.868333, "bike_id": "14e998cf7d053c76b8e80fefa3233fb0", "name": "14e998cf7d053c76b8e80fefa3233fb0", "is_reserved": 0, "fusion_lat": 0.0}, {"type": "electric_bike", "rental_uris": {"ios": "https://dc.lft.to/lastmile_qr_scan", "android": "https://dc.lft.to/lastmile_qr_scan"}, "lon": -77.00292066666667, "fusion_lon": 0.0, "is_disabled": 0, "lat": 38.9161805, "bike_id": "97a5b268c22a9bacc1140361970adf47", "name": "97a5b268c22a9bacc1140361970adf47", "is_reserved": 0, "fusion_lat": 0.0}, {"type": "electric_scooter", "rental_uris": {"ios": "https://dc.lft.to/lastmile_qr_scan", "android": "https://dc.lft.to/lastmile_qr_scan"}, "lon": -77.03161533333333, "fusion_lon": 0.0, "is_disabled": 0, "lat": 38.892215666666665, "bike_id": "7afe0559eacd1a718bfc4cf6f641615c", "name": "7afe0559eacd1a718bfc4cf6f641615c", "is_reserved": 0, "fusion_lat": 0.0}, {"type": "electric_bike", "rental_uris": {"ios": "https://dc.lft.to/lastmile_qr_scan", "android": "https://dc.lft.to/lastmile_qr_scan"}, "lon": -76.9461995, "fusion_lon": 0.0, "is_disabled": 0, "lat": 38.83235233333333, "bike_id": "c3f57d0657b9cfd468bce07846e7aebc", "name": "c3f57d0657b9cfd468bce07846e7aebc", "is_reserved": 0, "fusion_lat": 0.0}, {"type": "electric_scooter", "rental_uris": {"ios": "https://dc.lft.to/lastmile_qr_scan", "android": "https://dc.lft.to/lastmile_qr_scan"}, "lon": -77.03171033333334, "fusion_lon": 0.0, "is_disabled": 0, "lat": 38.89775733333333, "bike_id": "72e51a9fa4f1c7f63221248b806963c2", "name": "72e51a9fa4f1c7f63221248b806963c2", "is_reserved": 0, "fusion_lat": 0.0}, {"type": "electric_scooter", "rental_uris": {"ios": "https://dc.lft.to/lastmile_qr_scan", "android": "https://dc.lft.to/lastmile_qr_scan"}, "lon": -77.06125283333333, "fusion_lon": 0.0, "is_disabled": 0, "lat": 38.904833833333335, "bike_id": "2a40040586832d87519c7a26c14bd8e5", "name": "2a40040586832d87519c7a26c14bd8e5", "is_reserved": 0, "fusion_lat": 0.0}, {"type": "electric_scooter", "rental_uris": {"ios": "https://dc.lft.to/lastmile_qr_scan", "android": "https://dc.lft.to/lastmile_qr_scan"}, "lon": -77.03629366666667, "fusion_lon": 0.0, "is_disabled": 0, "lat": 38.937426333333335, "bike_id": "aea5bc04570d8827c4b5433aafe8de4e", "name": "aea5bc04570d8827c4b5433aafe8de4e", "is_reserved": 0, "fusion_lat": 0.0}, {"type": "electric_scooter", "rental_uris": {"ios": "https://dc.lft.to/lastmile_qr_scan", "android": "https://dc.lft.to/lastmile_qr_scan"}, "lon": -77.03530316666667, "fusion_lon": 0.0, "is_disabled": 0, "lat": 38.925365666666664, "bike_id": "8fd37b7662b5897bdf24dd70b83eead8", "name": "8fd37b7662b5897bdf24dd70b83eead8", "is_reserved": 0, "fusion_lat": 0.0}, {"type": "electric_scooter", "rental_uris": {"ios": "https://dc.lft.to/lastmile_qr_scan", "android": "https://dc.lft.to/lastmile_qr_scan"}, "lon": -77.045616, "fusion_lon": 0.0, "is_disabled": 0, "lat": 38.919321833333335, "bike_id": "24acaa532866647ce02f72feccbfa1a8", "name": "24acaa532866647ce02f72feccbfa1a8", "is_reserved": 0, "fusion_lat": 0.0}, {"type": "electric_scooter", "rental_uris": {"ios": "https://dc.lft.to/lastmile_qr_scan", "android": "https://dc.lft.to/lastmile_qr_scan"}, "lon": -77.031801, "fusion_lon": 0.0, "is_disabled": 0, "lat": 38.91861083333333, "bike_id": "f7942296475721f22fa2b97b31f4887e", "name": "f7942296475721f22fa2b97b31f4887e", "is_reserved": 0, "fusion_lat": 0.0}, {"type": "electric_scooter", "rental_uris": {"ios": "https://dc.lft.to/lastmile_qr_scan", "android": "https://dc.lft.to/lastmile_qr_scan"}, "lon": -77.03638783333334, "fusion_lon": 0.0, "is_disabled": 0, "lat": 38.91768066666667, "bike_id": "434f6becf384e03f04c16e36b6d21bfe", "name": "434f6becf384e03f04c16e36b6d21bfe", "is_reserved": 0, "fusion_lat": 0.0}, {"type": "electric_scooter", "rental_uris": {"ios": "https://dc.lft.to/lastmile_qr_scan", "android": "https://dc.lft.to/lastmile_qr_scan"}, "lon": -77.01172383333333, "fusion_lon": 0.0, "is_disabled": 0, "lat": 38.915698666666664, "bike_id": "f219e763e11e815d861170932c3da2f3", "name": "f219e763e11e815d861170932c3da2f3", "is_reserved": 0, "fusion_lat": 0.0}, {"type": "electric_scooter", "rental_uris": {"ios": "https://dc.lft.to/lastmile_qr_scan", "android": "https://dc.lft.to/lastmile_qr_scan"}, "lon": -76.984006, "fusion_lon": 0.0, "is_disabled": 0, "lat": 38.88088366666667, "bike_id": "c7b61b9829062fefb0e56ffead7bd6ed", "name": "c7b61b9829062fefb0e56ffead7bd6ed", "is_reserved": 0, "fusion_lat": 0.0}, {"type": "electric_scooter", "rental_uris": {"ios": "https://dc.lft.to/lastmile_qr_scan", "android": "https://dc.lft.to/lastmile_qr_scan"}, "lon": -77.03788516666667, "fusion_lon": 0.0, "is_disabled": 0, "lat": 38.91115633333333, "bike_id": "1dd15768a715f394e2b6dda195ab1d30", "name": "1dd15768a715f394e2b6dda195ab1d30", "is_reserved": 0, "fusion_lat": 0.0}, {"type": "electric_scooter", "rental_uris": {"ios": "https://dc.lft.to/lastmile_qr_scan", "android": "https://dc.lft.to/lastmile_qr_scan"}, "lon": -77.02224366666667, "fusion_lon": 0.0, "is_disabled": 0, "lat": 38.89219933333333, "bike_id": "1b5f8c65313ea17091e7b762c76a2ba9", "name": "1b5f8c65313ea17091e7b762c76a2ba9", "is_reserved": 0, "fusion_lat": 0.0}, {"type": "electric_scooter", "rental_uris": {"ios": "https://dc.lft.to/lastmile_qr_scan", "android": "https://dc.lft.to/lastmile_qr_scan"}, "lon": -76.98529583333334, "fusion_lon": 0.0, "is_disabled": 0, "lat": 38.86692216666667, "bike_id": "8311cb38c65159b4f06c960a34e3a79b", "name": "8311cb38c65159b4f06c960a34e3a79b", "is_reserved": 0, "fusion_lat": 0.0}, {"type": "electric_scooter", "rental_uris": {"ios": "https://dc.lft.to/lastmile_qr_scan", "android": "https://dc.lft.to/lastmile_qr_scan"}, "lon": -76.94655, "fusion_lon": 0.0, "is_disabled": 0, "lat": 38.89827183333333, "bike_id": "aa70a3490a3478de62fcd0c0c10fff37", "name": "aa70a3490a3478de62fcd0c0c10fff37", "is_reserved": 0, "fusion_lat": 0.0}, {"type": "electric_bike", "rental_uris": {"ios": "https://dc.lft.to/lastmile_qr_scan", "android": "https://dc.lft.to/lastmile_qr_scan"}, "lon": -77.12526266666667, "fusion_lon": 0.0, "is_disabled": 0, "lat": 39.056354, "bike_id": "ee427963a9bf9ed7c677d1ddc2deef17", "name": "ee427963a9bf9ed7c677d1ddc2deef17", "is_reserved": 0, "fusion_lat": 0.0}, {"type": "electric_scooter", "rental_uris": {"ios": "https://dc.lft.to/lastmile_qr_scan", "android": "https://dc.lft.to/lastmile_qr_scan"}, "lon": -77.0259435, "fusion_lon": 0.0, "is_disabled": 0, "lat": 38.90182333333333, "bike_id": "f5468604c1b02af2555c3d11f8669707", "name": "f5468604c1b02af2555c3d11f8669707", "is_reserved": 0, "fusion_lat": 0.0}, {"type": "electric_scooter", "rental_uris": {"ios": "https://dc.lft.to/lastmile_qr_scan", "android": "https://dc.lft.to/lastmile_qr_scan"}, "lon": -77.04379033333333, "fusion_lon": 0.0, "is_disabled": 0, "lat": 38.90285016666667, "bike_id": "63ed306433491217d3696607046c53cd", "name": "63ed306433491217d3696607046c53cd", "is_reserved": 0, "fusion_lat": 0.0}, {"type": "electric_scooter", "rental_uris": {"ios": "https://dc.lft.to/lastmile_qr_scan", "android": "https://dc.lft.to/lastmile_qr_scan"}, "lon": -77.01534266666667, "fusion_lon": 0.0, "is_disabled": 0, "lat": 38.887379833333334, "bike_id": "8da6a04c69c4fa40a041ed81c7d3474d", "name": "8da6a04c69c4fa40a041ed81c7d3474d", "is_reserved": 0, "fusion_lat": 0.0}, {"type": "electric_scooter", "rental_uris": {"ios": "https://dc.lft.to/lastmile_qr_scan", "android": "https://dc.lft.to/lastmile_qr_scan"}, "lon": -77.03841733333333, "fusion_lon": 0.0, "is_disabled": 0, "lat": 38.917603166666666, "bike_id": "e71d14a966ff41d2c41bfc7dd26e8e88", "name": "e71d14a966ff41d2c41bfc7dd26e8e88", "is_reserved": 0, "fusion_lat": 0.0}, {"type": "electric_scooter", "rental_uris": {"ios": "https://dc.lft.to/lastmile_qr_scan", "android": "https://dc.lft.to/lastmile_qr_scan"}, "lon": -77.03380866666667, "fusion_lon": 0.0, "is_disabled": 0, "lat": 38.909671333333335, "bike_id": "c0d88a54bb749f5236117562876dee88", "name": "c0d88a54bb749f5236117562876dee88", "is_reserved": 0, "fusion_lat": 0.0}, {"type": "electric_scooter", "rental_uris": {"ios": "https://dc.lft.to/lastmile_qr_scan", "android": "https://dc.lft.to/lastmile_qr_scan"}, "lon": -76.99944883333333, "fusion_lon": 0.0, "is_disabled": 0, "lat": 38.84292283333333, "bike_id": "4c9bf4b0119c7f271328ce280b2c2943", "name": "4c9bf4b0119c7f271328ce280b2c2943", "is_reserved": 0, "fusion_lat": 0.0}, {"type": "electric_scooter", "rental_uris": {"ios": "https://dc.lft.to/lastmile_qr_scan", "android": "https://dc.lft.to/lastmile_qr_scan"}, "lon": -77.021821, "fusion_lon": 0.0, "is_disabled": 0, "lat": 38.906260333333336, "bike_id": "05a87b4d0753c50bed2ae0eedd1de36c", "name": "05a87b4d0753c50bed2ae0eedd1de36c", "is_reserved": 0, "fusion_lat": 0.0}, {"type": "electric_scooter", "rental_uris": {"ios": "https://dc.lft.to/lastmile_qr_scan", "android": "https://dc.lft.to/lastmile_qr_scan"}, "lon": -77.0425895, "fusion_lon": 0.0, "is_disabled": 0, "lat": 38.9220015, "bike_id": "b292228f1c5d74d78a23015d75d75a07", "name": "b292228f1c5d74d78a23015d75d75a07", "is_reserved": 0, "fusion_lat": 0.0}, {"type": "electric_scooter", "rental_uris": {"ios": "https://dc.lft.to/lastmile_qr_scan", "android": "https://dc.lft.to/lastmile_qr_scan"}, "lon": -77.03144366666666, "fusion_lon": 0.0, "is_disabled": 0, "lat": 38.9111745, "bike_id": "c00d7e590cd7e018029cdcdc68515b12", "name": "c00d7e590cd7e018029cdcdc68515b12", "is_reserved": 0, "fusion_lat": 0.0}, {"type": "electric_scooter", "rental_uris": {"ios": "https://dc.lft.to/lastmile_qr_scan", "android": "https://dc.lft.to/lastmile_qr_scan"}, "lon": -77.0072105, "fusion_lon": 0.0, "is_disabled": 0, "lat": 38.90538566666667, "bike_id": "e9609b8750d250af9f18b4dea6ecc579", "name": "e9609b8750d250af9f18b4dea6ecc579", "is_reserved": 0, "fusion_lat": 0.0}, {"type": "electric_scooter", "rental_uris": {"ios": "https://dc.lft.to/lastmile_qr_scan", "android": "https://dc.lft.to/lastmile_qr_scan"}, "lon": -77.05126883333334, "fusion_lon": 0.0, "is_disabled": 0, "lat": 38.923628, "bike_id": "63224f4f2914e3a0bdc60a65a0500f40", "name": "63224f4f2914e3a0bdc60a65a0500f40", "is_reserved": 0, "fusion_lat": 0.0}, {"type": "electric_scooter", "rental_uris": {"ios": "https://dc.lft.to/lastmile_qr_scan", "android": "https://dc.lft.to/lastmile_qr_scan"}, "lon": -77.04027933333333, "fusion_lon": 0.0, "is_disabled": 0, "lat": 38.91807416666666, "bike_id": "b2001a55bf04005b402f2257ba53f081", "name": "b2001a55bf04005b402f2257ba53f081", "is_reserved": 0, "fusion_lat": 0.0}, {"type": "electric_scooter", "rental_uris": {"ios": "https://dc.lft.to/lastmile_qr_scan", "android": "https://dc.lft.to/lastmile_qr_scan"}, "lon": -77.05517966666666, "fusion_lon": 0.0, "is_disabled": 0, "lat": 38.944107833333334, "bike_id": "9c54ad228e4ca4e0b8176d043ce255bd", "name": "9c54ad228e4ca4e0b8176d043ce255bd", "is_reserved": 0, "fusion_lat": 0.0}, {"type": "electric_scooter", "rental_uris": {"ios": "https://dc.lft.to/lastmile_qr_scan", "android": "https://dc.lft.to/lastmile_qr_scan"}, "lon": -77.026245, "fusion_lon": 0.0, "is_disabled": 0, "lat": 38.8922055, "bike_id": "144eab7eef94b66dfc5ad9c61245c71c", "name": "144eab7eef94b66dfc5ad9c61245c71c", "is_reserved": 0, "fusion_lat": 0.0}, {"type": "electric_scooter", "rental_uris": {"ios": "https://dc.lft.to/lastmile_qr_scan", "android": "https://dc.lft.to/lastmile_qr_scan"}, "lon": -76.95002716666667, "fusion_lon": 0.0, "is_disabled": 0, "lat": 38.893925833333334, "bike_id": "2ff53ed9d1e2c03c2db46e6c9c3062aa", "name": "2ff53ed9d1e2c03c2db46e6c9c3062aa", "is_reserved": 0, "fusion_lat": 0.0}, {"type": "electric_scooter", "rental_uris": {"ios": "https://dc.lft.to/lastmile_qr_scan", "android": "https://dc.lft.to/lastmile_qr_scan"}, "lon": -77.028026, "fusion_lon": 0.0, "is_disabled": 0, "lat": 38.892309, "bike_id": "45288e93d1776eb9be0f25cf60f023e8", "name": "45288e93d1776eb9be0f25cf60f023e8", "is_reserved": 0, "fusion_lat": 0.0}, {"type": "electric_scooter", "rental_uris": {"ios": "https://dc.lft.to/lastmile_qr_scan", "android": "https://dc.lft.to/lastmile_qr_scan"}, "lon": -77.04473483333334, "fusion_lon": 0.0, "is_disabled": 0, "lat": 38.9111615, "bike_id": "b8ab36cd5acb85d2ad09b1a87d17a8de", "name": "b8ab36cd5acb85d2ad09b1a87d17a8de", "is_reserved": 0, "fusion_lat": 0.0}, {"type": "electric_scooter", "rental_uris": {"ios": "https://dc.lft.to/lastmile_qr_scan", "android": "https://dc.lft.to/lastmile_qr_scan"}, "lon": -77.02006166666666, "fusion_lon": 0.0, "is_disabled": 0, "lat": 38.915629833333334, "bike_id": "ca25f63bb797e6395340b9e523206108", "name": "ca25f63bb797e6395340b9e523206108", "is_reserved": 0, "fusion_lat": 0.0}, {"type": "electric_scooter", "rental_uris": {"ios": "https://dc.lft.to/lastmile_qr_scan", "android": "https://dc.lft.to/lastmile_qr_scan"}, "lon": -77.0208235, "fusion_lon": 0.0, "is_disabled": 0, "lat": 38.9111645, "bike_id": "c28ba92c77ad9463ad745ee1dfcf6e1f", "name": "c28ba92c77ad9463ad745ee1dfcf6e1f", "is_reserved": 0, "fusion_lat": 0.0}, {"type": "electric_scooter", "rental_uris": {"ios": "https://dc.lft.to/lastmile_qr_scan", "android": "https://dc.lft.to/lastmile_qr_scan"}, "lon": -77.03212266666667, "fusion_lon": 0.0, "is_disabled": 0, "lat": 38.9096375, "bike_id": "7ecff1d11e7b56be489104c79c584f55", "name": "7ecff1d11e7b56be489104c79c584f55", "is_reserved": 0, "fusion_lat": 0.0}, {"type": "electric_scooter", "rental_uris": {"ios": "https://dc.lft.to/lastmile_qr_scan", "android": "https://dc.lft.to/lastmile_qr_scan"}, "lon": -77.04197983333333, "fusion_lon": 0.0, "is_disabled": 0, "lat": 38.9066725, "bike_id": "45d39944561d2157093f288366a5e7c9", "name": "45d39944561d2157093f288366a5e7c9", "is_reserved": 0, "fusion_lat": 0.0}, {"type": "electric_scooter", "rental_uris": {"ios": "https://dc.lft.to/lastmile_qr_scan", "android": "https://dc.lft.to/lastmile_qr_scan"}, "lon": -77.02795566666667, "fusion_lon": 0.0, "is_disabled": 0, "lat": 38.9308295, "bike_id": "db4dc7c0747e152eb105e5cbb13d2b8f", "name": "db4dc7c0747e152eb105e5cbb13d2b8f", "is_reserved": 0, "fusion_lat": 0.0}, {"type": "electric_scooter", "rental_uris": {"ios": "https://dc.lft.to/lastmile_qr_scan", "android": "https://dc.lft.to/lastmile_qr_scan"}, "lon": -77.03344166666666, "fusion_lon": 0.0, "is_disabled": 0, "lat": 38.8925405, "bike_id": "49f796a291797a5ba424b655688f4c1f", "name": "49f796a291797a5ba424b655688f4c1f", "is_reserved": 0, "fusion_lat": 0.0}, {"type": "electric_scooter", "rental_uris": {"ios": "https://dc.lft.to/lastmile_qr_scan", "android": "https://dc.lft.to/lastmile_qr_scan"}, "lon": -77.03131416666666, "fusion_lon": 0.0, "is_disabled": 0, "lat": 38.91811, "bike_id": "51242684b0f4ffea47f02ea9282a985a", "name": "51242684b0f4ffea47f02ea9282a985a", "is_reserved": 0, "fusion_lat": 0.0}, {"type": "electric_bike", "rental_uris": {"ios": "https://dc.lft.to/lastmile_qr_scan", "android": "https://dc.lft.to/lastmile_qr_scan"}, "lon": -76.92499816666667, "fusion_lon": 0.0, "is_disabled": 0, "lat": 38.999979, "bike_id": "4c3dedec1e6b4dabb590f73b38121b80", "name": "4c3dedec1e6b4dabb590f73b38121b80", "is_reserved": 0, "fusion_lat": 0.0}, {"type": "electric_scooter", "rental_uris": {"ios": "https://dc.lft.to/lastmile_qr_scan", "android": "https://dc.lft.to/lastmile_qr_scan"}, "lon": -77.02033416666667, "fusion_lon": 0.0, "is_disabled": 0, "lat": 38.93188766666667, "bike_id": "52aec6360d5a10867e8628e1bafc43c0", "name": "52aec6360d5a10867e8628e1bafc43c0", "is_reserved": 0, "fusion_lat": 0.0}, {"type": "electric_scooter", "rental_uris": {"ios": "https://dc.lft.to/lastmile_qr_scan", "android": "https://dc.lft.to/lastmile_qr_scan"}, "lon": -77.0417595, "fusion_lon": 0.0, "is_disabled": 0, "lat": 38.91835416666667, "bike_id": "35382d0957edb1ab0117c4e920b1a54e", "name": "35382d0957edb1ab0117c4e920b1a54e", "is_reserved": 0, "fusion_lat": 0.0}, {"type": "electric_scooter", "rental_uris": {"ios": "https://dc.lft.to/lastmile_qr_scan", "android": "https://dc.lft.to/lastmile_qr_scan"}, "lon": -77.059295, "fusion_lon": 0.0, "is_disabled": 0, "lat": 38.9094925, "bike_id": "bcd358fe11d91103f4b0850183dc50e1", "name": "bcd358fe11d91103f4b0850183dc50e1", "is_reserved": 0, "fusion_lat": 0.0}, {"type": "electric_scooter", "rental_uris": {"ios": "https://dc.lft.to/lastmile_qr_scan", "android": "https://dc.lft.to/lastmile_qr_scan"}, "lon": -77.032046, "fusion_lon": 0.0, "is_disabled": 0, "lat": 38.908865666666664, "bike_id": "062ffa8814139e9bff73d09edc34d969", "name": "062ffa8814139e9bff73d09edc34d969", "is_reserved": 0, "fusion_lat": 0.0}, {"type": "electric_scooter", "rental_uris": {"ios": "https://dc.lft.to/lastmile_qr_scan", "android": "https://dc.lft.to/lastmile_qr_scan"}, "lon": -76.93349666666667, "fusion_lon": 0.0, "is_disabled": 0, "lat": 38.888155, "bike_id": "6e9f3875fb93956aa3924b1afcb483e7", "name": "6e9f3875fb93956aa3924b1afcb483e7", "is_reserved": 0, "fusion_lat": 0.0}, {"type": "electric_scooter", "rental_uris": {"ios": "https://dc.lft.to/lastmile_qr_scan", "android": "https://dc.lft.to/lastmile_qr_scan"}, "lon": -77.032095, "fusion_lon": 0.0, "is_disabled": 0, "lat": 38.909481666666665, "bike_id": "68cd0afb89f4be100243e54e02bfebfa", "name": "68cd0afb89f4be100243e54e02bfebfa", "is_reserved": 0, "fusion_lat": 0.0}, {"type": "electric_scooter", "rental_uris": {"ios": "https://dc.lft.to/lastmile_qr_scan", "android": "https://dc.lft.to/lastmile_qr_scan"}, "lon": -77.07065516666667, "fusion_lon": 0.0, "is_disabled": 0, "lat": 38.93177566666667, "bike_id": "c451925e7c645eb69aab1170d0a5ed8f", "name": "c451925e7c645eb69aab1170d0a5ed8f", "is_reserved": 0, "fusion_lat": 0.0}, {"type": "electric_scooter", "rental_uris": {"ios": "https://dc.lft.to/lastmile_qr_scan", "android": "https://dc.lft.to/lastmile_qr_scan"}, "lon": -76.98526833333334, "fusion_lon": 0.0, "is_disabled": 0, "lat": 38.8668565, "bike_id": "19cdf9058b4494f3115382f4c7360595", "name": "19cdf9058b4494f3115382f4c7360595", "is_reserved": 0, "fusion_lat": 0.0}, {"type": "electric_scooter", "rental_uris": {"ios": "https://dc.lft.to/lastmile_qr_scan", "android": "https://dc.lft.to/lastmile_qr_scan"}, "lon": -77.03157316666666, "fusion_lon": 0.0, "is_disabled": 0, "lat": 38.892246166666666, "bike_id": "6a461725093bcd6450f9946fbd0d89fe", "name": "6a461725093bcd6450f9946fbd0d89fe", "is_reserved": 0, "fusion_lat": 0.0}, {"type": "electric_bike", "rental_uris": {"ios": "https://dc.lft.to/lastmile_qr_scan", "android": "https://dc.lft.to/lastmile_qr_scan"}, "lon": -77.03327433333334, "fusion_lon": 0.0, "is_disabled": 0, "lat": 38.920543333333335, "bike_id": "469c3a17cda7ca62cddb4556db3a25f8", "name": "469c3a17cda7ca62cddb4556db3a25f8", "is_reserved": 0, "fusion_lat": 0.0}, {"type": "electric_bike", "rental_uris": {"ios": "https://dc.lft.to/lastmile_qr_scan", "android": "https://dc.lft.to/lastmile_qr_scan"}, "lon": -77.01444916666667, "fusion_lon": 0.0, "is_disabled": 0, "lat": 38.87670216666667, "bike_id": "a335a6d5ce934d4aa511b95b048fb55f", "name": "a335a6d5ce934d4aa511b95b048fb55f", "is_reserved": 0, "fusion_lat": 0.0}, {"type": "electric_scooter", "rental_uris": {"ios": "https://dc.lft.to/lastmile_qr_scan", "android": "https://dc.lft.to/lastmile_qr_scan"}, "lon": -77.02492033333333, "fusion_lon": 0.0, "is_disabled": 0, "lat": 38.91806033333334, "bike_id": "5bdef6697d2ffa0ff2bfc16cd293ec7a", "name": "5bdef6697d2ffa0ff2bfc16cd293ec7a", "is_reserved": 0, "fusion_lat": 0.0}, {"type": "electric_scooter", "rental_uris": {"ios": "https://dc.lft.to/lastmile_qr_scan", "android": "https://dc.lft.to/lastmile_qr_scan"}, "lon": -77.03406233333334, "fusion_lon": 0.0, "is_disabled": 0, "lat": 38.9204185, "bike_id": "c71dcca0f027e045a1771db8f421a1c5", "name": "c71dcca0f027e045a1771db8f421a1c5", "is_reserved": 0, "fusion_lat": 0.0}, {"type": "electric_bike", "rental_uris": {"ios": "https://dc.lft.to/lastmile_qr_scan", "android": "https://dc.lft.to/lastmile_qr_scan"}, "lon": -77.0056925, "fusion_lon": 0.0, "is_disabled": 0, "lat": 38.83978033333333, "bike_id": "671bd8ab02d3d9b599aae883dec0bb8d", "name": "671bd8ab02d3d9b599aae883dec0bb8d", "is_reserved": 0, "fusion_lat": 0.0}, {"type": "electric_bike", "rental_uris": {"ios": "https://dc.lft.to/lastmile_qr_scan", "android": "https://dc.lft.to/lastmile_qr_scan"}, "lon": -77.020935, "fusion_lon": 0.0, "is_disabled": 0, "lat": 38.937235, "bike_id": "c393e243eed7d66cb8849604f180ea94", "name": "c393e243eed7d66cb8849604f180ea94", "is_reserved": 0, "fusion_lat": 0.0}, {"type": "electric_bike", "rental_uris": {"ios": "https://dc.lft.to/lastmile_qr_scan", "android": "https://dc.lft.to/lastmile_qr_scan"}, "lon": -77.02618516666666, "fusion_lon": 0.0, "is_disabled": 0, "lat": 38.96927933333333, "bike_id": "bd922a26284f6e4e82ed9655819d31e6", "name": "bd922a26284f6e4e82ed9655819d31e6", "is_reserved": 0, "fusion_lat": 0.0}, {"type": "electric_scooter", "rental_uris": {"ios": "https://dc.lft.to/lastmile_qr_scan", "android": "https://dc.lft.to/lastmile_qr_scan"}, "lon": -77.04505083333333, "fusion_lon": 0.0, "is_disabled": 0, "lat": 38.91588333333333, "bike_id": "939d2aac5883b0f11c334d4812b1b838", "name": "939d2aac5883b0f11c334d4812b1b838", "is_reserved": 0, "fusion_lat": 0.0}, {"type": "electric_scooter", "rental_uris": {"ios": "https://dc.lft.to/lastmile_qr_scan", "android": "https://dc.lft.to/lastmile_qr_scan"}, "lon": -76.96529766666667, "fusion_lon": 0.0, "is_disabled": 0, "lat": 38.876292666666664, "bike_id": "9241eacc2c26090de8fdab8863250975", "name": "9241eacc2c26090de8fdab8863250975", "is_reserved": 0, "fusion_lat": 0.0}, {"type": "electric_scooter", "rental_uris": {"ios": "https://dc.lft.to/lastmile_qr_scan", "android": "https://dc.lft.to/lastmile_qr_scan"}, "lon": -77.02289666666667, "fusion_lon": 0.0, "is_disabled": 0, "lat": 38.91445083333333, "bike_id": "5028062cb662183c275bf752ca10e441", "name": "5028062cb662183c275bf752ca10e441", "is_reserved": 0, "fusion_lat": 0.0}, {"type": "electric_scooter", "rental_uris": {"ios": "https://dc.lft.to/lastmile_qr_scan", "android": "https://dc.lft.to/lastmile_qr_scan"}, "lon": -77.0318075, "fusion_lon": 0.0, "is_disabled": 0, "lat": 38.915948666666665, "bike_id": "519e3ee8d5ee2045f3a40796f2ec5041", "name": "519e3ee8d5ee2045f3a40796f2ec5041", "is_reserved": 0, "fusion_lat": 0.0}, {"type": "electric_bike", "rental_uris": {"ios": "https://dc.lft.to/lastmile_qr_scan", "android": "https://dc.lft.to/lastmile_qr_scan"}, "lon": -77.11799616666667, "fusion_lon": 0.0, "is_disabled": 0, "lat": 38.87379283333333, "bike_id": "7b2e397f2be57dff393e2b574fe13f57", "name": "7b2e397f2be57dff393e2b574fe13f57", "is_reserved": 0, "fusion_lat": 0.0}, {"type": "electric_scooter", "rental_uris": {"ios": "https://dc.lft.to/lastmile_qr_scan", "android": "https://dc.lft.to/lastmile_qr_scan"}, "lon": -77.0388705, "fusion_lon": 0.0, "is_disabled": 0, "lat": 38.906152666666664, "bike_id": "26039c7ff490142c2c5ac25025c42f81", "name": "26039c7ff490142c2c5ac25025c42f81", "is_reserved": 0, "fusion_lat": 0.0}, {"type": "electric_scooter", "rental_uris": {"ios": "https://dc.lft.to/lastmile_qr_scan", "android": "https://dc.lft.to/lastmile_qr_scan"}, "lon": -77.04482383333334, "fusion_lon": 0.0, "is_disabled": 0, "lat": 38.911111, "bike_id": "33a3a263fe9abd50b25d5369ba900626", "name": "33a3a263fe9abd50b25d5369ba900626", "is_reserved": 0, "fusion_lat": 0.0}, {"type": "electric_scooter", "rental_uris": {"ios": "https://dc.lft.to/lastmile_qr_scan", "android": "https://dc.lft.to/lastmile_qr_scan"}, "lon": -77.022223, "fusion_lon": 0.0, "is_disabled": 0, "lat": 38.8922, "bike_id": "88340e3d9c9e4311b3d4fd985b6693b8", "name": "88340e3d9c9e4311b3d4fd985b6693b8", "is_reserved": 0, "fusion_lat": 0.0}, {"type": "electric_scooter", "rental_uris": {"ios": "https://dc.lft.to/lastmile_qr_scan", "android": "https://dc.lft.to/lastmile_qr_scan"}, "lon": -77.03219633333333, "fusion_lon": 0.0, "is_disabled": 0, "lat": 38.89223616666666, "bike_id": "a40f5c7d8a909b78675ff75412ee8cda", "name": "a40f5c7d8a909b78675ff75412ee8cda", "is_reserved": 0, "fusion_lat": 0.0}, {"type": "electric_scooter", "rental_uris": {"ios": "https://dc.lft.to/lastmile_qr_scan", "android": "https://dc.lft.to/lastmile_qr_scan"}, "lon": -77.08049283333334, "fusion_lon": 0.0, "is_disabled": 0, "lat": 38.949772833333334, "bike_id": "1277c48868e88648c7752a7655af1840", "name": "1277c48868e88648c7752a7655af1840", "is_reserved": 0, "fusion_lat": 0.0}, {"type": "electric_scooter", "rental_uris": {"ios": "https://dc.lft.to/lastmile_qr_scan", "android": "https://dc.lft.to/lastmile_qr_scan"}, "lon": -77.03917333333334, "fusion_lon": 0.0, "is_disabled": 0, "lat": 38.91813783333333, "bike_id": "6238d252cd2907a6a2746d83f6a9154f", "name": "6238d252cd2907a6a2746d83f6a9154f", "is_reserved": 0, "fusion_lat": 0.0}, {"type": "electric_scooter", "rental_uris": {"ios": "https://dc.lft.to/lastmile_qr_scan", "android": "https://dc.lft.to/lastmile_qr_scan"}, "lon": -77.03127466666666, "fusion_lon": 0.0, "is_disabled": 0, "lat": 38.92040566666667, "bike_id": "f076f39535f205220cd0c7b1b580187a", "name": "f076f39535f205220cd0c7b1b580187a", "is_reserved": 0, "fusion_lat": 0.0}, {"type": "electric_scooter", "rental_uris": {"ios": "https://dc.lft.to/lastmile_qr_scan", "android": "https://dc.lft.to/lastmile_qr_scan"}, "lon": -77.04331233333333, "fusion_lon": 0.0, "is_disabled": 0, "lat": 38.908277, "bike_id": "0c952d778a38d6828aaa17e4b4025233", "name": "0c952d778a38d6828aaa17e4b4025233", "is_reserved": 0, "fusion_lat": 0.0}, {"type": "electric_scooter", "rental_uris": {"ios": "https://dc.lft.to/lastmile_qr_scan", "android": "https://dc.lft.to/lastmile_qr_scan"}, "lon": -77.02838316666667, "fusion_lon": 0.0, "is_disabled": 0, "lat": 38.93279066666667, "bike_id": "f7c6715e620462eb85832311832c2d53", "name": "f7c6715e620462eb85832311832c2d53", "is_reserved": 0, "fusion_lat": 0.0}, {"type": "electric_scooter", "rental_uris": {"ios": "https://dc.lft.to/lastmile_qr_scan", "android": "https://dc.lft.to/lastmile_qr_scan"}, "lon": -77.01839333333334, "fusion_lon": 0.0, "is_disabled": 0, "lat": 38.92234633333333, "bike_id": "8f047ef71b4aff5410c5feaf1fd08193", "name": "8f047ef71b4aff5410c5feaf1fd08193", "is_reserved": 0, "fusion_lat": 0.0}, {"type": "electric_scooter", "rental_uris": {"ios": "https://dc.lft.to/lastmile_qr_scan", "android": "https://dc.lft.to/lastmile_qr_scan"}, "lon": -77.031816, "fusion_lon": 0.0, "is_disabled": 0, "lat": 38.89230833333333, "bike_id": "998cac08a4e53ffc7ef65281bd21fce7", "name": "998cac08a4e53ffc7ef65281bd21fce7", "is_reserved": 0, "fusion_lat": 0.0}, {"type": "electric_scooter", "rental_uris": {"ios": "https://dc.lft.to/lastmile_qr_scan", "android": "https://dc.lft.to/lastmile_qr_scan"}, "lon": -77.02967766666667, "fusion_lon": 0.0, "is_disabled": 0, "lat": 38.896401833333336, "bike_id": "566c6017b07fe0c8995cb2ac8a24b689", "name": "566c6017b07fe0c8995cb2ac8a24b689", "is_reserved": 0, "fusion_lat": 0.0}, {"type": "electric_scooter", "rental_uris": {"ios": "https://dc.lft.to/lastmile_qr_scan", "android": "https://dc.lft.to/lastmile_qr_scan"}, "lon": -77.02334416666666, "fusion_lon": 0.0, "is_disabled": 0, "lat": 38.917655, "bike_id": "17b00038b1c183ffb44b05b7604f17f2", "name": "17b00038b1c183ffb44b05b7604f17f2", "is_reserved": 0, "fusion_lat": 0.0}, {"type": "electric_scooter", "rental_uris": {"ios": "https://dc.lft.to/lastmile_qr_scan", "android": "https://dc.lft.to/lastmile_qr_scan"}, "lon": -77.03659433333333, "fusion_lon": 0.0, "is_disabled": 0, "lat": 38.92026666666667, "bike_id": "fe344916ed66f917246cead6c9dd7825", "name": "fe344916ed66f917246cead6c9dd7825", "is_reserved": 0, "fusion_lat": 0.0}, {"type": "electric_scooter", "rental_uris": {"ios": "https://dc.lft.to/lastmile_qr_scan", "android": "https://dc.lft.to/lastmile_qr_scan"}, "lon": -77.04081966666666, "fusion_lon": 0.0, "is_disabled": 0, "lat": 38.91414016666667, "bike_id": "442bf114edf3e512ee85cead3d728796", "name": "442bf114edf3e512ee85cead3d728796", "is_reserved": 0, "fusion_lat": 0.0}, {"type": "electric_scooter", "rental_uris": {"ios": "https://dc.lft.to/lastmile_qr_scan", "android": "https://dc.lft.to/lastmile_qr_scan"}, "lon": -76.99036433333333, "fusion_lon": 0.0, "is_disabled": 0, "lat": 38.891402166666666, "bike_id": "81eacecbacfb5a90b8572bcf98003d5f", "name": "81eacecbacfb5a90b8572bcf98003d5f", "is_reserved": 0, "fusion_lat": 0.0}, {"type": "electric_bike", "rental_uris": {"ios": "https://dc.lft.to/lastmile_qr_scan", "android": "https://dc.lft.to/lastmile_qr_scan"}, "lon": -77.11721916666667, "fusion_lon": 0.0, "is_disabled": 0, "lat": 39.0545725, "bike_id": "b98546d162f8793396bfdd8fa6e612df", "name": "b98546d162f8793396bfdd8fa6e612df", "is_reserved": 0, "fusion_lat": 0.0}, {"type": "electric_scooter", "rental_uris": {"ios": "https://dc.lft.to/lastmile_qr_scan", "android": "https://dc.lft.to/lastmile_qr_scan"}, "lon": -77.04681366666667, "fusion_lon": 0.0, "is_disabled": 0, "lat": 38.9158945, "bike_id": "75feda0a0349a348c1c0a795c93c4d65", "name": "75feda0a0349a348c1c0a795c93c4d65", "is_reserved": 0, "fusion_lat": 0.0}, {"type": "electric_scooter", "rental_uris": {"ios": "https://dc.lft.to/lastmile_qr_scan", "android": "https://dc.lft.to/lastmile_qr_scan"}, "lon": -77.029792, "fusion_lon": 0.0, "is_disabled": 0, "lat": 38.915637833333335, "bike_id": "2c4db310e0da4078b287d90098b3a5cd", "name": "2c4db310e0da4078b287d90098b3a5cd", "is_reserved": 0, "fusion_lat": 0.0}, {"type": "electric_bike", "rental_uris": {"ios": "https://dc.lft.to/lastmile_qr_scan", "android": "https://dc.lft.to/lastmile_qr_scan"}, "lon": -76.99669116666666, "fusion_lon": 0.0, "is_disabled": 0, "lat": 38.89740916666667, "bike_id": "b17d66a6bf4cbc051d2476ddfa012605", "name": "b17d66a6bf4cbc051d2476ddfa012605", "is_reserved": 0, "fusion_lat": 0.0}, {"type": "electric_scooter", "rental_uris": {"ios": "https://dc.lft.to/lastmile_qr_scan", "android": "https://dc.lft.to/lastmile_qr_scan"}, "lon": -77.0222275, "fusion_lon": 0.0, "is_disabled": 0, "lat": 38.8922325, "bike_id": "c20a209d49310de01683edb6a3530fd0", "name": "c20a209d49310de01683edb6a3530fd0", "is_reserved": 0, "fusion_lat": 0.0}, {"type": "electric_scooter", "rental_uris": {"ios": "https://dc.lft.to/lastmile_qr_scan", "android": "https://dc.lft.to/lastmile_qr_scan"}, "lon": -77.00243333333333, "fusion_lon": 0.0, "is_disabled": 0, "lat": 38.88026633333333, "bike_id": "2b6745f5af5f133cf8afcc7fc160f735", "name": "2b6745f5af5f133cf8afcc7fc160f735", "is_reserved": 0, "fusion_lat": 0.0}, {"type": "electric_scooter", "rental_uris": {"ios": "https://dc.lft.to/lastmile_qr_scan", "android": "https://dc.lft.to/lastmile_qr_scan"}, "lon": -76.979515, "fusion_lon": 0.0, "is_disabled": 0, "lat": 38.945268666666664, "bike_id": "c17aaf90419645f7815b47eb51967f3d", "name": "c17aaf90419645f7815b47eb51967f3d", "is_reserved": 0, "fusion_lat": 0.0}, {"type": "electric_scooter", "rental_uris": {"ios": "https://dc.lft.to/lastmile_qr_scan", "android": "https://dc.lft.to/lastmile_qr_scan"}, "lon": -77.0378775, "fusion_lon": 0.0, "is_disabled": 0, "lat": 38.92630916666667, "bike_id": "e18618a5167bb1e7beb26f89e337dac7", "name": "e18618a5167bb1e7beb26f89e337dac7", "is_reserved": 0, "fusion_lat": 0.0}, {"type": "electric_scooter", "rental_uris": {"ios": "https://dc.lft.to/lastmile_qr_scan", "android": "https://dc.lft.to/lastmile_qr_scan"}, "lon": -77.01164816666666, "fusion_lon": 0.0, "is_disabled": 0, "lat": 38.90027633333333, "bike_id": "77c641ebda9cab6586c9aa600e32d31f", "name": "77c641ebda9cab6586c9aa600e32d31f", "is_reserved": 0, "fusion_lat": 0.0}, {"type": "electric_scooter", "rental_uris": {"ios": "https://dc.lft.to/lastmile_qr_scan", "android": "https://dc.lft.to/lastmile_qr_scan"}, "lon": -77.0228035, "fusion_lon": 0.0, "is_disabled": 0, "lat": 38.916571166666664, "bike_id": "2d7f0cef96183c088f93ec683aca5a09", "name": "2d7f0cef96183c088f93ec683aca5a09", "is_reserved": 0, "fusion_lat": 0.0}, {"type": "electric_scooter", "rental_uris": {"ios": "https://dc.lft.to/lastmile_qr_scan", "android": "https://dc.lft.to/lastmile_qr_scan"}, "lon": -77.05221833333333, "fusion_lon": 0.0, "is_disabled": 0, "lat": 38.92496083333333, "bike_id": "ab8c5f674a43ca6f4a7e28f2456335a4", "name": "ab8c5f674a43ca6f4a7e28f2456335a4", "is_reserved": 0, "fusion_lat": 0.0}, {"type": "electric_scooter", "rental_uris": {"ios": "https://dc.lft.to/lastmile_qr_scan", "android": "https://dc.lft.to/lastmile_qr_scan"}, "lon": -77.04181466666667, "fusion_lon": 0.0, "is_disabled": 0, "lat": 38.901493, "bike_id": "9d8da34c33d83ac59315a11697f154a8", "name": "9d8da34c33d83ac59315a11697f154a8", "is_reserved": 0, "fusion_lat": 0.0}, {"type": "electric_scooter", "rental_uris": {"ios": "https://dc.lft.to/lastmile_qr_scan", "android": "https://dc.lft.to/lastmile_qr_scan"}, "lon": -77.03321816666667, "fusion_lon": 0.0, "is_disabled": 0, "lat": 38.900052333333335, "bike_id": "2c7b1403b341c6fc0c264f825f407549", "name": "2c7b1403b341c6fc0c264f825f407549", "is_reserved": 0, "fusion_lat": 0.0}, {"type": "electric_bike", "rental_uris": {"ios": "https://dc.lft.to/lastmile_qr_scan", "android": "https://dc.lft.to/lastmile_qr_scan"}, "lon": -77.09805766666666, "fusion_lon": 0.0, "is_disabled": 0, "lat": 38.850229166666665, "bike_id": "5cf9bf929d51a97250764b2dd413d752", "name": "5cf9bf929d51a97250764b2dd413d752", "is_reserved": 0, "fusion_lat": 0.0}, {"type": "electric_bike", "rental_uris": {"ios": "https://dc.lft.to/lastmile_qr_scan", "android": "https://dc.lft.to/lastmile_qr_scan"}, "lon": -77.02068866666667, "fusion_lon": 0.0, "is_disabled": 0, "lat": 38.9644315, "bike_id": "aec3d8a10d325281945e1221bc9a441a", "name": "aec3d8a10d325281945e1221bc9a441a", "is_reserved": 0, "fusion_lat": 0.0}, {"type": "electric_scooter", "rental_uris": {"ios": "https://dc.lft.to/lastmile_qr_scan", "android": "https://dc.lft.to/lastmile_qr_scan"}, "lon": -77.039874, "fusion_lon": 0.0, "is_disabled": 0, "lat": 38.907296, "bike_id": "ddedbefafeb9016174fee1a73135775e", "name": "ddedbefafeb9016174fee1a73135775e", "is_reserved": 0, "fusion_lat": 0.0}, {"type": "electric_scooter", "rental_uris": {"ios": "https://dc.lft.to/lastmile_qr_scan", "android": "https://dc.lft.to/lastmile_qr_scan"}, "lon": -76.9287605, "fusion_lon": 0.0, "is_disabled": 0, "lat": 38.8852605, "bike_id": "51d4d8f9c118d5c616b066465396b2a2", "name": "51d4d8f9c118d5c616b066465396b2a2", "is_reserved": 0, "fusion_lat": 0.0}, {"type": "electric_bike", "rental_uris": {"ios": "https://dc.lft.to/lastmile_qr_scan", "android": "https://dc.lft.to/lastmile_qr_scan"}, "lon": -77.04538666666667, "fusion_lon": 0.0, "is_disabled": 0, "lat": 38.84289166666667, "bike_id": "54d7c973c88ff5b7e168d1efe7a49009", "name": "54d7c973c88ff5b7e168d1efe7a49009", "is_reserved": 0, "fusion_lat": 0.0}, {"type": "electric_scooter", "rental_uris": {"ios": "https://dc.lft.to/lastmile_qr_scan", "android": "https://dc.lft.to/lastmile_qr_scan"}, "lon": -77.04009916666666, "fusion_lon": 0.0, "is_disabled": 0, "lat": 38.91004916666667, "bike_id": "0fe05f0936ba948cf25099394b3a9f03", "name": "0fe05f0936ba948cf25099394b3a9f03", "is_reserved": 0, "fusion_lat": 0.0}, {"type": "electric_scooter", "rental_uris": {"ios": "https://dc.lft.to/lastmile_qr_scan", "android": "https://dc.lft.to/lastmile_qr_scan"}, "lon": -77.04133333333333, "fusion_lon": 0.0, "is_disabled": 0, "lat": 38.93403283333333, "bike_id": "7abd1dadc1820c56c27266900c75545b", "name": "7abd1dadc1820c56c27266900c75545b", "is_reserved": 0, "fusion_lat": 0.0}, {"type": "electric_bike", "rental_uris": {"ios": "https://dc.lft.to/lastmile_qr_scan", "android": "https://dc.lft.to/lastmile_qr_scan"}, "lon": -77.03214966666667, "fusion_lon": 0.0, "is_disabled": 0, "lat": 38.915476, "bike_id": "f8afd05ac3a82566cce6d4eeb4567743", "name": "f8afd05ac3a82566cce6d4eeb4567743", "is_reserved": 0, "fusion_lat": 0.0}, {"type": "electric_scooter", "rental_uris": {"ios": "https://dc.lft.to/lastmile_qr_scan", "android": "https://dc.lft.to/lastmile_qr_scan"}, "lon": -77.0394285, "fusion_lon": 0.0, "is_disabled": 0, "lat": 38.8990535, "bike_id": "697a9440be34213f6477d717fb594d94", "name": "697a9440be34213f6477d717fb594d94", "is_reserved": 0, "fusion_lat": 0.0}, {"type": "electric_scooter", "rental_uris": {"ios": "https://dc.lft.to/lastmile_qr_scan", "android": "https://dc.lft.to/lastmile_qr_scan"}, "lon": -77.07708316666667, "fusion_lon": 0.0, "is_disabled": 0, "lat": 38.929682166666666, "bike_id": "f454237bec5667cb461af26aece071fa", "name": "f454237bec5667cb461af26aece071fa", "is_reserved": 0, "fusion_lat": 0.0}, {"type": "electric_scooter", "rental_uris": {"ios": "https://dc.lft.to/lastmile_qr_scan", "android": "https://dc.lft.to/lastmile_qr_scan"}, "lon": -76.99852116666666, "fusion_lon": 0.0, "is_disabled": 0, "lat": 38.9000095, "bike_id": "5787fb9670049b9912eebcd78e54a342", "name": "5787fb9670049b9912eebcd78e54a342", "is_reserved": 0, "fusion_lat": 0.0}, {"type": "electric_scooter", "rental_uris": {"ios": "https://dc.lft.to/lastmile_qr_scan", "android": "https://dc.lft.to/lastmile_qr_scan"}, "lon": -77.032035, "fusion_lon": 0.0, "is_disabled": 0, "lat": 38.913390166666666, "bike_id": "af491d187394c62d10b5f6d78c6110df", "name": "af491d187394c62d10b5f6d78c6110df", "is_reserved": 0, "fusion_lat": 0.0}, {"type": "electric_scooter", "rental_uris": {"ios": "https://dc.lft.to/lastmile_qr_scan", "android": "https://dc.lft.to/lastmile_qr_scan"}, "lon": -77.02141683333333, "fusion_lon": 0.0, "is_disabled": 0, "lat": 38.925925166666666, "bike_id": "883677d22352929d8dc1bd2f67721273", "name": "883677d22352929d8dc1bd2f67721273", "is_reserved": 0, "fusion_lat": 0.0}, {"type": "electric_scooter", "rental_uris": {"ios": "https://dc.lft.to/lastmile_qr_scan", "android": "https://dc.lft.to/lastmile_qr_scan"}, "lon": -77.02220116666666, "fusion_lon": 0.0, "is_disabled": 0, "lat": 38.89220433333333, "bike_id": "cc14dbffe7a85326d7a3c7478aae0931", "name": "cc14dbffe7a85326d7a3c7478aae0931", "is_reserved": 0, "fusion_lat": 0.0}, {"type": "electric_scooter", "rental_uris": {"ios": "https://dc.lft.to/lastmile_qr_scan", "android": "https://dc.lft.to/lastmile_qr_scan"}, "lon": -77.03292283333333, "fusion_lon": 0.0, "is_disabled": 0, "lat": 38.94714866666666, "bike_id": "ae313cceb91f5217565ad14e9ffe1abe", "name": "ae313cceb91f5217565ad14e9ffe1abe", "is_reserved": 0, "fusion_lat": 0.0}, {"type": "electric_scooter", "rental_uris": {"ios": "https://dc.lft.to/lastmile_qr_scan", "android": "https://dc.lft.to/lastmile_qr_scan"}, "lon": -77.04443033333334, "fusion_lon": 0.0, "is_disabled": 0, "lat": 38.9126745, "bike_id": "9ca29834b646e96a100b64bc9857bba5", "name": "9ca29834b646e96a100b64bc9857bba5", "is_reserved": 0, "fusion_lat": 0.0}, {"type": "electric_scooter", "rental_uris": {"ios": "https://dc.lft.to/lastmile_qr_scan", "android": "https://dc.lft.to/lastmile_qr_scan"}, "lon": -77.0246525, "fusion_lon": 0.0, "is_disabled": 0, "lat": 38.9330325, "bike_id": "9504c3a08f72ca9ba92075d05137f3fb", "name": "9504c3a08f72ca9ba92075d05137f3fb", "is_reserved": 0, "fusion_lat": 0.0}, {"type": "electric_scooter", "rental_uris": {"ios": "https://dc.lft.to/lastmile_qr_scan", "android": "https://dc.lft.to/lastmile_qr_scan"}, "lon": -77.05502933333334, "fusion_lon": 0.0, "is_disabled": 0, "lat": 38.93657566666667, "bike_id": "8c15a1dd14b6bfa40bfb0f6f48ef9b4f", "name": "8c15a1dd14b6bfa40bfb0f6f48ef9b4f", "is_reserved": 0, "fusion_lat": 0.0}, {"type": "electric_scooter", "rental_uris": {"ios": "https://dc.lft.to/lastmile_qr_scan", "android": "https://dc.lft.to/lastmile_qr_scan"}, "lon": -77.024932, "fusion_lon": 0.0, "is_disabled": 0, "lat": 38.94187, "bike_id": "6cdda434250643d6fc0a2a9d5f97dcb2", "name": "6cdda434250643d6fc0a2a9d5f97dcb2", "is_reserved": 0, "fusion_lat": 0.0}, {"type": "electric_bike", "rental_uris": {"ios": "https://dc.lft.to/lastmile_qr_scan", "android": "https://dc.lft.to/lastmile_qr_scan"}, "lon": -77.02780883333334, "fusion_lon": 0.0, "is_disabled": 0, "lat": 38.929328, "bike_id": "11ae1f3c7378dd281cfb9c2584ad5d1e", "name": "11ae1f3c7378dd281cfb9c2584ad5d1e", "is_reserved": 0, "fusion_lat": 0.0}, {"type": "electric_scooter", "rental_uris": {"ios": "https://dc.lft.to/lastmile_qr_scan", "android": "https://dc.lft.to/lastmile_qr_scan"}, "lon": -77.017695, "fusion_lon": 0.0, "is_disabled": 0, "lat": 38.905652833333335, "bike_id": "ee1a3f8049c399d9256325a0898d1f6d", "name": "ee1a3f8049c399d9256325a0898d1f6d", "is_reserved": 0, "fusion_lat": 0.0}, {"type": "electric_bike", "rental_uris": {"ios": "https://dc.lft.to/lastmile_qr_scan", "android": "https://dc.lft.to/lastmile_qr_scan"}, "lon": -76.9718575, "fusion_lon": 0.0, "is_disabled": 0, "lat": 38.9178765, "bike_id": "049c79e355bc144e80eb1ca9b3c4e072", "name": "049c79e355bc144e80eb1ca9b3c4e072", "is_reserved": 0, "fusion_lat": 0.0}, {"type": "electric_scooter", "rental_uris": {"ios": "https://dc.lft.to/lastmile_qr_scan", "android": "https://dc.lft.to/lastmile_qr_scan"}, "lon": -77.0416995, "fusion_lon": 0.0, "is_disabled": 0, "lat": 38.91618016666666, "bike_id": "96279cf3f7bc57cc868ad5b432ee0de3", "name": "96279cf3f7bc57cc868ad5b432ee0de3", "is_reserved": 0, "fusion_lat": 0.0}, {"type": "electric_bike", "rental_uris": {"ios": "https://dc.lft.to/lastmile_qr_scan", "android": "https://dc.lft.to/lastmile_qr_scan"}, "lon": -77.13145083333333, "fusion_lon": 0.0, "is_disabled": 0, "lat": 38.86169983333333, "bike_id": "cd24bf2f468f580ae8be241cf9c977bd", "name": "cd24bf2f468f580ae8be241cf9c977bd", "is_reserved": 0, "fusion_lat": 0.0}, {"type": "electric_scooter", "rental_uris": {"ios": "https://dc.lft.to/lastmile_qr_scan", "android": "https://dc.lft.to/lastmile_qr_scan"}, "lon": -76.98705166666667, "fusion_lon": 0.0, "is_disabled": 0, "lat": 38.865385833333335, "bike_id": "b74225b621d0366a59b81a7f7c2d61ab", "name": "b74225b621d0366a59b81a7f7c2d61ab", "is_reserved": 0, "fusion_lat": 0.0}, {"type": "electric_scooter", "rental_uris": {"ios": "https://dc.lft.to/lastmile_qr_scan", "android": "https://dc.lft.to/lastmile_qr_scan"}, "lon": -77.01133266666666, "fusion_lon": 0.0, "is_disabled": 0, "lat": 38.88525216666667, "bike_id": "f97caa05c1406d88ab916289bc11fa5b", "name": "f97caa05c1406d88ab916289bc11fa5b", "is_reserved": 0, "fusion_lat": 0.0}, {"type": "electric_scooter", "rental_uris": {"ios": "https://dc.lft.to/lastmile_qr_scan", "android": "https://dc.lft.to/lastmile_qr_scan"}, "lon": -77.02969, "fusion_lon": 0.0, "is_disabled": 0, "lat": 38.9346835, "bike_id": "913a68a3a424d251e2c54fca3a413b1e", "name": "913a68a3a424d251e2c54fca3a413b1e", "is_reserved": 0, "fusion_lat": 0.0}, {"type": "electric_scooter", "rental_uris": {"ios": "https://dc.lft.to/lastmile_qr_scan", "android": "https://dc.lft.to/lastmile_qr_scan"}, "lon": -77.02412483333333, "fusion_lon": 0.0, "is_disabled": 0, "lat": 38.89197016666667, "bike_id": "6abe26aa86043149f2fc80f198f82d30", "name": "6abe26aa86043149f2fc80f198f82d30", "is_reserved": 0, "fusion_lat": 0.0}, {"type": "electric_bike", "rental_uris": {"ios": "https://dc.lft.to/lastmile_qr_scan", "android": "https://dc.lft.to/lastmile_qr_scan"}, "lon": -76.985361, "fusion_lon": 0.0, "is_disabled": 0, "lat": 38.880816833333334, "bike_id": "86c468db725e259d22e88eb71542a8a0", "name": "86c468db725e259d22e88eb71542a8a0", "is_reserved": 0, "fusion_lat": 0.0}, {"type": "electric_scooter", "rental_uris": {"ios": "https://dc.lft.to/lastmile_qr_scan", "android": "https://dc.lft.to/lastmile_qr_scan"}, "lon": -77.026935, "fusion_lon": 0.0, "is_disabled": 0, "lat": 38.90681416666666, "bike_id": "051cd4e6bd3ed6382654f9a609cc961d", "name": "051cd4e6bd3ed6382654f9a609cc961d", "is_reserved": 0, "fusion_lat": 0.0}, {"type": "electric_scooter", "rental_uris": {"ios": "https://dc.lft.to/lastmile_qr_scan", "android": "https://dc.lft.to/lastmile_qr_scan"}, "lon": -77.02189166666666, "fusion_lon": 0.0, "is_disabled": 0, "lat": 38.91062933333333, "bike_id": "ff09163eae4936187129cbe684d1512e", "name": "ff09163eae4936187129cbe684d1512e", "is_reserved": 0, "fusion_lat": 0.0}, {"type": "electric_scooter", "rental_uris": {"ios": "https://dc.lft.to/lastmile_qr_scan", "android": "https://dc.lft.to/lastmile_qr_scan"}, "lon": -77.0262555, "fusion_lon": 0.0, "is_disabled": 0, "lat": 38.88740083333333, "bike_id": "b7f3619d342ed95a4bd62be8a92f4150", "name": "b7f3619d342ed95a4bd62be8a92f4150", "is_reserved": 0, "fusion_lat": 0.0}, {"type": "electric_scooter", "rental_uris": {"ios": "https://dc.lft.to/lastmile_qr_scan", "android": "https://dc.lft.to/lastmile_qr_scan"}, "lon": -77.0770925, "fusion_lon": 0.0, "is_disabled": 0, "lat": 38.943878, "bike_id": "910228ef781341736dc9ba8d5c3a5e2a", "name": "910228ef781341736dc9ba8d5c3a5e2a", "is_reserved": 0, "fusion_lat": 0.0}, {"type": "electric_scooter", "rental_uris": {"ios": "https://dc.lft.to/lastmile_qr_scan", "android": "https://dc.lft.to/lastmile_qr_scan"}, "lon": -77.0434845, "fusion_lon": 0.0, "is_disabled": 0, "lat": 38.9134635, "bike_id": "0166a553a12b2519d2db96a02fb436e8", "name": "0166a553a12b2519d2db96a02fb436e8", "is_reserved": 0, "fusion_lat": 0.0}, {"type": "electric_bike", "rental_uris": {"ios": "https://dc.lft.to/lastmile_qr_scan", "android": "https://dc.lft.to/lastmile_qr_scan"}, "lon": -77.03900483333334, "fusion_lon": 0.0, "is_disabled": 0, "lat": 38.923317833333336, "bike_id": "e4f86f86a40631f741b880e27c992640", "name": "e4f86f86a40631f741b880e27c992640", "is_reserved": 0, "fusion_lat": 0.0}, {"type": "electric_scooter", "rental_uris": {"ios": "https://dc.lft.to/lastmile_qr_scan", "android": "https://dc.lft.to/lastmile_qr_scan"}, "lon": -77.04433483333334, "fusion_lon": 0.0, "is_disabled": 0, "lat": 38.9211905, "bike_id": "d14bc44abde7110aaba1f33c89472d4c", "name": "d14bc44abde7110aaba1f33c89472d4c", "is_reserved": 0, "fusion_lat": 0.0}, {"type": "electric_scooter", "rental_uris": {"ios": "https://dc.lft.to/lastmile_qr_scan", "android": "https://dc.lft.to/lastmile_qr_scan"}, "lon": -77.038809, "fusion_lon": 0.0, "is_disabled": 0, "lat": 38.9026775, "bike_id": "56bcbfecc08e56451793e0143074554e", "name": "56bcbfecc08e56451793e0143074554e", "is_reserved": 0, "fusion_lat": 0.0}, {"type": "electric_scooter", "rental_uris": {"ios": "https://dc.lft.to/lastmile_qr_scan", "android": "https://dc.lft.to/lastmile_qr_scan"}, "lon": -77.02691, "fusion_lon": 0.0, "is_disabled": 0, "lat": 38.906, "bike_id": "c0434c910fc267ccf222d312723ff166", "name": "c0434c910fc267ccf222d312723ff166", "is_reserved": 0, "fusion_lat": 0.0}, {"type": "electric_bike", "rental_uris": {"ios": "https://dc.lft.to/lastmile_qr_scan", "android": "https://dc.lft.to/lastmile_qr_scan"}, "lon": -77.0492865, "fusion_lon": 0.0, "is_disabled": 0, "lat": 39.029364666666666, "bike_id": "2e319976225198ac53731acd3e97a1af", "name": "2e319976225198ac53731acd3e97a1af", "is_reserved": 0, "fusion_lat": 0.0}, {"type": "electric_bike", "rental_uris": {"ios": "https://dc.lft.to/lastmile_qr_scan", "android": "https://dc.lft.to/lastmile_qr_scan"}, "lon": -77.027744, "fusion_lon": 0.0, "is_disabled": 0, "lat": 38.929072, "bike_id": "b4b4206f13760e5f21acee986f33f7d5", "name": "b4b4206f13760e5f21acee986f33f7d5", "is_reserved": 0, "fusion_lat": 0.0}, {"type": "electric_bike", "rental_uris": {"ios": "https://dc.lft.to/lastmile_qr_scan", "android": "https://dc.lft.to/lastmile_qr_scan"}, "lon": -77.03595833333334, "fusion_lon": 0.0, "is_disabled": 0, "lat": 38.90689366666667, "bike_id": "25f54cc6cc91f2c7d3d8b84ff945df1f", "name": "25f54cc6cc91f2c7d3d8b84ff945df1f", "is_reserved": 0, "fusion_lat": 0.0}, {"type": "electric_scooter", "rental_uris": {"ios": "https://dc.lft.to/lastmile_qr_scan", "android": "https://dc.lft.to/lastmile_qr_scan"}, "lon": -77.04172866666667, "fusion_lon": 0.0, "is_disabled": 0, "lat": 38.915510166666664, "bike_id": "80ccf935827c9124e2e0d7682c2ffce3", "name": "80ccf935827c9124e2e0d7682c2ffce3", "is_reserved": 0, "fusion_lat": 0.0}, {"type": "electric_scooter", "rental_uris": {"ios": "https://dc.lft.to/lastmile_qr_scan", "android": "https://dc.lft.to/lastmile_qr_scan"}, "lon": -76.9541185, "fusion_lon": 0.0, "is_disabled": 0, "lat": 38.8899815, "bike_id": "e93aea018955a7cc3e544a47664fa94b", "name": "e93aea018955a7cc3e544a47664fa94b", "is_reserved": 0, "fusion_lat": 0.0}, {"type": "electric_scooter", "rental_uris": {"ios": "https://dc.lft.to/lastmile_qr_scan", "android": "https://dc.lft.to/lastmile_qr_scan"}, "lon": -77.03856883333333, "fusion_lon": 0.0, "is_disabled": 0, "lat": 38.912382666666666, "bike_id": "5e5b8f3afded7aa4dd3b1b6a15197c30", "name": "5e5b8f3afded7aa4dd3b1b6a15197c30", "is_reserved": 0, "fusion_lat": 0.0}, {"type": "electric_scooter", "rental_uris": {"ios": "https://dc.lft.to/lastmile_qr_scan", "android": "https://dc.lft.to/lastmile_qr_scan"}, "lon": -76.98691316666667, "fusion_lon": 0.0, "is_disabled": 0, "lat": 38.866195, "bike_id": "8025481df8ebcfff45fd62598efb2a9d", "name": "8025481df8ebcfff45fd62598efb2a9d", "is_reserved": 0, "fusion_lat": 0.0}, {"type": "electric_scooter", "rental_uris": {"ios": "https://dc.lft.to/lastmile_qr_scan", "android": "https://dc.lft.to/lastmile_qr_scan"}, "lon": -77.0240585, "fusion_lon": 0.0, "is_disabled": 0, "lat": 38.95709983333333, "bike_id": "69015595b02d307336e1f1a92b900d7b", "name": "69015595b02d307336e1f1a92b900d7b", "is_reserved": 0, "fusion_lat": 0.0}, {"type": "electric_scooter", "rental_uris": {"ios": "https://dc.lft.to/lastmile_qr_scan", "android": "https://dc.lft.to/lastmile_qr_scan"}, "lon": -77.02784116666666, "fusion_lon": 0.0, "is_disabled": 0, "lat": 38.89916933333333, "bike_id": "969fb9abc7ecbfcb43ce29a8af4e3d77", "name": "969fb9abc7ecbfcb43ce29a8af4e3d77", "is_reserved": 0, "fusion_lat": 0.0}, {"type": "electric_scooter", "rental_uris": {"ios": "https://dc.lft.to/lastmile_qr_scan", "android": "https://dc.lft.to/lastmile_qr_scan"}, "lon": -76.9949955, "fusion_lon": 0.0, "is_disabled": 0, "lat": 38.926630333333335, "bike_id": "ccc5702ef6bacc3fdd492396601d3a5f", "name": "ccc5702ef6bacc3fdd492396601d3a5f", "is_reserved": 0, "fusion_lat": 0.0}, {"type": "electric_scooter", "rental_uris": {"ios": "https://dc.lft.to/lastmile_qr_scan", "android": "https://dc.lft.to/lastmile_qr_scan"}, "lon": -77.0435505, "fusion_lon": 0.0, "is_disabled": 0, "lat": 38.905377, "bike_id": "659910507359dd254a5c3881b102fa6c", "name": "659910507359dd254a5c3881b102fa6c", "is_reserved": 0, "fusion_lat": 0.0}, {"type": "electric_scooter", "rental_uris": {"ios": "https://dc.lft.to/lastmile_qr_scan", "android": "https://dc.lft.to/lastmile_qr_scan"}, "lon": -77.0417465, "fusion_lon": 0.0, "is_disabled": 0, "lat": 38.905266166666664, "bike_id": "f11418fd2925f1ee21d4b912a62aba02", "name": "f11418fd2925f1ee21d4b912a62aba02", "is_reserved": 0, "fusion_lat": 0.0}, {"type": "electric_scooter", "rental_uris": {"ios": "https://dc.lft.to/lastmile_qr_scan", "android": "https://dc.lft.to/lastmile_qr_scan"}, "lon": -77.01069033333333, "fusion_lon": 0.0, "is_disabled": 0, "lat": 38.90730283333333, "bike_id": "64a5d161511931e8713bfeb078763af4", "name": "64a5d161511931e8713bfeb078763af4", "is_reserved": 0, "fusion_lat": 0.0}, {"type": "electric_scooter", "rental_uris": {"ios": "https://dc.lft.to/lastmile_qr_scan", "android": "https://dc.lft.to/lastmile_qr_scan"}, "lon": -77.00370833333334, "fusion_lon": 0.0, "is_disabled": 0, "lat": 38.882651, "bike_id": "2c4bc07b4762f25b12b69570800a491c", "name": "2c4bc07b4762f25b12b69570800a491c", "is_reserved": 0, "fusion_lat": 0.0}, {"type": "electric_scooter", "rental_uris": {"ios": "https://dc.lft.to/lastmile_qr_scan", "android": "https://dc.lft.to/lastmile_qr_scan"}, "lon": -77.0441115, "fusion_lon": 0.0, "is_disabled": 0, "lat": 38.93422266666666, "bike_id": "682c843f17d42f427e4338c8686d3e43", "name": "682c843f17d42f427e4338c8686d3e43", "is_reserved": 0, "fusion_lat": 0.0}, {"type": "electric_scooter", "rental_uris": {"ios": "https://dc.lft.to/lastmile_qr_scan", "android": "https://dc.lft.to/lastmile_qr_scan"}, "lon": -77.04181516666667, "fusion_lon": 0.0, "is_disabled": 0, "lat": 38.90530833333333, "bike_id": "a8b3b221bdac3379046353f3e47087d5", "name": "a8b3b221bdac3379046353f3e47087d5", "is_reserved": 0, "fusion_lat": 0.0}, {"type": "electric_scooter", "rental_uris": {"ios": "https://dc.lft.to/lastmile_qr_scan", "android": "https://dc.lft.to/lastmile_qr_scan"}, "lon": -77.029846, "fusion_lon": 0.0, "is_disabled": 0, "lat": 38.93063383333333, "bike_id": "ec57d607809d52501c47490277add93a", "name": "ec57d607809d52501c47490277add93a", "is_reserved": 0, "fusion_lat": 0.0}, {"type": "electric_scooter", "rental_uris": {"ios": "https://dc.lft.to/lastmile_qr_scan", "android": "https://dc.lft.to/lastmile_qr_scan"}, "lon": -77.04326983333333, "fusion_lon": 0.0, "is_disabled": 0, "lat": 38.8922445, "bike_id": "8ed95ed77fed78230da53f0caddf7394", "name": "8ed95ed77fed78230da53f0caddf7394", "is_reserved": 0, "fusion_lat": 0.0}, {"type": "electric_scooter", "rental_uris": {"ios": "https://dc.lft.to/lastmile_qr_scan", "android": "https://dc.lft.to/lastmile_qr_scan"}, "lon": -77.00392766666667, "fusion_lon": 0.0, "is_disabled": 0, "lat": 38.910551, "bike_id": "cbc5cc15e37bd19e0cc004a22e3f5755", "name": "cbc5cc15e37bd19e0cc004a22e3f5755", "is_reserved": 0, "fusion_lat": 0.0}, {"type": "electric_scooter", "rental_uris": {"ios": "https://dc.lft.to/lastmile_qr_scan", "android": "https://dc.lft.to/lastmile_qr_scan"}, "lon": -77.03725933333334, "fusion_lon": 0.0, "is_disabled": 0, "lat": 38.9171345, "bike_id": "808950135095b656e1f8b10a90e80b71", "name": "808950135095b656e1f8b10a90e80b71", "is_reserved": 0, "fusion_lat": 0.0}, {"type": "electric_scooter", "rental_uris": {"ios": "https://dc.lft.to/lastmile_qr_scan", "android": "https://dc.lft.to/lastmile_qr_scan"}, "lon": -77.022169, "fusion_lon": 0.0, "is_disabled": 0, "lat": 38.912789833333335, "bike_id": "a59dd37886e3873c131209a90598c35f", "name": "a59dd37886e3873c131209a90598c35f", "is_reserved": 0, "fusion_lat": 0.0}, {"type": "electric_scooter", "rental_uris": {"ios": "https://dc.lft.to/lastmile_qr_scan", "android": "https://dc.lft.to/lastmile_qr_scan"}, "lon": -77.0271585, "fusion_lon": 0.0, "is_disabled": 0, "lat": 38.9073775, "bike_id": "427f5bee8a7c597f976a3e800a8a5121", "name": "427f5bee8a7c597f976a3e800a8a5121", "is_reserved": 0, "fusion_lat": 0.0}, {"type": "electric_scooter", "rental_uris": {"ios": "https://dc.lft.to/lastmile_qr_scan", "android": "https://dc.lft.to/lastmile_qr_scan"}, "lon": -77.03541233333333, "fusion_lon": 0.0, "is_disabled": 0, "lat": 38.9264305, "bike_id": "73348b1d90375b35f62a42fd9e9c844b", "name": "73348b1d90375b35f62a42fd9e9c844b", "is_reserved": 0, "fusion_lat": 0.0}, {"type": "electric_scooter", "rental_uris": {"ios": "https://dc.lft.to/lastmile_qr_scan", "android": "https://dc.lft.to/lastmile_qr_scan"}, "lon": -77.02780333333334, "fusion_lon": 0.0, "is_disabled": 0, "lat": 38.89726533333334, "bike_id": "387d11c10d00d887257bf8c97db2f91d", "name": "387d11c10d00d887257bf8c97db2f91d", "is_reserved": 0, "fusion_lat": 0.0}, {"type": "electric_scooter", "rental_uris": {"ios": "https://dc.lft.to/lastmile_qr_scan", "android": "https://dc.lft.to/lastmile_qr_scan"}, "lon": -77.028027, "fusion_lon": 0.0, "is_disabled": 0, "lat": 38.892269, "bike_id": "1edc21124f7704274771e7987ee52d17", "name": "1edc21124f7704274771e7987ee52d17", "is_reserved": 0, "fusion_lat": 0.0}, {"type": "electric_scooter", "rental_uris": {"ios": "https://dc.lft.to/lastmile_qr_scan", "android": "https://dc.lft.to/lastmile_qr_scan"}, "lon": -76.98922933333333, "fusion_lon": 0.0, "is_disabled": 0, "lat": 38.840793166666664, "bike_id": "61cc0ddf7ac1911c00b259f58ca22a61", "name": "61cc0ddf7ac1911c00b259f58ca22a61", "is_reserved": 0, "fusion_lat": 0.0}, {"type": "electric_scooter", "rental_uris": {"ios": "https://dc.lft.to/lastmile_qr_scan", "android": "https://dc.lft.to/lastmile_qr_scan"}, "lon": -77.02691683333333, "fusion_lon": 0.0, "is_disabled": 0, "lat": 38.906777, "bike_id": "11fb4425268b09e6ac142e22aeacb19b", "name": "11fb4425268b09e6ac142e22aeacb19b", "is_reserved": 0, "fusion_lat": 0.0}, {"type": "electric_bike", "rental_uris": {"ios": "https://dc.lft.to/lastmile_qr_scan", "android": "https://dc.lft.to/lastmile_qr_scan"}, "lon": -77.10125733333334, "fusion_lon": 0.0, "is_disabled": 0, "lat": 38.852086666666665, "bike_id": "5439983dd75878a00bc630573350a198", "name": "5439983dd75878a00bc630573350a198", "is_reserved": 0, "fusion_lat": 0.0}, {"type": "electric_scooter", "rental_uris": {"ios": "https://dc.lft.to/lastmile_qr_scan", "android": "https://dc.lft.to/lastmile_qr_scan"}, "lon": -77.0265015, "fusion_lon": 0.0, "is_disabled": 0, "lat": 38.9166715, "bike_id": "eaea8ccc177ce5b41f8477493512db52", "name": "eaea8ccc177ce5b41f8477493512db52", "is_reserved": 0, "fusion_lat": 0.0}, {"type": "electric_scooter", "rental_uris": {"ios": "https://dc.lft.to/lastmile_qr_scan", "android": "https://dc.lft.to/lastmile_qr_scan"}, "lon": -77.03394983333334, "fusion_lon": 0.0, "is_disabled": 0, "lat": 38.90716883333333, "bike_id": "c305c8ff0141ef445db350ba1a36834a", "name": "c305c8ff0141ef445db350ba1a36834a", "is_reserved": 0, "fusion_lat": 0.0}, {"type": "electric_scooter", "rental_uris": {"ios": "https://dc.lft.to/lastmile_qr_scan", "android": "https://dc.lft.to/lastmile_qr_scan"}, "lon": -77.026173, "fusion_lon": 0.0, "is_disabled": 0, "lat": 38.905644833333334, "bike_id": "92d2c6e4dc0117096176b2c21091fa29", "name": "92d2c6e4dc0117096176b2c21091fa29", "is_reserved": 0, "fusion_lat": 0.0}, {"type": "electric_scooter", "rental_uris": {"ios": "https://dc.lft.to/lastmile_qr_scan", "android": "https://dc.lft.to/lastmile_qr_scan"}, "lon": -77.00015783333333, "fusion_lon": 0.0, "is_disabled": 0, "lat": 38.90756233333333, "bike_id": "651b04a40b1e67a4b8c1f0129e3fc7b7", "name": "651b04a40b1e67a4b8c1f0129e3fc7b7", "is_reserved": 0, "fusion_lat": 0.0}, {"type": "electric_scooter", "rental_uris": {"ios": "https://dc.lft.to/lastmile_qr_scan", "android": "https://dc.lft.to/lastmile_qr_scan"}, "lon": -77.041438, "fusion_lon": 0.0, "is_disabled": 0, "lat": 38.89221516666667, "bike_id": "1e445d921bc931d9eb2fb3a8dd1d5861", "name": "1e445d921bc931d9eb2fb3a8dd1d5861", "is_reserved": 0, "fusion_lat": 0.0}, {"type": "electric_scooter", "rental_uris": {"ios": "https://dc.lft.to/lastmile_qr_scan", "android": "https://dc.lft.to/lastmile_qr_scan"}, "lon": -77.01479166666667, "fusion_lon": 0.0, "is_disabled": 0, "lat": 38.8881635, "bike_id": "50d372824fc6c32a2bcb0fde4af70b91", "name": "50d372824fc6c32a2bcb0fde4af70b91", "is_reserved": 0, "fusion_lat": 0.0}, {"type": "electric_scooter", "rental_uris": {"ios": "https://dc.lft.to/lastmile_qr_scan", "android": "https://dc.lft.to/lastmile_qr_scan"}, "lon": -77.0241185, "fusion_lon": 0.0, "is_disabled": 0, "lat": 38.89194233333333, "bike_id": "63eb7c3c38a6da765def8d59ed7d9639", "name": "63eb7c3c38a6da765def8d59ed7d9639", "is_reserved": 0, "fusion_lat": 0.0}, {"type": "electric_scooter", "rental_uris": {"ios": "https://dc.lft.to/lastmile_qr_scan", "android": "https://dc.lft.to/lastmile_qr_scan"}, "lon": -77.02697583333334, "fusion_lon": 0.0, "is_disabled": 0, "lat": 38.91823616666667, "bike_id": "3341f96365eff81b587fc29d75440cb3", "name": "3341f96365eff81b587fc29d75440cb3", "is_reserved": 0, "fusion_lat": 0.0}, {"type": "electric_scooter", "rental_uris": {"ios": "https://dc.lft.to/lastmile_qr_scan", "android": "https://dc.lft.to/lastmile_qr_scan"}, "lon": -77.02909016666666, "fusion_lon": 0.0, "is_disabled": 0, "lat": 38.925736, "bike_id": "77364356d43ea0b49346f2976478b3e5", "name": "77364356d43ea0b49346f2976478b3e5", "is_reserved": 0, "fusion_lat": 0.0}, {"type": "electric_scooter", "rental_uris": {"ios": "https://dc.lft.to/lastmile_qr_scan", "android": "https://dc.lft.to/lastmile_qr_scan"}, "lon": -76.93184816666667, "fusion_lon": 0.0, "is_disabled": 0, "lat": 38.89876533333333, "bike_id": "ee2474d6e151a2f832f52fc5b50aec8f", "name": "ee2474d6e151a2f832f52fc5b50aec8f", "is_reserved": 0, "fusion_lat": 0.0}, {"type": "electric_scooter", "rental_uris": {"ios": "https://dc.lft.to/lastmile_qr_scan", "android": "https://dc.lft.to/lastmile_qr_scan"}, "lon": -77.03093183333333, "fusion_lon": 0.0, "is_disabled": 0, "lat": 38.87919616666667, "bike_id": "f3c067245656504c0d9298d88f682b6a", "name": "f3c067245656504c0d9298d88f682b6a", "is_reserved": 0, "fusion_lat": 0.0}, {"type": "electric_bike", "rental_uris": {"ios": "https://dc.lft.to/lastmile_qr_scan", "android": "https://dc.lft.to/lastmile_qr_scan"}, "lon": -77.077738, "fusion_lon": 0.0, "is_disabled": 0, "lat": 38.930515166666666, "bike_id": "5fa4cec987742da4f238b3976628ca4f", "name": "5fa4cec987742da4f238b3976628ca4f", "is_reserved": 0, "fusion_lat": 0.0}, {"type": "electric_scooter", "rental_uris": {"ios": "https://dc.lft.to/lastmile_qr_scan", "android": "https://dc.lft.to/lastmile_qr_scan"}, "lon": -77.04818633333333, "fusion_lon": 0.0, "is_disabled": 0, "lat": 38.90538083333333, "bike_id": "679ab4b1265b07055eea2b1b45335a6c", "name": "679ab4b1265b07055eea2b1b45335a6c", "is_reserved": 0, "fusion_lat": 0.0}, {"type": "electric_scooter", "rental_uris": {"ios": "https://dc.lft.to/lastmile_qr_scan", "android": "https://dc.lft.to/lastmile_qr_scan"}, "lon": -77.07055416666667, "fusion_lon": 0.0, "is_disabled": 0, "lat": 38.919177833333336, "bike_id": "b51c63cb1466105a8d6725c0d57865dc", "name": "b51c63cb1466105a8d6725c0d57865dc", "is_reserved": 0, "fusion_lat": 0.0}, {"type": "electric_scooter", "rental_uris": {"ios": "https://dc.lft.to/lastmile_qr_scan", "android": "https://dc.lft.to/lastmile_qr_scan"}, "lon": -77.050233, "fusion_lon": 0.0, "is_disabled": 0, "lat": 38.923571333333335, "bike_id": "ca64d204e9336f0a4458ee25df2e9f0d", "name": "ca64d204e9336f0a4458ee25df2e9f0d", "is_reserved": 0, "fusion_lat": 0.0}, {"type": "electric_scooter", "rental_uris": {"ios": "https://dc.lft.to/lastmile_qr_scan", "android": "https://dc.lft.to/lastmile_qr_scan"}, "lon": -77.034619, "fusion_lon": 0.0, "is_disabled": 0, "lat": 38.9225635, "bike_id": "8063a2d3cfdbe6069300c4dce48bf68f", "name": "8063a2d3cfdbe6069300c4dce48bf68f", "is_reserved": 0, "fusion_lat": 0.0}, {"type": "electric_scooter", "rental_uris": {"ios": "https://dc.lft.to/lastmile_qr_scan", "android": "https://dc.lft.to/lastmile_qr_scan"}, "lon": -77.04168633333333, "fusion_lon": 0.0, "is_disabled": 0, "lat": 38.90293483333333, "bike_id": "f04b817088a5794b883bea67d0a29e7f", "name": "f04b817088a5794b883bea67d0a29e7f", "is_reserved": 0, "fusion_lat": 0.0}, {"type": "electric_scooter", "rental_uris": {"ios": "https://dc.lft.to/lastmile_qr_scan", "android": "https://dc.lft.to/lastmile_qr_scan"}, "lon": -77.032926, "fusion_lon": 0.0, "is_disabled": 0, "lat": 38.9564725, "bike_id": "7842a7129d202687275ad6c0bc3ee59e", "name": "7842a7129d202687275ad6c0bc3ee59e", "is_reserved": 0, "fusion_lat": 0.0}, {"type": "electric_scooter", "rental_uris": {"ios": "https://dc.lft.to/lastmile_qr_scan", "android": "https://dc.lft.to/lastmile_qr_scan"}, "lon": -76.98987416666667, "fusion_lon": 0.0, "is_disabled": 0, "lat": 38.86495933333333, "bike_id": "1029a9591f5ed9672dd434caa77992ce", "name": "1029a9591f5ed9672dd434caa77992ce", "is_reserved": 0, "fusion_lat": 0.0}, {"type": "electric_scooter", "rental_uris": {"ios": "https://dc.lft.to/lastmile_qr_scan", "android": "https://dc.lft.to/lastmile_qr_scan"}, "lon": -77.01541433333334, "fusion_lon": 0.0, "is_disabled": 0, "lat": 38.89166016666667, "bike_id": "8fe9b9c04da88bd225708dfa4af0bae0", "name": "8fe9b9c04da88bd225708dfa4af0bae0", "is_reserved": 0, "fusion_lat": 0.0}, {"type": "electric_scooter", "rental_uris": {"ios": "https://dc.lft.to/lastmile_qr_scan", "android": "https://dc.lft.to/lastmile_qr_scan"}, "lon": -77.013682, "fusion_lon": 0.0, "is_disabled": 0, "lat": 38.89231933333333, "bike_id": "4f1be0b51cccce03cdb004b23ee40ca7", "name": "4f1be0b51cccce03cdb004b23ee40ca7", "is_reserved": 0, "fusion_lat": 0.0}, {"type": "electric_scooter", "rental_uris": {"ios": "https://dc.lft.to/lastmile_qr_scan", "android": "https://dc.lft.to/lastmile_qr_scan"}, "lon": -77.03707866666667, "fusion_lon": 0.0, "is_disabled": 0, "lat": 38.92830883333333, "bike_id": "5a46a5a56a9f44c4ffac8d0da838652b", "name": "5a46a5a56a9f44c4ffac8d0da838652b", "is_reserved": 0, "fusion_lat": 0.0}, {"type": "electric_scooter", "rental_uris": {"ios": "https://dc.lft.to/lastmile_qr_scan", "android": "https://dc.lft.to/lastmile_qr_scan"}, "lon": -77.05024166666666, "fusion_lon": 0.0, "is_disabled": 0, "lat": 38.923565833333335, "bike_id": "c786e221b23ce3fe92c5c5a6d4b0ada5", "name": "c786e221b23ce3fe92c5c5a6d4b0ada5", "is_reserved": 0, "fusion_lat": 0.0}, {"type": "electric_scooter", "rental_uris": {"ios": "https://dc.lft.to/lastmile_qr_scan", "android": "https://dc.lft.to/lastmile_qr_scan"}, "lon": -77.0722945, "fusion_lon": 0.0, "is_disabled": 0, "lat": 38.898971333333336, "bike_id": "c6b06d160327c28f3d6afbacd3f18960", "name": "c6b06d160327c28f3d6afbacd3f18960", "is_reserved": 0, "fusion_lat": 0.0}, {"type": "electric_scooter", "rental_uris": {"ios": "https://dc.lft.to/lastmile_qr_scan", "android": "https://dc.lft.to/lastmile_qr_scan"}, "lon": -77.0253305, "fusion_lon": 0.0, "is_disabled": 0, "lat": 38.923755666666665, "bike_id": "d2f94b8ffd9dc4b070ec3ac39269070f", "name": "d2f94b8ffd9dc4b070ec3ac39269070f", "is_reserved": 0, "fusion_lat": 0.0}, {"type": "electric_scooter", "rental_uris": {"ios": "https://dc.lft.to/lastmile_qr_scan", "android": "https://dc.lft.to/lastmile_qr_scan"}, "lon": -77.02330583333334, "fusion_lon": 0.0, "is_disabled": 0, "lat": 38.922978, "bike_id": "f434356b3501dc5921878a617bc58ffa", "name": "f434356b3501dc5921878a617bc58ffa", "is_reserved": 0, "fusion_lat": 0.0}, {"type": "electric_scooter", "rental_uris": {"ios": "https://dc.lft.to/lastmile_qr_scan", "android": "https://dc.lft.to/lastmile_qr_scan"}, "lon": -77.02192983333333, "fusion_lon": 0.0, "is_disabled": 0, "lat": 38.9329615, "bike_id": "0e4aed47061705658fcb0f5af3b3d564", "name": "0e4aed47061705658fcb0f5af3b3d564", "is_reserved": 0, "fusion_lat": 0.0}, {"type": "electric_scooter", "rental_uris": {"ios": "https://dc.lft.to/lastmile_qr_scan", "android": "https://dc.lft.to/lastmile_qr_scan"}, "lon": -77.03760616666666, "fusion_lon": 0.0, "is_disabled": 0, "lat": 38.91689266666667, "bike_id": "34ee081e20d70d0a731052344248370a", "name": "34ee081e20d70d0a731052344248370a", "is_reserved": 0, "fusion_lat": 0.0}, {"type": "electric_bike", "rental_uris": {"ios": "https://dc.lft.to/lastmile_qr_scan", "android": "https://dc.lft.to/lastmile_qr_scan"}, "lon": -77.00553966666666, "fusion_lon": 0.0, "is_disabled": 0, "lat": 38.905608666666666, "bike_id": "824119cead6f89f787a7a5e45383035d", "name": "824119cead6f89f787a7a5e45383035d", "is_reserved": 0, "fusion_lat": 0.0}, {"type": "electric_scooter", "rental_uris": {"ios": "https://dc.lft.to/lastmile_qr_scan", "android": "https://dc.lft.to/lastmile_qr_scan"}, "lon": -77.02174116666667, "fusion_lon": 0.0, "is_disabled": 0, "lat": 38.9148135, "bike_id": "72165dafc1c51adc269af78bfa9c7ff5", "name": "72165dafc1c51adc269af78bfa9c7ff5", "is_reserved": 0, "fusion_lat": 0.0}, {"type": "electric_scooter", "rental_uris": {"ios": "https://dc.lft.to/lastmile_qr_scan", "android": "https://dc.lft.to/lastmile_qr_scan"}, "lon": -77.03774083333333, "fusion_lon": 0.0, "is_disabled": 0, "lat": 38.91117966666667, "bike_id": "b1b5c0fa005d679e1d187bfa7848cebb", "name": "b1b5c0fa005d679e1d187bfa7848cebb", "is_reserved": 0, "fusion_lat": 0.0}, {"type": "electric_scooter", "rental_uris": {"ios": "https://dc.lft.to/lastmile_qr_scan", "android": "https://dc.lft.to/lastmile_qr_scan"}, "lon": -77.0590305, "fusion_lon": 0.0, "is_disabled": 0, "lat": 38.90245266666667, "bike_id": "66635449debfeecafe32bf7494dfbf53", "name": "66635449debfeecafe32bf7494dfbf53", "is_reserved": 0, "fusion_lat": 0.0}, {"type": "electric_scooter", "rental_uris": {"ios": "https://dc.lft.to/lastmile_qr_scan", "android": "https://dc.lft.to/lastmile_qr_scan"}, "lon": -76.9920565, "fusion_lon": 0.0, "is_disabled": 0, "lat": 38.90814866666667, "bike_id": "d96ca31aeab059fa26ca37e64723ff9b", "name": "d96ca31aeab059fa26ca37e64723ff9b", "is_reserved": 0, "fusion_lat": 0.0}, {"type": "electric_scooter", "rental_uris": {"ios": "https://dc.lft.to/lastmile_qr_scan", "android": "https://dc.lft.to/lastmile_qr_scan"}, "lon": -76.97727883333333, "fusion_lon": 0.0, "is_disabled": 0, "lat": 38.87289416666667, "bike_id": "6f079a521fead2e007745798f7d315be", "name": "6f079a521fead2e007745798f7d315be", "is_reserved": 0, "fusion_lat": 0.0}, {"type": "electric_scooter", "rental_uris": {"ios": "https://dc.lft.to/lastmile_qr_scan", "android": "https://dc.lft.to/lastmile_qr_scan"}, "lon": -77.04573916666666, "fusion_lon": 0.0, "is_disabled": 0, "lat": 38.92243833333333, "bike_id": "74dddcbdf18ffcc659a4774cca1612df", "name": "74dddcbdf18ffcc659a4774cca1612df", "is_reserved": 0, "fusion_lat": 0.0}, {"type": "electric_scooter", "rental_uris": {"ios": "https://dc.lft.to/lastmile_qr_scan", "android": "https://dc.lft.to/lastmile_qr_scan"}, "lon": -77.035012, "fusion_lon": 0.0, "is_disabled": 0, "lat": 38.9187765, "bike_id": "91e1893d97c37a007c11f444cc1a4160", "name": "91e1893d97c37a007c11f444cc1a4160", "is_reserved": 0, "fusion_lat": 0.0}, {"type": "electric_scooter", "rental_uris": {"ios": "https://dc.lft.to/lastmile_qr_scan", "android": "https://dc.lft.to/lastmile_qr_scan"}, "lon": -77.02194, "fusion_lon": 0.0, "is_disabled": 0, "lat": 38.920977666666666, "bike_id": "02e5274950d611831de37008e251dd75", "name": "02e5274950d611831de37008e251dd75", "is_reserved": 0, "fusion_lat": 0.0}, {"type": "electric_scooter", "rental_uris": {"ios": "https://dc.lft.to/lastmile_qr_scan", "android": "https://dc.lft.to/lastmile_qr_scan"}, "lon": -77.06111016666667, "fusion_lon": 0.0, "is_disabled": 0, "lat": 38.90531516666667, "bike_id": "3343318d03e6eed6039ed650b0d081af", "name": "3343318d03e6eed6039ed650b0d081af", "is_reserved": 0, "fusion_lat": 0.0}, {"type": "electric_scooter", "rental_uris": {"ios": "https://dc.lft.to/lastmile_qr_scan", "android": "https://dc.lft.to/lastmile_qr_scan"}, "lon": -77.03854133333333, "fusion_lon": 0.0, "is_disabled": 0, "lat": 38.90814833333334, "bike_id": "4f632024d8d1447b48127f838e6e1441", "name": "4f632024d8d1447b48127f838e6e1441", "is_reserved": 0, "fusion_lat": 0.0}, {"type": "electric_scooter", "rental_uris": {"ios": "https://dc.lft.to/lastmile_qr_scan", "android": "https://dc.lft.to/lastmile_qr_scan"}, "lon": -77.0319215, "fusion_lon": 0.0, "is_disabled": 0, "lat": 38.918577, "bike_id": "619ddac4220ce08ce9fa8c80780f9813", "name": "619ddac4220ce08ce9fa8c80780f9813", "is_reserved": 0, "fusion_lat": 0.0}, {"type": "electric_scooter", "rental_uris": {"ios": "https://dc.lft.to/lastmile_qr_scan", "android": "https://dc.lft.to/lastmile_qr_scan"}, "lon": -77.04168066666666, "fusion_lon": 0.0, "is_disabled": 0, "lat": 38.905334833333335, "bike_id": "67405e4ad72afa7a132c1b400d18d8fd", "name": "67405e4ad72afa7a132c1b400d18d8fd", "is_reserved": 0, "fusion_lat": 0.0}, {"type": "electric_scooter", "rental_uris": {"ios": "https://dc.lft.to/lastmile_qr_scan", "android": "https://dc.lft.to/lastmile_qr_scan"}, "lon": -76.99088833333333, "fusion_lon": 0.0, "is_disabled": 0, "lat": 38.882351, "bike_id": "9fcba9557c527b388322816728d885bb", "name": "9fcba9557c527b388322816728d885bb", "is_reserved": 0, "fusion_lat": 0.0}, {"type": "electric_scooter", "rental_uris": {"ios": "https://dc.lft.to/lastmile_qr_scan", "android": "https://dc.lft.to/lastmile_qr_scan"}, "lon": -77.00669966666666, "fusion_lon": 0.0, "is_disabled": 0, "lat": 38.90032883333333, "bike_id": "fd950d902b0b5c6ccc2daed2f83234f6", "name": "fd950d902b0b5c6ccc2daed2f83234f6", "is_reserved": 0, "fusion_lat": 0.0}, {"type": "electric_scooter", "rental_uris": {"ios": "https://dc.lft.to/lastmile_qr_scan", "android": "https://dc.lft.to/lastmile_qr_scan"}, "lon": -77.04180366666667, "fusion_lon": 0.0, "is_disabled": 0, "lat": 38.905871, "bike_id": "b48e90fe54ce3111b857403408c070e1", "name": "b48e90fe54ce3111b857403408c070e1", "is_reserved": 0, "fusion_lat": 0.0}, {"type": "electric_scooter", "rental_uris": {"ios": "https://dc.lft.to/lastmile_qr_scan", "android": "https://dc.lft.to/lastmile_qr_scan"}, "lon": -76.99636366666667, "fusion_lon": 0.0, "is_disabled": 0, "lat": 38.90889633333333, "bike_id": "1cb030188576e746a4fb234fc232c303", "name": "1cb030188576e746a4fb234fc232c303", "is_reserved": 0, "fusion_lat": 0.0}, {"type": "electric_scooter", "rental_uris": {"ios": "https://dc.lft.to/lastmile_qr_scan", "android": "https://dc.lft.to/lastmile_qr_scan"}, "lon": -77.0229285, "fusion_lon": 0.0, "is_disabled": 0, "lat": 38.9162085, "bike_id": "70559ee14ba05f62fab13725f0f6f71b", "name": "70559ee14ba05f62fab13725f0f6f71b", "is_reserved": 0, "fusion_lat": 0.0}, {"type": "electric_scooter", "rental_uris": {"ios": "https://dc.lft.to/lastmile_qr_scan", "android": "https://dc.lft.to/lastmile_qr_scan"}, "lon": -77.02297533333333, "fusion_lon": 0.0, "is_disabled": 0, "lat": 38.9208045, "bike_id": "3a93e2f713fa70ec9df77543cf741d62", "name": "3a93e2f713fa70ec9df77543cf741d62", "is_reserved": 0, "fusion_lat": 0.0}, {"type": "electric_scooter", "rental_uris": {"ios": "https://dc.lft.to/lastmile_qr_scan", "android": "https://dc.lft.to/lastmile_qr_scan"}, "lon": -77.023866, "fusion_lon": 0.0, "is_disabled": 0, "lat": 38.906152666666664, "bike_id": "90e57c923a73a2e2417e2f6872d1436a", "name": "90e57c923a73a2e2417e2f6872d1436a", "is_reserved": 0, "fusion_lat": 0.0}, {"type": "electric_scooter", "rental_uris": {"ios": "https://dc.lft.to/lastmile_qr_scan", "android": "https://dc.lft.to/lastmile_qr_scan"}, "lon": -76.97225266666666, "fusion_lon": 0.0, "is_disabled": 0, "lat": 38.85454766666667, "bike_id": "58b999ae3f493210d7c0c2b5436e1054", "name": "58b999ae3f493210d7c0c2b5436e1054", "is_reserved": 0, "fusion_lat": 0.0}, {"type": "electric_scooter", "rental_uris": {"ios": "https://dc.lft.to/lastmile_qr_scan", "android": "https://dc.lft.to/lastmile_qr_scan"}, "lon": -76.99248666666666, "fusion_lon": 0.0, "is_disabled": 0, "lat": 38.8638255, "bike_id": "7d31ee8147ae2eb0c6141ec69ad06b12", "name": "7d31ee8147ae2eb0c6141ec69ad06b12", "is_reserved": 0, "fusion_lat": 0.0}, {"type": "electric_scooter", "rental_uris": {"ios": "https://dc.lft.to/lastmile_qr_scan", "android": "https://dc.lft.to/lastmile_qr_scan"}, "lon": -77.03259066666666, "fusion_lon": 0.0, "is_disabled": 0, "lat": 38.939745, "bike_id": "63b2a0486bcdf38c111b1839ce523351", "name": "63b2a0486bcdf38c111b1839ce523351", "is_reserved": 0, "fusion_lat": 0.0}, {"type": "electric_scooter", "rental_uris": {"ios": "https://dc.lft.to/lastmile_qr_scan", "android": "https://dc.lft.to/lastmile_qr_scan"}, "lon": -77.027913, "fusion_lon": 0.0, "is_disabled": 0, "lat": 38.930991666666664, "bike_id": "16e71bea20a3944c0569ee889a721ae7", "name": "16e71bea20a3944c0569ee889a721ae7", "is_reserved": 0, "fusion_lat": 0.0}, {"type": "electric_scooter", "rental_uris": {"ios": "https://dc.lft.to/lastmile_qr_scan", "android": "https://dc.lft.to/lastmile_qr_scan"}, "lon": -77.03473483333333, "fusion_lon": 0.0, "is_disabled": 0, "lat": 38.9095375, "bike_id": "c9f92b62790cac227c37a9b3fff5693d", "name": "c9f92b62790cac227c37a9b3fff5693d", "is_reserved": 0, "fusion_lat": 0.0}, {"type": "electric_scooter", "rental_uris": {"ios": "https://dc.lft.to/lastmile_qr_scan", "android": "https://dc.lft.to/lastmile_qr_scan"}, "lon": -76.983733, "fusion_lon": 0.0, "is_disabled": 0, "lat": 38.86113866666667, "bike_id": "7ef7ed1db3bd54aa46f48da1e2d28a29", "name": "7ef7ed1db3bd54aa46f48da1e2d28a29", "is_reserved": 0, "fusion_lat": 0.0}, {"type": "electric_scooter", "rental_uris": {"ios": "https://dc.lft.to/lastmile_qr_scan", "android": "https://dc.lft.to/lastmile_qr_scan"}, "lon": -77.02637383333334, "fusion_lon": 0.0, "is_disabled": 0, "lat": 38.91064383333333, "bike_id": "2990b7783490bbd4bfe24f058b66f572", "name": "2990b7783490bbd4bfe24f058b66f572", "is_reserved": 0, "fusion_lat": 0.0}, {"type": "electric_scooter", "rental_uris": {"ios": "https://dc.lft.to/lastmile_qr_scan", "android": "https://dc.lft.to/lastmile_qr_scan"}, "lon": -77.043906, "fusion_lon": 0.0, "is_disabled": 0, "lat": 38.924399333333334, "bike_id": "63cd8bedd7428fd12f5cacbd90542405", "name": "63cd8bedd7428fd12f5cacbd90542405", "is_reserved": 0, "fusion_lat": 0.0}, {"type": "electric_scooter", "rental_uris": {"ios": "https://dc.lft.to/lastmile_qr_scan", "android": "https://dc.lft.to/lastmile_qr_scan"}, "lon": -77.040354, "fusion_lon": 0.0, "is_disabled": 0, "lat": 38.91853733333333, "bike_id": "23ebaa5db9cf0c048303fa56a32b81ed", "name": "23ebaa5db9cf0c048303fa56a32b81ed", "is_reserved": 0, "fusion_lat": 0.0}, {"type": "electric_scooter", "rental_uris": {"ios": "https://dc.lft.to/lastmile_qr_scan", "android": "https://dc.lft.to/lastmile_qr_scan"}, "lon": -77.02420183333334, "fusion_lon": 0.0, "is_disabled": 0, "lat": 38.905634, "bike_id": "d9e2ea36fd0ffe422e9500d29a594fa9", "name": "d9e2ea36fd0ffe422e9500d29a594fa9", "is_reserved": 0, "fusion_lat": 0.0}, {"type": "electric_scooter", "rental_uris": {"ios": "https://dc.lft.to/lastmile_qr_scan", "android": "https://dc.lft.to/lastmile_qr_scan"}, "lon": -77.02203583333333, "fusion_lon": 0.0, "is_disabled": 0, "lat": 38.916615166666666, "bike_id": "f58e8ac46ec92d52c515ed5b6af5c9b5", "name": "f58e8ac46ec92d52c515ed5b6af5c9b5", "is_reserved": 0, "fusion_lat": 0.0}, {"type": "electric_scooter", "rental_uris": {"ios": "https://dc.lft.to/lastmile_qr_scan", "android": "https://dc.lft.to/lastmile_qr_scan"}, "lon": -76.99215466666666, "fusion_lon": 0.0, "is_disabled": 0, "lat": 38.903616, "bike_id": "6cc40d734dd53e153c5e88378f794194", "name": "6cc40d734dd53e153c5e88378f794194", "is_reserved": 0, "fusion_lat": 0.0}, {"type": "electric_scooter", "rental_uris": {"ios": "https://dc.lft.to/lastmile_qr_scan", "android": "https://dc.lft.to/lastmile_qr_scan"}, "lon": -77.0092175, "fusion_lon": 0.0, "is_disabled": 0, "lat": 38.8954875, "bike_id": "035b1d82377729f585c2f8c36380981c", "name": "035b1d82377729f585c2f8c36380981c", "is_reserved": 0, "fusion_lat": 0.0}, {"type": "electric_scooter", "rental_uris": {"ios": "https://dc.lft.to/lastmile_qr_scan", "android": "https://dc.lft.to/lastmile_qr_scan"}, "lon": -77.07522216666666, "fusion_lon": 0.0, "is_disabled": 0, "lat": 38.93941566666667, "bike_id": "db9b01f54e79456a19c3e5b3d572c402", "name": "db9b01f54e79456a19c3e5b3d572c402", "is_reserved": 0, "fusion_lat": 0.0}, {"type": "electric_scooter", "rental_uris": {"ios": "https://dc.lft.to/lastmile_qr_scan", "android": "https://dc.lft.to/lastmile_qr_scan"}, "lon": -77.02685816666667, "fusion_lon": 0.0, "is_disabled": 0, "lat": 38.925921, "bike_id": "c6dc3331784c5dfadb8c712af07f153e", "name": "c6dc3331784c5dfadb8c712af07f153e", "is_reserved": 0, "fusion_lat": 0.0}, {"type": "electric_scooter", "rental_uris": {"ios": "https://dc.lft.to/lastmile_qr_scan", "android": "https://dc.lft.to/lastmile_qr_scan"}, "lon": -77.0445295, "fusion_lon": 0.0, "is_disabled": 0, "lat": 38.92418833333333, "bike_id": "9f23e7489d25f81b532f3f7c2fb3014b", "name": "9f23e7489d25f81b532f3f7c2fb3014b", "is_reserved": 0, "fusion_lat": 0.0}, {"type": "electric_bike", "rental_uris": {"ios": "https://dc.lft.to/lastmile_qr_scan", "android": "https://dc.lft.to/lastmile_qr_scan"}, "lon": -76.98811933333333, "fusion_lon": 0.0, "is_disabled": 0, "lat": 38.911357833333334, "bike_id": "383a88ed513fbfe3a0f259ba6d5ba66f", "name": "383a88ed513fbfe3a0f259ba6d5ba66f", "is_reserved": 0, "fusion_lat": 0.0}, {"type": "electric_scooter", "rental_uris": {"ios": "https://dc.lft.to/lastmile_qr_scan", "android": "https://dc.lft.to/lastmile_qr_scan"}, "lon": -77.01555466666667, "fusion_lon": 0.0, "is_disabled": 0, "lat": 38.879894166666666, "bike_id": "ab8e059f68452b720682fe3386d26e42", "name": "ab8e059f68452b720682fe3386d26e42", "is_reserved": 0, "fusion_lat": 0.0}, {"type": "electric_scooter", "rental_uris": {"ios": "https://dc.lft.to/lastmile_qr_scan", "android": "https://dc.lft.to/lastmile_qr_scan"}, "lon": -77.02610566666667, "fusion_lon": 0.0, "is_disabled": 0, "lat": 38.930785, "bike_id": "45e73c146c3dd5e9a152262b2abe4aaa", "name": "45e73c146c3dd5e9a152262b2abe4aaa", "is_reserved": 0, "fusion_lat": 0.0}, {"type": "electric_scooter", "rental_uris": {"ios": "https://dc.lft.to/lastmile_qr_scan", "android": "https://dc.lft.to/lastmile_qr_scan"}, "lon": -77.00758183333333, "fusion_lon": 0.0, "is_disabled": 0, "lat": 38.90713616666667, "bike_id": "41c9f06c475dfa477258f3281975238f", "name": "41c9f06c475dfa477258f3281975238f", "is_reserved": 0, "fusion_lat": 0.0}, {"type": "electric_scooter", "rental_uris": {"ios": "https://dc.lft.to/lastmile_qr_scan", "android": "https://dc.lft.to/lastmile_qr_scan"}, "lon": -77.03637816666667, "fusion_lon": 0.0, "is_disabled": 0, "lat": 38.916192833333334, "bike_id": "f4db4735acfec7408412bb76f1c38d59", "name": "f4db4735acfec7408412bb76f1c38d59", "is_reserved": 0, "fusion_lat": 0.0}, {"type": "electric_scooter", "rental_uris": {"ios": "https://dc.lft.to/lastmile_qr_scan", "android": "https://dc.lft.to/lastmile_qr_scan"}, "lon": -77.04014383333333, "fusion_lon": 0.0, "is_disabled": 0, "lat": 38.941933666666664, "bike_id": "a4142fb84a2c29d7347f7a3829ea2d82", "name": "a4142fb84a2c29d7347f7a3829ea2d82", "is_reserved": 0, "fusion_lat": 0.0}, {"type": "electric_scooter", "rental_uris": {"ios": "https://dc.lft.to/lastmile_qr_scan", "android": "https://dc.lft.to/lastmile_qr_scan"},