{"data": {"bikes": [{"fusion_lon": 0.0, "fusion_lat": 0.0, "rental_uris": {"android": "https://dc.lft.to/lastmile_qr_scan", "ios": "https://dc.lft.to/lastmile_qr_scan"}, "is_disabled": 0, "type": "electric_scooter", "is_reserved": 0, "name": "f49a378c8316aebaede7556034e755ab", "lon": -77.01948316666666, "bike_id": "f49a378c8316aebaede7556034e755ab", "lat": 38.94696783333333}, {"fusion_lon": 0.0, "fusion_lat": 0.0, "rental_uris": {"android": "https://dc.lft.to/lastmile_qr_scan", "ios": "https://dc.lft.to/lastmile_qr_scan"}, "is_disabled": 0, "type": "electric_scooter", "is_reserved": 0, "name": "15616f4eebd4308f1f9feea03bc1c92d", "lon": -76.94822033333334, "bike_id": "15616f4eebd4308f1f9feea03bc1c92d", "lat": 38.893473666666665}, {"fusion_lon": 0.0, "fusion_lat": 0.0, "rental_uris": {"android": "https://dc.lft.to/lastmile_qr_scan", "ios": "https://dc.lft.to/lastmile_qr_scan"}, "is_disabled": 0, "type": "electric_bike", "is_reserved": 0, "name": "64e6ed97a0dca37377e059c69ec9cd07", "lon": -77.23394466666667, "bike_id": "64e6ed97a0dca37377e059c69ec9cd07", "lat": 38.871739166666664}, {"fusion_lon": 0.0, "fusion_lat": 0.0, "rental_uris": {"android": "https://dc.lft.to/lastmile_qr_scan", "ios": "https://dc.lft.to/lastmile_qr_scan"}, "is_disabled": 0, "type": "electric_bike", "is_reserved": 0, "name": "0d12072cb7b1a898e7674a81e5bd49c9", "lon": -77.09402716666666, "bike_id": "0d12072cb7b1a898e7674a81e5bd49c9", "lat": 38.97807266666667}, {"fusion_lon": 0.0, "fusion_lat": 0.0, "rental_uris": {"android": "https://dc.lft.to/lastmile_qr_scan", "ios": "https://dc.lft.to/lastmile_qr_scan"}, "is_disabled": 0, "type": "electric_scooter", "is_reserved": 0, "name": "1bb853377fc842bda42b727873f10bd2", "lon": -77.015213, "bike_id": "1bb853377fc842bda42b727873f10bd2", "lat": 38.87280916666667}, {"fusion_lon": 0.0, "fusion_lat": 0.0, "rental_uris": {"android": "https://dc.lft.to/lastmile_qr_scan", "ios": "https://dc.lft.to/lastmile_qr_scan"}, "is_disabled": 0, "type": "electric_scooter", "is_reserved": 0, "name": "275f2b0ea69e688b55df1e057699d82a", "lon": -77.0353475, "bike_id": "275f2b0ea69e688b55df1e057699d82a", "lat": 38.90354833333333}, {"fusion_lon": 0.0, "fusion_lat": 0.0, "rental_uris": {"android": "https://dc.lft.to/lastmile_qr_scan", "ios": "https://dc.lft.to/lastmile_qr_scan"}, "is_disabled": 0, "type": "electric_scooter", "is_reserved": 0, "name": "fbb3f7a0f7cf960c7f23065f3327c3e4", "lon": -77.03286133333333, "bike_id": "fbb3f7a0f7cf960c7f23065f3327c3e4", "lat": 38.937293833333335}, {"fusion_lon": 0.0, "fusion_lat": 0.0, "rental_uris": {"android": "https://dc.lft.to/lastmile_qr_scan", "ios": "https://dc.lft.to/lastmile_qr_scan"}, "is_disabled": 0, "type": "electric_bike", "is_reserved": 0, "name": "0ce221b747097f6c7acbf790355a3d43", "lon": -77.09687033333333, "bike_id": "0ce221b747097f6c7acbf790355a3d43", "lat": 38.8073815}, {"fusion_lon": 0.0, "fusion_lat": 0.0, "rental_uris": {"android": "https://dc.lft.to/lastmile_qr_scan", "ios": "https://dc.lft.to/lastmile_qr_scan"}, "is_disabled": 0, "type": "electric_scooter", "is_reserved": 0, "name": "c11f2c33c75913c4f8c126a6a91b6387", "lon": -77.03939, "bike_id": "c11f2c33c75913c4f8c126a6a91b6387", "lat": 38.89831}, {"fusion_lon": 0.0, "fusion_lat": 0.0, "rental_uris": {"android": "https://dc.lft.to/lastmile_qr_scan", "ios": "https://dc.lft.to/lastmile_qr_scan"}, "is_disabled": 0, "type": "electric_scooter", "is_reserved": 0, "name": "f6d2eae4d09e528fb9b03e8d14ffb16d", "lon": -77.01955583333333, "bike_id": "f6d2eae4d09e528fb9b03e8d14ffb16d", "lat": 38.92319083333334}, {"fusion_lon": 0.0, "fusion_lat": 0.0, "rental_uris": {"android": "https://dc.lft.to/lastmile_qr_scan", "ios": "https://dc.lft.to/lastmile_qr_scan"}, "is_disabled": 0, "type": "electric_scooter", "is_reserved": 0, "name": "8d2a242c5776458801eb0cf381abecc9", "lon": -77.032037, "bike_id": "8d2a242c5776458801eb0cf381abecc9", "lat": 38.90127366666667}, {"fusion_lon": 0.0, "fusion_lat": 0.0, "rental_uris": {"android": "https://dc.lft.to/lastmile_qr_scan", "ios": "https://dc.lft.to/lastmile_qr_scan"}, "is_disabled": 0, "type": "electric_scooter", "is_reserved": 0, "name": "363eec8253c92951388f0460f0b8198c", "lon": -77.02236116666667, "bike_id": "363eec8253c92951388f0460f0b8198c", "lat": 38.92462666666667}, {"fusion_lon": 0.0, "fusion_lat": 0.0, "rental_uris": {"android": "https://dc.lft.to/lastmile_qr_scan", "ios": "https://dc.lft.to/lastmile_qr_scan"}, "is_disabled": 0, "type": "electric_scooter", "is_reserved": 0, "name": "ef995505974300d96b92ce568410511a", "lon": -77.02214883333333, "bike_id": "ef995505974300d96b92ce568410511a", "lat": 38.9273325}, {"fusion_lon": 0.0, "fusion_lat": 0.0, "rental_uris": {"android": "https://dc.lft.to/lastmile_qr_scan", "ios": "https://dc.lft.to/lastmile_qr_scan"}, "is_disabled": 0, "type": "electric_scooter", "is_reserved": 0, "name": "e40e9ad25179e6d031fb643125534424", "lon": -77.02823383333333, "bike_id": "e40e9ad25179e6d031fb643125534424", "lat": 38.906966833333335}, {"fusion_lon": 0.0, "fusion_lat": 0.0, "rental_uris": {"android": "https://dc.lft.to/lastmile_qr_scan", "ios": "https://dc.lft.to/lastmile_qr_scan"}, "is_disabled": 0, "type": "electric_scooter", "is_reserved": 0, "name": "64e3cbf3c57642baf2f43edbd48d8f5a", "lon": -77.04551366666666, "bike_id": "64e3cbf3c57642baf2f43edbd48d8f5a", "lat": 38.909696333333336}, {"fusion_lon": 0.0, "fusion_lat": 0.0, "rental_uris": {"android": "https://dc.lft.to/lastmile_qr_scan", "ios": "https://dc.lft.to/lastmile_qr_scan"}, "is_disabled": 0, "type": "electric_scooter", "is_reserved": 0, "name": "f36bfc13b56b4a66b7d67734c8938044", "lon": -77.03237966666667, "bike_id": "f36bfc13b56b4a66b7d67734c8938044", "lat": 38.928832666666665}, {"fusion_lon": 0.0, "fusion_lat": 0.0, "rental_uris": {"android": "https://dc.lft.to/lastmile_qr_scan", "ios": "https://dc.lft.to/lastmile_qr_scan"}, "is_disabled": 0, "type": "electric_scooter", "is_reserved": 0, "name": "45732b0eeb6daec760d08c566e3ec7ac", "lon": -77.031456, "bike_id": "45732b0eeb6daec760d08c566e3ec7ac", "lat": 38.928110333333336}, {"fusion_lon": 0.0, "fusion_lat": 0.0, "rental_uris": {"android": "https://dc.lft.to/lastmile_qr_scan", "ios": "https://dc.lft.to/lastmile_qr_scan"}, "is_disabled": 0, "type": "electric_scooter", "is_reserved": 0, "name": "4c350ca3535f43f8924601b4ce11d6fa", "lon": -77.04208383333334, "bike_id": "4c350ca3535f43f8924601b4ce11d6fa", "lat": 38.920573}, {"fusion_lon": 0.0, "fusion_lat": 0.0, "rental_uris": {"android": "https://dc.lft.to/lastmile_qr_scan", "ios": "https://dc.lft.to/lastmile_qr_scan"}, "is_disabled": 0, "type": "electric_scooter", "is_reserved": 0, "name": "ba2403c7ab2233e2b2b94650f01ec1ca", "lon": -76.9321045, "bike_id": "ba2403c7ab2233e2b2b94650f01ec1ca", "lat": 38.89661733333333}, {"fusion_lon": 0.0, "fusion_lat": 0.0, "rental_uris": {"android": "https://dc.lft.to/lastmile_qr_scan", "ios": "https://dc.lft.to/lastmile_qr_scan"}, "is_disabled": 0, "type": "electric_scooter", "is_reserved": 0, "name": "d651638240235a1b90d383846a34d3ec", "lon": -77.0453195, "bike_id": "d651638240235a1b90d383846a34d3ec", "lat": 38.89950783333333}, {"fusion_lon": 0.0, "fusion_lat": 0.0, "rental_uris": {"android": "https://dc.lft.to/lastmile_qr_scan", "ios": "https://dc.lft.to/lastmile_qr_scan"}, "is_disabled": 0, "type": "electric_scooter", "is_reserved": 0, "name": "fe138f0ab71361a4205f273f8005bcc7", "lon": -77.01627316666666, "bike_id": "fe138f0ab71361a4205f273f8005bcc7", "lat": 38.90319433333333}, {"fusion_lon": 0.0, "fusion_lat": 0.0, "rental_uris": {"android": "https://dc.lft.to/lastmile_qr_scan", "ios": "https://dc.lft.to/lastmile_qr_scan"}, "is_disabled": 0, "type": "electric_scooter", "is_reserved": 0, "name": "431d3be59e5b48f338b75ba34798fd5e", "lon": -77.03455816666667, "bike_id": "431d3be59e5b48f338b75ba34798fd5e", "lat": 38.9181915}, {"fusion_lon": 0.0, "fusion_lat": 0.0, "rental_uris": {"android": "https://dc.lft.to/lastmile_qr_scan", "ios": "https://dc.lft.to/lastmile_qr_scan"}, "is_disabled": 0, "type": "electric_scooter", "is_reserved": 0, "name": "fb2486cb8041d7a7f6cf51dd0c0673a8", "lon": -77.04507733333334, "bike_id": "fb2486cb8041d7a7f6cf51dd0c0673a8", "lat": 38.91104516666667}, {"fusion_lon": 0.0, "fusion_lat": 0.0, "rental_uris": {"android": "https://dc.lft.to/lastmile_qr_scan", "ios": "https://dc.lft.to/lastmile_qr_scan"}, "is_disabled": 0, "type": "electric_bike", "is_reserved": 0, "name": "cea5c79671abb7d9c1a13ef7d3ad9f39", "lon": -76.98023583333334, "bike_id": "cea5c79671abb7d9c1a13ef7d3ad9f39", "lat": 38.86817216666667}, {"fusion_lon": 0.0, "fusion_lat": 0.0, "rental_uris": {"android": "https://dc.lft.to/lastmile_qr_scan", "ios": "https://dc.lft.to/lastmile_qr_scan"}, "is_disabled": 0, "type": "electric_scooter", "is_reserved": 0, "name": "7fdceafb7848b528566026331eff1fda", "lon": -77.05427166666666, "bike_id": "7fdceafb7848b528566026331eff1fda", "lat": 38.8990995}, {"fusion_lon": 0.0, "fusion_lat": 0.0, "rental_uris": {"android": "https://dc.lft.to/lastmile_qr_scan", "ios": "https://dc.lft.to/lastmile_qr_scan"}, "is_disabled": 0, "type": "electric_bike", "is_reserved": 0, "name": "b61c9ad2004f877e036d29698f9c4727", "lon": -77.00415616666666, "bike_id": "b61c9ad2004f877e036d29698f9c4727", "lat": 38.985272333333334}, {"fusion_lon": 0.0, "fusion_lat": 0.0, "rental_uris": {"android": "https://dc.lft.to/lastmile_qr_scan", "ios": "https://dc.lft.to/lastmile_qr_scan"}, "is_disabled": 0, "type": "electric_scooter", "is_reserved": 0, "name": "04186322580722b415e1748723ea8bb7", "lon": -77.02485066666667, "bike_id": "04186322580722b415e1748723ea8bb7", "lat": 38.91977766666667}, {"fusion_lon": 0.0, "fusion_lat": 0.0, "rental_uris": {"android": "https://dc.lft.to/lastmile_qr_scan", "ios": "https://dc.lft.to/lastmile_qr_scan"}, "is_disabled": 0, "type": "electric_scooter", "is_reserved": 0, "name": "ba1ac713b2b94e3c0e721b5d8423022d", "lon": -77.022163, "bike_id": "ba1ac713b2b94e3c0e721b5d8423022d", "lat": 38.899784}, {"fusion_lon": 0.0, "fusion_lat": 0.0, "rental_uris": {"android": "https://dc.lft.to/lastmile_qr_scan", "ios": "https://dc.lft.to/lastmile_qr_scan"}, "is_disabled": 0, "type": "electric_scooter", "is_reserved": 0, "name": "149490cc6734034aac6faaeca798ebee", "lon": -77.04945866666667, "bike_id": "149490cc6734034aac6faaeca798ebee", "lat": 38.89823966666667}, {"fusion_lon": 0.0, "fusion_lat": 0.0, "rental_uris": {"android": "https://dc.lft.to/lastmile_qr_scan", "ios": "https://dc.lft.to/lastmile_qr_scan"}, "is_disabled": 0, "type": "electric_scooter", "is_reserved": 0, "name": "79269a979e4eea59cba8fb29cec478c4", "lon": -77.01503183333334, "bike_id": "79269a979e4eea59cba8fb29cec478c4", "lat": 38.88111383333333}, {"fusion_lon": 0.0, "fusion_lat": 0.0, "rental_uris": {"android": "https://dc.lft.to/lastmile_qr_scan", "ios": "https://dc.lft.to/lastmile_qr_scan"}, "is_disabled": 0, "type": "electric_scooter", "is_reserved": 0, "name": "ccdc20482972b2b5e32a7f01d11f34d2", "lon": -77.04479133333334, "bike_id": "ccdc20482972b2b5e32a7f01d11f34d2", "lat": 38.893565}, {"fusion_lon": 0.0, "fusion_lat": 0.0, "rental_uris": {"android": "https://dc.lft.to/lastmile_qr_scan", "ios": "https://dc.lft.to/lastmile_qr_scan"}, "is_disabled": 0, "type": "electric_bike", "is_reserved": 0, "name": "6abe80fbe0a39a4fc544241f25fe780e", "lon": -76.972708, "bike_id": "6abe80fbe0a39a4fc544241f25fe780e", "lat": 38.85590783333333}, {"fusion_lon": 0.0, "fusion_lat": 0.0, "rental_uris": {"android": "https://dc.lft.to/lastmile_qr_scan", "ios": "https://dc.lft.to/lastmile_qr_scan"}, "is_disabled": 0, "type": "electric_scooter", "is_reserved": 0, "name": "9588ba7f4b3ba7c862534f5586a24863", "lon": -77.01838416666666, "bike_id": "9588ba7f4b3ba7c862534f5586a24863", "lat": 38.9072965}, {"fusion_lon": 0.0, "fusion_lat": 0.0, "rental_uris": {"android": "https://dc.lft.to/lastmile_qr_scan", "ios": "https://dc.lft.to/lastmile_qr_scan"}, "is_disabled": 0, "type": "electric_bike", "is_reserved": 0, "name": "d244ec1e12923be914e6373fce0b91ba", "lon": -77.13329883333333, "bike_id": "d244ec1e12923be914e6373fce0b91ba", "lat": 39.06029233333334}, {"fusion_lon": 0.0, "fusion_lat": 0.0, "rental_uris": {"android": "https://dc.lft.to/lastmile_qr_scan", "ios": "https://dc.lft.to/lastmile_qr_scan"}, "is_disabled": 0, "type": "electric_scooter", "is_reserved": 0, "name": "7fe4deaa36e366ed4e2f823540ba86c4", "lon": -77.02052816666667, "bike_id": "7fe4deaa36e366ed4e2f823540ba86c4", "lat": 38.92107583333333}, {"fusion_lon": 0.0, "fusion_lat": 0.0, "rental_uris": {"android": "https://dc.lft.to/lastmile_qr_scan", "ios": "https://dc.lft.to/lastmile_qr_scan"}, "is_disabled": 0, "type": "electric_scooter", "is_reserved": 0, "name": "1585abb758b0ccde7dc1d6eb2e437bad", "lon": -77.02507, "bike_id": "1585abb758b0ccde7dc1d6eb2e437bad", "lat": 38.919794333333336}, {"fusion_lon": 0.0, "fusion_lat": 0.0, "rental_uris": {"android": "https://dc.lft.to/lastmile_qr_scan", "ios": "https://dc.lft.to/lastmile_qr_scan"}, "is_disabled": 0, "type": "electric_scooter", "is_reserved": 0, "name": "99d6969435eeeafa9ebd2c0f56ba5728", "lon": -77.0187125, "bike_id": "99d6969435eeeafa9ebd2c0f56ba5728", "lat": 38.881189}, {"fusion_lon": 0.0, "fusion_lat": 0.0, "rental_uris": {"android": "https://dc.lft.to/lastmile_qr_scan", "ios": "https://dc.lft.to/lastmile_qr_scan"}, "is_disabled": 0, "type": "electric_scooter", "is_reserved": 0, "name": "26c8213e52a9ded79d4075bb2d026f52", "lon": -77.03390416666667, "bike_id": "26c8213e52a9ded79d4075bb2d026f52", "lat": 38.899998833333335}, {"fusion_lon": 0.0, "fusion_lat": 0.0, "rental_uris": {"android": "https://dc.lft.to/lastmile_qr_scan", "ios": "https://dc.lft.to/lastmile_qr_scan"}, "is_disabled": 0, "type": "electric_scooter", "is_reserved": 0, "name": "417cd3f61c7d679bbeeb43b4825be7b0", "lon": -77.05000416666667, "bike_id": "417cd3f61c7d679bbeeb43b4825be7b0", "lat": 38.892273833333334}, {"fusion_lon": 0.0, "fusion_lat": 0.0, "rental_uris": {"android": "https://dc.lft.to/lastmile_qr_scan", "ios": "https://dc.lft.to/lastmile_qr_scan"}, "is_disabled": 0, "type": "electric_scooter", "is_reserved": 0, "name": "782f165f110830a0d6d806948a8a00ef", "lon": -77.027177, "bike_id": "782f165f110830a0d6d806948a8a00ef", "lat": 38.919618}, {"fusion_lon": 0.0, "fusion_lat": 0.0, "rental_uris": {"android": "https://dc.lft.to/lastmile_qr_scan", "ios": "https://dc.lft.to/lastmile_qr_scan"}, "is_disabled": 0, "type": "electric_scooter", "is_reserved": 0, "name": "037cf6ede6594b69f61b30f217b03042", "lon": -77.0242735, "bike_id": "037cf6ede6594b69f61b30f217b03042", "lat": 38.9206075}, {"fusion_lon": 0.0, "fusion_lat": 0.0, "rental_uris": {"android": "https://dc.lft.to/lastmile_qr_scan", "ios": "https://dc.lft.to/lastmile_qr_scan"}, "is_disabled": 0, "type": "electric_scooter", "is_reserved": 0, "name": "30d2b1036410047f07a998dca6986674", "lon": -77.02039016666667, "bike_id": "30d2b1036410047f07a998dca6986674", "lat": 38.898675833333336}, {"fusion_lon": 0.0, "fusion_lat": 0.0, "rental_uris": {"android": "https://dc.lft.to/lastmile_qr_scan", "ios": "https://dc.lft.to/lastmile_qr_scan"}, "is_disabled": 0, "type": "electric_scooter", "is_reserved": 0, "name": "dc2f1f4e65521dfe1cd93a0cf0f15b3c", "lon": -77.02206316666667, "bike_id": "dc2f1f4e65521dfe1cd93a0cf0f15b3c", "lat": 38.89528933333333}, {"fusion_lon": 0.0, "fusion_lat": 0.0, "rental_uris": {"android": "https://dc.lft.to/lastmile_qr_scan", "ios": "https://dc.lft.to/lastmile_qr_scan"}, "is_disabled": 0, "type": "electric_scooter", "is_reserved": 0, "name": "0f278d0e0bbf9f3c32b83e094a7a11f1", "lon": -77.00652016666666, "bike_id": "0f278d0e0bbf9f3c32b83e094a7a11f1", "lat": 38.91176266666667}, {"fusion_lon": 0.0, "fusion_lat": 0.0, "rental_uris": {"android": "https://dc.lft.to/lastmile_qr_scan", "ios": "https://dc.lft.to/lastmile_qr_scan"}, "is_disabled": 0, "type": "electric_scooter", "is_reserved": 0, "name": "9d32d07cd510ef11388cf1719c2349f5", "lon": -77.02429216666667, "bike_id": "9d32d07cd510ef11388cf1719c2349f5", "lat": 38.905653666666666}, {"fusion_lon": 0.0, "fusion_lat": 0.0, "rental_uris": {"android": "https://dc.lft.to/lastmile_qr_scan", "ios": "https://dc.lft.to/lastmile_qr_scan"}, "is_disabled": 0, "type": "electric_scooter", "is_reserved": 0, "name": "1c21258122a63bafbd3547157f019813", "lon": -76.98455683333333, "bike_id": "1c21258122a63bafbd3547157f019813", "lat": 38.89236916666667}, {"fusion_lon": 0.0, "fusion_lat": 0.0, "rental_uris": {"android": "https://dc.lft.to/lastmile_qr_scan", "ios": "https://dc.lft.to/lastmile_qr_scan"}, "is_disabled": 0, "type": "electric_scooter", "is_reserved": 0, "name": "83c831b1dc46ac542f7ff5e4501621d5", "lon": -77.00443883333334, "bike_id": "83c831b1dc46ac542f7ff5e4501621d5", "lat": 38.877284833333334}, {"fusion_lon": 0.0, "fusion_lat": 0.0, "rental_uris": {"android": "https://dc.lft.to/lastmile_qr_scan", "ios": "https://dc.lft.to/lastmile_qr_scan"}, "is_disabled": 0, "type": "electric_scooter", "is_reserved": 0, "name": "cb8ef3cee47cf414ff5ac8162249f789", "lon": -77.04669016666666, "bike_id": "cb8ef3cee47cf414ff5ac8162249f789", "lat": 38.90294083333333}, {"fusion_lon": 0.0, "fusion_lat": 0.0, "rental_uris": {"android": "https://dc.lft.to/lastmile_qr_scan", "ios": "https://dc.lft.to/lastmile_qr_scan"}, "is_disabled": 0, "type": "electric_scooter", "is_reserved": 0, "name": "29b337a380800ed9fa9f080d0c3e0a67", "lon": -77.07848566666667, "bike_id": "29b337a380800ed9fa9f080d0c3e0a67", "lat": 38.931510833333334}, {"fusion_lon": 0.0, "fusion_lat": 0.0, "rental_uris": {"android": "https://dc.lft.to/lastmile_qr_scan", "ios": "https://dc.lft.to/lastmile_qr_scan"}, "is_disabled": 0, "type": "electric_scooter", "is_reserved": 0, "name": "5f2c3465bdc5f3c8be5f92dc9ec30a92", "lon": -77.02213433333333, "bike_id": "5f2c3465bdc5f3c8be5f92dc9ec30a92", "lat": 38.924699833333335}, {"fusion_lon": 0.0, "fusion_lat": 0.0, "rental_uris": {"android": "https://dc.lft.to/lastmile_qr_scan", "ios": "https://dc.lft.to/lastmile_qr_scan"}, "is_disabled": 0, "type": "electric_scooter", "is_reserved": 0, "name": "4daac958c7be5495c7e3d6a1be7171e2", "lon": -77.05001216666666, "bike_id": "4daac958c7be5495c7e3d6a1be7171e2", "lat": 38.90086733333333}, {"fusion_lon": 0.0, "fusion_lat": 0.0, "rental_uris": {"android": "https://dc.lft.to/lastmile_qr_scan", "ios": "https://dc.lft.to/lastmile_qr_scan"}, "is_disabled": 0, "type": "electric_scooter", "is_reserved": 0, "name": "c066f21b5d6c6780bbc59d0f9404ec1d", "lon": -77.04242966666666, "bike_id": "c066f21b5d6c6780bbc59d0f9404ec1d", "lat": 38.920586166666666}, {"fusion_lon": 0.0, "fusion_lat": 0.0, "rental_uris": {"android": "https://dc.lft.to/lastmile_qr_scan", "ios": "https://dc.lft.to/lastmile_qr_scan"}, "is_disabled": 0, "type": "electric_scooter", "is_reserved": 0, "name": "a230c81d30fa2b55be2b4ad9d6c371d9", "lon": -77.0119175, "bike_id": "a230c81d30fa2b55be2b4ad9d6c371d9", "lat": 38.89772283333333}, {"fusion_lon": 0.0, "fusion_lat": 0.0, "rental_uris": {"android": "https://dc.lft.to/lastmile_qr_scan", "ios": "https://dc.lft.to/lastmile_qr_scan"}, "is_disabled": 0, "type": "electric_scooter", "is_reserved": 0, "name": "36c528f946b7e3625cf18cd902cb500d", "lon": -76.93474583333334, "bike_id": "36c528f946b7e3625cf18cd902cb500d", "lat": 38.895016}, {"fusion_lon": 0.0, "fusion_lat": 0.0, "rental_uris": {"android": "https://dc.lft.to/lastmile_qr_scan", "ios": "https://dc.lft.to/lastmile_qr_scan"}, "is_disabled": 0, "type": "electric_scooter", "is_reserved": 0, "name": "425e0d3f8d9e8dc6b3667e819b608f07", "lon": -77.037747, "bike_id": "425e0d3f8d9e8dc6b3667e819b608f07", "lat": 38.916861}, {"fusion_lon": 0.0, "fusion_lat": 0.0, "rental_uris": {"android": "https://dc.lft.to/lastmile_qr_scan", "ios": "https://dc.lft.to/lastmile_qr_scan"}, "is_disabled": 0, "type": "electric_scooter", "is_reserved": 0, "name": "d46c95d376f4a694522688b2805104af", "lon": -77.021234, "bike_id": "d46c95d376f4a694522688b2805104af", "lat": 38.9232515}, {"fusion_lon": 0.0, "fusion_lat": 0.0, "rental_uris": {"android": "https://dc.lft.to/lastmile_qr_scan", "ios": "https://dc.lft.to/lastmile_qr_scan"}, "is_disabled": 0, "type": "electric_scooter", "is_reserved": 0, "name": "ba2c675d98c4130c6107992874b215d2", "lon": -76.99946016666667, "bike_id": "ba2c675d98c4130c6107992874b215d2", "lat": 38.877872833333335}, {"fusion_lon": 0.0, "fusion_lat": 0.0, "rental_uris": {"android": "https://dc.lft.to/lastmile_qr_scan", "ios": "https://dc.lft.to/lastmile_qr_scan"}, "is_disabled": 0, "type": "electric_scooter", "is_reserved": 0, "name": "81501ffde225e48df8cf84529a74c98e", "lon": -77.03580033333333, "bike_id": "81501ffde225e48df8cf84529a74c98e", "lat": 38.90210033333334}, {"fusion_lon": 0.0, "fusion_lat": 0.0, "rental_uris": {"android": "https://dc.lft.to/lastmile_qr_scan", "ios": "https://dc.lft.to/lastmile_qr_scan"}, "is_disabled": 0, "type": "electric_scooter", "is_reserved": 0, "name": "18f7e8dfb78e84a1c54226aab44a6dc7", "lon": -77.06130733333333, "bike_id": "18f7e8dfb78e84a1c54226aab44a6dc7", "lat": 38.90523966666667}, {"fusion_lon": 0.0, "fusion_lat": 0.0, "rental_uris": {"android": "https://dc.lft.to/lastmile_qr_scan", "ios": "https://dc.lft.to/lastmile_qr_scan"}, "is_disabled": 0, "type": "electric_scooter", "is_reserved": 0, "name": "bc1870e2989d37f4e5f3928d38603085", "lon": -76.98375166666666, "bike_id": "bc1870e2989d37f4e5f3928d38603085", "lat": 38.860802}, {"fusion_lon": 0.0, "fusion_lat": 0.0, "rental_uris": {"android": "https://dc.lft.to/lastmile_qr_scan", "ios": "https://dc.lft.to/lastmile_qr_scan"}, "is_disabled": 0, "type": "electric_scooter", "is_reserved": 0, "name": "767886ce8052415e1b44f7a4bbca90cf", "lon": -77.02341216666666, "bike_id": "767886ce8052415e1b44f7a4bbca90cf", "lat": 38.91783933333333}, {"fusion_lon": 0.0, "fusion_lat": 0.0, "rental_uris": {"android": "https://dc.lft.to/lastmile_qr_scan", "ios": "https://dc.lft.to/lastmile_qr_scan"}, "is_disabled": 0, "type": "electric_scooter", "is_reserved": 0, "name": "c91737fcfa05cae512eac7009f4a1f73", "lon": -77.03678783333334, "bike_id": "c91737fcfa05cae512eac7009f4a1f73", "lat": 38.90673533333333}, {"fusion_lon": 0.0, "fusion_lat": 0.0, "rental_uris": {"android": "https://dc.lft.to/lastmile_qr_scan", "ios": "https://dc.lft.to/lastmile_qr_scan"}, "is_disabled": 0, "type": "electric_scooter", "is_reserved": 0, "name": "3a43f864c9504573eee1990b70ee384b", "lon": -76.98522283333334, "bike_id": "3a43f864c9504573eee1990b70ee384b", "lat": 38.86675366666667}, {"fusion_lon": 0.0, "fusion_lat": 0.0, "rental_uris": {"android": "https://dc.lft.to/lastmile_qr_scan", "ios": "https://dc.lft.to/lastmile_qr_scan"}, "is_disabled": 0, "type": "electric_scooter", "is_reserved": 0, "name": "7186f7209d5a5f05dec84c0c6b27267f", "lon": -77.02499516666667, "bike_id": "7186f7209d5a5f05dec84c0c6b27267f", "lat": 38.9396395}, {"fusion_lon": 0.0, "fusion_lat": 0.0, "rental_uris": {"android": "https://dc.lft.to/lastmile_qr_scan", "ios": "https://dc.lft.to/lastmile_qr_scan"}, "is_disabled": 0, "type": "electric_scooter", "is_reserved": 0, "name": "389d250a19cf87a2d76ac22c5415adad", "lon": -77.02209, "bike_id": "389d250a19cf87a2d76ac22c5415adad", "lat": 38.8973485}, {"fusion_lon": 0.0, "fusion_lat": 0.0, "rental_uris": {"android": "https://dc.lft.to/lastmile_qr_scan", "ios": "https://dc.lft.to/lastmile_qr_scan"}, "is_disabled": 0, "type": "electric_scooter", "is_reserved": 0, "name": "6ef76d0b2d135b85fa5c3649871958ce", "lon": -76.9911485, "bike_id": "6ef76d0b2d135b85fa5c3649871958ce", "lat": 38.90028566666667}, {"fusion_lon": 0.0, "fusion_lat": 0.0, "rental_uris": {"android": "https://dc.lft.to/lastmile_qr_scan", "ios": "https://dc.lft.to/lastmile_qr_scan"}, "is_disabled": 0, "type": "electric_scooter", "is_reserved": 0, "name": "2c89336b995812f03228155feac83490", "lon": -77.00148283333333, "bike_id": "2c89336b995812f03228155feac83490", "lat": 38.867496833333334}, {"fusion_lon": 0.0, "fusion_lat": 0.0, "rental_uris": {"android": "https://dc.lft.to/lastmile_qr_scan", "ios": "https://dc.lft.to/lastmile_qr_scan"}, "is_disabled": 0, "type": "electric_bike", "is_reserved": 0, "name": "215d0651641184f5e4bf3c048f0b61b6", "lon": -77.04836016666667, "bike_id": "215d0651641184f5e4bf3c048f0b61b6", "lat": 39.0374805}, {"fusion_lon": 0.0, "fusion_lat": 0.0, "rental_uris": {"android": "https://dc.lft.to/lastmile_qr_scan", "ios": "https://dc.lft.to/lastmile_qr_scan"}, "is_disabled": 0, "type": "electric_scooter", "is_reserved": 0, "name": "464572c87a4312f1551978494830581e", "lon": -77.02815683333333, "bike_id": "464572c87a4312f1551978494830581e", "lat": 38.92574033333333}, {"fusion_lon": 0.0, "fusion_lat": 0.0, "rental_uris": {"android": "https://dc.lft.to/lastmile_qr_scan", "ios": "https://dc.lft.to/lastmile_qr_scan"}, "is_disabled": 0, "type": "electric_scooter", "is_reserved": 0, "name": "62809daa78f608b1f4e2c6c5e7bdf303", "lon": -77.03197916666667, "bike_id": "62809daa78f608b1f4e2c6c5e7bdf303", "lat": 38.892266166666666}, {"fusion_lon": 0.0, "fusion_lat": 0.0, "rental_uris": {"android": "https://dc.lft.to/lastmile_qr_scan", "ios": "https://dc.lft.to/lastmile_qr_scan"}, "is_disabled": 0, "type": "electric_scooter", "is_reserved": 0, "name": "f1f8a729a9186978a2263eca91a00a6f", "lon": -77.03226866666667, "bike_id": "f1f8a729a9186978a2263eca91a00a6f", "lat": 38.916463}, {"fusion_lon": 0.0, "fusion_lat": 0.0, "rental_uris": {"android": "https://dc.lft.to/lastmile_qr_scan", "ios": "https://dc.lft.to/lastmile_qr_scan"}, "is_disabled": 0, "type": "electric_bike", "is_reserved": 0, "name": "caa8a319b90ec64e1c173f561b216e2a", "lon": -76.9506255, "bike_id": "caa8a319b90ec64e1c173f561b216e2a", "lat": 39.08503816666666}, {"fusion_lon": 0.0, "fusion_lat": 0.0, "rental_uris": {"android": "https://dc.lft.to/lastmile_qr_scan", "ios": "https://dc.lft.to/lastmile_qr_scan"}, "is_disabled": 0, "type": "electric_scooter", "is_reserved": 0, "name": "cc81ad66c52ca061aec804c921d3fb58", "lon": -77.02215066666666, "bike_id": "cc81ad66c52ca061aec804c921d3fb58", "lat": 38.92473616666667}, {"fusion_lon": 0.0, "fusion_lat": 0.0, "rental_uris": {"android": "https://dc.lft.to/lastmile_qr_scan", "ios": "https://dc.lft.to/lastmile_qr_scan"}, "is_disabled": 0, "type": "electric_scooter", "is_reserved": 0, "name": "a1d6abe2abe593e9da6e7336bfd2b742", "lon": -77.0031985, "bike_id": "a1d6abe2abe593e9da6e7336bfd2b742", "lat": 38.887365833333334}, {"fusion_lon": 0.0, "fusion_lat": 0.0, "rental_uris": {"android": "https://dc.lft.to/lastmile_qr_scan", "ios": "https://dc.lft.to/lastmile_qr_scan"}, "is_disabled": 0, "type": "electric_scooter", "is_reserved": 0, "name": "f24def580031e374cb1b1ced02d6c574", "lon": -77.03664933333333, "bike_id": "f24def580031e374cb1b1ced02d6c574", "lat": 38.9223905}, {"fusion_lon": 0.0, "fusion_lat": 0.0, "rental_uris": {"android": "https://dc.lft.to/lastmile_qr_scan", "ios": "https://dc.lft.to/lastmile_qr_scan"}, "is_disabled": 0, "type": "electric_scooter", "is_reserved": 0, "name": "0e3846e0d051965d5027db147817f125", "lon": -77.02977366666667, "bike_id": "0e3846e0d051965d5027db147817f125", "lat": 38.921534666666666}, {"fusion_lon": 0.0, "fusion_lat": 0.0, "rental_uris": {"android": "https://dc.lft.to/lastmile_qr_scan", "ios": "https://dc.lft.to/lastmile_qr_scan"}, "is_disabled": 0, "type": "electric_scooter", "is_reserved": 0, "name": "1e122927ccf54e656ac3fca83d80624f", "lon": -77.04089266666666, "bike_id": "1e122927ccf54e656ac3fca83d80624f", "lat": 38.89220233333333}, {"fusion_lon": 0.0, "fusion_lat": 0.0, "rental_uris": {"android": "https://dc.lft.to/lastmile_qr_scan", "ios": "https://dc.lft.to/lastmile_qr_scan"}, "is_disabled": 0, "type": "electric_scooter", "is_reserved": 0, "name": "ea8ee0100b073aa6fe362cdd303be42f", "lon": -77.02307233333333, "bike_id": "ea8ee0100b073aa6fe362cdd303be42f", "lat": 38.920538666666666}, {"fusion_lon": 0.0, "fusion_lat": 0.0, "rental_uris": {"android": "https://dc.lft.to/lastmile_qr_scan", "ios": "https://dc.lft.to/lastmile_qr_scan"}, "is_disabled": 0, "type": "electric_bike", "is_reserved": 0, "name": "1c166efc511d01beabad2dcf605ad7cb", "lon": -76.9643295, "bike_id": "1c166efc511d01beabad2dcf605ad7cb", "lat": 38.918699}, {"fusion_lon": 0.0, "fusion_lat": 0.0, "rental_uris": {"android": "https://dc.lft.to/lastmile_qr_scan", "ios": "https://dc.lft.to/lastmile_qr_scan"}, "is_disabled": 0, "type": "electric_scooter", "is_reserved": 0, "name": "c81652a6cdaa1f9342391ea871ae6f73", "lon": -77.04208566666667, "bike_id": "c81652a6cdaa1f9342391ea871ae6f73", "lat": 38.920501333333334}, {"fusion_lon": 0.0, "fusion_lat": 0.0, "rental_uris": {"android": "https://dc.lft.to/lastmile_qr_scan", "ios": "https://dc.lft.to/lastmile_qr_scan"}, "is_disabled": 0, "type": "electric_scooter", "is_reserved": 0, "name": "162611e04b5982f7283a7f298b40b465", "lon": -77.01947533333333, "bike_id": "162611e04b5982f7283a7f298b40b465", "lat": 38.9225315}, {"fusion_lon": 0.0, "fusion_lat": 0.0, "rental_uris": {"android": "https://dc.lft.to/lastmile_qr_scan", "ios": "https://dc.lft.to/lastmile_qr_scan"}, "is_disabled": 0, "type": "electric_scooter", "is_reserved": 0, "name": "0411b4e90f34322ade59d9cd39b5d967", "lon": -77.06622683333333, "bike_id": "0411b4e90f34322ade59d9cd39b5d967", "lat": 38.93680466666667}, {"fusion_lon": 0.0, "fusion_lat": 0.0, "rental_uris": {"android": "https://dc.lft.to/lastmile_qr_scan", "ios": "https://dc.lft.to/lastmile_qr_scan"}, "is_disabled": 0, "type": "electric_scooter", "is_reserved": 0, "name": "4b71b43d39f8d69d6825ab5302ecef26", "lon": -76.98700266666667, "bike_id": "4b71b43d39f8d69d6825ab5302ecef26", "lat": 38.900135666666664}, {"fusion_lon": 0.0, "fusion_lat": 0.0, "rental_uris": {"android": "https://dc.lft.to/lastmile_qr_scan", "ios": "https://dc.lft.to/lastmile_qr_scan"}, "is_disabled": 0, "type": "electric_scooter", "is_reserved": 0, "name": "c0983e153d39d8943fcfc1176895cf32", "lon": -77.02829533333333, "bike_id": "c0983e153d39d8943fcfc1176895cf32", "lat": 38.92226316666667}, {"fusion_lon": 0.0, "fusion_lat": 0.0, "rental_uris": {"android": "https://dc.lft.to/lastmile_qr_scan", "ios": "https://dc.lft.to/lastmile_qr_scan"}, "is_disabled": 0, "type": "electric_scooter", "is_reserved": 0, "name": "7df03624aa8a423f6e91cb3dfe8f48f0", "lon": -77.02963066666666, "bike_id": "7df03624aa8a423f6e91cb3dfe8f48f0", "lat": 38.89576783333333}, {"fusion_lon": 0.0, "fusion_lat": 0.0, "rental_uris": {"android": "https://dc.lft.to/lastmile_qr_scan", "ios": "https://dc.lft.to/lastmile_qr_scan"}, "is_disabled": 0, "type": "electric_bike", "is_reserved": 0, "name": "6ceece1a2c452f9efe9a644cf7446b2f", "lon": -77.00596883333333, "bike_id": "6ceece1a2c452f9efe9a644cf7446b2f", "lat": 38.897612333333335}, {"fusion_lon": 0.0, "fusion_lat": 0.0, "rental_uris": {"android": "https://dc.lft.to/lastmile_qr_scan", "ios": "https://dc.lft.to/lastmile_qr_scan"}, "is_disabled": 0, "type": "electric_scooter", "is_reserved": 0, "name": "fd03ac765f6f6b80f94c6fb8f54fd24d", "lon": -77.00046133333333, "bike_id": "fd03ac765f6f6b80f94c6fb8f54fd24d", "lat": 38.887666333333335}, {"fusion_lon": 0.0, "fusion_lat": 0.0, "rental_uris": {"android": "https://dc.lft.to/lastmile_qr_scan", "ios": "https://dc.lft.to/lastmile_qr_scan"}, "is_disabled": 0, "type": "electric_scooter", "is_reserved": 0, "name": "dad770e1a2b50f5a49283cbe73281e42", "lon": -77.02161583333333, "bike_id": "dad770e1a2b50f5a49283cbe73281e42", "lat": 38.92612783333333}, {"fusion_lon": 0.0, "fusion_lat": 0.0, "rental_uris": {"android": "https://dc.lft.to/lastmile_qr_scan", "ios": "https://dc.lft.to/lastmile_qr_scan"}, "is_disabled": 0, "type": "electric_bike", "is_reserved": 0, "name": "414e3370e1ea700cbc9996f2d7c043ee", "lon": -77.089119, "bike_id": "414e3370e1ea700cbc9996f2d7c043ee", "lat": 38.967263833333334}, {"fusion_lon": 0.0, "fusion_lat": 0.0, "rental_uris": {"android": "https://dc.lft.to/lastmile_qr_scan", "ios": "https://dc.lft.to/lastmile_qr_scan"}, "is_disabled": 0, "type": "electric_scooter", "is_reserved": 0, "name": "222cb40f1cad83d9d2cb559d376c6424", "lon": -77.049793, "bike_id": "222cb40f1cad83d9d2cb559d376c6424", "lat": 38.89778866666666}, {"fusion_lon": 0.0, "fusion_lat": 0.0, "rental_uris": {"android": "https://dc.lft.to/lastmile_qr_scan", "ios": "https://dc.lft.to/lastmile_qr_scan"}, "is_disabled": 0, "type": "electric_scooter", "is_reserved": 0, "name": "6176a7d86d6f04e715e0fe238f034bb1", "lon": -77.02066, "bike_id": "6176a7d86d6f04e715e0fe238f034bb1", "lat": 38.904160833333336}, {"fusion_lon": 0.0, "fusion_lat": 0.0, "rental_uris": {"android": "https://dc.lft.to/lastmile_qr_scan", "ios": "https://dc.lft.to/lastmile_qr_scan"}, "is_disabled": 0, "type": "electric_scooter", "is_reserved": 0, "name": "8d6dddfe8596824757eeaede4f6ff1f7", "lon": -77.02610516666667, "bike_id": "8d6dddfe8596824757eeaede4f6ff1f7", "lat": 38.91871616666667}, {"fusion_lon": 0.0, "fusion_lat": 0.0, "rental_uris": {"android": "https://dc.lft.to/lastmile_qr_scan", "ios": "https://dc.lft.to/lastmile_qr_scan"}, "is_disabled": 0, "type": "electric_scooter", "is_reserved": 0, "name": "3e38c4ca8726caa88a44e4bf6bcb78be", "lon": -77.03900266666666, "bike_id": "3e38c4ca8726caa88a44e4bf6bcb78be", "lat": 38.920837166666665}, {"fusion_lon": 0.0, "fusion_lat": 0.0, "rental_uris": {"android": "https://dc.lft.to/lastmile_qr_scan", "ios": "https://dc.lft.to/lastmile_qr_scan"}, "is_disabled": 0, "type": "electric_scooter", "is_reserved": 0, "name": "ee3049f9f2406a3f5cd9c7163868387c", "lon": -77.039783, "bike_id": "ee3049f9f2406a3f5cd9c7163868387c", "lat": 38.915494833333334}, {"fusion_lon": 0.0, "fusion_lat": 0.0, "rental_uris": {"android": "https://dc.lft.to/lastmile_qr_scan", "ios": "https://dc.lft.to/lastmile_qr_scan"}, "is_disabled": 0, "type": "electric_scooter", "is_reserved": 0, "name": "4fe2235f1acfb5036802bd2595931ee3", "lon": -77.06003666666666, "bike_id": "4fe2235f1acfb5036802bd2595931ee3", "lat": 38.92706166666667}, {"fusion_lon": 0.0, "fusion_lat": 0.0, "rental_uris": {"android": "https://dc.lft.to/lastmile_qr_scan", "ios": "https://dc.lft.to/lastmile_qr_scan"}, "is_disabled": 0, "type": "electric_scooter", "is_reserved": 0, "name": "29f84a492e0d79ed37af45d5fbb0c80e", "lon": -77.01849733333333, "bike_id": "29f84a492e0d79ed37af45d5fbb0c80e", "lat": 38.973691}, {"fusion_lon": 0.0, "fusion_lat": 0.0, "rental_uris": {"android": "https://dc.lft.to/lastmile_qr_scan", "ios": "https://dc.lft.to/lastmile_qr_scan"}, "is_disabled": 0, "type": "electric_scooter", "is_reserved": 0, "name": "9af745966cd866d2b757833c92d105de", "lon": -77.03061866666667, "bike_id": "9af745966cd866d2b757833c92d105de", "lat": 38.89970066666667}, {"fusion_lon": 0.0, "fusion_lat": 0.0, "rental_uris": {"android": "https://dc.lft.to/lastmile_qr_scan", "ios": "https://dc.lft.to/lastmile_qr_scan"}, "is_disabled": 0, "type": "electric_scooter", "is_reserved": 0, "name": "945a21385889a50d75ed6f784c47dada", "lon": -77.027175, "bike_id": "945a21385889a50d75ed6f784c47dada", "lat": 38.899914}, {"fusion_lon": 0.0, "fusion_lat": 0.0, "rental_uris": {"android": "https://dc.lft.to/lastmile_qr_scan", "ios": "https://dc.lft.to/lastmile_qr_scan"}, "is_disabled": 0, "type": "electric_scooter", "is_reserved": 0, "name": "66c3f5fbf45f0ef47e7b4e0d9c3cc1a0", "lon": -76.98567266666667, "bike_id": "66c3f5fbf45f0ef47e7b4e0d9c3cc1a0", "lat": 38.896219}, {"fusion_lon": 0.0, "fusion_lat": 0.0, "rental_uris": {"android": "https://dc.lft.to/lastmile_qr_scan", "ios": "https://dc.lft.to/lastmile_qr_scan"}, "is_disabled": 0, "type": "electric_scooter", "is_reserved": 0, "name": "6dff81febfd3834af71df0c0d01c2008", "lon": -77.02594833333333, "bike_id": "6dff81febfd3834af71df0c0d01c2008", "lat": 38.899591666666666}, {"fusion_lon": 0.0, "fusion_lat": 0.0, "rental_uris": {"android": "https://dc.lft.to/lastmile_qr_scan", "ios": "https://dc.lft.to/lastmile_qr_scan"}, "is_disabled": 0, "type": "electric_scooter", "is_reserved": 0, "name": "b0116cdd570b7d72c796cc7d4c9e0957", "lon": -76.98361483333333, "bike_id": "b0116cdd570b7d72c796cc7d4c9e0957", "lat": 38.891533}, {"fusion_lon": 0.0, "fusion_lat": 0.0, "rental_uris": {"android": "https://dc.lft.to/lastmile_qr_scan", "ios": "https://dc.lft.to/lastmile_qr_scan"}, "is_disabled": 0, "type": "electric_scooter", "is_reserved": 0, "name": "d0691a6adf2a30b4eba03dd2681a2c26", "lon": -77.01857516666666, "bike_id": "d0691a6adf2a30b4eba03dd2681a2c26", "lat": 38.949211}, {"fusion_lon": 0.0, "fusion_lat": 0.0, "rental_uris": {"android": "https://dc.lft.to/lastmile_qr_scan", "ios": "https://dc.lft.to/lastmile_qr_scan"}, "is_disabled": 0, "type": "electric_scooter", "is_reserved": 0, "name": "1f90d7e273715ff8923f0ab15eac7e42", "lon": -77.04099433333333, "bike_id": "1f90d7e273715ff8923f0ab15eac7e42", "lat": 38.90520316666667}, {"fusion_lon": 0.0, "fusion_lat": 0.0, "rental_uris": {"android": "https://dc.lft.to/lastmile_qr_scan", "ios": "https://dc.lft.to/lastmile_qr_scan"}, "is_disabled": 0, "type": "electric_scooter", "is_reserved": 0, "name": "dfd88402a793f945190564095a47a73b", "lon": -77.02707833333334, "bike_id": "dfd88402a793f945190564095a47a73b", "lat": 38.91797733333333}, {"fusion_lon": 0.0, "fusion_lat": 0.0, "rental_uris": {"android": "https://dc.lft.to/lastmile_qr_scan", "ios": "https://dc.lft.to/lastmile_qr_scan"}, "is_disabled": 0, "type": "electric_scooter", "is_reserved": 0, "name": "cc4108c270b1017c3667573cec60cc46", "lon": -77.00714283333333, "bike_id": "cc4108c270b1017c3667573cec60cc46", "lat": 38.884856666666664}, {"fusion_lon": 0.0, "fusion_lat": 0.0, "rental_uris": {"android": "https://dc.lft.to/lastmile_qr_scan", "ios": "https://dc.lft.to/lastmile_qr_scan"}, "is_disabled": 0, "type": "electric_scooter", "is_reserved": 0, "name": "b860d8a40fc28ec3fb5aa4340b8873cb", "lon": -77.04607616666667, "bike_id": "b860d8a40fc28ec3fb5aa4340b8873cb", "lat": 38.9057755}, {"fusion_lon": 0.0, "fusion_lat": 0.0, "rental_uris": {"android": "https://dc.lft.to/lastmile_qr_scan", "ios": "https://dc.lft.to/lastmile_qr_scan"}, "is_disabled": 0, "type": "electric_scooter", "is_reserved": 0, "name": "9351b790186a157eecf11c3f0b76b356", "lon": -77.00212816666667, "bike_id": "9351b790186a157eecf11c3f0b76b356", "lat": 38.91196433333333}, {"fusion_lon": 0.0, "fusion_lat": 0.0, "rental_uris": {"android": "https://dc.lft.to/lastmile_qr_scan", "ios": "https://dc.lft.to/lastmile_qr_scan"}, "is_disabled": 0, "type": "electric_scooter", "is_reserved": 0, "name": "301a2988542a14ab6c38cea7f79e1e63", "lon": -77.04173033333333, "bike_id": "301a2988542a14ab6c38cea7f79e1e63", "lat": 38.91977833333333}, {"fusion_lon": 0.0, "fusion_lat": 0.0, "rental_uris": {"android": "https://dc.lft.to/lastmile_qr_scan", "ios": "https://dc.lft.to/lastmile_qr_scan"}, "is_disabled": 0, "type": "electric_scooter", "is_reserved": 0, "name": "d9d8da6867ade0a2b64030b3dee62e06", "lon": -77.01896816666667, "bike_id": "d9d8da6867ade0a2b64030b3dee62e06", "lat": 38.90906566666666}, {"fusion_lon": 0.0, "fusion_lat": 0.0, "rental_uris": {"android": "https://dc.lft.to/lastmile_qr_scan", "ios": "https://dc.lft.to/lastmile_qr_scan"}, "is_disabled": 0, "type": "electric_scooter", "is_reserved": 0, "name": "36bb8a228007dde3e53f9918fb32a225", "lon": -77.04681383333333, "bike_id": "36bb8a228007dde3e53f9918fb32a225", "lat": 38.897302833333335}, {"fusion_lon": 0.0, "fusion_lat": 0.0, "rental_uris": {"android": "https://dc.lft.to/lastmile_qr_scan", "ios": "https://dc.lft.to/lastmile_qr_scan"}, "is_disabled": 0, "type": "electric_scooter", "is_reserved": 0, "name": "00f25442bf7566564b0e1c4f67a2b688", "lon": -77.02005883333334, "bike_id": "00f25442bf7566564b0e1c4f67a2b688", "lat": 38.90117033333333}, {"fusion_lon": 0.0, "fusion_lat": 0.0, "rental_uris": {"android": "https://dc.lft.to/lastmile_qr_scan", "ios": "https://dc.lft.to/lastmile_qr_scan"}, "is_disabled": 0, "type": "electric_scooter", "is_reserved": 0, "name": "7e576bf14f45dece615bac9914f2e6eb", "lon": -77.05494633333333, "bike_id": "7e576bf14f45dece615bac9914f2e6eb", "lat": 38.897517}, {"fusion_lon": 0.0, "fusion_lat": 0.0, "rental_uris": {"android": "https://dc.lft.to/lastmile_qr_scan", "ios": "https://dc.lft.to/lastmile_qr_scan"}, "is_disabled": 0, "type": "electric_scooter", "is_reserved": 0, "name": "ced8d46d8c39db64066b24a37d4d593f", "lon": -77.0334735, "bike_id": "ced8d46d8c39db64066b24a37d4d593f", "lat": 38.919155833333335}, {"fusion_lon": 0.0, "fusion_lat": 0.0, "rental_uris": {"android": "https://dc.lft.to/lastmile_qr_scan", "ios": "https://dc.lft.to/lastmile_qr_scan"}, "is_disabled": 0, "type": "electric_scooter", "is_reserved": 0, "name": "62f4f61d63593c30edb03ce08368f07b", "lon": -77.02297983333334, "bike_id": "62f4f61d63593c30edb03ce08368f07b", "lat": 38.9170795}, {"fusion_lon": 0.0, "fusion_lat": 0.0, "rental_uris": {"android": "https://dc.lft.to/lastmile_qr_scan", "ios": "https://dc.lft.to/lastmile_qr_scan"}, "is_disabled": 0, "type": "electric_scooter", "is_reserved": 0, "name": "c620b1ff18d3ef71a95d7bde7a711040", "lon": -77.02370616666667, "bike_id": "c620b1ff18d3ef71a95d7bde7a711040", "lat": 38.90214366666667}, {"fusion_lon": 0.0, "fusion_lat": 0.0, "rental_uris": {"android": "https://dc.lft.to/lastmile_qr_scan", "ios": "https://dc.lft.to/lastmile_qr_scan"}, "is_disabled": 0, "type": "electric_scooter", "is_reserved": 0, "name": "59ce88ab4768b069520f0f7bd8af8a0d", "lon": -77.0179155, "bike_id": "59ce88ab4768b069520f0f7bd8af8a0d", "lat": 38.91923116666667}, {"fusion_lon": 0.0, "fusion_lat": 0.0, "rental_uris": {"android": "https://dc.lft.to/lastmile_qr_scan", "ios": "https://dc.lft.to/lastmile_qr_scan"}, "is_disabled": 0, "type": "electric_scooter", "is_reserved": 0, "name": "1afe152e0619744dacd017a08a419b2f", "lon": -77.04207183333334, "bike_id": "1afe152e0619744dacd017a08a419b2f", "lat": 38.9231675}, {"fusion_lon": 0.0, "fusion_lat": 0.0, "rental_uris": {"android": "https://dc.lft.to/lastmile_qr_scan", "ios": "https://dc.lft.to/lastmile_qr_scan"}, "is_disabled": 0, "type": "electric_scooter", "is_reserved": 0, "name": "af3f880168a2e34b0d27ebe2a4818fb8", "lon": -77.03984316666667, "bike_id": "af3f880168a2e34b0d27ebe2a4818fb8", "lat": 38.90600466666667}, {"fusion_lon": 0.0, "fusion_lat": 0.0, "rental_uris": {"android": "https://dc.lft.to/lastmile_qr_scan", "ios": "https://dc.lft.to/lastmile_qr_scan"}, "is_disabled": 0, "type": "electric_scooter", "is_reserved": 0, "name": "fb957eb730f5cfdee04cf9f9f03a495c", "lon": -77.01871066666666, "bike_id": "fb957eb730f5cfdee04cf9f9f03a495c", "lat": 38.92135316666667}, {"fusion_lon": 0.0, "fusion_lat": 0.0, "rental_uris": {"android": "https://dc.lft.to/lastmile_qr_scan", "ios": "https://dc.lft.to/lastmile_qr_scan"}, "is_disabled": 0, "type": "electric_scooter", "is_reserved": 0, "name": "827ab406f259561c3e563c064a7b143f", "lon": -77.036616, "bike_id": "827ab406f259561c3e563c064a7b143f", "lat": 38.91864066666667}, {"fusion_lon": 0.0, "fusion_lat": 0.0, "rental_uris": {"android": "https://dc.lft.to/lastmile_qr_scan", "ios": "https://dc.lft.to/lastmile_qr_scan"}, "is_disabled": 0, "type": "electric_scooter", "is_reserved": 0, "name": "ed8d3659a3d71898db06fc941b075ea0", "lon": -77.0467915, "bike_id": "ed8d3659a3d71898db06fc941b075ea0", "lat": 38.89855633333333}, {"fusion_lon": 0.0, "fusion_lat": 0.0, "rental_uris": {"android": "https://dc.lft.to/lastmile_qr_scan", "ios": "https://dc.lft.to/lastmile_qr_scan"}, "is_disabled": 0, "type": "electric_scooter", "is_reserved": 0, "name": "ddcb6deb5206535087ab4e0340bb0beb", "lon": -77.022018, "bike_id": "ddcb6deb5206535087ab4e0340bb0beb", "lat": 38.911181666666664}, {"fusion_lon": 0.0, "fusion_lat": 0.0, "rental_uris": {"android": "https://dc.lft.to/lastmile_qr_scan", "ios": "https://dc.lft.to/lastmile_qr_scan"}, "is_disabled": 0, "type": "electric_scooter", "is_reserved": 0, "name": "75bef43f80dde887c54319ec4ce30332", "lon": -77.01672966666666, "bike_id": "75bef43f80dde887c54319ec4ce30332", "lat": 38.92045433333333}, {"fusion_lon": 0.0, "fusion_lat": 0.0, "rental_uris": {"android": "https://dc.lft.to/lastmile_qr_scan", "ios": "https://dc.lft.to/lastmile_qr_scan"}, "is_disabled": 0, "type": "electric_scooter", "is_reserved": 0, "name": "650b3a33a678623324cd724dafa36795", "lon": -77.02132316666666, "bike_id": "650b3a33a678623324cd724dafa36795", "lat": 38.92271733333333}, {"fusion_lon": 0.0, "fusion_lat": 0.0, "rental_uris": {"android": "https://dc.lft.to/lastmile_qr_scan", "ios": "https://dc.lft.to/lastmile_qr_scan"}, "is_disabled": 0, "type": "electric_scooter", "is_reserved": 0, "name": "bcedb0048f52fc81506f6f5365feace4", "lon": -77.0295475, "bike_id": "bcedb0048f52fc81506f6f5365feace4", "lat": 38.94303516666667}, {"fusion_lon": 0.0, "fusion_lat": 0.0, "rental_uris": {"android": "https://dc.lft.to/lastmile_qr_scan", "ios": "https://dc.lft.to/lastmile_qr_scan"}, "is_disabled": 0, "type": "electric_bike", "is_reserved": 0, "name": "176faead7051af34cad74cdc79c575c8", "lon": -77.090212, "bike_id": "176faead7051af34cad74cdc79c575c8", "lat": 38.9264685}, {"fusion_lon": 0.0, "fusion_lat": 0.0, "rental_uris": {"android": "https://dc.lft.to/lastmile_qr_scan", "ios": "https://dc.lft.to/lastmile_qr_scan"}, "is_disabled": 0, "type": "electric_scooter", "is_reserved": 0, "name": "6ac906d30438b12861790cd83abbeb38", "lon": -77.02201933333333, "bike_id": "6ac906d30438b12861790cd83abbeb38", "lat": 38.92471716666667}, {"fusion_lon": 0.0, "fusion_lat": 0.0, "rental_uris": {"android": "https://dc.lft.to/lastmile_qr_scan", "ios": "https://dc.lft.to/lastmile_qr_scan"}, "is_disabled": 0, "type": "electric_scooter", "is_reserved": 0, "name": "4509ca34051cc6a89037b3daae826e4b", "lon": -76.99819866666667, "bike_id": "4509ca34051cc6a89037b3daae826e4b", "lat": 38.907244166666665}, {"fusion_lon": 0.0, "fusion_lat": 0.0, "rental_uris": {"android": "https://dc.lft.to/lastmile_qr_scan", "ios": "https://dc.lft.to/lastmile_qr_scan"}, "is_disabled": 0, "type": "electric_bike", "is_reserved": 0, "name": "7cec7018c978e6d1bd515681bae1cd4a", "lon": -76.9841445, "bike_id": "7cec7018c978e6d1bd515681bae1cd4a", "lat": 38.974101166666664}, {"fusion_lon": 0.0, "fusion_lat": 0.0, "rental_uris": {"android": "https://dc.lft.to/lastmile_qr_scan", "ios": "https://dc.lft.to/lastmile_qr_scan"}, "is_disabled": 0, "type": "electric_scooter", "is_reserved": 0, "name": "9f4085e5603f793322e717e404fbe97f", "lon": -77.00504066666667, "bike_id": "9f4085e5603f793322e717e404fbe97f", "lat": 38.9161985}, {"fusion_lon": 0.0, "fusion_lat": 0.0, "rental_uris": {"android": "https://dc.lft.to/lastmile_qr_scan", "ios": "https://dc.lft.to/lastmile_qr_scan"}, "is_disabled": 0, "type": "electric_scooter", "is_reserved": 0, "name": "a874c0e3cab6d12fa633d2d21749b2a6", "lon": -77.02506466666667, "bike_id": "a874c0e3cab6d12fa633d2d21749b2a6", "lat": 38.91806066666667}, {"fusion_lon": 0.0, "fusion_lat": 0.0, "rental_uris": {"android": "https://dc.lft.to/lastmile_qr_scan", "ios": "https://dc.lft.to/lastmile_qr_scan"}, "is_disabled": 0, "type": "electric_scooter", "is_reserved": 0, "name": "f87bb38fa51b4f0d81d13a80470f20c8", "lon": -77.00605933333334, "bike_id": "f87bb38fa51b4f0d81d13a80470f20c8", "lat": 38.905665666666664}, {"fusion_lon": 0.0, "fusion_lat": 0.0, "rental_uris": {"android": "https://dc.lft.to/lastmile_qr_scan", "ios": "https://dc.lft.to/lastmile_qr_scan"}, "is_disabled": 0, "type": "electric_bike", "is_reserved": 0, "name": "038e44af6ccf279189d367e30f084014", "lon": -76.997087, "bike_id": "038e44af6ccf279189d367e30f084014", "lat": 38.83861183333333}, {"fusion_lon": 0.0, "fusion_lat": 0.0, "rental_uris": {"android": "https://dc.lft.to/lastmile_qr_scan", "ios": "https://dc.lft.to/lastmile_qr_scan"}, "is_disabled": 0, "type": "electric_scooter", "is_reserved": 0, "name": "c1f6e97433a2bffb6c22b84a27db9909", "lon": -77.0225175, "bike_id": "c1f6e97433a2bffb6c22b84a27db9909", "lat": 38.9242935}, {"fusion_lon": 0.0, "fusion_lat": 0.0, "rental_uris": {"android": "https://dc.lft.to/lastmile_qr_scan", "ios": "https://dc.lft.to/lastmile_qr_scan"}, "is_disabled": 0, "type": "electric_scooter", "is_reserved": 0, "name": "08f11e66540d28788acd1b0ed66f13e3", "lon": -77.02352066666667, "bike_id": "08f11e66540d28788acd1b0ed66f13e3", "lat": 38.93109}, {"fusion_lon": 0.0, "fusion_lat": 0.0, "rental_uris": {"android": "https://dc.lft.to/lastmile_qr_scan", "ios": "https://dc.lft.to/lastmile_qr_scan"}, "is_disabled": 0, "type": "electric_scooter", "is_reserved": 0, "name": "94a70ed113afbf7c2a7347b71933fa37", "lon": -77.0241385, "bike_id": "94a70ed113afbf7c2a7347b71933fa37", "lat": 38.916002166666665}, {"fusion_lon": 0.0, "fusion_lat": 0.0, "rental_uris": {"android": "https://dc.lft.to/lastmile_qr_scan", "ios": "https://dc.lft.to/lastmile_qr_scan"}, "is_disabled": 0, "type": "electric_scooter", "is_reserved": 0, "name": "7689363a6d47f2718609254b28bfadd4", "lon": -77.05291433333333, "bike_id": "7689363a6d47f2718609254b28bfadd4", "lat": 38.90334816666667}, {"fusion_lon": 0.0, "fusion_lat": 0.0, "rental_uris": {"android": "https://dc.lft.to/lastmile_qr_scan", "ios": "https://dc.lft.to/lastmile_qr_scan"}, "is_disabled": 0, "type": "electric_bike", "is_reserved": 0, "name": "f8500a695ecadaf69c2b938788206000", "lon": -76.95126183333333, "bike_id": "f8500a695ecadaf69c2b938788206000", "lat": 38.95184916666667}, {"fusion_lon": 0.0, "fusion_lat": 0.0, "rental_uris": {"android": "https://dc.lft.to/lastmile_qr_scan", "ios": "https://dc.lft.to/lastmile_qr_scan"}, "is_disabled": 0, "type": "electric_scooter", "is_reserved": 0, "name": "0f178d45fba8fc51cdc8317aa4a86030", "lon": -77.0451195, "bike_id": "0f178d45fba8fc51cdc8317aa4a86030", "lat": 38.898494666666664}, {"fusion_lon": 0.0, "fusion_lat": 0.0, "rental_uris": {"android": "https://dc.lft.to/lastmile_qr_scan", "ios": "https://dc.lft.to/lastmile_qr_scan"}, "is_disabled": 0, "type": "electric_scooter", "is_reserved": 0, "name": "61989abd7b0b610566fa1c62c94da67e", "lon": -77.028162, "bike_id": "61989abd7b0b610566fa1c62c94da67e", "lat": 38.92239033333333}, {"fusion_lon": 0.0, "fusion_lat": 0.0, "rental_uris": {"android": "https://dc.lft.to/lastmile_qr_scan", "ios": "https://dc.lft.to/lastmile_qr_scan"}, "is_disabled": 0, "type": "electric_scooter", "is_reserved": 0, "name": "d6f65fc78e0b55cdfc0a726b86b81151", "lon": -77.03280716666667, "bike_id": "d6f65fc78e0b55cdfc0a726b86b81151", "lat": 38.935752666666666}, {"fusion_lon": 0.0, "fusion_lat": 0.0, "rental_uris": {"android": "https://dc.lft.to/lastmile_qr_scan", "ios": "https://dc.lft.to/lastmile_qr_scan"}, "is_disabled": 0, "type": "electric_scooter", "is_reserved": 0, "name": "774c3e946669bf0549adc3567dbebcef", "lon": -77.02503483333334, "bike_id": "774c3e946669bf0549adc3567dbebcef", "lat": 38.918039666666665}, {"fusion_lon": 0.0, "fusion_lat": 0.0, "rental_uris": {"android": "https://dc.lft.to/lastmile_qr_scan", "ios": "https://dc.lft.to/lastmile_qr_scan"}, "is_disabled": 0, "type": "electric_scooter", "is_reserved": 0, "name": "168a44e61d6d3f3c9c08a8b6c6f72d45", "lon": -77.00538233333333, "bike_id": "168a44e61d6d3f3c9c08a8b6c6f72d45", "lat": 38.875414}, {"fusion_lon": 0.0, "fusion_lat": 0.0, "rental_uris": {"android": "https://dc.lft.to/lastmile_qr_scan", "ios": "https://dc.lft.to/lastmile_qr_scan"}, "is_disabled": 0, "type": "electric_scooter", "is_reserved": 0, "name": "2de733d8baf9ac843b146cddc6359a0e", "lon": -77.02073766666666, "bike_id": "2de733d8baf9ac843b146cddc6359a0e", "lat": 38.8976025}, {"fusion_lon": 0.0, "fusion_lat": 0.0, "rental_uris": {"android": "https://dc.lft.to/lastmile_qr_scan", "ios": "https://dc.lft.to/lastmile_qr_scan"}, "is_disabled": 0, "type": "electric_scooter", "is_reserved": 0, "name": "0af783e9a753515d2a6627acf914bb4e", "lon": -77.0177065, "bike_id": "0af783e9a753515d2a6627acf914bb4e", "lat": 38.95266516666667}, {"fusion_lon": 0.0, "fusion_lat": 0.0, "rental_uris": {"android": "https://dc.lft.to/lastmile_qr_scan", "ios": "https://dc.lft.to/lastmile_qr_scan"}, "is_disabled": 0, "type": "electric_bike", "is_reserved": 0, "name": "bd1cccc883691f6124351b785146e23b", "lon": -76.9604885, "bike_id": "bd1cccc883691f6124351b785146e23b", "lat": 38.967349}, {"fusion_lon": 0.0, "fusion_lat": 0.0, "rental_uris": {"android": "https://dc.lft.to/lastmile_qr_scan", "ios": "https://dc.lft.to/lastmile_qr_scan"}, "is_disabled": 0, "type": "electric_scooter", "is_reserved": 0, "name": "fecac72be69acf29734b954b9e4c738b", "lon": -77.06660433333333, "bike_id": "fecac72be69acf29734b954b9e4c738b", "lat": 38.949658166666666}, {"fusion_lon": 0.0, "fusion_lat": 0.0, "rental_uris": {"android": "https://dc.lft.to/lastmile_qr_scan", "ios": "https://dc.lft.to/lastmile_qr_scan"}, "is_disabled": 0, "type": "electric_scooter", "is_reserved": 0, "name": "a0a47722334e6eda5d5297b3f64cf51a", "lon": -77.020478, "bike_id": "a0a47722334e6eda5d5297b3f64cf51a", "lat": 38.921100333333335}, {"fusion_lon": 0.0, "fusion_lat": 0.0, "rental_uris": {"android": "https://dc.lft.to/lastmile_qr_scan", "ios": "https://dc.lft.to/lastmile_qr_scan"}, "is_disabled": 0, "type": "electric_scooter", "is_reserved": 0, "name": "cabefe9e40806cc26216dfa36270f66e", "lon": -77.08392633333334, "bike_id": "cabefe9e40806cc26216dfa36270f66e", "lat": 38.9403395}, {"fusion_lon": 0.0, "fusion_lat": 0.0, "rental_uris": {"android": "https://dc.lft.to/lastmile_qr_scan", "ios": "https://dc.lft.to/lastmile_qr_scan"}, "is_disabled": 0, "type": "electric_scooter", "is_reserved": 0, "name": "0566046122789c005900945fd0f7a8be", "lon": -77.02581533333333, "bike_id": "0566046122789c005900945fd0f7a8be", "lat": 38.940803}, {"fusion_lon": 0.0, "fusion_lat": 0.0, "rental_uris": {"android": "https://dc.lft.to/lastmile_qr_scan", "ios": "https://dc.lft.to/lastmile_qr_scan"}, "is_disabled": 0, "type": "electric_scooter", "is_reserved": 0, "name": "e44a5d31cabc45bce889c181feaea3a2", "lon": -77.00363983333334, "bike_id": "e44a5d31cabc45bce889c181feaea3a2", "lat": 38.907770666666664}, {"fusion_lon": 0.0, "fusion_lat": 0.0, "rental_uris": {"android": "https://dc.lft.to/lastmile_qr_scan", "ios": "https://dc.lft.to/lastmile_qr_scan"}, "is_disabled": 0, "type": "electric_scooter", "is_reserved": 0, "name": "09c9c6cddef036f80dfa2381951f8f9f", "lon": -77.00918733333333, "bike_id": "09c9c6cddef036f80dfa2381951f8f9f", "lat": 38.923380333333334}, {"fusion_lon": 0.0, "fusion_lat": 0.0, "rental_uris": {"android": "https://dc.lft.to/lastmile_qr_scan", "ios": "https://dc.lft.to/lastmile_qr_scan"}, "is_disabled": 0, "type": "electric_scooter", "is_reserved": 0, "name": "d51ed65de93d11c8f8f0ae87674c954b", "lon": -77.02207883333334, "bike_id": "d51ed65de93d11c8f8f0ae87674c954b", "lat": 38.8971045}, {"fusion_lon": 0.0, "fusion_lat": 0.0, "rental_uris": {"android": "https://dc.lft.to/lastmile_qr_scan", "ios": "https://dc.lft.to/lastmile_qr_scan"}, "is_disabled": 0, "type": "electric_scooter", "is_reserved": 0, "name": "44e23214093124a3a92a1f16aa90c7d6", "lon": -77.01911333333334, "bike_id": "44e23214093124a3a92a1f16aa90c7d6", "lat": 38.923054666666665}, {"fusion_lon": 0.0, "fusion_lat": 0.0, "rental_uris": {"android": "https://dc.lft.to/lastmile_qr_scan", "ios": "https://dc.lft.to/lastmile_qr_scan"}, "is_disabled": 0, "type": "electric_scooter", "is_reserved": 0, "name": "35a561e3f11c14cdc0ce716a2dda0094", "lon": -77.04590033333334, "bike_id": "35a561e3f11c14cdc0ce716a2dda0094", "lat": 38.90258566666667}, {"fusion_lon": 0.0, "fusion_lat": 0.0, "rental_uris": {"android": "https://dc.lft.to/lastmile_qr_scan", "ios": "https://dc.lft.to/lastmile_qr_scan"}, "is_disabled": 0, "type": "electric_bike", "is_reserved": 0, "name": "ba385d3380f60cb378c6deba7d4c0088", "lon": -76.99840883333333, "bike_id": "ba385d3380f60cb378c6deba7d4c0088", "lat": 38.83910383333333}, {"fusion_lon": 0.0, "fusion_lat": 0.0, "rental_uris": {"android": "https://dc.lft.to/lastmile_qr_scan", "ios": "https://dc.lft.to/lastmile_qr_scan"}, "is_disabled": 0, "type": "electric_scooter", "is_reserved": 0, "name": "be5e885b6e0364774a05a99c1ca86b7c", "lon": -77.0426885, "bike_id": "be5e885b6e0364774a05a99c1ca86b7c", "lat": 38.898505666666665}, {"fusion_lon": 0.0, "fusion_lat": 0.0, "rental_uris": {"android": "https://dc.lft.to/lastmile_qr_scan", "ios": "https://dc.lft.to/lastmile_qr_scan"}, "is_disabled": 0, "type": "electric_scooter", "is_reserved": 0, "name": "66a8b2449deb961caf2bc14e8cfc47c4", "lon": -77.04169283333333, "bike_id": "66a8b2449deb961caf2bc14e8cfc47c4", "lat": 38.91860416666667}, {"fusion_lon": 0.0, "fusion_lat": 0.0, "rental_uris": {"android": "https://dc.lft.to/lastmile_qr_scan", "ios": "https://dc.lft.to/lastmile_qr_scan"}, "is_disabled": 0, "type": "electric_bike", "is_reserved": 0, "name": "45d3f5640b836ca7de04c08678be84eb", "lon": -76.99998, "bike_id": "45d3f5640b836ca7de04c08678be84eb", "lat": 38.91803933333333}, {"fusion_lon": 0.0, "fusion_lat": 0.0, "rental_uris": {"android": "https://dc.lft.to/lastmile_qr_scan", "ios": "https://dc.lft.to/lastmile_qr_scan"}, "is_disabled": 0, "type": "electric_scooter", "is_reserved": 0, "name": "4d04cf6f1a77e476b610c7dd587d8b7c", "lon": -77.02327983333333, "bike_id": "4d04cf6f1a77e476b610c7dd587d8b7c", "lat": 38.879237}, {"fusion_lon": 0.0, "fusion_lat": 0.0, "rental_uris": {"android": "https://dc.lft.to/lastmile_qr_scan", "ios": "https://dc.lft.to/lastmile_qr_scan"}, "is_disabled": 0, "type": "electric_scooter", "is_reserved": 0, "name": "182c71641defe6ccf421f2b0d8a94490", "lon": -77.00144783333333, "bike_id": "182c71641defe6ccf421f2b0d8a94490", "lat": 38.894734166666666}, {"fusion_lon": 0.0, "fusion_lat": 0.0, "rental_uris": {"android": "https://dc.lft.to/lastmile_qr_scan", "ios": "https://dc.lft.to/lastmile_qr_scan"}, "is_disabled": 0, "type": "electric_scooter", "is_reserved": 0, "name": "4bf064b875f1c13545864508799a6917", "lon": -77.00887966666667, "bike_id": "4bf064b875f1c13545864508799a6917", "lat": 38.9146905}, {"fusion_lon": 0.0, "fusion_lat": 0.0, "rental_uris": {"android": "https://dc.lft.to/lastmile_qr_scan", "ios": "https://dc.lft.to/lastmile_qr_scan"}, "is_disabled": 0, "type": "electric_scooter", "is_reserved": 0, "name": "accce1553ed711ac7645bd23b1e829a7", "lon": -77.02638033333334, "bike_id": "accce1553ed711ac7645bd23b1e829a7", "lat": 38.89221933333334}, {"fusion_lon": 0.0, "fusion_lat": 0.0, "rental_uris": {"android": "https://dc.lft.to/lastmile_qr_scan", "ios": "https://dc.lft.to/lastmile_qr_scan"}, "is_disabled": 0, "type": "electric_scooter", "is_reserved": 0, "name": "80961ff2c886408c889f2a9dc8e6035f", "lon": -76.992207, "bike_id": "80961ff2c886408c889f2a9dc8e6035f", "lat": 38.897397166666664}, {"fusion_lon": 0.0, "fusion_lat": 0.0, "rental_uris": {"android": "https://dc.lft.to/lastmile_qr_scan", "ios": "https://dc.lft.to/lastmile_qr_scan"}, "is_disabled": 0, "type": "electric_scooter", "is_reserved": 0, "name": "087e8f8fd9a21b3553c3d6f05e8eac2e", "lon": -77.02634983333333, "bike_id": "087e8f8fd9a21b3553c3d6f05e8eac2e", "lat": 38.8996955}, {"fusion_lon": 0.0, "fusion_lat": 0.0, "rental_uris": {"android": "https://dc.lft.to/lastmile_qr_scan", "ios": "https://dc.lft.to/lastmile_qr_scan"}, "is_disabled": 0, "type": "electric_scooter", "is_reserved": 0, "name": "ae67f3f61de8013480de4c1628c632dc", "lon": -77.02644133333334, "bike_id": "ae67f3f61de8013480de4c1628c632dc", "lat": 38.89710683333333}, {"fusion_lon": 0.0, "fusion_lat": 0.0, "rental_uris": {"android": "https://dc.lft.to/lastmile_qr_scan", "ios": "https://dc.lft.to/lastmile_qr_scan"}, "is_disabled": 0, "type": "electric_scooter", "is_reserved": 0, "name": "a0c615cbcb3ddfd7fb9f6f91cc22b21e", "lon": -77.02825283333334, "bike_id": "a0c615cbcb3ddfd7fb9f6f91cc22b21e", "lat": 38.8995395}, {"fusion_lon": 0.0, "fusion_lat": 0.0, "rental_uris": {"android": "https://dc.lft.to/lastmile_qr_scan", "ios": "https://dc.lft.to/lastmile_qr_scan"}, "is_disabled": 0, "type": "electric_scooter", "is_reserved": 0, "name": "54944591b2126e6ae738eac41ac6952a", "lon": -77.00285183333334, "bike_id": "54944591b2126e6ae738eac41ac6952a", "lat": 38.893504166666666}, {"fusion_lon": 0.0, "fusion_lat": 0.0, "rental_uris": {"android": "https://dc.lft.to/lastmile_qr_scan", "ios": "https://dc.lft.to/lastmile_qr_scan"}, "is_disabled": 0, "type": "electric_scooter", "is_reserved": 0, "name": "e9c55d6b4793b7e1e6a044a28620a694", "lon": -77.03555066666667, "bike_id": "e9c55d6b4793b7e1e6a044a28620a694", "lat": 38.90471816666667}, {"fusion_lon": 0.0, "fusion_lat": 0.0, "rental_uris": {"android": "https://dc.lft.to/lastmile_qr_scan", "ios": "https://dc.lft.to/lastmile_qr_scan"}, "is_disabled": 0, "type": "electric_scooter", "is_reserved": 0, "name": "50b1eb0c2c952deb6a00b15706557995", "lon": -77.06270116666667, "bike_id": "50b1eb0c2c952deb6a00b15706557995", "lat": 38.92086333333334}, {"fusion_lon": 0.0, "fusion_lat": 0.0, "rental_uris": {"android": "https://dc.lft.to/lastmile_qr_scan", "ios": "https://dc.lft.to/lastmile_qr_scan"}, "is_disabled": 0, "type": "electric_scooter", "is_reserved": 0, "name": "9cc51b8d5a5a3c9435681e37ce4812a4", "lon": -77.04187133333333, "bike_id": "9cc51b8d5a5a3c9435681e37ce4812a4", "lat": 38.903684}, {"fusion_lon": 0.0, "fusion_lat": 0.0, "rental_uris": {"android": "https://dc.lft.to/lastmile_qr_scan", "ios": "https://dc.lft.to/lastmile_qr_scan"}, "is_disabled": 0, "type": "electric_scooter", "is_reserved": 0, "name": "2a02abd916abf6babc6584a2d06978c4", "lon": -77.01676533333334, "bike_id": "2a02abd916abf6babc6584a2d06978c4", "lat": 38.9204055}, {"fusion_lon": 0.0, "fusion_lat": 0.0, "rental_uris": {"android": "https://dc.lft.to/lastmile_qr_scan", "ios": "https://dc.lft.to/lastmile_qr_scan"}, "is_disabled": 0, "type": "electric_scooter", "is_reserved": 0, "name": "bc932c883c2e7b0847918dbbd1515569", "lon": -77.0259325, "bike_id": "bc932c883c2e7b0847918dbbd1515569", "lat": 38.89955916666667}, {"fusion_lon": 0.0, "fusion_lat": 0.0, "rental_uris": {"android": "https://dc.lft.to/lastmile_qr_scan", "ios": "https://dc.lft.to/lastmile_qr_scan"}, "is_disabled": 0, "type": "electric_scooter", "is_reserved": 0, "name": "7e37a552921353ca0c94e3e22f500133", "lon": -77.02701433333333, "bike_id": "7e37a552921353ca0c94e3e22f500133", "lat": 38.92492516666667}, {"fusion_lon": 0.0, "fusion_lat": 0.0, "rental_uris": {"android": "https://dc.lft.to/lastmile_qr_scan", "ios": "https://dc.lft.to/lastmile_qr_scan"}, "is_disabled": 0, "type": "electric_scooter", "is_reserved": 0, "name": "e7d4dee988803f5b687e8bed0a2434ab", "lon": -77.03716316666667, "bike_id": "e7d4dee988803f5b687e8bed0a2434ab", "lat": 38.912647666666665}, {"fusion_lon": 0.0, "fusion_lat": 0.0, "rental_uris": {"android": "https://dc.lft.to/lastmile_qr_scan", "ios": "https://dc.lft.to/lastmile_qr_scan"}, "is_disabled": 0, "type": "electric_scooter", "is_reserved": 0, "name": "7443f9508fe0d1fe58bdfa1f519f9daf", "lon": -77.022974, "bike_id": "7443f9508fe0d1fe58bdfa1f519f9daf", "lat": 38.91739583333333}, {"fusion_lon": 0.0, "fusion_lat": 0.0, "rental_uris": {"android": "https://dc.lft.to/lastmile_qr_scan", "ios": "https://dc.lft.to/lastmile_qr_scan"}, "is_disabled": 0, "type": "electric_scooter", "is_reserved": 0, "name": "d182b2bd7e1ea344a9fa4cf7f670dabc", "lon": -77.02332933333334, "bike_id": "d182b2bd7e1ea344a9fa4cf7f670dabc", "lat": 38.87924}, {"fusion_lon": 0.0, "fusion_lat": 0.0, "rental_uris": {"android": "https://dc.lft.to/lastmile_qr_scan", "ios": "https://dc.lft.to/lastmile_qr_scan"}, "is_disabled": 0, "type": "electric_scooter", "is_reserved": 0, "name": "0a663082c8472416c851062aa1d64175", "lon": -77.01846083333334, "bike_id": "0a663082c8472416c851062aa1d64175", "lat": 38.91472816666667}, {"fusion_lon": 0.0, "fusion_lat": 0.0, "rental_uris": {"android": "https://dc.lft.to/lastmile_qr_scan", "ios": "https://dc.lft.to/lastmile_qr_scan"}, "is_disabled": 0, "type": "electric_scooter", "is_reserved": 0, "name": "1a58ae9333d0910003b313e2c25ad985", "lon": -77.03331883333334, "bike_id": "1a58ae9333d0910003b313e2c25ad985", "lat": 38.928592333333334}, {"fusion_lon": 0.0, "fusion_lat": 0.0, "rental_uris": {"android": "https://dc.lft.to/lastmile_qr_scan", "ios": "https://dc.lft.to/lastmile_qr_scan"}, "is_disabled": 0, "type": "electric_scooter", "is_reserved": 0, "name": "6b2449ff6629013283b12834357a4e47", "lon": -77.0724795, "bike_id": "6b2449ff6629013283b12834357a4e47", "lat": 38.9395545}, {"fusion_lon": 0.0, "fusion_lat": 0.0, "rental_uris": {"android": "https://dc.lft.to/lastmile_qr_scan", "ios": "https://dc.lft.to/lastmile_qr_scan"}, "is_disabled": 0, "type": "electric_scooter", "is_reserved": 0, "name": "b29f57ac554afce11408abe1ef32635d", "lon": -76.99167216666666, "bike_id": "b29f57ac554afce11408abe1ef32635d", "lat": 38.9012535}, {"fusion_lon": 0.0, "fusion_lat": 0.0, "rental_uris": {"android": "https://dc.lft.to/lastmile_qr_scan", "ios": "https://dc.lft.to/lastmile_qr_scan"}, "is_disabled": 0, "type": "electric_scooter", "is_reserved": 0, "name": "0cfed852ef8e3ea4334e4c6ddd07189f", "lon": -77.043591, "bike_id": "0cfed852ef8e3ea4334e4c6ddd07189f", "lat": 38.892309166666664}, {"fusion_lon": 0.0, "fusion_lat": 0.0, "rental_uris": {"android": "https://dc.lft.to/lastmile_qr_scan", "ios": "https://dc.lft.to/lastmile_qr_scan"}, "is_disabled": 0, "type": "electric_scooter", "is_reserved": 0, "name": "aeffa118a156df59dcbde29c68d3ca22", "lon": -77.0091445, "bike_id": "aeffa118a156df59dcbde29c68d3ca22", "lat": 38.89553316666667}, {"fusion_lon": 0.0, "fusion_lat": 0.0, "rental_uris": {"android": "https://dc.lft.to/lastmile_qr_scan", "ios": "https://dc.lft.to/lastmile_qr_scan"}, "is_disabled": 0, "type": "electric_scooter", "is_reserved": 0, "name": "805581a26d994fc05965ef2d19dc8a10", "lon": -76.93720833333333, "bike_id": "805581a26d994fc05965ef2d19dc8a10", "lat": 38.88657116666667}, {"fusion_lon": 0.0, "fusion_lat": 0.0, "rental_uris": {"android": "https://dc.lft.to/lastmile_qr_scan", "ios": "https://dc.lft.to/lastmile_qr_scan"}, "is_disabled": 0, "type": "electric_scooter", "is_reserved": 0, "name": "e4f68f36488b1022b6ccaaba6003a7fc", "lon": -77.0415435, "bike_id": "e4f68f36488b1022b6ccaaba6003a7fc", "lat": 38.91925166666667}, {"fusion_lon": 0.0, "fusion_lat": 0.0, "rental_uris": {"android": "https://dc.lft.to/lastmile_qr_scan", "ios": "https://dc.lft.to/lastmile_qr_scan"}, "is_disabled": 0, "type": "electric_scooter", "is_reserved": 0, "name": "6b3e563a6b37fd5c4e47f109c54381f6", "lon": -77.0220145, "bike_id": "6b3e563a6b37fd5c4e47f109c54381f6", "lat": 38.902308}, {"fusion_lon": 0.0, "fusion_lat": 0.0, "rental_uris": {"android": "https://dc.lft.to/lastmile_qr_scan", "ios": "https://dc.lft.to/lastmile_qr_scan"}, "is_disabled": 0, "type": "electric_scooter", "is_reserved": 0, "name": "083f5836c2e28ab1cd38437f9b40ff7e", "lon": -77.01951466666667, "bike_id": "083f5836c2e28ab1cd38437f9b40ff7e", "lat": 38.92418466666667}, {"fusion_lon": 0.0, "fusion_lat": 0.0, "rental_uris": {"android": "https://dc.lft.to/lastmile_qr_scan", "ios": "https://dc.lft.to/lastmile_qr_scan"}, "is_disabled": 0, "type": "electric_scooter", "is_reserved": 0, "name": "eed6bcff2633d67ec9734fc8ddc3024b", "lon": -77.04082466666667, "bike_id": "eed6bcff2633d67ec9734fc8ddc3024b", "lat": 38.91705433333333}, {"fusion_lon": 0.0, "fusion_lat": 0.0, "rental_uris": {"android": "https://dc.lft.to/lastmile_qr_scan", "ios": "https://dc.lft.to/lastmile_qr_scan"}, "is_disabled": 0, "type": "electric_scooter", "is_reserved": 0, "name": "14759393399096e1bc91b12884bcda7c", "lon": -77.01956933333334, "bike_id": "14759393399096e1bc91b12884bcda7c", "lat": 38.922585833333336}, {"fusion_lon": 0.0, "fusion_lat": 0.0, "rental_uris": {"android": "https://dc.lft.to/lastmile_qr_scan", "ios": "https://dc.lft.to/lastmile_qr_scan"}, "is_disabled": 0, "type": "electric_scooter", "is_reserved": 0, "name": "b9b33d86ee43ec2796a8efa6381d1397", "lon": -77.02524666666666, "bike_id": "b9b33d86ee43ec2796a8efa6381d1397", "lat": 38.90957316666667}, {"fusion_lon": 0.0, "fusion_lat": 0.0, "rental_uris": {"android": "https://dc.lft.to/lastmile_qr_scan", "ios": "https://dc.lft.to/lastmile_qr_scan"}, "is_disabled": 0, "type": "electric_scooter", "is_reserved": 0, "name": "60a930af6db9b40e9ff0001a7adf281d", "lon": -77.02430066666666, "bike_id": "60a930af6db9b40e9ff0001a7adf281d", "lat": 38.967870833333336}, {"fusion_lon": 0.0, "fusion_lat": 0.0, "rental_uris": {"android": "https://dc.lft.to/lastmile_qr_scan", "ios": "https://dc.lft.to/lastmile_qr_scan"}, "is_disabled": 0, "type": "electric_scooter", "is_reserved": 0, "name": "4f4160a6b9c62c55e4b2b1d10de96abe", "lon": -77.02187283333333, "bike_id": "4f4160a6b9c62c55e4b2b1d10de96abe", "lat": 38.899316166666665}, {"fusion_lon": 0.0, "fusion_lat": 0.0, "rental_uris": {"android": "https://dc.lft.to/lastmile_qr_scan", "ios": "https://dc.lft.to/lastmile_qr_scan"}, "is_disabled": 0, "type": "electric_scooter", "is_reserved": 0, "name": "afd00d3724a3fb976772c460746e327b", "lon": -77.00784383333334, "bike_id": "afd00d3724a3fb976772c460746e327b", "lat": 38.907360833333335}, {"fusion_lon": 0.0, "fusion_lat": 0.0, "rental_uris": {"android": "https://dc.lft.to/lastmile_qr_scan", "ios": "https://dc.lft.to/lastmile_qr_scan"}, "is_disabled": 0, "type": "electric_bike", "is_reserved": 0, "name": "b0c9e93922de201f57bddc2b918c7cb0", "lon": -76.9811465, "bike_id": "b0c9e93922de201f57bddc2b918c7cb0", "lat": 38.945669}, {"fusion_lon": 0.0, "fusion_lat": 0.0, "rental_uris": {"android": "https://dc.lft.to/lastmile_qr_scan", "ios": "https://dc.lft.to/lastmile_qr_scan"}, "is_disabled": 0, "type": "electric_scooter", "is_reserved": 0, "name": "24eb7dc20206d280c2da3957fb11d3aa", "lon": -77.02848516666667, "bike_id": "24eb7dc20206d280c2da3957fb11d3aa", "lat": 38.94492666666667}, {"fusion_lon": 0.0, "fusion_lat": 0.0, "rental_uris": {"android": "https://dc.lft.to/lastmile_qr_scan", "ios": "https://dc.lft.to/lastmile_qr_scan"}, "is_disabled": 0, "type": "electric_scooter", "is_reserved": 0, "name": "23959818b92e708a0c5a58485ed35ba3", "lon": -77.0696635, "bike_id": "23959818b92e708a0c5a58485ed35ba3", "lat": 38.91831483333333}, {"fusion_lon": 0.0, "fusion_lat": 0.0, "rental_uris": {"android": "https://dc.lft.to/lastmile_qr_scan", "ios": "https://dc.lft.to/lastmile_qr_scan"}, "is_disabled": 0, "type": "electric_bike", "is_reserved": 0, "name": "de53451ce60efb96bffd5d1ecfceba3a", "lon": -77.01306616666666, "bike_id": "de53451ce60efb96bffd5d1ecfceba3a", "lat": 38.881445666666664}, {"fusion_lon": 0.0, "fusion_lat": 0.0, "rental_uris": {"android": "https://dc.lft.to/lastmile_qr_scan", "ios": "https://dc.lft.to/lastmile_qr_scan"}, "is_disabled": 0, "type": "electric_scooter", "is_reserved": 0, "name": "fec1d3358dc0fdf96c62fabc2af9c522", "lon": -77.040838, "bike_id": "fec1d3358dc0fdf96c62fabc2af9c522", "lat": 38.90508916666667}, {"fusion_lon": 0.0, "fusion_lat": 0.0, "rental_uris": {"android": "https://dc.lft.to/lastmile_qr_scan", "ios": "https://dc.lft.to/lastmile_qr_scan"}, "is_disabled": 0, "type": "electric_scooter", "is_reserved": 0, "name": "74e2125004aabce2666af0de7dc48064", "lon": -77.03181716666667, "bike_id": "74e2125004aabce2666af0de7dc48064", "lat": 38.921077833333335}, {"fusion_lon": 0.0, "fusion_lat": 0.0, "rental_uris": {"android": "https://dc.lft.to/lastmile_qr_scan", "ios": "https://dc.lft.to/lastmile_qr_scan"}, "is_disabled": 0, "type": "electric_scooter", "is_reserved": 0, "name": "3ae1bd1fc45d2e277df1649206f84b02", "lon": -77.0249895, "bike_id": "3ae1bd1fc45d2e277df1649206f84b02", "lat": 38.91781733333333}, {"fusion_lon": 0.0, "fusion_lat": 0.0, "rental_uris": {"android": "https://dc.lft.to/lastmile_qr_scan", "ios": "https://dc.lft.to/lastmile_qr_scan"}, "is_disabled": 0, "type": "electric_scooter", "is_reserved": 0, "name": "a3516e38ee5214203875a3c295eb809d", "lon": -77.02660716666666, "bike_id": "a3516e38ee5214203875a3c295eb809d", "lat": 38.899623}, {"fusion_lon": 0.0, "fusion_lat": 0.0, "rental_uris": {"android": "https://dc.lft.to/lastmile_qr_scan", "ios": "https://dc.lft.to/lastmile_qr_scan"}, "is_disabled": 0, "type": "electric_scooter", "is_reserved": 0, "name": "33b883821bf0cb07ebbae7b47b130728", "lon": -77.04622966666666, "bike_id": "33b883821bf0cb07ebbae7b47b130728", "lat": 38.91528916666667}, {"fusion_lon": 0.0, "fusion_lat": 0.0, "rental_uris": {"android": "https://dc.lft.to/lastmile_qr_scan", "ios": "https://dc.lft.to/lastmile_qr_scan"}, "is_disabled": 0, "type": "electric_scooter", "is_reserved": 0, "name": "439f9e66a6844da274fb3cbda0ba6590", "lon": -77.0269615, "bike_id": "439f9e66a6844da274fb3cbda0ba6590", "lat": 38.9135115}, {"fusion_lon": 0.0, "fusion_lat": 0.0, "rental_uris": {"android": "https://dc.lft.to/lastmile_qr_scan", "ios": "https://dc.lft.to/lastmile_qr_scan"}, "is_disabled": 0, "type": "electric_scooter", "is_reserved": 0, "name": "f77dbdc5e9d1647f047f2eae14783d11", "lon": -77.0398015, "bike_id": "f77dbdc5e9d1647f047f2eae14783d11", "lat": 38.90600533333333}, {"fusion_lon": 0.0, "fusion_lat": 0.0, "rental_uris": {"android": "https://dc.lft.to/lastmile_qr_scan", "ios": "https://dc.lft.to/lastmile_qr_scan"}, "is_disabled": 0, "type": "electric_scooter", "is_reserved": 0, "name": "b92b0fa3ebaf5b6b09a93d231abfcd36", "lon": -77.021479, "bike_id": "b92b0fa3ebaf5b6b09a93d231abfcd36", "lat": 38.919829}, {"fusion_lon": 0.0, "fusion_lat": 0.0, "rental_uris": {"android": "https://dc.lft.to/lastmile_qr_scan", "ios": "https://dc.lft.to/lastmile_qr_scan"}, "is_disabled": 0, "type": "electric_bike", "is_reserved": 0, "name": "137fd525fc988419f5a598d5eeef2f69", "lon": -76.95135766666667, "bike_id": "137fd525fc988419f5a598d5eeef2f69", "lat": 39.08425916666667}, {"fusion_lon": 0.0, "fusion_lat": 0.0, "rental_uris": {"android": "https://dc.lft.to/lastmile_qr_scan", "ios": "https://dc.lft.to/lastmile_qr_scan"}, "is_disabled": 0, "type": "electric_scooter", "is_reserved": 0, "name": "5b41b731b386dec425dc017efdf0850e", "lon": -77.04299616666667, "bike_id": "5b41b731b386dec425dc017efdf0850e", "lat": 38.922607666666664}, {"fusion_lon": 0.0, "fusion_lat": 0.0, "rental_uris": {"android": "https://dc.lft.to/lastmile_qr_scan", "ios": "https://dc.lft.to/lastmile_qr_scan"}, "is_disabled": 0, "type": "electric_scooter", "is_reserved": 0, "name": "b1ae0d3f8bc974c49c4637418ec38584", "lon": -77.06372966666666, "bike_id": "b1ae0d3f8bc974c49c4637418ec38584", "lat": 38.908136}, {"fusion_lon": 0.0, "fusion_lat": 0.0, "rental_uris": {"android": "https://dc.lft.to/lastmile_qr_scan", "ios": "https://dc.lft.to/lastmile_qr_scan"}, "is_disabled": 0, "type": "electric_scooter", "is_reserved": 0, "name": "b635ad18f7f0626254e1db273ce75f69", "lon": -76.93594416666667, "bike_id": "b635ad18f7f0626254e1db273ce75f69", "lat": 38.90941816666667}, {"fusion_lon": 0.0, "fusion_lat": 0.0, "rental_uris": {"android": "https://dc.lft.to/lastmile_qr_scan", "ios": "https://dc.lft.to/lastmile_qr_scan"}, "is_disabled": 0, "type": "electric_scooter", "is_reserved": 0, "name": "096a7e978f73f373fc983fa705c94c60", "lon": -77.04179016666667, "bike_id": "096a7e978f73f373fc983fa705c94c60", "lat": 38.9192005}, {"fusion_lon": 0.0, "fusion_lat": 0.0, "rental_uris": {"android": "https://dc.lft.to/lastmile_qr_scan", "ios": "https://dc.lft.to/lastmile_qr_scan"}, "is_disabled": 0, "type": "electric_bike", "is_reserved": 0, "name": "2272301c6c951d55a59984e72f8d0c65", "lon": -77.0641265, "bike_id": "2272301c6c951d55a59984e72f8d0c65", "lat": 38.98003966666667}, {"fusion_lon": 0.0, "fusion_lat": 0.0, "rental_uris": {"android": "https://dc.lft.to/lastmile_qr_scan", "ios": "https://dc.lft.to/lastmile_qr_scan"}, "is_disabled": 0, "type": "electric_scooter", "is_reserved": 0, "name": "eaf0e05159131aab68c620a69d0e8cfe", "lon": -77.00564383333334, "bike_id": "eaf0e05159131aab68c620a69d0e8cfe", "lat": 38.8961}, {"fusion_lon": 0.0, "fusion_lat": 0.0, "rental_uris": {"android": "https://dc.lft.to/lastmile_qr_scan", "ios": "https://dc.lft.to/lastmile_qr_scan"}, "is_disabled": 0, "type": "electric_bike", "is_reserved": 0, "name": "f80369629e4a948937d699a5be496406", "lon": -77.098761, "bike_id": "f80369629e4a948937d699a5be496406", "lat": 38.94720483333333}, {"fusion_lon": 0.0, "fusion_lat": 0.0, "rental_uris": {"android": "https://dc.lft.to/lastmile_qr_scan", "ios": "https://dc.lft.to/lastmile_qr_scan"}, "is_disabled": 0, "type": "electric_scooter", "is_reserved": 0, "name": "b1795a8b8dcfa5a903e8dcdf66b7f8d9", "lon": -77.00897166666667, "bike_id": "b1795a8b8dcfa5a903e8dcdf66b7f8d9", "lat": 38.8959875}, {"fusion_lon": 0.0, "fusion_lat": 0.0, "rental_uris": {"android": "https://dc.lft.to/lastmile_qr_scan", "ios": "https://dc.lft.to/lastmile_qr_scan"}, "is_disabled": 0, "type": "electric_scooter", "is_reserved": 0, "name": "5744eeebe54b012af94c92c8075a2f9b", "lon": -77.07500233333333, "bike_id": "5744eeebe54b012af94c92c8075a2f9b", "lat": 38.911922}, {"fusion_lon": 0.0, "fusion_lat": 0.0, "rental_uris": {"android": "https://dc.lft.to/lastmile_qr_scan", "ios": "https://dc.lft.to/lastmile_qr_scan"}, "is_disabled": 0, "type": "electric_scooter", "is_reserved": 0, "name": "318f810b9534f6123b02f9c754b2fc8b", "lon": -76.99637683333333, "bike_id": "318f810b9534f6123b02f9c754b2fc8b", "lat": 38.89997133333333}, {"fusion_lon": 0.0, "fusion_lat": 0.0, "rental_uris": {"android": "https://dc.lft.to/lastmile_qr_scan", "ios": "https://dc.lft.to/lastmile_qr_scan"}, "is_disabled": 0, "type": "electric_scooter", "is_reserved": 0, "name": "bbd8f52ccb8415ead3653a48e9c7c910", "lon": -77.019469, "bike_id": "bbd8f52ccb8415ead3653a48e9c7c910", "lat": 38.95640383333333}, {"fusion_lon": 0.0, "fusion_lat": 0.0, "rental_uris": {"android": "https://dc.lft.to/lastmile_qr_scan", "ios": "https://dc.lft.to/lastmile_qr_scan"}, "is_disabled": 0, "type": "electric_scooter", "is_reserved": 0, "name": "2302686af8b5a754f7cbd5828bf77240", "lon": -77.03351133333334, "bike_id": "2302686af8b5a754f7cbd5828bf77240", "lat": 38.8848065}, {"fusion_lon": 0.0, "fusion_lat": 0.0, "rental_uris": {"android": "https://dc.lft.to/lastmile_qr_scan", "ios": "https://dc.lft.to/lastmile_qr_scan"}, "is_disabled": 0, "type": "electric_scooter", "is_reserved": 0, "name": "27929b9356eb7d5d048fd81f9971e227", "lon": -77.04585066666667, "bike_id": "27929b9356eb7d5d048fd81f9971e227", "lat": 38.916066}, {"fusion_lon": 0.0, "fusion_lat": 0.0, "rental_uris": {"android": "https://dc.lft.to/lastmile_qr_scan", "ios": "https://dc.lft.to/lastmile_qr_scan"}, "is_disabled": 0, "type": "electric_scooter", "is_reserved": 0, "name": "25202b6ff4dcd6a6f5bfca282f940b50", "lon": -77.009116, "bike_id": "25202b6ff4dcd6a6f5bfca282f940b50", "lat": 38.89553333333333}, {"fusion_lon": 0.0, "fusion_lat": 0.0, "rental_uris": {"android": "https://dc.lft.to/lastmile_qr_scan", "ios": "https://dc.lft.to/lastmile_qr_scan"}, "is_disabled": 0, "type": "electric_scooter", "is_reserved": 0, "name": "f5cb6bc85941b65c7dfe06ba05857784", "lon": -77.033981, "bike_id": "f5cb6bc85941b65c7dfe06ba05857784", "lat": 38.9059415}, {"fusion_lon": 0.0, "fusion_lat": 0.0, "rental_uris": {"android": "https://dc.lft.to/lastmile_qr_scan", "ios": "https://dc.lft.to/lastmile_qr_scan"}, "is_disabled": 0, "type": "electric_scooter", "is_reserved": 0, "name": "fa189b03e8e18d1f9dc7c7b1bfd33c40", "lon": -77.03287883333333, "bike_id": "fa189b03e8e18d1f9dc7c7b1bfd33c40", "lat": 38.9324585}, {"fusion_lon": 0.0, "fusion_lat": 0.0, "rental_uris": {"android": "https://dc.lft.to/lastmile_qr_scan", "ios": "https://dc.lft.to/lastmile_qr_scan"}, "is_disabled": 0, "type": "electric_scooter", "is_reserved": 0, "name": "8c489a286da90ecfeb909cf90258c136", "lon": -77.03463916666666, "bike_id": "8c489a286da90ecfeb909cf90258c136", "lat": 38.9009325}, {"fusion_lon": 0.0, "fusion_lat": 0.0, "rental_uris": {"android": "https://dc.lft.to/lastmile_qr_scan", "ios": "https://dc.lft.to/lastmile_qr_scan"}, "is_disabled": 0, "type": "electric_bike", "is_reserved": 0, "name": "31648a0c626c978d360110adbe04b225", "lon": -77.01202483333333, "bike_id": "31648a0c626c978d360110adbe04b225", "lat": 38.950716666666665}, {"fusion_lon": 0.0, "fusion_lat": 0.0, "rental_uris": {"android": "https://dc.lft.to/lastmile_qr_scan", "ios": "https://dc.lft.to/lastmile_qr_scan"}, "is_disabled": 0, "type": "electric_bike", "is_reserved": 0, "name": "9ef5faf4341d106ddad8d07aa795111f", "lon": -76.973165, "bike_id": "9ef5faf4341d106ddad8d07aa795111f", "lat": 38.86502983333333}, {"fusion_lon": 0.0, "fusion_lat": 0.0, "rental_uris": {"android": "https://dc.lft.to/lastmile_qr_scan", "ios": "https://dc.lft.to/lastmile_qr_scan"}, "is_disabled": 0, "type": "electric_scooter", "is_reserved": 0, "name": "51081dab17458a71ea281feea3a8818c", "lon": -77.02405666666667, "bike_id": "51081dab17458a71ea281feea3a8818c", "lat": 38.9418445}, {"fusion_lon": 0.0, "fusion_lat": 0.0, "rental_uris": {"android": "https://dc.lft.to/lastmile_qr_scan", "ios": "https://dc.lft.to/lastmile_qr_scan"}, "is_disabled": 0, "type": "electric_bike", "is_reserved": 0, "name": "cc86da1b3ea35dc7a706f83c524b47d8", "lon": -77.10402483333333, "bike_id": "cc86da1b3ea35dc7a706f83c524b47d8", "lat": 39.00531566666667}, {"fusion_lon": 0.0, "fusion_lat": 0.0, "rental_uris": {"android": "https://dc.lft.to/lastmile_qr_scan", "ios": "https://dc.lft.to/lastmile_qr_scan"}, "is_disabled": 0, "type": "electric_bike", "is_reserved": 0, "name": "6c6e60539324d0a558fc83b7a23d1478", "lon": -77.14870583333334, "bike_id": "6c6e60539324d0a558fc83b7a23d1478", "lat": 38.87736533333333}, {"fusion_lon": 0.0, "fusion_lat": 0.0, "rental_uris": {"android": "https://dc.lft.to/lastmile_qr_scan", "ios": "https://dc.lft.to/lastmile_qr_scan"}, "is_disabled": 0, "type": "electric_scooter", "is_reserved": 0, "name": "09e860039c2192be7879995820c6528c", "lon": -77.04264816666667, "bike_id": "09e860039c2192be7879995820c6528c", "lat": 38.92053666666666}, {"fusion_lon": 0.0, "fusion_lat": 0.0, "rental_uris": {"android": "https://dc.lft.to/lastmile_qr_scan", "ios": "https://dc.lft.to/lastmile_qr_scan"}, "is_disabled": 0, "type": "electric_scooter", "is_reserved": 0, "name": "d0cb05fba7a58394ab4cbd12390dd968", "lon": -77.00293233333333, "bike_id": "d0cb05fba7a58394ab4cbd12390dd968", "lat": 38.89198866666667}, {"fusion_lon": 0.0, "fusion_lat": 0.0, "rental_uris": {"android": "https://dc.lft.to/lastmile_qr_scan", "ios": "https://dc.lft.to/lastmile_qr_scan"}, "is_disabled": 0, "type": "electric_scooter", "is_reserved": 0, "name": "b81bc71b7073f9c7d40fd1eab0036e4f", "lon": -77.03150383333333, "bike_id": "b81bc71b7073f9c7d40fd1eab0036e4f", "lat": 38.9278645}, {"fusion_lon": 0.0, "fusion_lat": 0.0, "rental_uris": {"android": "https://dc.lft.to/lastmile_qr_scan", "ios": "https://dc.lft.to/lastmile_qr_scan"}, "is_disabled": 0, "type": "electric_scooter", "is_reserved": 0, "name": "efe5a043fa36c3f407942be48da947e6", "lon": -77.02485866666666, "bike_id": "efe5a043fa36c3f407942be48da947e6", "lat": 38.88010533333333}, {"fusion_lon": 0.0, "fusion_lat": 0.0, "rental_uris": {"android": "https://dc.lft.to/lastmile_qr_scan", "ios": "https://dc.lft.to/lastmile_qr_scan"}, "is_disabled": 0, "type": "electric_scooter", "is_reserved": 0, "name": "fa88880e429cba9b1b342239eb3c21b0", "lon": -77.0447335, "bike_id": "fa88880e429cba9b1b342239eb3c21b0", "lat": 38.89427216666667}, {"fusion_lon": 0.0, "fusion_lat": 0.0, "rental_uris": {"android": "https://dc.lft.to/lastmile_qr_scan", "ios": "https://dc.lft.to/lastmile_qr_scan"}, "is_disabled": 0, "type": "electric_scooter", "is_reserved": 0, "name": "3660e493760068926fbde6499ccc9a81", "lon": -77.01719566666667, "bike_id": "3660e493760068926fbde6499ccc9a81", "lat": 38.907244}, {"fusion_lon": 0.0, "fusion_lat": 0.0, "rental_uris": {"android": "https://dc.lft.to/lastmile_qr_scan", "ios": "https://dc.lft.to/lastmile_qr_scan"}, "is_disabled": 0, "type": "electric_scooter", "is_reserved": 0, "name": "c478dfff3f3609b8c82233bfcafc5cb9", "lon": -77.035697, "bike_id": "c478dfff3f3609b8c82233bfcafc5cb9", "lat": 38.9036755}, {"fusion_lon": 0.0, "fusion_lat": 0.0, "rental_uris": {"android": "https://dc.lft.to/lastmile_qr_scan", "ios": "https://dc.lft.to/lastmile_qr_scan"}, "is_disabled": 0, "type": "electric_scooter", "is_reserved": 0, "name": "9b4c5565402ede03797f3e21ea512ca1", "lon": -77.0021075, "bike_id": "9b4c5565402ede03797f3e21ea512ca1", "lat": 38.90029366666667}, {"fusion_lon": 0.0, "fusion_lat": 0.0, "rental_uris": {"android": "https://dc.lft.to/lastmile_qr_scan", "ios": "https://dc.lft.to/lastmile_qr_scan"}, "is_disabled": 0, "type": "electric_scooter", "is_reserved": 0, "name": "67fb0646b441e1ee0df8f298c585d636", "lon": -77.04439916666666, "bike_id": "67fb0646b441e1ee0df8f298c585d636", "lat": 38.896061333333336}, {"fusion_lon": 0.0, "fusion_lat": 0.0, "rental_uris": {"android": "https://dc.lft.to/lastmile_qr_scan", "ios": "https://dc.lft.to/lastmile_qr_scan"}, "is_disabled": 0, "type": "electric_scooter", "is_reserved": 0, "name": "9fdf8b39f66c19444daea2c6b8adfc24", "lon": -77.0285015, "bike_id": "9fdf8b39f66c19444daea2c6b8adfc24", "lat": 38.941905166666665}, {"fusion_lon": 0.0, "fusion_lat": 0.0, "rental_uris": {"android": "https://dc.lft.to/lastmile_qr_scan", "ios": "https://dc.lft.to/lastmile_qr_scan"}, "is_disabled": 0, "type": "electric_scooter", "is_reserved": 0, "name": "30bfafb42686b091c325314c0f72767a", "lon": -77.033105, "bike_id": "30bfafb42686b091c325314c0f72767a", "lat": 38.90392133333334}, {"fusion_lon": 0.0, "fusion_lat": 0.0, "rental_uris": {"android": "https://dc.lft.to/lastmile_qr_scan", "ios": "https://dc.lft.to/lastmile_qr_scan"}, "is_disabled": 0, "type": "electric_scooter", "is_reserved": 0, "name": "55f3499c81385a199cad2db42ec4d9ca", "lon": -77.02150133333333, "bike_id": "55f3499c81385a199cad2db42ec4d9ca", "lat": 38.919891166666666}, {"fusion_lon": 0.0, "fusion_lat": 0.0, "rental_uris": {"android": "https://dc.lft.to/lastmile_qr_scan", "ios": "https://dc.lft.to/lastmile_qr_scan"}, "is_disabled": 0, "type": "electric_scooter", "is_reserved": 0, "name": "a34634d43d299ee7ce2b2c12c0c4141b", "lon": -77.04482033333333, "bike_id": "a34634d43d299ee7ce2b2c12c0c4141b", "lat": 38.910743833333335}, {"fusion_lon": 0.0, "fusion_lat": 0.0, "rental_uris": {"android": "https://dc.lft.to/lastmile_qr_scan", "ios": "https://dc.lft.to/lastmile_qr_scan"}, "is_disabled": 0, "type": "electric_scooter", "is_reserved": 0, "name": "0b5c21c0725763f6b4d096328399a161", "lon": -77.02350216666666, "bike_id": "0b5c21c0725763f6b4d096328399a161", "lat": 38.93111583333334}, {"fusion_lon": 0.0, "fusion_lat": 0.0, "rental_uris": {"android": "https://dc.lft.to/lastmile_qr_scan", "ios": "https://dc.lft.to/lastmile_qr_scan"}, "is_disabled": 0, "type": "electric_scooter", "is_reserved": 0, "name": "936881328f02ac4396534102acaee74f", "lon": -77.028196, "bike_id": "936881328f02ac4396534102acaee74f", "lat": 38.90697216666667}, {"fusion_lon": 0.0, "fusion_lat": 0.0, "rental_uris": {"android": "https://dc.lft.to/lastmile_qr_scan", "ios": "https://dc.lft.to/lastmile_qr_scan"}, "is_disabled": 0, "type": "electric_scooter", "is_reserved": 0, "name": "41b4817b80a9ea4d76d7309c95fba7ff", "lon": -77.02052833333333, "bike_id": "41b4817b80a9ea4d76d7309c95fba7ff", "lat": 38.92768083333333}, {"fusion_lon": 0.0, "fusion_lat": 0.0, "rental_uris": {"android": "https://dc.lft.to/lastmile_qr_scan", "ios": "https://dc.lft.to/lastmile_qr_scan"}, "is_disabled": 0, "type": "electric_scooter", "is_reserved": 0, "name": "8c0e8d22c03e444e296fff64dceb2d22", "lon": -77.03282366666667, "bike_id": "8c0e8d22c03e444e296fff64dceb2d22", "lat": 38.928505666666666}, {"fusion_lon": 0.0, "fusion_lat": 0.0, "rental_uris": {"android": "https://dc.lft.to/lastmile_qr_scan", "ios": "https://dc.lft.to/lastmile_qr_scan"}, "is_disabled": 0, "type": "electric_scooter", "is_reserved": 0, "name": "abe5a6d5241959f75f86a184a6b505f1", "lon": -77.05788466666667, "bike_id": "abe5a6d5241959f75f86a184a6b505f1", "lat": 38.902809166666664}, {"fusion_lon": 0.0, "fusion_lat": 0.0, "rental_uris": {"android": "https://dc.lft.to/lastmile_qr_scan", "ios": "https://dc.lft.to/lastmile_qr_scan"}, "is_disabled": 0, "type": "electric_bike", "is_reserved": 0, "name": "7ea92edff3e97b163d6db058662a32bf", "lon": -77.1264555, "bike_id": "7ea92edff3e97b163d6db058662a32bf", "lat": 38.818988166666664}, {"fusion_lon": 0.0, "fusion_lat": 0.0, "rental_uris": {"android": "https://dc.lft.to/lastmile_qr_scan", "ios": "https://dc.lft.to/lastmile_qr_scan"}, "is_disabled": 0, "type": "electric_scooter", "is_reserved": 0, "name": "a2d6bf3208548e886e80bdc0ad975e15", "lon": -77.0191485, "bike_id": "a2d6bf3208548e886e80bdc0ad975e15", "lat": 38.92362883333333}, {"fusion_lon": 0.0, "fusion_lat": 0.0, "rental_uris": {"android": "https://dc.lft.to/lastmile_qr_scan", "ios": "https://dc.lft.to/lastmile_qr_scan"}, "is_disabled": 0, "type": "electric_scooter", "is_reserved": 0, "name": "b80e929d2ba91f6eff8a3f83e6622696", "lon": -77.02202533333333, "bike_id": "b80e929d2ba91f6eff8a3f83e6622696", "lat": 38.90228583333333}, {"fusion_lon": 0.0, "fusion_lat": 0.0, "rental_uris": {"android": "https://dc.lft.to/lastmile_qr_scan", "ios": "https://dc.lft.to/lastmile_qr_scan"}, "is_disabled": 0, "type": "electric_scooter", "is_reserved": 0, "name": "c8e5192904aa8c0a6390b45eb7a86841", "lon": -77.00213466666666, "bike_id": "c8e5192904aa8c0a6390b45eb7a86841", "lat": 38.9002955}, {"fusion_lon": 0.0, "fusion_lat": 0.0, "rental_uris": {"android": "https://dc.lft.to/lastmile_qr_scan", "ios": "https://dc.lft.to/lastmile_qr_scan"}, "is_disabled": 0, "type": "electric_scooter", "is_reserved": 0, "name": "5fdd8678f31ad85b8c2a931678bb856d", "lon": -77.02157466666667, "bike_id": "5fdd8678f31ad85b8c2a931678bb856d", "lat": 38.92440083333334}, {"fusion_lon": 0.0, "fusion_lat": 0.0, "rental_uris": {"android": "https://dc.lft.to/lastmile_qr_scan", "ios": "https://dc.lft.to/lastmile_qr_scan"}, "is_disabled": 0, "type": "electric_scooter", "is_reserved": 0, "name": "b66042252ed26ad344e482fe5bc08ff1", "lon": -77.00200433333333, "bike_id": "b66042252ed26ad344e482fe5bc08ff1", "lat": 38.87392366666667}, {"fusion_lon": 0.0, "fusion_lat": 0.0, "rental_uris": {"android": "https://dc.lft.to/lastmile_qr_scan", "ios": "https://dc.lft.to/lastmile_qr_scan"}, "is_disabled": 0, "type": "electric_scooter", "is_reserved": 0, "name": "e21149c76a50e6baae5e44bb777cbd2b", "lon": -77.02535433333334, "bike_id": "e21149c76a50e6baae5e44bb777cbd2b", "lat": 38.895908}, {"fusion_lon": 0.0, "fusion_lat": 0.0, "rental_uris": {"android": "https://dc.lft.to/lastmile_qr_scan", "ios": "https://dc.lft.to/lastmile_qr_scan"}, "is_disabled": 0, "type": "electric_scooter", "is_reserved": 0, "name": "1164afd79c60f9cc694715336fbd1603", "lon": -77.05315933333333, "bike_id": "1164afd79c60f9cc694715336fbd1603", "lat": 38.93457816666667}, {"fusion_lon": 0.0, "fusion_lat": 0.0, "rental_uris": {"android": "https://dc.lft.to/lastmile_qr_scan", "ios": "https://dc.lft.to/lastmile_qr_scan"}, "is_disabled": 0, "type": "electric_scooter", "is_reserved": 0, "name": "4049d6af1e42ff3c19aefba10a0297cc", "lon": -77.02691066666667, "bike_id": "4049d6af1e42ff3c19aefba10a0297cc", "lat": 38.9007045}, {"fusion_lon": 0.0, "fusion_lat": 0.0, "rental_uris": {"android": "https://dc.lft.to/lastmile_qr_scan", "ios": "https://dc.lft.to/lastmile_qr_scan"}, "is_disabled": 0, "type": "electric_scooter", "is_reserved": 0, "name": "fd0538bf1ed27d1e90a2babdd2474ede", "lon": -77.0119985, "bike_id": "fd0538bf1ed27d1e90a2babdd2474ede", "lat": 38.89794}, {"fusion_lon": 0.0, "fusion_lat": 0.0, "rental_uris": {"android": "https://dc.lft.to/lastmile_qr_scan", "ios": "https://dc.lft.to/lastmile_qr_scan"}, "is_disabled": 0, "type": "electric_scooter", "is_reserved": 0, "name": "fae028ba6e11edd370e44d261b48235a", "lon": -77.03256183333333, "bike_id": "fae028ba6e11edd370e44d261b48235a", "lat": 38.927051666666664}, {"fusion_lon": 0.0, "fusion_lat": 0.0, "rental_uris": {"android": "https://dc.lft.to/lastmile_qr_scan", "ios": "https://dc.lft.to/lastmile_qr_scan"}, "is_disabled": 0, "type": "electric_scooter", "is_reserved": 0, "name": "296da1f720a362c1ee935182f33099b2", "lon": -77.021983, "bike_id": "296da1f720a362c1ee935182f33099b2", "lat": 38.91434133333333}, {"fusion_lon": 0.0, "fusion_lat": 0.0, "rental_uris": {"android": "https://dc.lft.to/lastmile_qr_scan", "ios": "https://dc.lft.to/lastmile_qr_scan"}, "is_disabled": 0, "type": "electric_scooter", "is_reserved": 0, "name": "7a51bab85c216bdf581b6f9d0b93703a", "lon": -77.03166683333333, "bike_id": "7a51bab85c216bdf581b6f9d0b93703a", "lat": 38.892278166666664}, {"fusion_lon": 0.0, "fusion_lat": 0.0, "rental_uris": {"android": "https://dc.lft.to/lastmile_qr_scan", "ios": "https://dc.lft.to/lastmile_qr_scan"}, "is_disabled": 0, "type": "electric_scooter", "is_reserved": 0, "name": "51168c217061398c27cde2b61000ec23", "lon": -77.0328905, "bike_id": "51168c217061398c27cde2b61000ec23", "lat": 38.946076166666664}, {"fusion_lon": 0.0, "fusion_lat": 0.0, "rental_uris": {"android": "https://dc.lft.to/lastmile_qr_scan", "ios": "https://dc.lft.to/lastmile_qr_scan"}, "is_disabled": 0, "type": "electric_scooter", "is_reserved": 0, "name": "adab160d1bfa758ff72fed171f0c5c9b", "lon": -77.04398583333334, "bike_id": "adab160d1bfa758ff72fed171f0c5c9b", "lat": 38.923530166666666}, {"fusion_lon": 0.0, "fusion_lat": 0.0, "rental_uris": {"android": "https://dc.lft.to/lastmile_qr_scan", "ios": "https://dc.lft.to/lastmile_qr_scan"}, "is_disabled": 0, "type": "electric_scooter", "is_reserved": 0, "name": "27160cdf74cf6fff20ea2700f3915518", "lon": -77.00464816666667, "bike_id": "27160cdf74cf6fff20ea2700f3915518", "lat": 38.90991616666667}, {"fusion_lon": 0.0, "fusion_lat": 0.0, "rental_uris": {"android": "https://dc.lft.to/lastmile_qr_scan", "ios": "https://dc.lft.to/lastmile_qr_scan"}, "is_disabled": 0, "type": "electric_scooter", "is_reserved": 0, "name": "632600f406810ffd3f5af667463eae6a", "lon": -77.0574645, "bike_id": "632600f406810ffd3f5af667463eae6a", "lat": 38.93394583333333}, {"fusion_lon": 0.0, "fusion_lat": 0.0, "rental_uris": {"android": "https://dc.lft.to/lastmile_qr_scan", "ios": "https://dc.lft.to/lastmile_qr_scan"}, "is_disabled": 0, "type": "electric_scooter", "is_reserved": 0, "name": "b2b59e08221ae1cbc365c51b48e4ec99", "lon": -77.0182415, "bike_id": "b2b59e08221ae1cbc365c51b48e4ec99", "lat": 38.92271383333333}, {"fusion_lon": 0.0, "fusion_lat": 0.0, "rental_uris": {"android": "https://dc.lft.to/lastmile_qr_scan", "ios": "https://dc.lft.to/lastmile_qr_scan"}, "is_disabled": 0, "type": "electric_bike", "is_reserved": 0, "name": "ec6af842f45683f95a81d230ecf908d5", "lon": -77.229392, "bike_id": "ec6af842f45683f95a81d230ecf908d5", "lat": 38.92794516666667}, {"fusion_lon": 0.0, "fusion_lat": 0.0, "rental_uris": {"android": "https://dc.lft.to/lastmile_qr_scan", "ios": "https://dc.lft.to/lastmile_qr_scan"}, "is_disabled": 0, "type": "electric_scooter", "is_reserved": 0, "name": "1a52508b3fbe4eac38acc7e17656b127", "lon": -77.03709283333333, "bike_id": "1a52508b3fbe4eac38acc7e17656b127", "lat": 38.900139}, {"fusion_lon": 0.0, "fusion_lat": 0.0, "rental_uris": {"android": "https://dc.lft.to/lastmile_qr_scan", "ios": "https://dc.lft.to/lastmile_qr_scan"}, "is_disabled": 0, "type": "electric_bike", "is_reserved": 0, "name": "d0e2af4b490f04cd016d1859202fc1e9", "lon": -77.05091233333333, "bike_id": "d0e2af4b490f04cd016d1859202fc1e9", "lat": 38.81334283333333}, {"fusion_lon": 0.0, "fusion_lat": 0.0, "rental_uris": {"android": "https://dc.lft.to/lastmile_qr_scan", "ios": "https://dc.lft.to/lastmile_qr_scan"}, "is_disabled": 0, "type": "electric_scooter", "is_reserved": 0, "name": "e0e0ab8578996302998202839575a88c", "lon": -77.02965783333333, "bike_id": "e0e0ab8578996302998202839575a88c", "lat": 38.9284545}, {"fusion_lon": 0.0, "fusion_lat": 0.0, "rental_uris": {"android": "https://dc.lft.to/lastmile_qr_scan", "ios": "https://dc.lft.to/lastmile_qr_scan"}, "is_disabled": 0, "type": "electric_scooter", "is_reserved": 0, "name": "36ba0e88f0679cc7404fdc8cb4009873", "lon": -77.0451995, "bike_id": "36ba0e88f0679cc7404fdc8cb4009873", "lat": 38.9195995}, {"fusion_lon": 0.0, "fusion_lat": 0.0, "rental_uris": {"android": "https://dc.lft.to/lastmile_qr_scan", "ios": "https://dc.lft.to/lastmile_qr_scan"}, "is_disabled": 0, "type": "electric_scooter", "is_reserved": 0, "name": "ec35cf6fc89ecb9ab1e3e107b9e0b29f", "lon": -77.036934, "bike_id": "ec35cf6fc89ecb9ab1e3e107b9e0b29f", "lat": 38.918237500000004}, {"fusion_lon": 0.0, "fusion_lat": 0.0, "rental_uris": {"android": "https://dc.lft.to/lastmile_qr_scan", "ios": "https://dc.lft.to/lastmile_qr_scan"}, "is_disabled": 0, "type": "electric_bike", "is_reserved": 0, "name": "53fdd68757911dd019156785911f2212", "lon": -76.98207216666667, "bike_id": "53fdd68757911dd019156785911f2212", "lat": 38.9850275}, {"fusion_lon": 0.0, "fusion_lat": 0.0, "rental_uris": {"android": "https://dc.lft.to/lastmile_qr_scan", "ios": "https://dc.lft.to/lastmile_qr_scan"}, "is_disabled": 0, "type": "electric_scooter", "is_reserved": 0, "name": "965a5ae59aa07e1a1310da7944994bf1", "lon": -77.03197166666666, "bike_id": "965a5ae59aa07e1a1310da7944994bf1", "lat": 38.898884833333334}, {"fusion_lon": 0.0, "fusion_lat": 0.0, "rental_uris": {"android": "https://dc.lft.to/lastmile_qr_scan", "ios": "https://dc.lft.to/lastmile_qr_scan"}, "is_disabled": 0, "type": "electric_bike", "is_reserved": 0, "name": "f8640e2b237d49839fbd68fb2ae9d6fa", "lon": -76.98422916666667, "bike_id": "f8640e2b237d49839fbd68fb2ae9d6fa", "lat": 38.909975333333335}, {"fusion_lon": 0.0, "fusion_lat": 0.0, "rental_uris": {"android": "https://dc.lft.to/lastmile_qr_scan", "ios": "https://dc.lft.to/lastmile_qr_scan"}, "is_disabled": 0, "type": "electric_scooter", "is_reserved": 0, "name": "94a9ec73d85249929b79b0e3ad415b4e", "lon": -77.03282866666666, "bike_id": "94a9ec73d85249929b79b0e3ad415b4e", "lat": 38.9373015}, {"fusion_lon": 0.0, "fusion_lat": 0.0, "rental_uris": {"android": "https://dc.lft.to/lastmile_qr_scan", "ios": "https://dc.lft.to/lastmile_qr_scan"}, "is_disabled": 0, "type": "electric_scooter", "is_reserved": 0, "name": "fe55a2bc0ba39a201327e85432c1e4d6", "lon": -77.0017675, "bike_id": "fe55a2bc0ba39a201327e85432c1e4d6", "lat": 38.940706666666664}, {"fusion_lon": 0.0, "fusion_lat": 0.0, "rental_uris": {"android": "https://dc.lft.to/lastmile_qr_scan", "ios": "https://dc.lft.to/lastmile_qr_scan"}, "is_disabled": 0, "type": "electric_scooter", "is_reserved": 0, "name": "cc20849caf14d8545dc05179a2bed6cd", "lon": -77.032532, "bike_id": "cc20849caf14d8545dc05179a2bed6cd", "lat": 38.92789233333333}, {"fusion_lon": 0.0, "fusion_lat": 0.0, "rental_uris": {"android": "https://dc.lft.to/lastmile_qr_scan", "ios": "https://dc.lft.to/lastmile_qr_scan"}, "is_disabled": 0, "type": "electric_scooter", "is_reserved": 0, "name": "7c3f160975e3a2d35d2829f6a6cb8d5f", "lon": -76.97804616666667, "bike_id": "7c3f160975e3a2d35d2829f6a6cb8d5f", "lat": 38.920349}, {"fusion_lon": 0.0, "fusion_lat": 0.0, "rental_uris": {"android": "https://dc.lft.to/lastmile_qr_scan", "ios": "https://dc.lft.to/lastmile_qr_scan"}, "is_disabled": 0, "type": "electric_scooter", "is_reserved": 0, "name": "4413e7078f31f137b8182c677a86508c", "lon": -77.0216025, "bike_id": "4413e7078f31f137b8182c677a86508c", "lat": 38.926086}, {"fusion_lon": 0.0, "fusion_lat": 0.0, "rental_uris": {"android": "https://dc.lft.to/lastmile_qr_scan", "ios": "https://dc.lft.to/lastmile_qr_scan"}, "is_disabled": 0, "type": "electric_scooter", "is_reserved": 0, "name": "087d15b6c8d60197b94f21a6c095e55f", "lon": -77.03206333333333, "bike_id": "087d15b6c8d60197b94f21a6c095e55f", "lat": 38.903604}, {"fusion_lon": 0.0, "fusion_lat": 0.0, "rental_uris": {"android": "https://dc.lft.to/lastmile_qr_scan", "ios": "https://dc.lft.to/lastmile_qr_scan"}, "is_disabled": 0, "type": "electric_scooter", "is_reserved": 0, "name": "b39d5821d04dbc4228adc5658fe0cba6", "lon": -77.03066483333333, "bike_id": "b39d5821d04dbc4228adc5658fe0cba6", "lat": 38.899721}, {"fusion_lon": 0.0, "fusion_lat": 0.0, "rental_uris": {"android": "https://dc.lft.to/lastmile_qr_scan", "ios": "https://dc.lft.to/lastmile_qr_scan"}, "is_disabled": 0, "type": "electric_scooter", "is_reserved": 0, "name": "f25f4ad34b1f96231cedc7c34fb1aac8", "lon": -77.00795483333333, "bike_id": "f25f4ad34b1f96231cedc7c34fb1aac8", "lat": 38.897141}, {"fusion_lon": 0.0, "fusion_lat": 0.0, "rental_uris": {"android": "https://dc.lft.to/lastmile_qr_scan", "ios": "https://dc.lft.to/lastmile_qr_scan"}, "is_disabled": 0, "type": "electric_scooter", "is_reserved": 0, "name": "4ae3232d83ebe2478f6cae6735275a8e", "lon": -77.02805233333333, "bike_id": "4ae3232d83ebe2478f6cae6735275a8e", "lat": 38.8935335},