{"data": {"bikes": [{"name": "89f154ebc6ebe866cc840d8079f0f41a", "fusion_lon": 0.0, "lat": 38.90186683333334, "is_reserved": 0, "type": "electric_scooter", "bike_id": "89f154ebc6ebe866cc840d8079f0f41a", "is_disabled": 0, "rental_uris": {"android": "https://dc.lft.to/lastmile_qr_scan", "ios": "https://dc.lft.to/lastmile_qr_scan"}, "lon": -77.01623766666667, "fusion_lat": 0.0}, {"name": "fe8e15587edad012022d101f01e91258", "fusion_lon": 0.0, "lat": 38.910296333333335, "is_reserved": 0, "type": "electric_scooter", "bike_id": "fe8e15587edad012022d101f01e91258", "is_disabled": 0, "rental_uris": {"android": "https://dc.lft.to/lastmile_qr_scan", "ios": "https://dc.lft.to/lastmile_qr_scan"}, "lon": -77.007575, "fusion_lat": 0.0}, {"name": "8d48fce630bcccc020352d10c9b17a30", "fusion_lon": 0.0, "lat": 38.897707833333335, "is_reserved": 0, "type": "electric_scooter", "bike_id": "8d48fce630bcccc020352d10c9b17a30", "is_disabled": 0, "rental_uris": {"android": "https://dc.lft.to/lastmile_qr_scan", "ios": "https://dc.lft.to/lastmile_qr_scan"}, "lon": -77.0269465, "fusion_lat": 0.0}, {"name": "364bf7227f63068293b2b4f253586a99", "fusion_lon": 0.0, "lat": 38.895717, "is_reserved": 0, "type": "electric_bike", "bike_id": "364bf7227f63068293b2b4f253586a99", "is_disabled": 0, "rental_uris": {"android": "https://dc.lft.to/lastmile_qr_scan", "ios": "https://dc.lft.to/lastmile_qr_scan"}, "lon": -77.1273285, "fusion_lat": 0.0}, {"name": "71232cc00a06208af0fec9692d9e4585", "fusion_lon": 0.0, "lat": 38.904334, "is_reserved": 0, "type": "electric_scooter", "bike_id": "71232cc00a06208af0fec9692d9e4585", "is_disabled": 0, "rental_uris": {"android": "https://dc.lft.to/lastmile_qr_scan", "ios": "https://dc.lft.to/lastmile_qr_scan"}, "lon": -77.03267366666667, "fusion_lat": 0.0}, {"name": "b7b85c33d218acdf0e4de0f28bbd5415", "fusion_lon": 0.0, "lat": 38.91410783333333, "is_reserved": 0, "type": "electric_scooter", "bike_id": "b7b85c33d218acdf0e4de0f28bbd5415", "is_disabled": 0, "rental_uris": {"android": "https://dc.lft.to/lastmile_qr_scan", "ios": "https://dc.lft.to/lastmile_qr_scan"}, "lon": -77.04370666666667, "fusion_lat": 0.0}, {"name": "d10b452dc3e80565de03db734c62c7ab", "fusion_lon": 0.0, "lat": 38.941582833333335, "is_reserved": 0, "type": "electric_bike", "bike_id": "d10b452dc3e80565de03db734c62c7ab", "is_disabled": 0, "rental_uris": {"android": "https://dc.lft.to/lastmile_qr_scan", "ios": "https://dc.lft.to/lastmile_qr_scan"}, "lon": -77.0019475, "fusion_lat": 0.0}, {"name": "8f448110ff52991ac359b8c75c141d1b", "fusion_lon": 0.0, "lat": 38.919335, "is_reserved": 0, "type": "electric_scooter", "bike_id": "8f448110ff52991ac359b8c75c141d1b", "is_disabled": 0, "rental_uris": {"android": "https://dc.lft.to/lastmile_qr_scan", "ios": "https://dc.lft.to/lastmile_qr_scan"}, "lon": -77.032613, "fusion_lat": 0.0}, {"name": "89f2b79bd6b1e70dc77d211d83f0ab02", "fusion_lon": 0.0, "lat": 38.892245333333335, "is_reserved": 0, "type": "electric_scooter", "bike_id": "89f2b79bd6b1e70dc77d211d83f0ab02", "is_disabled": 0, "rental_uris": {"android": "https://dc.lft.to/lastmile_qr_scan", "ios": "https://dc.lft.to/lastmile_qr_scan"}, "lon": -77.02224183333334, "fusion_lat": 0.0}, {"name": "dbff32e59f25101ff52bf1ddf89a78b0", "fusion_lon": 0.0, "lat": 38.908311, "is_reserved": 0, "type": "electric_bike", "bike_id": "dbff32e59f25101ff52bf1ddf89a78b0", "is_disabled": 0, "rental_uris": {"android": "https://dc.lft.to/lastmile_qr_scan", "ios": "https://dc.lft.to/lastmile_qr_scan"}, "lon": -76.9415805, "fusion_lat": 0.0}, {"name": "ed922cd9b27b75cef45cdbd9210113f2", "fusion_lon": 0.0, "lat": 38.91724766666667, "is_reserved": 0, "type": "electric_scooter", "bike_id": "ed922cd9b27b75cef45cdbd9210113f2", "is_disabled": 0, "rental_uris": {"android": "https://dc.lft.to/lastmile_qr_scan", "ios": "https://dc.lft.to/lastmile_qr_scan"}, "lon": -77.02512033333333, "fusion_lat": 0.0}, {"name": "842a16ad33664c75868fc353e3e8ba7c", "fusion_lon": 0.0, "lat": 38.907279833333334, "is_reserved": 0, "type": "electric_scooter", "bike_id": "842a16ad33664c75868fc353e3e8ba7c", "is_disabled": 0, "rental_uris": {"android": "https://dc.lft.to/lastmile_qr_scan", "ios": "https://dc.lft.to/lastmile_qr_scan"}, "lon": -77.01480016666666, "fusion_lat": 0.0}, {"name": "86128b13759cf414dd158b7db837e879", "fusion_lon": 0.0, "lat": 38.90643566666667, "is_reserved": 0, "type": "electric_scooter", "bike_id": "86128b13759cf414dd158b7db837e879", "is_disabled": 0, "rental_uris": {"android": "https://dc.lft.to/lastmile_qr_scan", "ios": "https://dc.lft.to/lastmile_qr_scan"}, "lon": -77.05318733333333, "fusion_lat": 0.0}, {"name": "2e8dcfa999ca6a3134037db2c51a400f", "fusion_lon": 0.0, "lat": 38.9287045, "is_reserved": 0, "type": "electric_scooter", "bike_id": "2e8dcfa999ca6a3134037db2c51a400f", "is_disabled": 0, "rental_uris": {"android": "https://dc.lft.to/lastmile_qr_scan", "ios": "https://dc.lft.to/lastmile_qr_scan"}, "lon": -77.03286166666666, "fusion_lat": 0.0}, {"name": "c84d15506e56f2feb5c91ff9e0c512ff", "fusion_lon": 0.0, "lat": 38.8922655, "is_reserved": 0, "type": "electric_scooter", "bike_id": "c84d15506e56f2feb5c91ff9e0c512ff", "is_disabled": 0, "rental_uris": {"android": "https://dc.lft.to/lastmile_qr_scan", "ios": "https://dc.lft.to/lastmile_qr_scan"}, "lon": -77.033397, "fusion_lat": 0.0}, {"name": "217cbee4a25555e8afc2829f27d52e32", "fusion_lon": 0.0, "lat": 38.92111083333333, "is_reserved": 0, "type": "electric_scooter", "bike_id": "217cbee4a25555e8afc2829f27d52e32", "is_disabled": 0, "rental_uris": {"android": "https://dc.lft.to/lastmile_qr_scan", "ios": "https://dc.lft.to/lastmile_qr_scan"}, "lon": -77.03186566666666, "fusion_lat": 0.0}, {"name": "d78b0b6b7bddcd4edde667ddb59837b2", "fusion_lon": 0.0, "lat": 38.9005095, "is_reserved": 0, "type": "electric_scooter", "bike_id": "d78b0b6b7bddcd4edde667ddb59837b2", "is_disabled": 0, "rental_uris": {"android": "https://dc.lft.to/lastmile_qr_scan", "ios": "https://dc.lft.to/lastmile_qr_scan"}, "lon": -77.048229, "fusion_lat": 0.0}, {"name": "f2dbd2a4323916c53611d14fd6bdf21d", "fusion_lon": 0.0, "lat": 38.88504783333333, "is_reserved": 0, "type": "electric_scooter", "bike_id": "f2dbd2a4323916c53611d14fd6bdf21d", "is_disabled": 0, "rental_uris": {"android": "https://dc.lft.to/lastmile_qr_scan", "ios": "https://dc.lft.to/lastmile_qr_scan"}, "lon": -76.97713766666666, "fusion_lat": 0.0}, {"name": "a7a3529d7f02f2c4d762d28ec0997ab2", "fusion_lon": 0.0, "lat": 38.902735166666666, "is_reserved": 0, "type": "electric_scooter", "bike_id": "a7a3529d7f02f2c4d762d28ec0997ab2", "is_disabled": 0, "rental_uris": {"android": "https://dc.lft.to/lastmile_qr_scan", "ios": "https://dc.lft.to/lastmile_qr_scan"}, "lon": -77.0340335, "fusion_lat": 0.0}, {"name": "34d91886ada2e8929ebd3391faf94234", "fusion_lon": 0.0, "lat": 38.923203, "is_reserved": 0, "type": "electric_scooter", "bike_id": "34d91886ada2e8929ebd3391faf94234", "is_disabled": 0, "rental_uris": {"android": "https://dc.lft.to/lastmile_qr_scan", "ios": "https://dc.lft.to/lastmile_qr_scan"}, "lon": -77.035677, "fusion_lat": 0.0}, {"name": "d7eb2e7ebddb131767f42e260c267585", "fusion_lon": 0.0, "lat": 38.915007, "is_reserved": 0, "type": "electric_scooter", "bike_id": "d7eb2e7ebddb131767f42e260c267585", "is_disabled": 0, "rental_uris": {"android": "https://dc.lft.to/lastmile_qr_scan", "ios": "https://dc.lft.to/lastmile_qr_scan"}, "lon": -77.032113, "fusion_lat": 0.0}, {"name": "0fc337b640481f1d4373f612508558f5", "fusion_lon": 0.0, "lat": 38.917286833333335, "is_reserved": 0, "type": "electric_scooter", "bike_id": "0fc337b640481f1d4373f612508558f5", "is_disabled": 0, "rental_uris": {"android": "https://dc.lft.to/lastmile_qr_scan", "ios": "https://dc.lft.to/lastmile_qr_scan"}, "lon": -77.03216933333333, "fusion_lat": 0.0}, {"name": "29d93b755510954d4533561b4bfd0659", "fusion_lon": 0.0, "lat": 38.867037, "is_reserved": 0, "type": "electric_scooter", "bike_id": "29d93b755510954d4533561b4bfd0659", "is_disabled": 0, "rental_uris": {"android": "https://dc.lft.to/lastmile_qr_scan", "ios": "https://dc.lft.to/lastmile_qr_scan"}, "lon": -76.98718516666666, "fusion_lat": 0.0}, {"name": "393bf5c55edf5f757b7bb45773e219c7", "fusion_lon": 0.0, "lat": 38.91138483333334, "is_reserved": 0, "type": "electric_scooter", "bike_id": "393bf5c55edf5f757b7bb45773e219c7", "is_disabled": 0, "rental_uris": {"android": "https://dc.lft.to/lastmile_qr_scan", "ios": "https://dc.lft.to/lastmile_qr_scan"}, "lon": -77.02805716666667, "fusion_lat": 0.0}, {"name": "276ff68a3ae52590057538b332de9bc3", "fusion_lon": 0.0, "lat": 38.884787333333335, "is_reserved": 0, "type": "electric_scooter", "bike_id": "276ff68a3ae52590057538b332de9bc3", "is_disabled": 0, "rental_uris": {"android": "https://dc.lft.to/lastmile_qr_scan", "ios": "https://dc.lft.to/lastmile_qr_scan"}, "lon": -77.032128, "fusion_lat": 0.0}, {"name": "a374cec61c2cc02047920ec2bbebff1e", "fusion_lon": 0.0, "lat": 38.809043833333334, "is_reserved": 0, "type": "electric_bike", "bike_id": "a374cec61c2cc02047920ec2bbebff1e", "is_disabled": 0, "rental_uris": {"android": "https://dc.lft.to/lastmile_qr_scan", "ios": "https://dc.lft.to/lastmile_qr_scan"}, "lon": -77.08660183333333, "fusion_lat": 0.0}, {"name": "ee6fb981f38e7ba22311df4248dd681b", "fusion_lon": 0.0, "lat": 38.89852583333333, "is_reserved": 0, "type": "electric_scooter", "bike_id": "ee6fb981f38e7ba22311df4248dd681b", "is_disabled": 0, "rental_uris": {"android": "https://dc.lft.to/lastmile_qr_scan", "ios": "https://dc.lft.to/lastmile_qr_scan"}, "lon": -76.9817405, "fusion_lat": 0.0}, {"name": "ee1f9e1d51d6cc3b7ab719074ae45480", "fusion_lon": 0.0, "lat": 38.9113755, "is_reserved": 0, "type": "electric_scooter", "bike_id": "ee1f9e1d51d6cc3b7ab719074ae45480", "is_disabled": 0, "rental_uris": {"android": "https://dc.lft.to/lastmile_qr_scan", "ios": "https://dc.lft.to/lastmile_qr_scan"}, "lon": -77.044144, "fusion_lat": 0.0}, {"name": "5c716d3d402269a05951e57e828097dc", "fusion_lon": 0.0, "lat": 38.92350916666667, "is_reserved": 0, "type": "electric_scooter", "bike_id": "5c716d3d402269a05951e57e828097dc", "is_disabled": 0, "rental_uris": {"android": "https://dc.lft.to/lastmile_qr_scan", "ios": "https://dc.lft.to/lastmile_qr_scan"}, "lon": -77.05083583333334, "fusion_lat": 0.0}, {"name": "40a4e91d3083985eec9dea6bb10d793f", "fusion_lon": 0.0, "lat": 38.865185833333335, "is_reserved": 0, "type": "electric_scooter", "bike_id": "40a4e91d3083985eec9dea6bb10d793f", "is_disabled": 0, "rental_uris": {"android": "https://dc.lft.to/lastmile_qr_scan", "ios": "https://dc.lft.to/lastmile_qr_scan"}, "lon": -76.99022283333333, "fusion_lat": 0.0}, {"name": "89bf103f08b03708cb3f43cdcdd3ae56", "fusion_lon": 0.0, "lat": 38.8070915, "is_reserved": 0, "type": "electric_bike", "bike_id": "89bf103f08b03708cb3f43cdcdd3ae56", "is_disabled": 0, "rental_uris": {"android": "https://dc.lft.to/lastmile_qr_scan", "ios": "https://dc.lft.to/lastmile_qr_scan"}, "lon": -77.06172833333333, "fusion_lat": 0.0}, {"name": "9ffa5f8dc5026a6ccc68fd404185915a", "fusion_lon": 0.0, "lat": 38.92225916666666, "is_reserved": 0, "type": "electric_scooter", "bike_id": "9ffa5f8dc5026a6ccc68fd404185915a", "is_disabled": 0, "rental_uris": {"android": "https://dc.lft.to/lastmile_qr_scan", "ios": "https://dc.lft.to/lastmile_qr_scan"}, "lon": -77.0345755, "fusion_lat": 0.0}, {"name": "dc26abb04437c8ce56d25959a5b9044d", "fusion_lon": 0.0, "lat": 38.92849, "is_reserved": 0, "type": "electric_scooter", "bike_id": "dc26abb04437c8ce56d25959a5b9044d", "is_disabled": 0, "rental_uris": {"android": "https://dc.lft.to/lastmile_qr_scan", "ios": "https://dc.lft.to/lastmile_qr_scan"}, "lon": -77.014104, "fusion_lat": 0.0}, {"name": "7a6a4edd1b474f5481f9616527fe337f", "fusion_lon": 0.0, "lat": 38.894683, "is_reserved": 0, "type": "electric_scooter", "bike_id": "7a6a4edd1b474f5481f9616527fe337f", "is_disabled": 0, "rental_uris": {"android": "https://dc.lft.to/lastmile_qr_scan", "ios": "https://dc.lft.to/lastmile_qr_scan"}, "lon": -77.022662, "fusion_lat": 0.0}, {"name": "cb5b93ee7178dc17874e16e879f59c02", "fusion_lon": 0.0, "lat": 38.863898, "is_reserved": 0, "type": "electric_scooter", "bike_id": "cb5b93ee7178dc17874e16e879f59c02", "is_disabled": 0, "rental_uris": {"android": "https://dc.lft.to/lastmile_qr_scan", "ios": "https://dc.lft.to/lastmile_qr_scan"}, "lon": -76.99035966666666, "fusion_lat": 0.0}, {"name": "045c156095d249f151c12a964128f5b7", "fusion_lon": 0.0, "lat": 38.924394166666666, "is_reserved": 0, "type": "electric_scooter", "bike_id": "045c156095d249f151c12a964128f5b7", "is_disabled": 0, "rental_uris": {"android": "https://dc.lft.to/lastmile_qr_scan", "ios": "https://dc.lft.to/lastmile_qr_scan"}, "lon": -77.0521565, "fusion_lat": 0.0}, {"name": "f0add127f9d21b833aeaabb2d19a445e", "fusion_lon": 0.0, "lat": 38.88617416666666, "is_reserved": 0, "type": "electric_scooter", "bike_id": "f0add127f9d21b833aeaabb2d19a445e", "is_disabled": 0, "rental_uris": {"android": "https://dc.lft.to/lastmile_qr_scan", "ios": "https://dc.lft.to/lastmile_qr_scan"}, "lon": -76.95577016666667, "fusion_lat": 0.0}, {"name": "8020f28dc992154e88338b80a0e2af89", "fusion_lon": 0.0, "lat": 38.90400316666667, "is_reserved": 0, "type": "electric_scooter", "bike_id": "8020f28dc992154e88338b80a0e2af89", "is_disabled": 0, "rental_uris": {"android": "https://dc.lft.to/lastmile_qr_scan", "ios": "https://dc.lft.to/lastmile_qr_scan"}, "lon": -77.03375433333333, "fusion_lat": 0.0}, {"name": "b23c7846a087827660badea54edaeab3", "fusion_lon": 0.0, "lat": 38.9001415, "is_reserved": 0, "type": "electric_scooter", "bike_id": "b23c7846a087827660badea54edaeab3", "is_disabled": 0, "rental_uris": {"android": "https://dc.lft.to/lastmile_qr_scan", "ios": "https://dc.lft.to/lastmile_qr_scan"}, "lon": -77.04508183333333, "fusion_lat": 0.0}, {"name": "4ce29a790471d6a23e96ebe5aafca929", "fusion_lon": 0.0, "lat": 38.9173375, "is_reserved": 0, "type": "electric_scooter", "bike_id": "4ce29a790471d6a23e96ebe5aafca929", "is_disabled": 0, "rental_uris": {"android": "https://dc.lft.to/lastmile_qr_scan", "ios": "https://dc.lft.to/lastmile_qr_scan"}, "lon": -77.03663916666666, "fusion_lat": 0.0}, {"name": "f562939db7c336f6f50b94145707f85e", "fusion_lon": 0.0, "lat": 38.9032665, "is_reserved": 0, "type": "electric_scooter", "bike_id": "f562939db7c336f6f50b94145707f85e", "is_disabled": 0, "rental_uris": {"android": "https://dc.lft.to/lastmile_qr_scan", "ios": "https://dc.lft.to/lastmile_qr_scan"}, "lon": -76.97546966666667, "fusion_lat": 0.0}, {"name": "df76dafec7f8567c2f1d06d6e4b444ac", "fusion_lon": 0.0, "lat": 38.8874915, "is_reserved": 0, "type": "electric_scooter", "bike_id": "df76dafec7f8567c2f1d06d6e4b444ac", "is_disabled": 0, "rental_uris": {"android": "https://dc.lft.to/lastmile_qr_scan", "ios": "https://dc.lft.to/lastmile_qr_scan"}, "lon": -77.02725816666667, "fusion_lat": 0.0}, {"name": "df9e8dee287156963aef77c468cae926", "fusion_lon": 0.0, "lat": 38.90050383333333, "is_reserved": 0, "type": "electric_scooter", "bike_id": "df9e8dee287156963aef77c468cae926", "is_disabled": 0, "rental_uris": {"android": "https://dc.lft.to/lastmile_qr_scan", "ios": "https://dc.lft.to/lastmile_qr_scan"}, "lon": -76.98829433333333, "fusion_lat": 0.0}, {"name": "df060287a8f8da1960d82b32fe23567d", "fusion_lon": 0.0, "lat": 38.919311666666665, "is_reserved": 0, "type": "electric_scooter", "bike_id": "df060287a8f8da1960d82b32fe23567d", "is_disabled": 0, "rental_uris": {"android": "https://dc.lft.to/lastmile_qr_scan", "ios": "https://dc.lft.to/lastmile_qr_scan"}, "lon": -77.02514933333333, "fusion_lat": 0.0}, {"name": "332597064a65a1cff925b9bcedae1576", "fusion_lon": 0.0, "lat": 38.92823716666667, "is_reserved": 0, "type": "electric_scooter", "bike_id": "332597064a65a1cff925b9bcedae1576", "is_disabled": 0, "rental_uris": {"android": "https://dc.lft.to/lastmile_qr_scan", "ios": "https://dc.lft.to/lastmile_qr_scan"}, "lon": -77.01404616666666, "fusion_lat": 0.0}, {"name": "cadc63c6c4256c678da1c5cf3a4f39b7", "fusion_lon": 0.0, "lat": 38.903613666666665, "is_reserved": 0, "type": "electric_scooter", "bike_id": "cadc63c6c4256c678da1c5cf3a4f39b7", "is_disabled": 0, "rental_uris": {"android": "https://dc.lft.to/lastmile_qr_scan", "ios": "https://dc.lft.to/lastmile_qr_scan"}, "lon": -76.97482033333333, "fusion_lat": 0.0}, {"name": "43ae2c864e8a1a5ea2019681a4e88f65", "fusion_lon": 0.0, "lat": 38.921223833333336, "is_reserved": 0, "type": "electric_scooter", "bike_id": "43ae2c864e8a1a5ea2019681a4e88f65", "is_disabled": 0, "rental_uris": {"android": "https://dc.lft.to/lastmile_qr_scan", "ios": "https://dc.lft.to/lastmile_qr_scan"}, "lon": -77.04581266666666, "fusion_lat": 0.0}, {"name": "60af4b7ca8253bfde4f458c0e63df6c6", "fusion_lon": 0.0, "lat": 38.900513333333336, "is_reserved": 0, "type": "electric_scooter", "bike_id": "60af4b7ca8253bfde4f458c0e63df6c6", "is_disabled": 0, "rental_uris": {"android": "https://dc.lft.to/lastmile_qr_scan", "ios": "https://dc.lft.to/lastmile_qr_scan"}, "lon": -77.02914666666666, "fusion_lat": 0.0}, {"name": "91e04df2554e7045211b46aa26cdc561", "fusion_lon": 0.0, "lat": 38.925157, "is_reserved": 0, "type": "electric_scooter", "bike_id": "91e04df2554e7045211b46aa26cdc561", "is_disabled": 0, "rental_uris": {"android": "https://dc.lft.to/lastmile_qr_scan", "ios": "https://dc.lft.to/lastmile_qr_scan"}, "lon": -77.05256116666666, "fusion_lat": 0.0}, {"name": "6ef89a10b92e3914297f233d3be3f673", "fusion_lon": 0.0, "lat": 38.918242, "is_reserved": 0, "type": "electric_scooter", "bike_id": "6ef89a10b92e3914297f233d3be3f673", "is_disabled": 0, "rental_uris": {"android": "https://dc.lft.to/lastmile_qr_scan", "ios": "https://dc.lft.to/lastmile_qr_scan"}, "lon": -77.02495666666667, "fusion_lat": 0.0}, {"name": "cabdaadeac4b7d91cf318ab28d164a2a", "fusion_lon": 0.0, "lat": 38.907191, "is_reserved": 0, "type": "electric_scooter", "bike_id": "cabdaadeac4b7d91cf318ab28d164a2a", "is_disabled": 0, "rental_uris": {"android": "https://dc.lft.to/lastmile_qr_scan", "ios": "https://dc.lft.to/lastmile_qr_scan"}, "lon": -77.01014783333333, "fusion_lat": 0.0}, {"name": "3de64d5bdf0c9aff892b2041155d0568", "fusion_lon": 0.0, "lat": 38.90578416666666, "is_reserved": 0, "type": "electric_scooter", "bike_id": "3de64d5bdf0c9aff892b2041155d0568", "is_disabled": 0, "rental_uris": {"android": "https://dc.lft.to/lastmile_qr_scan", "ios": "https://dc.lft.to/lastmile_qr_scan"}, "lon": -77.04351283333334, "fusion_lat": 0.0}, {"name": "cb7e4b6c6ffaf4642f410fea870b43cc", "fusion_lon": 0.0, "lat": 38.865183333333334, "is_reserved": 0, "type": "electric_scooter", "bike_id": "cb7e4b6c6ffaf4642f410fea870b43cc", "is_disabled": 0, "rental_uris": {"android": "https://dc.lft.to/lastmile_qr_scan", "ios": "https://dc.lft.to/lastmile_qr_scan"}, "lon": -76.9902065, "fusion_lat": 0.0}, {"name": "7f0f6920fa178ab3d0cab0ed22fd58d5", "fusion_lon": 0.0, "lat": 38.928525, "is_reserved": 0, "type": "electric_scooter", "bike_id": "7f0f6920fa178ab3d0cab0ed22fd58d5", "is_disabled": 0, "rental_uris": {"android": "https://dc.lft.to/lastmile_qr_scan", "ios": "https://dc.lft.to/lastmile_qr_scan"}, "lon": -77.03297166666667, "fusion_lat": 0.0}, {"name": "0c7e1aa284a033398b1ed42f9de3fbc9", "fusion_lon": 0.0, "lat": 38.9170165, "is_reserved": 0, "type": "electric_scooter", "bike_id": "0c7e1aa284a033398b1ed42f9de3fbc9", "is_disabled": 0, "rental_uris": {"android": "https://dc.lft.to/lastmile_qr_scan", "ios": "https://dc.lft.to/lastmile_qr_scan"}, "lon": -77.03156233333333, "fusion_lat": 0.0}, {"name": "7764f189e371191e27fc0a48e0fbab72", "fusion_lon": 0.0, "lat": 38.90088266666667, "is_reserved": 0, "type": "electric_scooter", "bike_id": "7764f189e371191e27fc0a48e0fbab72", "is_disabled": 0, "rental_uris": {"android": "https://dc.lft.to/lastmile_qr_scan", "ios": "https://dc.lft.to/lastmile_qr_scan"}, "lon": -77.05006333333333, "fusion_lat": 0.0}, {"name": "7d9570e74fe1477fc9994c9e670199c6", "fusion_lon": 0.0, "lat": 38.91561316666667, "is_reserved": 0, "type": "electric_scooter", "bike_id": "7d9570e74fe1477fc9994c9e670199c6", "is_disabled": 0, "rental_uris": {"android": "https://dc.lft.to/lastmile_qr_scan", "ios": "https://dc.lft.to/lastmile_qr_scan"}, "lon": -77.037662, "fusion_lat": 0.0}, {"name": "66f0856a343312656245ee37ab225c04", "fusion_lon": 0.0, "lat": 38.9367655, "is_reserved": 0, "type": "electric_scooter", "bike_id": "66f0856a343312656245ee37ab225c04", "is_disabled": 0, "rental_uris": {"android": "https://dc.lft.to/lastmile_qr_scan", "ios": "https://dc.lft.to/lastmile_qr_scan"}, "lon": -77.03589033333333, "fusion_lat": 0.0}, {"name": "b6e3e93a960e435edcb14c77a2372853", "fusion_lon": 0.0, "lat": 38.92155133333333, "is_reserved": 0, "type": "electric_scooter", "bike_id": "b6e3e93a960e435edcb14c77a2372853", "is_disabled": 0, "rental_uris": {"android": "https://dc.lft.to/lastmile_qr_scan", "ios": "https://dc.lft.to/lastmile_qr_scan"}, "lon": -77.02092566666667, "fusion_lat": 0.0}, {"name": "dd749641e39b91ae7bc14dddb77ef225", "fusion_lon": 0.0, "lat": 38.886021, "is_reserved": 0, "type": "electric_scooter", "bike_id": "dd749641e39b91ae7bc14dddb77ef225", "is_disabled": 0, "rental_uris": {"android": "https://dc.lft.to/lastmile_qr_scan", "ios": "https://dc.lft.to/lastmile_qr_scan"}, "lon": -77.00477316666667, "fusion_lat": 0.0}, {"name": "78fa0f4ba2a7ddb799bb15aee798b161", "fusion_lon": 0.0, "lat": 38.9032805, "is_reserved": 0, "type": "electric_scooter", "bike_id": "78fa0f4ba2a7ddb799bb15aee798b161", "is_disabled": 0, "rental_uris": {"android": "https://dc.lft.to/lastmile_qr_scan", "ios": "https://dc.lft.to/lastmile_qr_scan"}, "lon": -77.03864016666667, "fusion_lat": 0.0}, {"name": "0d062e3692fd4c33aa11ef9e563e0daf", "fusion_lon": 0.0, "lat": 38.912609833333335, "is_reserved": 0, "type": "electric_scooter", "bike_id": "0d062e3692fd4c33aa11ef9e563e0daf", "is_disabled": 0, "rental_uris": {"android": "https://dc.lft.to/lastmile_qr_scan", "ios": "https://dc.lft.to/lastmile_qr_scan"}, "lon": -77.02222466666667, "fusion_lat": 0.0}, {"name": "5c3d7f562e3e1008b323caffa75de65e", "fusion_lon": 0.0, "lat": 38.922897, "is_reserved": 0, "type": "electric_scooter", "bike_id": "5c3d7f562e3e1008b323caffa75de65e", "is_disabled": 0, "rental_uris": {"android": "https://dc.lft.to/lastmile_qr_scan", "ios": "https://dc.lft.to/lastmile_qr_scan"}, "lon": -77.01839383333333, "fusion_lat": 0.0}, {"name": "5ce6e5f33bcd41d24423679a9673f7e2", "fusion_lon": 0.0, "lat": 38.909753, "is_reserved": 0, "type": "electric_scooter", "bike_id": "5ce6e5f33bcd41d24423679a9673f7e2", "is_disabled": 0, "rental_uris": {"android": "https://dc.lft.to/lastmile_qr_scan", "ios": "https://dc.lft.to/lastmile_qr_scan"}, "lon": -77.03595133333333, "fusion_lat": 0.0}, {"name": "492a1a089f4b99b34745450e664a2c23", "fusion_lon": 0.0, "lat": 38.967992, "is_reserved": 0, "type": "electric_bike", "bike_id": "492a1a089f4b99b34745450e664a2c23", "is_disabled": 0, "rental_uris": {"android": "https://dc.lft.to/lastmile_qr_scan", "ios": "https://dc.lft.to/lastmile_qr_scan"}, "lon": -77.00037716666667, "fusion_lat": 0.0}, {"name": "50d810bdccbddd13457b1b52c87be91c", "fusion_lon": 0.0, "lat": 38.900496833333335, "is_reserved": 0, "type": "electric_scooter", "bike_id": "50d810bdccbddd13457b1b52c87be91c", "is_disabled": 0, "rental_uris": {"android": "https://dc.lft.to/lastmile_qr_scan", "ios": "https://dc.lft.to/lastmile_qr_scan"}, "lon": -77.04344983333333, "fusion_lat": 0.0}, {"name": "6a4439dbd63205c99607f5d9fc709136", "fusion_lon": 0.0, "lat": 38.8849405, "is_reserved": 0, "type": "electric_scooter", "bike_id": "6a4439dbd63205c99607f5d9fc709136", "is_disabled": 0, "rental_uris": {"android": "https://dc.lft.to/lastmile_qr_scan", "ios": "https://dc.lft.to/lastmile_qr_scan"}, "lon": -77.007088, "fusion_lat": 0.0}, {"name": "639537b038cd9ba3d9783d797f69c85a", "fusion_lon": 0.0, "lat": 38.9156865, "is_reserved": 0, "type": "electric_scooter", "bike_id": "639537b038cd9ba3d9783d797f69c85a", "is_disabled": 0, "rental_uris": {"android": "https://dc.lft.to/lastmile_qr_scan", "ios": "https://dc.lft.to/lastmile_qr_scan"}, "lon": -77.04282916666666, "fusion_lat": 0.0}, {"name": "cb36cb5db9f3b70fd4a03482f623e64d", "fusion_lon": 0.0, "lat": 38.90562383333334, "is_reserved": 0, "type": "electric_scooter", "bike_id": "cb36cb5db9f3b70fd4a03482f623e64d", "is_disabled": 0, "rental_uris": {"android": "https://dc.lft.to/lastmile_qr_scan", "ios": "https://dc.lft.to/lastmile_qr_scan"}, "lon": -77.03443166666666, "fusion_lat": 0.0}, {"name": "8ecc8aca9cabad1ec053788272c6a1c1", "fusion_lon": 0.0, "lat": 38.892940833333334, "is_reserved": 0, "type": "electric_bike", "bike_id": "8ecc8aca9cabad1ec053788272c6a1c1", "is_disabled": 0, "rental_uris": {"android": "https://dc.lft.to/lastmile_qr_scan", "ios": "https://dc.lft.to/lastmile_qr_scan"}, "lon": -76.976209, "fusion_lat": 0.0}, {"name": "4b8bd07adcf8634964d10b23fb32a417", "fusion_lon": 0.0, "lat": 38.92463733333334, "is_reserved": 0, "type": "electric_scooter", "bike_id": "4b8bd07adcf8634964d10b23fb32a417", "is_disabled": 0, "rental_uris": {"android": "https://dc.lft.to/lastmile_qr_scan", "ios": "https://dc.lft.to/lastmile_qr_scan"}, "lon": -77.02712083333333, "fusion_lat": 0.0}, {"name": "2292520139767e16aaa90bf1ee579206", "fusion_lon": 0.0, "lat": 38.896196, "is_reserved": 0, "type": "electric_scooter", "bike_id": "2292520139767e16aaa90bf1ee579206", "is_disabled": 0, "rental_uris": {"android": "https://dc.lft.to/lastmile_qr_scan", "ios": "https://dc.lft.to/lastmile_qr_scan"}, "lon": -77.02211383333334, "fusion_lat": 0.0}, {"name": "3f770d26217f23deb6162987050d70a4", "fusion_lon": 0.0, "lat": 38.8972025, "is_reserved": 0, "type": "electric_scooter", "bike_id": "3f770d26217f23deb6162987050d70a4", "is_disabled": 0, "rental_uris": {"android": "https://dc.lft.to/lastmile_qr_scan", "ios": "https://dc.lft.to/lastmile_qr_scan"}, "lon": -77.02145466666667, "fusion_lat": 0.0}, {"name": "0258bfc6835273394bda97543fefe4a3", "fusion_lon": 0.0, "lat": 38.927049333333336, "is_reserved": 0, "type": "electric_scooter", "bike_id": "0258bfc6835273394bda97543fefe4a3", "is_disabled": 0, "rental_uris": {"android": "https://dc.lft.to/lastmile_qr_scan", "ios": "https://dc.lft.to/lastmile_qr_scan"}, "lon": -77.02104533333333, "fusion_lat": 0.0}, {"name": "086c3a628cf27e22211034cd594e7f54", "fusion_lon": 0.0, "lat": 38.9076915, "is_reserved": 0, "type": "electric_scooter", "bike_id": "086c3a628cf27e22211034cd594e7f54", "is_disabled": 0, "rental_uris": {"android": "https://dc.lft.to/lastmile_qr_scan", "ios": "https://dc.lft.to/lastmile_qr_scan"}, "lon": -77.03167666666667, "fusion_lat": 0.0}, {"name": "357fc21acb3ee681c9c68b26df7785ca", "fusion_lon": 0.0, "lat": 38.909437833333335, "is_reserved": 0, "type": "electric_scooter", "bike_id": "357fc21acb3ee681c9c68b26df7785ca", "is_disabled": 0, "rental_uris": {"android": "https://dc.lft.to/lastmile_qr_scan", "ios": "https://dc.lft.to/lastmile_qr_scan"}, "lon": -77.049406, "fusion_lat": 0.0}, {"name": "0b7eb22e1e6228563fe1c72abd91ceef", "fusion_lon": 0.0, "lat": 38.906714, "is_reserved": 0, "type": "electric_scooter", "bike_id": "0b7eb22e1e6228563fe1c72abd91ceef", "is_disabled": 0, "rental_uris": {"android": "https://dc.lft.to/lastmile_qr_scan", "ios": "https://dc.lft.to/lastmile_qr_scan"}, "lon": -77.0375705, "fusion_lat": 0.0}, {"name": "97440d970602a167f9f53e8b6192c018", "fusion_lon": 0.0, "lat": 38.911367, "is_reserved": 0, "type": "electric_scooter", "bike_id": "97440d970602a167f9f53e8b6192c018", "is_disabled": 0, "rental_uris": {"android": "https://dc.lft.to/lastmile_qr_scan", "ios": "https://dc.lft.to/lastmile_qr_scan"}, "lon": -77.0384775, "fusion_lat": 0.0}, {"name": "a9dd2290878bf318c2b58dd311f97d48", "fusion_lon": 0.0, "lat": 38.8848085, "is_reserved": 0, "type": "electric_scooter", "bike_id": "a9dd2290878bf318c2b58dd311f97d48", "is_disabled": 0, "rental_uris": {"android": "https://dc.lft.to/lastmile_qr_scan", "ios": "https://dc.lft.to/lastmile_qr_scan"}, "lon": -77.0321345, "fusion_lat": 0.0}, {"name": "e6be204e17aeb8ed528ed16fc220ec8d", "fusion_lon": 0.0, "lat": 38.922289166666665, "is_reserved": 0, "type": "electric_scooter", "bike_id": "e6be204e17aeb8ed528ed16fc220ec8d", "is_disabled": 0, "rental_uris": {"android": "https://dc.lft.to/lastmile_qr_scan", "ios": "https://dc.lft.to/lastmile_qr_scan"}, "lon": -77.04492733333333, "fusion_lat": 0.0}, {"name": "e25ba01da6350c5824a8b2baf3b343dc", "fusion_lon": 0.0, "lat": 38.928877, "is_reserved": 0, "type": "electric_scooter", "bike_id": "e25ba01da6350c5824a8b2baf3b343dc", "is_disabled": 0, "rental_uris": {"android": "https://dc.lft.to/lastmile_qr_scan", "ios": "https://dc.lft.to/lastmile_qr_scan"}, "lon": -77.01358533333334, "fusion_lat": 0.0}, {"name": "c2d3169999e43d0505c9c96e1e71488a", "fusion_lon": 0.0, "lat": 38.91116316666667, "is_reserved": 0, "type": "electric_scooter", "bike_id": "c2d3169999e43d0505c9c96e1e71488a", "is_disabled": 0, "rental_uris": {"android": "https://dc.lft.to/lastmile_qr_scan", "ios": "https://dc.lft.to/lastmile_qr_scan"}, "lon": -77.00604166666666, "fusion_lat": 0.0}, {"name": "3b390b190aff7b8972b02f71bda66113", "fusion_lon": 0.0, "lat": 38.93862433333334, "is_reserved": 0, "type": "electric_scooter", "bike_id": "3b390b190aff7b8972b02f71bda66113", "is_disabled": 0, "rental_uris": {"android": "https://dc.lft.to/lastmile_qr_scan", "ios": "https://dc.lft.to/lastmile_qr_scan"}, "lon": -77.02594483333333, "fusion_lat": 0.0}, {"name": "762f4eb28393766d270a28c762d1eeca", "fusion_lon": 0.0, "lat": 38.9147825, "is_reserved": 0, "type": "electric_scooter", "bike_id": "762f4eb28393766d270a28c762d1eeca", "is_disabled": 0, "rental_uris": {"android": "https://dc.lft.to/lastmile_qr_scan", "ios": "https://dc.lft.to/lastmile_qr_scan"}, "lon": -77.031859, "fusion_lat": 0.0}, {"name": "a05989392dc01becbcec58bb82ec820e", "fusion_lon": 0.0, "lat": 38.9630855, "is_reserved": 0, "type": "electric_bike", "bike_id": "a05989392dc01becbcec58bb82ec820e", "is_disabled": 0, "rental_uris": {"android": "https://dc.lft.to/lastmile_qr_scan", "ios": "https://dc.lft.to/lastmile_qr_scan"}, "lon": -77.0111345, "fusion_lat": 0.0}, {"name": "bfb30e9b29456da9c1bdc446c79295be", "fusion_lon": 0.0, "lat": 38.96324383333334, "is_reserved": 0, "type": "electric_bike", "bike_id": "bfb30e9b29456da9c1bdc446c79295be", "is_disabled": 0, "rental_uris": {"android": "https://dc.lft.to/lastmile_qr_scan", "ios": "https://dc.lft.to/lastmile_qr_scan"}, "lon": -76.97365016666667, "fusion_lat": 0.0}, {"name": "ba908e01a13456f0ed3ddacc09556f0a", "fusion_lon": 0.0, "lat": 38.929755, "is_reserved": 0, "type": "electric_scooter", "bike_id": "ba908e01a13456f0ed3ddacc09556f0a", "is_disabled": 0, "rental_uris": {"android": "https://dc.lft.to/lastmile_qr_scan", "ios": "https://dc.lft.to/lastmile_qr_scan"}, "lon": -77.0169255, "fusion_lat": 0.0}, {"name": "a752dc4e93e619a23e017e0bb7b21e10", "fusion_lon": 0.0, "lat": 38.91907883333333, "is_reserved": 0, "type": "electric_scooter", "bike_id": "a752dc4e93e619a23e017e0bb7b21e10", "is_disabled": 0, "rental_uris": {"android": "https://dc.lft.to/lastmile_qr_scan", "ios": "https://dc.lft.to/lastmile_qr_scan"}, "lon": -77.0153425, "fusion_lat": 0.0}, {"name": "110c00bc1c3f0dccbad680a9b4d3b85d", "fusion_lon": 0.0, "lat": 38.928576666666665, "is_reserved": 0, "type": "electric_scooter", "bike_id": "110c00bc1c3f0dccbad680a9b4d3b85d", "is_disabled": 0, "rental_uris": {"android": "https://dc.lft.to/lastmile_qr_scan", "ios": "https://dc.lft.to/lastmile_qr_scan"}, "lon": -77.03618466666667, "fusion_lat": 0.0}, {"name": "00cc562b982d60d83fc51a0bb9041189", "fusion_lon": 0.0, "lat": 38.9127145, "is_reserved": 0, "type": "electric_scooter", "bike_id": "00cc562b982d60d83fc51a0bb9041189", "is_disabled": 0, "rental_uris": {"android": "https://dc.lft.to/lastmile_qr_scan", "ios": "https://dc.lft.to/lastmile_qr_scan"}, "lon": -77.022261, "fusion_lat": 0.0}, {"name": "3fd3d414962b2622dbf2c662d72bccad", "fusion_lon": 0.0, "lat": 38.905116166666666, "is_reserved": 0, "type": "electric_scooter", "bike_id": "3fd3d414962b2622dbf2c662d72bccad", "is_disabled": 0, "rental_uris": {"android": "https://dc.lft.to/lastmile_qr_scan", "ios": "https://dc.lft.to/lastmile_qr_scan"}, "lon": -77.07019216666667, "fusion_lat": 0.0}, {"name": "01795c004c32a5da9fc98c4680833634", "fusion_lon": 0.0, "lat": 38.89617333333333, "is_reserved": 0, "type": "electric_scooter", "bike_id": "01795c004c32a5da9fc98c4680833634", "is_disabled": 0, "rental_uris": {"android": "https://dc.lft.to/lastmile_qr_scan", "ios": "https://dc.lft.to/lastmile_qr_scan"}, "lon": -77.02202966666667, "fusion_lat": 0.0}, {"name": "5c1efcfeda62496091ee68d5585b72f3", "fusion_lon": 0.0, "lat": 38.904844, "is_reserved": 0, "type": "electric_scooter", "bike_id": "5c1efcfeda62496091ee68d5585b72f3", "is_disabled": 0, "rental_uris": {"android": "https://dc.lft.to/lastmile_qr_scan", "ios": "https://dc.lft.to/lastmile_qr_scan"}, "lon": -77.04177366666667, "fusion_lat": 0.0}, {"name": "7607dbbf57619e1ea1f63eed1b563a91", "fusion_lon": 0.0, "lat": 38.91815233333333, "is_reserved": 0, "type": "electric_scooter", "bike_id": "7607dbbf57619e1ea1f63eed1b563a91", "is_disabled": 0, "rental_uris": {"android": "https://dc.lft.to/lastmile_qr_scan", "ios": "https://dc.lft.to/lastmile_qr_scan"}, "lon": -77.08959416666667, "fusion_lat": 0.0}, {"name": "394ee2fd0b0d8ee70fd3b9e4770180eb", "fusion_lon": 0.0, "lat": 38.907411333333336, "is_reserved": 0, "type": "electric_scooter", "bike_id": "394ee2fd0b0d8ee70fd3b9e4770180eb", "is_disabled": 0, "rental_uris": {"android": "https://dc.lft.to/lastmile_qr_scan", "ios": "https://dc.lft.to/lastmile_qr_scan"}, "lon": -77.04354916666666, "fusion_lat": 0.0}, {"name": "d34705117b242d2ab0df764dc4796354", "fusion_lon": 0.0, "lat": 38.916964, "is_reserved": 0, "type": "electric_scooter", "bike_id": "d34705117b242d2ab0df764dc4796354", "is_disabled": 0, "rental_uris": {"android": "https://dc.lft.to/lastmile_qr_scan", "ios": "https://dc.lft.to/lastmile_qr_scan"}, "lon": -77.03473283333334, "fusion_lat": 0.0}, {"name": "96a724c8e0d13b74d5492c9341c0aa4a", "fusion_lon": 0.0, "lat": 38.90081933333333, "is_reserved": 0, "type": "electric_scooter", "bike_id": "96a724c8e0d13b74d5492c9341c0aa4a", "is_disabled": 0, "rental_uris": {"android": "https://dc.lft.to/lastmile_qr_scan", "ios": "https://dc.lft.to/lastmile_qr_scan"}, "lon": -76.9833055, "fusion_lat": 0.0}, {"name": "b91ce62fedef79f76b66cf82b521dfea", "fusion_lon": 0.0, "lat": 38.94273833333333, "is_reserved": 0, "type": "electric_bike", "bike_id": "b91ce62fedef79f76b66cf82b521dfea", "is_disabled": 0, "rental_uris": {"android": "https://dc.lft.to/lastmile_qr_scan", "ios": "https://dc.lft.to/lastmile_qr_scan"}, "lon": -77.0284545, "fusion_lat": 0.0}, {"name": "8bb6573a6805a0785cf7905eccc48ec1", "fusion_lon": 0.0, "lat": 38.91024933333333, "is_reserved": 0, "type": "electric_scooter", "bike_id": "8bb6573a6805a0785cf7905eccc48ec1", "is_disabled": 0, "rental_uris": {"android": "https://dc.lft.to/lastmile_qr_scan", "ios": "https://dc.lft.to/lastmile_qr_scan"}, "lon": -77.00758833333333, "fusion_lat": 0.0}, {"name": "4fa691cb10ca6b0567f0fe41dd0dcba9", "fusion_lon": 0.0, "lat": 38.91694433333333, "is_reserved": 0, "type": "electric_scooter", "bike_id": "4fa691cb10ca6b0567f0fe41dd0dcba9", "is_disabled": 0, "rental_uris": {"android": "https://dc.lft.to/lastmile_qr_scan", "ios": "https://dc.lft.to/lastmile_qr_scan"}, "lon": -77.02597733333333, "fusion_lat": 0.0}, {"name": "57c1dcfe56bbb978b909898ffaac7def", "fusion_lon": 0.0, "lat": 38.796109, "is_reserved": 0, "type": "electric_bike", "bike_id": "57c1dcfe56bbb978b909898ffaac7def", "is_disabled": 0, "rental_uris": {"android": "https://dc.lft.to/lastmile_qr_scan", "ios": "https://dc.lft.to/lastmile_qr_scan"}, "lon": -76.99743116666667, "fusion_lat": 0.0}, {"name": "460cf6e0097a032977b7ce7196d3834e", "fusion_lon": 0.0, "lat": 38.90786283333333, "is_reserved": 0, "type": "electric_scooter", "bike_id": "460cf6e0097a032977b7ce7196d3834e", "is_disabled": 0, "rental_uris": {"android": "https://dc.lft.to/lastmile_qr_scan", "ios": "https://dc.lft.to/lastmile_qr_scan"}, "lon": -77.00227483333333, "fusion_lat": 0.0}, {"name": "33b8ca30507f6ae10441d1f21fcedd25", "fusion_lon": 0.0, "lat": 38.93228416666667, "is_reserved": 0, "type": "electric_scooter", "bike_id": "33b8ca30507f6ae10441d1f21fcedd25", "is_disabled": 0, "rental_uris": {"android": "https://dc.lft.to/lastmile_qr_scan", "ios": "https://dc.lft.to/lastmile_qr_scan"}, "lon": -77.03874683333333, "fusion_lat": 0.0}, {"name": "6613f10389d30cbd2e4505737eaacd2d", "fusion_lon": 0.0, "lat": 38.89320766666667, "is_reserved": 0, "type": "electric_scooter", "bike_id": "6613f10389d30cbd2e4505737eaacd2d", "is_disabled": 0, "rental_uris": {"android": "https://dc.lft.to/lastmile_qr_scan", "ios": "https://dc.lft.to/lastmile_qr_scan"}, "lon": -77.0180675, "fusion_lat": 0.0}, {"name": "3a068dd8a09b1dead78c99576d31c4b3", "fusion_lon": 0.0, "lat": 38.976795333333335, "is_reserved": 0, "type": "electric_scooter", "bike_id": "3a068dd8a09b1dead78c99576d31c4b3", "is_disabled": 0, "rental_uris": {"android": "https://dc.lft.to/lastmile_qr_scan", "ios": "https://dc.lft.to/lastmile_qr_scan"}, "lon": -77.016581, "fusion_lat": 0.0}, {"name": "8c5219f2ef4421854f867db566f67dd4", "fusion_lon": 0.0, "lat": 38.8848705, "is_reserved": 0, "type": "electric_scooter", "bike_id": "8c5219f2ef4421854f867db566f67dd4", "is_disabled": 0, "rental_uris": {"android": "https://dc.lft.to/lastmile_qr_scan", "ios": "https://dc.lft.to/lastmile_qr_scan"}, "lon": -77.00919066666667, "fusion_lat": 0.0}, {"name": "5ad67362d3a10727683f57e71d7e867d", "fusion_lon": 0.0, "lat": 38.924147166666664, "is_reserved": 0, "type": "electric_scooter", "bike_id": "5ad67362d3a10727683f57e71d7e867d", "is_disabled": 0, "rental_uris": {"android": "https://dc.lft.to/lastmile_qr_scan", "ios": "https://dc.lft.to/lastmile_qr_scan"}, "lon": -77.05066866666667, "fusion_lat": 0.0}, {"name": "3ef2bf86ceefd2b0a236615c70bf988b", "fusion_lon": 0.0, "lat": 38.888915, "is_reserved": 0, "type": "electric_scooter", "bike_id": "3ef2bf86ceefd2b0a236615c70bf988b", "is_disabled": 0, "rental_uris": {"android": "https://dc.lft.to/lastmile_qr_scan", "ios": "https://dc.lft.to/lastmile_qr_scan"}, "lon": -76.947803, "fusion_lat": 0.0}, {"name": "8912b794c670b2c07216f0b3abb3e03c", "fusion_lon": 0.0, "lat": 38.8973215, "is_reserved": 0, "type": "electric_scooter", "bike_id": "8912b794c670b2c07216f0b3abb3e03c", "is_disabled": 0, "rental_uris": {"android": "https://dc.lft.to/lastmile_qr_scan", "ios": "https://dc.lft.to/lastmile_qr_scan"}, "lon": -77.05521983333334, "fusion_lat": 0.0}, {"name": "c60bbdced3e50d96eb0dcca0cc4e73bb", "fusion_lon": 0.0, "lat": 38.91780833333333, "is_reserved": 0, "type": "electric_scooter", "bike_id": "c60bbdced3e50d96eb0dcca0cc4e73bb", "is_disabled": 0, "rental_uris": {"android": "https://dc.lft.to/lastmile_qr_scan", "ios": "https://dc.lft.to/lastmile_qr_scan"}, "lon": -77.01791983333334, "fusion_lat": 0.0}, {"name": "3bff519c0c23e721514a87cb01c0e262", "fusion_lon": 0.0, "lat": 38.923215166666665, "is_reserved": 0, "type": "electric_scooter", "bike_id": "3bff519c0c23e721514a87cb01c0e262", "is_disabled": 0, "rental_uris": {"android": "https://dc.lft.to/lastmile_qr_scan", "ios": "https://dc.lft.to/lastmile_qr_scan"}, "lon": -77.04180366666667, "fusion_lat": 0.0}, {"name": "da3a9b0311772ededb3a4a21b0b8d129", "fusion_lon": 0.0, "lat": 38.9428415, "is_reserved": 0, "type": "electric_bike", "bike_id": "da3a9b0311772ededb3a4a21b0b8d129", "is_disabled": 0, "rental_uris": {"android": "https://dc.lft.to/lastmile_qr_scan", "ios": "https://dc.lft.to/lastmile_qr_scan"}, "lon": -76.9878765, "fusion_lat": 0.0}, {"name": "aae970a92bf3c8eb6864e93a97032baa", "fusion_lon": 0.0, "lat": 38.9208825, "is_reserved": 0, "type": "electric_scooter", "bike_id": "aae970a92bf3c8eb6864e93a97032baa", "is_disabled": 0, "rental_uris": {"android": "https://dc.lft.to/lastmile_qr_scan", "ios": "https://dc.lft.to/lastmile_qr_scan"}, "lon": -77.00437883333333, "fusion_lat": 0.0}, {"name": "b32b91ba0344b1b83b9189eb1e3e9dc7", "fusion_lon": 0.0, "lat": 38.91968583333333, "is_reserved": 0, "type": "electric_scooter", "bike_id": "b32b91ba0344b1b83b9189eb1e3e9dc7", "is_disabled": 0, "rental_uris": {"android": "https://dc.lft.to/lastmile_qr_scan", "ios": "https://dc.lft.to/lastmile_qr_scan"}, "lon": -77.0385125, "fusion_lat": 0.0}, {"name": "31f91d428d48615173aea6c1c3dc4e67", "fusion_lon": 0.0, "lat": 38.882530833333334, "is_reserved": 0, "type": "electric_scooter", "bike_id": "31f91d428d48615173aea6c1c3dc4e67", "is_disabled": 0, "rental_uris": {"android": "https://dc.lft.to/lastmile_qr_scan", "ios": "https://dc.lft.to/lastmile_qr_scan"}, "lon": -77.00865516666667, "fusion_lat": 0.0}, {"name": "c6a891f0ad7324929c9ba351e671b195", "fusion_lon": 0.0, "lat": 38.88879133333333, "is_reserved": 0, "type": "electric_scooter", "bike_id": "c6a891f0ad7324929c9ba351e671b195", "is_disabled": 0, "rental_uris": {"android": "https://dc.lft.to/lastmile_qr_scan", "ios": "https://dc.lft.to/lastmile_qr_scan"}, "lon": -76.99034216666666, "fusion_lat": 0.0}, {"name": "bf4f3b05e5d5740a0bbc6a70ed3b71cb", "fusion_lon": 0.0, "lat": 38.90976216666667, "is_reserved": 0, "type": "electric_scooter", "bike_id": "bf4f3b05e5d5740a0bbc6a70ed3b71cb", "is_disabled": 0, "rental_uris": {"android": "https://dc.lft.to/lastmile_qr_scan", "ios": "https://dc.lft.to/lastmile_qr_scan"}, "lon": -77.04236666666667, "fusion_lat": 0.0}, {"name": "e10ca62af0de913da364801b68266541", "fusion_lon": 0.0, "lat": 38.900947, "is_reserved": 0, "type": "electric_scooter", "bike_id": "e10ca62af0de913da364801b68266541", "is_disabled": 0, "rental_uris": {"android": "https://dc.lft.to/lastmile_qr_scan", "ios": "https://dc.lft.to/lastmile_qr_scan"}, "lon": -77.04745383333334, "fusion_lat": 0.0}, {"name": "d8bc5a08fd71b5a490518d58f0c0fe08", "fusion_lon": 0.0, "lat": 38.916898833333335, "is_reserved": 0, "type": "electric_scooter", "bike_id": "d8bc5a08fd71b5a490518d58f0c0fe08", "is_disabled": 0, "rental_uris": {"android": "https://dc.lft.to/lastmile_qr_scan", "ios": "https://dc.lft.to/lastmile_qr_scan"}, "lon": -77.02357483333333, "fusion_lat": 0.0}, {"name": "5f6b0921ab3ead1cd0ac0f770d3aa20a", "fusion_lon": 0.0, "lat": 38.92347516666667, "is_reserved": 0, "type": "electric_scooter", "bike_id": "5f6b0921ab3ead1cd0ac0f770d3aa20a", "is_disabled": 0, "rental_uris": {"android": "https://dc.lft.to/lastmile_qr_scan", "ios": "https://dc.lft.to/lastmile_qr_scan"}, "lon": -77.05082983333334, "fusion_lat": 0.0}, {"name": "e9e529e16fb9621632c078aae7538843", "fusion_lon": 0.0, "lat": 39.0137375, "is_reserved": 0, "type": "electric_bike", "bike_id": "e9e529e16fb9621632c078aae7538843", "is_disabled": 0, "rental_uris": {"android": "https://dc.lft.to/lastmile_qr_scan", "ios": "https://dc.lft.to/lastmile_qr_scan"}, "lon": -76.9213455, "fusion_lat": 0.0}, {"name": "857923073cb372c0b834078afd3a680d", "fusion_lon": 0.0, "lat": 38.91918033333334, "is_reserved": 0, "type": "electric_scooter", "bike_id": "857923073cb372c0b834078afd3a680d", "is_disabled": 0, "rental_uris": {"android": "https://dc.lft.to/lastmile_qr_scan", "ios": "https://dc.lft.to/lastmile_qr_scan"}, "lon": -77.0214365, "fusion_lat": 0.0}, {"name": "a1fc2c44d3b55570f0559872da808876", "fusion_lon": 0.0, "lat": 38.892239000000004, "is_reserved": 0, "type": "electric_scooter", "bike_id": "a1fc2c44d3b55570f0559872da808876", "is_disabled": 0, "rental_uris": {"android": "https://dc.lft.to/lastmile_qr_scan", "ios": "https://dc.lft.to/lastmile_qr_scan"}, "lon": -77.048051, "fusion_lat": 0.0}, {"name": "00680ecbd946d87c06bcbd624a2be6ed", "fusion_lon": 0.0, "lat": 38.89661616666667, "is_reserved": 0, "type": "electric_scooter", "bike_id": "00680ecbd946d87c06bcbd624a2be6ed", "is_disabled": 0, "rental_uris": {"android": "https://dc.lft.to/lastmile_qr_scan", "ios": "https://dc.lft.to/lastmile_qr_scan"}, "lon": -77.02721316666667, "fusion_lat": 0.0}, {"name": "c8137913609b1c53705f334df5d53d32", "fusion_lon": 0.0, "lat": 38.9250885, "is_reserved": 0, "type": "electric_scooter", "bike_id": "c8137913609b1c53705f334df5d53d32", "is_disabled": 0, "rental_uris": {"android": "https://dc.lft.to/lastmile_qr_scan", "ios": "https://dc.lft.to/lastmile_qr_scan"}, "lon": -77.02359116666666, "fusion_lat": 0.0}, {"name": "389d59965f6ac9351f232eb8f02dd605", "fusion_lon": 0.0, "lat": 38.93477433333334, "is_reserved": 0, "type": "electric_scooter", "bike_id": "389d59965f6ac9351f232eb8f02dd605", "is_disabled": 0, "rental_uris": {"android": "https://dc.lft.to/lastmile_qr_scan", "ios": "https://dc.lft.to/lastmile_qr_scan"}, "lon": -77.03604433333334, "fusion_lat": 0.0}, {"name": "d3ece75ca88b3dc4180132a2034d6f84", "fusion_lon": 0.0, "lat": 38.951875, "is_reserved": 0, "type": "electric_scooter", "bike_id": "d3ece75ca88b3dc4180132a2034d6f84", "is_disabled": 0, "rental_uris": {"android": "https://dc.lft.to/lastmile_qr_scan", "ios": "https://dc.lft.to/lastmile_qr_scan"}, "lon": -77.026162, "fusion_lat": 0.0}, {"name": "7d5e2634c9606b2c86b1752956dee31e", "fusion_lon": 0.0, "lat": 38.91275266666667, "is_reserved": 0, "type": "electric_scooter", "bike_id": "7d5e2634c9606b2c86b1752956dee31e", "is_disabled": 0, "rental_uris": {"android": "https://dc.lft.to/lastmile_qr_scan", "ios": "https://dc.lft.to/lastmile_qr_scan"}, "lon": -77.018506, "fusion_lat": 0.0}, {"name": "efa45d0cea162ac95e47777edf54ed02", "fusion_lon": 0.0, "lat": 38.90545816666667, "is_reserved": 0, "type": "electric_bike", "bike_id": "efa45d0cea162ac95e47777edf54ed02", "is_disabled": 0, "rental_uris": {"android": "https://dc.lft.to/lastmile_qr_scan", "ios": "https://dc.lft.to/lastmile_qr_scan"}, "lon": -77.022264, "fusion_lat": 0.0}, {"name": "7be4cfbbc3d0fcf158d95d6627a6d994", "fusion_lon": 0.0, "lat": 38.91481066666667, "is_reserved": 0, "type": "electric_scooter", "bike_id": "7be4cfbbc3d0fcf158d95d6627a6d994", "is_disabled": 0, "rental_uris": {"android": "https://dc.lft.to/lastmile_qr_scan", "ios": "https://dc.lft.to/lastmile_qr_scan"}, "lon": -77.0318165, "fusion_lat": 0.0}, {"name": "918f4f8a1938f862793de8cb524f5c0c", "fusion_lon": 0.0, "lat": 38.918134333333334, "is_reserved": 0, "type": "electric_scooter", "bike_id": "918f4f8a1938f862793de8cb524f5c0c", "is_disabled": 0, "rental_uris": {"android": "https://dc.lft.to/lastmile_qr_scan", "ios": "https://dc.lft.to/lastmile_qr_scan"}, "lon": -77.03667633333333, "fusion_lat": 0.0}, {"name": "71923b375b9a58013b33e9c53f427ba4", "fusion_lon": 0.0, "lat": 38.898346333333336, "is_reserved": 0, "type": "electric_scooter", "bike_id": "71923b375b9a58013b33e9c53f427ba4", "is_disabled": 0, "rental_uris": {"android": "https://dc.lft.to/lastmile_qr_scan", "ios": "https://dc.lft.to/lastmile_qr_scan"}, "lon": -77.02820416666667, "fusion_lat": 0.0}, {"name": "479b752d0fff39f08e7f7a0338984848", "fusion_lon": 0.0, "lat": 38.90868433333333, "is_reserved": 0, "type": "electric_scooter", "bike_id": "479b752d0fff39f08e7f7a0338984848", "is_disabled": 0, "rental_uris": {"android": "https://dc.lft.to/lastmile_qr_scan", "ios": "https://dc.lft.to/lastmile_qr_scan"}, "lon": -76.99949316666667, "fusion_lat": 0.0}, {"name": "48f6e5ce6853dc306fc195a3abffe131", "fusion_lon": 0.0, "lat": 38.896162833333335, "is_reserved": 0, "type": "electric_scooter", "bike_id": "48f6e5ce6853dc306fc195a3abffe131", "is_disabled": 0, "rental_uris": {"android": "https://dc.lft.to/lastmile_qr_scan", "ios": "https://dc.lft.to/lastmile_qr_scan"}, "lon": -76.9816565, "fusion_lat": 0.0}, {"name": "29fe132929dbafc1dcb7f6c582c2c8f1", "fusion_lon": 0.0, "lat": 38.903378333333336, "is_reserved": 0, "type": "electric_scooter", "bike_id": "29fe132929dbafc1dcb7f6c582c2c8f1", "is_disabled": 0, "rental_uris": {"android": "https://dc.lft.to/lastmile_qr_scan", "ios": "https://dc.lft.to/lastmile_qr_scan"}, "lon": -77.01107466666667, "fusion_lat": 0.0}, {"name": "bd8476cc5fa7feccb96c2cb7ac8a2c4d", "fusion_lon": 0.0, "lat": 38.90382683333333, "is_reserved": 0, "type": "electric_scooter", "bike_id": "bd8476cc5fa7feccb96c2cb7ac8a2c4d", "is_disabled": 0, "rental_uris": {"android": "https://dc.lft.to/lastmile_qr_scan", "ios": "https://dc.lft.to/lastmile_qr_scan"}, "lon": -77.04209416666667, "fusion_lat": 0.0}, {"name": "49dfa2e400e5739cae1415f276fcd2de", "fusion_lon": 0.0, "lat": 38.9006815, "is_reserved": 0, "type": "electric_scooter", "bike_id": "49dfa2e400e5739cae1415f276fcd2de", "is_disabled": 0, "rental_uris": {"android": "https://dc.lft.to/lastmile_qr_scan", "ios": "https://dc.lft.to/lastmile_qr_scan"}, "lon": -77.05066983333333, "fusion_lat": 0.0}, {"name": "d6d7a124aade0bcc75b91e1f45df0ac0", "fusion_lon": 0.0, "lat": 38.907818166666665, "is_reserved": 0, "type": "electric_scooter", "bike_id": "d6d7a124aade0bcc75b91e1f45df0ac0", "is_disabled": 0, "rental_uris": {"android": "https://dc.lft.to/lastmile_qr_scan", "ios": "https://dc.lft.to/lastmile_qr_scan"}, "lon": -77.038261, "fusion_lat": 0.0}, {"name": "8b02f23d81b7376dad8cee9b3aa2737e", "fusion_lon": 0.0, "lat": 38.90316983333334, "is_reserved": 0, "type": "electric_scooter", "bike_id": "8b02f23d81b7376dad8cee9b3aa2737e", "is_disabled": 0, "rental_uris": {"android": "https://dc.lft.to/lastmile_qr_scan", "ios": "https://dc.lft.to/lastmile_qr_scan"}, "lon": -77.01905233333333, "fusion_lat": 0.0}, {"name": "2d856da540effb9680c382a17d61dbda", "fusion_lon": 0.0, "lat": 38.884774666666665, "is_reserved": 0, "type": "electric_scooter", "bike_id": "2d856da540effb9680c382a17d61dbda", "is_disabled": 0, "rental_uris": {"android": "https://dc.lft.to/lastmile_qr_scan", "ios": "https://dc.lft.to/lastmile_qr_scan"}, "lon": -77.02654083333333, "fusion_lat": 0.0}, {"name": "b76d7e38bb0941e48cde924ea538baf9", "fusion_lon": 0.0, "lat": 38.883947166666665, "is_reserved": 0, "type": "electric_scooter", "bike_id": "b76d7e38bb0941e48cde924ea538baf9", "is_disabled": 0, "rental_uris": {"android": "https://dc.lft.to/lastmile_qr_scan", "ios": "https://dc.lft.to/lastmile_qr_scan"}, "lon": -76.95445966666666, "fusion_lat": 0.0}, {"name": "70437c486985d2f36ab50502078e637b", "fusion_lon": 0.0, "lat": 38.90560816666667, "is_reserved": 0, "type": "electric_scooter", "bike_id": "70437c486985d2f36ab50502078e637b", "is_disabled": 0, "rental_uris": {"android": "https://dc.lft.to/lastmile_qr_scan", "ios": "https://dc.lft.to/lastmile_qr_scan"}, "lon": -77.03449516666667, "fusion_lat": 0.0}, {"name": "0b53455fe1a1c127b5084f97da6e2765", "fusion_lon": 0.0, "lat": 38.89717683333333, "is_reserved": 0, "type": "electric_scooter", "bike_id": "0b53455fe1a1c127b5084f97da6e2765", "is_disabled": 0, "rental_uris": {"android": "https://dc.lft.to/lastmile_qr_scan", "ios": "https://dc.lft.to/lastmile_qr_scan"}, "lon": -77.0079895, "fusion_lat": 0.0}, {"name": "f2a5b641da3f4d8896e05b7c84059281", "fusion_lon": 0.0, "lat": 38.91995333333333, "is_reserved": 0, "type": "electric_scooter", "bike_id": "f2a5b641da3f4d8896e05b7c84059281", "is_disabled": 0, "rental_uris": {"android": "https://dc.lft.to/lastmile_qr_scan", "ios": "https://dc.lft.to/lastmile_qr_scan"}, "lon": -77.04180116666667, "fusion_lat": 0.0}, {"name": "b6fecd0f4906a1295e3019bbae4bf163", "fusion_lon": 0.0, "lat": 38.897198333333336, "is_reserved": 0, "type": "electric_scooter", "bike_id": "b6fecd0f4906a1295e3019bbae4bf163", "is_disabled": 0, "rental_uris": {"android": "https://dc.lft.to/lastmile_qr_scan", "ios": "https://dc.lft.to/lastmile_qr_scan"}, "lon": -77.02381016666666, "fusion_lat": 0.0}, {"name": "366a2e127c1884ef21e2bb72e891f8a4", "fusion_lon": 0.0, "lat": 38.90240566666667, "is_reserved": 0, "type": "electric_scooter", "bike_id": "366a2e127c1884ef21e2bb72e891f8a4", "is_disabled": 0, "rental_uris": {"android": "https://dc.lft.to/lastmile_qr_scan", "ios": "https://dc.lft.to/lastmile_qr_scan"}, "lon": -77.0089535, "fusion_lat": 0.0}, {"name": "f80686e037c91fd358cf237e35f9a341", "fusion_lon": 0.0, "lat": 38.90013, "is_reserved": 0, "type": "electric_scooter", "bike_id": "f80686e037c91fd358cf237e35f9a341", "is_disabled": 0, "rental_uris": {"android": "https://dc.lft.to/lastmile_qr_scan", "ios": "https://dc.lft.to/lastmile_qr_scan"}, "lon": -76.9971735, "fusion_lat": 0.0}, {"name": "8251df0f3c2c35176e2c729db350f824", "fusion_lon": 0.0, "lat": 38.915419666666665, "is_reserved": 0, "type": "electric_scooter", "bike_id": "8251df0f3c2c35176e2c729db350f824", "is_disabled": 0, "rental_uris": {"android": "https://dc.lft.to/lastmile_qr_scan", "ios": "https://dc.lft.to/lastmile_qr_scan"}, "lon": -76.97014816666666, "fusion_lat": 0.0}, {"name": "2067358ea31ba8910bb76949bd8f3752", "fusion_lon": 0.0, "lat": 38.921676, "is_reserved": 0, "type": "electric_scooter", "bike_id": "2067358ea31ba8910bb76949bd8f3752", "is_disabled": 0, "rental_uris": {"android": "https://dc.lft.to/lastmile_qr_scan", "ios": "https://dc.lft.to/lastmile_qr_scan"}, "lon": -77.03260783333333, "fusion_lat": 0.0}, {"name": "3eef10f91f07662ec251882903d58e02", "fusion_lon": 0.0, "lat": 38.894969, "is_reserved": 0, "type": "electric_bike", "bike_id": "3eef10f91f07662ec251882903d58e02", "is_disabled": 0, "rental_uris": {"android": "https://dc.lft.to/lastmile_qr_scan", "ios": "https://dc.lft.to/lastmile_qr_scan"}, "lon": -77.071053, "fusion_lat": 0.0}, {"name": "b59522b81ec09fb35aa7fee98a437d6a", "fusion_lon": 0.0, "lat": 38.90669883333333, "is_reserved": 0, "type": "electric_scooter", "bike_id": "b59522b81ec09fb35aa7fee98a437d6a", "is_disabled": 0, "rental_uris": {"android": "https://dc.lft.to/lastmile_qr_scan", "ios": "https://dc.lft.to/lastmile_qr_scan"}, "lon": -77.07115183333333, "fusion_lat": 0.0}, {"name": "3ce36b938efefa31016e5d657d539105", "fusion_lon": 0.0, "lat": 38.89359433333333, "is_reserved": 0, "type": "electric_scooter", "bike_id": "3ce36b938efefa31016e5d657d539105", "is_disabled": 0, "rental_uris": {"android": "https://dc.lft.to/lastmile_qr_scan", "ios": "https://dc.lft.to/lastmile_qr_scan"}, "lon": -76.9493655, "fusion_lat": 0.0}, {"name": "509ee439060a2ac2d273a3bc5e2496ca", "fusion_lon": 0.0, "lat": 38.91019516666667, "is_reserved": 0, "type": "electric_scooter", "bike_id": "509ee439060a2ac2d273a3bc5e2496ca", "is_disabled": 0, "rental_uris": {"android": "https://dc.lft.to/lastmile_qr_scan", "ios": "https://dc.lft.to/lastmile_qr_scan"}, "lon": -77.00915616666667, "fusion_lat": 0.0}, {"name": "6b3631fc0c0c3ac21cd20620425fec2a", "fusion_lon": 0.0, "lat": 38.91421183333333, "is_reserved": 0, "type": "electric_scooter", "bike_id": "6b3631fc0c0c3ac21cd20620425fec2a", "is_disabled": 0, "rental_uris": {"android": "https://dc.lft.to/lastmile_qr_scan", "ios": "https://dc.lft.to/lastmile_qr_scan"}, "lon": -77.0317175, "fusion_lat": 0.0}, {"name": "c2eb65c4f9edb42e96372c2844fca061", "fusion_lon": 0.0, "lat": 38.9162995, "is_reserved": 0, "type": "electric_scooter", "bike_id": "c2eb65c4f9edb42e96372c2844fca061", "is_disabled": 0, "rental_uris": {"android": "https://dc.lft.to/lastmile_qr_scan", "ios": "https://dc.lft.to/lastmile_qr_scan"}, "lon": -77.03849516666666, "fusion_lat": 0.0}, {"name": "d9d1acb12894ec55ddff40c3492f1366", "fusion_lon": 0.0, "lat": 38.9001255, "is_reserved": 0, "type": "electric_scooter", "bike_id": "d9d1acb12894ec55ddff40c3492f1366", "is_disabled": 0, "rental_uris": {"android": "https://dc.lft.to/lastmile_qr_scan", "ios": "https://dc.lft.to/lastmile_qr_scan"}, "lon": -76.99619683333333, "fusion_lat": 0.0}, {"name": "69d43aaa5265d735c32adc180932a985", "fusion_lon": 0.0, "lat": 38.88251183333333, "is_reserved": 0, "type": "electric_bike", "bike_id": "69d43aaa5265d735c32adc180932a985", "is_disabled": 0, "rental_uris": {"android": "https://dc.lft.to/lastmile_qr_scan", "ios": "https://dc.lft.to/lastmile_qr_scan"}, "lon": -76.96260516666666, "fusion_lat": 0.0}, {"name": "238b7b2c68d03822f2d182ba1f2afc0a", "fusion_lon": 0.0, "lat": 38.905911, "is_reserved": 0, "type": "electric_scooter", "bike_id": "238b7b2c68d03822f2d182ba1f2afc0a", "is_disabled": 0, "rental_uris": {"android": "https://dc.lft.to/lastmile_qr_scan", "ios": "https://dc.lft.to/lastmile_qr_scan"}, "lon": -77.041412, "fusion_lat": 0.0}, {"name": "04b36e2bbcff97b047b51a2e45490450", "fusion_lon": 0.0, "lat": 39.04311666666667, "is_reserved": 0, "type": "electric_bike", "bike_id": "04b36e2bbcff97b047b51a2e45490450", "is_disabled": 0, "rental_uris": {"android": "https://dc.lft.to/lastmile_qr_scan", "ios": "https://dc.lft.to/lastmile_qr_scan"}, "lon": -77.051585, "fusion_lat": 0.0}, {"name": "6de21e6f6a4c97714f1fb4c76c16b3fd", "fusion_lon": 0.0, "lat": 38.860614, "is_reserved": 0, "type": "electric_scooter", "bike_id": "6de21e6f6a4c97714f1fb4c76c16b3fd", "is_disabled": 0, "rental_uris": {"android": "https://dc.lft.to/lastmile_qr_scan", "ios": "https://dc.lft.to/lastmile_qr_scan"}, "lon": -76.9850765, "fusion_lat": 0.0}, {"name": "07882c434c2c2fc7f4777009d0650e98", "fusion_lon": 0.0, "lat": 38.89616766666666, "is_reserved": 0, "type": "electric_scooter", "bike_id": "07882c434c2c2fc7f4777009d0650e98", "is_disabled": 0, "rental_uris": {"android": "https://dc.lft.to/lastmile_qr_scan", "ios": "https://dc.lft.to/lastmile_qr_scan"}, "lon": -77.045946, "fusion_lat": 0.0}, {"name": "f8cd804ea9ab45d47edb2dbaf1c63688", "fusion_lon": 0.0, "lat": 38.8922405, "is_reserved": 0, "type": "electric_scooter", "bike_id": "f8cd804ea9ab45d47edb2dbaf1c63688", "is_disabled": 0, "rental_uris": {"android": "https://dc.lft.to/lastmile_qr_scan", "ios": "https://dc.lft.to/lastmile_qr_scan"}, "lon": -77.046897, "fusion_lat": 0.0}, {"name": "12bd0ce3ad99768ce4d41a4734e72ea3", "fusion_lon": 0.0, "lat": 38.89708566666667, "is_reserved": 0, "type": "electric_scooter", "bike_id": "12bd0ce3ad99768ce4d41a4734e72ea3", "is_disabled": 0, "rental_uris": {"android": "https://dc.lft.to/lastmile_qr_scan", "ios": "https://dc.lft.to/lastmile_qr_scan"}, "lon": -77.02658783333334, "fusion_lat": 0.0}, {"name": "dfe0d2aaf42aafe5fa01df74d77dd034", "fusion_lon": 0.0, "lat": 38.903468833333335, "is_reserved": 0, "type": "electric_scooter", "bike_id": "dfe0d2aaf42aafe5fa01df74d77dd034", "is_disabled": 0, "rental_uris": {"android": "https://dc.lft.to/lastmile_qr_scan", "ios": "https://dc.lft.to/lastmile_qr_scan"}, "lon": -77.02717933333334, "fusion_lat": 0.0}, {"name": "a6c11629d8a9773452e59e4a82833806", "fusion_lon": 0.0, "lat": 38.92358216666667, "is_reserved": 0, "type": "electric_scooter", "bike_id": "a6c11629d8a9773452e59e4a82833806", "is_disabled": 0, "rental_uris": {"android": "https://dc.lft.to/lastmile_qr_scan", "ios": "https://dc.lft.to/lastmile_qr_scan"}, "lon": -77.041613, "fusion_lat": 0.0}, {"name": "631e12447ed6290dda6173ff5699f9bc", "fusion_lon": 0.0, "lat": 38.9376865, "is_reserved": 0, "type": "electric_scooter", "bike_id": "631e12447ed6290dda6173ff5699f9bc", "is_disabled": 0, "rental_uris": {"android": "https://dc.lft.to/lastmile_qr_scan", "ios": "https://dc.lft.to/lastmile_qr_scan"}, "lon": -77.02517333333333, "fusion_lat": 0.0}, {"name": "0f539ad1be5e48e76038752f8f847b6c", "fusion_lon": 0.0, "lat": 38.89894966666667, "is_reserved": 0, "type": "electric_scooter", "bike_id": "0f539ad1be5e48e76038752f8f847b6c", "is_disabled": 0, "rental_uris": {"android": "https://dc.lft.to/lastmile_qr_scan", "ios": "https://dc.lft.to/lastmile_qr_scan"}, "lon": -77.048894, "fusion_lat": 0.0}, {"name": "2c8f4f0c620b8975597d0e537f6e94a6", "fusion_lon": 0.0, "lat": 39.03991216666667, "is_reserved": 0, "type": "electric_bike", "bike_id": "2c8f4f0c620b8975597d0e537f6e94a6", "is_disabled": 0, "rental_uris": {"android": "https://dc.lft.to/lastmile_qr_scan", "ios": "https://dc.lft.to/lastmile_qr_scan"}, "lon": -76.99927483333333, "fusion_lat": 0.0}, {"name": "0728696972abe9447d0d2b109bc12324", "fusion_lon": 0.0, "lat": 38.8937215, "is_reserved": 0, "type": "electric_scooter", "bike_id": "0728696972abe9447d0d2b109bc12324", "is_disabled": 0, "rental_uris": {"android": "https://dc.lft.to/lastmile_qr_scan", "ios": "https://dc.lft.to/lastmile_qr_scan"}, "lon": -77.04684883333333, "fusion_lat": 0.0}, {"name": "0d14e9e2befa9c1efefe743785c058b2", "fusion_lon": 0.0, "lat": 38.9005665, "is_reserved": 0, "type": "electric_scooter", "bike_id": "0d14e9e2befa9c1efefe743785c058b2", "is_disabled": 0, "rental_uris": {"android": "https://dc.lft.to/lastmile_qr_scan", "ios": "https://dc.lft.to/lastmile_qr_scan"}, "lon": -77.0131995, "fusion_lat": 0.0}, {"name": "7eafa4f7241885bfeb9357eb26bf2c0f", "fusion_lon": 0.0, "lat": 38.88531033333334, "is_reserved": 0, "type": "electric_scooter", "bike_id": "7eafa4f7241885bfeb9357eb26bf2c0f", "is_disabled": 0, "rental_uris": {"android": "https://dc.lft.to/lastmile_qr_scan", "ios": "https://dc.lft.to/lastmile_qr_scan"}, "lon": -77.0113735, "fusion_lat": 0.0}, {"name": "973939c406bef87db82dec5c8386dda9", "fusion_lon": 0.0, "lat": 38.905181166666665, "is_reserved": 0, "type": "electric_scooter", "bike_id": "973939c406bef87db82dec5c8386dda9", "is_disabled": 0, "rental_uris": {"android": "https://dc.lft.to/lastmile_qr_scan", "ios": "https://dc.lft.to/lastmile_qr_scan"}, "lon": -77.00135716666666, "fusion_lat": 0.0}, {"name": "0e35890a1813cd20c73eec82b476b3a3", "fusion_lon": 0.0, "lat": 38.9459645, "is_reserved": 0, "type": "electric_scooter", "bike_id": "0e35890a1813cd20c73eec82b476b3a3", "is_disabled": 0, "rental_uris": {"android": "https://dc.lft.to/lastmile_qr_scan", "ios": "https://dc.lft.to/lastmile_qr_scan"}, "lon": -77.06470566666667, "fusion_lat": 0.0}, {"name": "482f8f1e29e1511a71c1957538ab09c8", "fusion_lon": 0.0, "lat": 38.90277533333333, "is_reserved": 0, "type": "electric_scooter", "bike_id": "482f8f1e29e1511a71c1957538ab09c8", "is_disabled": 0, "rental_uris": {"android": "https://dc.lft.to/lastmile_qr_scan", "ios": "https://dc.lft.to/lastmile_qr_scan"}, "lon": -77.0398345, "fusion_lat": 0.0}, {"name": "17845afa86bf1a74673bb1030e85e4e8", "fusion_lon": 0.0, "lat": 38.919247666666664, "is_reserved": 0, "type": "electric_scooter", "bike_id": "17845afa86bf1a74673bb1030e85e4e8", "is_disabled": 0, "rental_uris": {"android": "https://dc.lft.to/lastmile_qr_scan", "ios": "https://dc.lft.to/lastmile_qr_scan"}, "lon": -77.03189833333333, "fusion_lat": 0.0}, {"name": "4451d53ef89acec43b7fce3298f949b6", "fusion_lon": 0.0, "lat": 38.961649666666666, "is_reserved": 0, "type": "electric_scooter", "bike_id": "4451d53ef89acec43b7fce3298f949b6", "is_disabled": 0, "rental_uris": {"android": "https://dc.lft.to/lastmile_qr_scan", "ios": "https://dc.lft.to/lastmile_qr_scan"}, "lon": -77.03229166666667, "fusion_lat": 0.0}, {"name": "c077048cc481e9aa0f84df38a1ca05f0", "fusion_lon": 0.0, "lat": 38.87679283333333, "is_reserved": 0, "type": "electric_scooter", "bike_id": "c077048cc481e9aa0f84df38a1ca05f0", "is_disabled": 0, "rental_uris": {"android": "https://dc.lft.to/lastmile_qr_scan", "ios": "https://dc.lft.to/lastmile_qr_scan"}, "lon": -76.99826916666666, "fusion_lat": 0.0}, {"name": "1f0a90290f8c30d001495427b620cdc5", "fusion_lon": 0.0, "lat": 38.91383666666667, "is_reserved": 0, "type": "electric_bike", "bike_id": "1f0a90290f8c30d001495427b620cdc5", "is_disabled": 0, "rental_uris": {"android": "https://dc.lft.to/lastmile_qr_scan", "ios": "https://dc.lft.to/lastmile_qr_scan"}, "lon": -77.08926816666667, "fusion_lat": 0.0}, {"name": "14c0ac1aed3241fbc5aab3c33208e641", "fusion_lon": 0.0, "lat": 38.92517216666667, "is_reserved": 0, "type": "electric_scooter", "bike_id": "14c0ac1aed3241fbc5aab3c33208e641", "is_disabled": 0, "rental_uris": {"android": "https://dc.lft.to/lastmile_qr_scan", "ios": "https://dc.lft.to/lastmile_qr_scan"}, "lon": -77.02711466666666, "fusion_lat": 0.0}, {"name": "2cd84ccda9c980d62d56751f80c123db", "fusion_lon": 0.0, "lat": 38.92834716666667, "is_reserved": 0, "type": "electric_scooter", "bike_id": "2cd84ccda9c980d62d56751f80c123db", "is_disabled": 0, "rental_uris": {"android": "https://dc.lft.to/lastmile_qr_scan", "ios": "https://dc.lft.to/lastmile_qr_scan"}, "lon": -77.01413566666666, "fusion_lat": 0.0}, {"name": "e1217314cae787c2bddd484d0c97b929", "fusion_lon": 0.0, "lat": 38.84432066666667, "is_reserved": 0, "type": "electric_scooter", "bike_id": "e1217314cae787c2bddd484d0c97b929", "is_disabled": 0, "rental_uris": {"android": "https://dc.lft.to/lastmile_qr_scan", "ios": "https://dc.lft.to/lastmile_qr_scan"}, "lon": -76.99813933333333, "fusion_lat": 0.0}, {"name": "2f447b5429812b56f774a065222a4982", "fusion_lon": 0.0, "lat": 38.89221466666667, "is_reserved": 0, "type": "electric_bike", "bike_id": "2f447b5429812b56f774a065222a4982", "is_disabled": 0, "rental_uris": {"android": "https://dc.lft.to/lastmile_qr_scan", "ios": "https://dc.lft.to/lastmile_qr_scan"}, "lon": -76.9708495, "fusion_lat": 0.0}, {"name": "ff306c2ac887adb35bbb5c7b213085ee", "fusion_lon": 0.0, "lat": 38.834349833333334, "is_reserved": 0, "type": "electric_bike", "bike_id": "ff306c2ac887adb35bbb5c7b213085ee", "is_disabled": 0, "rental_uris": {"android": "https://dc.lft.to/lastmile_qr_scan", "ios": "https://dc.lft.to/lastmile_qr_scan"}, "lon": -77.10352333333333, "fusion_lat": 0.0}, {"name": "027c83c192fda675553007d3d8064dcc", "fusion_lon": 0.0, "lat": 38.91985666666667, "is_reserved": 0, "type": "electric_scooter", "bike_id": "027c83c192fda675553007d3d8064dcc", "is_disabled": 0, "rental_uris": {"android": "https://dc.lft.to/lastmile_qr_scan", "ios": "https://dc.lft.to/lastmile_qr_scan"}, "lon": -77.07700516666667, "fusion_lat": 0.0}, {"name": "69e5c975285ef0c822a739c93de75a7d", "fusion_lon": 0.0, "lat": 38.91734666666667, "is_reserved": 0, "type": "electric_scooter", "bike_id": "69e5c975285ef0c822a739c93de75a7d", "is_disabled": 0, "rental_uris": {"android": "https://dc.lft.to/lastmile_qr_scan", "ios": "https://dc.lft.to/lastmile_qr_scan"}, "lon": -77.02501216666667, "fusion_lat": 0.0}, {"name": "d01f112dacbf393bf33f9947877b19d7", "fusion_lon": 0.0, "lat": 38.90721833333333, "is_reserved": 0, "type": "electric_scooter", "bike_id": "d01f112dacbf393bf33f9947877b19d7", "is_disabled": 0, "rental_uris": {"android": "https://dc.lft.to/lastmile_qr_scan", "ios": "https://dc.lft.to/lastmile_qr_scan"}, "lon": -77.03380433333334, "fusion_lat": 0.0}, {"name": "6b9895c270259cc603a76bf49a5ad2e3", "fusion_lon": 0.0, "lat": 38.93532366666667, "is_reserved": 0, "type": "electric_scooter", "bike_id": "6b9895c270259cc603a76bf49a5ad2e3", "is_disabled": 0, "rental_uris": {"android": "https://dc.lft.to/lastmile_qr_scan", "ios": "https://dc.lft.to/lastmile_qr_scan"}, "lon": -77.03476466666666, "fusion_lat": 0.0}, {"name": "fe716c12c714ce623a879079a1ec3853", "fusion_lon": 0.0, "lat": 38.92721233333333, "is_reserved": 0, "type": "electric_scooter", "bike_id": "fe716c12c714ce623a879079a1ec3853", "is_disabled": 0, "rental_uris": {"android": "https://dc.lft.to/lastmile_qr_scan", "ios": "https://dc.lft.to/lastmile_qr_scan"}, "lon": -77.02096466666667, "fusion_lat": 0.0}, {"name": "e29556a5fb69475574938ea079134211", "fusion_lon": 0.0, "lat": 38.90833533333333, "is_reserved": 0, "type": "electric_scooter", "bike_id": "e29556a5fb69475574938ea079134211", "is_disabled": 0, "rental_uris": {"android": "https://dc.lft.to/lastmile_qr_scan", "ios": "https://dc.lft.to/lastmile_qr_scan"}, "lon": -77.04468216666666, "fusion_lat": 0.0}, {"name": "d8d023f6c48dd421a2bfba29bf7a4b4a", "fusion_lon": 0.0, "lat": 38.956689833333336, "is_reserved": 0, "type": "electric_scooter", "bike_id": "d8d023f6c48dd421a2bfba29bf7a4b4a", "is_disabled": 0, "rental_uris": {"android": "https://dc.lft.to/lastmile_qr_scan", "ios": "https://dc.lft.to/lastmile_qr_scan"}, "lon": -77.010451, "fusion_lat": 0.0}, {"name": "58040cea3e2ae625302e9e690014d2e6", "fusion_lon": 0.0, "lat": 38.907560833333335, "is_reserved": 0, "type": "electric_scooter", "bike_id": "58040cea3e2ae625302e9e690014d2e6", "is_disabled": 0, "rental_uris": {"android": "https://dc.lft.to/lastmile_qr_scan", "ios": "https://dc.lft.to/lastmile_qr_scan"}, "lon": -76.99881816666667, "fusion_lat": 0.0}, {"name": "b28f0ff9215b90acc457e39624fbda5e", "fusion_lon": 0.0, "lat": 38.928771166666664, "is_reserved": 0, "type": "electric_bike", "bike_id": "b28f0ff9215b90acc457e39624fbda5e", "is_disabled": 0, "rental_uris": {"android": "https://dc.lft.to/lastmile_qr_scan", "ios": "https://dc.lft.to/lastmile_qr_scan"}, "lon": -77.01245716666666, "fusion_lat": 0.0}, {"name": "b40368402ff3b5f237aa40edd5343eda", "fusion_lon": 0.0, "lat": 38.9110435, "is_reserved": 0, "type": "electric_scooter", "bike_id": "b40368402ff3b5f237aa40edd5343eda", "is_disabled": 0, "rental_uris": {"android": "https://dc.lft.to/lastmile_qr_scan", "ios": "https://dc.lft.to/lastmile_qr_scan"}, "lon": -77.04205283333333, "fusion_lat": 0.0}, {"name": "89e9b868ddb230b8bbb71d8a21d7c2e4", "fusion_lon": 0.0, "lat": 38.918781333333335, "is_reserved": 0, "type": "electric_scooter", "bike_id": "89e9b868ddb230b8bbb71d8a21d7c2e4", "is_disabled": 0, "rental_uris": {"android": "https://dc.lft.to/lastmile_qr_scan", "ios": "https://dc.lft.to/lastmile_qr_scan"}, "lon": -77.035144, "fusion_lat": 0.0}, {"name": "cd2e196d03893bef394b8ab14677e422", "fusion_lon": 0.0, "lat": 38.904709, "is_reserved": 0, "type": "electric_scooter", "bike_id": "cd2e196d03893bef394b8ab14677e422", "is_disabled": 0, "rental_uris": {"android": "https://dc.lft.to/lastmile_qr_scan", "ios": "https://dc.lft.to/lastmile_qr_scan"}, "lon": -77.035557, "fusion_lat": 0.0}, {"name": "1332bfb84c745c7fe14b3f0efe18e87f", "fusion_lon": 0.0, "lat": 38.910587666666665, "is_reserved": 0, "type": "electric_scooter", "bike_id": "1332bfb84c745c7fe14b3f0efe18e87f", "is_disabled": 0, "rental_uris": {"android": "https://dc.lft.to/lastmile_qr_scan", "ios": "https://dc.lft.to/lastmile_qr_scan"}, "lon": -77.04496366666666, "fusion_lat": 0.0}, {"name": "a445c1804e84f67d1b74bf963a53d643", "fusion_lon": 0.0, "lat": 38.9347745, "is_reserved": 0, "type": "electric_scooter", "bike_id": "a445c1804e84f67d1b74bf963a53d643", "is_disabled": 0, "rental_uris": {"android": "https://dc.lft.to/lastmile_qr_scan", "ios": "https://dc.lft.to/lastmile_qr_scan"}, "lon": -77.03576833333334, "fusion_lat": 0.0}, {"name": "54166dd8d060551232e047a089089d96", "fusion_lon": 0.0, "lat": 38.91270433333333, "is_reserved": 0, "type": "electric_scooter", "bike_id": "54166dd8d060551232e047a089089d96", "is_disabled": 0, "rental_uris": {"android": "https://dc.lft.to/lastmile_qr_scan", "ios": "https://dc.lft.to/lastmile_qr_scan"}, "lon": -77.0222705, "fusion_lat": 0.0}, {"name": "eb8f90c6a81a3ebc64788fb72be4600e", "fusion_lon": 0.0, "lat": 38.92388566666666, "is_reserved": 0, "type": "electric_scooter", "bike_id": "eb8f90c6a81a3ebc64788fb72be4600e", "is_disabled": 0, "rental_uris": {"android": "https://dc.lft.to/lastmile_qr_scan", "ios": "https://dc.lft.to/lastmile_qr_scan"}, "lon": -77.04055883333334, "fusion_lat": 0.0}, {"name": "5a37fb713f1f0eb6f8fe1bce2b8f9105", "fusion_lon": 0.0, "lat": 38.896213, "is_reserved": 0, "type": "electric_scooter", "bike_id": "5a37fb713f1f0eb6f8fe1bce2b8f9105", "is_disabled": 0, "rental_uris": {"android": "https://dc.lft.to/lastmile_qr_scan", "ios": "https://dc.lft.to/lastmile_qr_scan"}, "lon": -77.021293, "fusion_lat": 0.0}, {"name": "04c07b27fe877e184a677d99cf9a399d", "fusion_lon": 0.0, "lat": 38.92776716666667, "is_reserved": 0, "type": "electric_scooter", "bike_id": "04c07b27fe877e184a677d99cf9a399d", "is_disabled": 0, "rental_uris": {"android": "https://dc.lft.to/lastmile_qr_scan", "ios": "https://dc.lft.to/lastmile_qr_scan"}, "lon": -77.02618616666666, "fusion_lat": 0.0}, {"name": "66cdd84871df9507ab57d87adb03f6d1", "fusion_lon": 0.0, "lat": 38.90780866666667, "is_reserved": 0, "type": "electric_scooter", "bike_id": "66cdd84871df9507ab57d87adb03f6d1", "is_disabled": 0, "rental_uris": {"android": "https://dc.lft.to/lastmile_qr_scan", "ios": "https://dc.lft.to/lastmile_qr_scan"}, "lon": -77.0383585, "fusion_lat": 0.0}, {"name": "a0e87d93498f8b747c03e03ac6ae32c6", "fusion_lon": 0.0, "lat": 38.799865833333335, "is_reserved": 0, "type": "electric_bike", "bike_id": "a0e87d93498f8b747c03e03ac6ae32c6", "is_disabled": 0, "rental_uris": {"android": "https://dc.lft.to/lastmile_qr_scan", "ios": "https://dc.lft.to/lastmile_qr_scan"}, "lon": -77.12979616666667, "fusion_lat": 0.0}, {"name": "ded4e166f9aa806384b2f22854acc959", "fusion_lon": 0.0, "lat": 38.92471966666667, "is_reserved": 0, "type": "electric_scooter", "bike_id": "ded4e166f9aa806384b2f22854acc959", "is_disabled": 0, "rental_uris": {"android": "https://dc.lft.to/lastmile_qr_scan", "ios": "https://dc.lft.to/lastmile_qr_scan"}, "lon": -77.02202566666666, "fusion_lat": 0.0}, {"name": "57bb3bf6defe841fc44e81793cafe82a", "fusion_lon": 0.0, "lat": 38.920467, "is_reserved": 0, "type": "electric_scooter", "bike_id": "57bb3bf6defe841fc44e81793cafe82a", "is_disabled": 0, "rental_uris": {"android": "https://dc.lft.to/lastmile_qr_scan", "ios": "https://dc.lft.to/lastmile_qr_scan"}, "lon": -77.016702, "fusion_lat": 0.0}, {"name": "99f0d55eaa0df837141613020c6d4c52", "fusion_lon": 0.0, "lat": 38.896359333333336, "is_reserved": 0, "type": "electric_scooter", "bike_id": "99f0d55eaa0df837141613020c6d4c52", "is_disabled": 0, "rental_uris": {"android": "https://dc.lft.to/lastmile_qr_scan", "ios": "https://dc.lft.to/lastmile_qr_scan"}, "lon": -77.0284775, "fusion_lat": 0.0}, {"name": "8a6741f5183ad8732e7a5483253cd6ee", "fusion_lon": 0.0, "lat": 38.914161666666665, "is_reserved": 0, "type": "electric_scooter", "bike_id": "8a6741f5183ad8732e7a5483253cd6ee", "is_disabled": 0, "rental_uris": {"android": "https://dc.lft.to/lastmile_qr_scan", "ios": "https://dc.lft.to/lastmile_qr_scan"}, "lon": -77.02223216666667, "fusion_lat": 0.0}, {"name": "61e5b26af00aa78258096ab003f3af4b", "fusion_lon": 0.0, "lat": 38.90338066666666, "is_reserved": 0, "type": "electric_scooter", "bike_id": "61e5b26af00aa78258096ab003f3af4b", "is_disabled": 0, "rental_uris": {"android": "https://dc.lft.to/lastmile_qr_scan", "ios": "https://dc.lft.to/lastmile_qr_scan"}, "lon": -77.046292, "fusion_lat": 0.0}, {"name": "48baa5c683249a74bbe19d6619e5dfc3", "fusion_lon": 0.0, "lat": 38.90326016666667, "is_reserved": 0, "type": "electric_scooter", "bike_id": "48baa5c683249a74bbe19d6619e5dfc3", "is_disabled": 0, "rental_uris": {"android": "https://dc.lft.to/lastmile_qr_scan", "ios": "https://dc.lft.to/lastmile_qr_scan"}, "lon": -77.03853966666667, "fusion_lat": 0.0}, {"name": "7b1c15266efacef70dbef0670e292c17", "fusion_lon": 0.0, "lat": 38.9179125, "is_reserved": 0, "type": "electric_scooter", "bike_id": "7b1c15266efacef70dbef0670e292c17", "is_disabled": 0, "rental_uris": {"android": "https://dc.lft.to/lastmile_qr_scan", "ios": "https://dc.lft.to/lastmile_qr_scan"}, "lon": -77.0421385, "fusion_lat": 0.0}, {"name": "08f2af84a31df3bee771856df7b7fd8b", "fusion_lon": 0.0, "lat": 38.92213016666667, "is_reserved": 0, "type": "electric_bike", "bike_id": "08f2af84a31df3bee771856df7b7fd8b", "is_disabled": 0, "rental_uris": {"android": "https://dc.lft.to/lastmile_qr_scan", "ios": "https://dc.lft.to/lastmile_qr_scan"}, "lon": -76.9880355, "fusion_lat": 0.0}, {"name": "06bf1633a913e1ab2472595a18b5b0e7", "fusion_lon": 0.0, "lat": 38.920260666666664, "is_reserved": 0, "type": "electric_scooter", "bike_id": "06bf1633a913e1ab2472595a18b5b0e7", "is_disabled": 0, "rental_uris": {"android": "https://dc.lft.to/lastmile_qr_scan", "ios": "https://dc.lft.to/lastmile_qr_scan"}, "lon": -77.01006166666667, "fusion_lat": 0.0}, {"name": "f282b41ec10cd651896ae1dbbe80a161", "fusion_lon": 0.0, "lat": 38.88817233333333, "is_reserved": 0, "type": "electric_scooter", "bike_id": "f282b41ec10cd651896ae1dbbe80a161", "is_disabled": 0, "rental_uris": {"android": "https://dc.lft.to/lastmile_qr_scan", "ios": "https://dc.lft.to/lastmile_qr_scan"}, "lon": -76.93345416666666, "fusion_lat": 0.0}, {"name": "c3222b3e536ba9dceaf48f82aa48eb99", "fusion_lon": 0.0, "lat": 38.88499066666667, "is_reserved": 0, "type": "electric_scooter", "bike_id": "c3222b3e536ba9dceaf48f82aa48eb99", "is_disabled": 0, "rental_uris": {"android": "https://dc.lft.to/lastmile_qr_scan", "ios": "https://dc.lft.to/lastmile_qr_scan"}, "lon": -77.02094133333334, "fusion_lat": 0.0}, {"name": "6a7b65cbdf117c82fd89d52cf837aeb8", "fusion_lon": 0.0, "lat": 38.86095183333333, "is_reserved": 0, "type": "electric_bike", "bike_id": "6a7b65cbdf117c82fd89d52cf837aeb8", "is_disabled": 0, "rental_uris": {"android": "https://dc.lft.to/lastmile_qr_scan", "ios": "https://dc.lft.to/lastmile_qr_scan"}, "lon": -77.09589816666667, "fusion_lat": 0.0}, {"name": "1ced1be901ea64321993984669d83884", "fusion_lon": 0.0, "lat": 38.897465333333336, "is_reserved": 0, "type": "electric_scooter", "bike_id": "1ced1be901ea64321993984669d83884", "is_disabled": 0, "rental_uris": {"android": "https://dc.lft.to/lastmile_qr_scan", "ios": "https://dc.lft.to/lastmile_qr_scan"}, "lon": -77.04283083333333, "fusion_lat": 0.0}, {"name": "2a0db1868c2448a163ac3fb12278a8de", "fusion_lon": 0.0, "lat": 38.918293, "is_reserved": 0, "type": "electric_scooter", "bike_id": "2a0db1868c2448a163ac3fb12278a8de", "is_disabled": 0, "rental_uris": {"android": "https://dc.lft.to/lastmile_qr_scan", "ios": "https://dc.lft.to/lastmile_qr_scan"}, "lon": -77.03189733333333, "fusion_lat": 0.0}, {"name": "19fb24138609db5ad2804fcac6c9d8b3", "fusion_lon": 0.0, "lat": 38.87362133333333, "is_reserved": 0, "type": "electric_scooter", "bike_id": "19fb24138609db5ad2804fcac6c9d8b3", "is_disabled": 0, "rental_uris": {"android": "https://dc.lft.to/lastmile_qr_scan", "ios": "https://dc.lft.to/lastmile_qr_scan"}, "lon": -77.0058295, "fusion_lat": 0.0}, {"name": "a7aefe93d0862ace75fa41e27ac15596", "fusion_lon": 0.0, "lat": 38.917070333333335, "is_reserved": 0, "type": "electric_scooter", "bike_id": "a7aefe93d0862ace75fa41e27ac15596", "is_disabled": 0, "rental_uris": {"android": "https://dc.lft.to/lastmile_qr_scan", "ios": "https://dc.lft.to/lastmile_qr_scan"}, "lon": -77.01339816666666, "fusion_lat": 0.0}, {"name": "4a3cceb2978bb61ee26f6dfa0b7b4873", "fusion_lon": 0.0, "lat": 38.896173833333336, "is_reserved": 0, "type": "electric_scooter", "bike_id": "4a3cceb2978bb61ee26f6dfa0b7b4873", "is_disabled": 0, "rental_uris": {"android": "https://dc.lft.to/lastmile_qr_scan", "ios": "https://dc.lft.to/lastmile_qr_scan"}, "lon": -76.9811435, "fusion_lat": 0.0}, {"name": "057c2da4e443348763b5f756536649a6", "fusion_lon": 0.0, "lat": 38.9129285, "is_reserved": 0, "type": "electric_scooter", "bike_id": "057c2da4e443348763b5f756536649a6", "is_disabled": 0, "rental_uris": {"android": "https://dc.lft.to/lastmile_qr_scan", "ios": "https://dc.lft.to/lastmile_qr_scan"}, "lon": -77.02383833333333, "fusion_lat": 0.0}, {"name": "918de28a61c02671769b9cb02df7e55c", "fusion_lon": 0.0, "lat": 38.95250733333334, "is_reserved": 0, "type": "electric_scooter", "bike_id": "918de28a61c02671769b9cb02df7e55c", "is_disabled": 0, "rental_uris": {"android": "https://dc.lft.to/lastmile_qr_scan", "ios": "https://dc.lft.to/lastmile_qr_scan"}, "lon": -77.00216933333333, "fusion_lat": 0.0}, {"name": "e609c0f0ed1ef2532cf9e9598f6bdd04", "fusion_lon": 0.0, "lat": 38.89626416666667, "is_reserved": 0, "type": "electric_scooter", "bike_id": "e609c0f0ed1ef2532cf9e9598f6bdd04", "is_disabled": 0, "rental_uris": {"android": "https://dc.lft.to/lastmile_qr_scan", "ios": "https://dc.lft.to/lastmile_qr_scan"}, "lon": -77.01595383333333, "fusion_lat": 0.0}, {"name": "e06b6752dff7cd110d5c585682c82e6b", "fusion_lon": 0.0, "lat": 38.896288, "is_reserved": 0, "type": "electric_scooter", "bike_id": "e06b6752dff7cd110d5c585682c82e6b", "is_disabled": 0, "rental_uris": {"android": "https://dc.lft.to/lastmile_qr_scan", "ios": "https://dc.lft.to/lastmile_qr_scan"}, "lon": -77.02199, "fusion_lat": 0.0}, {"name": "b41d3fc9fb38da008438f146431bd996", "fusion_lon": 0.0, "lat": 38.90009966666667, "is_reserved": 0, "type": "electric_scooter", "bike_id": "b41d3fc9fb38da008438f146431bd996", "is_disabled": 0, "rental_uris": {"android": "https://dc.lft.to/lastmile_qr_scan", "ios": "https://dc.lft.to/lastmile_qr_scan"}, "lon": -76.99647833333333, "fusion_lat": 0.0}, {"name": "04a18b2f4b33c60bc932cc421c3d937d", "fusion_lon": 0.0, "lat": 38.910127333333335, "is_reserved": 0, "type": "electric_scooter", "bike_id": "04a18b2f4b33c60bc932cc421c3d937d", "is_disabled": 0, "rental_uris": {"android": "https://dc.lft.to/lastmile_qr_scan", "ios": "https://dc.lft.to/lastmile_qr_scan"}, "lon": -77.052702, "fusion_lat": 0.0}, {"name": "c0b5b324844a080c7262b852a91150e9", "fusion_lon": 0.0, "lat": 38.897309, "is_reserved": 0, "type": "electric_scooter", "bike_id": "c0b5b324844a080c7262b852a91150e9", "is_disabled": 0, "rental_uris": {"android": "https://dc.lft.to/lastmile_qr_scan", "ios": "https://dc.lft.to/lastmile_qr_scan"}, "lon": -77.02155733333333, "fusion_lat": 0.0}, {"name": "7c149a7eb0448b88d98a99518e2eb564", "fusion_lon": 0.0, "lat": 38.8748325, "is_reserved": 0, "type": "electric_bike", "bike_id": "7c149a7eb0448b88d98a99518e2eb564", "is_disabled": 0, "rental_uris": {"android": "https://dc.lft.to/lastmile_qr_scan", "ios": "https://dc.lft.to/lastmile_qr_scan"}, "lon": -76.965298, "fusion_lat": 0.0}, {"name": "18ca774660d93a084a10202b80208457", "fusion_lon": 0.0, "lat": 38.9042485, "is_reserved": 0, "type": "electric_scooter", "bike_id": "18ca774660d93a084a10202b80208457", "is_disabled": 0, "rental_uris": {"android": "https://dc.lft.to/lastmile_qr_scan", "ios": "https://dc.lft.to/lastmile_qr_scan"}, "lon": -77.04663466666666, "fusion_lat": 0.0}, {"name": "1070a0ee4af4df79c45837ed7b47dea5", "fusion_lon": 0.0, "lat": 38.93448933333333, "is_reserved": 0, "type": "electric_scooter", "bike_id": "1070a0ee4af4df79c45837ed7b47dea5", "is_disabled": 0, "rental_uris": {"android": "https://dc.lft.to/lastmile_qr_scan", "ios": "https://dc.lft.to/lastmile_qr_scan"}, "lon": -77.03287233333333, "fusion_lat": 0.0}, {"name": "b6943880b29055bca6eabed88896aa37", "fusion_lon": 0.0, "lat": 38.931023, "is_reserved": 0, "type": "electric_scooter", "bike_id": "b6943880b29055bca6eabed88896aa37", "is_disabled": 0, "rental_uris": {"android": "https://dc.lft.to/lastmile_qr_scan", "ios": "https://dc.lft.to/lastmile_qr_scan"}, "lon": -77.026647, "fusion_lat": 0.0}, {"name": "f7a910654012993a09db233e62276b3d", "fusion_lon": 0.0, "lat": 38.92591633333333, "is_reserved": 0, "type": "electric_scooter", "bike_id": "f7a910654012993a09db233e62276b3d", "is_disabled": 0, "rental_uris": {"android": "https://dc.lft.to/lastmile_qr_scan", "ios": "https://dc.lft.to/lastmile_qr_scan"}, "lon": -77.04411183333333, "fusion_lat": 0.0}, {"name": "e26ed0dbbe69a4cda78439c030182bca", "fusion_lon": 0.0, "lat": 38.919260333333334, "is_reserved": 0, "type": "electric_scooter", "bike_id": "e26ed0dbbe69a4cda78439c030182bca", "is_disabled": 0, "rental_uris": {"android": "https://dc.lft.to/lastmile_qr_scan", "ios": "https://dc.lft.to/lastmile_qr_scan"}, "lon": -77.045523, "fusion_lat": 0.0}, {"name": "1fe5703eeb10b30e18bed805ab7295bb", "fusion_lon": 0.0, "lat": 38.9057255, "is_reserved": 0, "type": "electric_scooter", "bike_id": "1fe5703eeb10b30e18bed805ab7295bb", "is_disabled": 0, "rental_uris": {"android": "https://dc.lft.to/lastmile_qr_scan", "ios": "https://dc.lft.to/lastmile_qr_scan"}, "lon": -77.00559516666667, "fusion_lat": 0.0}, {"name": "19258bf992c8e8785d681861fd8cef15", "fusion_lon": 0.0, "lat": 38.92505883333333, "is_reserved": 0, "type": "electric_scooter", "bike_id": "19258bf992c8e8785d681861fd8cef15", "is_disabled": 0, "rental_uris": {"android": "https://dc.lft.to/lastmile_qr_scan", "ios": "https://dc.lft.to/lastmile_qr_scan"}, "lon": -77.02278066666666, "fusion_lat": 0.0}, {"name": "5a3d79d4bc7da46c1d91d905135ddafa", "fusion_lon": 0.0, "lat": 38.919252666666665, "is_reserved": 0, "type": "electric_scooter", "bike_id": "5a3d79d4bc7da46c1d91d905135ddafa", "is_disabled": 0, "rental_uris": {"android": "https://dc.lft.to/lastmile_qr_scan", "ios": "https://dc.lft.to/lastmile_qr_scan"}, "lon": -77.025758, "fusion_lat": 0.0}, {"name": "ed0bbce949bf93000f785edcddd89409", "fusion_lon": 0.0, "lat": 38.91790666666667, "is_reserved": 0, "type": "electric_scooter", "bike_id": "ed0bbce949bf93000f785edcddd89409", "is_disabled": 0, "rental_uris": {"android": "https://dc.lft.to/lastmile_qr_scan", "ios": "https://dc.lft.to/lastmile_qr_scan"}, "lon": -77.04214533333334, "fusion_lat": 0.0}, {"name": "bf8b6c8ea105463642b3f977ec442189", "fusion_lon": 0.0, "lat": 38.93968983333333, "is_reserved": 0, "type": "electric_scooter", "bike_id": "bf8b6c8ea105463642b3f977ec442189", "is_disabled": 0, "rental_uris": {"android": "https://dc.lft.to/lastmile_qr_scan", "ios": "https://dc.lft.to/lastmile_qr_scan"}, "lon": -77.02749933333334, "fusion_lat": 0.0}, {"name": "49178876982856999efd44404dbc1bfa", "fusion_lon": 0.0, "lat": 38.8859135, "is_reserved": 0, "type": "electric_scooter", "bike_id": "49178876982856999efd44404dbc1bfa", "is_disabled": 0, "rental_uris": {"android": "https://dc.lft.to/lastmile_qr_scan", "ios": "https://dc.lft.to/lastmile_qr_scan"}, "lon": -76.996203, "fusion_lat": 0.0}, {"name": "eac451b1d5c64e6891de2dce267c394e", "fusion_lon": 0.0, "lat": 38.89222433333333, "is_reserved": 0, "type": "electric_scooter", "bike_id": "eac451b1d5c64e6891de2dce267c394e", "is_disabled": 0, "rental_uris": {"android": "https://dc.lft.to/lastmile_qr_scan", "ios": "https://dc.lft.to/lastmile_qr_scan"}, "lon": -77.04263683333333, "fusion_lat": 0.0}, {"name": "b35c389bfb74f48eee2a480d1bce1ab1", "fusion_lon": 0.0, "lat": 38.9119965, "is_reserved": 0, "type": "electric_scooter", "bike_id": "b35c389bfb74f48eee2a480d1bce1ab1", "is_disabled": 0, "rental_uris": {"android": "https://dc.lft.to/lastmile_qr_scan", "ios": "https://dc.lft.to/lastmile_qr_scan"}, "lon": -77.0451645, "fusion_lat": 0.0}, {"name": "6d9ea0854b7bf6f757bf3fad7293cf50", "fusion_lon": 0.0, "lat": 38.944356666666664, "is_reserved": 0, "type": "electric_scooter", "bike_id": "6d9ea0854b7bf6f757bf3fad7293cf50", "is_disabled": 0, "rental_uris": {"android": "https://dc.lft.to/lastmile_qr_scan", "ios": "https://dc.lft.to/lastmile_qr_scan"}, "lon": -77.06352866666667, "fusion_lat": 0.0}, {"name": "34b3f57aa2335520b2273a5b77a348f0", "fusion_lon": 0.0, "lat": 38.917381166666665, "is_reserved": 0, "type": "electric_scooter", "bike_id": "34b3f57aa2335520b2273a5b77a348f0", "is_disabled": 0, "rental_uris": {"android": "https://dc.lft.to/lastmile_qr_scan", "ios": "https://dc.lft.to/lastmile_qr_scan"}, "lon": -77.03646883333333, "fusion_lat": 0.0}, {"name": "e4aa7a3b413b333e735636f0ba786e0e", "fusion_lon": 0.0, "lat": 38.878078, "is_reserved": 0, "type": "electric_scooter", "bike_id": "e4aa7a3b413b333e735636f0ba786e0e", "is_disabled": 0, "rental_uris": {"android": "https://dc.lft.to/lastmile_qr_scan", "ios": "https://dc.lft.to/lastmile_qr_scan"}, "lon": -76.9308935, "fusion_lat": 0.0}, {"name": "e7f7d1df5922546ca6cc5749fefd1c29", "fusion_lon": 0.0, "lat": 38.927707, "is_reserved": 0, "type": "electric_scooter", "bike_id": "e7f7d1df5922546ca6cc5749fefd1c29", "is_disabled": 0, "rental_uris": {"android": "https://dc.lft.to/lastmile_qr_scan", "ios": "https://dc.lft.to/lastmile_qr_scan"}, "lon": -77.03058966666667, "fusion_lat": 0.0}, {"name": "8b4060426d0daccf30d2ea28ba56f97e", "fusion_lon": 0.0, "lat": 38.857677, "is_reserved": 0, "type": "electric_bike", "bike_id": "8b4060426d0daccf30d2ea28ba56f97e", "is_disabled": 0, "rental_uris": {"android": "https://dc.lft.to/lastmile_qr_scan", "ios": "https://dc.lft.to/lastmile_qr_scan"}, "lon": -76.98766216666667, "fusion_lat": 0.0}, {"name": "8d1b53af74e73062ba93804d6a724326", "fusion_lon": 0.0, "lat": 38.89347816666667, "is_reserved": 0, "type": "electric_scooter", "bike_id": "8d1b53af74e73062ba93804d6a724326", "is_disabled": 0, "rental_uris": {"android": "https://dc.lft.to/lastmile_qr_scan", "ios": "https://dc.lft.to/lastmile_qr_scan"}, "lon": -77.01719233333333, "fusion_lat": 0.0}, {"name": "3dc66f0daaf8ad4d97a05c627e846ad1", "fusion_lon": 0.0, "lat": 38.9126545, "is_reserved": 0, "type": "electric_scooter", "bike_id": "3dc66f0daaf8ad4d97a05c627e846ad1", "is_disabled": 0, "rental_uris": {"android": "https://dc.lft.to/lastmile_qr_scan", "ios": "https://dc.lft.to/lastmile_qr_scan"}, "lon": -77.03297966666666, "fusion_lat": 0.0}, {"name": "84012ac41aa1e13b56062ffb498edbfe", "fusion_lon": 0.0, "lat": 38.9302345, "is_reserved": 0, "type": "electric_scooter", "bike_id": "84012ac41aa1e13b56062ffb498edbfe", "is_disabled": 0, "rental_uris": {"android": "https://dc.lft.to/lastmile_qr_scan", "ios": "https://dc.lft.to/lastmile_qr_scan"}, "lon": -77.06088566666666, "fusion_lat": 0.0}, {"name": "635bf66fffb0ae617b27b9acbc6dc4c5", "fusion_lon": 0.0, "lat": 38.898986666666666, "is_reserved": 0, "type": "electric_scooter", "bike_id": "635bf66fffb0ae617b27b9acbc6dc4c5", "is_disabled": 0, "rental_uris": {"android": "https://dc.lft.to/lastmile_qr_scan", "ios": "https://dc.lft.to/lastmile_qr_scan"}, "lon": -76.97708133333333, "fusion_lat": 0.0}, {"name": "78faa9cc3c4c5cc167bb676caa757e83", "fusion_lon": 0.0, "lat": 38.95532083333333, "is_reserved": 0, "type": "electric_scooter", "bike_id": "78faa9cc3c4c5cc167bb676caa757e83", "is_disabled": 0, "rental_uris": {"android": "https://dc.lft.to/lastmile_qr_scan", "ios": "https://dc.lft.to/lastmile_qr_scan"}, "lon": -77.02775833333334, "fusion_lat": 0.0}, {"name": "028b7fb09fd9b47d7ea0e32bbd23a29a", "fusion_lon": 0.0, "lat": 38.929718666666666, "is_reserved": 0, "type": "electric_scooter", "bike_id": "028b7fb09fd9b47d7ea0e32bbd23a29a", "is_disabled": 0, "rental_uris": {"android": "https://dc.lft.to/lastmile_qr_scan", "ios": "https://dc.lft.to/lastmile_qr_scan"}, "lon": -77.02950316666667, "fusion_lat": 0.0}, {"name": "d696cd82820e669da60d7b212b8de432", "fusion_lon": 0.0, "lat": 38.9081255, "is_reserved": 0, "type": "electric_scooter", "bike_id": "d696cd82820e669da60d7b212b8de432", "is_disabled": 0, "rental_uris": {"android": "https://dc.lft.to/lastmile_qr_scan", "ios": "https://dc.lft.to/lastmile_qr_scan"}, "lon": -77.03669966666666, "fusion_lat": 0.0}, {"name": "2e347416d15371384c504b1c6ce5189e", "fusion_lon": 0.0, "lat": 38.871801, "is_reserved": 0, "type": "electric_scooter", "bike_id": "2e347416d15371384c504b1c6ce5189e", "is_disabled": 0, "rental_uris": {"android": "https://dc.lft.to/lastmile_qr_scan", "ios": "https://dc.lft.to/lastmile_qr_scan"}, "lon": -77.006154, "fusion_lat": 0.0}, {"name": "3beec88ed7d75630cccd6389e89f2d5c", "fusion_lon": 0.0, "lat": 38.921228666666664, "is_reserved": 0, "type": "electric_scooter", "bike_id": "3beec88ed7d75630cccd6389e89f2d5c", "is_disabled": 0, "rental_uris": {"android": "https://dc.lft.to/lastmile_qr_scan", "ios": "https://dc.lft.to/lastmile_qr_scan"}, "lon": -77.04376216666667, "fusion_lat": 0.0}, {"name": "6778b6a0d27ba2f9ac48f45c2f43f8a0", "fusion_lon": 0.0, "lat": 38.83813116666666, "is_reserved": 0, "type": "electric_bike", "bike_id": "6778b6a0d27ba2f9ac48f45c2f43f8a0", "is_disabled": 0, "rental_uris": {"android": "https://dc.lft.to/lastmile_qr_scan", "ios": "https://dc.lft.to/lastmile_qr_scan"}, "lon": -77.095239, "fusion_lat": 0.0}, {"name": "b14eb41ab83a051ce6350ccc141cb8f2", "fusion_lon": 0.0, "lat": 38.92771883333333, "is_reserved": 0, "type": "electric_scooter", "bike_id": "b14eb41ab83a051ce6350ccc141cb8f2", "is_disabled": 0, "rental_uris": {"android": "https://dc.lft.to/lastmile_qr_scan", "ios": "https://dc.lft.to/lastmile_qr_scan"}, "lon": -77.0406315, "fusion_lat": 0.0}, {"name": "1995b1eac157900e8605330ee89741ea", "fusion_lon": 0.0, "lat": 38.914934, "is_reserved": 0, "type": "electric_scooter", "bike_id": "1995b1eac157900e8605330ee89741ea", "is_disabled": 0, "rental_uris": {"android": "https://dc.lft.to/lastmile_qr_scan", "ios": "https://dc.lft.to/lastmile_qr_scan"}, "lon": -77.03232016666666, "fusion_lat": 0.0}, {"name": "dc52e4428ae28b323d53010b79595001", "fusion_lon": 0.0, "lat": 38.9155745, "is_reserved": 0, "type": "electric_scooter", "bike_id": "dc52e4428ae28b323d53010b79595001", "is_disabled": 0, "rental_uris": {"android": "https://dc.lft.to/lastmile_qr_scan", "ios": "https://dc.lft.to/lastmile_qr_scan"}, "lon": -77.05324383333334, "fusion_lat": 0.0}, {"name": "df0a7c32d089679ddab43532d1bd3738", "fusion_lon": 0.0, "lat": 38.921057166666664, "is_reserved": 0, "type": "electric_scooter", "bike_id": "df0a7c32d089679ddab43532d1bd3738", "is_disabled": 0, "rental_uris": {"android": "https://dc.lft.to/lastmile_qr_scan", "ios": "https://dc.lft.to/lastmile_qr_scan"}, "lon": -77.03923916666666, "fusion_lat": 0.0}, {"name": "aefb81ea8161631a2b1adbc1232610df", "fusion_lon": 0.0, "lat": 38.920130666666665, "is_reserved": 0, "type": "electric_scooter", "bike_id": "aefb81ea8161631a2b1adbc1232610df", "is_disabled": 0, "rental_uris": {"android": "https://dc.lft.to/lastmile_qr_scan", "ios": "https://dc.lft.to/lastmile_qr_scan"}, "lon": -77.0214135, "fusion_lat": 0.0}, {"name": "1137662b90a325e5431e4a1fbbd68b8f", "fusion_lon": 0.0, "lat": 38.9020785, "is_reserved": 0, "type": "electric_scooter", "bike_id": "1137662b90a325e5431e4a1fbbd68b8f", "is_disabled": 0, "rental_uris": {"android": "https://dc.lft.to/lastmile_qr_scan", "ios": "https://dc.lft.to/lastmile_qr_scan"}, "lon": -77.02374216666666, "fusion_lat": 0.0}, {"name": "2c8817f9882ae618c3a2f69ffe5dd214", "fusion_lon": 0.0, "lat": 38.90155766666667, "is_reserved": 0, "type": "electric_scooter", "bike_id": "2c8817f9882ae618c3a2f69ffe5dd214", "is_disabled": 0, "rental_uris": {"android": "https://dc.lft.to/lastmile_qr_scan", "ios": "https://dc.lft.to/lastmile_qr_scan"}, "lon": -76.92982883333333, "fusion_lat": 0.0}, {"name": "fe320141c861e848f0761974ebb861e2", "fusion_lon": 0.0, "lat": 38.917674833333336, "is_reserved": 0, "type": "electric_scooter", "bike_id": "fe320141c861e848f0761974ebb861e2", "is_disabled": 0, "rental_uris": {"android": "https://dc.lft.to/lastmile_qr_scan", "ios": "https://dc.lft.to/lastmile_qr_scan"}, "lon": -77.04772, "fusion_lat": 0.0}, {"name": "63da1978bad3214fde8479f562166460", "fusion_lon": 0.0, "lat": 38.87499183333333, "is_reserved": 0, "type": "electric_scooter", "bike_id": "63da1978bad3214fde8479f562166460", "is_disabled": 0, "rental_uris": {"android": "https://dc.lft.to/lastmile_qr_scan", "ios": "https://dc.lft.to/lastmile_qr_scan"}, "lon": -76.999969, "fusion_lat": 0.0}, {"name": "6cc2cb4a52e17f3c81e8909e6b6425b7", "fusion_lon": 0.0, "lat": 38.90778983333333, "is_reserved": 0, "type": "electric_scooter", "bike_id": "6cc2cb4a52e17f3c81e8909e6b6425b7", "is_disabled": 0, "rental_uris": {"android": "https://dc.lft.to/lastmile_qr_scan", "ios": "https://dc.lft.to/lastmile_qr_scan"}, "lon": -77.038313, "fusion_lat": 0.0}, {"name": "ad9403fdd96c10f8eca8cb10d9f33383", "fusion_lon": 0.0, "lat": 38.9248645, "is_reserved": 0, "type": "electric_scooter", "bike_id": "ad9403fdd96c10f8eca8cb10d9f33383", "is_disabled": 0, "rental_uris": {"android": "https://dc.lft.to/lastmile_qr_scan", "ios": "https://dc.lft.to/lastmile_qr_scan"}, "lon": -77.0318235, "fusion_lat": 0.0}, {"name": "f22709757bd8cf7ba0e7b04772ecec2e", "fusion_lon": 0.0, "lat": 38.91681783333333, "is_reserved": 0, "type": "electric_scooter", "bike_id": "f22709757bd8cf7ba0e7b04772ecec2e", "is_disabled": 0, "rental_uris": {"android": "https://dc.lft.to/lastmile_qr_scan", "ios": "https://dc.lft.to/lastmile_qr_scan"}, "lon": -77.02384283333333, "fusion_lat": 0.0}, {"name": "5206fb23b640ba0d67f06c743985b678", "fusion_lon": 0.0, "lat": 38.874254, "is_reserved": 0, "type": "electric_scooter", "bike_id": "5206fb23b640ba0d67f06c743985b678", "is_disabled": 0, "rental_uris": {"android": "https://dc.lft.to/lastmile_qr_scan", "ios": "https://dc.lft.to/lastmile_qr_scan"}, "lon": -76.96772883333334, "fusion_lat": 0.0}, {"name": "4ae5440cb65bea0836df222fa751c0a5", "fusion_lon": 0.0, "lat": 38.973993, "is_reserved": 0, "type": "electric_bike", "bike_id": "4ae5440cb65bea0836df222fa751c0a5", "is_disabled": 0, "rental_uris": {"android": "https://dc.lft.to/lastmile_qr_scan", "ios": "https://dc.lft.to/lastmile_qr_scan"}, "lon": -77.06447316666667, "fusion_lat": 0.0}, {"name": "297c087d60be27c49196d0bc440a098a", "fusion_lon": 0.0, "lat": 38.89946833333333, "is_reserved": 0, "type": "electric_scooter", "bike_id": "297c087d60be27c49196d0bc440a098a", "is_disabled": 0, "rental_uris": {"android": "https://dc.lft.to/lastmile_qr_scan", "ios": "https://dc.lft.to/lastmile_qr_scan"}, "lon": -77.01655783333334, "fusion_lat": 0.0}, {"name": "4f17da544fec7d5f4b3e4b602aa75a18", "fusion_lon": 0.0, "lat": 38.930867, "is_reserved": 0, "type": "electric_scooter", "bike_id": "4f17da544fec7d5f4b3e4b602aa75a18", "is_disabled": 0, "rental_uris": {"android": "https://dc.lft.to/lastmile_qr_scan", "ios": "https://dc.lft.to/lastmile_qr_scan"}, "lon": -77.03444, "fusion_lat": 0.0}, {"name": "18e65d432a94713b0b2a1c9c40220964", "fusion_lon": 0.0, "lat": 38.928916666666666, "is_reserved": 0, "type": "electric_scooter", "bike_id": "18e65d432a94713b0b2a1c9c40220964", "is_disabled": 0, "rental_uris": {"android": "https://dc.lft.to/lastmile_qr_scan", "ios": "https://dc.lft.to/lastmile_qr_scan"}, "lon": -77.032756, "fusion_lat": 0.0}, {"name": "46a626a7832437cc64f34ffa47bb8c6f", "fusion_lon": 0.0, "lat": 38.893553833333335, "is_reserved": 0, "type": "electric_scooter", "bike_id": "46a626a7832437cc64f34ffa47bb8c6f", "is_disabled": 0, "rental_uris": {"android": "https://dc.lft.to/lastmile_qr_scan", "ios": "https://dc.lft.to/lastmile_qr_scan"}, "lon": -77.0033375, "fusion_lat": 0.0}, {"name": "d3a2bfc263ed48c4cd1e1c126596f8bb", "fusion_lon": 0.0, "lat": 38.9038585, "is_reserved": 0, "type": "electric_scooter", "bike_id": "d3a2bfc263ed48c4cd1e1c126596f8bb", "is_disabled": 0, "rental_uris": {"android": "https://dc.lft.to/lastmile_qr_scan", "ios": "https://dc.lft.to/lastmile_qr_scan"}, "lon": -77.03847783333333, "fusion_lat": 0.0}, {"name": "ac4e13c312cc8548a3c26f657aa2b0fd", "fusion_lon": 0.0, "lat": 38.91689366666667, "is_reserved": 0, "type": "electric_scooter", "bike_id": "ac4e13c312cc8548a3c26f657aa2b0fd", "is_disabled": 0, "rental_uris": {"android": "https://dc.lft.to/lastmile_qr_scan", "ios": "https://dc.lft.to/lastmile_qr_scan"}, "lon": -77.02528583333333, "fusion_lat": 0.0}, {"name": "97c87938fd3a7dc5b8ba4a5716bc7737", "fusion_lon": 0.0, "lat": 38.893845, "is_reserved": 0, "type": "electric_scooter", "bike_id": "97c87938fd3a7dc5b8ba4a5716bc7737", "is_disabled": 0, "rental_uris": {"android": "https://dc.lft.to/lastmile_qr_scan", "ios": "https://dc.lft.to/lastmile_qr_scan"}, "lon": -77.03196816666667, "fusion_lat": 0.0}, {"name": "c4a872f776b9f84a06b3e1ae580b1aae", "fusion_lon": 0.0, "lat": 38.8947905, "is_reserved": 0, "type": "electric_scooter", "bike_id": "c4a872f776b9f84a06b3e1ae580b1aae", "is_disabled": 0, "rental_uris": {"android": "https://dc.lft.to/lastmile_qr_scan", "ios": "https://dc.lft.to/lastmile_qr_scan"}, "lon": -77.02805133333334, "fusion_lat": 0.0}, {"name": "4443b2c2b3190e7dc045d22fb5d13a04", "fusion_lon": 0.0, "lat": 38.8320825, "is_reserved": 0, "type": "electric_scooter", "bike_id": "4443b2c2b3190e7dc045d22fb5d13a04", "is_disabled": 0, "rental_uris": {"android": "https://dc.lft.to/lastmile_qr_scan", "ios": "https://dc.lft.to/lastmile_qr_scan"}, "lon": -77.0079325, "fusion_lat": 0.0}, {"name": "3b1789f166983028208762d867a992df", "fusion_lon": 0.0, "lat": 38.887836666666665, "is_reserved": 0, "type": "electric_scooter", "bike_id": "3b1789f166983028208762d867a992df", "is_disabled": 0, "rental_uris": {"android": "https://dc.lft.to/lastmile_qr_scan", "ios": "https://dc.lft.to/lastmile_qr_scan"}, "lon": -76.95535766666667, "fusion_lat": 0.0}, {"name": "2de8c976707ca0761908680e7735d456", "fusion_lon": 0.0, "lat": 38.90547016666667, "is_reserved": 0, "type": "electric_scooter", "bike_id": "2de8c976707ca0761908680e7735d456", "is_disabled": 0, "rental_uris": {"android": "https://dc.lft.to/lastmile_qr_scan", "ios": "https://dc.lft.to/lastmile_qr_scan"}, "lon": -76.9811455, "fusion_lat": 0.0}, {"name": "9eaef8bf30ed5ce215137f57f223822f", "fusion_lon": 0.0, "lat": 38.905884, "is_reserved": 0, "type": "electric_scooter", "bike_id": "9eaef8bf30ed5ce215137f57f223822f", "is_disabled": 0, "rental_uris": {"android": "https://dc.lft.to/lastmile_qr_scan", "ios": "https://dc.lft.to/lastmile_qr_scan"}, "lon": -77.00623716666666, "fusion_lat": 0.0},