{"data": {"bikes": [{"rental_uris": {"ios": "https://dc.lft.to/lastmile_qr_scan", "android": "https://dc.lft.to/lastmile_qr_scan"}, "type": "electric_scooter", "name": "ef302ca9f929eb4b5874e0f439375b42", "is_reserved": 0, "lon": -77.04085366666666, "is_disabled": 0, "fusion_lat": 0.0, "lat": 38.90540883333333, "bike_id": "ef302ca9f929eb4b5874e0f439375b42", "fusion_lon": 0.0}, {"rental_uris": {"ios": "https://dc.lft.to/lastmile_qr_scan", "android": "https://dc.lft.to/lastmile_qr_scan"}, "type": "electric_scooter", "name": "3c784f6c88c26f2b3fbdee3cd4de1db6", "is_reserved": 0, "lon": -77.01572433333334, "is_disabled": 0, "fusion_lat": 0.0, "lat": 38.87662533333334, "bike_id": "3c784f6c88c26f2b3fbdee3cd4de1db6", "fusion_lon": 0.0}, {"rental_uris": {"ios": "https://dc.lft.to/lastmile_qr_scan", "android": "https://dc.lft.to/lastmile_qr_scan"}, "type": "electric_scooter", "name": "6ac3880cad934a3b5ce7f45ff1b34fd9", "is_reserved": 0, "lon": -77.05509833333333, "is_disabled": 0, "fusion_lat": 0.0, "lat": 38.92835916666667, "bike_id": "6ac3880cad934a3b5ce7f45ff1b34fd9", "fusion_lon": 0.0}, {"rental_uris": {"ios": "https://dc.lft.to/lastmile_qr_scan", "android": "https://dc.lft.to/lastmile_qr_scan"}, "type": "electric_scooter", "name": "36d76328530728e3076c573f55421a3d", "is_reserved": 0, "lon": -77.041277, "is_disabled": 0, "fusion_lat": 0.0, "lat": 38.933886333333334, "bike_id": "36d76328530728e3076c573f55421a3d", "fusion_lon": 0.0}, {"rental_uris": {"ios": "https://dc.lft.to/lastmile_qr_scan", "android": "https://dc.lft.to/lastmile_qr_scan"}, "type": "electric_bike", "name": "720a909fb5f2c0b61a571f4043bbe9bd", "is_reserved": 0, "lon": -77.09724366666667, "is_disabled": 0, "fusion_lat": 0.0, "lat": 38.807409666666665, "bike_id": "720a909fb5f2c0b61a571f4043bbe9bd", "fusion_lon": 0.0}, {"rental_uris": {"ios": "https://dc.lft.to/lastmile_qr_scan", "android": "https://dc.lft.to/lastmile_qr_scan"}, "type": "electric_bike", "name": "2a2773f19b26487707177e3a2ad1d23f", "is_reserved": 0, "lon": -77.21664933333334, "is_disabled": 0, "fusion_lat": 0.0, "lat": 38.89511483333333, "bike_id": "2a2773f19b26487707177e3a2ad1d23f", "fusion_lon": 0.0}, {"rental_uris": {"ios": "https://dc.lft.to/lastmile_qr_scan", "android": "https://dc.lft.to/lastmile_qr_scan"}, "type": "electric_scooter", "name": "c96e45df13cff4f8bcf73a924edb40ca", "is_reserved": 0, "lon": -77.026056, "is_disabled": 0, "fusion_lat": 0.0, "lat": 38.94611183333333, "bike_id": "c96e45df13cff4f8bcf73a924edb40ca", "fusion_lon": 0.0}, {"rental_uris": {"ios": "https://dc.lft.to/lastmile_qr_scan", "android": "https://dc.lft.to/lastmile_qr_scan"}, "type": "electric_bike", "name": "4bb20333ffc4ad3fc7e22e6c7d739e9f", "is_reserved": 0, "lon": -77.03245233333334, "is_disabled": 0, "fusion_lat": 0.0, "lat": 38.96154216666667, "bike_id": "4bb20333ffc4ad3fc7e22e6c7d739e9f", "fusion_lon": 0.0}, {"rental_uris": {"ios": "https://dc.lft.to/lastmile_qr_scan", "android": "https://dc.lft.to/lastmile_qr_scan"}, "type": "electric_bike", "name": "7d4a08ab43b213b5575540020a24c88a", "is_reserved": 0, "lon": -77.06531683333333, "is_disabled": 0, "fusion_lat": 0.0, "lat": 38.992388, "bike_id": "7d4a08ab43b213b5575540020a24c88a", "fusion_lon": 0.0}, {"rental_uris": {"ios": "https://dc.lft.to/lastmile_qr_scan", "android": "https://dc.lft.to/lastmile_qr_scan"}, "type": "electric_scooter", "name": "ecf8abe920bad1387b568220c3fe20dd", "is_reserved": 0, "lon": -77.015099, "is_disabled": 0, "fusion_lat": 0.0, "lat": 38.909760166666665, "bike_id": "ecf8abe920bad1387b568220c3fe20dd", "fusion_lon": 0.0}, {"rental_uris": {"ios": "https://dc.lft.to/lastmile_qr_scan", "android": "https://dc.lft.to/lastmile_qr_scan"}, "type": "electric_scooter", "name": "be40cdc428b246daf4bacd7b3d8c11b9", "is_reserved": 0, "lon": -76.991611, "is_disabled": 0, "fusion_lat": 0.0, "lat": 38.88816383333333, "bike_id": "be40cdc428b246daf4bacd7b3d8c11b9", "fusion_lon": 0.0}, {"rental_uris": {"ios": "https://dc.lft.to/lastmile_qr_scan", "android": "https://dc.lft.to/lastmile_qr_scan"}, "type": "electric_scooter", "name": "e341bcb28878f550dc59b4a606f0246a", "is_reserved": 0, "lon": -77.02407983333333, "is_disabled": 0, "fusion_lat": 0.0, "lat": 38.938190166666665, "bike_id": "e341bcb28878f550dc59b4a606f0246a", "fusion_lon": 0.0}, {"rental_uris": {"ios": "https://dc.lft.to/lastmile_qr_scan", "android": "https://dc.lft.to/lastmile_qr_scan"}, "type": "electric_scooter", "name": "db6e711f2d01488140ce3ba70519794e", "is_reserved": 0, "lon": -76.99868166666667, "is_disabled": 0, "fusion_lat": 0.0, "lat": 38.90030816666667, "bike_id": "db6e711f2d01488140ce3ba70519794e", "fusion_lon": 0.0}, {"rental_uris": {"ios": "https://dc.lft.to/lastmile_qr_scan", "android": "https://dc.lft.to/lastmile_qr_scan"}, "type": "electric_scooter", "name": "bb3396df68e9649365ed1b6400abe472", "is_reserved": 0, "lon": -77.04231066666667, "is_disabled": 0, "fusion_lat": 0.0, "lat": 38.911053, "bike_id": "bb3396df68e9649365ed1b6400abe472", "fusion_lon": 0.0}, {"rental_uris": {"ios": "https://dc.lft.to/lastmile_qr_scan", "android": "https://dc.lft.to/lastmile_qr_scan"}, "type": "electric_scooter", "name": "f93e2930a7491a3f9f96beb1a8598bb2", "is_reserved": 0, "lon": -76.99176916666667, "is_disabled": 0, "fusion_lat": 0.0, "lat": 38.90260933333333, "bike_id": "f93e2930a7491a3f9f96beb1a8598bb2", "fusion_lon": 0.0}, {"rental_uris": {"ios": "https://dc.lft.to/lastmile_qr_scan", "android": "https://dc.lft.to/lastmile_qr_scan"}, "type": "electric_scooter", "name": "c76b2eaeff57dc2d18ef4c869e950809", "is_reserved": 0, "lon": -77.02697283333333, "is_disabled": 0, "fusion_lat": 0.0, "lat": 38.92495016666667, "bike_id": "c76b2eaeff57dc2d18ef4c869e950809", "fusion_lon": 0.0}, {"rental_uris": {"ios": "https://dc.lft.to/lastmile_qr_scan", "android": "https://dc.lft.to/lastmile_qr_scan"}, "type": "electric_scooter", "name": "940d018ffabe53d7fc7c073f0c409da4", "is_reserved": 0, "lon": -77.04529533333333, "is_disabled": 0, "fusion_lat": 0.0, "lat": 38.911116166666666, "bike_id": "940d018ffabe53d7fc7c073f0c409da4", "fusion_lon": 0.0}, {"rental_uris": {"ios": "https://dc.lft.to/lastmile_qr_scan", "android": "https://dc.lft.to/lastmile_qr_scan"}, "type": "electric_scooter", "name": "72f691c62f618f80097863a6c9ceb6bb", "is_reserved": 0, "lon": -77.00607716666667, "is_disabled": 0, "fusion_lat": 0.0, "lat": 38.8785885, "bike_id": "72f691c62f618f80097863a6c9ceb6bb", "fusion_lon": 0.0}, {"rental_uris": {"ios": "https://dc.lft.to/lastmile_qr_scan", "android": "https://dc.lft.to/lastmile_qr_scan"}, "type": "electric_scooter", "name": "39a387035aa29b8bcd4aae4a138c8623", "is_reserved": 0, "lon": -76.99383566666667, "is_disabled": 0, "fusion_lat": 0.0, "lat": 38.893407833333335, "bike_id": "39a387035aa29b8bcd4aae4a138c8623", "fusion_lon": 0.0}, {"rental_uris": {"ios": "https://dc.lft.to/lastmile_qr_scan", "android": "https://dc.lft.to/lastmile_qr_scan"}, "type": "electric_scooter", "name": "b531a3ef19fe64bfbed3f6dedda7b9ab", "is_reserved": 0, "lon": -77.02478033333334, "is_disabled": 0, "fusion_lat": 0.0, "lat": 38.91816466666667, "bike_id": "b531a3ef19fe64bfbed3f6dedda7b9ab", "fusion_lon": 0.0}, {"rental_uris": {"ios": "https://dc.lft.to/lastmile_qr_scan", "android": "https://dc.lft.to/lastmile_qr_scan"}, "type": "electric_scooter", "name": "b626cd28228a44cba24fba6d87cfb66a", "is_reserved": 0, "lon": -77.064796, "is_disabled": 0, "fusion_lat": 0.0, "lat": 38.927037, "bike_id": "b626cd28228a44cba24fba6d87cfb66a", "fusion_lon": 0.0}, {"rental_uris": {"ios": "https://dc.lft.to/lastmile_qr_scan", "android": "https://dc.lft.to/lastmile_qr_scan"}, "type": "electric_scooter", "name": "1fc75063ce76af047f17fda39e5f95cf", "is_reserved": 0, "lon": -77.01970533333333, "is_disabled": 0, "fusion_lat": 0.0, "lat": 38.922582, "bike_id": "1fc75063ce76af047f17fda39e5f95cf", "fusion_lon": 0.0}, {"rental_uris": {"ios": "https://dc.lft.to/lastmile_qr_scan", "android": "https://dc.lft.to/lastmile_qr_scan"}, "type": "electric_scooter", "name": "3b977ead35aa247f15295a1f2e80a166", "is_reserved": 0, "lon": -77.0437205, "is_disabled": 0, "fusion_lat": 0.0, "lat": 38.892246, "bike_id": "3b977ead35aa247f15295a1f2e80a166", "fusion_lon": 0.0}, {"rental_uris": {"ios": "https://dc.lft.to/lastmile_qr_scan", "android": "https://dc.lft.to/lastmile_qr_scan"}, "type": "electric_scooter", "name": "f3f9d0d6a2bd92a237e239a616a95c22", "is_reserved": 0, "lon": -77.05063683333333, "is_disabled": 0, "fusion_lat": 0.0, "lat": 38.923568833333334, "bike_id": "f3f9d0d6a2bd92a237e239a616a95c22", "fusion_lon": 0.0}, {"rental_uris": {"ios": "https://dc.lft.to/lastmile_qr_scan", "android": "https://dc.lft.to/lastmile_qr_scan"}, "type": "electric_scooter", "name": "56ab6038ea175d99b894dea1684a1f0a", "is_reserved": 0, "lon": -77.07168266666666, "is_disabled": 0, "fusion_lat": 0.0, "lat": 38.90776983333333, "bike_id": "56ab6038ea175d99b894dea1684a1f0a", "fusion_lon": 0.0}, {"rental_uris": {"ios": "https://dc.lft.to/lastmile_qr_scan", "android": "https://dc.lft.to/lastmile_qr_scan"}, "type": "electric_scooter", "name": "9f2481e4f82526ac82aae07d02c4602b", "is_reserved": 0, "lon": -76.9996735, "is_disabled": 0, "fusion_lat": 0.0, "lat": 38.89198233333333, "bike_id": "9f2481e4f82526ac82aae07d02c4602b", "fusion_lon": 0.0}, {"rental_uris": {"ios": "https://dc.lft.to/lastmile_qr_scan", "android": "https://dc.lft.to/lastmile_qr_scan"}, "type": "electric_scooter", "name": "b16b2e0f8151d8a383a2b3c5121bb0cc", "is_reserved": 0, "lon": -77.017654, "is_disabled": 0, "fusion_lat": 0.0, "lat": 38.92051133333333, "bike_id": "b16b2e0f8151d8a383a2b3c5121bb0cc", "fusion_lon": 0.0}, {"rental_uris": {"ios": "https://dc.lft.to/lastmile_qr_scan", "android": "https://dc.lft.to/lastmile_qr_scan"}, "type": "electric_scooter", "name": "5ef182f992d1d556c893e656933ff24a", "is_reserved": 0, "lon": -77.02583166666666, "is_disabled": 0, "fusion_lat": 0.0, "lat": 38.88715366666667, "bike_id": "5ef182f992d1d556c893e656933ff24a", "fusion_lon": 0.0}, {"rental_uris": {"ios": "https://dc.lft.to/lastmile_qr_scan", "android": "https://dc.lft.to/lastmile_qr_scan"}, "type": "electric_scooter", "name": "b996de5fc6f3ab2beeeab99fcfffb1a1", "is_reserved": 0, "lon": -77.05506833333334, "is_disabled": 0, "fusion_lat": 0.0, "lat": 38.92840133333333, "bike_id": "b996de5fc6f3ab2beeeab99fcfffb1a1", "fusion_lon": 0.0}, {"rental_uris": {"ios": "https://dc.lft.to/lastmile_qr_scan", "android": "https://dc.lft.to/lastmile_qr_scan"}, "type": "electric_scooter", "name": "42cf07c4c9c4700e0eac7236f7dcf4d6", "is_reserved": 0, "lon": -77.04126816666667, "is_disabled": 0, "fusion_lat": 0.0, "lat": 38.92879766666667, "bike_id": "42cf07c4c9c4700e0eac7236f7dcf4d6", "fusion_lon": 0.0}, {"rental_uris": {"ios": "https://dc.lft.to/lastmile_qr_scan", "android": "https://dc.lft.to/lastmile_qr_scan"}, "type": "electric_scooter", "name": "3d8ee04505ba9715c6a39856c0873d52", "is_reserved": 0, "lon": -77.03337066666667, "is_disabled": 0, "fusion_lat": 0.0, "lat": 38.915561, "bike_id": "3d8ee04505ba9715c6a39856c0873d52", "fusion_lon": 0.0}, {"rental_uris": {"ios": "https://dc.lft.to/lastmile_qr_scan", "android": "https://dc.lft.to/lastmile_qr_scan"}, "type": "electric_scooter", "name": "21e8ff87346221ada65cbe7f6fa13a26", "is_reserved": 0, "lon": -77.0470075, "is_disabled": 0, "fusion_lat": 0.0, "lat": 38.92058433333333, "bike_id": "21e8ff87346221ada65cbe7f6fa13a26", "fusion_lon": 0.0}, {"rental_uris": {"ios": "https://dc.lft.to/lastmile_qr_scan", "android": "https://dc.lft.to/lastmile_qr_scan"}, "type": "electric_scooter", "name": "c2f126eb017b15e1b45462295faf1328", "is_reserved": 0, "lon": -77.02836166666667, "is_disabled": 0, "fusion_lat": 0.0, "lat": 38.932339166666665, "bike_id": "c2f126eb017b15e1b45462295faf1328", "fusion_lon": 0.0}, {"rental_uris": {"ios": "https://dc.lft.to/lastmile_qr_scan", "android": "https://dc.lft.to/lastmile_qr_scan"}, "type": "electric_scooter", "name": "506feafad9e1443e8280d28b0343d2ca", "is_reserved": 0, "lon": -77.07244233333333, "is_disabled": 0, "fusion_lat": 0.0, "lat": 38.93434033333333, "bike_id": "506feafad9e1443e8280d28b0343d2ca", "fusion_lon": 0.0}, {"rental_uris": {"ios": "https://dc.lft.to/lastmile_qr_scan", "android": "https://dc.lft.to/lastmile_qr_scan"}, "type": "electric_scooter", "name": "5d3758b738adf82203a744a647006a58", "is_reserved": 0, "lon": -77.05523066666667, "is_disabled": 0, "fusion_lat": 0.0, "lat": 38.907713, "bike_id": "5d3758b738adf82203a744a647006a58", "fusion_lon": 0.0}, {"rental_uris": {"ios": "https://dc.lft.to/lastmile_qr_scan", "android": "https://dc.lft.to/lastmile_qr_scan"}, "type": "electric_scooter", "name": "1ba98e56287d46569861d69e74621987", "is_reserved": 0, "lon": -76.92921783333334, "is_disabled": 0, "fusion_lat": 0.0, "lat": 38.886598166666666, "bike_id": "1ba98e56287d46569861d69e74621987", "fusion_lon": 0.0}, {"rental_uris": {"ios": "https://dc.lft.to/lastmile_qr_scan", "android": "https://dc.lft.to/lastmile_qr_scan"}, "type": "electric_scooter", "name": "e6a8c10ece153249110f89e5e4fd66c3", "is_reserved": 0, "lon": -76.9713395, "is_disabled": 0, "fusion_lat": 0.0, "lat": 38.8786625, "bike_id": "e6a8c10ece153249110f89e5e4fd66c3", "fusion_lon": 0.0}, {"rental_uris": {"ios": "https://dc.lft.to/lastmile_qr_scan", "android": "https://dc.lft.to/lastmile_qr_scan"}, "type": "electric_scooter", "name": "83386dd0a119d8edf094184747f4ed51", "is_reserved": 0, "lon": -77.01989083333333, "is_disabled": 0, "fusion_lat": 0.0, "lat": 38.93075566666667, "bike_id": "83386dd0a119d8edf094184747f4ed51", "fusion_lon": 0.0}, {"rental_uris": {"ios": "https://dc.lft.to/lastmile_qr_scan", "android": "https://dc.lft.to/lastmile_qr_scan"}, "type": "electric_scooter", "name": "e3b193dd4d316160749ca4ba730f1ee9", "is_reserved": 0, "lon": -77.04339783333333, "is_disabled": 0, "fusion_lat": 0.0, "lat": 38.922418666666665, "bike_id": "e3b193dd4d316160749ca4ba730f1ee9", "fusion_lon": 0.0}, {"rental_uris": {"ios": "https://dc.lft.to/lastmile_qr_scan", "android": "https://dc.lft.to/lastmile_qr_scan"}, "type": "electric_scooter", "name": "28392351ddc5f31f0753a29634c6f0c0", "is_reserved": 0, "lon": -77.02445333333333, "is_disabled": 0, "fusion_lat": 0.0, "lat": 38.956364, "bike_id": "28392351ddc5f31f0753a29634c6f0c0", "fusion_lon": 0.0}, {"rental_uris": {"ios": "https://dc.lft.to/lastmile_qr_scan", "android": "https://dc.lft.to/lastmile_qr_scan"}, "type": "electric_scooter", "name": "c715a874e721370ecec9fcb52a347549", "is_reserved": 0, "lon": -77.07088183333333, "is_disabled": 0, "fusion_lat": 0.0, "lat": 38.95323416666667, "bike_id": "c715a874e721370ecec9fcb52a347549", "fusion_lon": 0.0}, {"rental_uris": {"ios": "https://dc.lft.to/lastmile_qr_scan", "android": "https://dc.lft.to/lastmile_qr_scan"}, "type": "electric_scooter", "name": "be2afc4c8cd4b0f9922763ed510928c5", "is_reserved": 0, "lon": -77.04675583333334, "is_disabled": 0, "fusion_lat": 0.0, "lat": 38.892272166666665, "bike_id": "be2afc4c8cd4b0f9922763ed510928c5", "fusion_lon": 0.0}, {"rental_uris": {"ios": "https://dc.lft.to/lastmile_qr_scan", "android": "https://dc.lft.to/lastmile_qr_scan"}, "type": "electric_scooter", "name": "59a473621b81688e5e81498b60ed8320", "is_reserved": 0, "lon": -77.03654283333333, "is_disabled": 0, "fusion_lat": 0.0, "lat": 38.95462066666666, "bike_id": "59a473621b81688e5e81498b60ed8320", "fusion_lon": 0.0}, {"rental_uris": {"ios": "https://dc.lft.to/lastmile_qr_scan", "android": "https://dc.lft.to/lastmile_qr_scan"}, "type": "electric_scooter", "name": "010f4fcd9f8aa66bcc3fbeb1c4360e5f", "is_reserved": 0, "lon": -77.019796, "is_disabled": 0, "fusion_lat": 0.0, "lat": 38.875982, "bike_id": "010f4fcd9f8aa66bcc3fbeb1c4360e5f", "fusion_lon": 0.0}, {"rental_uris": {"ios": "https://dc.lft.to/lastmile_qr_scan", "android": "https://dc.lft.to/lastmile_qr_scan"}, "type": "electric_scooter", "name": "def01278a532cc464a395f728901843b", "is_reserved": 0, "lon": -76.99566966666667, "is_disabled": 0, "fusion_lat": 0.0, "lat": 38.926813333333335, "bike_id": "def01278a532cc464a395f728901843b", "fusion_lon": 0.0}, {"rental_uris": {"ios": "https://dc.lft.to/lastmile_qr_scan", "android": "https://dc.lft.to/lastmile_qr_scan"}, "type": "electric_scooter", "name": "0b58a70b1780cbe0040feb369fd52709", "is_reserved": 0, "lon": -77.04197616666667, "is_disabled": 0, "fusion_lat": 0.0, "lat": 38.922058666666665, "bike_id": "0b58a70b1780cbe0040feb369fd52709", "fusion_lon": 0.0}, {"rental_uris": {"ios": "https://dc.lft.to/lastmile_qr_scan", "android": "https://dc.lft.to/lastmile_qr_scan"}, "type": "electric_scooter", "name": "432f60a32d1b367ab5c74403e801af08", "is_reserved": 0, "lon": -77.07291816666667, "is_disabled": 0, "fusion_lat": 0.0, "lat": 38.914460166666665, "bike_id": "432f60a32d1b367ab5c74403e801af08", "fusion_lon": 0.0}, {"rental_uris": {"ios": "https://dc.lft.to/lastmile_qr_scan", "android": "https://dc.lft.to/lastmile_qr_scan"}, "type": "electric_scooter", "name": "7f1cf899c21c9c45b5d17705b6ba3604", "is_reserved": 0, "lon": -76.98733533333333, "is_disabled": 0, "fusion_lat": 0.0, "lat": 38.842216666666666, "bike_id": "7f1cf899c21c9c45b5d17705b6ba3604", "fusion_lon": 0.0}, {"rental_uris": {"ios": "https://dc.lft.to/lastmile_qr_scan", "android": "https://dc.lft.to/lastmile_qr_scan"}, "type": "electric_scooter", "name": "4276aa70bc88549c81bcf814c6897c8f", "is_reserved": 0, "lon": -77.017064, "is_disabled": 0, "fusion_lat": 0.0, "lat": 38.904751166666664, "bike_id": "4276aa70bc88549c81bcf814c6897c8f", "fusion_lon": 0.0}, {"rental_uris": {"ios": "https://dc.lft.to/lastmile_qr_scan", "android": "https://dc.lft.to/lastmile_qr_scan"}, "type": "electric_scooter", "name": "362b59671e2d91d52763d8320160a559", "is_reserved": 0, "lon": -77.02438966666666, "is_disabled": 0, "fusion_lat": 0.0, "lat": 38.920724, "bike_id": "362b59671e2d91d52763d8320160a559", "fusion_lon": 0.0}, {"rental_uris": {"ios": "https://dc.lft.to/lastmile_qr_scan", "android": "https://dc.lft.to/lastmile_qr_scan"}, "type": "electric_scooter", "name": "9be52783bcea75aa335399139bc82665", "is_reserved": 0, "lon": -77.035215, "is_disabled": 0, "fusion_lat": 0.0, "lat": 38.93398666666667, "bike_id": "9be52783bcea75aa335399139bc82665", "fusion_lon": 0.0}, {"rental_uris": {"ios": "https://dc.lft.to/lastmile_qr_scan", "android": "https://dc.lft.to/lastmile_qr_scan"}, "type": "electric_bike", "name": "9b0dc3ff6a8a105e44b9ef1c2fea31cf", "is_reserved": 0, "lon": -76.97323066666667, "is_disabled": 0, "fusion_lat": 0.0, "lat": 38.8578295, "bike_id": "9b0dc3ff6a8a105e44b9ef1c2fea31cf", "fusion_lon": 0.0}, {"rental_uris": {"ios": "https://dc.lft.to/lastmile_qr_scan", "android": "https://dc.lft.to/lastmile_qr_scan"}, "type": "electric_scooter", "name": "a19529fc0e9060e51ba1663c7a9a5ab6", "is_reserved": 0, "lon": -77.0532575, "is_disabled": 0, "fusion_lat": 0.0, "lat": 38.92355033333333, "bike_id": "a19529fc0e9060e51ba1663c7a9a5ab6", "fusion_lon": 0.0}, {"rental_uris": {"ios": "https://dc.lft.to/lastmile_qr_scan", "android": "https://dc.lft.to/lastmile_qr_scan"}, "type": "electric_scooter", "name": "7b7f9bd8d22de927da6bd263d0af0a4a", "is_reserved": 0, "lon": -77.02449683333333, "is_disabled": 0, "fusion_lat": 0.0, "lat": 38.9497795, "bike_id": "7b7f9bd8d22de927da6bd263d0af0a4a", "fusion_lon": 0.0}, {"rental_uris": {"ios": "https://dc.lft.to/lastmile_qr_scan", "android": "https://dc.lft.to/lastmile_qr_scan"}, "type": "electric_scooter", "name": "f13df04d35a1e8152f30f212a03dbce2", "is_reserved": 0, "lon": -77.025469, "is_disabled": 0, "fusion_lat": 0.0, "lat": 38.90726316666667, "bike_id": "f13df04d35a1e8152f30f212a03dbce2", "fusion_lon": 0.0}, {"rental_uris": {"ios": "https://dc.lft.to/lastmile_qr_scan", "android": "https://dc.lft.to/lastmile_qr_scan"}, "type": "electric_scooter", "name": "1966c1a80630220d18a2a4cee48e2166", "is_reserved": 0, "lon": -77.01095883333333, "is_disabled": 0, "fusion_lat": 0.0, "lat": 38.906877333333334, "bike_id": "1966c1a80630220d18a2a4cee48e2166", "fusion_lon": 0.0}, {"rental_uris": {"ios": "https://dc.lft.to/lastmile_qr_scan", "android": "https://dc.lft.to/lastmile_qr_scan"}, "type": "electric_scooter", "name": "d03e85e93c485c2100808db55a056446", "is_reserved": 0, "lon": -77.05994916666667, "is_disabled": 0, "fusion_lat": 0.0, "lat": 38.90247383333333, "bike_id": "d03e85e93c485c2100808db55a056446", "fusion_lon": 0.0}, {"rental_uris": {"ios": "https://dc.lft.to/lastmile_qr_scan", "android": "https://dc.lft.to/lastmile_qr_scan"}, "type": "electric_scooter", "name": "8423e81555d8c5a8fd1bfbea283e59e4", "is_reserved": 0, "lon": -77.04472483333333, "is_disabled": 0, "fusion_lat": 0.0, "lat": 38.91532316666667, "bike_id": "8423e81555d8c5a8fd1bfbea283e59e4", "fusion_lon": 0.0}, {"rental_uris": {"ios": "https://dc.lft.to/lastmile_qr_scan", "android": "https://dc.lft.to/lastmile_qr_scan"}, "type": "electric_scooter", "name": "536ba566fccad4d47d01bccce504dbf3", "is_reserved": 0, "lon": -77.002337, "is_disabled": 0, "fusion_lat": 0.0, "lat": 38.9004155, "bike_id": "536ba566fccad4d47d01bccce504dbf3", "fusion_lon": 0.0}, {"rental_uris": {"ios": "https://dc.lft.to/lastmile_qr_scan", "android": "https://dc.lft.to/lastmile_qr_scan"}, "type": "electric_scooter", "name": "de81f1d66ac34df8fd23b463bbc7bd22", "is_reserved": 0, "lon": -77.02952016666667, "is_disabled": 0, "fusion_lat": 0.0, "lat": 38.9026005, "bike_id": "de81f1d66ac34df8fd23b463bbc7bd22", "fusion_lon": 0.0}, {"rental_uris": {"ios": "https://dc.lft.to/lastmile_qr_scan", "android": "https://dc.lft.to/lastmile_qr_scan"}, "type": "electric_scooter", "name": "f48851f67835a801921f03aaa4f4488d", "is_reserved": 0, "lon": -76.99113883333334, "is_disabled": 0, "fusion_lat": 0.0, "lat": 38.90902216666667, "bike_id": "f48851f67835a801921f03aaa4f4488d", "fusion_lon": 0.0}, {"rental_uris": {"ios": "https://dc.lft.to/lastmile_qr_scan", "android": "https://dc.lft.to/lastmile_qr_scan"}, "type": "electric_scooter", "name": "80922740bce44a711cf4e61b6f2a3c55", "is_reserved": 0, "lon": -77.02732916666666, "is_disabled": 0, "fusion_lat": 0.0, "lat": 38.934622166666664, "bike_id": "80922740bce44a711cf4e61b6f2a3c55", "fusion_lon": 0.0}, {"rental_uris": {"ios": "https://dc.lft.to/lastmile_qr_scan", "android": "https://dc.lft.to/lastmile_qr_scan"}, "type": "electric_scooter", "name": "f7d9b93c9963e8a754ed9fe2c7a86624", "is_reserved": 0, "lon": -77.0035115, "is_disabled": 0, "fusion_lat": 0.0, "lat": 38.876575333333335, "bike_id": "f7d9b93c9963e8a754ed9fe2c7a86624", "fusion_lon": 0.0}, {"rental_uris": {"ios": "https://dc.lft.to/lastmile_qr_scan", "android": "https://dc.lft.to/lastmile_qr_scan"}, "type": "electric_scooter", "name": "1545f0cf8260d4c099ed0aca00efb5c3", "is_reserved": 0, "lon": -77.01984816666666, "is_disabled": 0, "fusion_lat": 0.0, "lat": 38.87600166666667, "bike_id": "1545f0cf8260d4c099ed0aca00efb5c3", "fusion_lon": 0.0}, {"rental_uris": {"ios": "https://dc.lft.to/lastmile_qr_scan", "android": "https://dc.lft.to/lastmile_qr_scan"}, "type": "electric_scooter", "name": "257566275ae4b4bdc02b325663bfa394", "is_reserved": 0, "lon": -77.03867366666667, "is_disabled": 0, "fusion_lat": 0.0, "lat": 38.9126805, "bike_id": "257566275ae4b4bdc02b325663bfa394", "fusion_lon": 0.0}, {"rental_uris": {"ios": "https://dc.lft.to/lastmile_qr_scan", "android": "https://dc.lft.to/lastmile_qr_scan"}, "type": "electric_bike", "name": "012b0f7f7d99ee61b3deb1dd90bf2da3", "is_reserved": 0, "lon": -77.12841716666667, "is_disabled": 0, "fusion_lat": 0.0, "lat": 38.8005485, "bike_id": "012b0f7f7d99ee61b3deb1dd90bf2da3", "fusion_lon": 0.0}, {"rental_uris": {"ios": "https://dc.lft.to/lastmile_qr_scan", "android": "https://dc.lft.to/lastmile_qr_scan"}, "type": "electric_scooter", "name": "2867503a74c23694238f52d7fc08f4a8", "is_reserved": 0, "lon": -77.0195125, "is_disabled": 0, "fusion_lat": 0.0, "lat": 38.95044816666667, "bike_id": "2867503a74c23694238f52d7fc08f4a8", "fusion_lon": 0.0}, {"rental_uris": {"ios": "https://dc.lft.to/lastmile_qr_scan", "android": "https://dc.lft.to/lastmile_qr_scan"}, "type": "electric_scooter", "name": "7f77c76298c59d18280b33a874b0a18c", "is_reserved": 0, "lon": -77.02392083333334, "is_disabled": 0, "fusion_lat": 0.0, "lat": 38.9096775, "bike_id": "7f77c76298c59d18280b33a874b0a18c", "fusion_lon": 0.0}, {"rental_uris": {"ios": "https://dc.lft.to/lastmile_qr_scan", "android": "https://dc.lft.to/lastmile_qr_scan"}, "type": "electric_scooter", "name": "83b79501af1def56dc879fb7239cddd5", "is_reserved": 0, "lon": -77.04695733333334, "is_disabled": 0, "fusion_lat": 0.0, "lat": 38.9205795, "bike_id": "83b79501af1def56dc879fb7239cddd5", "fusion_lon": 0.0}, {"rental_uris": {"ios": "https://dc.lft.to/lastmile_qr_scan", "android": "https://dc.lft.to/lastmile_qr_scan"}, "type": "electric_scooter", "name": "4741572e454de8223a5243d81b6e217e", "is_reserved": 0, "lon": -77.01180616666667, "is_disabled": 0, "fusion_lat": 0.0, "lat": 38.951548833333334, "bike_id": "4741572e454de8223a5243d81b6e217e", "fusion_lon": 0.0}, {"rental_uris": {"ios": "https://dc.lft.to/lastmile_qr_scan", "android": "https://dc.lft.to/lastmile_qr_scan"}, "type": "electric_scooter", "name": "3babbe37db206a3a9c82134ad8b7aece", "is_reserved": 0, "lon": -77.02041566666666, "is_disabled": 0, "fusion_lat": 0.0, "lat": 38.89435916666667, "bike_id": "3babbe37db206a3a9c82134ad8b7aece", "fusion_lon": 0.0}, {"rental_uris": {"ios": "https://dc.lft.to/lastmile_qr_scan", "android": "https://dc.lft.to/lastmile_qr_scan"}, "type": "electric_scooter", "name": "fd60bfada1e7c206a200bf9ac48908f6", "is_reserved": 0, "lon": -77.034729, "is_disabled": 0, "fusion_lat": 0.0, "lat": 38.905566666666665, "bike_id": "fd60bfada1e7c206a200bf9ac48908f6", "fusion_lon": 0.0}, {"rental_uris": {"ios": "https://dc.lft.to/lastmile_qr_scan", "android": "https://dc.lft.to/lastmile_qr_scan"}, "type": "electric_bike", "name": "cb4b84a2b2d5b641dce725f75ad8d55b", "is_reserved": 0, "lon": -76.97549416666666, "is_disabled": 0, "fusion_lat": 0.0, "lat": 38.904309833333336, "bike_id": "cb4b84a2b2d5b641dce725f75ad8d55b", "fusion_lon": 0.0}, {"rental_uris": {"ios": "https://dc.lft.to/lastmile_qr_scan", "android": "https://dc.lft.to/lastmile_qr_scan"}, "type": "electric_scooter", "name": "b7a9a5c1f44673ea3f51b79bf889c5f3", "is_reserved": 0, "lon": -77.032722, "is_disabled": 0, "fusion_lat": 0.0, "lat": 38.932545166666664, "bike_id": "b7a9a5c1f44673ea3f51b79bf889c5f3", "fusion_lon": 0.0}, {"rental_uris": {"ios": "https://dc.lft.to/lastmile_qr_scan", "android": "https://dc.lft.to/lastmile_qr_scan"}, "type": "electric_bike", "name": "2965fc2a90da55fc5168faf0ca9702a0", "is_reserved": 0, "lon": -77.0185365, "is_disabled": 0, "fusion_lat": 0.0, "lat": 38.931130333333336, "bike_id": "2965fc2a90da55fc5168faf0ca9702a0", "fusion_lon": 0.0}, {"rental_uris": {"ios": "https://dc.lft.to/lastmile_qr_scan", "android": "https://dc.lft.to/lastmile_qr_scan"}, "type": "electric_scooter", "name": "8ae628a1bd1d8b06ea0c2eda3174965c", "is_reserved": 0, "lon": -77.00157533333334, "is_disabled": 0, "fusion_lat": 0.0, "lat": 38.821349, "bike_id": "8ae628a1bd1d8b06ea0c2eda3174965c", "fusion_lon": 0.0}, {"rental_uris": {"ios": "https://dc.lft.to/lastmile_qr_scan", "android": "https://dc.lft.to/lastmile_qr_scan"}, "type": "electric_scooter", "name": "793019c6671219f6c318fbb6cbbe1640", "is_reserved": 0, "lon": -77.03265033333334, "is_disabled": 0, "fusion_lat": 0.0, "lat": 38.92900516666667, "bike_id": "793019c6671219f6c318fbb6cbbe1640", "fusion_lon": 0.0}, {"rental_uris": {"ios": "https://dc.lft.to/lastmile_qr_scan", "android": "https://dc.lft.to/lastmile_qr_scan"}, "type": "electric_scooter", "name": "ac188f947db83339e73151dac6e98dc5", "is_reserved": 0, "lon": -77.07563516666667, "is_disabled": 0, "fusion_lat": 0.0, "lat": 38.906392, "bike_id": "ac188f947db83339e73151dac6e98dc5", "fusion_lon": 0.0}, {"rental_uris": {"ios": "https://dc.lft.to/lastmile_qr_scan", "android": "https://dc.lft.to/lastmile_qr_scan"}, "type": "electric_scooter", "name": "8573d8a4e6f7f8d96ccea52abbc9e3ce", "is_reserved": 0, "lon": -77.07257366666667, "is_disabled": 0, "fusion_lat": 0.0, "lat": 38.93436883333333, "bike_id": "8573d8a4e6f7f8d96ccea52abbc9e3ce", "fusion_lon": 0.0}, {"rental_uris": {"ios": "https://dc.lft.to/lastmile_qr_scan", "android": "https://dc.lft.to/lastmile_qr_scan"}, "type": "electric_bike", "name": "f560f5800ef77a0bec54dff54e87cdb1", "is_reserved": 0, "lon": -76.95158283333333, "is_disabled": 0, "fusion_lat": 0.0, "lat": 39.08439883333333, "bike_id": "f560f5800ef77a0bec54dff54e87cdb1", "fusion_lon": 0.0}, {"rental_uris": {"ios": "https://dc.lft.to/lastmile_qr_scan", "android": "https://dc.lft.to/lastmile_qr_scan"}, "type": "electric_scooter", "name": "1a9445832d136c2e29b16be89f61d9cc", "is_reserved": 0, "lon": -77.02643116666667, "is_disabled": 0, "fusion_lat": 0.0, "lat": 38.89600933333333, "bike_id": "1a9445832d136c2e29b16be89f61d9cc", "fusion_lon": 0.0}, {"rental_uris": {"ios": "https://dc.lft.to/lastmile_qr_scan", "android": "https://dc.lft.to/lastmile_qr_scan"}, "type": "electric_scooter", "name": "6eb45f68a9c443d8559ecc35805a5859", "is_reserved": 0, "lon": -77.01343866666667, "is_disabled": 0, "fusion_lat": 0.0, "lat": 38.919137666666664, "bike_id": "6eb45f68a9c443d8559ecc35805a5859", "fusion_lon": 0.0}, {"rental_uris": {"ios": "https://dc.lft.to/lastmile_qr_scan", "android": "https://dc.lft.to/lastmile_qr_scan"}, "type": "electric_scooter", "name": "d797dd3effd2776e260a2aa87f71df6d", "is_reserved": 0, "lon": -77.022297, "is_disabled": 0, "fusion_lat": 0.0, "lat": 38.891943, "bike_id": "d797dd3effd2776e260a2aa87f71df6d", "fusion_lon": 0.0}, {"rental_uris": {"ios": "https://dc.lft.to/lastmile_qr_scan", "android": "https://dc.lft.to/lastmile_qr_scan"}, "type": "electric_scooter", "name": "e76eb118d7749878ac52c39e5f3fe720", "is_reserved": 0, "lon": -77.02973583333333, "is_disabled": 0, "fusion_lat": 0.0, "lat": 38.92320216666667, "bike_id": "e76eb118d7749878ac52c39e5f3fe720", "fusion_lon": 0.0}, {"rental_uris": {"ios": "https://dc.lft.to/lastmile_qr_scan", "android": "https://dc.lft.to/lastmile_qr_scan"}, "type": "electric_scooter", "name": "006b3b9efca9da16d5378518357ce618", "is_reserved": 0, "lon": -77.0025535, "is_disabled": 0, "fusion_lat": 0.0, "lat": 38.902629166666664, "bike_id": "006b3b9efca9da16d5378518357ce618", "fusion_lon": 0.0}, {"rental_uris": {"ios": "https://dc.lft.to/lastmile_qr_scan", "android": "https://dc.lft.to/lastmile_qr_scan"}, "type": "electric_scooter", "name": "acfd76968c19effb4c1b47b677927403", "is_reserved": 0, "lon": -77.02093966666666, "is_disabled": 0, "fusion_lat": 0.0, "lat": 38.92912483333333, "bike_id": "acfd76968c19effb4c1b47b677927403", "fusion_lon": 0.0}, {"rental_uris": {"ios": "https://dc.lft.to/lastmile_qr_scan", "android": "https://dc.lft.to/lastmile_qr_scan"}, "type": "electric_scooter", "name": "f3bfd59a5c76cf15acdaf9a24758c886", "is_reserved": 0, "lon": -77.0272645, "is_disabled": 0, "fusion_lat": 0.0, "lat": 38.910678, "bike_id": "f3bfd59a5c76cf15acdaf9a24758c886", "fusion_lon": 0.0}, {"rental_uris": {"ios": "https://dc.lft.to/lastmile_qr_scan", "android": "https://dc.lft.to/lastmile_qr_scan"}, "type": "electric_scooter", "name": "b3fb4ae5dbce51b670f9cfa1148f9d28", "is_reserved": 0, "lon": -77.003544, "is_disabled": 0, "fusion_lat": 0.0, "lat": 38.876636, "bike_id": "b3fb4ae5dbce51b670f9cfa1148f9d28", "fusion_lon": 0.0}, {"rental_uris": {"ios": "https://dc.lft.to/lastmile_qr_scan", "android": "https://dc.lft.to/lastmile_qr_scan"}, "type": "electric_scooter", "name": "ae658ac71ae90331215f10240d6c5aa8", "is_reserved": 0, "lon": -77.0613645, "is_disabled": 0, "fusion_lat": 0.0, "lat": 38.903800333333336, "bike_id": "ae658ac71ae90331215f10240d6c5aa8", "fusion_lon": 0.0}, {"rental_uris": {"ios": "https://dc.lft.to/lastmile_qr_scan", "android": "https://dc.lft.to/lastmile_qr_scan"}, "type": "electric_scooter", "name": "c716c6b94eb8b4f9be3d3833d1ccd2eb", "is_reserved": 0, "lon": -77.00310433333334, "is_disabled": 0, "fusion_lat": 0.0, "lat": 38.877140833333335, "bike_id": "c716c6b94eb8b4f9be3d3833d1ccd2eb", "fusion_lon": 0.0}, {"rental_uris": {"ios": "https://dc.lft.to/lastmile_qr_scan", "android": "https://dc.lft.to/lastmile_qr_scan"}, "type": "electric_scooter", "name": "4dc7ab89ede3379365c67d93cfcef92e", "is_reserved": 0, "lon": -77.01237916666666, "is_disabled": 0, "fusion_lat": 0.0, "lat": 38.881062666666665, "bike_id": "4dc7ab89ede3379365c67d93cfcef92e", "fusion_lon": 0.0}, {"rental_uris": {"ios": "https://dc.lft.to/lastmile_qr_scan", "android": "https://dc.lft.to/lastmile_qr_scan"}, "type": "electric_scooter", "name": "b66386ebebcfd6a14ae5bfdc848b4418", "is_reserved": 0, "lon": -77.00397366666667, "is_disabled": 0, "fusion_lat": 0.0, "lat": 38.8745755, "bike_id": "b66386ebebcfd6a14ae5bfdc848b4418", "fusion_lon": 0.0}, {"rental_uris": {"ios": "https://dc.lft.to/lastmile_qr_scan", "android": "https://dc.lft.to/lastmile_qr_scan"}, "type": "electric_scooter", "name": "612ec1a7ef71a029587354e52f0ce5fd", "is_reserved": 0, "lon": -77.016382, "is_disabled": 0, "fusion_lat": 0.0, "lat": 38.915888333333335, "bike_id": "612ec1a7ef71a029587354e52f0ce5fd", "fusion_lon": 0.0}, {"rental_uris": {"ios": "https://dc.lft.to/lastmile_qr_scan", "android": "https://dc.lft.to/lastmile_qr_scan"}, "type": "electric_scooter", "name": "545853a9403fa49f7df117150ecaea87", "is_reserved": 0, "lon": -77.00480816666666, "is_disabled": 0, "fusion_lat": 0.0, "lat": 38.874618, "bike_id": "545853a9403fa49f7df117150ecaea87", "fusion_lon": 0.0}, {"rental_uris": {"ios": "https://dc.lft.to/lastmile_qr_scan", "android": "https://dc.lft.to/lastmile_qr_scan"}, "type": "electric_scooter", "name": "3a6a84ea4d4ff362e83235ee6840affb", "is_reserved": 0, "lon": -77.02777116666667, "is_disabled": 0, "fusion_lat": 0.0, "lat": 38.887493666666664, "bike_id": "3a6a84ea4d4ff362e83235ee6840affb", "fusion_lon": 0.0}, {"rental_uris": {"ios": "https://dc.lft.to/lastmile_qr_scan", "android": "https://dc.lft.to/lastmile_qr_scan"}, "type": "electric_scooter", "name": "82b3e715eff8380493bcb268bbdf8441", "is_reserved": 0, "lon": -77.00841433333333, "is_disabled": 0, "fusion_lat": 0.0, "lat": 38.9125155, "bike_id": "82b3e715eff8380493bcb268bbdf8441", "fusion_lon": 0.0}, {"rental_uris": {"ios": "https://dc.lft.to/lastmile_qr_scan", "android": "https://dc.lft.to/lastmile_qr_scan"}, "type": "electric_scooter", "name": "0d57d5b7cae0fa35b60c502e70d3bca3", "is_reserved": 0, "lon": -77.04614266666667, "is_disabled": 0, "fusion_lat": 0.0, "lat": 38.90151766666666, "bike_id": "0d57d5b7cae0fa35b60c502e70d3bca3", "fusion_lon": 0.0}, {"rental_uris": {"ios": "https://dc.lft.to/lastmile_qr_scan", "android": "https://dc.lft.to/lastmile_qr_scan"}, "type": "electric_scooter", "name": "28fdd0c75788930a5711d5c8d4d081d6", "is_reserved": 0, "lon": -77.038715, "is_disabled": 0, "fusion_lat": 0.0, "lat": 38.912678, "bike_id": "28fdd0c75788930a5711d5c8d4d081d6", "fusion_lon": 0.0}, {"rental_uris": {"ios": "https://dc.lft.to/lastmile_qr_scan", "android": "https://dc.lft.to/lastmile_qr_scan"}, "type": "electric_scooter", "name": "6ddd3b5fbb7004b3b671e57ca6e4b50f", "is_reserved": 0, "lon": -77.00589866666667, "is_disabled": 0, "fusion_lat": 0.0, "lat": 38.900392833333335, "bike_id": "6ddd3b5fbb7004b3b671e57ca6e4b50f", "fusion_lon": 0.0}, {"rental_uris": {"ios": "https://dc.lft.to/lastmile_qr_scan", "android": "https://dc.lft.to/lastmile_qr_scan"}, "type": "electric_scooter", "name": "8d0a4cabca7eb623c8a859801177e583", "is_reserved": 0, "lon": -77.041313, "is_disabled": 0, "fusion_lat": 0.0, "lat": 38.921137333333334, "bike_id": "8d0a4cabca7eb623c8a859801177e583", "fusion_lon": 0.0}, {"rental_uris": {"ios": "https://dc.lft.to/lastmile_qr_scan", "android": "https://dc.lft.to/lastmile_qr_scan"}, "type": "electric_scooter", "name": "05e8c583a8cde16e94c81020b338b5d6", "is_reserved": 0, "lon": -77.025244, "is_disabled": 0, "fusion_lat": 0.0, "lat": 38.940359666666666, "bike_id": "05e8c583a8cde16e94c81020b338b5d6", "fusion_lon": 0.0}, {"rental_uris": {"ios": "https://dc.lft.to/lastmile_qr_scan", "android": "https://dc.lft.to/lastmile_qr_scan"}, "type": "electric_scooter", "name": "7e879c670b2ae774df6a5b1caebaa376", "is_reserved": 0, "lon": -77.06807516666667, "is_disabled": 0, "fusion_lat": 0.0, "lat": 38.90522, "bike_id": "7e879c670b2ae774df6a5b1caebaa376", "fusion_lon": 0.0}, {"rental_uris": {"ios": "https://dc.lft.to/lastmile_qr_scan", "android": "https://dc.lft.to/lastmile_qr_scan"}, "type": "electric_scooter", "name": "922519b297cb4f04ca52b3bfed3972c0", "is_reserved": 0, "lon": -76.99036533333333, "is_disabled": 0, "fusion_lat": 0.0, "lat": 38.888739, "bike_id": "922519b297cb4f04ca52b3bfed3972c0", "fusion_lon": 0.0}, {"rental_uris": {"ios": "https://dc.lft.to/lastmile_qr_scan", "android": "https://dc.lft.to/lastmile_qr_scan"}, "type": "electric_scooter", "name": "eac6d0f9fcbf1375b5037d9e7a99a528", "is_reserved": 0, "lon": -77.04676983333333, "is_disabled": 0, "fusion_lat": 0.0, "lat": 38.9072355, "bike_id": "eac6d0f9fcbf1375b5037d9e7a99a528", "fusion_lon": 0.0}, {"rental_uris": {"ios": "https://dc.lft.to/lastmile_qr_scan", "android": "https://dc.lft.to/lastmile_qr_scan"}, "type": "electric_scooter", "name": "f59bf58bcf2524f5d7abcf1f6ade99c3", "is_reserved": 0, "lon": -77.07201433333333, "is_disabled": 0, "fusion_lat": 0.0, "lat": 38.9126875, "bike_id": "f59bf58bcf2524f5d7abcf1f6ade99c3", "fusion_lon": 0.0}, {"rental_uris": {"ios": "https://dc.lft.to/lastmile_qr_scan", "android": "https://dc.lft.to/lastmile_qr_scan"}, "type": "electric_scooter", "name": "b6d8fde4a6a3f51fe165832bcb102da5", "is_reserved": 0, "lon": -77.0234225, "is_disabled": 0, "fusion_lat": 0.0, "lat": 38.8813615, "bike_id": "b6d8fde4a6a3f51fe165832bcb102da5", "fusion_lon": 0.0}, {"rental_uris": {"ios": "https://dc.lft.to/lastmile_qr_scan", "android": "https://dc.lft.to/lastmile_qr_scan"}, "type": "electric_scooter", "name": "6fdaedab466d5bc2d8873866b2677d33", "is_reserved": 0, "lon": -77.04552533333333, "is_disabled": 0, "fusion_lat": 0.0, "lat": 38.9132455, "bike_id": "6fdaedab466d5bc2d8873866b2677d33", "fusion_lon": 0.0}, {"rental_uris": {"ios": "https://dc.lft.to/lastmile_qr_scan", "android": "https://dc.lft.to/lastmile_qr_scan"}, "type": "electric_scooter", "name": "c6b757496b2bc5bf113c7097c98ca857", "is_reserved": 0, "lon": -77.03325616666666, "is_disabled": 0, "fusion_lat": 0.0, "lat": 38.88778116666667, "bike_id": "c6b757496b2bc5bf113c7097c98ca857", "fusion_lon": 0.0}, {"rental_uris": {"ios": "https://dc.lft.to/lastmile_qr_scan", "android": "https://dc.lft.to/lastmile_qr_scan"}, "type": "electric_scooter", "name": "324a14697eb0971644b5b5a89a9a9a82", "is_reserved": 0, "lon": -77.02764566666667, "is_disabled": 0, "fusion_lat": 0.0, "lat": 38.957835, "bike_id": "324a14697eb0971644b5b5a89a9a9a82", "fusion_lon": 0.0}, {"rental_uris": {"ios": "https://dc.lft.to/lastmile_qr_scan", "android": "https://dc.lft.to/lastmile_qr_scan"}, "type": "electric_scooter", "name": "a0154c49338fcebc77915ab7bdae70ad", "is_reserved": 0, "lon": -76.94865566666667, "is_disabled": 0, "fusion_lat": 0.0, "lat": 38.894918, "bike_id": "a0154c49338fcebc77915ab7bdae70ad", "fusion_lon": 0.0}, {"rental_uris": {"ios": "https://dc.lft.to/lastmile_qr_scan", "android": "https://dc.lft.to/lastmile_qr_scan"}, "type": "electric_scooter", "name": "787448230e534b5fdc833916727f9bf3", "is_reserved": 0, "lon": -76.92639466666667, "is_disabled": 0, "fusion_lat": 0.0, "lat": 38.88372566666666, "bike_id": "787448230e534b5fdc833916727f9bf3", "fusion_lon": 0.0}, {"rental_uris": {"ios": "https://dc.lft.to/lastmile_qr_scan", "android": "https://dc.lft.to/lastmile_qr_scan"}, "type": "electric_scooter", "name": "0000d7ad34d6d94f88f437f7ae75a886", "is_reserved": 0, "lon": -77.050282, "is_disabled": 0, "fusion_lat": 0.0, "lat": 38.896751, "bike_id": "0000d7ad34d6d94f88f437f7ae75a886", "fusion_lon": 0.0}, {"rental_uris": {"ios": "https://dc.lft.to/lastmile_qr_scan", "android": "https://dc.lft.to/lastmile_qr_scan"}, "type": "electric_scooter", "name": "fa28b7a3712f3c7ff8d6c6b1a05e5f2c", "is_reserved": 0, "lon": -77.04785733333334, "is_disabled": 0, "fusion_lat": 0.0, "lat": 38.908684, "bike_id": "fa28b7a3712f3c7ff8d6c6b1a05e5f2c", "fusion_lon": 0.0}, {"rental_uris": {"ios": "https://dc.lft.to/lastmile_qr_scan", "android": "https://dc.lft.to/lastmile_qr_scan"}, "type": "electric_scooter", "name": "e9224fcf159e5e3b49e4590292d367f7", "is_reserved": 0, "lon": -77.03627616666667, "is_disabled": 0, "fusion_lat": 0.0, "lat": 38.9036685, "bike_id": "e9224fcf159e5e3b49e4590292d367f7", "fusion_lon": 0.0}, {"rental_uris": {"ios": "https://dc.lft.to/lastmile_qr_scan", "android": "https://dc.lft.to/lastmile_qr_scan"}, "type": "electric_scooter", "name": "4f360890b479a39a0bc5128cb3a5a7a9", "is_reserved": 0, "lon": -76.9854545, "is_disabled": 0, "fusion_lat": 0.0, "lat": 38.91297483333334, "bike_id": "4f360890b479a39a0bc5128cb3a5a7a9", "fusion_lon": 0.0}, {"rental_uris": {"ios": "https://dc.lft.to/lastmile_qr_scan", "android": "https://dc.lft.to/lastmile_qr_scan"}, "type": "electric_scooter", "name": "789a62a2b37e06bfebcff3d91c377258", "is_reserved": 0, "lon": -77.00602133333334, "is_disabled": 0, "fusion_lat": 0.0, "lat": 38.87570933333333, "bike_id": "789a62a2b37e06bfebcff3d91c377258", "fusion_lon": 0.0}, {"rental_uris": {"ios": "https://dc.lft.to/lastmile_qr_scan", "android": "https://dc.lft.to/lastmile_qr_scan"}, "type": "electric_scooter", "name": "6ec3f3fa7d9147bd658db7ac3b6b23f6", "is_reserved": 0, "lon": -77.04346033333333, "is_disabled": 0, "fusion_lat": 0.0, "lat": 38.921668333333336, "bike_id": "6ec3f3fa7d9147bd658db7ac3b6b23f6", "fusion_lon": 0.0}, {"rental_uris": {"ios": "https://dc.lft.to/lastmile_qr_scan", "android": "https://dc.lft.to/lastmile_qr_scan"}, "type": "electric_scooter", "name": "6adf067ac349781cf1b3086ca937485c", "is_reserved": 0, "lon": -77.03335316666667, "is_disabled": 0, "fusion_lat": 0.0, "lat": 38.91417083333333, "bike_id": "6adf067ac349781cf1b3086ca937485c", "fusion_lon": 0.0}, {"rental_uris": {"ios": "https://dc.lft.to/lastmile_qr_scan", "android": "https://dc.lft.to/lastmile_qr_scan"}, "type": "electric_scooter", "name": "ee36583c48f328593b094a0afee7cf95", "is_reserved": 0, "lon": -77.02304883333333, "is_disabled": 0, "fusion_lat": 0.0, "lat": 38.9183835, "bike_id": "ee36583c48f328593b094a0afee7cf95", "fusion_lon": 0.0}, {"rental_uris": {"ios": "https://dc.lft.to/lastmile_qr_scan", "android": "https://dc.lft.to/lastmile_qr_scan"}, "type": "electric_scooter", "name": "5aa22f6de43f301ae8a76e18ec1dab55", "is_reserved": 0, "lon": -77.04175316666667, "is_disabled": 0, "fusion_lat": 0.0, "lat": 38.90145233333333, "bike_id": "5aa22f6de43f301ae8a76e18ec1dab55", "fusion_lon": 0.0}, {"rental_uris": {"ios": "https://dc.lft.to/lastmile_qr_scan", "android": "https://dc.lft.to/lastmile_qr_scan"}, "type": "electric_scooter", "name": "a7c15a71f6bce5291d075925aa3bcaa4", "is_reserved": 0, "lon": -76.98889216666667, "is_disabled": 0, "fusion_lat": 0.0, "lat": 38.899521666666665, "bike_id": "a7c15a71f6bce5291d075925aa3bcaa4", "fusion_lon": 0.0}, {"rental_uris": {"ios": "https://dc.lft.to/lastmile_qr_scan", "android": "https://dc.lft.to/lastmile_qr_scan"}, "type": "electric_scooter", "name": "958fd4a25e74089cd22cb3dc5b159d9f", "is_reserved": 0, "lon": -77.04488716666667, "is_disabled": 0, "fusion_lat": 0.0, "lat": 38.89220383333333, "bike_id": "958fd4a25e74089cd22cb3dc5b159d9f", "fusion_lon": 0.0}, {"rental_uris": {"ios": "https://dc.lft.to/lastmile_qr_scan", "android": "https://dc.lft.to/lastmile_qr_scan"}, "type": "electric_scooter", "name": "3d64158e7b6e9a00527ada9fcfd4081c", "is_reserved": 0, "lon": -77.07120033333334, "is_disabled": 0, "fusion_lat": 0.0, "lat": 38.905856166666666, "bike_id": "3d64158e7b6e9a00527ada9fcfd4081c", "fusion_lon": 0.0}, {"rental_uris": {"ios": "https://dc.lft.to/lastmile_qr_scan", "android": "https://dc.lft.to/lastmile_qr_scan"}, "type": "electric_scooter", "name": "150194772f7d7b2b2929e2b8eed28672", "is_reserved": 0, "lon": -76.99103116666667, "is_disabled": 0, "fusion_lat": 0.0, "lat": 38.85728783333333, "bike_id": "150194772f7d7b2b2929e2b8eed28672", "fusion_lon": 0.0}, {"rental_uris": {"ios": "https://dc.lft.to/lastmile_qr_scan", "android": "https://dc.lft.to/lastmile_qr_scan"}, "type": "electric_scooter", "name": "9f8cb727c1369b3255346934014c8783", "is_reserved": 0, "lon": -77.0132845, "is_disabled": 0, "fusion_lat": 0.0, "lat": 38.92030183333333, "bike_id": "9f8cb727c1369b3255346934014c8783", "fusion_lon": 0.0}, {"rental_uris": {"ios": "https://dc.lft.to/lastmile_qr_scan", "android": "https://dc.lft.to/lastmile_qr_scan"}, "type": "electric_scooter", "name": "a04c354f145688de7ba75c22b37c9db1", "is_reserved": 0, "lon": -77.04505, "is_disabled": 0, "fusion_lat": 0.0, "lat": 38.892272166666665, "bike_id": "a04c354f145688de7ba75c22b37c9db1", "fusion_lon": 0.0}, {"rental_uris": {"ios": "https://dc.lft.to/lastmile_qr_scan", "android": "https://dc.lft.to/lastmile_qr_scan"}, "type": "electric_scooter", "name": "12676a4a978009d816c9b8ea7627a35c", "is_reserved": 0, "lon": -77.01553016666666, "is_disabled": 0, "fusion_lat": 0.0, "lat": 38.902824, "bike_id": "12676a4a978009d816c9b8ea7627a35c", "fusion_lon": 0.0}, {"rental_uris": {"ios": "https://dc.lft.to/lastmile_qr_scan", "android": "https://dc.lft.to/lastmile_qr_scan"}, "type": "electric_scooter", "name": "32380de92ac3d1894f732770293e4435", "is_reserved": 0, "lon": -76.99479533333333, "is_disabled": 0, "fusion_lat": 0.0, "lat": 38.862140833333335, "bike_id": "32380de92ac3d1894f732770293e4435", "fusion_lon": 0.0}, {"rental_uris": {"ios": "https://dc.lft.to/lastmile_qr_scan", "android": "https://dc.lft.to/lastmile_qr_scan"}, "type": "electric_scooter", "name": "7297ef28806313d27adcf11c9c79fe1a", "is_reserved": 0, "lon": -77.05330016666667, "is_disabled": 0, "fusion_lat": 0.0, "lat": 38.90235066666666, "bike_id": "7297ef28806313d27adcf11c9c79fe1a", "fusion_lon": 0.0}, {"rental_uris": {"ios": "https://dc.lft.to/lastmile_qr_scan", "android": "https://dc.lft.to/lastmile_qr_scan"}, "type": "electric_scooter", "name": "051b092d3c903d239fef75998dd06cbd", "is_reserved": 0, "lon": -77.02286266666667, "is_disabled": 0, "fusion_lat": 0.0, "lat": 38.92418266666667, "bike_id": "051b092d3c903d239fef75998dd06cbd", "fusion_lon": 0.0}, {"rental_uris": {"ios": "https://dc.lft.to/lastmile_qr_scan", "android": "https://dc.lft.to/lastmile_qr_scan"}, "type": "electric_scooter", "name": "4d6c2bbda840f7c20a4bebb59e389eee", "is_reserved": 0, "lon": -77.04178483333334, "is_disabled": 0, "fusion_lat": 0.0, "lat": 38.903721833333336, "bike_id": "4d6c2bbda840f7c20a4bebb59e389eee", "fusion_lon": 0.0}, {"rental_uris": {"ios": "https://dc.lft.to/lastmile_qr_scan", "android": "https://dc.lft.to/lastmile_qr_scan"}, "type": "electric_scooter", "name": "59fbbe591946d7e7a6816c77a6e9b7cc", "is_reserved": 0, "lon": -76.93748816666667, "is_disabled": 0, "fusion_lat": 0.0, "lat": 38.89011633333333, "bike_id": "59fbbe591946d7e7a6816c77a6e9b7cc", "fusion_lon": 0.0}, {"rental_uris": {"ios": "https://dc.lft.to/lastmile_qr_scan", "android": "https://dc.lft.to/lastmile_qr_scan"}, "type": "electric_scooter", "name": "89da41a2e924fbf99cf0c73b4524583b", "is_reserved": 0, "lon": -77.0079275, "is_disabled": 0, "fusion_lat": 0.0, "lat": 38.87819833333333, "bike_id": "89da41a2e924fbf99cf0c73b4524583b", "fusion_lon": 0.0}, {"rental_uris": {"ios": "https://dc.lft.to/lastmile_qr_scan", "android": "https://dc.lft.to/lastmile_qr_scan"}, "type": "electric_scooter", "name": "a0cb9eb9b03b9cac40835a33a042b4bd", "is_reserved": 0, "lon": -77.03545916666667, "is_disabled": 0, "fusion_lat": 0.0, "lat": 38.903739, "bike_id": "a0cb9eb9b03b9cac40835a33a042b4bd", "fusion_lon": 0.0}, {"rental_uris": {"ios": "https://dc.lft.to/lastmile_qr_scan", "android": "https://dc.lft.to/lastmile_qr_scan"}, "type": "electric_bike", "name": "e016b406177e80a5b2e638f86926b9b3", "is_reserved": 0, "lon": -77.06699183333333, "is_disabled": 0, "fusion_lat": 0.0, "lat": 38.83172066666667, "bike_id": "e016b406177e80a5b2e638f86926b9b3", "fusion_lon": 0.0}, {"rental_uris": {"ios": "https://dc.lft.to/lastmile_qr_scan", "android": "https://dc.lft.to/lastmile_qr_scan"}, "type": "electric_scooter", "name": "4c055bf255300e0bf2504dabf02d0871", "is_reserved": 0, "lon": -77.02794266666666, "is_disabled": 0, "fusion_lat": 0.0, "lat": 38.95608433333334, "bike_id": "4c055bf255300e0bf2504dabf02d0871", "fusion_lon": 0.0}, {"rental_uris": {"ios": "https://dc.lft.to/lastmile_qr_scan", "android": "https://dc.lft.to/lastmile_qr_scan"}, "type": "electric_scooter", "name": "95244a8e3d70ecc42d46d8c1b9b890bf", "is_reserved": 0, "lon": -77.01760133333333, "is_disabled": 0, "fusion_lat": 0.0, "lat": 38.87688083333333, "bike_id": "95244a8e3d70ecc42d46d8c1b9b890bf", "fusion_lon": 0.0}, {"rental_uris": {"ios": "https://dc.lft.to/lastmile_qr_scan", "android": "https://dc.lft.to/lastmile_qr_scan"}, "type": "electric_scooter", "name": "4f1e46c1fef19eb86795d0285101c4c1", "is_reserved": 0, "lon": -77.03663183333333, "is_disabled": 0, "fusion_lat": 0.0, "lat": 38.92291066666667, "bike_id": "4f1e46c1fef19eb86795d0285101c4c1", "fusion_lon": 0.0}, {"rental_uris": {"ios": "https://dc.lft.to/lastmile_qr_scan", "android": "https://dc.lft.to/lastmile_qr_scan"}, "type": "electric_scooter", "name": "0fbf3a5abaf4cb91f13b3ae4ee15a4ba", "is_reserved": 0, "lon": -77.02171683333333, "is_disabled": 0, "fusion_lat": 0.0, "lat": 38.894862833333335, "bike_id": "0fbf3a5abaf4cb91f13b3ae4ee15a4ba", "fusion_lon": 0.0}, {"rental_uris": {"ios": "https://dc.lft.to/lastmile_qr_scan", "android": "https://dc.lft.to/lastmile_qr_scan"}, "type": "electric_scooter", "name": "082f7472bac035d4dade258930445f34", "is_reserved": 0, "lon": -77.03536916666667, "is_disabled": 0, "fusion_lat": 0.0, "lat": 38.9238915, "bike_id": "082f7472bac035d4dade258930445f34", "fusion_lon": 0.0}, {"rental_uris": {"ios": "https://dc.lft.to/lastmile_qr_scan", "android": "https://dc.lft.to/lastmile_qr_scan"}, "type": "electric_scooter", "name": "82575148df99cba6b0c59903a3b6839e", "is_reserved": 0, "lon": -76.97046333333333, "is_disabled": 0, "fusion_lat": 0.0, "lat": 38.8732195, "bike_id": "82575148df99cba6b0c59903a3b6839e", "fusion_lon": 0.0}, {"rental_uris": {"ios": "https://dc.lft.to/lastmile_qr_scan", "android": "https://dc.lft.to/lastmile_qr_scan"}, "type": "electric_scooter", "name": "38874447394f9f2ad9b8e324cda4237d", "is_reserved": 0, "lon": -77.029013, "is_disabled": 0, "fusion_lat": 0.0, "lat": 38.94041883333333, "bike_id": "38874447394f9f2ad9b8e324cda4237d", "fusion_lon": 0.0}, {"rental_uris": {"ios": "https://dc.lft.to/lastmile_qr_scan", "android": "https://dc.lft.to/lastmile_qr_scan"}, "type": "electric_scooter", "name": "1afad8e909ebef47728c9d90d600676c", "is_reserved": 0, "lon": -77.0324155, "is_disabled": 0, "fusion_lat": 0.0, "lat": 38.91047066666667, "bike_id": "1afad8e909ebef47728c9d90d600676c", "fusion_lon": 0.0}, {"rental_uris": {"ios": "https://dc.lft.to/lastmile_qr_scan", "android": "https://dc.lft.to/lastmile_qr_scan"}, "type": "electric_scooter", "name": "a7eeb7b97c68d559f31dcf2cffa17896", "is_reserved": 0, "lon": -77.02061966666666, "is_disabled": 0, "fusion_lat": 0.0, "lat": 38.90850183333333, "bike_id": "a7eeb7b97c68d559f31dcf2cffa17896", "fusion_lon": 0.0}, {"rental_uris": {"ios": "https://dc.lft.to/lastmile_qr_scan", "android": "https://dc.lft.to/lastmile_qr_scan"}, "type": "electric_scooter", "name": "b71eca4f1bd8f190f8267ed35b849081", "is_reserved": 0, "lon": -77.00876116666667, "is_disabled": 0, "fusion_lat": 0.0, "lat": 38.915515666666664, "bike_id": "b71eca4f1bd8f190f8267ed35b849081", "fusion_lon": 0.0}, {"rental_uris": {"ios": "https://dc.lft.to/lastmile_qr_scan", "android": "https://dc.lft.to/lastmile_qr_scan"}, "type": "electric_scooter", "name": "e21ba7d53310a44a3575d924440e0be2", "is_reserved": 0, "lon": -77.01874016666666, "is_disabled": 0, "fusion_lat": 0.0, "lat": 38.930565, "bike_id": "e21ba7d53310a44a3575d924440e0be2", "fusion_lon": 0.0}, {"rental_uris": {"ios": "https://dc.lft.to/lastmile_qr_scan", "android": "https://dc.lft.to/lastmile_qr_scan"}, "type": "electric_scooter", "name": "051ebd73db2ee45740a00e9dc7e632e8", "is_reserved": 0, "lon": -77.03870616666667, "is_disabled": 0, "fusion_lat": 0.0, "lat": 38.90879183333333, "bike_id": "051ebd73db2ee45740a00e9dc7e632e8", "fusion_lon": 0.0}, {"rental_uris": {"ios": "https://dc.lft.to/lastmile_qr_scan", "android": "https://dc.lft.to/lastmile_qr_scan"}, "type": "electric_scooter", "name": "b72fd622c88a73440618865dadb4f4c9", "is_reserved": 0, "lon": -77.01064466666666, "is_disabled": 0, "fusion_lat": 0.0, "lat": 38.8740865, "bike_id": "b72fd622c88a73440618865dadb4f4c9", "fusion_lon": 0.0}, {"rental_uris": {"ios": "https://dc.lft.to/lastmile_qr_scan", "android": "https://dc.lft.to/lastmile_qr_scan"}, "type": "electric_scooter", "name": "2910d8e1b93d0e57ec8032d4c86c7cba", "is_reserved": 0, "lon": -77.026671, "is_disabled": 0, "fusion_lat": 0.0, "lat": 38.88491533333333, "bike_id": "2910d8e1b93d0e57ec8032d4c86c7cba", "fusion_lon": 0.0}, {"rental_uris": {"ios": "https://dc.lft.to/lastmile_qr_scan", "android": "https://dc.lft.to/lastmile_qr_scan"}, "type": "electric_scooter", "name": "f5ffc99c7bbbc84baa6407931dd960aa", "is_reserved": 0, "lon": -77.02614116666666, "is_disabled": 0, "fusion_lat": 0.0, "lat": 38.916875, "bike_id": "f5ffc99c7bbbc84baa6407931dd960aa", "fusion_lon": 0.0}, {"rental_uris": {"ios": "https://dc.lft.to/lastmile_qr_scan", "android": "https://dc.lft.to/lastmile_qr_scan"}, "type": "electric_scooter", "name": "7c2a17c3c826fa2e39058e8eacbcd718", "is_reserved": 0, "lon": -77.04609366666666, "is_disabled": 0, "fusion_lat": 0.0, "lat": 38.905645166666666, "bike_id": "7c2a17c3c826fa2e39058e8eacbcd718", "fusion_lon": 0.0}, {"rental_uris": {"ios": "https://dc.lft.to/lastmile_qr_scan", "android": "https://dc.lft.to/lastmile_qr_scan"}, "type": "electric_scooter", "name": "e1a35e513225c9f10fe75de5ef43bd06", "is_reserved": 0, "lon": -77.02562733333333, "is_disabled": 0, "fusion_lat": 0.0, "lat": 38.9385665, "bike_id": "e1a35e513225c9f10fe75de5ef43bd06", "fusion_lon": 0.0}, {"rental_uris": {"ios": "https://dc.lft.to/lastmile_qr_scan", "android": "https://dc.lft.to/lastmile_qr_scan"}, "type": "electric_bike", "name": "f45463bd2120dcbd69c897a2410d23c2", "is_reserved": 0, "lon": -77.09016583333333, "is_disabled": 0, "fusion_lat": 0.0, "lat": 38.926530166666666, "bike_id": "f45463bd2120dcbd69c897a2410d23c2", "fusion_lon": 0.0}, {"rental_uris": {"ios": "https://dc.lft.to/lastmile_qr_scan", "android": "https://dc.lft.to/lastmile_qr_scan"}, "type": "electric_bike", "name": "061c3718c51885908bf31dc793e2a257", "is_reserved": 0, "lon": -76.95702033333333, "is_disabled": 0, "fusion_lat": 0.0, "lat": 38.850886833333334, "bike_id": "061c3718c51885908bf31dc793e2a257", "fusion_lon": 0.0}, {"rental_uris": {"ios": "https://dc.lft.to/lastmile_qr_scan", "android": "https://dc.lft.to/lastmile_qr_scan"}, "type": "electric_scooter", "name": "4e7ebb515a558247df6707104f3d271c", "is_reserved": 0, "lon": -76.98358833333333, "is_disabled": 0, "fusion_lat": 0.0, "lat": 38.88743366666667, "bike_id": "4e7ebb515a558247df6707104f3d271c", "fusion_lon": 0.0}, {"rental_uris": {"ios": "https://dc.lft.to/lastmile_qr_scan", "android": "https://dc.lft.to/lastmile_qr_scan"}, "type": "electric_scooter", "name": "5c6af8b51f1051cdbb728dc9b908f601", "is_reserved": 0, "lon": -77.007582, "is_disabled": 0, "fusion_lat": 0.0, "lat": 38.92525283333333, "bike_id": "5c6af8b51f1051cdbb728dc9b908f601", "fusion_lon": 0.0}, {"rental_uris": {"ios": "https://dc.lft.to/lastmile_qr_scan", "android": "https://dc.lft.to/lastmile_qr_scan"}, "type": "electric_bike", "name": "53f85b7d5f6c47c4269052b804421bb8", "is_reserved": 0, "lon": -77.12704233333334, "is_disabled": 0, "fusion_lat": 0.0, "lat": 38.89578383333333, "bike_id": "53f85b7d5f6c47c4269052b804421bb8", "fusion_lon": 0.0}, {"rental_uris": {"ios": "https://dc.lft.to/lastmile_qr_scan", "android": "https://dc.lft.to/lastmile_qr_scan"}, "type": "electric_scooter", "name": "6eda98a9071163d6a910d2f88461f5cd", "is_reserved": 0, "lon": -76.98615666666667, "is_disabled": 0, "fusion_lat": 0.0, "lat": 38.9035185, "bike_id": "6eda98a9071163d6a910d2f88461f5cd", "fusion_lon": 0.0}, {"rental_uris": {"ios": "https://dc.lft.to/lastmile_qr_scan", "android": "https://dc.lft.to/lastmile_qr_scan"}, "type": "electric_scooter", "name": "c6e28618cb8c0bdfaf1730ab90f0d111", "is_reserved": 0, "lon": -77.01594716666666, "is_disabled": 0, "fusion_lat": 0.0, "lat": 38.8998325, "bike_id": "c6e28618cb8c0bdfaf1730ab90f0d111", "fusion_lon": 0.0}, {"rental_uris": {"ios": "https://dc.lft.to/lastmile_qr_scan", "android": "https://dc.lft.to/lastmile_qr_scan"}, "type": "electric_scooter", "name": "445c1b12fe253cde92e32c9a19e6a8c8", "is_reserved": 0, "lon": -77.049156, "is_disabled": 0, "fusion_lat": 0.0, "lat": 38.910417833333334, "bike_id": "445c1b12fe253cde92e32c9a19e6a8c8", "fusion_lon": 0.0}, {"rental_uris": {"ios": "https://dc.lft.to/lastmile_qr_scan", "android": "https://dc.lft.to/lastmile_qr_scan"}, "type": "electric_scooter", "name": "2656adb55bd5071cbb6795398a868bfc", "is_reserved": 0, "lon": -77.03482616666666, "is_disabled": 0, "fusion_lat": 0.0, "lat": 38.904314166666666, "bike_id": "2656adb55bd5071cbb6795398a868bfc", "fusion_lon": 0.0}, {"rental_uris": {"ios": "https://dc.lft.to/lastmile_qr_scan", "android": "https://dc.lft.to/lastmile_qr_scan"}, "type": "electric_scooter", "name": "a11087ebe9dde621b70c2795198b7031", "is_reserved": 0, "lon": -77.0095795, "is_disabled": 0, "fusion_lat": 0.0, "lat": 38.9213965, "bike_id": "a11087ebe9dde621b70c2795198b7031", "fusion_lon": 0.0}, {"rental_uris": {"ios": "https://dc.lft.to/lastmile_qr_scan", "android": "https://dc.lft.to/lastmile_qr_scan"}, "type": "electric_scooter", "name": "5c6c6bd31007df2a4ccafa5495e41cbe", "is_reserved": 0, "lon": -76.99841, "is_disabled": 0, "fusion_lat": 0.0, "lat": 38.90726983333333, "bike_id": "5c6c6bd31007df2a4ccafa5495e41cbe", "fusion_lon": 0.0}, {"rental_uris": {"ios": "https://dc.lft.to/lastmile_qr_scan", "android": "https://dc.lft.to/lastmile_qr_scan"}, "type": "electric_scooter", "name": "48c12e6a43afe100cbc2c74190dfbc66", "is_reserved": 0, "lon": -77.02896033333333, "is_disabled": 0, "fusion_lat": 0.0, "lat": 38.916914166666665, "bike_id": "48c12e6a43afe100cbc2c74190dfbc66", "fusion_lon": 0.0}, {"rental_uris": {"ios": "https://dc.lft.to/lastmile_qr_scan", "android": "https://dc.lft.to/lastmile_qr_scan"}, "type": "electric_scooter", "name": "f4e938c613ba681f6d1c63f0056dac8c", "is_reserved": 0, "lon": -77.040867, "is_disabled": 0, "fusion_lat": 0.0, "lat": 38.9202835, "bike_id": "f4e938c613ba681f6d1c63f0056dac8c", "fusion_lon": 0.0}, {"rental_uris": {"ios": "https://dc.lft.to/lastmile_qr_scan", "android": "https://dc.lft.to/lastmile_qr_scan"}, "type": "electric_scooter", "name": "dc2d69269a01cb027c2ab0e96b4a4c13", "is_reserved": 0, "lon": -77.041365, "is_disabled": 0, "fusion_lat": 0.0, "lat": 38.92536716666667, "bike_id": "dc2d69269a01cb027c2ab0e96b4a4c13", "fusion_lon": 0.0}, {"rental_uris": {"ios": "https://dc.lft.to/lastmile_qr_scan", "android": "https://dc.lft.to/lastmile_qr_scan"}, "type": "electric_scooter", "name": "e2a05effaef20b8ec73db3423a754ba8", "is_reserved": 0, "lon": -77.05232666666667, "is_disabled": 0, "fusion_lat": 0.0, "lat": 38.924694333333335, "bike_id": "e2a05effaef20b8ec73db3423a754ba8", "fusion_lon": 0.0}, {"rental_uris": {"ios": "https://dc.lft.to/lastmile_qr_scan", "android": "https://dc.lft.to/lastmile_qr_scan"}, "type": "electric_scooter", "name": "d1d9f88e67de07aaf078eced181a74d3", "is_reserved": 0, "lon": -77.03221033333334, "is_disabled": 0, "fusion_lat": 0.0, "lat": 38.919974, "bike_id": "d1d9f88e67de07aaf078eced181a74d3", "fusion_lon": 0.0}, {"rental_uris": {"ios": "https://dc.lft.to/lastmile_qr_scan", "android": "https://dc.lft.to/lastmile_qr_scan"}, "type": "electric_scooter", "name": "92d0c31fd33ea08a461640341dc12a26", "is_reserved": 0, "lon": -76.9923305, "is_disabled": 0, "fusion_lat": 0.0, "lat": 38.88752733333333, "bike_id": "92d0c31fd33ea08a461640341dc12a26", "fusion_lon": 0.0}, {"rental_uris": {"ios": "https://dc.lft.to/lastmile_qr_scan", "android": "https://dc.lft.to/lastmile_qr_scan"}, "type": "electric_scooter", "name": "78077f718e0da51da01d9fddd43a86b8", "is_reserved": 0, "lon": -77.032155, "is_disabled": 0, "fusion_lat": 0.0, "lat": 38.884797666666664, "bike_id": "78077f718e0da51da01d9fddd43a86b8", "fusion_lon": 0.0}, {"rental_uris": {"ios": "https://dc.lft.to/lastmile_qr_scan", "android": "https://dc.lft.to/lastmile_qr_scan"}, "type": "electric_scooter", "name": "0d2d9060a5fd005774b76d74c3b98d5d", "is_reserved": 0, "lon": -77.032683, "is_disabled": 0, "fusion_lat": 0.0, "lat": 38.933770833333334, "bike_id": "0d2d9060a5fd005774b76d74c3b98d5d", "fusion_lon": 0.0}, {"rental_uris": {"ios": "https://dc.lft.to/lastmile_qr_scan", "android": "https://dc.lft.to/lastmile_qr_scan"}, "type": "electric_bike", "name": "2f33d61672a392f04d32c6511229bcd5", "is_reserved": 0, "lon": -76.90736066666666, "is_disabled": 0, "fusion_lat": 0.0, "lat": 38.89618766666667, "bike_id": "2f33d61672a392f04d32c6511229bcd5", "fusion_lon": 0.0}, {"rental_uris": {"ios": "https://dc.lft.to/lastmile_qr_scan", "android": "https://dc.lft.to/lastmile_qr_scan"}, "type": "electric_scooter", "name": "2113a173c5325ac1c545d532352d95b4", "is_reserved": 0, "lon": -76.99915816666666, "is_disabled": 0, "fusion_lat": 0.0, "lat": 38.924580666666664, "bike_id": "2113a173c5325ac1c545d532352d95b4", "fusion_lon": 0.0}, {"rental_uris": {"ios": "https://dc.lft.to/lastmile_qr_scan", "android": "https://dc.lft.to/lastmile_qr_scan"}, "type": "electric_scooter", "name": "0e6c92725911f0c5ffb2608234c485d8", "is_reserved": 0, "lon": -77.04761933333333, "is_disabled": 0, "fusion_lat": 0.0, "lat": 38.941018166666666, "bike_id": "0e6c92725911f0c5ffb2608234c485d8", "fusion_lon": 0.0}, {"rental_uris": {"ios": "https://dc.lft.to/lastmile_qr_scan", "android": "https://dc.lft.to/lastmile_qr_scan"}, "type": "electric_scooter", "name": "f3d75d5e9735453485c0ea479993435d", "is_reserved": 0, "lon": -77.0083255, "is_disabled": 0, "fusion_lat": 0.0, "lat": 38.913752, "bike_id": "f3d75d5e9735453485c0ea479993435d", "fusion_lon": 0.0}, {"rental_uris": {"ios": "https://dc.lft.to/lastmile_qr_scan", "android": "https://dc.lft.to/lastmile_qr_scan"}, "type": "electric_scooter", "name": "4d106b8c87ce5d7d3c6a7791f8bd503a", "is_reserved": 0, "lon": -77.04085383333333, "is_disabled": 0, "fusion_lat": 0.0, "lat": 38.9270735, "bike_id": "4d106b8c87ce5d7d3c6a7791f8bd503a", "fusion_lon": 0.0}, {"rental_uris": {"ios": "https://dc.lft.to/lastmile_qr_scan", "android": "https://dc.lft.to/lastmile_qr_scan"}, "type": "electric_scooter", "name": "657bde8dedeb3af9c695f581e0b255fa", "is_reserved": 0, "lon": -77.021716, "is_disabled": 0, "fusion_lat": 0.0, "lat": 38.89478316666667, "bike_id": "657bde8dedeb3af9c695f581e0b255fa", "fusion_lon": 0.0}, {"rental_uris": {"ios": "https://dc.lft.to/lastmile_qr_scan", "android": "https://dc.lft.to/lastmile_qr_scan"}, "type": "electric_scooter", "name": "943a6516e65494122199a439af424414", "is_reserved": 0, "lon": -77.041987, "is_disabled": 0, "fusion_lat": 0.0, "lat": 38.92071633333333, "bike_id": "943a6516e65494122199a439af424414", "fusion_lon": 0.0}, {"rental_uris": {"ios": "https://dc.lft.to/lastmile_qr_scan", "android": "https://dc.lft.to/lastmile_qr_scan"}, "type": "electric_scooter", "name": "b47c13a41f1f64b19b25e0370cbcd3bf", "is_reserved": 0, "lon": -77.0342485, "is_disabled": 0, "fusion_lat": 0.0, "lat": 38.90090683333333, "bike_id": "b47c13a41f1f64b19b25e0370cbcd3bf", "fusion_lon": 0.0}, {"rental_uris": {"ios": "https://dc.lft.to/lastmile_qr_scan", "android": "https://dc.lft.to/lastmile_qr_scan"}, "type": "electric_scooter", "name": "2690c645f792ad81fb2ba489976df7c0", "is_reserved": 0, "lon": -77.03822616666666, "is_disabled": 0, "fusion_lat": 0.0, "lat": 38.909675666666665, "bike_id": "2690c645f792ad81fb2ba489976df7c0", "fusion_lon": 0.0}, {"rental_uris": {"ios": "https://dc.lft.to/lastmile_qr_scan", "android": "https://dc.lft.to/lastmile_qr_scan"}, "type": "electric_scooter", "name": "556fdf42d3ac7f11a9c5b3398f55c54f", "is_reserved": 0, "lon": -77.01225416666666, "is_disabled": 0, "fusion_lat": 0.0, "lat": 38.8671945, "bike_id": "556fdf42d3ac7f11a9c5b3398f55c54f", "fusion_lon": 0.0}, {"rental_uris": {"ios": "https://dc.lft.to/lastmile_qr_scan", "android": "https://dc.lft.to/lastmile_qr_scan"}, "type": "electric_scooter", "name": "ec8d43c600b0057076d73b964861b9f4", "is_reserved": 0, "lon": -77.04181733333333, "is_disabled": 0, "fusion_lat": 0.0, "lat": 38.9037785, "bike_id": "ec8d43c600b0057076d73b964861b9f4", "fusion_lon": 0.0}, {"rental_uris": {"ios": "https://dc.lft.to/lastmile_qr_scan", "android": "https://dc.lft.to/lastmile_qr_scan"}, "type": "electric_scooter", "name": "b39afd5a88c3af6c27d0c9dca3ce0aa5", "is_reserved": 0, "lon": -77.03535366666667, "is_disabled": 0, "fusion_lat": 0.0, "lat": 38.9038855, "bike_id": "b39afd5a88c3af6c27d0c9dca3ce0aa5", "fusion_lon": 0.0}, {"rental_uris": {"ios": "https://dc.lft.to/lastmile_qr_scan", "android": "https://dc.lft.to/lastmile_qr_scan"}, "type": "electric_bike", "name": "9988c5d5358fb327a8eca8c0912633bc", "is_reserved": 0, "lon": -76.99680233333333, "is_disabled": 0, "fusion_lat": 0.0, "lat": 38.838192166666666, "bike_id": "9988c5d5358fb327a8eca8c0912633bc", "fusion_lon": 0.0}, {"rental_uris": {"ios": "https://dc.lft.to/lastmile_qr_scan", "android": "https://dc.lft.to/lastmile_qr_scan"}, "type": "electric_scooter", "name": "9f4539b072e80b3e806838b10bc636e4", "is_reserved": 0, "lon": -77.03863516666667, "is_disabled": 0, "fusion_lat": 0.0, "lat": 38.91718766666666, "bike_id": "9f4539b072e80b3e806838b10bc636e4", "fusion_lon": 0.0}, {"rental_uris": {"ios": "https://dc.lft.to/lastmile_qr_scan", "android": "https://dc.lft.to/lastmile_qr_scan"}, "type": "electric_scooter", "name": "dea984aa0fc0fd98369d26a80af1f4e3", "is_reserved": 0, "lon": -77.0213165, "is_disabled": 0, "fusion_lat": 0.0, "lat": 38.92796533333333, "bike_id": "dea984aa0fc0fd98369d26a80af1f4e3", "fusion_lon": 0.0}, {"rental_uris": {"ios": "https://dc.lft.to/lastmile_qr_scan", "android": "https://dc.lft.to/lastmile_qr_scan"}, "type": "electric_scooter", "name": "5e0fa33579c2d89273315e9277926ac1", "is_reserved": 0, "lon": -77.03468483333333, "is_disabled": 0, "fusion_lat": 0.0, "lat": 38.92156883333333, "bike_id": "5e0fa33579c2d89273315e9277926ac1", "fusion_lon": 0.0}, {"rental_uris": {"ios": "https://dc.lft.to/lastmile_qr_scan", "android": "https://dc.lft.to/lastmile_qr_scan"}, "type": "electric_scooter", "name": "69c8404d443cd20c563b82a2db9a07a7", "is_reserved": 0, "lon": -77.06842966666666, "is_disabled": 0, "fusion_lat": 0.0, "lat": 38.90407, "bike_id": "69c8404d443cd20c563b82a2db9a07a7", "fusion_lon": 0.0}, {"rental_uris": {"ios": "https://dc.lft.to/lastmile_qr_scan", "android": "https://dc.lft.to/lastmile_qr_scan"}, "type": "electric_scooter", "name": "c59357553fe6f4769ceed23bdeaa2fad", "is_reserved": 0, "lon": -77.01753016666666, "is_disabled": 0, "fusion_lat": 0.0, "lat": 38.876815666666666, "bike_id": "c59357553fe6f4769ceed23bdeaa2fad", "fusion_lon": 0.0}, {"rental_uris": {"ios": "https://dc.lft.to/lastmile_qr_scan", "android": "https://dc.lft.to/lastmile_qr_scan"}, "type": "electric_scooter", "name": "5c020afeb44c084d9e5efa112ee612df", "is_reserved": 0, "lon": -76.9343915, "is_disabled": 0, "fusion_lat": 0.0, "lat": 38.8934625, "bike_id": "5c020afeb44c084d9e5efa112ee612df", "fusion_lon": 0.0}, {"rental_uris": {"ios": "https://dc.lft.to/lastmile_qr_scan", "android": "https://dc.lft.to/lastmile_qr_scan"}, "type": "electric_scooter", "name": "301a6c0fffd0fd0d3cf9a2a17dd516e3", "is_reserved": 0, "lon": -77.03393766666667, "is_disabled": 0, "fusion_lat": 0.0, "lat": 38.899171833333334, "bike_id": "301a6c0fffd0fd0d3cf9a2a17dd516e3", "fusion_lon": 0.0}, {"rental_uris": {"ios": "https://dc.lft.to/lastmile_qr_scan", "android": "https://dc.lft.to/lastmile_qr_scan"}, "type": "electric_scooter", "name": "06880d9b68f200f47f2751de7b448583", "is_reserved": 0, "lon": -77.02834483333334, "is_disabled": 0, "fusion_lat": 0.0, "lat": 38.910251, "bike_id": "06880d9b68f200f47f2751de7b448583", "fusion_lon": 0.0}, {"rental_uris": {"ios": "https://dc.lft.to/lastmile_qr_scan", "android": "https://dc.lft.to/lastmile_qr_scan"}, "type": "electric_scooter", "name": "7515770e9a6b6a7592c9d76232b67fd4", "is_reserved": 0, "lon": -77.02302116666667, "is_disabled": 0, "fusion_lat": 0.0, "lat": 38.91836083333333, "bike_id": "7515770e9a6b6a7592c9d76232b67fd4", "fusion_lon": 0.0}, {"rental_uris": {"ios": "https://dc.lft.to/lastmile_qr_scan", "android": "https://dc.lft.to/lastmile_qr_scan"}, "type": "electric_scooter", "name": "ec7aacc981c445295f2455cc03a27ed1", "is_reserved": 0, "lon": -77.03281033333333, "is_disabled": 0, "fusion_lat": 0.0, "lat": 38.9072085, "bike_id": "ec7aacc981c445295f2455cc03a27ed1", "fusion_lon": 0.0}, {"rental_uris": {"ios": "https://dc.lft.to/lastmile_qr_scan", "android": "https://dc.lft.to/lastmile_qr_scan"}, "type": "electric_scooter", "name": "c995765ca57ba33777a5e55eb17c32b7", "is_reserved": 0, "lon": -77.02346883333334, "is_disabled": 0, "fusion_lat": 0.0, "lat": 38.93133366666667, "bike_id": "c995765ca57ba33777a5e55eb17c32b7", "fusion_lon": 0.0}, {"rental_uris": {"ios": "https://dc.lft.to/lastmile_qr_scan", "android": "https://dc.lft.to/lastmile_qr_scan"}, "type": "electric_bike", "name": "da0733eaf7705d58c6e7285e310ba1b1", "is_reserved": 0, "lon": -77.0122325, "is_disabled": 0, "fusion_lat": 0.0, "lat": 38.950760833333334, "bike_id": "da0733eaf7705d58c6e7285e310ba1b1", "fusion_lon": 0.0}, {"rental_uris": {"ios": "https://dc.lft.to/lastmile_qr_scan", "android": "https://dc.lft.to/lastmile_qr_scan"}, "type": "electric_scooter", "name": "f6ca1df47f9c9198d0c156984ec3d93c", "is_reserved": 0, "lon": -76.99390833333334, "is_disabled": 0, "fusion_lat": 0.0, "lat": 38.91014833333333, "bike_id": "f6ca1df47f9c9198d0c156984ec3d93c", "fusion_lon": 0.0}, {"rental_uris": {"ios": "https://dc.lft.to/lastmile_qr_scan", "android": "https://dc.lft.to/lastmile_qr_scan"}, "type": "electric_scooter", "name": "7a058b6591606be7843ab58603ea2701", "is_reserved": 0, "lon": -77.023585, "is_disabled": 0, "fusion_lat": 0.0, "lat": 38.945242, "bike_id": "7a058b6591606be7843ab58603ea2701", "fusion_lon": 0.0}, {"rental_uris": {"ios": "https://dc.lft.to/lastmile_qr_scan", "android": "https://dc.lft.to/lastmile_qr_scan"}, "type": "electric_scooter", "name": "9d7d72bee61fa48559791ea40f907ec1", "is_reserved": 0, "lon": -76.9963245, "is_disabled": 0, "fusion_lat": 0.0, "lat": 38.904506833333336, "bike_id": "9d7d72bee61fa48559791ea40f907ec1", "fusion_lon": 0.0}, {"rental_uris": {"ios": "https://dc.lft.to/lastmile_qr_scan", "android": "https://dc.lft.to/lastmile_qr_scan"}, "type": "electric_scooter", "name": "74f0a8da0f9b6dad1753088434786957", "is_reserved": 0, "lon": -77.05018433333333, "is_disabled": 0, "fusion_lat": 0.0, "lat": 38.897695166666665, "bike_id": "74f0a8da0f9b6dad1753088434786957", "fusion_lon": 0.0}, {"rental_uris": {"ios": "https://dc.lft.to/lastmile_qr_scan", "android": "https://dc.lft.to/lastmile_qr_scan"}, "type": "electric_scooter", "name": "9d0f0ab6f95f4125b768f8e57602e84a", "is_reserved": 0, "lon": -76.981872, "is_disabled": 0, "fusion_lat": 0.0, "lat": 38.905845666666664, "bike_id": "9d0f0ab6f95f4125b768f8e57602e84a", "fusion_lon": 0.0}, {"rental_uris": {"ios": "https://dc.lft.to/lastmile_qr_scan", "android": "https://dc.lft.to/lastmile_qr_scan"}, "type": "electric_scooter", "name": "daaa9a62c70fc41572cd8777be8f0121", "is_reserved": 0, "lon": -77.03958266666666, "is_disabled": 0, "fusion_lat": 0.0, "lat": 38.913469666666664, "bike_id": "daaa9a62c70fc41572cd8777be8f0121", "fusion_lon": 0.0}, {"rental_uris": {"ios": "https://dc.lft.to/lastmile_qr_scan", "android": "https://dc.lft.to/lastmile_qr_scan"}, "type": "electric_scooter", "name": "9eeae7b38a695c73529d5640c347706b", "is_reserved": 0, "lon": -77.02407283333334, "is_disabled": 0, "fusion_lat": 0.0, "lat": 38.9275435, "bike_id": "9eeae7b38a695c73529d5640c347706b", "fusion_lon": 0.0}, {"rental_uris": {"ios": "https://dc.lft.to/lastmile_qr_scan", "android": "https://dc.lft.to/lastmile_qr_scan"}, "type": "electric_scooter", "name": "151f2f12c47704faf64a34b6fa327b93", "is_reserved": 0, "lon": -77.02000566666666, "is_disabled": 0, "fusion_lat": 0.0, "lat": 38.930539333333336, "bike_id": "151f2f12c47704faf64a34b6fa327b93", "fusion_lon": 0.0}, {"rental_uris": {"ios": "https://dc.lft.to/lastmile_qr_scan", "android": "https://dc.lft.to/lastmile_qr_scan"}, "type": "electric_scooter", "name": "949511fd4016595ede81b62d26ff139a", "is_reserved": 0, "lon": -77.03992416666667, "is_disabled": 0, "fusion_lat": 0.0, "lat": 38.914046666666664, "bike_id": "949511fd4016595ede81b62d26ff139a", "fusion_lon": 0.0}, {"rental_uris": {"ios": "https://dc.lft.to/lastmile_qr_scan", "android": "https://dc.lft.to/lastmile_qr_scan"}, "type": "electric_bike", "name": "d0889d2c214eb4ca4ec7ba027e7e42a3", "is_reserved": 0, "lon": -76.95060933333333, "is_disabled": 0, "fusion_lat": 0.0, "lat": 39.0851015, "bike_id": "d0889d2c214eb4ca4ec7ba027e7e42a3", "fusion_lon": 0.0}, {"rental_uris": {"ios": "https://dc.lft.to/lastmile_qr_scan", "android": "https://dc.lft.to/lastmile_qr_scan"}, "type": "electric_scooter", "name": "58b4ac5726e18561fc3114e4ea7b3dc9", "is_reserved": 0, "lon": -77.0240565, "is_disabled": 0, "fusion_lat": 0.0, "lat": 38.917117, "bike_id": "58b4ac5726e18561fc3114e4ea7b3dc9", "fusion_lon": 0.0}, {"rental_uris": {"ios": "https://dc.lft.to/lastmile_qr_scan", "android": "https://dc.lft.to/lastmile_qr_scan"}, "type": "electric_scooter", "name": "22827393fa0dbd3e3ae96fd3d003351d", "is_reserved": 0, "lon": -77.0313625, "is_disabled": 0, "fusion_lat": 0.0, "lat": 38.9237965, "bike_id": "22827393fa0dbd3e3ae96fd3d003351d", "fusion_lon": 0.0}, {"rental_uris": {"ios": "https://dc.lft.to/lastmile_qr_scan", "android": "https://dc.lft.to/lastmile_qr_scan"}, "type": "electric_scooter", "name": "5dc66e7f12be0a14881bdf4c2183503b", "is_reserved": 0, "lon": -77.0740655, "is_disabled": 0, "fusion_lat": 0.0, "lat": 38.93752466666667, "bike_id": "5dc66e7f12be0a14881bdf4c2183503b", "fusion_lon": 0.0}, {"rental_uris": {"ios": "https://dc.lft.to/lastmile_qr_scan", "android": "https://dc.lft.to/lastmile_qr_scan"}, "type": "electric_bike", "name": "f0b2b367d0baebeecdc9d80543b3885a", "is_reserved": 0, "lon": -77.043525, "is_disabled": 0, "fusion_lat": 0.0, "lat": 38.89741566666667, "bike_id": "f0b2b367d0baebeecdc9d80543b3885a", "fusion_lon": 0.0}, {"rental_uris": {"ios": "https://dc.lft.to/lastmile_qr_scan", "android": "https://dc.lft.to/lastmile_qr_scan"}, "type": "electric_scooter", "name": "d594c6481cedc11d649cda716158aed8", "is_reserved": 0, "lon": -77.01534116666667, "is_disabled": 0, "fusion_lat": 0.0, "lat": 38.88745733333333, "bike_id": "d594c6481cedc11d649cda716158aed8", "fusion_lon": 0.0}, {"rental_uris": {"ios": "https://dc.lft.to/lastmile_qr_scan", "android": "https://dc.lft.to/lastmile_qr_scan"}, "type": "electric_scooter", "name": "515e6b50d0feed4caaba8f39f33b6965", "is_reserved": 0, "lon": -77.0229605, "is_disabled": 0, "fusion_lat": 0.0, "lat": 38.92659916666667, "bike_id": "515e6b50d0feed4caaba8f39f33b6965", "fusion_lon": 0.0}, {"rental_uris": {"ios": "https://dc.lft.to/lastmile_qr_scan", "android": "https://dc.lft.to/lastmile_qr_scan"}, "type": "electric_scooter", "name": "934fb2d4dcda204d7f679e9974c78834", "is_reserved": 0, "lon": -77.0244315, "is_disabled": 0, "fusion_lat": 0.0, "lat": 38.918061333333334, "bike_id": "934fb2d4dcda204d7f679e9974c78834", "fusion_lon": 0.0}, {"rental_uris": {"ios": "https://dc.lft.to/lastmile_qr_scan", "android": "https://dc.lft.to/lastmile_qr_scan"}, "type": "electric_scooter", "name": "c66a7516add42ed25452499e1c32eb77", "is_reserved": 0, "lon": -77.05414416666666, "is_disabled": 0, "fusion_lat": 0.0, "lat": 38.9282545, "bike_id": "c66a7516add42ed25452499e1c32eb77", "fusion_lon": 0.0}, {"rental_uris": {"ios": "https://dc.lft.to/lastmile_qr_scan", "android": "https://dc.lft.to/lastmile_qr_scan"}, "type": "electric_scooter", "name": "ba9282bd787bbb367e2027dfb5b22183", "is_reserved": 0, "lon": -77.02201633333334, "is_disabled": 0, "fusion_lat": 0.0, "lat": 38.8790835, "bike_id": "ba9282bd787bbb367e2027dfb5b22183", "fusion_lon": 0.0}, {"rental_uris": {"ios": "https://dc.lft.to/lastmile_qr_scan", "android": "https://dc.lft.to/lastmile_qr_scan"}, "type": "electric_scooter", "name": "50e2cbc1e61d2ad7c80d249621af371d", "is_reserved": 0, "lon": -77.03478533333333, "is_disabled": 0, "fusion_lat": 0.0, "lat": 38.93033, "bike_id": "50e2cbc1e61d2ad7c80d249621af371d", "fusion_lon": 0.0}, {"rental_uris": {"ios": "https://dc.lft.to/lastmile_qr_scan", "android": "https://dc.lft.to/lastmile_qr_scan"}, "type": "electric_scooter", "name": "533402294fd98c4c068d21115805f25d", "is_reserved": 0, "lon": -77.03967666666667, "is_disabled": 0, "fusion_lat": 0.0, "lat": 38.931493333333336, "bike_id": "533402294fd98c4c068d21115805f25d", "fusion_lon": 0.0}, {"rental_uris": {"ios": "https://dc.lft.to/lastmile_qr_scan", "android": "https://dc.lft.to/lastmile_qr_scan"}, "type": "electric_scooter", "name": "0f669b8eb9a01f76919bc685a8bfc599", "is_reserved": 0, "lon": -77.02167633333333, "is_disabled": 0, "fusion_lat": 0.0, "lat": 38.92495183333333, "bike_id": "0f669b8eb9a01f76919bc685a8bfc599", "fusion_lon": 0.0}, {"rental_uris": {"ios": "https://dc.lft.to/lastmile_qr_scan", "android": "https://dc.lft.to/lastmile_qr_scan"}, "type": "electric_scooter", "name": "d296e5f8e9924700e7d72568936d6b6c", "is_reserved": 0, "lon": -77.04248616666666, "is_disabled": 0, "fusion_lat": 0.0, "lat": 38.924374666666665, "bike_id": "d296e5f8e9924700e7d72568936d6b6c", "fusion_lon": 0.0}, {"rental_uris": {"ios": "https://dc.lft.to/lastmile_qr_scan", "android": "https://dc.lft.to/lastmile_qr_scan"}, "type": "electric_scooter", "name": "c2a0a0cc42d6c2f84186b51a8a93cab0", "is_reserved": 0, "lon": -77.00705583333334, "is_disabled": 0, "fusion_lat": 0.0, "lat": 38.8782345, "bike_id": "c2a0a0cc42d6c2f84186b51a8a93cab0", "fusion_lon": 0.0}, {"rental_uris": {"ios": "https://dc.lft.to/lastmile_qr_scan", "android": "https://dc.lft.to/lastmile_qr_scan"}, "type": "electric_scooter", "name": "dd3efb0df70da692a68de867f50d6485", "is_reserved": 0, "lon": -77.027246, "is_disabled": 0, "fusion_lat": 0.0, "lat": 38.924874833333334, "bike_id": "dd3efb0df70da692a68de867f50d6485", "fusion_lon": 0.0}, {"rental_uris": {"ios": "https://dc.lft.to/lastmile_qr_scan", "android": "https://dc.lft.to/lastmile_qr_scan"}, "type": "electric_scooter", "name": "42be7fbfbdca5aed5222f49e8118cf07", "is_reserved": 0, "lon": -77.02081866666667, "is_disabled": 0, "fusion_lat": 0.0, "lat": 38.924092, "bike_id": "42be7fbfbdca5aed5222f49e8118cf07", "fusion_lon": 0.0}, {"rental_uris": {"ios": "https://dc.lft.to/lastmile_qr_scan", "android": "https://dc.lft.to/lastmile_qr_scan"}, "type": "electric_scooter", "name": "15195226311d9bdc05ed1a6458e624c8", "is_reserved": 0, "lon": -76.980929, "is_disabled": 0, "fusion_lat": 0.0, "lat": 38.90418433333333, "bike_id": "15195226311d9bdc05ed1a6458e624c8", "fusion_lon": 0.0}, {"rental_uris": {"ios": "https://dc.lft.to/lastmile_qr_scan", "android": "https://dc.lft.to/lastmile_qr_scan"}, "type": "electric_scooter", "name": "ce1fd15c5d27381d41e9f21e999cfaa6", "is_reserved": 0, "lon": -77.04678133333333, "is_disabled": 0, "fusion_lat": 0.0, "lat": 38.89225366666667, "bike_id": "ce1fd15c5d27381d41e9f21e999cfaa6", "fusion_lon": 0.0}, {"rental_uris": {"ios": "https://dc.lft.to/lastmile_qr_scan", "android": "https://dc.lft.to/lastmile_qr_scan"}, "type": "electric_scooter", "name": "85b17b0a3db8e2e067a46ee1f374b2f9", "is_reserved": 0, "lon": -77.0184275, "is_disabled": 0, "fusion_lat": 0.0, "lat": 38.9050785, "bike_id": "85b17b0a3db8e2e067a46ee1f374b2f9", "fusion_lon": 0.0}, {"rental_uris": {"ios": "https://dc.lft.to/lastmile_qr_scan", "android": "https://dc.lft.to/lastmile_qr_scan"}, "type": "electric_scooter", "name": "f62cff32dfdc7b4e25e9ce66a36bdb60", "is_reserved": 0, "lon": -77.03783466666667, "is_disabled": 0, "fusion_lat": 0.0, "lat": 38.92342166666667, "bike_id": "f62cff32dfdc7b4e25e9ce66a36bdb60", "fusion_lon": 0.0}, {"rental_uris": {"ios": "https://dc.lft.to/lastmile_qr_scan", "android": "https://dc.lft.to/lastmile_qr_scan"}, "type": "electric_scooter", "name": "73418ab264139535357060626983daf3", "is_reserved": 0, "lon": -77.03210783333333, "is_disabled": 0, "fusion_lat": 0.0, "lat": 38.90696233333333, "bike_id": "73418ab264139535357060626983daf3", "fusion_lon": 0.0}, {"rental_uris": {"ios": "https://dc.lft.to/lastmile_qr_scan", "android": "https://dc.lft.to/lastmile_qr_scan"}, "type": "electric_scooter", "name": "0590c384a212c84653dc542af74a5d8c", "is_reserved": 0, "lon": -77.00920866666667, "is_disabled": 0, "fusion_lat": 0.0, "lat": 38.912426333333336, "bike_id": "0590c384a212c84653dc542af74a5d8c", "fusion_lon": 0.0}, {"rental_uris": {"ios": "https://dc.lft.to/lastmile_qr_scan", "android": "https://dc.lft.to/lastmile_qr_scan"}, "type": "electric_scooter", "name": "b81e14e15ab7fb5b29ba0d575902bda2", "is_reserved": 0, "lon": -77.01236116666666, "is_disabled": 0, "fusion_lat": 0.0, "lat": 38.9158295, "bike_id": "b81e14e15ab7fb5b29ba0d575902bda2", "fusion_lon": 0.0}, {"rental_uris": {"ios": "https://dc.lft.to/lastmile_qr_scan", "android": "https://dc.lft.to/lastmile_qr_scan"}, "type": "electric_scooter", "name": "0fe54d0eb6de43dbc2a49ba4a6a8fb7b", "is_reserved": 0, "lon": -77.063489, "is_disabled": 0, "fusion_lat": 0.0, "lat": 38.943634333333335, "bike_id": "0fe54d0eb6de43dbc2a49ba4a6a8fb7b", "fusion_lon": 0.0}, {"rental_uris": {"ios": "https://dc.lft.to/lastmile_qr_scan", "android": "https://dc.lft.to/lastmile_qr_scan"}, "type": "electric_scooter", "name": "0ef1781de82c548b944c7af46de98d2f", "is_reserved": 0, "lon": -77.03433283333334, "is_disabled": 0, "fusion_lat": 0.0, "lat": 38.919181333333334, "bike_id": "0ef1781de82c548b944c7af46de98d2f", "fusion_lon": 0.0}, {"rental_uris": {"ios": "https://dc.lft.to/lastmile_qr_scan", "android": "https://dc.lft.to/lastmile_qr_scan"}, "type": "electric_scooter", "name": "1c958940925d4f90b494cf2337d90c51", "is_reserved": 0, "lon": -77.02583033333333, "is_disabled": 0, "fusion_lat": 0.0, "lat": 38.88718033333333, "bike_id": "1c958940925d4f90b494cf2337d90c51", "fusion_lon": 0.0}, {"rental_uris": {"ios": "https://dc.lft.to/lastmile_qr_scan", "android": "https://dc.lft.to/lastmile_qr_scan"}, "type": "electric_scooter", "name": "1821aab4448418fe7c9dae850b74be50", "is_reserved": 0, "lon": -77.0350135, "is_disabled": 0, "fusion_lat": 0.0, "lat": 38.9155935, "bike_id": "1821aab4448418fe7c9dae850b74be50", "fusion_lon": 0.0}, {"rental_uris": {"ios": "https://dc.lft.to/lastmile_qr_scan", "android": "https://dc.lft.to/lastmile_qr_scan"}, "type": "electric_scooter", "name": "d39afe101734e0e5d1ba01ac0688a716", "is_reserved": 0, "lon": -77.04732733333333, "is_disabled": 0, "fusion_lat": 0.0, "lat": 38.89558483333333, "bike_id": "d39afe101734e0e5d1ba01ac0688a716", "fusion_lon": 0.0}, {"rental_uris": {"ios": "https://dc.lft.to/lastmile_qr_scan", "android": "https://dc.lft.to/lastmile_qr_scan"}, "type": "electric_scooter", "name": "f864ba0f5625d2a26163e872c37ce1c2", "is_reserved": 0, "lon": -77.01018216666667, "is_disabled": 0, "fusion_lat": 0.0, "lat": 38.912612, "bike_id": "f864ba0f5625d2a26163e872c37ce1c2", "fusion_lon": 0.0}, {"rental_uris": {"ios": "https://dc.lft.to/lastmile_qr_scan", "android": "https://dc.lft.to/lastmile_qr_scan"}, "type": "electric_scooter", "name": "fcfae4ee8aff8ef4d92c7b3d78ab4566", "is_reserved": 0, "lon": -77.02696283333333, "is_disabled": 0, "fusion_lat": 0.0, "lat": 38.908427, "bike_id": "fcfae4ee8aff8ef4d92c7b3d78ab4566", "fusion_lon": 0.0}, {"rental_uris": {"ios": "https://dc.lft.to/lastmile_qr_scan", "android": "https://dc.lft.to/lastmile_qr_scan"}, "type": "electric_scooter", "name": "5fa2c684aae0b4df60b036f58033cea7", "is_reserved": 0, "lon": -77.012112, "is_disabled": 0, "fusion_lat": 0.0, "lat": 38.91819666666667, "bike_id": "5fa2c684aae0b4df60b036f58033cea7", "fusion_lon": 0.0}, {"rental_uris": {"ios": "https://dc.lft.to/lastmile_qr_scan", "android": "https://dc.lft.to/lastmile_qr_scan"}, "type": "electric_scooter", "name": "24d55b4c34724254515f670fc39076ee", "is_reserved": 0, "lon": -77.00941983333334, "is_disabled": 0, "fusion_lat": 0.0, "lat": 38.91270133333333, "bike_id": "24d55b4c34724254515f670fc39076ee", "fusion_lon": 0.0}, {"rental_uris": {"ios": "https://dc.lft.to/lastmile_qr_scan", "android": "https://dc.lft.to/lastmile_qr_scan"}, "type": "electric_scooter", "name": "8fb294426f14f7d8b221fdc5669db59c", "is_reserved": 0, "lon": -77.005736, "is_disabled": 0, "fusion_lat": 0.0, "lat": 38.87461183333333, "bike_id": "8fb294426f14f7d8b221fdc5669db59c", "fusion_lon": 0.0}, {"rental_uris": {"ios": "https://dc.lft.to/lastmile_qr_scan", "android": "https://dc.lft.to/lastmile_qr_scan"}, "type": "electric_scooter", "name": "32fe192f88e3136dc6c166991ad6f45b", "is_reserved": 0, "lon": -77.03281283333334, "is_disabled": 0, "fusion_lat": 0.0, "lat": 38.919927666666666, "bike_id": "32fe192f88e3136dc6c166991ad6f45b", "fusion_lon": 0.0}, {"rental_uris": {"ios": "https://dc.lft.to/lastmile_qr_scan", "android": "https://dc.lft.to/lastmile_qr_scan"}, "type": "electric_scooter", "name": "1d2a294adb91283b81fb9cc5fb14b6ab", "is_reserved": 0, "lon": -76.987007, "is_disabled": 0, "fusion_lat": 0.0, "lat": 38.888433166666665, "bike_id": "1d2a294adb91283b81fb9cc5fb14b6ab", "fusion_lon": 0.0}, {"rental_uris": {"ios": "https://dc.lft.to/lastmile_qr_scan", "android": "https://dc.lft.to/lastmile_qr_scan"}, "type": "electric_scooter", "name": "95a739da91f255170000c590cfba2337", "is_reserved": 0, "lon": -77.01850083333333, "is_disabled": 0, "fusion_lat": 0.0, "lat": 38.9499425, "bike_id": "95a739da91f255170000c590cfba2337", "fusion_lon": 0.0}, {"rental_uris": {"ios": "https://dc.lft.to/lastmile_qr_scan", "android": "https://dc.lft.to/lastmile_qr_scan"}, "type": "electric_scooter", "name": "9f55ee6e58b032f1b4a3cd5d6acb4b68", "is_reserved": 0, "lon": -76.97941383333334, "is_disabled": 0, "fusion_lat": 0.0, "lat": 38.916044, "bike_id": "9f55ee6e58b032f1b4a3cd5d6acb4b68", "fusion_lon": 0.0}, {"rental_uris": {"ios": "https://dc.lft.to/lastmile_qr_scan", "android": "https://dc.lft.to/lastmile_qr_scan"}, "type": "electric_bike", "name": "5fa5b9c2945ca78677e3d326b9513003", "is_reserved": 0, "lon": -76.97857416666666, "is_disabled": 0, "fusion_lat": 0.0, "lat": 38.983832166666666, "bike_id": "5fa5b9c2945ca78677e3d326b9513003", "fusion_lon": 0.0}, {"rental_uris": {"ios": "https://dc.lft.to/lastmile_qr_scan", "android": "https://dc.lft.to/lastmile_qr_scan"}, "type": "electric_scooter", "name": "f30d76818ad2d9fde363f2b0fa1210a7", "is_reserved": 0, "lon": -77.06341183333333, "is_disabled": 0, "fusion_lat": 0.0, "lat": 38.94367783333333, "bike_id": "f30d76818ad2d9fde363f2b0fa1210a7", "fusion_lon": 0.0}, {"rental_uris": {"ios": "https://dc.lft.to/lastmile_qr_scan", "android": "https://dc.lft.to/lastmile_qr_scan"}, "type": "electric_scooter", "name": "929cad5da92de7d0f87175632be002c5", "is_reserved": 0, "lon": -77.01349633333334, "is_disabled": 0, "fusion_lat": 0.0, "lat": 38.919167, "bike_id": "929cad5da92de7d0f87175632be002c5", "fusion_lon": 0.0}, {"rental_uris": {"ios": "https://dc.lft.to/lastmile_qr_scan", "android": "https://dc.lft.to/lastmile_qr_scan"}, "type": "electric_scooter", "name": "c88b5d7fcb47576f7768f69ae3b992c9", "is_reserved": 0, "lon": -77.026374, "is_disabled": 0, "fusion_lat": 0.0, "lat": 38.895956166666664, "bike_id": "c88b5d7fcb47576f7768f69ae3b992c9", "fusion_lon": 0.0}, {"rental_uris": {"ios": "https://dc.lft.to/lastmile_qr_scan", "android": "https://dc.lft.to/lastmile_qr_scan"}, "type": "electric_scooter", "name": "49b467160f1bec1aa8c0cbad4006432d", "is_reserved": 0, "lon": -76.97334483333333, "is_disabled": 0, "fusion_lat": 0.0, "lat": 38.90409733333333, "bike_id": "49b467160f1bec1aa8c0cbad4006432d", "fusion_lon": 0.0}, {"rental_uris": {"ios": "https://dc.lft.to/lastmile_qr_scan", "android": "https://dc.lft.to/lastmile_qr_scan"}, "type": "electric_bike", "name": "69455552bac2f95ee5d144b57b853060", "is_reserved": 0, "lon": -77.08877516666666, "is_disabled": 0, "fusion_lat": 0.0, "lat": 38.938786, "bike_id": "69455552bac2f95ee5d144b57b853060", "fusion_lon": 0.0}, {"rental_uris": {"ios": "https://dc.lft.to/lastmile_qr_scan", "android": "https://dc.lft.to/lastmile_qr_scan"}, "type": "electric_bike", "name": "ac548e9f4f06dcd4d26161d78585e9ab", "is_reserved": 0, "lon": -77.09958416666667, "is_disabled": 0, "fusion_lat": 0.0, "lat": 38.85789066666667, "bike_id": "ac548e9f4f06dcd4d26161d78585e9ab", "fusion_lon": 0.0}, {"rental_uris": {"ios": "https://dc.lft.to/lastmile_qr_scan", "android": "https://dc.lft.to/lastmile_qr_scan"}, "type": "electric_scooter", "name": "e750731c71b6f5124b55891b5d639103", "is_reserved": 0, "lon": -77.03780833333333, "is_disabled": 0, "fusion_lat": 0.0, "lat": 38.91691216666667, "bike_id": "e750731c71b6f5124b55891b5d639103", "fusion_lon": 0.0}, {"rental_uris": {"ios": "https://dc.lft.to/lastmile_qr_scan", "android": "https://dc.lft.to/lastmile_qr_scan"}, "type": "electric_scooter", "name": "1c55ccfd595a8c10ee5ea0d57003f2f6", "is_reserved": 0, "lon": -76.99477333333333, "is_disabled": 0, "fusion_lat": 0.0, "lat": 38.86212066666667, "bike_id": "1c55ccfd595a8c10ee5ea0d57003f2f6", "fusion_lon": 0.0}, {"rental_uris": {"ios": "https://dc.lft.to/lastmile_qr_scan", "android": "https://dc.lft.to/lastmile_qr_scan"}, "type": "electric_scooter", "name": "3919f2f3cc458295e900dc9780bdb0cc", "is_reserved": 0, "lon": -76.99210816666667, "is_disabled": 0, "fusion_lat": 0.0, "lat": 38.889688166666666, "bike_id": "3919f2f3cc458295e900dc9780bdb0cc", "fusion_lon": 0.0}, {"rental_uris": {"ios": "https://dc.lft.to/lastmile_qr_scan", "android": "https://dc.lft.to/lastmile_qr_scan"}, "type": "electric_scooter", "name": "030cb36aca33b10f0d6f8ae4402dd600", "is_reserved": 0, "lon": -77.01763683333333, "is_disabled": 0, "fusion_lat": 0.0, "lat": 38.88013983333333, "bike_id": "030cb36aca33b10f0d6f8ae4402dd600", "fusion_lon": 0.0}, {"rental_uris": {"ios": "https://dc.lft.to/lastmile_qr_scan", "android": "https://dc.lft.to/lastmile_qr_scan"}, "type": "electric_scooter", "name": "176054777652cd97ea08f050cffa5afe", "is_reserved": 0, "lon": -76.99005033333333, "is_disabled": 0, "fusion_lat": 0.0, "lat": 38.86425083333334, "bike_id": "176054777652cd97ea08f050cffa5afe", "fusion_lon": 0.0}, {"rental_uris": {"ios": "https://dc.lft.to/lastmile_qr_scan", "android": "https://dc.lft.to/lastmile_qr_scan"}, "type": "electric_scooter", "name": "fd79754e5c1faf52d996c36cfe54fb54", "is_reserved": 0, "lon": -77.06148666666667, "is_disabled": 0, "fusion_lat": 0.0, "lat": 38.91292933333333, "bike_id": "fd79754e5c1faf52d996c36cfe54fb54", "fusion_lon": 0.0}, {"rental_uris": {"ios": "https://dc.lft.to/lastmile_qr_scan", "android": "https://dc.lft.to/lastmile_qr_scan"}, "type": "electric_scooter", "name": "1635ae8db869e2519ceae4727e51e1f8", "is_reserved": 0, "lon": -77.0161445, "is_disabled": 0, "fusion_lat": 0.0, "lat": 38.9060775, "bike_id": "1635ae8db869e2519ceae4727e51e1f8", "fusion_lon": 0.0}, {"rental_uris": {"ios": "https://dc.lft.to/lastmile_qr_scan", "android": "https://dc.lft.to/lastmile_qr_scan"}, "type": "electric_scooter", "name": "639dd35b871ddd69d3eaab3140765d7a", "is_reserved": 0, "lon": -77.01589566666667, "is_disabled": 0, "fusion_lat": 0.0, "lat": 38.91647, "bike_id": "639dd35b871ddd69d3eaab3140765d7a", "fusion_lon": 0.0}, {"rental_uris": {"ios": "https://dc.lft.to/lastmile_qr_scan", "android": "https://dc.lft.to/lastmile_qr_scan"}, "type": "electric_scooter", "name": "872a21b066835171b917bdcd5b8725ca", "is_reserved": 0, "lon": -77.03863783333334, "is_disabled": 0, "fusion_lat": 0.0, "lat": 38.915598333333335, "bike_id": "872a21b066835171b917bdcd5b8725ca", "fusion_lon": 0.0}, {"rental_uris": {"ios": "https://dc.lft.to/lastmile_qr_scan", "android": "https://dc.lft.to/lastmile_qr_scan"}, "type": "electric_scooter", "name": "e25647cdd2483de593dc1502cf634a5b", "is_reserved": 0, "lon": -77.034479, "is_disabled": 0, "fusion_lat": 0.0, "lat": 38.907334166666665, "bike_id": "e25647cdd2483de593dc1502cf634a5b", "fusion_lon": 0.0}, {"rental_uris": {"ios": "https://dc.lft.to/lastmile_qr_scan", "android": "https://dc.lft.to/lastmile_qr_scan"}, "type": "electric_scooter", "name": "68032b76f4441b8c721a11b9bf880dbf", "is_reserved": 0, "lon": -77.02905166666666, "is_disabled": 0, "fusion_lat": 0.0, "lat": 38.94040833333333, "bike_id": "68032b76f4441b8c721a11b9bf880dbf", "fusion_lon": 0.0}, {"rental_uris": {"ios": "https://dc.lft.to/lastmile_qr_scan", "android": "https://dc.lft.to/lastmile_qr_scan"}, "type": "electric_scooter", "name": "d710f2736e0ba1f94d56fe132384ea81", "is_reserved": 0, "lon": -77.0436765, "is_disabled": 0, "fusion_lat": 0.0, "lat": 38.916536, "bike_id": "d710f2736e0ba1f94d56fe132384ea81", "fusion_lon": 0.0}, {"rental_uris": {"ios": "https://dc.lft.to/lastmile_qr_scan", "android": "https://dc.lft.to/lastmile_qr_scan"}, "type": "electric_scooter", "name": "2026cbcb5dd672064f941ea7819204a0", "is_reserved": 0, "lon": -77.09369383333333, "is_disabled": 0, "fusion_lat": 0.0, "lat": 38.884106333333335, "bike_id": "2026cbcb5dd672064f941ea7819204a0", "fusion_lon": 0.0}, {"rental_uris": {"ios": "https://dc.lft.to/lastmile_qr_scan", "android": "https://dc.lft.to/lastmile_qr_scan"}, "type": "electric_scooter", "name": "64fa2a4c0d7a59a28cb2ab89d8fbd0a6", "is_reserved": 0, "lon": -77.03464383333333, "is_disabled": 0, "fusion_lat": 0.0, "lat": 38.90798516666667, "bike_id": "64fa2a4c0d7a59a28cb2ab89d8fbd0a6", "fusion_lon": 0.0}, {"rental_uris": {"ios": "https://dc.lft.to/lastmile_qr_scan", "android": "https://dc.lft.to/lastmile_qr_scan"}, "type": "electric_scooter", "name": "13b29c53338d694e881dab7338e17834", "is_reserved": 0, "lon": -77.0288975, "is_disabled": 0, "fusion_lat": 0.0, "lat": 38.90722866666667, "bike_id": "13b29c53338d694e881dab7338e17834", "fusion_lon": 0.0}, {"rental_uris": {"ios": "https://dc.lft.to/lastmile_qr_scan", "android": "https://dc.lft.to/lastmile_qr_scan"}, "type": "electric_scooter", "name": "d8fc685d6281808a8697aaef089d86a1", "is_reserved": 0, "lon": -77.01889333333334, "is_disabled": 0, "fusion_lat": 0.0, "lat": 38.89751583333333, "bike_id": "d8fc685d6281808a8697aaef089d86a1", "fusion_lon": 0.0}, {"rental_uris": {"ios": "https://dc.lft.to/lastmile_qr_scan", "android": "https://dc.lft.to/lastmile_qr_scan"}, "type": "electric_bike", "name": "b0240d65661632cc5237dfe3429e9aeb", "is_reserved": 0, "lon": -76.94974366666666, "is_disabled": 0, "fusion_lat": 0.0, "lat": 38.88301116666667, "bike_id": "b0240d65661632cc5237dfe3429e9aeb", "fusion_lon": 0.0}, {"rental_uris": {"ios": "https://dc.lft.to/lastmile_qr_scan", "android": "https://dc.lft.to/lastmile_qr_scan"}, "type": "electric_scooter", "name": "e3331ab7201e50cb6d6ad160757ce7d4", "is_reserved": 0, "lon": -76.98499566666666, "is_disabled": 0, "fusion_lat": 0.0, "lat": 38.920103166666664, "bike_id": "e3331ab7201e50cb6d6ad160757ce7d4", "fusion_lon": 0.0}, {"rental_uris": {"ios": "https://dc.lft.to/lastmile_qr_scan", "android": "https://dc.lft.to/lastmile_qr_scan"}, "type": "electric_scooter", "name": "d60ed753ab192fa820f638bb16f1018a", "is_reserved": 0, "lon": -77.03728133333334, "is_disabled": 0, "fusion_lat": 0.0, "lat": 38.920272, "bike_id": "d60ed753ab192fa820f638bb16f1018a", "fusion_lon": 0.0}, {"rental_uris": {"ios": "https://dc.lft.to/lastmile_qr_scan", "android": "https://dc.lft.to/lastmile_qr_scan"}, "type": "electric_scooter", "name": "3101ea7354d76eab8feba43fd3b20e33", "is_reserved": 0, "lon": -76.98540366666667, "is_disabled": 0, "fusion_lat": 0.0, "lat": 38.8585235, "bike_id": "3101ea7354d76eab8feba43fd3b20e33", "fusion_lon": 0.0}, {"rental_uris": {"ios": "https://dc.lft.to/lastmile_qr_scan", "android": "https://dc.lft.to/lastmile_qr_scan"}, "type": "electric_scooter", "name": "fce1f98a491c46a2b61572d1f2ec99d4", "is_reserved": 0, "lon": -76.92666233333334, "is_disabled": 0, "fusion_lat": 0.0, "lat": 38.88233116666667, "bike_id": "fce1f98a491c46a2b61572d1f2ec99d4", "fusion_lon": 0.0}, {"rental_uris": {"ios": "https://dc.lft.to/lastmile_qr_scan", "android": "https://dc.lft.to/lastmile_qr_scan"}, "type": "electric_scooter", "name": "cf8118f285f131637edc87c17648f6e4", "is_reserved": 0, "lon": -77.030256, "is_disabled": 0, "fusion_lat": 0.0, "lat": 38.878508833333335, "bike_id": "cf8118f285f131637edc87c17648f6e4", "fusion_lon": 0.0}, {"rental_uris": {"ios": "https://dc.lft.to/lastmile_qr_scan", "android": "https://dc.lft.to/lastmile_qr_scan"}, "type": "electric_scooter", "name": "70d9239344431b80415ae8fb168d7b8b", "is_reserved": 0, "lon": -77.01197483333333, "is_disabled": 0, "fusion_lat": 0.0, "lat": 38.89706916666667, "bike_id": "70d9239344431b80415ae8fb168d7b8b", "fusion_lon": 0.0}, {"rental_uris": {"ios": "https://dc.lft.to/lastmile_qr_scan", "android": "https://dc.lft.to/lastmile_qr_scan"}, "type": "electric_scooter", "name": "0047eb92ac58a4499494fdfef9eca901", "is_reserved": 0, "lon": -77.00877016666666, "is_disabled": 0, "fusion_lat": 0.0, "lat": 38.911748833333334, "bike_id": "0047eb92ac58a4499494fdfef9eca901", "fusion_lon": 0.0}, {"rental_uris": {"ios": "https://dc.lft.to/lastmile_qr_scan", "android": "https://dc.lft.to/lastmile_qr_scan"}, "type": "electric_scooter", "name": "57005402130e6d62eafce1971a7af0c9", "is_reserved": 0, "lon": -77.02414516666667, "is_disabled": 0, "fusion_lat": 0.0, "lat": 38.92805516666667, "bike_id": "57005402130e6d62eafce1971a7af0c9", "fusion_lon": 0.0}, {"rental_uris": {"ios": "https://dc.lft.to/lastmile_qr_scan", "android": "https://dc.lft.to/lastmile_qr_scan"}, "type": "electric_scooter", "name": "87d8801d40d604f7be2a46abe8564f6d", "is_reserved": 0, "lon": -77.04382166666667, "is_disabled": 0, "fusion_lat": 0.0, "lat": 38.89732583333333, "bike_id": "87d8801d40d604f7be2a46abe8564f6d", "fusion_lon": 0.0}, {"rental_uris": {"ios": "https://dc.lft.to/lastmile_qr_scan", "android": "https://dc.lft.to/lastmile_qr_scan"}, "type": "electric_bike", "name": "84dd095ac1b47f190aa7949b3595eb7c", "is_reserved": 0, "lon": -76.98373016666666, "is_disabled": 0, "fusion_lat": 0.0, "lat": 38.914975166666665, "bike_id": "84dd095ac1b47f190aa7949b3595eb7c", "fusion_lon": 0.0}, {"rental_uris": {"ios": "https://dc.lft.to/lastmile_qr_scan", "android": "https://dc.lft.to/lastmile_qr_scan"}, "type": "electric_bike", "name": "5324c1eb5563bfbbd1603cfcc5e795ef", "is_reserved": 0, "lon": -77.0282705, "is_disabled": 0, "fusion_lat": 0.0, "lat": 38.965626, "bike_id": "5324c1eb5563bfbbd1603cfcc5e795ef", "fusion_lon": 0.0}, {"rental_uris": {"ios": "https://dc.lft.to/lastmile_qr_scan", "android": "https://dc.lft.to/lastmile_qr_scan"}, "type": "electric_bike", "name": "568241ea1b581916644161620fc9e5b7", "is_reserved": 0, "lon": -77.0054565, "is_disabled": 0, "fusion_lat": 0.0, "lat": 38.87935566666667, "bike_id": "568241ea1b581916644161620fc9e5b7", "fusion_lon": 0.0}, {"rental_uris": {"ios": "https://dc.lft.to/lastmile_qr_scan", "android": "https://dc.lft.to/lastmile_qr_scan"}, "type": "electric_scooter", "name": "06472fbfc2b29f124b947e0eb8972e42", "is_reserved": 0, "lon": -77.0291765, "is_disabled": 0, "fusion_lat": 0.0, "lat": 38.93457133333333, "bike_id": "06472fbfc2b29f124b947e0eb8972e42", "fusion_lon": 0.0}, {"rental_uris": {"ios": "https://dc.lft.to/lastmile_qr_scan", "android": "https://dc.lft.to/lastmile_qr_scan"}, "type": "electric_scooter", "name": "fe44bb25d60c5bb6289542699342959c", "is_reserved": 0, "lon": -77.04829766666667, "is_disabled": 0, "fusion_lat": 0.0, "lat": 38.90056166666667, "bike_id": "fe44bb25d60c5bb6289542699342959c", "fusion_lon": 0.0}, {"rental_uris": {"ios": "https://dc.lft.to/lastmile_qr_scan", "android": "https://dc.lft.to/lastmile_qr_scan"}, "type": "electric_scooter", "name": "cdeed3134e83fdb0e6273b93491d841a", "is_reserved": 0, "lon": -77.08592033333333, "is_disabled": 0, "fusion_lat": 0.0, "lat": 38.90870016666667, "bike_id": "cdeed3134e83fdb0e6273b93491d841a", "fusion_lon": 0.0},