{"data": {"bikes": [{"is_disabled": 0, "is_reserved": 0, "fusion_lat": 0.0, "lat": 38.915189166666664, "fusion_lon": 0.0, "rental_uris": {"ios": "https://dc.lft.to/lastmile_qr_scan", "android": "https://dc.lft.to/lastmile_qr_scan"}, "lon": -77.0184255, "bike_id": "de00851187e83c5d4db090d6b19503ec", "type": "electric_scooter", "name": "de00851187e83c5d4db090d6b19503ec"}, {"is_disabled": 0, "is_reserved": 0, "fusion_lat": 0.0, "lat": 38.957832, "fusion_lon": 0.0, "rental_uris": {"ios": "https://dc.lft.to/lastmile_qr_scan", "android": "https://dc.lft.to/lastmile_qr_scan"}, "lon": -77.0241305, "bike_id": "7f284d12c86947f4448ac25d6c5b7741", "type": "electric_scooter", "name": "7f284d12c86947f4448ac25d6c5b7741"}, {"is_disabled": 0, "is_reserved": 0, "fusion_lat": 0.0, "lat": 38.9297, "fusion_lon": 0.0, "rental_uris": {"ios": "https://dc.lft.to/lastmile_qr_scan", "android": "https://dc.lft.to/lastmile_qr_scan"}, "lon": -77.0282235, "bike_id": "47107868326498ab6327128c42ce0917", "type": "electric_scooter", "name": "47107868326498ab6327128c42ce0917"}, {"is_disabled": 0, "is_reserved": 0, "fusion_lat": 0.0, "lat": 38.912696, "fusion_lon": 0.0, "rental_uris": {"ios": "https://dc.lft.to/lastmile_qr_scan", "android": "https://dc.lft.to/lastmile_qr_scan"}, "lon": -77.03137566666666, "bike_id": "3e35af55eaadf587946f96ba59eec450", "type": "electric_scooter", "name": "3e35af55eaadf587946f96ba59eec450"}, {"is_disabled": 0, "is_reserved": 0, "fusion_lat": 0.0, "lat": 38.8931115, "fusion_lon": 0.0, "rental_uris": {"ios": "https://dc.lft.to/lastmile_qr_scan", "android": "https://dc.lft.to/lastmile_qr_scan"}, "lon": -77.02207266666667, "bike_id": "440063014f5ac7c7846631cfa2ef848e", "type": "electric_scooter", "name": "440063014f5ac7c7846631cfa2ef848e"}, {"is_disabled": 0, "is_reserved": 0, "fusion_lat": 0.0, "lat": 38.90533166666667, "fusion_lon": 0.0, "rental_uris": {"ios": "https://dc.lft.to/lastmile_qr_scan", "android": "https://dc.lft.to/lastmile_qr_scan"}, "lon": -77.06521633333334, "bike_id": "0e1fc97a4329695482b19d91317d9ecc", "type": "electric_scooter", "name": "0e1fc97a4329695482b19d91317d9ecc"}, {"is_disabled": 0, "is_reserved": 0, "fusion_lat": 0.0, "lat": 38.9003055, "fusion_lon": 0.0, "rental_uris": {"ios": "https://dc.lft.to/lastmile_qr_scan", "android": "https://dc.lft.to/lastmile_qr_scan"}, "lon": -76.9985645, "bike_id": "a9595fd8b097eec0689ff1777c55105e", "type": "electric_scooter", "name": "a9595fd8b097eec0689ff1777c55105e"}, {"is_disabled": 0, "is_reserved": 0, "fusion_lat": 0.0, "lat": 38.910088333333334, "fusion_lon": 0.0, "rental_uris": {"ios": "https://dc.lft.to/lastmile_qr_scan", "android": "https://dc.lft.to/lastmile_qr_scan"}, "lon": -77.012086, "bike_id": "606142160f116a359e8e04ee6f0d914d", "type": "electric_scooter", "name": "606142160f116a359e8e04ee6f0d914d"}, {"is_disabled": 0, "is_reserved": 0, "fusion_lat": 0.0, "lat": 38.916751833333336, "fusion_lon": 0.0, "rental_uris": {"ios": "https://dc.lft.to/lastmile_qr_scan", "android": "https://dc.lft.to/lastmile_qr_scan"}, "lon": -77.046122, "bike_id": "4e667c6d93af1fc5c68f8408da67a88c", "type": "electric_scooter", "name": "4e667c6d93af1fc5c68f8408da67a88c"}, {"is_disabled": 0, "is_reserved": 0, "fusion_lat": 0.0, "lat": 38.906305333333336, "fusion_lon": 0.0, "rental_uris": {"ios": "https://dc.lft.to/lastmile_qr_scan", "android": "https://dc.lft.to/lastmile_qr_scan"}, "lon": -77.06906516666666, "bike_id": "3f883874d01e85ebbb082c0b43e96b60", "type": "electric_scooter", "name": "3f883874d01e85ebbb082c0b43e96b60"}, {"is_disabled": 0, "is_reserved": 0, "fusion_lat": 0.0, "lat": 38.952421, "fusion_lon": 0.0, "rental_uris": {"ios": "https://dc.lft.to/lastmile_qr_scan", "android": "https://dc.lft.to/lastmile_qr_scan"}, "lon": -76.97952883333333, "bike_id": "73d9cfd6e74167c3883c72eb61bc50f8", "type": "electric_bike", "name": "73d9cfd6e74167c3883c72eb61bc50f8"}, {"is_disabled": 0, "is_reserved": 0, "fusion_lat": 0.0, "lat": 38.89619916666667, "fusion_lon": 0.0, "rental_uris": {"ios": "https://dc.lft.to/lastmile_qr_scan", "android": "https://dc.lft.to/lastmile_qr_scan"}, "lon": -77.03169816666667, "bike_id": "27f7c4823a8e621670803fdfd2554ffd", "type": "electric_scooter", "name": "27f7c4823a8e621670803fdfd2554ffd"}, {"is_disabled": 0, "is_reserved": 0, "fusion_lat": 0.0, "lat": 38.89609883333333, "fusion_lon": 0.0, "rental_uris": {"ios": "https://dc.lft.to/lastmile_qr_scan", "android": "https://dc.lft.to/lastmile_qr_scan"}, "lon": -76.99802383333333, "bike_id": "e987a93772a32f4930beb3795c5283e7", "type": "electric_scooter", "name": "e987a93772a32f4930beb3795c5283e7"}, {"is_disabled": 0, "is_reserved": 0, "fusion_lat": 0.0, "lat": 38.916024166666666, "fusion_lon": 0.0, "rental_uris": {"ios": "https://dc.lft.to/lastmile_qr_scan", "android": "https://dc.lft.to/lastmile_qr_scan"}, "lon": -77.01218383333334, "bike_id": "ba62c90c7d5af2c8052d82b87431aa09", "type": "electric_scooter", "name": "ba62c90c7d5af2c8052d82b87431aa09"}, {"is_disabled": 0, "is_reserved": 0, "fusion_lat": 0.0, "lat": 38.9110775, "fusion_lon": 0.0, "rental_uris": {"ios": "https://dc.lft.to/lastmile_qr_scan", "android": "https://dc.lft.to/lastmile_qr_scan"}, "lon": -77.01159566666666, "bike_id": "2a5d6754fa46b88a91c468983effa662", "type": "electric_scooter", "name": "2a5d6754fa46b88a91c468983effa662"}, {"is_disabled": 0, "is_reserved": 0, "fusion_lat": 0.0, "lat": 38.92343433333333, "fusion_lon": 0.0, "rental_uris": {"ios": "https://dc.lft.to/lastmile_qr_scan", "android": "https://dc.lft.to/lastmile_qr_scan"}, "lon": -77.01901516666666, "bike_id": "3dc27197ad6bc3f811fa72d3c590704b", "type": "electric_scooter", "name": "3dc27197ad6bc3f811fa72d3c590704b"}, {"is_disabled": 0, "is_reserved": 0, "fusion_lat": 0.0, "lat": 38.91542316666666, "fusion_lon": 0.0, "rental_uris": {"ios": "https://dc.lft.to/lastmile_qr_scan", "android": "https://dc.lft.to/lastmile_qr_scan"}, "lon": -77.00913066666666, "bike_id": "edc2cf9d57fcb8183d372a533fd60dd4", "type": "electric_scooter", "name": "edc2cf9d57fcb8183d372a533fd60dd4"}, {"is_disabled": 0, "is_reserved": 0, "fusion_lat": 0.0, "lat": 38.90728716666667, "fusion_lon": 0.0, "rental_uris": {"ios": "https://dc.lft.to/lastmile_qr_scan", "android": "https://dc.lft.to/lastmile_qr_scan"}, "lon": -77.07164983333334, "bike_id": "dacc3adc2c580f98e0c861998c10eb1c", "type": "electric_scooter", "name": "dacc3adc2c580f98e0c861998c10eb1c"}, {"is_disabled": 0, "is_reserved": 0, "fusion_lat": 0.0, "lat": 38.897186166666664, "fusion_lon": 0.0, "rental_uris": {"ios": "https://dc.lft.to/lastmile_qr_scan", "android": "https://dc.lft.to/lastmile_qr_scan"}, "lon": -77.0259515, "bike_id": "4ae159b39fa1ce47745d92c17faa628c", "type": "electric_scooter", "name": "4ae159b39fa1ce47745d92c17faa628c"}, {"is_disabled": 0, "is_reserved": 0, "fusion_lat": 0.0, "lat": 38.931762, "fusion_lon": 0.0, "rental_uris": {"ios": "https://dc.lft.to/lastmile_qr_scan", "android": "https://dc.lft.to/lastmile_qr_scan"}, "lon": -77.0281845, "bike_id": "64da5dbcbb59f8da55fedd3f3027fc16", "type": "electric_scooter", "name": "64da5dbcbb59f8da55fedd3f3027fc16"}, {"is_disabled": 0, "is_reserved": 0, "fusion_lat": 0.0, "lat": 38.91564283333334, "fusion_lon": 0.0, "rental_uris": {"ios": "https://dc.lft.to/lastmile_qr_scan", "android": "https://dc.lft.to/lastmile_qr_scan"}, "lon": -77.0007625, "bike_id": "38cfc98115f8126712c81c777fdaaeff", "type": "electric_scooter", "name": "38cfc98115f8126712c81c777fdaaeff"}, {"is_disabled": 0, "is_reserved": 0, "fusion_lat": 0.0, "lat": 38.90716283333333, "fusion_lon": 0.0, "rental_uris": {"ios": "https://dc.lft.to/lastmile_qr_scan", "android": "https://dc.lft.to/lastmile_qr_scan"}, "lon": -77.0350605, "bike_id": "8f77290af670da9c17f3d5545b4dd27b", "type": "electric_scooter", "name": "8f77290af670da9c17f3d5545b4dd27b"}, {"is_disabled": 0, "is_reserved": 0, "fusion_lat": 0.0, "lat": 38.82210083333333, "fusion_lon": 0.0, "rental_uris": {"ios": "https://dc.lft.to/lastmile_qr_scan", "android": "https://dc.lft.to/lastmile_qr_scan"}, "lon": -76.977031, "bike_id": "c373412bc3d4059da753e6e2cb868113", "type": "electric_bike", "name": "c373412bc3d4059da753e6e2cb868113"}, {"is_disabled": 0, "is_reserved": 0, "fusion_lat": 0.0, "lat": 38.9261675, "fusion_lon": 0.0, "rental_uris": {"ios": "https://dc.lft.to/lastmile_qr_scan", "android": "https://dc.lft.to/lastmile_qr_scan"}, "lon": -77.079715, "bike_id": "06408a977fa2276b628d6c90b6d24c87", "type": "electric_scooter", "name": "06408a977fa2276b628d6c90b6d24c87"}, {"is_disabled": 0, "is_reserved": 0, "fusion_lat": 0.0, "lat": 38.911401833333336, "fusion_lon": 0.0, "rental_uris": {"ios": "https://dc.lft.to/lastmile_qr_scan", "android": "https://dc.lft.to/lastmile_qr_scan"}, "lon": -77.02186116666667, "bike_id": "7379527dd6ccb49560c7679cedc434c1", "type": "electric_scooter", "name": "7379527dd6ccb49560c7679cedc434c1"}, {"is_disabled": 0, "is_reserved": 0, "fusion_lat": 0.0, "lat": 38.90506583333333, "fusion_lon": 0.0, "rental_uris": {"ios": "https://dc.lft.to/lastmile_qr_scan", "android": "https://dc.lft.to/lastmile_qr_scan"}, "lon": -77.06016716666667, "bike_id": "c7f0bd92ad99e37d9852667763aca30b", "type": "electric_scooter", "name": "c7f0bd92ad99e37d9852667763aca30b"}, {"is_disabled": 0, "is_reserved": 0, "fusion_lat": 0.0, "lat": 38.9044415, "fusion_lon": 0.0, "rental_uris": {"ios": "https://dc.lft.to/lastmile_qr_scan", "android": "https://dc.lft.to/lastmile_qr_scan"}, "lon": -77.03111066666666, "bike_id": "5108b811fcaf3fd3cddac9e1c87840c0", "type": "electric_scooter", "name": "5108b811fcaf3fd3cddac9e1c87840c0"}, {"is_disabled": 0, "is_reserved": 0, "fusion_lat": 0.0, "lat": 38.921389, "fusion_lon": 0.0, "rental_uris": {"ios": "https://dc.lft.to/lastmile_qr_scan", "android": "https://dc.lft.to/lastmile_qr_scan"}, "lon": -77.04565533333333, "bike_id": "ba355a913bc999598a17bd2d1d86f0f3", "type": "electric_scooter", "name": "ba355a913bc999598a17bd2d1d86f0f3"}, {"is_disabled": 0, "is_reserved": 0, "fusion_lat": 0.0, "lat": 38.884435, "fusion_lon": 0.0, "rental_uris": {"ios": "https://dc.lft.to/lastmile_qr_scan", "android": "https://dc.lft.to/lastmile_qr_scan"}, "lon": -77.0248825, "bike_id": "77118e943ac333a6659c5a96ca3330c1", "type": "electric_scooter", "name": "77118e943ac333a6659c5a96ca3330c1"}, {"is_disabled": 0, "is_reserved": 0, "fusion_lat": 0.0, "lat": 38.905365333333336, "fusion_lon": 0.0, "rental_uris": {"ios": "https://dc.lft.to/lastmile_qr_scan", "android": "https://dc.lft.to/lastmile_qr_scan"}, "lon": -77.00538066666667, "bike_id": "1f5eb6da19c591bc43487acca3f8b3e1", "type": "electric_scooter", "name": "1f5eb6da19c591bc43487acca3f8b3e1"}, {"is_disabled": 0, "is_reserved": 0, "fusion_lat": 0.0, "lat": 38.8073305, "fusion_lon": 0.0, "rental_uris": {"ios": "https://dc.lft.to/lastmile_qr_scan", "android": "https://dc.lft.to/lastmile_qr_scan"}, "lon": -76.99262783333333, "bike_id": "d05a519c44d3b57572673eb60f0de400", "type": "electric_bike", "name": "d05a519c44d3b57572673eb60f0de400"}, {"is_disabled": 0, "is_reserved": 0, "fusion_lat": 0.0, "lat": 38.93354, "fusion_lon": 0.0, "rental_uris": {"ios": "https://dc.lft.to/lastmile_qr_scan", "android": "https://dc.lft.to/lastmile_qr_scan"}, "lon": -77.02562683333333, "bike_id": "1fe810226e74e7f753c0f983863f4694", "type": "electric_scooter", "name": "1fe810226e74e7f753c0f983863f4694"}, {"is_disabled": 0, "is_reserved": 0, "fusion_lat": 0.0, "lat": 38.88140466666667, "fusion_lon": 0.0, "rental_uris": {"ios": "https://dc.lft.to/lastmile_qr_scan", "android": "https://dc.lft.to/lastmile_qr_scan"}, "lon": -76.996149, "bike_id": "f075f64ad9c3321d381d17b43197cacd", "type": "electric_scooter", "name": "f075f64ad9c3321d381d17b43197cacd"}, {"is_disabled": 0, "is_reserved": 0, "fusion_lat": 0.0, "lat": 38.89204066666667, "fusion_lon": 0.0, "rental_uris": {"ios": "https://dc.lft.to/lastmile_qr_scan", "android": "https://dc.lft.to/lastmile_qr_scan"}, "lon": -77.00297866666666, "bike_id": "71b0ab21f525658ada370bec8a3d541a", "type": "electric_scooter", "name": "71b0ab21f525658ada370bec8a3d541a"}, {"is_disabled": 0, "is_reserved": 0, "fusion_lat": 0.0, "lat": 38.962244, "fusion_lon": 0.0, "rental_uris": {"ios": "https://dc.lft.to/lastmile_qr_scan", "android": "https://dc.lft.to/lastmile_qr_scan"}, "lon": -77.0262565, "bike_id": "c7e787c39666ada760311d575b03fd9b", "type": "electric_bike", "name": "c7e787c39666ada760311d575b03fd9b"}, {"is_disabled": 0, "is_reserved": 0, "fusion_lat": 0.0, "lat": 38.919870833333334, "fusion_lon": 0.0, "rental_uris": {"ios": "https://dc.lft.to/lastmile_qr_scan", "android": "https://dc.lft.to/lastmile_qr_scan"}, "lon": -77.03242083333333, "bike_id": "4cef698309f2316ac424b9f03aefb70c", "type": "electric_scooter", "name": "4cef698309f2316ac424b9f03aefb70c"}, {"is_disabled": 0, "is_reserved": 0, "fusion_lat": 0.0, "lat": 38.92456266666667, "fusion_lon": 0.0, "rental_uris": {"ios": "https://dc.lft.to/lastmile_qr_scan", "android": "https://dc.lft.to/lastmile_qr_scan"}, "lon": -77.0202475, "bike_id": "571f367191d62fc071ac91e8aa3df413", "type": "electric_scooter", "name": "571f367191d62fc071ac91e8aa3df413"}, {"is_disabled": 0, "is_reserved": 0, "fusion_lat": 0.0, "lat": 38.92355633333333, "fusion_lon": 0.0, "rental_uris": {"ios": "https://dc.lft.to/lastmile_qr_scan", "android": "https://dc.lft.to/lastmile_qr_scan"}, "lon": -77.00196883333334, "bike_id": "dfdbe9b9fda02305bee02648f4147f1f", "type": "electric_scooter", "name": "dfdbe9b9fda02305bee02648f4147f1f"}, {"is_disabled": 0, "is_reserved": 0, "fusion_lat": 0.0, "lat": 38.9233965, "fusion_lon": 0.0, "rental_uris": {"ios": "https://dc.lft.to/lastmile_qr_scan", "android": "https://dc.lft.to/lastmile_qr_scan"}, "lon": -77.03523583333333, "bike_id": "de38d23bcb9514561d003b14b972fbac", "type": "electric_scooter", "name": "de38d23bcb9514561d003b14b972fbac"}, {"is_disabled": 0, "is_reserved": 0, "fusion_lat": 0.0, "lat": 38.914138666666666, "fusion_lon": 0.0, "rental_uris": {"ios": "https://dc.lft.to/lastmile_qr_scan", "android": "https://dc.lft.to/lastmile_qr_scan"}, "lon": -77.02209983333333, "bike_id": "1ad678b0ced0bc957299da2f6fa72b24", "type": "electric_scooter", "name": "1ad678b0ced0bc957299da2f6fa72b24"}, {"is_disabled": 0, "is_reserved": 0, "fusion_lat": 0.0, "lat": 38.95594966666667, "fusion_lon": 0.0, "rental_uris": {"ios": "https://dc.lft.to/lastmile_qr_scan", "android": "https://dc.lft.to/lastmile_qr_scan"}, "lon": -77.01003566666667, "bike_id": "397824d51947065ef17ea6c790082e9b", "type": "electric_bike", "name": "397824d51947065ef17ea6c790082e9b"}, {"is_disabled": 0, "is_reserved": 0, "fusion_lat": 0.0, "lat": 38.89634266666667, "fusion_lon": 0.0, "rental_uris": {"ios": "https://dc.lft.to/lastmile_qr_scan", "android": "https://dc.lft.to/lastmile_qr_scan"}, "lon": -77.04333883333334, "bike_id": "b9ae2090b6b2f333cf9b50b3a67322c2", "type": "electric_scooter", "name": "b9ae2090b6b2f333cf9b50b3a67322c2"}, {"is_disabled": 0, "is_reserved": 0, "fusion_lat": 0.0, "lat": 38.9103915, "fusion_lon": 0.0, "rental_uris": {"ios": "https://dc.lft.to/lastmile_qr_scan", "android": "https://dc.lft.to/lastmile_qr_scan"}, "lon": -76.9383325, "bike_id": "3104a3c02134067562bbe061492cd8ec", "type": "electric_scooter", "name": "3104a3c02134067562bbe061492cd8ec"}, {"is_disabled": 0, "is_reserved": 0, "fusion_lat": 0.0, "lat": 38.91111433333333, "fusion_lon": 0.0, "rental_uris": {"ios": "https://dc.lft.to/lastmile_qr_scan", "android": "https://dc.lft.to/lastmile_qr_scan"}, "lon": -77.02231266666666, "bike_id": "8e61de298033021ca75786f462b69d85", "type": "electric_scooter", "name": "8e61de298033021ca75786f462b69d85"}, {"is_disabled": 0, "is_reserved": 0, "fusion_lat": 0.0, "lat": 38.8991105, "fusion_lon": 0.0, "rental_uris": {"ios": "https://dc.lft.to/lastmile_qr_scan", "android": "https://dc.lft.to/lastmile_qr_scan"}, "lon": -76.98033916666667, "bike_id": "6b59b870af9b3c1da58228887ee5b5a8", "type": "electric_scooter", "name": "6b59b870af9b3c1da58228887ee5b5a8"}, {"is_disabled": 0, "is_reserved": 0, "fusion_lat": 0.0, "lat": 38.890185833333334, "fusion_lon": 0.0, "rental_uris": {"ios": "https://dc.lft.to/lastmile_qr_scan", "android": "https://dc.lft.to/lastmile_qr_scan"}, "lon": -76.93733833333333, "bike_id": "60b5a5fe8495c78ab65efece43c78351", "type": "electric_scooter", "name": "60b5a5fe8495c78ab65efece43c78351"}, {"is_disabled": 0, "is_reserved": 0, "fusion_lat": 0.0, "lat": 38.899379833333334, "fusion_lon": 0.0, "rental_uris": {"ios": "https://dc.lft.to/lastmile_qr_scan", "android": "https://dc.lft.to/lastmile_qr_scan"}, "lon": -76.93759516666667, "bike_id": "28a253a383123530cd0a0e74a66ca818", "type": "electric_scooter", "name": "28a253a383123530cd0a0e74a66ca818"}, {"is_disabled": 0, "is_reserved": 0, "fusion_lat": 0.0, "lat": 38.90184966666666, "fusion_lon": 0.0, "rental_uris": {"ios": "https://dc.lft.to/lastmile_qr_scan", "android": "https://dc.lft.to/lastmile_qr_scan"}, "lon": -76.97670516666666, "bike_id": "78d2cf06bb05881f7deddd254da303b5", "type": "electric_scooter", "name": "78d2cf06bb05881f7deddd254da303b5"}, {"is_disabled": 0, "is_reserved": 0, "fusion_lat": 0.0, "lat": 38.903506166666666, "fusion_lon": 0.0, "rental_uris": {"ios": "https://dc.lft.to/lastmile_qr_scan", "android": "https://dc.lft.to/lastmile_qr_scan"}, "lon": -77.02123566666667, "bike_id": "6c37321c3f7099b9e3dd36a14bbac962", "type": "electric_scooter", "name": "6c37321c3f7099b9e3dd36a14bbac962"}, {"is_disabled": 0, "is_reserved": 0, "fusion_lat": 0.0, "lat": 38.91600716666667, "fusion_lon": 0.0, "rental_uris": {"ios": "https://dc.lft.to/lastmile_qr_scan", "android": "https://dc.lft.to/lastmile_qr_scan"}, "lon": -77.015868, "bike_id": "31371fe469702573040300114539b1db", "type": "electric_scooter", "name": "31371fe469702573040300114539b1db"}, {"is_disabled": 0, "is_reserved": 0, "fusion_lat": 0.0, "lat": 38.88006433333334, "fusion_lon": 0.0, "rental_uris": {"ios": "https://dc.lft.to/lastmile_qr_scan", "android": "https://dc.lft.to/lastmile_qr_scan"}, "lon": -76.99835766666666, "bike_id": "4ef448b509b968e67d1f29c2266d57f0", "type": "electric_scooter", "name": "4ef448b509b968e67d1f29c2266d57f0"}, {"is_disabled": 0, "is_reserved": 0, "fusion_lat": 0.0, "lat": 38.907701833333334, "fusion_lon": 0.0, "rental_uris": {"ios": "https://dc.lft.to/lastmile_qr_scan", "android": "https://dc.lft.to/lastmile_qr_scan"}, "lon": -77.02379566666667, "bike_id": "d252599f517d19073b6aaeba6caff221", "type": "electric_scooter", "name": "d252599f517d19073b6aaeba6caff221"}, {"is_disabled": 0, "is_reserved": 0, "fusion_lat": 0.0, "lat": 38.90395183333333, "fusion_lon": 0.0, "rental_uris": {"ios": "https://dc.lft.to/lastmile_qr_scan", "android": "https://dc.lft.to/lastmile_qr_scan"}, "lon": -77.01620433333333, "bike_id": "5b3ed06a49694b014bb3fe3e2f27bffd", "type": "electric_scooter", "name": "5b3ed06a49694b014bb3fe3e2f27bffd"}, {"is_disabled": 0, "is_reserved": 0, "fusion_lat": 0.0, "lat": 38.910405833333336, "fusion_lon": 0.0, "rental_uris": {"ios": "https://dc.lft.to/lastmile_qr_scan", "android": "https://dc.lft.to/lastmile_qr_scan"}, "lon": -77.04045733333334, "bike_id": "641ad55adb9bd5d76e1b5bd6454f59b0", "type": "electric_scooter", "name": "641ad55adb9bd5d76e1b5bd6454f59b0"}, {"is_disabled": 0, "is_reserved": 0, "fusion_lat": 0.0, "lat": 38.902721166666666, "fusion_lon": 0.0, "rental_uris": {"ios": "https://dc.lft.to/lastmile_qr_scan", "android": "https://dc.lft.to/lastmile_qr_scan"}, "lon": -77.00890716666666, "bike_id": "631533d35f713a382f1f88df40386ab8", "type": "electric_scooter", "name": "631533d35f713a382f1f88df40386ab8"}, {"is_disabled": 0, "is_reserved": 0, "fusion_lat": 0.0, "lat": 38.88881633333333, "fusion_lon": 0.0, "rental_uris": {"ios": "https://dc.lft.to/lastmile_qr_scan", "android": "https://dc.lft.to/lastmile_qr_scan"}, "lon": -76.956975, "bike_id": "b1546c1d1eca08c787740fedc4d2672e", "type": "electric_bike", "name": "b1546c1d1eca08c787740fedc4d2672e"}, {"is_disabled": 0, "is_reserved": 0, "fusion_lat": 0.0, "lat": 38.9081285, "fusion_lon": 0.0, "rental_uris": {"ios": "https://dc.lft.to/lastmile_qr_scan", "android": "https://dc.lft.to/lastmile_qr_scan"}, "lon": -77.00609783333333, "bike_id": "a1028a245bd063b7102b48c37e21c4c1", "type": "electric_scooter", "name": "a1028a245bd063b7102b48c37e21c4c1"}, {"is_disabled": 0, "is_reserved": 0, "fusion_lat": 0.0, "lat": 38.90135933333333, "fusion_lon": 0.0, "rental_uris": {"ios": "https://dc.lft.to/lastmile_qr_scan", "android": "https://dc.lft.to/lastmile_qr_scan"}, "lon": -77.03915583333334, "bike_id": "26affb49cd26e09bfe8bc762910bcbe0", "type": "electric_scooter", "name": "26affb49cd26e09bfe8bc762910bcbe0"}, {"is_disabled": 0, "is_reserved": 0, "fusion_lat": 0.0, "lat": 38.9110375, "fusion_lon": 0.0, "rental_uris": {"ios": "https://dc.lft.to/lastmile_qr_scan", "android": "https://dc.lft.to/lastmile_qr_scan"}, "lon": -77.02229716666666, "bike_id": "bb88df1413120e6f4676e0bd7fa4c861", "type": "electric_scooter", "name": "bb88df1413120e6f4676e0bd7fa4c861"}, {"is_disabled": 0, "is_reserved": 0, "fusion_lat": 0.0, "lat": 38.877059333333335, "fusion_lon": 0.0, "rental_uris": {"ios": "https://dc.lft.to/lastmile_qr_scan", "android": "https://dc.lft.to/lastmile_qr_scan"}, "lon": -77.00587133333333, "bike_id": "5ca07d312577a178bb319d5ab9d6d727", "type": "electric_scooter", "name": "5ca07d312577a178bb319d5ab9d6d727"}, {"is_disabled": 0, "is_reserved": 0, "fusion_lat": 0.0, "lat": 38.90778683333333, "fusion_lon": 0.0, "rental_uris": {"ios": "https://dc.lft.to/lastmile_qr_scan", "android": "https://dc.lft.to/lastmile_qr_scan"}, "lon": -77.035479, "bike_id": "f11385ceb16d64f715f6eb3127becac5", "type": "electric_scooter", "name": "f11385ceb16d64f715f6eb3127becac5"}, {"is_disabled": 0, "is_reserved": 0, "fusion_lat": 0.0, "lat": 38.886748833333336, "fusion_lon": 0.0, "rental_uris": {"ios": "https://dc.lft.to/lastmile_qr_scan", "android": "https://dc.lft.to/lastmile_qr_scan"}, "lon": -77.16230783333333, "bike_id": "202c4fb28cfec99d4fbc5c2fcafd777d", "type": "electric_bike", "name": "202c4fb28cfec99d4fbc5c2fcafd777d"}, {"is_disabled": 0, "is_reserved": 0, "fusion_lat": 0.0, "lat": 38.92973666666666, "fusion_lon": 0.0, "rental_uris": {"ios": "https://dc.lft.to/lastmile_qr_scan", "android": "https://dc.lft.to/lastmile_qr_scan"}, "lon": -77.02820416666667, "bike_id": "f7162447cc482ce2358ecd3e615776ca", "type": "electric_scooter", "name": "f7162447cc482ce2358ecd3e615776ca"}, {"is_disabled": 0, "is_reserved": 0, "fusion_lat": 0.0, "lat": 38.9064875, "fusion_lon": 0.0, "rental_uris": {"ios": "https://dc.lft.to/lastmile_qr_scan", "android": "https://dc.lft.to/lastmile_qr_scan"}, "lon": -77.05327866666667, "bike_id": "a3a25dd7a4da6343f5a1dd2e4204a6cd", "type": "electric_scooter", "name": "a3a25dd7a4da6343f5a1dd2e4204a6cd"}, {"is_disabled": 0, "is_reserved": 0, "fusion_lat": 0.0, "lat": 38.90278416666666, "fusion_lon": 0.0, "rental_uris": {"ios": "https://dc.lft.to/lastmile_qr_scan", "android": "https://dc.lft.to/lastmile_qr_scan"}, "lon": -77.02641683333333, "bike_id": "fa1c153299cc28fa4b4026bbb3779c13", "type": "electric_scooter", "name": "fa1c153299cc28fa4b4026bbb3779c13"}, {"is_disabled": 0, "is_reserved": 0, "fusion_lat": 0.0, "lat": 38.92516283333333, "fusion_lon": 0.0, "rental_uris": {"ios": "https://dc.lft.to/lastmile_qr_scan", "android": "https://dc.lft.to/lastmile_qr_scan"}, "lon": -77.02128383333333, "bike_id": "2ce376bf9efefe60192378f6a1685bff", "type": "electric_scooter", "name": "2ce376bf9efefe60192378f6a1685bff"}, {"is_disabled": 0, "is_reserved": 0, "fusion_lat": 0.0, "lat": 38.967661666666665, "fusion_lon": 0.0, "rental_uris": {"ios": "https://dc.lft.to/lastmile_qr_scan", "android": "https://dc.lft.to/lastmile_qr_scan"}, "lon": -77.03353283333334, "bike_id": "06b12f51a909e08b70b67293eeada20e", "type": "electric_scooter", "name": "06b12f51a909e08b70b67293eeada20e"}, {"is_disabled": 0, "is_reserved": 0, "fusion_lat": 0.0, "lat": 38.9216345, "fusion_lon": 0.0, "rental_uris": {"ios": "https://dc.lft.to/lastmile_qr_scan", "android": "https://dc.lft.to/lastmile_qr_scan"}, "lon": -77.03386366666666, "bike_id": "ca06a55c0b3935dccb350b65acfa7e2d", "type": "electric_scooter", "name": "ca06a55c0b3935dccb350b65acfa7e2d"}, {"is_disabled": 0, "is_reserved": 0, "fusion_lat": 0.0, "lat": 38.93538783333333, "fusion_lon": 0.0, "rental_uris": {"ios": "https://dc.lft.to/lastmile_qr_scan", "android": "https://dc.lft.to/lastmile_qr_scan"}, "lon": -77.03477666666667, "bike_id": "48669a78f279b561691f9f1c8ae57766", "type": "electric_scooter", "name": "48669a78f279b561691f9f1c8ae57766"}, {"is_disabled": 0, "is_reserved": 0, "fusion_lat": 0.0, "lat": 38.927857333333336, "fusion_lon": 0.0, "rental_uris": {"ios": "https://dc.lft.to/lastmile_qr_scan", "android": "https://dc.lft.to/lastmile_qr_scan"}, "lon": -77.05258416666666, "bike_id": "e7293d0177663779fd93c56e153f4fa7", "type": "electric_scooter", "name": "e7293d0177663779fd93c56e153f4fa7"}, {"is_disabled": 0, "is_reserved": 0, "fusion_lat": 0.0, "lat": 38.942867166666666, "fusion_lon": 0.0, "rental_uris": {"ios": "https://dc.lft.to/lastmile_qr_scan", "android": "https://dc.lft.to/lastmile_qr_scan"}, "lon": -77.07709566666666, "bike_id": "2affb1d0af87177c3427da194e5254a7", "type": "electric_scooter", "name": "2affb1d0af87177c3427da194e5254a7"}, {"is_disabled": 0, "is_reserved": 0, "fusion_lat": 0.0, "lat": 38.916574833333335, "fusion_lon": 0.0, "rental_uris": {"ios": "https://dc.lft.to/lastmile_qr_scan", "android": "https://dc.lft.to/lastmile_qr_scan"}, "lon": -77.031927, "bike_id": "e950458bcf129fa9e1b7178f2e76e25d", "type": "electric_scooter", "name": "e950458bcf129fa9e1b7178f2e76e25d"}, {"is_disabled": 0, "is_reserved": 0, "fusion_lat": 0.0, "lat": 38.94101533333333, "fusion_lon": 0.0, "rental_uris": {"ios": "https://dc.lft.to/lastmile_qr_scan", "android": "https://dc.lft.to/lastmile_qr_scan"}, "lon": -76.95623966666666, "bike_id": "a61ac82e4eec47e9079818922326ec3b", "type": "electric_bike", "name": "a61ac82e4eec47e9079818922326ec3b"}, {"is_disabled": 0, "is_reserved": 0, "fusion_lat": 0.0, "lat": 38.9298775, "fusion_lon": 0.0, "rental_uris": {"ios": "https://dc.lft.to/lastmile_qr_scan", "android": "https://dc.lft.to/lastmile_qr_scan"}, "lon": -77.03472033333334, "bike_id": "2d96940545a58b208ea0f404d4897252", "type": "electric_scooter", "name": "2d96940545a58b208ea0f404d4897252"}, {"is_disabled": 0, "is_reserved": 0, "fusion_lat": 0.0, "lat": 38.892543, "fusion_lon": 0.0, "rental_uris": {"ios": "https://dc.lft.to/lastmile_qr_scan", "android": "https://dc.lft.to/lastmile_qr_scan"}, "lon": -77.04658433333333, "bike_id": "a13b61d2d4d01ea6c166aef714a6f75e", "type": "electric_scooter", "name": "a13b61d2d4d01ea6c166aef714a6f75e"}, {"is_disabled": 0, "is_reserved": 0, "fusion_lat": 0.0, "lat": 38.91711133333333, "fusion_lon": 0.0, "rental_uris": {"ios": "https://dc.lft.to/lastmile_qr_scan", "android": "https://dc.lft.to/lastmile_qr_scan"}, "lon": -77.04125516666667, "bike_id": "5327181dfbfcfc916e1c59d5e9ec059d", "type": "electric_scooter", "name": "5327181dfbfcfc916e1c59d5e9ec059d"}, {"is_disabled": 0, "is_reserved": 0, "fusion_lat": 0.0, "lat": 38.9230195, "fusion_lon": 0.0, "rental_uris": {"ios": "https://dc.lft.to/lastmile_qr_scan", "android": "https://dc.lft.to/lastmile_qr_scan"}, "lon": -77.04142166666666, "bike_id": "82b3b3e2f8831f257ef4c9f458c27261", "type": "electric_scooter", "name": "82b3b3e2f8831f257ef4c9f458c27261"}, {"is_disabled": 0, "is_reserved": 0, "fusion_lat": 0.0, "lat": 38.917660166666664, "fusion_lon": 0.0, "rental_uris": {"ios": "https://dc.lft.to/lastmile_qr_scan", "android": "https://dc.lft.to/lastmile_qr_scan"}, "lon": -77.02395166666666, "bike_id": "624991e5aa7a43781917bfb77602270a", "type": "electric_scooter", "name": "624991e5aa7a43781917bfb77602270a"}, {"is_disabled": 0, "is_reserved": 0, "fusion_lat": 0.0, "lat": 38.9336485, "fusion_lon": 0.0, "rental_uris": {"ios": "https://dc.lft.to/lastmile_qr_scan", "android": "https://dc.lft.to/lastmile_qr_scan"}, "lon": -77.02403166666667, "bike_id": "6d3101d8d98fee7b4341899431c2d1bb", "type": "electric_scooter", "name": "6d3101d8d98fee7b4341899431c2d1bb"}, {"is_disabled": 0, "is_reserved": 0, "fusion_lat": 0.0, "lat": 38.909723666666665, "fusion_lon": 0.0, "rental_uris": {"ios": "https://dc.lft.to/lastmile_qr_scan", "android": "https://dc.lft.to/lastmile_qr_scan"}, "lon": -77.03190033333334, "bike_id": "c5e36041e5c25e4bb8c335937819b7ab", "type": "electric_scooter", "name": "c5e36041e5c25e4bb8c335937819b7ab"}, {"is_disabled": 0, "is_reserved": 0, "fusion_lat": 0.0, "lat": 38.91551333333334, "fusion_lon": 0.0, "rental_uris": {"ios": "https://dc.lft.to/lastmile_qr_scan", "android": "https://dc.lft.to/lastmile_qr_scan"}, "lon": -77.031752, "bike_id": "3c00f1d7a94b60ca67492328d39384fc", "type": "electric_scooter", "name": "3c00f1d7a94b60ca67492328d39384fc"}, {"is_disabled": 0, "is_reserved": 0, "fusion_lat": 0.0, "lat": 38.91654233333333, "fusion_lon": 0.0, "rental_uris": {"ios": "https://dc.lft.to/lastmile_qr_scan", "android": "https://dc.lft.to/lastmile_qr_scan"}, "lon": -77.04654133333334, "bike_id": "6799d06adbcb652638baf29333841dd7", "type": "electric_scooter", "name": "6799d06adbcb652638baf29333841dd7"}, {"is_disabled": 0, "is_reserved": 0, "fusion_lat": 0.0, "lat": 38.91181983333333, "fusion_lon": 0.0, "rental_uris": {"ios": "https://dc.lft.to/lastmile_qr_scan", "android": "https://dc.lft.to/lastmile_qr_scan"}, "lon": -77.0121305, "bike_id": "498c225234add0aaef6b3d047b1f44d9", "type": "electric_scooter", "name": "498c225234add0aaef6b3d047b1f44d9"}, {"is_disabled": 0, "is_reserved": 0, "fusion_lat": 0.0, "lat": 38.899389, "fusion_lon": 0.0, "rental_uris": {"ios": "https://dc.lft.to/lastmile_qr_scan", "android": "https://dc.lft.to/lastmile_qr_scan"}, "lon": -76.93770366666666, "bike_id": "53468df0e9a2772ce814ae75ce38a479", "type": "electric_scooter", "name": "53468df0e9a2772ce814ae75ce38a479"}, {"is_disabled": 0, "is_reserved": 0, "fusion_lat": 0.0, "lat": 38.918090666666664, "fusion_lon": 0.0, "rental_uris": {"ios": "https://dc.lft.to/lastmile_qr_scan", "android": "https://dc.lft.to/lastmile_qr_scan"}, "lon": -77.00000516666667, "bike_id": "0448cbe0fc29494f88fb6316d1021fcd", "type": "electric_scooter", "name": "0448cbe0fc29494f88fb6316d1021fcd"}, {"is_disabled": 0, "is_reserved": 0, "fusion_lat": 0.0, "lat": 38.87656333333334, "fusion_lon": 0.0, "rental_uris": {"ios": "https://dc.lft.to/lastmile_qr_scan", "android": "https://dc.lft.to/lastmile_qr_scan"}, "lon": -77.00573833333333, "bike_id": "ad4bc26d0cad14b00f320f914111d118", "type": "electric_scooter", "name": "ad4bc26d0cad14b00f320f914111d118"}, {"is_disabled": 0, "is_reserved": 0, "fusion_lat": 0.0, "lat": 38.889763333333335, "fusion_lon": 0.0, "rental_uris": {"ios": "https://dc.lft.to/lastmile_qr_scan", "android": "https://dc.lft.to/lastmile_qr_scan"}, "lon": -76.9817855, "bike_id": "e54bfe92e93c2e40fb21001b2248eed8", "type": "electric_scooter", "name": "e54bfe92e93c2e40fb21001b2248eed8"}, {"is_disabled": 0, "is_reserved": 0, "fusion_lat": 0.0, "lat": 38.900603833333335, "fusion_lon": 0.0, "rental_uris": {"ios": "https://dc.lft.to/lastmile_qr_scan", "android": "https://dc.lft.to/lastmile_qr_scan"}, "lon": -77.0455655, "bike_id": "837d4de6c6c3564c8f8b396237897108", "type": "electric_scooter", "name": "837d4de6c6c3564c8f8b396237897108"}, {"is_disabled": 0, "is_reserved": 0, "fusion_lat": 0.0, "lat": 38.9167545, "fusion_lon": 0.0, "rental_uris": {"ios": "https://dc.lft.to/lastmile_qr_scan", "android": "https://dc.lft.to/lastmile_qr_scan"}, "lon": -77.0144325, "bike_id": "bec77c7a6699d3d7e826b344a7bab1ba", "type": "electric_scooter", "name": "bec77c7a6699d3d7e826b344a7bab1ba"}, {"is_disabled": 0, "is_reserved": 0, "fusion_lat": 0.0, "lat": 38.90482883333333, "fusion_lon": 0.0, "rental_uris": {"ios": "https://dc.lft.to/lastmile_qr_scan", "android": "https://dc.lft.to/lastmile_qr_scan"}, "lon": -77.02967133333334, "bike_id": "808543f28d2e6d3542b7c922f7282518", "type": "electric_scooter", "name": "808543f28d2e6d3542b7c922f7282518"}, {"is_disabled": 0, "is_reserved": 0, "fusion_lat": 0.0, "lat": 38.928264166666665, "fusion_lon": 0.0, "rental_uris": {"ios": "https://dc.lft.to/lastmile_qr_scan", "android": "https://dc.lft.to/lastmile_qr_scan"}, "lon": -77.05972116666666, "bike_id": "d194d6fb477283ed72f7f48f0b2f3b54", "type": "electric_bike", "name": "d194d6fb477283ed72f7f48f0b2f3b54"}, {"is_disabled": 0, "is_reserved": 0, "fusion_lat": 0.0, "lat": 38.90383816666667, "fusion_lon": 0.0, "rental_uris": {"ios": "https://dc.lft.to/lastmile_qr_scan", "android": "https://dc.lft.to/lastmile_qr_scan"}, "lon": -77.00571883333333, "bike_id": "bf1d3d34acccb652b6a648cb1bfea25a", "type": "electric_scooter", "name": "bf1d3d34acccb652b6a648cb1bfea25a"}, {"is_disabled": 0, "is_reserved": 0, "fusion_lat": 0.0, "lat": 38.915192, "fusion_lon": 0.0, "rental_uris": {"ios": "https://dc.lft.to/lastmile_qr_scan", "android": "https://dc.lft.to/lastmile_qr_scan"}, "lon": -77.025853, "bike_id": "29e6661eeca338947cad558b7700b6fa", "type": "electric_scooter", "name": "29e6661eeca338947cad558b7700b6fa"}, {"is_disabled": 0, "is_reserved": 0, "fusion_lat": 0.0, "lat": 38.82924166666667, "fusion_lon": 0.0, "rental_uris": {"ios": "https://dc.lft.to/lastmile_qr_scan", "android": "https://dc.lft.to/lastmile_qr_scan"}, "lon": -77.0687445, "bike_id": "9bc9bea2b5d7bff791c56f8286fa2315", "type": "electric_bike", "name": "9bc9bea2b5d7bff791c56f8286fa2315"}, {"is_disabled": 0, "is_reserved": 0, "fusion_lat": 0.0, "lat": 38.9276465, "fusion_lon": 0.0, "rental_uris": {"ios": "https://dc.lft.to/lastmile_qr_scan", "android": "https://dc.lft.to/lastmile_qr_scan"}, "lon": -77.02951116666667, "bike_id": "b96eaaf032ef3ad98557b77d31158cf9", "type": "electric_scooter", "name": "b96eaaf032ef3ad98557b77d31158cf9"}, {"is_disabled": 0, "is_reserved": 0, "fusion_lat": 0.0, "lat": 38.92363783333333, "fusion_lon": 0.0, "rental_uris": {"ios": "https://dc.lft.to/lastmile_qr_scan", "android": "https://dc.lft.to/lastmile_qr_scan"}, "lon": -77.04314483333333, "bike_id": "2db5390c55c45e94e46e42dfdaaa892a", "type": "electric_scooter", "name": "2db5390c55c45e94e46e42dfdaaa892a"}, {"is_disabled": 0, "is_reserved": 0, "fusion_lat": 0.0, "lat": 38.928732333333336, "fusion_lon": 0.0, "rental_uris": {"ios": "https://dc.lft.to/lastmile_qr_scan", "android": "https://dc.lft.to/lastmile_qr_scan"}, "lon": -77.0565395, "bike_id": "6ee715f75627a4ea243b9d8601c56788", "type": "electric_scooter", "name": "6ee715f75627a4ea243b9d8601c56788"}, {"is_disabled": 0, "is_reserved": 0, "fusion_lat": 0.0, "lat": 38.89511866666667, "fusion_lon": 0.0, "rental_uris": {"ios": "https://dc.lft.to/lastmile_qr_scan", "android": "https://dc.lft.to/lastmile_qr_scan"}, "lon": -77.02206233333334, "bike_id": "76dc30822294bf238a3d077f07654c2e", "type": "electric_scooter", "name": "76dc30822294bf238a3d077f07654c2e"}, {"is_disabled": 0, "is_reserved": 0, "fusion_lat": 0.0, "lat": 38.880427833333336, "fusion_lon": 0.0, "rental_uris": {"ios": "https://dc.lft.to/lastmile_qr_scan", "android": "https://dc.lft.to/lastmile_qr_scan"}, "lon": -76.9271915, "bike_id": "aa28c5dd78b43344f8be4b26883eaa8b", "type": "electric_scooter", "name": "aa28c5dd78b43344f8be4b26883eaa8b"}, {"is_disabled": 0, "is_reserved": 0, "fusion_lat": 0.0, "lat": 38.899156166666664, "fusion_lon": 0.0, "rental_uris": {"ios": "https://dc.lft.to/lastmile_qr_scan", "android": "https://dc.lft.to/lastmile_qr_scan"}, "lon": -76.93374433333334, "bike_id": "dd06388f9681d98513a1d698f70f8c98", "type": "electric_scooter", "name": "dd06388f9681d98513a1d698f70f8c98"}, {"is_disabled": 0, "is_reserved": 0, "fusion_lat": 0.0, "lat": 38.90285083333333, "fusion_lon": 0.0, "rental_uris": {"ios": "https://dc.lft.to/lastmile_qr_scan", "android": "https://dc.lft.to/lastmile_qr_scan"}, "lon": -77.02382633333333, "bike_id": "fa3b2910d5677ec02adbc01f3d18e1b7", "type": "electric_scooter", "name": "fa3b2910d5677ec02adbc01f3d18e1b7"}, {"is_disabled": 0, "is_reserved": 0, "fusion_lat": 0.0, "lat": 38.9226125, "fusion_lon": 0.0, "rental_uris": {"ios": "https://dc.lft.to/lastmile_qr_scan", "android": "https://dc.lft.to/lastmile_qr_scan"}, "lon": -77.07278733333334, "bike_id": "f139607d9dea973d9ebc532def7a25e8", "type": "electric_scooter", "name": "f139607d9dea973d9ebc532def7a25e8"}, {"is_disabled": 0, "is_reserved": 0, "fusion_lat": 0.0, "lat": 38.8923105, "fusion_lon": 0.0, "rental_uris": {"ios": "https://dc.lft.to/lastmile_qr_scan", "android": "https://dc.lft.to/lastmile_qr_scan"}, "lon": -77.03165633333333, "bike_id": "9dd04b65c8cbe826f9681c4aff054195", "type": "electric_scooter", "name": "9dd04b65c8cbe826f9681c4aff054195"}, {"is_disabled": 0, "is_reserved": 0, "fusion_lat": 0.0, "lat": 38.947487, "fusion_lon": 0.0, "rental_uris": {"ios": "https://dc.lft.to/lastmile_qr_scan", "android": "https://dc.lft.to/lastmile_qr_scan"}, "lon": -77.023545, "bike_id": "ff14855037c8d9dbf787bde5cd4d9837", "type": "electric_scooter", "name": "ff14855037c8d9dbf787bde5cd4d9837"}, {"is_disabled": 0, "is_reserved": 0, "fusion_lat": 0.0, "lat": 38.8559305, "fusion_lon": 0.0, "rental_uris": {"ios": "https://dc.lft.to/lastmile_qr_scan", "android": "https://dc.lft.to/lastmile_qr_scan"}, "lon": -76.9727805, "bike_id": "0ddf1bc1d913b1aba9480fad9045ecb7", "type": "electric_bike", "name": "0ddf1bc1d913b1aba9480fad9045ecb7"}, {"is_disabled": 0, "is_reserved": 0, "fusion_lat": 0.0, "lat": 38.91100333333333, "fusion_lon": 0.0, "rental_uris": {"ios": "https://dc.lft.to/lastmile_qr_scan", "android": "https://dc.lft.to/lastmile_qr_scan"}, "lon": -77.02802366666667, "bike_id": "58a015956dc34678878be72720d1fb49", "type": "electric_scooter", "name": "58a015956dc34678878be72720d1fb49"}, {"is_disabled": 0, "is_reserved": 0, "fusion_lat": 0.0, "lat": 38.91819616666667, "fusion_lon": 0.0, "rental_uris": {"ios": "https://dc.lft.to/lastmile_qr_scan", "android": "https://dc.lft.to/lastmile_qr_scan"}, "lon": -77.02524, "bike_id": "5ee0a12305511513b084b14f809bf364", "type": "electric_scooter", "name": "5ee0a12305511513b084b14f809bf364"}, {"is_disabled": 0, "is_reserved": 0, "fusion_lat": 0.0, "lat": 38.92337666666667, "fusion_lon": 0.0, "rental_uris": {"ios": "https://dc.lft.to/lastmile_qr_scan", "android": "https://dc.lft.to/lastmile_qr_scan"}, "lon": -77.0418915, "bike_id": "e29bbd2f9b0fc044fce58a83ed095a90", "type": "electric_scooter", "name": "e29bbd2f9b0fc044fce58a83ed095a90"}, {"is_disabled": 0, "is_reserved": 0, "fusion_lat": 0.0, "lat": 38.804089833333336, "fusion_lon": 0.0, "rental_uris": {"ios": "https://dc.lft.to/lastmile_qr_scan", "android": "https://dc.lft.to/lastmile_qr_scan"}, "lon": -77.11332033333333, "bike_id": "17f1315ab8b0d729e0c7ec59b51681f0", "type": "electric_bike", "name": "17f1315ab8b0d729e0c7ec59b51681f0"}, {"is_disabled": 0, "is_reserved": 0, "fusion_lat": 0.0, "lat": 38.909794, "fusion_lon": 0.0, "rental_uris": {"ios": "https://dc.lft.to/lastmile_qr_scan", "android": "https://dc.lft.to/lastmile_qr_scan"}, "lon": -77.06483916666667, "bike_id": "831e78a40c71a34de352568f0f290093", "type": "electric_bike", "name": "831e78a40c71a34de352568f0f290093"}, {"is_disabled": 0, "is_reserved": 0, "fusion_lat": 0.0, "lat": 39.074411833333336, "fusion_lon": 0.0, "rental_uris": {"ios": "https://dc.lft.to/lastmile_qr_scan", "android": "https://dc.lft.to/lastmile_qr_scan"}, "lon": -77.11524733333333, "bike_id": "1fd83d0331367e7643f9530252d29d25", "type": "electric_bike", "name": "1fd83d0331367e7643f9530252d29d25"}, {"is_disabled": 0, "is_reserved": 0, "fusion_lat": 0.0, "lat": 38.905274166666665, "fusion_lon": 0.0, "rental_uris": {"ios": "https://dc.lft.to/lastmile_qr_scan", "android": "https://dc.lft.to/lastmile_qr_scan"}, "lon": -77.06206216666666, "bike_id": "502fec9e18d90d9face3ea1f748f832b", "type": "electric_scooter", "name": "502fec9e18d90d9face3ea1f748f832b"}, {"is_disabled": 0, "is_reserved": 0, "fusion_lat": 0.0, "lat": 38.91629116666667, "fusion_lon": 0.0, "rental_uris": {"ios": "https://dc.lft.to/lastmile_qr_scan", "android": "https://dc.lft.to/lastmile_qr_scan"}, "lon": -77.032164, "bike_id": "547e57ec06441fe5d394853287b763dd", "type": "electric_scooter", "name": "547e57ec06441fe5d394853287b763dd"}, {"is_disabled": 0, "is_reserved": 0, "fusion_lat": 0.0, "lat": 38.93858566666667, "fusion_lon": 0.0, "rental_uris": {"ios": "https://dc.lft.to/lastmile_qr_scan", "android": "https://dc.lft.to/lastmile_qr_scan"}, "lon": -77.02472566666667, "bike_id": "492b7d1c5d5af1b44a9df78cbbd8cfc0", "type": "electric_scooter", "name": "492b7d1c5d5af1b44a9df78cbbd8cfc0"}, {"is_disabled": 0, "is_reserved": 0, "fusion_lat": 0.0, "lat": 38.93356033333333, "fusion_lon": 0.0, "rental_uris": {"ios": "https://dc.lft.to/lastmile_qr_scan", "android": "https://dc.lft.to/lastmile_qr_scan"}, "lon": -77.07289, "bike_id": "a0451c8802094ebd0f1ef44f903f8c84", "type": "electric_scooter", "name": "a0451c8802094ebd0f1ef44f903f8c84"}, {"is_disabled": 0, "is_reserved": 0, "fusion_lat": 0.0, "lat": 38.93070483333333, "fusion_lon": 0.0, "rental_uris": {"ios": "https://dc.lft.to/lastmile_qr_scan", "android": "https://dc.lft.to/lastmile_qr_scan"}, "lon": -77.03189983333333, "bike_id": "ab83eaaf845e413e29e3a7a7816b7e36", "type": "electric_scooter", "name": "ab83eaaf845e413e29e3a7a7816b7e36"}, {"is_disabled": 0, "is_reserved": 0, "fusion_lat": 0.0, "lat": 38.9071095, "fusion_lon": 0.0, "rental_uris": {"ios": "https://dc.lft.to/lastmile_qr_scan", "android": "https://dc.lft.to/lastmile_qr_scan"}, "lon": -77.03202416666667, "bike_id": "dc081a856c68dbc14c18776c9a8b4c3d", "type": "electric_scooter", "name": "dc081a856c68dbc14c18776c9a8b4c3d"}, {"is_disabled": 0, "is_reserved": 0, "fusion_lat": 0.0, "lat": 38.91214733333333, "fusion_lon": 0.0, "rental_uris": {"ios": "https://dc.lft.to/lastmile_qr_scan", "android": "https://dc.lft.to/lastmile_qr_scan"}, "lon": -77.020982, "bike_id": "60e5d5a9c3e40d245370ae28b5344a67", "type": "electric_scooter", "name": "60e5d5a9c3e40d245370ae28b5344a67"}, {"is_disabled": 0, "is_reserved": 0, "fusion_lat": 0.0, "lat": 38.9115965, "fusion_lon": 0.0, "rental_uris": {"ios": "https://dc.lft.to/lastmile_qr_scan", "android": "https://dc.lft.to/lastmile_qr_scan"}, "lon": -77.02377466666667, "bike_id": "3f1f63523b506eef2a5c0eef3355a6c1", "type": "electric_scooter", "name": "3f1f63523b506eef2a5c0eef3355a6c1"}, {"is_disabled": 0, "is_reserved": 0, "fusion_lat": 0.0, "lat": 38.906732166666664, "fusion_lon": 0.0, "rental_uris": {"ios": "https://dc.lft.to/lastmile_qr_scan", "android": "https://dc.lft.to/lastmile_qr_scan"}, "lon": -77.02708283333334, "bike_id": "256331aac6eda31e159ce1df260bdca9", "type": "electric_scooter", "name": "256331aac6eda31e159ce1df260bdca9"}, {"is_disabled": 0, "is_reserved": 0, "fusion_lat": 0.0, "lat": 38.91817233333333, "fusion_lon": 0.0, "rental_uris": {"ios": "https://dc.lft.to/lastmile_qr_scan", "android": "https://dc.lft.to/lastmile_qr_scan"}, "lon": -77.02519133333334, "bike_id": "a7967fdaea6ee846417fc9d7be1c5bbc", "type": "electric_scooter", "name": "a7967fdaea6ee846417fc9d7be1c5bbc"}, {"is_disabled": 0, "is_reserved": 0, "fusion_lat": 0.0, "lat": 38.90986433333333, "fusion_lon": 0.0, "rental_uris": {"ios": "https://dc.lft.to/lastmile_qr_scan", "android": "https://dc.lft.to/lastmile_qr_scan"}, "lon": -77.0337675, "bike_id": "b883da069fb77441842cc5dee4334b1c", "type": "electric_scooter", "name": "b883da069fb77441842cc5dee4334b1c"}, {"is_disabled": 0, "is_reserved": 0, "fusion_lat": 0.0, "lat": 38.9216565, "fusion_lon": 0.0, "rental_uris": {"ios": "https://dc.lft.to/lastmile_qr_scan", "android": "https://dc.lft.to/lastmile_qr_scan"}, "lon": -77.03661716666667, "bike_id": "0279bf398fd69be0b64279390f4ae69a", "type": "electric_scooter", "name": "0279bf398fd69be0b64279390f4ae69a"}, {"is_disabled": 0, "is_reserved": 0, "fusion_lat": 0.0, "lat": 38.89355966666667, "fusion_lon": 0.0, "rental_uris": {"ios": "https://dc.lft.to/lastmile_qr_scan", "android": "https://dc.lft.to/lastmile_qr_scan"}, "lon": -76.992124, "bike_id": "9455e85d2e6adcf36adee0f8764653b1", "type": "electric_scooter", "name": "9455e85d2e6adcf36adee0f8764653b1"}, {"is_disabled": 0, "is_reserved": 0, "fusion_lat": 0.0, "lat": 38.9072365, "fusion_lon": 0.0, "rental_uris": {"ios": "https://dc.lft.to/lastmile_qr_scan", "android": "https://dc.lft.to/lastmile_qr_scan"}, "lon": -77.053129, "bike_id": "d3ac760e345fcb5825494c5ec9beff18", "type": "electric_scooter", "name": "d3ac760e345fcb5825494c5ec9beff18"}, {"is_disabled": 0, "is_reserved": 0, "fusion_lat": 0.0, "lat": 38.931329166666664, "fusion_lon": 0.0, "rental_uris": {"ios": "https://dc.lft.to/lastmile_qr_scan", "android": "https://dc.lft.to/lastmile_qr_scan"}, "lon": -77.0281085, "bike_id": "b39ea9a3e93d9a33166014e1462c84b0", "type": "electric_scooter", "name": "b39ea9a3e93d9a33166014e1462c84b0"}, {"is_disabled": 0, "is_reserved": 0, "fusion_lat": 0.0, "lat": 38.92645266666667, "fusion_lon": 0.0, "rental_uris": {"ios": "https://dc.lft.to/lastmile_qr_scan", "android": "https://dc.lft.to/lastmile_qr_scan"}, "lon": -77.036966, "bike_id": "5001d2399a44b3de72a38312c1c5a369", "type": "electric_scooter", "name": "5001d2399a44b3de72a38312c1c5a369"}, {"is_disabled": 0, "is_reserved": 0, "fusion_lat": 0.0, "lat": 38.89387716666667, "fusion_lon": 0.0, "rental_uris": {"ios": "https://dc.lft.to/lastmile_qr_scan", "android": "https://dc.lft.to/lastmile_qr_scan"}, "lon": -76.9230835, "bike_id": "b1de614aec3ac7552c7f8f6cb055201b", "type": "electric_scooter", "name": "b1de614aec3ac7552c7f8f6cb055201b"}, {"is_disabled": 0, "is_reserved": 0, "fusion_lat": 0.0, "lat": 38.90546233333333, "fusion_lon": 0.0, "rental_uris": {"ios": "https://dc.lft.to/lastmile_qr_scan", "android": "https://dc.lft.to/lastmile_qr_scan"}, "lon": -77.02186716666667, "bike_id": "8db2accbccf1b508b83f3c2a6ae2787c", "type": "electric_scooter", "name": "8db2accbccf1b508b83f3c2a6ae2787c"}, {"is_disabled": 0, "is_reserved": 0, "fusion_lat": 0.0, "lat": 38.864693333333335, "fusion_lon": 0.0, "rental_uris": {"ios": "https://dc.lft.to/lastmile_qr_scan", "android": "https://dc.lft.to/lastmile_qr_scan"}, "lon": -76.97753333333333, "bike_id": "6a5881222e8975bc14779d5275105402", "type": "electric_scooter", "name": "6a5881222e8975bc14779d5275105402"}, {"is_disabled": 0, "is_reserved": 0, "fusion_lat": 0.0, "lat": 38.89229866666667, "fusion_lon": 0.0, "rental_uris": {"ios": "https://dc.lft.to/lastmile_qr_scan", "android": "https://dc.lft.to/lastmile_qr_scan"}, "lon": -77.02804716666667, "bike_id": "30ddde0845d1a54d67e999360e3c27f5", "type": "electric_scooter", "name": "30ddde0845d1a54d67e999360e3c27f5"}, {"is_disabled": 0, "is_reserved": 0, "fusion_lat": 0.0, "lat": 38.8912875, "fusion_lon": 0.0, "rental_uris": {"ios": "https://dc.lft.to/lastmile_qr_scan", "android": "https://dc.lft.to/lastmile_qr_scan"}, "lon": -76.99954166666667, "bike_id": "fcab20c6bebd81656c74041c37488c10", "type": "electric_scooter", "name": "fcab20c6bebd81656c74041c37488c10"}, {"is_disabled": 0, "is_reserved": 0, "fusion_lat": 0.0, "lat": 38.876424166666666, "fusion_lon": 0.0, "rental_uris": {"ios": "https://dc.lft.to/lastmile_qr_scan", "android": "https://dc.lft.to/lastmile_qr_scan"}, "lon": -76.99296783333334, "bike_id": "b56b3ed3fc9bed85e2c1b131286a2d62", "type": "electric_scooter", "name": "b56b3ed3fc9bed85e2c1b131286a2d62"}, {"is_disabled": 0, "is_reserved": 0, "fusion_lat": 0.0, "lat": 38.9288485, "fusion_lon": 0.0, "rental_uris": {"ios": "https://dc.lft.to/lastmile_qr_scan", "android": "https://dc.lft.to/lastmile_qr_scan"}, "lon": -77.013757, "bike_id": "25b7107f9dd2979d0ad57d61c5ab5ffa", "type": "electric_scooter", "name": "25b7107f9dd2979d0ad57d61c5ab5ffa"}, {"is_disabled": 0, "is_reserved": 0, "fusion_lat": 0.0, "lat": 38.91688416666667, "fusion_lon": 0.0, "rental_uris": {"ios": "https://dc.lft.to/lastmile_qr_scan", "android": "https://dc.lft.to/lastmile_qr_scan"}, "lon": -77.02514683333334, "bike_id": "f6ba1e9648f75b08389983f007714710", "type": "electric_scooter", "name": "f6ba1e9648f75b08389983f007714710"}, {"is_disabled": 0, "is_reserved": 0, "fusion_lat": 0.0, "lat": 38.90567983333333, "fusion_lon": 0.0, "rental_uris": {"ios": "https://dc.lft.to/lastmile_qr_scan", "android": "https://dc.lft.to/lastmile_qr_scan"}, "lon": -77.03203566666667, "bike_id": "0b8583b9ab1037df915bfb1e8fe629c9", "type": "electric_scooter", "name": "0b8583b9ab1037df915bfb1e8fe629c9"}, {"is_disabled": 0, "is_reserved": 0, "fusion_lat": 0.0, "lat": 38.906420833333335, "fusion_lon": 0.0, "rental_uris": {"ios": "https://dc.lft.to/lastmile_qr_scan", "android": "https://dc.lft.to/lastmile_qr_scan"}, "lon": -77.06900283333333, "bike_id": "4e9e3f672c28978b1616157138e58977", "type": "electric_scooter", "name": "4e9e3f672c28978b1616157138e58977"}, {"is_disabled": 0, "is_reserved": 0, "fusion_lat": 0.0, "lat": 38.95429716666666, "fusion_lon": 0.0, "rental_uris": {"ios": "https://dc.lft.to/lastmile_qr_scan", "android": "https://dc.lft.to/lastmile_qr_scan"}, "lon": -76.98798083333334, "bike_id": "c49d49545e079a05c2c4af1323e662bd", "type": "electric_scooter", "name": "c49d49545e079a05c2c4af1323e662bd"}, {"is_disabled": 0, "is_reserved": 0, "fusion_lat": 0.0, "lat": 38.9283985, "fusion_lon": 0.0, "rental_uris": {"ios": "https://dc.lft.to/lastmile_qr_scan", "android": "https://dc.lft.to/lastmile_qr_scan"}, "lon": -77.03732966666666, "bike_id": "569af6c2e519da834268096d1a7d804a", "type": "electric_scooter", "name": "569af6c2e519da834268096d1a7d804a"}, {"is_disabled": 0, "is_reserved": 0, "fusion_lat": 0.0, "lat": 38.907315, "fusion_lon": 0.0, "rental_uris": {"ios": "https://dc.lft.to/lastmile_qr_scan", "android": "https://dc.lft.to/lastmile_qr_scan"}, "lon": -77.03205766666666, "bike_id": "e0ccc84bd34b1edd931ead2ca75f4d95", "type": "electric_scooter", "name": "e0ccc84bd34b1edd931ead2ca75f4d95"}, {"is_disabled": 0, "is_reserved": 0, "fusion_lat": 0.0, "lat": 38.919591, "fusion_lon": 0.0, "rental_uris": {"ios": "https://dc.lft.to/lastmile_qr_scan", "android": "https://dc.lft.to/lastmile_qr_scan"}, "lon": -77.07869416666666, "bike_id": "8c9aaa16b8e5afc18457feff52bbb70d", "type": "electric_scooter", "name": "8c9aaa16b8e5afc18457feff52bbb70d"}, {"is_disabled": 0, "is_reserved": 0, "fusion_lat": 0.0, "lat": 38.879033, "fusion_lon": 0.0, "rental_uris": {"ios": "https://dc.lft.to/lastmile_qr_scan", "android": "https://dc.lft.to/lastmile_qr_scan"}, "lon": -77.007595, "bike_id": "5e56be0a3142280299d43606d8f0ed8e", "type": "electric_scooter", "name": "5e56be0a3142280299d43606d8f0ed8e"}, {"is_disabled": 0, "is_reserved": 0, "fusion_lat": 0.0, "lat": 38.956146, "fusion_lon": 0.0, "rental_uris": {"ios": "https://dc.lft.to/lastmile_qr_scan", "android": "https://dc.lft.to/lastmile_qr_scan"}, "lon": -77.01011516666667, "bike_id": "4308b8c961e3fb3591ead9883fa4f7f3", "type": "electric_bike", "name": "4308b8c961e3fb3591ead9883fa4f7f3"}, {"is_disabled": 0, "is_reserved": 0, "fusion_lat": 0.0, "lat": 38.902949, "fusion_lon": 0.0, "rental_uris": {"ios": "https://dc.lft.to/lastmile_qr_scan", "android": "https://dc.lft.to/lastmile_qr_scan"}, "lon": -76.99033283333333, "bike_id": "a75f0561aa6cb3534f98a22c1f2f57ab", "type": "electric_scooter", "name": "a75f0561aa6cb3534f98a22c1f2f57ab"}, {"is_disabled": 0, "is_reserved": 0, "fusion_lat": 0.0, "lat": 38.84859183333333, "fusion_lon": 0.0, "rental_uris": {"ios": "https://dc.lft.to/lastmile_qr_scan", "android": "https://dc.lft.to/lastmile_qr_scan"}, "lon": -77.06827416666667, "bike_id": "84f9db3962d8f0bdb247414664080285", "type": "electric_bike", "name": "84f9db3962d8f0bdb247414664080285"}, {"is_disabled": 0, "is_reserved": 0, "fusion_lat": 0.0, "lat": 38.9137165, "fusion_lon": 0.0, "rental_uris": {"ios": "https://dc.lft.to/lastmile_qr_scan", "android": "https://dc.lft.to/lastmile_qr_scan"}, "lon": -77.02957583333334, "bike_id": "ac7ef14563a8b138a2016fc8139ac686", "type": "electric_scooter", "name": "ac7ef14563a8b138a2016fc8139ac686"}, {"is_disabled": 0, "is_reserved": 0, "fusion_lat": 0.0, "lat": 38.902607333333336, "fusion_lon": 0.0, "rental_uris": {"ios": "https://dc.lft.to/lastmile_qr_scan", "android": "https://dc.lft.to/lastmile_qr_scan"}, "lon": -77.03572116666666, "bike_id": "1e5ca8263ec64368b33404f90d2b3e35", "type": "electric_scooter", "name": "1e5ca8263ec64368b33404f90d2b3e35"}, {"is_disabled": 0, "is_reserved": 0, "fusion_lat": 0.0, "lat": 38.879567, "fusion_lon": 0.0, "rental_uris": {"ios": "https://dc.lft.to/lastmile_qr_scan", "android": "https://dc.lft.to/lastmile_qr_scan"}, "lon": -77.006002, "bike_id": "1bee307653c9dceb10bc1e092d21cf2e", "type": "electric_scooter", "name": "1bee307653c9dceb10bc1e092d21cf2e"}, {"is_disabled": 0, "is_reserved": 0, "fusion_lat": 0.0, "lat": 38.935942833333335, "fusion_lon": 0.0, "rental_uris": {"ios": "https://dc.lft.to/lastmile_qr_scan", "android": "https://dc.lft.to/lastmile_qr_scan"}, "lon": -77.0285115, "bike_id": "dcd3167f2e96702d235068ee17b9b337", "type": "electric_scooter", "name": "dcd3167f2e96702d235068ee17b9b337"}, {"is_disabled": 0, "is_reserved": 0, "fusion_lat": 0.0, "lat": 38.917752166666666, "fusion_lon": 0.0, "rental_uris": {"ios": "https://dc.lft.to/lastmile_qr_scan", "android": "https://dc.lft.to/lastmile_qr_scan"}, "lon": -77.04096983333334, "bike_id": "5d598b6f612668c48373efd6251eb8c1", "type": "electric_scooter", "name": "5d598b6f612668c48373efd6251eb8c1"}, {"is_disabled": 0, "is_reserved": 0, "fusion_lat": 0.0, "lat": 38.91700083333333, "fusion_lon": 0.0, "rental_uris": {"ios": "https://dc.lft.to/lastmile_qr_scan", "android": "https://dc.lft.to/lastmile_qr_scan"}, "lon": -77.01188683333334, "bike_id": "485754a617ac5bf08b079fee0629604a", "type": "electric_scooter", "name": "485754a617ac5bf08b079fee0629604a"}, {"is_disabled": 0, "is_reserved": 0, "fusion_lat": 0.0, "lat": 38.914088166666666, "fusion_lon": 0.0, "rental_uris": {"ios": "https://dc.lft.to/lastmile_qr_scan", "android": "https://dc.lft.to/lastmile_qr_scan"}, "lon": -77.03223783333334, "bike_id": "91c182bd20091bb5d22bb24bd2c62e4a", "type": "electric_scooter", "name": "91c182bd20091bb5d22bb24bd2c62e4a"}, {"is_disabled": 0, "is_reserved": 0, "fusion_lat": 0.0, "lat": 38.82761466666667, "fusion_lon": 0.0, "rental_uris": {"ios": "https://dc.lft.to/lastmile_qr_scan", "android": "https://dc.lft.to/lastmile_qr_scan"}, "lon": -77.05031783333334, "bike_id": "a8061f088a83917fa0dd118f8926f68c", "type": "electric_bike", "name": "a8061f088a83917fa0dd118f8926f68c"}, {"is_disabled": 0, "is_reserved": 0, "fusion_lat": 0.0, "lat": 38.892251333333334, "fusion_lon": 0.0, "rental_uris": {"ios": "https://dc.lft.to/lastmile_qr_scan", "android": "https://dc.lft.to/lastmile_qr_scan"}, "lon": -77.02225283333334, "bike_id": "d918fc3fd290e321392a0a820474c090", "type": "electric_scooter", "name": "d918fc3fd290e321392a0a820474c090"}, {"is_disabled": 0, "is_reserved": 0, "fusion_lat": 0.0, "lat": 38.8626475, "fusion_lon": 0.0, "rental_uris": {"ios": "https://dc.lft.to/lastmile_qr_scan", "android": "https://dc.lft.to/lastmile_qr_scan"}, "lon": -76.98352466666667, "bike_id": "45a1987d9b79f8d86b72cfb31e546174", "type": "electric_bike", "name": "45a1987d9b79f8d86b72cfb31e546174"}, {"is_disabled": 0, "is_reserved": 0, "fusion_lat": 0.0, "lat": 38.920972666666664, "fusion_lon": 0.0, "rental_uris": {"ios": "https://dc.lft.to/lastmile_qr_scan", "android": "https://dc.lft.to/lastmile_qr_scan"}, "lon": -77.02318516666666, "bike_id": "6a784dedaab8f2c291bdee5f7851c078", "type": "electric_scooter", "name": "6a784dedaab8f2c291bdee5f7851c078"}, {"is_disabled": 0, "is_reserved": 0, "fusion_lat": 0.0, "lat": 38.916328, "fusion_lon": 0.0, "rental_uris": {"ios": "https://dc.lft.to/lastmile_qr_scan", "android": "https://dc.lft.to/lastmile_qr_scan"}, "lon": -77.04123666666666, "bike_id": "b8d448cce4a2aaf650a30c3e6e506af5", "type": "electric_scooter", "name": "b8d448cce4a2aaf650a30c3e6e506af5"}, {"is_disabled": 0, "is_reserved": 0, "fusion_lat": 0.0, "lat": 38.915544833333335, "fusion_lon": 0.0, "rental_uris": {"ios": "https://dc.lft.to/lastmile_qr_scan", "android": "https://dc.lft.to/lastmile_qr_scan"}, "lon": -77.046093, "bike_id": "8b9f815a5ad71566f5d50e83ebf4a663", "type": "electric_scooter", "name": "8b9f815a5ad71566f5d50e83ebf4a663"}, {"is_disabled": 0, "is_reserved": 0, "fusion_lat": 0.0, "lat": 38.8922085, "fusion_lon": 0.0, "rental_uris": {"ios": "https://dc.lft.to/lastmile_qr_scan", "android": "https://dc.lft.to/lastmile_qr_scan"}, "lon": -77.043631, "bike_id": "3e47af0024b1cd53ed9b74e852ab010c", "type": "electric_scooter", "name": "3e47af0024b1cd53ed9b74e852ab010c"}, {"is_disabled": 0, "is_reserved": 0, "fusion_lat": 0.0, "lat": 38.91418516666667, "fusion_lon": 0.0, "rental_uris": {"ios": "https://dc.lft.to/lastmile_qr_scan", "android": "https://dc.lft.to/lastmile_qr_scan"}, "lon": -77.0221005, "bike_id": "cb9e46875eb50f9a086653e5391a61af", "type": "electric_scooter", "name": "cb9e46875eb50f9a086653e5391a61af"}, {"is_disabled": 0, "is_reserved": 0, "fusion_lat": 0.0, "lat": 38.90529733333333, "fusion_lon": 0.0, "rental_uris": {"ios": "https://dc.lft.to/lastmile_qr_scan", "android": "https://dc.lft.to/lastmile_qr_scan"}, "lon": -77.05137666666667, "bike_id": "4f25bcfd9b2c06c257f6990a82a02f09", "type": "electric_scooter", "name": "4f25bcfd9b2c06c257f6990a82a02f09"}, {"is_disabled": 0, "is_reserved": 0, "fusion_lat": 0.0, "lat": 38.930439166666666, "fusion_lon": 0.0, "rental_uris": {"ios": "https://dc.lft.to/lastmile_qr_scan", "android": "https://dc.lft.to/lastmile_qr_scan"}, "lon": -77.05563683333334, "bike_id": "442e3450afdd8bda43721aeb54f3566b", "type": "electric_scooter", "name": "442e3450afdd8bda43721aeb54f3566b"}, {"is_disabled": 0, "is_reserved": 0, "fusion_lat": 0.0, "lat": 38.928225833333336, "fusion_lon": 0.0, "rental_uris": {"ios": "https://dc.lft.to/lastmile_qr_scan", "android": "https://dc.lft.to/lastmile_qr_scan"}, "lon": -77.02258, "bike_id": "fa1aae400529bb932d0dc4365c9f346d", "type": "electric_scooter", "name": "fa1aae400529bb932d0dc4365c9f346d"}, {"is_disabled": 0, "is_reserved": 0, "fusion_lat": 0.0, "lat": 38.912171, "fusion_lon": 0.0, "rental_uris": {"ios": "https://dc.lft.to/lastmile_qr_scan", "android": "https://dc.lft.to/lastmile_qr_scan"}, "lon": -77.0385275, "bike_id": "7b60e5d30e213eb70c08116727feb086", "type": "electric_scooter", "name": "7b60e5d30e213eb70c08116727feb086"}, {"is_disabled": 0, "is_reserved": 0, "fusion_lat": 0.0, "lat": 38.918288, "fusion_lon": 0.0, "rental_uris": {"ios": "https://dc.lft.to/lastmile_qr_scan", "android": "https://dc.lft.to/lastmile_qr_scan"}, "lon": -77.05320166666667, "bike_id": "e67755e0bda11a42e3800e768129a3c4", "type": "electric_scooter", "name": "e67755e0bda11a42e3800e768129a3c4"}, {"is_disabled": 0, "is_reserved": 0, "fusion_lat": 0.0, "lat": 38.892344333333334, "fusion_lon": 0.0, "rental_uris": {"ios": "https://dc.lft.to/lastmile_qr_scan", "android": "https://dc.lft.to/lastmile_qr_scan"}, "lon": -77.031919, "bike_id": "cc58d4aca328914ab85909cadb6c1b05", "type": "electric_scooter", "name": "cc58d4aca328914ab85909cadb6c1b05"}, {"is_disabled": 0, "is_reserved": 0, "fusion_lat": 0.0, "lat": 38.85083566666667, "fusion_lon": 0.0, "rental_uris": {"ios": "https://dc.lft.to/lastmile_qr_scan", "android": "https://dc.lft.to/lastmile_qr_scan"}, "lon": -76.9813045, "bike_id": "58e8f0dfdef97246df8d2a6d7698571a", "type": "electric_bike", "name": "58e8f0dfdef97246df8d2a6d7698571a"}, {"is_disabled": 0, "is_reserved": 0, "fusion_lat": 0.0, "lat": 38.956163333333336, "fusion_lon": 0.0, "rental_uris": {"ios": "https://dc.lft.to/lastmile_qr_scan", "android": "https://dc.lft.to/lastmile_qr_scan"}, "lon": -77.03311666666667, "bike_id": "172d3a9b45ce1909d913f67e7a822035", "type": "electric_scooter", "name": "172d3a9b45ce1909d913f67e7a822035"}, {"is_disabled": 0, "is_reserved": 0, "fusion_lat": 0.0, "lat": 38.90393516666666, "fusion_lon": 0.0, "rental_uris": {"ios": "https://dc.lft.to/lastmile_qr_scan", "android": "https://dc.lft.to/lastmile_qr_scan"}, "lon": -77.04825283333334, "bike_id": "f1e516e6318eaa0f1bcece1531c5be03", "type": "electric_scooter", "name": "f1e516e6318eaa0f1bcece1531c5be03"}, {"is_disabled": 0, "is_reserved": 0, "fusion_lat": 0.0, "lat": 38.895078166666664, "fusion_lon": 0.0, "rental_uris": {"ios": "https://dc.lft.to/lastmile_qr_scan", "android": "https://dc.lft.to/lastmile_qr_scan"}, "lon": -77.022056, "bike_id": "e773b325c0f92c7afeaf98f4ee87c5b5", "type": "electric_scooter", "name": "e773b325c0f92c7afeaf98f4ee87c5b5"}, {"is_disabled": 0, "is_reserved": 0, "fusion_lat": 0.0, "lat": 38.928723, "fusion_lon": 0.0, "rental_uris": {"ios": "https://dc.lft.to/lastmile_qr_scan", "android": "https://dc.lft.to/lastmile_qr_scan"}, "lon": -77.03989366666667, "bike_id": "58fd1d2b7fd647380eb61909c939dffc", "type": "electric_scooter", "name": "58fd1d2b7fd647380eb61909c939dffc"}, {"is_disabled": 0, "is_reserved": 0, "fusion_lat": 0.0, "lat": 38.903979166666666, "fusion_lon": 0.0, "rental_uris": {"ios": "https://dc.lft.to/lastmile_qr_scan", "android": "https://dc.lft.to/lastmile_qr_scan"}, "lon": -77.06296783333333, "bike_id": "4e61373d6f86cd886c4aaacfc6349cce", "type": "electric_scooter", "name": "4e61373d6f86cd886c4aaacfc6349cce"}, {"is_disabled": 0, "is_reserved": 0, "fusion_lat": 0.0, "lat": 38.9195455, "fusion_lon": 0.0, "rental_uris": {"ios": "https://dc.lft.to/lastmile_qr_scan", "android": "https://dc.lft.to/lastmile_qr_scan"}, "lon": -77.02308683333334, "bike_id": "e4ae80a6f1964c6baf71c32b585fa47f", "type": "electric_scooter", "name": "e4ae80a6f1964c6baf71c32b585fa47f"}, {"is_disabled": 0, "is_reserved": 0, "fusion_lat": 0.0, "lat": 38.914945, "fusion_lon": 0.0, "rental_uris": {"ios": "https://dc.lft.to/lastmile_qr_scan", "android": "https://dc.lft.to/lastmile_qr_scan"}, "lon": -76.98373983333333, "bike_id": "f05fb1f0212a1eb8017ab57bbb293b09", "type": "electric_scooter", "name": "f05fb1f0212a1eb8017ab57bbb293b09"}, {"is_disabled": 0, "is_reserved": 0, "fusion_lat": 0.0, "lat": 38.906534, "fusion_lon": 0.0, "rental_uris": {"ios": "https://dc.lft.to/lastmile_qr_scan", "android": "https://dc.lft.to/lastmile_qr_scan"}, "lon": -76.97937016666667, "bike_id": "f06c440bc6ffb7aedee1130d03916dc0", "type": "electric_scooter", "name": "f06c440bc6ffb7aedee1130d03916dc0"}, {"is_disabled": 0, "is_reserved": 0, "fusion_lat": 0.0, "lat": 38.914181666666664, "fusion_lon": 0.0, "rental_uris": {"ios": "https://dc.lft.to/lastmile_qr_scan", "android": "https://dc.lft.to/lastmile_qr_scan"}, "lon": -77.02952416666666, "bike_id": "34646e7577e07d6f2be38ff8660d369b", "type": "electric_scooter", "name": "34646e7577e07d6f2be38ff8660d369b"}, {"is_disabled": 0, "is_reserved": 0, "fusion_lat": 0.0, "lat": 38.894106, "fusion_lon": 0.0, "rental_uris": {"ios": "https://dc.lft.to/lastmile_qr_scan", "android": "https://dc.lft.to/lastmile_qr_scan"}, "lon": -77.0242355, "bike_id": "785abe81bf220f1b22de4c01abe8a139", "type": "electric_scooter", "name": "785abe81bf220f1b22de4c01abe8a139"}, {"is_disabled": 0, "is_reserved": 0, "fusion_lat": 0.0, "lat": 38.905278333333335, "fusion_lon": 0.0, "rental_uris": {"ios": "https://dc.lft.to/lastmile_qr_scan", "android": "https://dc.lft.to/lastmile_qr_scan"}, "lon": -77.008686, "bike_id": "3d041de13240f3a858d7d1e001e68b16", "type": "electric_scooter", "name": "3d041de13240f3a858d7d1e001e68b16"}, {"is_disabled": 0, "is_reserved": 0, "fusion_lat": 0.0, "lat": 38.904246666666666, "fusion_lon": 0.0, "rental_uris": {"ios": "https://dc.lft.to/lastmile_qr_scan", "android": "https://dc.lft.to/lastmile_qr_scan"}, "lon": -77.06124683333333, "bike_id": "9aa8a8218a6902108b167e987373cc90", "type": "electric_scooter", "name": "9aa8a8218a6902108b167e987373cc90"}, {"is_disabled": 0, "is_reserved": 0, "fusion_lat": 0.0, "lat": 38.944488166666666, "fusion_lon": 0.0, "rental_uris": {"ios": "https://dc.lft.to/lastmile_qr_scan", "android": "https://dc.lft.to/lastmile_qr_scan"}, "lon": -77.03279466666666, "bike_id": "4bbc5375a62381d59152912dab2fd8cd", "type": "electric_scooter", "name": "4bbc5375a62381d59152912dab2fd8cd"}, {"is_disabled": 0, "is_reserved": 0, "fusion_lat": 0.0, "lat": 38.91694716666667, "fusion_lon": 0.0, "rental_uris": {"ios": "https://dc.lft.to/lastmile_qr_scan", "android": "https://dc.lft.to/lastmile_qr_scan"}, "lon": -77.03764783333334, "bike_id": "36443a06f4c64cc29f77fb2430514db5", "type": "electric_scooter", "name": "36443a06f4c64cc29f77fb2430514db5"}, {"is_disabled": 0, "is_reserved": 0, "fusion_lat": 0.0, "lat": 38.91595083333333, "fusion_lon": 0.0, "rental_uris": {"ios": "https://dc.lft.to/lastmile_qr_scan", "android": "https://dc.lft.to/lastmile_qr_scan"}, "lon": -77.03218866666667, "bike_id": "3b5b138df1fb6e2c7ba735951d5ba4b9", "type": "electric_scooter", "name": "3b5b138df1fb6e2c7ba735951d5ba4b9"}, {"is_disabled": 0, "is_reserved": 0, "fusion_lat": 0.0, "lat": 38.953083166666666, "fusion_lon": 0.0, "rental_uris": {"ios": "https://dc.lft.to/lastmile_qr_scan", "android": "https://dc.lft.to/lastmile_qr_scan"}, "lon": -77.0202105, "bike_id": "82213684a78487efce3de633edcd5957", "type": "electric_scooter", "name": "82213684a78487efce3de633edcd5957"}, {"is_disabled": 0, "is_reserved": 0, "fusion_lat": 0.0, "lat": 38.93474283333333, "fusion_lon": 0.0, "rental_uris": {"ios": "https://dc.lft.to/lastmile_qr_scan", "android": "https://dc.lft.to/lastmile_qr_scan"}, "lon": -77.02377283333334, "bike_id": "6e754326ee0ce0f5de216b1937f4bd9c", "type": "electric_scooter", "name": "6e754326ee0ce0f5de216b1937f4bd9c"}, {"is_disabled": 0, "is_reserved": 0, "fusion_lat": 0.0, "lat": 38.8962875, "fusion_lon": 0.0, "rental_uris": {"ios": "https://dc.lft.to/lastmile_qr_scan", "android": "https://dc.lft.to/lastmile_qr_scan"}, "lon": -77.032633, "bike_id": "21f11e2dbdfbdd2e36aaa5dece6f989b", "type": "electric_scooter", "name": "21f11e2dbdfbdd2e36aaa5dece6f989b"}, {"is_disabled": 0, "is_reserved": 0, "fusion_lat": 0.0, "lat": 38.89972433333333, "fusion_lon": 0.0, "rental_uris": {"ios": "https://dc.lft.to/lastmile_qr_scan", "android": "https://dc.lft.to/lastmile_qr_scan"}, "lon": -77.0161855, "bike_id": "baeec27943fb199c07e8222aa08c553e", "type": "electric_scooter", "name": "baeec27943fb199c07e8222aa08c553e"}, {"is_disabled": 0, "is_reserved": 0, "fusion_lat": 0.0, "lat": 38.93199, "fusion_lon": 0.0, "rental_uris": {"ios": "https://dc.lft.to/lastmile_qr_scan", "android": "https://dc.lft.to/lastmile_qr_scan"}, "lon": -77.02450666666667, "bike_id": "31f415defdb5fc01a3f422a9538e89ed", "type": "electric_scooter", "name": "31f415defdb5fc01a3f422a9538e89ed"}, {"is_disabled": 0, "is_reserved": 0, "fusion_lat": 0.0, "lat": 38.89740233333333, "fusion_lon": 0.0, "rental_uris": {"ios": "https://dc.lft.to/lastmile_qr_scan", "android": "https://dc.lft.to/lastmile_qr_scan"}, "lon": -77.0201175, "bike_id": "ade2f8f94e5f97e24e950053519bed86", "type": "electric_scooter", "name": "ade2f8f94e5f97e24e950053519bed86"}, {"is_disabled": 0, "is_reserved": 0, "fusion_lat": 0.0, "lat": 38.92077283333333, "fusion_lon": 0.0, "rental_uris": {"ios": "https://dc.lft.to/lastmile_qr_scan", "android": "https://dc.lft.to/lastmile_qr_scan"}, "lon": -77.0045395, "bike_id": "86c0a1136c699d19675876afddd2db36", "type": "electric_scooter", "name": "86c0a1136c699d19675876afddd2db36"}, {"is_disabled": 0, "is_reserved": 0, "fusion_lat": 0.0, "lat": 38.905462, "fusion_lon": 0.0, "rental_uris": {"ios": "https://dc.lft.to/lastmile_qr_scan", "android": "https://dc.lft.to/lastmile_qr_scan"}, "lon": -77.06270466666666, "bike_id": "cdce235e4b527866cc4a7e78c75dc261", "type": "electric_scooter", "name": "cdce235e4b527866cc4a7e78c75dc261"}, {"is_disabled": 0, "is_reserved": 0, "fusion_lat": 0.0, "lat": 38.905313666666665, "fusion_lon": 0.0, "rental_uris": {"ios": "https://dc.lft.to/lastmile_qr_scan", "android": "https://dc.lft.to/lastmile_qr_scan"}, "lon": -77.062409, "bike_id": "5139f976a1973d60fd20728314086d6c", "type": "electric_scooter", "name": "5139f976a1973d60fd20728314086d6c"}, {"is_disabled": 0, "is_reserved": 0, "fusion_lat": 0.0, "lat": 38.93698583333333, "fusion_lon": 0.0, "rental_uris": {"ios": "https://dc.lft.to/lastmile_qr_scan", "android": "https://dc.lft.to/lastmile_qr_scan"}, "lon": -77.05599083333334, "bike_id": "efb8edf0c09c54f6735f203ff616f0ae", "type": "electric_scooter", "name": "efb8edf0c09c54f6735f203ff616f0ae"}, {"is_disabled": 0, "is_reserved": 0, "fusion_lat": 0.0, "lat": 38.9067625, "fusion_lon": 0.0, "rental_uris": {"ios": "https://dc.lft.to/lastmile_qr_scan", "android": "https://dc.lft.to/lastmile_qr_scan"}, "lon": -77.00076883333334, "bike_id": "af6a8a576b6523f45674103052cbcd5a", "type": "electric_scooter", "name": "af6a8a576b6523f45674103052cbcd5a"}, {"is_disabled": 0, "is_reserved": 0, "fusion_lat": 0.0, "lat": 38.9748045, "fusion_lon": 0.0, "rental_uris": {"ios": "https://dc.lft.to/lastmile_qr_scan", "android": "https://dc.lft.to/lastmile_qr_scan"}, "lon": -77.01486216666666, "bike_id": "0d78e10070f6f5cdb0c0fbe79e22de53", "type": "electric_scooter", "name": "0d78e10070f6f5cdb0c0fbe79e22de53"}, {"is_disabled": 0, "is_reserved": 0, "fusion_lat": 0.0, "lat": 38.8948275, "fusion_lon": 0.0, "rental_uris": {"ios": "https://dc.lft.to/lastmile_qr_scan", "android": "https://dc.lft.to/lastmile_qr_scan"}, "lon": -76.9788155, "bike_id": "46704f7f72ced10c308d43ecab385066", "type": "electric_scooter", "name": "46704f7f72ced10c308d43ecab385066"}, {"is_disabled": 0, "is_reserved": 0, "fusion_lat": 0.0, "lat": 38.92102783333333, "fusion_lon": 0.0, "rental_uris": {"ios": "https://dc.lft.to/lastmile_qr_scan", "android": "https://dc.lft.to/lastmile_qr_scan"}, "lon": -77.03168366666667, "bike_id": "ac800544a34d979ba78af50fdc8c4a4f", "type": "electric_scooter", "name": "ac800544a34d979ba78af50fdc8c4a4f"}, {"is_disabled": 0, "is_reserved": 0, "fusion_lat": 0.0, "lat": 38.92011816666667, "fusion_lon": 0.0, "rental_uris": {"ios": "https://dc.lft.to/lastmile_qr_scan", "android": "https://dc.lft.to/lastmile_qr_scan"}, "lon": -77.04172116666666, "bike_id": "e628f0775ecd0fd35a71a445ee8e5591", "type": "electric_scooter", "name": "e628f0775ecd0fd35a71a445ee8e5591"}, {"is_disabled": 0, "is_reserved": 0, "fusion_lat": 0.0, "lat": 38.90868533333333, "fusion_lon": 0.0, "rental_uris": {"ios": "https://dc.lft.to/lastmile_qr_scan", "android": "https://dc.lft.to/lastmile_qr_scan"}, "lon": -77.04590716666667, "bike_id": "251b7fff931d434e14b6540fd5659f97", "type": "electric_scooter", "name": "251b7fff931d434e14b6540fd5659f97"}, {"is_disabled": 0, "is_reserved": 0, "fusion_lat": 0.0, "lat": 38.93249316666667, "fusion_lon": 0.0, "rental_uris": {"ios": "https://dc.lft.to/lastmile_qr_scan", "android": "https://dc.lft.to/lastmile_qr_scan"}, "lon": -76.99701516666667, "bike_id": "4e9f798e10e635e1f85c806d84347617", "type": "electric_scooter", "name": "4e9f798e10e635e1f85c806d84347617"}, {"is_disabled": 0, "is_reserved": 0, "fusion_lat": 0.0, "lat": 38.9155255, "fusion_lon": 0.0, "rental_uris": {"ios": "https://dc.lft.to/lastmile_qr_scan", "android": "https://dc.lft.to/lastmile_qr_scan"}, "lon": -77.0462075, "bike_id": "1a8b60c73d08895e4d0726eea3c28d30", "type": "electric_scooter", "name": "1a8b60c73d08895e4d0726eea3c28d30"}, {"is_disabled": 0, "is_reserved": 0, "fusion_lat": 0.0, "lat": 38.91559, "fusion_lon": 0.0, "rental_uris": {"ios": "https://dc.lft.to/lastmile_qr_scan", "android": "https://dc.lft.to/lastmile_qr_scan"}, "lon": -77.04616066666667, "bike_id": "33f200fc5b14c44a521c555b65e8716e", "type": "electric_scooter", "name": "33f200fc5b14c44a521c555b65e8716e"}, {"is_disabled": 0, "is_reserved": 0, "fusion_lat": 0.0, "lat": 38.930889666666666, "fusion_lon": 0.0, "rental_uris": {"ios": "https://dc.lft.to/lastmile_qr_scan", "android": "https://dc.lft.to/lastmile_qr_scan"}, "lon": -77.027906, "bike_id": "66d287ddef5a43ad92279bf8b19107d7", "type": "electric_scooter", "name": "66d287ddef5a43ad92279bf8b19107d7"}, {"is_disabled": 0, "is_reserved": 0, "fusion_lat": 0.0, "lat": 38.905496666666664, "fusion_lon": 0.0, "rental_uris": {"ios": "https://dc.lft.to/lastmile_qr_scan", "android": "https://dc.lft.to/lastmile_qr_scan"}, "lon": -77.06270083333334, "bike_id": "3785e6e41371f367c607babfaedc5e4f", "type": "electric_scooter", "name": "3785e6e41371f367c607babfaedc5e4f"}, {"is_disabled": 0, "is_reserved": 0, "fusion_lat": 0.0, "lat": 38.922423333333334, "fusion_lon": 0.0, "rental_uris": {"ios": "https://dc.lft.to/lastmile_qr_scan", "android": "https://dc.lft.to/lastmile_qr_scan"}, "lon": -77.01948616666667, "bike_id": "5db2a51a5b1a84101ac1b18190f16281", "type": "electric_scooter", "name": "5db2a51a5b1a84101ac1b18190f16281"}, {"is_disabled": 0, "is_reserved": 0, "fusion_lat": 0.0, "lat": 38.955924833333334, "fusion_lon": 0.0, "rental_uris": {"ios": "https://dc.lft.to/lastmile_qr_scan", "android": "https://dc.lft.to/lastmile_qr_scan"}, "lon": -77.0280765, "bike_id": "5729f3de250177a6d74f3f9e684529a8", "type": "electric_scooter", "name": "5729f3de250177a6d74f3f9e684529a8"}, {"is_disabled": 0, "is_reserved": 0, "fusion_lat": 0.0, "lat": 38.909615333333335, "fusion_lon": 0.0, "rental_uris": {"ios": "https://dc.lft.to/lastmile_qr_scan", "android": "https://dc.lft.to/lastmile_qr_scan"}, "lon": -77.01439366666666, "bike_id": "285c579a849f4b4db79c4d1776c5676a", "type": "electric_scooter", "name": "285c579a849f4b4db79c4d1776c5676a"}, {"is_disabled": 0, "is_reserved": 0, "fusion_lat": 0.0, "lat": 38.9103295, "fusion_lon": 0.0, "rental_uris": {"ios": "https://dc.lft.to/lastmile_qr_scan", "android": "https://dc.lft.to/lastmile_qr_scan"}, "lon": -77.00966683333333, "bike_id": "eae7ae91631960669c4fbf8c9e1cf2d3", "type": "electric_scooter", "name": "eae7ae91631960669c4fbf8c9e1cf2d3"}, {"is_disabled": 0, "is_reserved": 0, "fusion_lat": 0.0, "lat": 38.92864566666667, "fusion_lon": 0.0, "rental_uris": {"ios": "https://dc.lft.to/lastmile_qr_scan", "android": "https://dc.lft.to/lastmile_qr_scan"}, "lon": -77.01382966666667, "bike_id": "b7d1399e02559038ef6d5ccbace31b7a", "type": "electric_scooter", "name": "b7d1399e02559038ef6d5ccbace31b7a"}, {"is_disabled": 0, "is_reserved": 0, "fusion_lat": 0.0, "lat": 38.940888666666666, "fusion_lon": 0.0, "rental_uris": {"ios": "https://dc.lft.to/lastmile_qr_scan", "android": "https://dc.lft.to/lastmile_qr_scan"}, "lon": -77.02321183333333, "bike_id": "2c07b891337546201eefdaa6930a3383", "type": "electric_scooter", "name": "2c07b891337546201eefdaa6930a3383"}, {"is_disabled": 0, "is_reserved": 0, "fusion_lat": 0.0, "lat": 38.9050625, "fusion_lon": 0.0, "rental_uris": {"ios": "https://dc.lft.to/lastmile_qr_scan", "android": "https://dc.lft.to/lastmile_qr_scan"}, "lon": -77.06013316666666, "bike_id": "475cb45a147a203dd74f4d35ead62733", "type": "electric_scooter", "name": "475cb45a147a203dd74f4d35ead62733"}, {"is_disabled": 0, "is_reserved": 0, "fusion_lat": 0.0, "lat": 38.956527, "fusion_lon": 0.0, "rental_uris": {"ios": "https://dc.lft.to/lastmile_qr_scan", "android": "https://dc.lft.to/lastmile_qr_scan"}, "lon": -77.0196735, "bike_id": "38624708cb0b2bd651356c1f293889be", "type": "electric_scooter", "name": "38624708cb0b2bd651356c1f293889be"}, {"is_disabled": 0, "is_reserved": 0, "fusion_lat": 0.0, "lat": 38.960202833333334, "fusion_lon": 0.0, "rental_uris": {"ios": "https://dc.lft.to/lastmile_qr_scan", "android": "https://dc.lft.to/lastmile_qr_scan"}, "lon": -77.02820466666667, "bike_id": "1840cb502c7e1b553af65f368af7bb58", "type": "electric_scooter", "name": "1840cb502c7e1b553af65f368af7bb58"}, {"is_disabled": 0, "is_reserved": 0, "fusion_lat": 0.0, "lat": 38.88125083333333, "fusion_lon": 0.0, "rental_uris": {"ios": "https://dc.lft.to/lastmile_qr_scan", "android": "https://dc.lft.to/lastmile_qr_scan"}, "lon": -76.9928325, "bike_id": "c0c0c457bd38bd9f6e1da551dd171b64", "type": "electric_scooter", "name": "c0c0c457bd38bd9f6e1da551dd171b64"}, {"is_disabled": 0, "is_reserved": 0, "fusion_lat": 0.0, "lat": 38.900413, "fusion_lon": 0.0, "rental_uris": {"ios": "https://dc.lft.to/lastmile_qr_scan", "android": "https://dc.lft.to/lastmile_qr_scan"}, "lon": -76.99157733333334, "bike_id": "a2e0733c65ecd560d3f868414400a2fd", "type": "electric_scooter", "name": "a2e0733c65ecd560d3f868414400a2fd"}, {"is_disabled": 0, "is_reserved": 0, "fusion_lat": 0.0, "lat": 38.902597666666665, "fusion_lon": 0.0, "rental_uris": {"ios": "https://dc.lft.to/lastmile_qr_scan", "android": "https://dc.lft.to/lastmile_qr_scan"}, "lon": -77.05197133333333, "bike_id": "d53513a173f37bbf7f78efb1f0921429", "type": "electric_scooter", "name": "d53513a173f37bbf7f78efb1f0921429"}, {"is_disabled": 0, "is_reserved": 0, "fusion_lat": 0.0, "lat": 38.918262666666664, "fusion_lon": 0.0, "rental_uris": {"ios": "https://dc.lft.to/lastmile_qr_scan", "android": "https://dc.lft.to/lastmile_qr_scan"}, "lon": -77.02421883333334, "bike_id": "5e6400e83e988023a4acbb336d2435a7", "type": "electric_scooter", "name": "5e6400e83e988023a4acbb336d2435a7"}, {"is_disabled": 0, "is_reserved": 0, "fusion_lat": 0.0, "lat": 38.90256683333333, "fusion_lon": 0.0, "rental_uris": {"ios": "https://dc.lft.to/lastmile_qr_scan", "android": "https://dc.lft.to/lastmile_qr_scan"}, "lon": -77.05198566666667, "bike_id": "02838eb5dbd2f0f4f2338708e7cdd073", "type": "electric_scooter", "name": "02838eb5dbd2f0f4f2338708e7cdd073"}, {"is_disabled": 0, "is_reserved": 0, "fusion_lat": 0.0, "lat": 38.894153333333335, "fusion_lon": 0.0, "rental_uris": {"ios": "https://dc.lft.to/lastmile_qr_scan", "android": "https://dc.lft.to/lastmile_qr_scan"}, "lon": -77.03382166666667, "bike_id": "e5d2cee5ae86f2dc2576dbc8a265f7c9", "type": "electric_scooter", "name": "e5d2cee5ae86f2dc2576dbc8a265f7c9"}, {"is_disabled": 0, "is_reserved": 0, "fusion_lat": 0.0, "lat": 38.94499016666666, "fusion_lon": 0.0, "rental_uris": {"ios": "https://dc.lft.to/lastmile_qr_scan", "android": "https://dc.lft.to/lastmile_qr_scan"}, "lon": -77.03432516666666, "bike_id": "7160079d04d53da364375b410d999e5c", "type": "electric_scooter", "name": "7160079d04d53da364375b410d999e5c"}, {"is_disabled": 0, "is_reserved": 0, "fusion_lat": 0.0, "lat": 38.902500833333335, "fusion_lon": 0.0, "rental_uris": {"ios": "https://dc.lft.to/lastmile_qr_scan", "android": "https://dc.lft.to/lastmile_qr_scan"}, "lon": -76.97702766666667, "bike_id": "4acfb6cc1883c9181f3af43cd303dd07", "type": "electric_scooter", "name": "4acfb6cc1883c9181f3af43cd303dd07"}, {"is_disabled": 0, "is_reserved": 0, "fusion_lat": 0.0, "lat": 38.9095075, "fusion_lon": 0.0, "rental_uris": {"ios": "https://dc.lft.to/lastmile_qr_scan", "android": "https://dc.lft.to/lastmile_qr_scan"}, "lon": -77.03179616666667, "bike_id": "e6ef5b02a673d81fa9f2609d073069af", "type": "electric_scooter", "name": "e6ef5b02a673d81fa9f2609d073069af"}, {"is_disabled": 0, "is_reserved": 0, "fusion_lat": 0.0, "lat": 38.91851416666667, "fusion_lon": 0.0, "rental_uris": {"ios": "https://dc.lft.to/lastmile_qr_scan", "android": "https://dc.lft.to/lastmile_qr_scan"}, "lon": -76.9608875, "bike_id": "de9a4be85b64084aa8122b8a39f32fee", "type": "electric_scooter", "name": "de9a4be85b64084aa8122b8a39f32fee"}, {"is_disabled": 0, "is_reserved": 0, "fusion_lat": 0.0, "lat": 38.909670166666665, "fusion_lon": 0.0, "rental_uris": {"ios": "https://dc.lft.to/lastmile_qr_scan", "android": "https://dc.lft.to/lastmile_qr_scan"}, "lon": -77.04835666666666, "bike_id": "081efd6c7913ca8e59dc8d9c39eb66c4", "type": "electric_scooter", "name": "081efd6c7913ca8e59dc8d9c39eb66c4"}, {"is_disabled": 0, "is_reserved": 0, "fusion_lat": 0.0, "lat": 38.8900425, "fusion_lon": 0.0, "rental_uris": {"ios": "https://dc.lft.to/lastmile_qr_scan", "android": "https://dc.lft.to/lastmile_qr_scan"}, "lon": -76.93745666666666, "bike_id": "f058cb0750db03600267eaf2d1634abf", "type": "electric_scooter", "name": "f058cb0750db03600267eaf2d1634abf"}, {"is_disabled": 0, "is_reserved": 0, "fusion_lat": 0.0, "lat": 38.887484, "fusion_lon": 0.0, "rental_uris": {"ios": "https://dc.lft.to/lastmile_qr_scan", "android": "https://dc.lft.to/lastmile_qr_scan"}, "lon": -76.98845416666667, "bike_id": "c21ef7835b04a192b723a09ff16e77dd", "type": "electric_scooter", "name": "c21ef7835b04a192b723a09ff16e77dd"}, {"is_disabled": 0, "is_reserved": 0, "fusion_lat": 0.0, "lat": 38.91274833333333, "fusion_lon": 0.0, "rental_uris": {"ios": "https://dc.lft.to/lastmile_qr_scan", "android": "https://dc.lft.to/lastmile_qr_scan"}, "lon": -77.046635, "bike_id": "82ecc4bc4e242abc8caa6afb55d72b8d", "type": "electric_scooter", "name": "82ecc4bc4e242abc8caa6afb55d72b8d"}, {"is_disabled": 0, "is_reserved": 0, "fusion_lat": 0.0, "lat": 38.89226016666667, "fusion_lon": 0.0, "rental_uris": {"ios": "https://dc.lft.to/lastmile_qr_scan", "android": "https://dc.lft.to/lastmile_qr_scan"}, "lon": -77.0222815, "bike_id": "68cab84c352e5e3816163f66c8ebb091", "type": "electric_scooter", "name": "68cab84c352e5e3816163f66c8ebb091"}, {"is_disabled": 0, "is_reserved": 0, "fusion_lat": 0.0, "lat": 38.862349333333334, "fusion_lon": 0.0, "rental_uris": {"ios": "https://dc.lft.to/lastmile_qr_scan", "android": "https://dc.lft.to/lastmile_qr_scan"}, "lon": -76.99518166666667, "bike_id": "705ce42a3bd380fad73270255b585c6a", "type": "electric_scooter", "name": "705ce42a3bd380fad73270255b585c6a"}, {"is_disabled": 0, "is_reserved": 0, "fusion_lat": 0.0, "lat": 38.9089445, "fusion_lon": 0.0, "rental_uris": {"ios": "https://dc.lft.to/lastmile_qr_scan", "android": "https://dc.lft.to/lastmile_qr_scan"}, "lon": -77.04659366666667, "bike_id": "d3c17bc10d0732fa325d15aa7fac258c", "type": "electric_scooter", "name": "d3c17bc10d0732fa325d15aa7fac258c"}, {"is_disabled": 0, "is_reserved": 0, "fusion_lat": 0.0, "lat": 39.04236266666667, "fusion_lon": 0.0, "rental_uris": {"ios": "https://dc.lft.to/lastmile_qr_scan", "android": "https://dc.lft.to/lastmile_qr_scan"}, "lon": -76.997377, "bike_id": "4ef8d0d1e4e02d122a445ded063c3c3d", "type": "electric_bike", "name": "4ef8d0d1e4e02d122a445ded063c3c3d"}, {"is_disabled": 0, "is_reserved": 0, "fusion_lat": 0.0, "lat": 38.911849833333335, "fusion_lon": 0.0, "rental_uris": {"ios": "https://dc.lft.to/lastmile_qr_scan", "android": "https://dc.lft.to/lastmile_qr_scan"}, "lon": -77.00448383333334, "bike_id": "985738b32675949e4ef2952bedbbf723", "type": "electric_scooter", "name": "985738b32675949e4ef2952bedbbf723"}, {"is_disabled": 0, "is_reserved": 0, "fusion_lat": 0.0, "lat": 38.950699166666666, "fusion_lon": 0.0, "rental_uris": {"ios": "https://dc.lft.to/lastmile_qr_scan", "android": "https://dc.lft.to/lastmile_qr_scan"}, "lon": -76.99598816666666, "bike_id": "29bc8fdc5dec772ca68d35d78adc69a1", "type": "electric_bike", "name": "29bc8fdc5dec772ca68d35d78adc69a1"}, {"is_disabled": 0, "is_reserved": 0, "fusion_lat": 0.0, "lat": 38.8837475, "fusion_lon": 0.0, "rental_uris": {"ios": "https://dc.lft.to/lastmile_qr_scan", "android": "https://dc.lft.to/lastmile_qr_scan"}, "lon": -76.99512766666666, "bike_id": "d61991354901ef0ac53d6c4b90349e78", "type": "electric_scooter", "name": "d61991354901ef0ac53d6c4b90349e78"}, {"is_disabled": 0, "is_reserved": 0, "fusion_lat": 0.0, "lat": 38.947225833333334, "fusion_lon": 0.0, "rental_uris": {"ios": "https://dc.lft.to/lastmile_qr_scan", "android": "https://dc.lft.to/lastmile_qr_scan"}, "lon": -77.0235715, "bike_id": "ba9a9c34705df0d2fcf1b627354f132a", "type": "electric_scooter", "name": "ba9a9c34705df0d2fcf1b627354f132a"}, {"is_disabled": 0, "is_reserved": 0, "fusion_lat": 0.0, "lat": 38.92547316666667, "fusion_lon": 0.0, "rental_uris": {"ios": "https://dc.lft.to/lastmile_qr_scan", "android": "https://dc.lft.to/lastmile_qr_scan"}, "lon": -77.0228265, "bike_id": "07f882b1846a6f9326cbf6705d59b708", "type": "electric_scooter", "name": "07f882b1846a6f9326cbf6705d59b708"}, {"is_disabled": 0, "is_reserved": 0, "fusion_lat": 0.0, "lat": 38.913293333333336, "fusion_lon": 0.0, "rental_uris": {"ios": "https://dc.lft.to/lastmile_qr_scan", "android": "https://dc.lft.to/lastmile_qr_scan"}, "lon": -77.03125633333333, "bike_id": "0d2ba80d9874173a7c6f2e52e4b9ef00", "type": "electric_scooter", "name": "0d2ba80d9874173a7c6f2e52e4b9ef00"}, {"is_disabled": 0, "is_reserved": 0, "fusion_lat": 0.0, "lat": 38.91817616666667, "fusion_lon": 0.0, "rental_uris": {"ios": "https://dc.lft.to/lastmile_qr_scan", "android": "https://dc.lft.to/lastmile_qr_scan"}, "lon": -77.02525916666667, "bike_id": "e0efe3cf5e272bec94ca9b826a5ac25c", "type": "electric_scooter", "name": "e0efe3cf5e272bec94ca9b826a5ac25c"}, {"is_disabled": 0, "is_reserved": 0, "fusion_lat": 0.0, "lat": 38.9178485, "fusion_lon": 0.0, "rental_uris": {"ios": "https://dc.lft.to/lastmile_qr_scan", "android": "https://dc.lft.to/lastmile_qr_scan"}, "lon": -77.0246825, "bike_id": "890cb4854bed8ad0637d45418546ce42", "type": "electric_scooter", "name": "890cb4854bed8ad0637d45418546ce42"}, {"is_disabled": 0, "is_reserved": 0, "fusion_lat": 0.0, "lat": 38.902310166666666, "fusion_lon": 0.0, "rental_uris": {"ios": "https://dc.lft.to/lastmile_qr_scan", "android": "https://dc.lft.to/lastmile_qr_scan"}, "lon": -77.03168266666667, "bike_id": "9ac3d785e3fb1217c7dfef04463ade8a", "type": "electric_scooter", "name": "9ac3d785e3fb1217c7dfef04463ade8a"}, {"is_disabled": 0, "is_reserved": 0, "fusion_lat": 0.0, "lat": 38.915822, "fusion_lon": 0.0, "rental_uris": {"ios": "https://dc.lft.to/lastmile_qr_scan", "android": "https://dc.lft.to/lastmile_qr_scan"}, "lon": -77.06769816666667, "bike_id": "ba1e50068f9a93f1d285ff1ce57d3978", "type": "electric_scooter", "name": "ba1e50068f9a93f1d285ff1ce57d3978"}, {"is_disabled": 0, "is_reserved": 0, "fusion_lat": 0.0, "lat": 38.926553, "fusion_lon": 0.0, "rental_uris": {"ios": "https://dc.lft.to/lastmile_qr_scan", "android": "https://dc.lft.to/lastmile_qr_scan"}, "lon": -77.02433366666666, "bike_id": "c586fa6fac103d9178cba8b19201480c", "type": "electric_scooter", "name": "c586fa6fac103d9178cba8b19201480c"}, {"is_disabled": 0, "is_reserved": 0, "fusion_lat": 0.0, "lat": 38.901824833333336, "fusion_lon": 0.0, "rental_uris": {"ios": "https://dc.lft.to/lastmile_qr_scan", "android": "https://dc.lft.to/lastmile_qr_scan"}, "lon": -77.050823, "bike_id": "4a167bc6a18b9f11b1d879b3f72b33ef", "type": "electric_scooter", "name": "4a167bc6a18b9f11b1d879b3f72b33ef"}, {"is_disabled": 0, "is_reserved": 0, "fusion_lat": 0.0, "lat": 38.923839666666666, "fusion_lon": 0.0, "rental_uris": {"ios": "https://dc.lft.to/lastmile_qr_scan", "android": "https://dc.lft.to/lastmile_qr_scan"}, "lon": -77.026822, "bike_id": "09105959aec3e172b953fed66cda37c1", "type": "electric_scooter", "name": "09105959aec3e172b953fed66cda37c1"}, {"is_disabled": 0, "is_reserved": 0, "fusion_lat": 0.0, "lat": 38.89936016666667, "fusion_lon": 0.0, "rental_uris": {"ios": "https://dc.lft.to/lastmile_qr_scan", "android": "https://dc.lft.to/lastmile_qr_scan"}, "lon": -77.0220385, "bike_id": "859157bb273a94f33b4b621fb8745f92", "type": "electric_scooter", "name": "859157bb273a94f33b4b621fb8745f92"}, {"is_disabled": 0, "is_reserved": 0, "fusion_lat": 0.0, "lat": 38.9233945, "fusion_lon": 0.0, "rental_uris": {"ios": "https://dc.lft.to/lastmile_qr_scan", "android": "https://dc.lft.to/lastmile_qr_scan"}, "lon": -76.9987415, "bike_id": "61d02e7643d7c9b33279db927a2b0e80", "type": "electric_scooter", "name": "61d02e7643d7c9b33279db927a2b0e80"}, {"is_disabled": 0, "is_reserved": 0, "fusion_lat": 0.0, "lat": 38.908350666666664, "fusion_lon": 0.0, "rental_uris": {"ios": "https://dc.lft.to/lastmile_qr_scan", "android": "https://dc.lft.to/lastmile_qr_scan"}, "lon": -76.99690283333334, "bike_id": "cb41f0b4e021e55d2804cab017b7d2cb", "type": "electric_scooter", "name": "cb41f0b4e021e55d2804cab017b7d2cb"}, {"is_disabled": 0, "is_reserved": 0, "fusion_lat": 0.0, "lat": 38.855249666666666, "fusion_lon": 0.0, "rental_uris": {"ios": "https://dc.lft.to/lastmile_qr_scan", "android": "https://dc.lft.to/lastmile_qr_scan"}, "lon": -77.12056266666667, "bike_id": "2a93344333b45b8557e5f8ed97fb707b", "type": "electric_bike", "name": "2a93344333b45b8557e5f8ed97fb707b"}, {"is_disabled": 0, "is_reserved": 0, "fusion_lat": 0.0, "lat": 38.922237833333334, "fusion_lon": 0.0, "rental_uris": {"ios": "https://dc.lft.to/lastmile_qr_scan", "android": "https://dc.lft.to/lastmile_qr_scan"}, "lon": -77.0187445, "bike_id": "524d870123045098cf45535ca6290c02", "type": "electric_scooter", "name": "524d870123045098cf45535ca6290c02"}, {"is_disabled": 0, "is_reserved": 0, "fusion_lat": 0.0, "lat": 38.88270333333333, "fusion_lon": 0.0, "rental_uris": {"ios": "https://dc.lft.to/lastmile_qr_scan", "android": "https://dc.lft.to/lastmile_qr_scan"}, "lon": -76.99015033333333, "bike_id": "93a97e83459b89e0cb3bdcd2dd89dfd1", "type": "electric_scooter", "name": "93a97e83459b89e0cb3bdcd2dd89dfd1"}, {"is_disabled": 0, "is_reserved": 0, "fusion_lat": 0.0, "lat": 38.9285425, "fusion_lon": 0.0, "rental_uris": {"ios": "https://dc.lft.to/lastmile_qr_scan", "android": "https://dc.lft.to/lastmile_qr_scan"}, "lon": -77.037292, "bike_id": "ba5fedf1b23d701396227633120f9fe2", "type": "electric_scooter", "name": "ba5fedf1b23d701396227633120f9fe2"}, {"is_disabled": 0, "is_reserved": 0, "fusion_lat": 0.0, "lat": 38.89508466666667, "fusion_lon": 0.0, "rental_uris": {"ios": "https://dc.lft.to/lastmile_qr_scan", "android": "https://dc.lft.to/lastmile_qr_scan"}, "lon": -77.02273366666667, "bike_id": "14f06ad1e267c34e15e93668a6da28f9", "type": "electric_scooter", "name": "14f06ad1e267c34e15e93668a6da28f9"}, {"is_disabled": 0, "is_reserved": 0, "fusion_lat": 0.0, "lat": 38.92031983333333, "fusion_lon": 0.0, "rental_uris": {"ios": "https://dc.lft.to/lastmile_qr_scan", "android": "https://dc.lft.to/lastmile_qr_scan"}, "lon": -77.03074233333334, "bike_id": "4573993901b23a4968261796d939ce58", "type": "electric_scooter", "name": "4573993901b23a4968261796d939ce58"}, {"is_disabled": 0, "is_reserved": 0, "fusion_lat": 0.0, "lat": 38.9366315, "fusion_lon": 0.0, "rental_uris": {"ios": "https://dc.lft.to/lastmile_qr_scan", "android": "https://dc.lft.to/lastmile_qr_scan"}, "lon": -77.06604533333334, "bike_id": "baa7d3dc04f3b35ee9114f32e05b4507", "type": "electric_scooter", "name": "baa7d3dc04f3b35ee9114f32e05b4507"}, {"is_disabled": 0, "is_reserved": 0, "fusion_lat": 0.0, "lat": 38.901516666666666, "fusion_lon": 0.0, "rental_uris": {"ios": "https://dc.lft.to/lastmile_qr_scan", "android": "https://dc.lft.to/lastmile_qr_scan"}, "lon": -77.03242683333333, "bike_id": "08e06876c1fbef2fc200cbfe4beb86b7", "type": "electric_scooter", "name": "08e06876c1fbef2fc200cbfe4beb86b7"}, {"is_disabled": 0, "is_reserved": 0, "fusion_lat": 0.0, "lat": 38.89554366666667, "fusion_lon": 0.0, "rental_uris": {"ios": "https://dc.lft.to/lastmile_qr_scan", "android": "https://dc.lft.to/lastmile_qr_scan"}, "lon": -77.016488, "bike_id": "1e8d946dfee08eaaeb4056e97492d6a7", "type": "electric_scooter", "name": "1e8d946dfee08eaaeb4056e97492d6a7"}, {"is_disabled": 0, "is_reserved": 0, "fusion_lat": 0.0, "lat": 38.915549, "fusion_lon": 0.0, "rental_uris": {"ios": "https://dc.lft.to/lastmile_qr_scan", "android": "https://dc.lft.to/lastmile_qr_scan"}, "lon": -77.02028266666666, "bike_id": "58a08526dbb586e7e447693105dc482b", "type": "electric_scooter", "name": "58a08526dbb586e7e447693105dc482b"}, {"is_disabled": 0, "is_reserved": 0, "fusion_lat": 0.0, "lat": 38.891814333333336, "fusion_lon": 0.0, "rental_uris": {"ios": "https://dc.lft.to/lastmile_qr_scan", "android": "https://dc.lft.to/lastmile_qr_scan"}, "lon": -77.015787, "bike_id": "6706183e2e32e1210abeb05d1fe4969f", "type": "electric_scooter", "name": "6706183e2e32e1210abeb05d1fe4969f"}, {"is_disabled": 0, "is_reserved": 0, "fusion_lat": 0.0, "lat": 38.9075135, "fusion_lon": 0.0, "rental_uris": {"ios": "https://dc.lft.to/lastmile_qr_scan", "android": "https://dc.lft.to/lastmile_qr_scan"}, "lon": -76.99929633333333, "bike_id": "fc9bde1b6fa24bfb2a9c405aff856775", "type": "electric_scooter", "name": "fc9bde1b6fa24bfb2a9c405aff856775"}, {"is_disabled": 0, "is_reserved": 0, "fusion_lat": 0.0, "lat": 38.9185075, "fusion_lon": 0.0, "rental_uris": {"ios": "https://dc.lft.to/lastmile_qr_scan", "android": "https://dc.lft.to/lastmile_qr_scan"}, "lon": -77.02457583333333, "bike_id": "367f1d1191ca81218972789039d7abf0", "type": "electric_scooter", "name": "367f1d1191ca81218972789039d7abf0"}, {"is_disabled": 0, "is_reserved": 0, "fusion_lat": 0.0, "lat": 38.8918345, "fusion_lon": 0.0, "rental_uris": {"ios": "https://dc.lft.to/lastmile_qr_scan", "android": "https://dc.lft.to/lastmile_qr_scan"}, "lon": -77.01504416666667, "bike_id": "f1fca9cb0e9af5914bc115d7c09cccb5", "type": "electric_scooter", "name": "f1fca9cb0e9af5914bc115d7c09cccb5"}, {"is_disabled": 0, "is_reserved": 0, "fusion_lat": 0.0, "lat": 38.88582866666667, "fusion_lon": 0.0, "rental_uris": {"ios": "https://dc.lft.to/lastmile_qr_scan", "android": "https://dc.lft.to/lastmile_qr_scan"}, "lon": -76.99493616666666, "bike_id": "e3f68b385a8921e7f5285f0aae683031", "type": "electric_scooter", "name": "e3f68b385a8921e7f5285f0aae683031"}, {"is_disabled": 0, "is_reserved": 0, "fusion_lat": 0.0, "lat": 38.920478833333334, "fusion_lon": 0.0, "rental_uris": {"ios": "https://dc.lft.to/lastmile_qr_scan", "android": "https://dc.lft.to/lastmile_qr_scan"}, "lon": -77.03330933333334, "bike_id": "6473e278280fab071f96ebc4e6c94d64", "type": "electric_scooter", "name": "6473e278280fab071f96ebc4e6c94d64"}, {"is_disabled": 0, "is_reserved": 0, "fusion_lat": 0.0, "lat": 39.00386116666667, "fusion_lon": 0.0, "rental_uris": {"ios": "https://dc.lft.to/lastmile_qr_scan", "android": "https://dc.lft.to/lastmile_qr_scan"}, "lon": -77.012881, "bike_id": "4c76780127b1045458c1940b38b8d904", "type": "electric_bike", "name": "4c76780127b1045458c1940b38b8d904"}, {"is_disabled": 0, "is_reserved": 0, "fusion_lat": 0.0, "lat": 38.91554466666667, "fusion_lon": 0.0, "rental_uris": {"ios": "https://dc.lft.to/lastmile_qr_scan", "android": "https://dc.lft.to/lastmile_qr_scan"}, "lon": -77.03468416666666, "bike_id": "7f89e949125e634a2226b75d4d2f72f8", "type": "electric_scooter", "name": "7f89e949125e634a2226b75d4d2f72f8"}, {"is_disabled": 0, "is_reserved": 0, "fusion_lat": 0.0, "lat": 38.93562983333333, "fusion_lon": 0.0, "rental_uris": {"ios": "https://dc.lft.to/lastmile_qr_scan", "android": "https://dc.lft.to/lastmile_qr_scan"}, "lon": -76.99103783333334, "bike_id": "ff8d63bd44bc6d51162cdf0d634ade53", "type": "electric_scooter", "name": "ff8d63bd44bc6d51162cdf0d634ade53"}, {"is_disabled": 0, "is_reserved": 0, "fusion_lat": 0.0, "lat": 38.900449, "fusion_lon": 0.0, "rental_uris": {"ios": "https://dc.lft.to/lastmile_qr_scan", "android": "https://dc.lft.to/lastmile_qr_scan"}, "lon": -77.05080016666666, "bike_id": "de0807698eb4aa44bbf18adaebe45432", "type": "electric_scooter", "name": "de0807698eb4aa44bbf18adaebe45432"}, {"is_disabled": 0, "is_reserved": 0, "fusion_lat": 0.0, "lat": 38.915391666666665, "fusion_lon": 0.0, "rental_uris": {"ios": "https://dc.lft.to/lastmile_qr_scan", "android": "https://dc.lft.to/lastmile_qr_scan"}, "lon": -77.02187133333334, "bike_id": "f3b51628c3307d6ee1dc90b077ef3c4d", "type": "electric_scooter", "name": "f3b51628c3307d6ee1dc90b077ef3c4d"}, {"is_disabled": 0, "is_reserved": 0, "fusion_lat": 0.0, "lat": 38.95362433333333, "fusion_lon": 0.0, "rental_uris": {"ios": "https://dc.lft.to/lastmile_qr_scan", "android": "https://dc.lft.to/lastmile_qr_scan"}, "lon": -76.94295166666667, "bike_id": "f8cfc73a352b3a712be618818046e6bd", "type": "electric_bike", "name": "f8cfc73a352b3a712be618818046e6bd"}, {"is_disabled": 0, "is_reserved": 0, "fusion_lat": 0.0, "lat": 38.90039066666667, "fusion_lon": 0.0, "rental_uris": {"ios": "https://dc.lft.to/lastmile_qr_scan", "android": "https://dc.lft.to/lastmile_qr_scan"}, "lon": -76.9883775, "bike_id": "4401b196df9214a87eead316c08e415c", "type": "electric_scooter", "name": "4401b196df9214a87eead316c08e415c"}, {"is_disabled": 0, "is_reserved": 0, "fusion_lat": 0.0, "lat": 38.930771666666665, "fusion_lon": 0.0, "rental_uris": {"ios": "https://dc.lft.to/lastmile_qr_scan", "android": "https://dc.lft.to/lastmile_qr_scan"}, "lon": -77.07764766666666, "bike_id": "5913b0e3ca08af3efa8d6c6346a53653", "type": "electric_scooter", "name": "5913b0e3ca08af3efa8d6c6346a53653"}, {"is_disabled": 0, "is_reserved": 0, "fusion_lat": 0.0, "lat": 38.939744166666664, "fusion_lon": 0.0, "rental_uris": {"ios": "https://dc.lft.to/lastmile_qr_scan", "android": "https://dc.lft.to/lastmile_qr_scan"}, "lon": -77.034293, "bike_id": "050933f642d5f3e7a7e6f4b0a25a830a", "type": "electric_scooter", "name": "050933f642d5f3e7a7e6f4b0a25a830a"}, {"is_disabled": 0, "is_reserved": 0, "fusion_lat": 0.0, "lat": 38.89183333333333, "fusion_lon": 0.0, "rental_uris": {"ios": "https://dc.lft.to/lastmile_qr_scan", "android": "https://dc.lft.to/lastmile_qr_scan"}, "lon": -77.0158165, "bike_id": "42addb8383302283ab280f38b44b4752", "type": "electric_scooter", "name": "42addb8383302283ab280f38b44b4752"}, {"is_disabled": 0, "is_reserved": 0, "fusion_lat": 0.0, "lat": 38.9180725, "fusion_lon": 0.0, "rental_uris": {"ios": "https://dc.lft.to/lastmile_qr_scan", "android": "https://dc.lft.to/lastmile_qr_scan"}, "lon": -77.03437433333333, "bike_id": "44574840a43822ac69023c6210c05ddc", "type": "electric_scooter", "name": "44574840a43822ac69023c6210c05ddc"}, {"is_disabled": 0, "is_reserved": 0, "fusion_lat": 0.0, "lat": 38.83606066666667, "fusion_lon": 0.0, "rental_uris": {"ios": "https://dc.lft.to/lastmile_qr_scan", "android": "https://dc.lft.to/lastmile_qr_scan"}, "lon": -77.00381316666666, "bike_id": "723f263202e664b1769f2c854e78c180", "type": "electric_bike", "name": "723f263202e664b1769f2c854e78c180"}, {"is_disabled": 0, "is_reserved": 0, "fusion_lat": 0.0, "lat": 38.91048416666667, "fusion_lon": 0.0, "rental_uris": {"ios": "https://dc.lft.to/lastmile_qr_scan", "android": "https://dc.lft.to/lastmile_qr_scan"}, "lon": -77.01512, "bike_id": "397f95a0312720f7a4dee85b8d9afc60", "type": "electric_scooter", "name": "397f95a0312720f7a4dee85b8d9afc60"}, {"is_disabled": 0, "is_reserved": 0, "fusion_lat": 0.0, "lat": 38.91046216666667, "fusion_lon": 0.0, "rental_uris": {"ios": "https://dc.lft.to/lastmile_qr_scan", "android": "https://dc.lft.to/lastmile_qr_scan"}, "lon": -77.03709483333333, "bike_id": "dfcb71e39812e4c62a11122bcfb8398a", "type": "electric_scooter", "name": "dfcb71e39812e4c62a11122bcfb8398a"}, {"is_disabled": 0, "is_reserved": 0, "fusion_lat": 0.0, "lat": 38.92383, "fusion_lon": 0.0, "rental_uris": {"ios": "https://dc.lft.to/lastmile_qr_scan", "android": "https://dc.lft.to/lastmile_qr_scan"}, "lon": -77.04024783333334, "bike_id": "51b94d7c75ab1978946b9fc56e47a5a7", "type": "electric_scooter", "name": "51b94d7c75ab1978946b9fc56e47a5a7"}, {"is_disabled": 0, "is_reserved": 0, "fusion_lat": 0.0, "lat": 38.934295166666665, "fusion_lon": 0.0, "rental_uris": {"ios": "https://dc.lft.to/lastmile_qr_scan", "android": "https://dc.lft.to/lastmile_qr_scan"}, "lon": -77.04308866666666, "bike_id": "5bc3e7fe5e727ff4c6be9f6ac64b8dcf", "type": "electric_scooter", "name": "5bc3e7fe5e727ff4c6be9f6ac64b8dcf"}, {"is_disabled": 0, "is_reserved": 0, "fusion_lat": 0.0, "lat": 38.895988, "fusion_lon": 0.0, "rental_uris": {"ios": "https://dc.lft.to/lastmile_qr_scan", "android": "https://dc.lft.to/lastmile_qr_scan"}, "lon": -77.02203766666666, "bike_id": "5db3ea2db7f6eb8362403ed8b5a7fcc4", "type": "electric_scooter", "name": "5db3ea2db7f6eb8362403ed8b5a7fcc4"}, {"is_disabled": 0, "is_reserved": 0, "fusion_lat": 0.0, "lat": 38.91826533333333, "fusion_lon": 0.0, "rental_uris": {"ios": "https://dc.lft.to/lastmile_qr_scan", "android": "https://dc.lft.to/lastmile_qr_scan"}, "lon": -77.02710016666667, "bike_id": "bb648cd87866d10b838f666437f4c80a", "type": "electric_scooter", "name": "bb648cd87866d10b838f666437f4c80a"}, {"is_disabled": 0, "is_reserved": 0, "fusion_lat": 0.0, "lat": 38.90649333333333, "fusion_lon": 0.0, "rental_uris": {"ios": "https://dc.lft.to/lastmile_qr_scan", "android": "https://dc.lft.to/lastmile_qr_scan"}, "lon": -77.045537, "bike_id": "82d8cb29397bc5c32bc2ba1cd5704853", "type": "electric_scooter", "name": "82d8cb29397bc5c32bc2ba1cd5704853"}, {"is_disabled": 0, "is_reserved": 0, "fusion_lat": 0.0, "lat": 38.80678233333333, "fusion_lon": 0.0, "rental_uris": {"ios": "https://dc.lft.to/lastmile_qr_scan", "android": "https://dc.lft.to/lastmile_qr_scan"}, "lon": -77.06916416666667, "bike_id": "761599b4613b567d6901007ef33dd262", "type": "electric_bike", "name": "761599b4613b567d6901007ef33dd262"},