{"data": {"bikes": [{"fusion_lat": 0.0, "name": "2e37fe396fe0563dddebe3bb85795519", "is_disabled": 0, "rental_uris": {"android": "https://dc.lft.to/lastmile_qr_scan", "ios": "https://dc.lft.to/lastmile_qr_scan"}, "fusion_lon": 0.0, "lat": 38.89221933333334, "bike_id": "2e37fe396fe0563dddebe3bb85795519", "type": "electric_scooter", "is_reserved": 0, "lon": -77.03218583333333}, {"fusion_lat": 0.0, "name": "de239e6a8ef3a98a14067b86bc16b022", "is_disabled": 0, "rental_uris": {"android": "https://dc.lft.to/lastmile_qr_scan", "ios": "https://dc.lft.to/lastmile_qr_scan"}, "fusion_lon": 0.0, "lat": 38.904503166666665, "bike_id": "de239e6a8ef3a98a14067b86bc16b022", "type": "electric_bike", "is_reserved": 0, "lon": -76.9743075}, {"fusion_lat": 0.0, "name": "a18b130f9dbbc66ac8c3155b6dad2979", "is_disabled": 0, "rental_uris": {"android": "https://dc.lft.to/lastmile_qr_scan", "ios": "https://dc.lft.to/lastmile_qr_scan"}, "fusion_lon": 0.0, "lat": 38.855641, "bike_id": "a18b130f9dbbc66ac8c3155b6dad2979", "type": "electric_bike", "is_reserved": 0, "lon": -77.11319216666666}, {"fusion_lat": 0.0, "name": "903ffe73246aa3c2ca8186bdafd7ddb6", "is_disabled": 0, "rental_uris": {"android": "https://dc.lft.to/lastmile_qr_scan", "ios": "https://dc.lft.to/lastmile_qr_scan"}, "fusion_lon": 0.0, "lat": 38.892263666666665, "bike_id": "903ffe73246aa3c2ca8186bdafd7ddb6", "type": "electric_scooter", "is_reserved": 0, "lon": -77.04376383333333}, {"fusion_lat": 0.0, "name": "f6613d62307f81ae66989a52ea4788f0", "is_disabled": 0, "rental_uris": {"android": "https://dc.lft.to/lastmile_qr_scan", "ios": "https://dc.lft.to/lastmile_qr_scan"}, "fusion_lon": 0.0, "lat": 38.89729716666667, "bike_id": "f6613d62307f81ae66989a52ea4788f0", "type": "electric_scooter", "is_reserved": 0, "lon": -76.9470555}, {"fusion_lat": 0.0, "name": "6c234fc332d70abfd66a757d11092d62", "is_disabled": 0, "rental_uris": {"android": "https://dc.lft.to/lastmile_qr_scan", "ios": "https://dc.lft.to/lastmile_qr_scan"}, "fusion_lon": 0.0, "lat": 38.905040666666665, "bike_id": "6c234fc332d70abfd66a757d11092d62", "type": "electric_scooter", "is_reserved": 0, "lon": -77.02939583333334}, {"fusion_lat": 0.0, "name": "5b836993b41a3dcdedbfbe592b03a00d", "is_disabled": 0, "rental_uris": {"android": "https://dc.lft.to/lastmile_qr_scan", "ios": "https://dc.lft.to/lastmile_qr_scan"}, "fusion_lon": 0.0, "lat": 38.96067883333333, "bike_id": "5b836993b41a3dcdedbfbe592b03a00d", "type": "electric_scooter", "is_reserved": 0, "lon": -77.001035}, {"fusion_lat": 0.0, "name": "e9f41a60014df7505119d83cc0bdfea9", "is_disabled": 0, "rental_uris": {"android": "https://dc.lft.to/lastmile_qr_scan", "ios": "https://dc.lft.to/lastmile_qr_scan"}, "fusion_lon": 0.0, "lat": 38.909564833333334, "bike_id": "e9f41a60014df7505119d83cc0bdfea9", "type": "electric_scooter", "is_reserved": 0, "lon": -77.04871633333333}, {"fusion_lat": 0.0, "name": "6df5520beb7345dcea81f49350b8ad8c", "is_disabled": 0, "rental_uris": {"android": "https://dc.lft.to/lastmile_qr_scan", "ios": "https://dc.lft.to/lastmile_qr_scan"}, "fusion_lon": 0.0, "lat": 38.910352333333336, "bike_id": "6df5520beb7345dcea81f49350b8ad8c", "type": "electric_scooter", "is_reserved": 0, "lon": -77.01289466666667}, {"fusion_lat": 0.0, "name": "30b382aa4ced0c082614c0c25b873852", "is_disabled": 0, "rental_uris": {"android": "https://dc.lft.to/lastmile_qr_scan", "ios": "https://dc.lft.to/lastmile_qr_scan"}, "fusion_lon": 0.0, "lat": 38.93148516666667, "bike_id": "30b382aa4ced0c082614c0c25b873852", "type": "electric_scooter", "is_reserved": 0, "lon": -77.03961916666667}, {"fusion_lat": 0.0, "name": "d6da3e4d2097cfa44158d7d14e7ba8b7", "is_disabled": 0, "rental_uris": {"android": "https://dc.lft.to/lastmile_qr_scan", "ios": "https://dc.lft.to/lastmile_qr_scan"}, "fusion_lon": 0.0, "lat": 38.88219566666667, "bike_id": "d6da3e4d2097cfa44158d7d14e7ba8b7", "type": "electric_scooter", "is_reserved": 0, "lon": -77.029395}, {"fusion_lat": 0.0, "name": "cade0d304d7d5dbff5f16e01ef06cbc1", "is_disabled": 0, "rental_uris": {"android": "https://dc.lft.to/lastmile_qr_scan", "ios": "https://dc.lft.to/lastmile_qr_scan"}, "fusion_lon": 0.0, "lat": 38.94854266666667, "bike_id": "cade0d304d7d5dbff5f16e01ef06cbc1", "type": "electric_scooter", "is_reserved": 0, "lon": -77.025671}, {"fusion_lat": 0.0, "name": "5dc868393464c0535e75b8303dd0b0e3", "is_disabled": 0, "rental_uris": {"android": "https://dc.lft.to/lastmile_qr_scan", "ios": "https://dc.lft.to/lastmile_qr_scan"}, "fusion_lon": 0.0, "lat": 38.919931, "bike_id": "5dc868393464c0535e75b8303dd0b0e3", "type": "electric_scooter", "is_reserved": 0, "lon": -77.07194516666667}, {"fusion_lat": 0.0, "name": "5771572563444c538627beb4a2ba1788", "is_disabled": 0, "rental_uris": {"android": "https://dc.lft.to/lastmile_qr_scan", "ios": "https://dc.lft.to/lastmile_qr_scan"}, "fusion_lon": 0.0, "lat": 38.883005833333335, "bike_id": "5771572563444c538627beb4a2ba1788", "type": "electric_scooter", "is_reserved": 0, "lon": -76.94852783333333}, {"fusion_lat": 0.0, "name": "31b7050a57b1bb4859c90119310a0904", "is_disabled": 0, "rental_uris": {"android": "https://dc.lft.to/lastmile_qr_scan", "ios": "https://dc.lft.to/lastmile_qr_scan"}, "fusion_lon": 0.0, "lat": 38.91253583333334, "bike_id": "31b7050a57b1bb4859c90119310a0904", "type": "electric_scooter", "is_reserved": 0, "lon": -77.0062675}, {"fusion_lat": 0.0, "name": "e11d0f267455fad103c39fc7397b1596", "is_disabled": 0, "rental_uris": {"android": "https://dc.lft.to/lastmile_qr_scan", "ios": "https://dc.lft.to/lastmile_qr_scan"}, "fusion_lon": 0.0, "lat": 38.9242445, "bike_id": "e11d0f267455fad103c39fc7397b1596", "type": "electric_scooter", "is_reserved": 0, "lon": -77.02546816666667}, {"fusion_lat": 0.0, "name": "5754a152056210df6bd7dc862b4cb6a7", "is_disabled": 0, "rental_uris": {"android": "https://dc.lft.to/lastmile_qr_scan", "ios": "https://dc.lft.to/lastmile_qr_scan"}, "fusion_lon": 0.0, "lat": 38.935792666666664, "bike_id": "5754a152056210df6bd7dc862b4cb6a7", "type": "electric_scooter", "is_reserved": 0, "lon": -77.02845133333334}, {"fusion_lat": 0.0, "name": "d2b11ce1d214268b0571a5f9fa08e462", "is_disabled": 0, "rental_uris": {"android": "https://dc.lft.to/lastmile_qr_scan", "ios": "https://dc.lft.to/lastmile_qr_scan"}, "fusion_lon": 0.0, "lat": 38.85404616666667, "bike_id": "d2b11ce1d214268b0571a5f9fa08e462", "type": "electric_bike", "is_reserved": 0, "lon": -77.12091766666667}, {"fusion_lat": 0.0, "name": "9112b2a23b9574361d72c8118add8f5c", "is_disabled": 0, "rental_uris": {"android": "https://dc.lft.to/lastmile_qr_scan", "ios": "https://dc.lft.to/lastmile_qr_scan"}, "fusion_lon": 0.0, "lat": 38.95221383333333, "bike_id": "9112b2a23b9574361d72c8118add8f5c", "type": "electric_scooter", "is_reserved": 0, "lon": -77.08220466666667}, {"fusion_lat": 0.0, "name": "c99ddee8c3f4475416c6d0a710fc888b", "is_disabled": 0, "rental_uris": {"android": "https://dc.lft.to/lastmile_qr_scan", "ios": "https://dc.lft.to/lastmile_qr_scan"}, "fusion_lon": 0.0, "lat": 38.920817666666665, "bike_id": "c99ddee8c3f4475416c6d0a710fc888b", "type": "electric_scooter", "is_reserved": 0, "lon": -76.994487}, {"fusion_lat": 0.0, "name": "396fa1a4d6292ef7e9a4ed8c8801ed87", "is_disabled": 0, "rental_uris": {"android": "https://dc.lft.to/lastmile_qr_scan", "ios": "https://dc.lft.to/lastmile_qr_scan"}, "fusion_lon": 0.0, "lat": 38.89180666666667, "bike_id": "396fa1a4d6292ef7e9a4ed8c8801ed87", "type": "electric_scooter", "is_reserved": 0, "lon": -76.99941133333333}, {"fusion_lat": 0.0, "name": "3b68af9c9af1b7c68aa8702aef732e60", "is_disabled": 0, "rental_uris": {"android": "https://dc.lft.to/lastmile_qr_scan", "ios": "https://dc.lft.to/lastmile_qr_scan"}, "fusion_lon": 0.0, "lat": 38.92032233333333, "bike_id": "3b68af9c9af1b7c68aa8702aef732e60", "type": "electric_scooter", "is_reserved": 0, "lon": -77.01765616666667}, {"fusion_lat": 0.0, "name": "d18aef8ba0607d871b5b1a88f5342445", "is_disabled": 0, "rental_uris": {"android": "https://dc.lft.to/lastmile_qr_scan", "ios": "https://dc.lft.to/lastmile_qr_scan"}, "fusion_lon": 0.0, "lat": 38.91674233333333, "bike_id": "d18aef8ba0607d871b5b1a88f5342445", "type": "electric_scooter", "is_reserved": 0, "lon": -77.02807366666667}, {"fusion_lat": 0.0, "name": "0541198edc50dc4bb7043d6d4fb99326", "is_disabled": 0, "rental_uris": {"android": "https://dc.lft.to/lastmile_qr_scan", "ios": "https://dc.lft.to/lastmile_qr_scan"}, "fusion_lon": 0.0, "lat": 38.93144816666667, "bike_id": "0541198edc50dc4bb7043d6d4fb99326", "type": "electric_scooter", "is_reserved": 0, "lon": -77.07854933333333}, {"fusion_lat": 0.0, "name": "4ab5d05decf74b98017148f1eaa5cc82", "is_disabled": 0, "rental_uris": {"android": "https://dc.lft.to/lastmile_qr_scan", "ios": "https://dc.lft.to/lastmile_qr_scan"}, "fusion_lon": 0.0, "lat": 38.90269516666667, "bike_id": "4ab5d05decf74b98017148f1eaa5cc82", "type": "electric_scooter", "is_reserved": 0, "lon": -77.04372166666667}, {"fusion_lat": 0.0, "name": "ef9663453e02834ed4b97eace4849dcc", "is_disabled": 0, "rental_uris": {"android": "https://dc.lft.to/lastmile_qr_scan", "ios": "https://dc.lft.to/lastmile_qr_scan"}, "fusion_lon": 0.0, "lat": 38.90717683333333, "bike_id": "ef9663453e02834ed4b97eace4849dcc", "type": "electric_scooter", "is_reserved": 0, "lon": -77.04815433333333}, {"fusion_lat": 0.0, "name": "73e337b826e7900500269a8d4f72075d", "is_disabled": 0, "rental_uris": {"android": "https://dc.lft.to/lastmile_qr_scan", "ios": "https://dc.lft.to/lastmile_qr_scan"}, "fusion_lon": 0.0, "lat": 38.959545, "bike_id": "73e337b826e7900500269a8d4f72075d", "type": "electric_bike", "is_reserved": 0, "lon": -77.03062566666667}, {"fusion_lat": 0.0, "name": "299cfbcc9ea0c5f6e1b4de85efc1d079", "is_disabled": 0, "rental_uris": {"android": "https://dc.lft.to/lastmile_qr_scan", "ios": "https://dc.lft.to/lastmile_qr_scan"}, "fusion_lon": 0.0, "lat": 38.908075, "bike_id": "299cfbcc9ea0c5f6e1b4de85efc1d079", "type": "electric_scooter", "is_reserved": 0, "lon": -77.04351466666667}, {"fusion_lat": 0.0, "name": "f37b8643367af94bedb8d8756811bcaf", "is_disabled": 0, "rental_uris": {"android": "https://dc.lft.to/lastmile_qr_scan", "ios": "https://dc.lft.to/lastmile_qr_scan"}, "fusion_lon": 0.0, "lat": 38.924141166666665, "bike_id": "f37b8643367af94bedb8d8756811bcaf", "type": "electric_scooter", "is_reserved": 0, "lon": -77.020058}, {"fusion_lat": 0.0, "name": "34e1d2b57852d60c91ce4426d05f5b25", "is_disabled": 0, "rental_uris": {"android": "https://dc.lft.to/lastmile_qr_scan", "ios": "https://dc.lft.to/lastmile_qr_scan"}, "fusion_lon": 0.0, "lat": 38.935857666666664, "bike_id": "34e1d2b57852d60c91ce4426d05f5b25", "type": "electric_scooter", "is_reserved": 0, "lon": -77.02847083333333}, {"fusion_lat": 0.0, "name": "4abce7a1cf19a04fbba761c802468a4d", "is_disabled": 0, "rental_uris": {"android": "https://dc.lft.to/lastmile_qr_scan", "ios": "https://dc.lft.to/lastmile_qr_scan"}, "fusion_lon": 0.0, "lat": 38.9148575, "bike_id": "4abce7a1cf19a04fbba761c802468a4d", "type": "electric_scooter", "is_reserved": 0, "lon": -77.01235783333334}, {"fusion_lat": 0.0, "name": "d42899f7dcc071edfc2f979d060e9beb", "is_disabled": 0, "rental_uris": {"android": "https://dc.lft.to/lastmile_qr_scan", "ios": "https://dc.lft.to/lastmile_qr_scan"}, "fusion_lon": 0.0, "lat": 38.8974235, "bike_id": "d42899f7dcc071edfc2f979d060e9beb", "type": "electric_scooter", "is_reserved": 0, "lon": -77.0463705}, {"fusion_lat": 0.0, "name": "d88eeaa4867a27da0c58cf32e36d3eed", "is_disabled": 0, "rental_uris": {"android": "https://dc.lft.to/lastmile_qr_scan", "ios": "https://dc.lft.to/lastmile_qr_scan"}, "fusion_lon": 0.0, "lat": 38.9213675, "bike_id": "d88eeaa4867a27da0c58cf32e36d3eed", "type": "electric_scooter", "is_reserved": 0, "lon": -77.01821533333333}, {"fusion_lat": 0.0, "name": "e31f104fed6d6a468c33caf2542cb8dd", "is_disabled": 0, "rental_uris": {"android": "https://dc.lft.to/lastmile_qr_scan", "ios": "https://dc.lft.to/lastmile_qr_scan"}, "fusion_lon": 0.0, "lat": 38.90668566666667, "bike_id": "e31f104fed6d6a468c33caf2542cb8dd", "type": "electric_scooter", "is_reserved": 0, "lon": -77.02690833333334}, {"fusion_lat": 0.0, "name": "0b52139c0b85e05fed9c48d27c873cd2", "is_disabled": 0, "rental_uris": {"android": "https://dc.lft.to/lastmile_qr_scan", "ios": "https://dc.lft.to/lastmile_qr_scan"}, "fusion_lon": 0.0, "lat": 38.91958016666667, "bike_id": "0b52139c0b85e05fed9c48d27c873cd2", "type": "electric_bike", "is_reserved": 0, "lon": -77.1011175}, {"fusion_lat": 0.0, "name": "66ea6d41f561152ebddf983ece5bc863", "is_disabled": 0, "rental_uris": {"android": "https://dc.lft.to/lastmile_qr_scan", "ios": "https://dc.lft.to/lastmile_qr_scan"}, "fusion_lon": 0.0, "lat": 38.887439, "bike_id": "66ea6d41f561152ebddf983ece5bc863", "type": "electric_scooter", "is_reserved": 0, "lon": -77.02577133333334}, {"fusion_lat": 0.0, "name": "fb113fe6f83cbd8c7bad51161f2fbe27", "is_disabled": 0, "rental_uris": {"android": "https://dc.lft.to/lastmile_qr_scan", "ios": "https://dc.lft.to/lastmile_qr_scan"}, "fusion_lon": 0.0, "lat": 38.9095315, "bike_id": "fb113fe6f83cbd8c7bad51161f2fbe27", "type": "electric_scooter", "is_reserved": 0, "lon": -77.027198}, {"fusion_lat": 0.0, "name": "4660d8199cfc7b9c5d3a340d32caf4c8", "is_disabled": 0, "rental_uris": {"android": "https://dc.lft.to/lastmile_qr_scan", "ios": "https://dc.lft.to/lastmile_qr_scan"}, "fusion_lon": 0.0, "lat": 38.8763595, "bike_id": "4660d8199cfc7b9c5d3a340d32caf4c8", "type": "electric_scooter", "is_reserved": 0, "lon": -77.00138133333333}, {"fusion_lat": 0.0, "name": "36f568de881bdf8465fd835aafedb11e", "is_disabled": 0, "rental_uris": {"android": "https://dc.lft.to/lastmile_qr_scan", "ios": "https://dc.lft.to/lastmile_qr_scan"}, "fusion_lon": 0.0, "lat": 38.8985655, "bike_id": "36f568de881bdf8465fd835aafedb11e", "type": "electric_scooter", "is_reserved": 0, "lon": -77.02690116666666}, {"fusion_lat": 0.0, "name": "378be068eef7d78109f2b2973f58659c", "is_disabled": 0, "rental_uris": {"android": "https://dc.lft.to/lastmile_qr_scan", "ios": "https://dc.lft.to/lastmile_qr_scan"}, "fusion_lon": 0.0, "lat": 38.9080265, "bike_id": "378be068eef7d78109f2b2973f58659c", "type": "electric_scooter", "is_reserved": 0, "lon": -77.043477}, {"fusion_lat": 0.0, "name": "077cbadfcc1289192bfe42096f9d5754", "is_disabled": 0, "rental_uris": {"android": "https://dc.lft.to/lastmile_qr_scan", "ios": "https://dc.lft.to/lastmile_qr_scan"}, "fusion_lon": 0.0, "lat": 38.908692, "bike_id": "077cbadfcc1289192bfe42096f9d5754", "type": "electric_scooter", "is_reserved": 0, "lon": -77.00921983333333}, {"fusion_lat": 0.0, "name": "84b11214e009b93dfc9117e0c01f80c6", "is_disabled": 0, "rental_uris": {"android": "https://dc.lft.to/lastmile_qr_scan", "ios": "https://dc.lft.to/lastmile_qr_scan"}, "fusion_lon": 0.0, "lat": 38.876597, "bike_id": "84b11214e009b93dfc9117e0c01f80c6", "type": "electric_scooter", "is_reserved": 0, "lon": -77.00909416666667}, {"fusion_lat": 0.0, "name": "8c5cc2ab886acb669dcd8047baf96245", "is_disabled": 0, "rental_uris": {"android": "https://dc.lft.to/lastmile_qr_scan", "ios": "https://dc.lft.to/lastmile_qr_scan"}, "fusion_lon": 0.0, "lat": 38.8874955, "bike_id": "8c5cc2ab886acb669dcd8047baf96245", "type": "electric_scooter", "is_reserved": 0, "lon": -77.03162383333333}, {"fusion_lat": 0.0, "name": "9af67dc23d944b67a4f4e61a42726053", "is_disabled": 0, "rental_uris": {"android": "https://dc.lft.to/lastmile_qr_scan", "ios": "https://dc.lft.to/lastmile_qr_scan"}, "fusion_lon": 0.0, "lat": 38.911857166666664, "bike_id": "9af67dc23d944b67a4f4e61a42726053", "type": "electric_scooter", "is_reserved": 0, "lon": -77.03824933333334}, {"fusion_lat": 0.0, "name": "c5fa35806ffe309638476017e0d197ac", "is_disabled": 0, "rental_uris": {"android": "https://dc.lft.to/lastmile_qr_scan", "ios": "https://dc.lft.to/lastmile_qr_scan"}, "fusion_lon": 0.0, "lat": 38.92789583333333, "bike_id": "c5fa35806ffe309638476017e0d197ac", "type": "electric_scooter", "is_reserved": 0, "lon": -77.0272185}, {"fusion_lat": 0.0, "name": "8a9d811573219b75cb696d660008d6bc", "is_disabled": 0, "rental_uris": {"android": "https://dc.lft.to/lastmile_qr_scan", "ios": "https://dc.lft.to/lastmile_qr_scan"}, "fusion_lon": 0.0, "lat": 38.92259266666667, "bike_id": "8a9d811573219b75cb696d660008d6bc", "type": "electric_scooter", "is_reserved": 0, "lon": -77.036727}, {"fusion_lat": 0.0, "name": "00905b2a107396e49ed19065fd040bc5", "is_disabled": 0, "rental_uris": {"android": "https://dc.lft.to/lastmile_qr_scan", "ios": "https://dc.lft.to/lastmile_qr_scan"}, "fusion_lon": 0.0, "lat": 38.92401533333334, "bike_id": "00905b2a107396e49ed19065fd040bc5", "type": "electric_scooter", "is_reserved": 0, "lon": -77.0525985}, {"fusion_lat": 0.0, "name": "3697ea047a7ee55529b65656e66b9280", "is_disabled": 0, "rental_uris": {"android": "https://dc.lft.to/lastmile_qr_scan", "ios": "https://dc.lft.to/lastmile_qr_scan"}, "fusion_lon": 0.0, "lat": 38.91328216666667, "bike_id": "3697ea047a7ee55529b65656e66b9280", "type": "electric_scooter", "is_reserved": 0, "lon": -77.04285333333333}, {"fusion_lat": 0.0, "name": "39fa021d5c1ee0f77b065ef115d787d3", "is_disabled": 0, "rental_uris": {"android": "https://dc.lft.to/lastmile_qr_scan", "ios": "https://dc.lft.to/lastmile_qr_scan"}, "fusion_lon": 0.0, "lat": 38.907812, "bike_id": "39fa021d5c1ee0f77b065ef115d787d3", "type": "electric_scooter", "is_reserved": 0, "lon": -77.018625}, {"fusion_lat": 0.0, "name": "08e90e9c579c48425e57a0c8de29cbae", "is_disabled": 0, "rental_uris": {"android": "https://dc.lft.to/lastmile_qr_scan", "ios": "https://dc.lft.to/lastmile_qr_scan"}, "fusion_lon": 0.0, "lat": 38.9238405, "bike_id": "08e90e9c579c48425e57a0c8de29cbae", "type": "electric_scooter", "is_reserved": 0, "lon": -77.036551}, {"fusion_lat": 0.0, "name": "74f09946637a91afa4957d7d4cb35252", "is_disabled": 0, "rental_uris": {"android": "https://dc.lft.to/lastmile_qr_scan", "ios": "https://dc.lft.to/lastmile_qr_scan"}, "fusion_lon": 0.0, "lat": 38.95881466666667, "bike_id": "74f09946637a91afa4957d7d4cb35252", "type": "electric_scooter", "is_reserved": 0, "lon": -77.01173016666667}, {"fusion_lat": 0.0, "name": "9764d94af13fbf09f7b4544cce92299e", "is_disabled": 0, "rental_uris": {"android": "https://dc.lft.to/lastmile_qr_scan", "ios": "https://dc.lft.to/lastmile_qr_scan"}, "fusion_lon": 0.0, "lat": 38.91703416666667, "bike_id": "9764d94af13fbf09f7b4544cce92299e", "type": "electric_scooter", "is_reserved": 0, "lon": -77.03044516666667}, {"fusion_lat": 0.0, "name": "f1cad4e9921c332ff1694861cd990e3b", "is_disabled": 0, "rental_uris": {"android": "https://dc.lft.to/lastmile_qr_scan", "ios": "https://dc.lft.to/lastmile_qr_scan"}, "fusion_lon": 0.0, "lat": 38.92213433333333, "bike_id": "f1cad4e9921c332ff1694861cd990e3b", "type": "electric_scooter", "is_reserved": 0, "lon": -77.01824533333334}, {"fusion_lat": 0.0, "name": "06d66afd7bae17bf0ded2df19f2380a3", "is_disabled": 0, "rental_uris": {"android": "https://dc.lft.to/lastmile_qr_scan", "ios": "https://dc.lft.to/lastmile_qr_scan"}, "fusion_lon": 0.0, "lat": 38.93748683333333, "bike_id": "06d66afd7bae17bf0ded2df19f2380a3", "type": "electric_scooter", "is_reserved": 0, "lon": -77.02528933333333}, {"fusion_lat": 0.0, "name": "cca01a30e597d42746b7eef39dca7a68", "is_disabled": 0, "rental_uris": {"android": "https://dc.lft.to/lastmile_qr_scan", "ios": "https://dc.lft.to/lastmile_qr_scan"}, "fusion_lon": 0.0, "lat": 38.903875666666664, "bike_id": "cca01a30e597d42746b7eef39dca7a68", "type": "electric_scooter", "is_reserved": 0, "lon": -77.06139066666667}, {"fusion_lat": 0.0, "name": "c379f0bb14ee37ac4d178ca87c77edd5", "is_disabled": 0, "rental_uris": {"android": "https://dc.lft.to/lastmile_qr_scan", "ios": "https://dc.lft.to/lastmile_qr_scan"}, "fusion_lon": 0.0, "lat": 38.90690433333333, "bike_id": "c379f0bb14ee37ac4d178ca87c77edd5", "type": "electric_scooter", "is_reserved": 0, "lon": -77.035959}, {"fusion_lat": 0.0, "name": "33e85221a7c6b80a8072987c084b86ff", "is_disabled": 0, "rental_uris": {"android": "https://dc.lft.to/lastmile_qr_scan", "ios": "https://dc.lft.to/lastmile_qr_scan"}, "fusion_lon": 0.0, "lat": 38.9006195, "bike_id": "33e85221a7c6b80a8072987c084b86ff", "type": "electric_scooter", "is_reserved": 0, "lon": -76.93391316666667}, {"fusion_lat": 0.0, "name": "eb5c81106e03fc4ab4cf1fe59fe2f588", "is_disabled": 0, "rental_uris": {"android": "https://dc.lft.to/lastmile_qr_scan", "ios": "https://dc.lft.to/lastmile_qr_scan"}, "fusion_lon": 0.0, "lat": 38.90200033333333, "bike_id": "eb5c81106e03fc4ab4cf1fe59fe2f588", "type": "electric_scooter", "is_reserved": 0, "lon": -77.022077}, {"fusion_lat": 0.0, "name": "c4e6018c98ae706371c92b2578841702", "is_disabled": 0, "rental_uris": {"android": "https://dc.lft.to/lastmile_qr_scan", "ios": "https://dc.lft.to/lastmile_qr_scan"}, "fusion_lon": 0.0, "lat": 38.89609216666667, "bike_id": "c4e6018c98ae706371c92b2578841702", "type": "electric_scooter", "is_reserved": 0, "lon": -77.04982016666666}, {"fusion_lat": 0.0, "name": "dc1568401bd2d9224ffd6646507e22c7", "is_disabled": 0, "rental_uris": {"android": "https://dc.lft.to/lastmile_qr_scan", "ios": "https://dc.lft.to/lastmile_qr_scan"}, "fusion_lon": 0.0, "lat": 38.962044666666664, "bike_id": "dc1568401bd2d9224ffd6646507e22c7", "type": "electric_scooter", "is_reserved": 0, "lon": -77.02229866666667}, {"fusion_lat": 0.0, "name": "1f7e4da05728be9c0f21ec31068466d1", "is_disabled": 0, "rental_uris": {"android": "https://dc.lft.to/lastmile_qr_scan", "ios": "https://dc.lft.to/lastmile_qr_scan"}, "fusion_lon": 0.0, "lat": 38.909548666666666, "bike_id": "1f7e4da05728be9c0f21ec31068466d1", "type": "electric_scooter", "is_reserved": 0, "lon": -77.02311183333333}, {"fusion_lat": 0.0, "name": "ab2f48dd8960761ba4f8272d9198ce43", "is_disabled": 0, "rental_uris": {"android": "https://dc.lft.to/lastmile_qr_scan", "ios": "https://dc.lft.to/lastmile_qr_scan"}, "fusion_lon": 0.0, "lat": 38.846334666666664, "bike_id": "ab2f48dd8960761ba4f8272d9198ce43", "type": "electric_scooter", "is_reserved": 0, "lon": -76.96918966666667}, {"fusion_lat": 0.0, "name": "4a8f2a95aa869a4f3bddb02cb21e9ce9", "is_disabled": 0, "rental_uris": {"android": "https://dc.lft.to/lastmile_qr_scan", "ios": "https://dc.lft.to/lastmile_qr_scan"}, "fusion_lon": 0.0, "lat": 38.94181283333333, "bike_id": "4a8f2a95aa869a4f3bddb02cb21e9ce9", "type": "electric_scooter", "is_reserved": 0, "lon": -77.02493266666667}, {"fusion_lat": 0.0, "name": "1a92e415705a3e9712ded79ce88237e7", "is_disabled": 0, "rental_uris": {"android": "https://dc.lft.to/lastmile_qr_scan", "ios": "https://dc.lft.to/lastmile_qr_scan"}, "fusion_lon": 0.0, "lat": 38.8956185, "bike_id": "1a92e415705a3e9712ded79ce88237e7", "type": "electric_bike", "is_reserved": 0, "lon": -77.1273875}, {"fusion_lat": 0.0, "name": "ebf80ae2a9af0e5a9c0b0a248c0e393b", "is_disabled": 0, "rental_uris": {"android": "https://dc.lft.to/lastmile_qr_scan", "ios": "https://dc.lft.to/lastmile_qr_scan"}, "fusion_lon": 0.0, "lat": 38.90082866666667, "bike_id": "ebf80ae2a9af0e5a9c0b0a248c0e393b", "type": "electric_scooter", "is_reserved": 0, "lon": -77.04799666666666}, {"fusion_lat": 0.0, "name": "a4ae28619190101fed4f71f4198705e1", "is_disabled": 0, "rental_uris": {"android": "https://dc.lft.to/lastmile_qr_scan", "ios": "https://dc.lft.to/lastmile_qr_scan"}, "fusion_lon": 0.0, "lat": 38.906885833333334, "bike_id": "a4ae28619190101fed4f71f4198705e1", "type": "electric_scooter", "is_reserved": 0, "lon": -77.01538166666667}, {"fusion_lat": 0.0, "name": "e58024e73cc700443f450deb49c90257", "is_disabled": 0, "rental_uris": {"android": "https://dc.lft.to/lastmile_qr_scan", "ios": "https://dc.lft.to/lastmile_qr_scan"}, "fusion_lon": 0.0, "lat": 38.901121333333336, "bike_id": "e58024e73cc700443f450deb49c90257", "type": "electric_scooter", "is_reserved": 0, "lon": -77.0335845}, {"fusion_lat": 0.0, "name": "eb9ce3ccbbcd99df83d7d4665b4c335b", "is_disabled": 0, "rental_uris": {"android": "https://dc.lft.to/lastmile_qr_scan", "ios": "https://dc.lft.to/lastmile_qr_scan"}, "fusion_lon": 0.0, "lat": 38.90512316666667, "bike_id": "eb9ce3ccbbcd99df83d7d4665b4c335b", "type": "electric_scooter", "is_reserved": 0, "lon": -77.05134333333334}, {"fusion_lat": 0.0, "name": "1fce7da4160715f54905e56eb0d7c864", "is_disabled": 0, "rental_uris": {"android": "https://dc.lft.to/lastmile_qr_scan", "ios": "https://dc.lft.to/lastmile_qr_scan"}, "fusion_lon": 0.0, "lat": 38.916162666666665, "bike_id": "1fce7da4160715f54905e56eb0d7c864", "type": "electric_scooter", "is_reserved": 0, "lon": -77.03158566666667}, {"fusion_lat": 0.0, "name": "df2f493cc1e349da27ae093f1b08d2ab", "is_disabled": 0, "rental_uris": {"android": "https://dc.lft.to/lastmile_qr_scan", "ios": "https://dc.lft.to/lastmile_qr_scan"}, "fusion_lon": 0.0, "lat": 38.933166166666666, "bike_id": "df2f493cc1e349da27ae093f1b08d2ab", "type": "electric_scooter", "is_reserved": 0, "lon": -77.02754083333333}, {"fusion_lat": 0.0, "name": "47fc2fefb9abbdd53cce41f7af34c4c9", "is_disabled": 0, "rental_uris": {"android": "https://dc.lft.to/lastmile_qr_scan", "ios": "https://dc.lft.to/lastmile_qr_scan"}, "fusion_lon": 0.0, "lat": 38.9019755, "bike_id": "47fc2fefb9abbdd53cce41f7af34c4c9", "type": "electric_scooter", "is_reserved": 0, "lon": -76.9786025}, {"fusion_lat": 0.0, "name": "366f77ae03f8d48a4c5e057c5993cd84", "is_disabled": 0, "rental_uris": {"android": "https://dc.lft.to/lastmile_qr_scan", "ios": "https://dc.lft.to/lastmile_qr_scan"}, "fusion_lon": 0.0, "lat": 38.89614816666667, "bike_id": "366f77ae03f8d48a4c5e057c5993cd84", "type": "electric_scooter", "is_reserved": 0, "lon": -77.00929683333334}, {"fusion_lat": 0.0, "name": "557decba92c24cd9f4b2c1b20357ceaa", "is_disabled": 0, "rental_uris": {"android": "https://dc.lft.to/lastmile_qr_scan", "ios": "https://dc.lft.to/lastmile_qr_scan"}, "fusion_lon": 0.0, "lat": 38.886342666666664, "bike_id": "557decba92c24cd9f4b2c1b20357ceaa", "type": "electric_scooter", "is_reserved": 0, "lon": -77.01938983333334}, {"fusion_lat": 0.0, "name": "64fcdcf3fd1c21d5dfda409f257e964f", "is_disabled": 0, "rental_uris": {"android": "https://dc.lft.to/lastmile_qr_scan", "ios": "https://dc.lft.to/lastmile_qr_scan"}, "fusion_lon": 0.0, "lat": 38.88610166666667, "bike_id": "64fcdcf3fd1c21d5dfda409f257e964f", "type": "electric_scooter", "is_reserved": 0, "lon": -77.012566}, {"fusion_lat": 0.0, "name": "9c1ed4c64bdcf582421d31f4f4504d31", "is_disabled": 0, "rental_uris": {"android": "https://dc.lft.to/lastmile_qr_scan", "ios": "https://dc.lft.to/lastmile_qr_scan"}, "fusion_lon": 0.0, "lat": 38.93497, "bike_id": "9c1ed4c64bdcf582421d31f4f4504d31", "type": "electric_scooter", "is_reserved": 0, "lon": -77.03618766666666}, {"fusion_lat": 0.0, "name": "ee55ed7c806124101a54135de550c57a", "is_disabled": 0, "rental_uris": {"android": "https://dc.lft.to/lastmile_qr_scan", "ios": "https://dc.lft.to/lastmile_qr_scan"}, "fusion_lon": 0.0, "lat": 38.892317, "bike_id": "ee55ed7c806124101a54135de550c57a", "type": "electric_scooter", "is_reserved": 0, "lon": -77.04654566666666}, {"fusion_lat": 0.0, "name": "bd5e13bdc25cbf3b8b1485aab237b069", "is_disabled": 0, "rental_uris": {"android": "https://dc.lft.to/lastmile_qr_scan", "ios": "https://dc.lft.to/lastmile_qr_scan"}, "fusion_lon": 0.0, "lat": 38.916589, "bike_id": "bd5e13bdc25cbf3b8b1485aab237b069", "type": "electric_scooter", "is_reserved": 0, "lon": -77.02813633333334}, {"fusion_lat": 0.0, "name": "9f8ee7bb869c47914f51e21388a87be8", "is_disabled": 0, "rental_uris": {"android": "https://dc.lft.to/lastmile_qr_scan", "ios": "https://dc.lft.to/lastmile_qr_scan"}, "fusion_lon": 0.0, "lat": 38.913259833333335, "bike_id": "9f8ee7bb869c47914f51e21388a87be8", "type": "electric_scooter", "is_reserved": 0, "lon": -77.0454105}, {"fusion_lat": 0.0, "name": "dedfe83f00006c0cb304584afe8cb28d", "is_disabled": 0, "rental_uris": {"android": "https://dc.lft.to/lastmile_qr_scan", "ios": "https://dc.lft.to/lastmile_qr_scan"}, "fusion_lon": 0.0, "lat": 38.91358116666667, "bike_id": "dedfe83f00006c0cb304584afe8cb28d", "type": "electric_scooter", "is_reserved": 0, "lon": -77.021688}, {"fusion_lat": 0.0, "name": "68a5b73130e7d818623c1c46a208fd32", "is_disabled": 0, "rental_uris": {"android": "https://dc.lft.to/lastmile_qr_scan", "ios": "https://dc.lft.to/lastmile_qr_scan"}, "fusion_lon": 0.0, "lat": 38.90235283333333, "bike_id": "68a5b73130e7d818623c1c46a208fd32", "type": "electric_scooter", "is_reserved": 0, "lon": -77.0534215}, {"fusion_lat": 0.0, "name": "b38e807ffc43a16b4ae9788b5704e919", "is_disabled": 0, "rental_uris": {"android": "https://dc.lft.to/lastmile_qr_scan", "ios": "https://dc.lft.to/lastmile_qr_scan"}, "fusion_lon": 0.0, "lat": 38.928596, "bike_id": "b38e807ffc43a16b4ae9788b5704e919", "type": "electric_scooter", "is_reserved": 0, "lon": -77.01369116666666}, {"fusion_lat": 0.0, "name": "4ea7b440b56e463d52aeff1557741c32", "is_disabled": 0, "rental_uris": {"android": "https://dc.lft.to/lastmile_qr_scan", "ios": "https://dc.lft.to/lastmile_qr_scan"}, "fusion_lon": 0.0, "lat": 38.91983916666667, "bike_id": "4ea7b440b56e463d52aeff1557741c32", "type": "electric_scooter", "is_reserved": 0, "lon": -77.0332565}, {"fusion_lat": 0.0, "name": "66d63252a2f029e4bcedb21f076bf8ba", "is_disabled": 0, "rental_uris": {"android": "https://dc.lft.to/lastmile_qr_scan", "ios": "https://dc.lft.to/lastmile_qr_scan"}, "fusion_lon": 0.0, "lat": 38.95876366666667, "bike_id": "66d63252a2f029e4bcedb21f076bf8ba", "type": "electric_bike", "is_reserved": 0, "lon": -76.970525}, {"fusion_lat": 0.0, "name": "2ee8514aa6a4a3c9b8435a79c10af87f", "is_disabled": 0, "rental_uris": {"android": "https://dc.lft.to/lastmile_qr_scan", "ios": "https://dc.lft.to/lastmile_qr_scan"}, "fusion_lon": 0.0, "lat": 38.899664, "bike_id": "2ee8514aa6a4a3c9b8435a79c10af87f", "type": "electric_scooter", "is_reserved": 0, "lon": -77.03346133333334}, {"fusion_lat": 0.0, "name": "1a524c53eb65a35d08c5229628f458d0", "is_disabled": 0, "rental_uris": {"android": "https://dc.lft.to/lastmile_qr_scan", "ios": "https://dc.lft.to/lastmile_qr_scan"}, "fusion_lon": 0.0, "lat": 38.9234215, "bike_id": "1a524c53eb65a35d08c5229628f458d0", "type": "electric_scooter", "is_reserved": 0, "lon": -77.03533066666667}, {"fusion_lat": 0.0, "name": "e98a6b8951d191e8d94c007cdf9e47db", "is_disabled": 0, "rental_uris": {"android": "https://dc.lft.to/lastmile_qr_scan", "ios": "https://dc.lft.to/lastmile_qr_scan"}, "fusion_lon": 0.0, "lat": 38.90629166666667, "bike_id": "e98a6b8951d191e8d94c007cdf9e47db", "type": "electric_scooter", "is_reserved": 0, "lon": -77.0295365}, {"fusion_lat": 0.0, "name": "f6ba09c2626b8b5c18d84c94581b9f6a", "is_disabled": 0, "rental_uris": {"android": "https://dc.lft.to/lastmile_qr_scan", "ios": "https://dc.lft.to/lastmile_qr_scan"}, "fusion_lon": 0.0, "lat": 38.956307, "bike_id": "f6ba09c2626b8b5c18d84c94581b9f6a", "type": "electric_scooter", "is_reserved": 0, "lon": -77.03306416666666}, {"fusion_lat": 0.0, "name": "c8ab1bcf395ee49d7bd9e400ffaf3421", "is_disabled": 0, "rental_uris": {"android": "https://dc.lft.to/lastmile_qr_scan", "ios": "https://dc.lft.to/lastmile_qr_scan"}, "fusion_lon": 0.0, "lat": 38.93607166666666, "bike_id": "c8ab1bcf395ee49d7bd9e400ffaf3421", "type": "electric_scooter", "is_reserved": 0, "lon": -77.0229785}, {"fusion_lat": 0.0, "name": "c1f88707d72b46ae783d1f1680017963", "is_disabled": 0, "rental_uris": {"android": "https://dc.lft.to/lastmile_qr_scan", "ios": "https://dc.lft.to/lastmile_qr_scan"}, "fusion_lon": 0.0, "lat": 38.920749, "bike_id": "c1f88707d72b46ae783d1f1680017963", "type": "electric_scooter", "is_reserved": 0, "lon": -77.02309616666666}, {"fusion_lat": 0.0, "name": "9c5eaabc5f49b111dcf006992971ace7", "is_disabled": 0, "rental_uris": {"android": "https://dc.lft.to/lastmile_qr_scan", "ios": "https://dc.lft.to/lastmile_qr_scan"}, "fusion_lon": 0.0, "lat": 38.899579, "bike_id": "9c5eaabc5f49b111dcf006992971ace7", "type": "electric_scooter", "is_reserved": 0, "lon": -77.0150725}, {"fusion_lat": 0.0, "name": "ae00a06d39a07de6c31f9b963eda06c7", "is_disabled": 0, "rental_uris": {"android": "https://dc.lft.to/lastmile_qr_scan", "ios": "https://dc.lft.to/lastmile_qr_scan"}, "fusion_lon": 0.0, "lat": 38.9078905, "bike_id": "ae00a06d39a07de6c31f9b963eda06c7", "type": "electric_scooter", "is_reserved": 0, "lon": -77.03848166666667}, {"fusion_lat": 0.0, "name": "8a4d7b2b74bc1c6ea31bcc785974db49", "is_disabled": 0, "rental_uris": {"android": "https://dc.lft.to/lastmile_qr_scan", "ios": "https://dc.lft.to/lastmile_qr_scan"}, "fusion_lon": 0.0, "lat": 38.94918883333333, "bike_id": "8a4d7b2b74bc1c6ea31bcc785974db49", "type": "electric_bike", "is_reserved": 0, "lon": -77.0080065}, {"fusion_lat": 0.0, "name": "5a2942b6111dfed5265ed54dc63a5a82", "is_disabled": 0, "rental_uris": {"android": "https://dc.lft.to/lastmile_qr_scan", "ios": "https://dc.lft.to/lastmile_qr_scan"}, "fusion_lon": 0.0, "lat": 38.930055, "bike_id": "5a2942b6111dfed5265ed54dc63a5a82", "type": "electric_scooter", "is_reserved": 0, "lon": -77.0208185}, {"fusion_lat": 0.0, "name": "21b384f36e27d63c044d3ee623a932ba", "is_disabled": 0, "rental_uris": {"android": "https://dc.lft.to/lastmile_qr_scan", "ios": "https://dc.lft.to/lastmile_qr_scan"}, "fusion_lon": 0.0, "lat": 38.91800533333333, "bike_id": "21b384f36e27d63c044d3ee623a932ba", "type": "electric_scooter", "is_reserved": 0, "lon": -77.02707233333334}, {"fusion_lat": 0.0, "name": "902fa2f246c994c4daa2fd57fc2bc7a9", "is_disabled": 0, "rental_uris": {"android": "https://dc.lft.to/lastmile_qr_scan", "ios": "https://dc.lft.to/lastmile_qr_scan"}, "fusion_lon": 0.0, "lat": 38.900201, "bike_id": "902fa2f246c994c4daa2fd57fc2bc7a9", "type": "electric_scooter", "is_reserved": 0, "lon": -76.99761883333333}, {"fusion_lat": 0.0, "name": "42e46d5eeb00ddb68af1efc79a8299b3", "is_disabled": 0, "rental_uris": {"android": "https://dc.lft.to/lastmile_qr_scan", "ios": "https://dc.lft.to/lastmile_qr_scan"}, "fusion_lon": 0.0, "lat": 38.924842, "bike_id": "42e46d5eeb00ddb68af1efc79a8299b3", "type": "electric_scooter", "is_reserved": 0, "lon": -77.02718133333333}, {"fusion_lat": 0.0, "name": "4cff0afdadbc6a70861f05ef42965de0", "is_disabled": 0, "rental_uris": {"android": "https://dc.lft.to/lastmile_qr_scan", "ios": "https://dc.lft.to/lastmile_qr_scan"}, "fusion_lon": 0.0, "lat": 38.909704833333336, "bike_id": "4cff0afdadbc6a70861f05ef42965de0", "type": "electric_scooter", "is_reserved": 0, "lon": -77.047273}, {"fusion_lat": 0.0, "name": "d8b1b9cfe71caedd326a786dbcc07b4f", "is_disabled": 0, "rental_uris": {"android": "https://dc.lft.to/lastmile_qr_scan", "ios": "https://dc.lft.to/lastmile_qr_scan"}, "fusion_lon": 0.0, "lat": 38.853588333333335, "bike_id": "d8b1b9cfe71caedd326a786dbcc07b4f", "type": "electric_bike", "is_reserved": 0, "lon": -77.11493966666667}, {"fusion_lat": 0.0, "name": "f5a6aae7bab207aebbdc954d2abf5672", "is_disabled": 0, "rental_uris": {"android": "https://dc.lft.to/lastmile_qr_scan", "ios": "https://dc.lft.to/lastmile_qr_scan"}, "fusion_lon": 0.0, "lat": 38.90736583333333, "bike_id": "f5a6aae7bab207aebbdc954d2abf5672", "type": "electric_scooter", "is_reserved": 0, "lon": -77.02608033333334}, {"fusion_lat": 0.0, "name": "5466925b0906a5ae894dc7d55103adca", "is_disabled": 0, "rental_uris": {"android": "https://dc.lft.to/lastmile_qr_scan", "ios": "https://dc.lft.to/lastmile_qr_scan"}, "fusion_lon": 0.0, "lat": 38.90003133333333, "bike_id": "5466925b0906a5ae894dc7d55103adca", "type": "electric_scooter", "is_reserved": 0, "lon": -76.998431}, {"fusion_lat": 0.0, "name": "b1221df0a5acac0c4edc76935486451e", "is_disabled": 0, "rental_uris": {"android": "https://dc.lft.to/lastmile_qr_scan", "ios": "https://dc.lft.to/lastmile_qr_scan"}, "fusion_lon": 0.0, "lat": 38.92756766666667, "bike_id": "b1221df0a5acac0c4edc76935486451e", "type": "electric_scooter", "is_reserved": 0, "lon": -77.03300866666666}, {"fusion_lat": 0.0, "name": "ae24f5f68094fd748d38405a98978e26", "is_disabled": 0, "rental_uris": {"android": "https://dc.lft.to/lastmile_qr_scan", "ios": "https://dc.lft.to/lastmile_qr_scan"}, "fusion_lon": 0.0, "lat": 39.034284666666665, "bike_id": "ae24f5f68094fd748d38405a98978e26", "type": "electric_bike", "is_reserved": 0, "lon": -77.0429565}, {"fusion_lat": 0.0, "name": "ebfabf49494ec85ea6c2a33c17c51063", "is_disabled": 0, "rental_uris": {"android": "https://dc.lft.to/lastmile_qr_scan", "ios": "https://dc.lft.to/lastmile_qr_scan"}, "fusion_lon": 0.0, "lat": 38.938615666666664, "bike_id": "ebfabf49494ec85ea6c2a33c17c51063", "type": "electric_scooter", "is_reserved": 0, "lon": -77.03206716666666}, {"fusion_lat": 0.0, "name": "3cf0a9d98814b3d86a20d69d27ca60bc", "is_disabled": 0, "rental_uris": {"android": "https://dc.lft.to/lastmile_qr_scan", "ios": "https://dc.lft.to/lastmile_qr_scan"}, "fusion_lon": 0.0, "lat": 38.900445833333336, "bike_id": "3cf0a9d98814b3d86a20d69d27ca60bc", "type": "electric_scooter", "is_reserved": 0, "lon": -77.0447645}, {"fusion_lat": 0.0, "name": "e1f59b9f0ba0ba7a30d536615e315f65", "is_disabled": 0, "rental_uris": {"android": "https://dc.lft.to/lastmile_qr_scan", "ios": "https://dc.lft.to/lastmile_qr_scan"}, "fusion_lon": 0.0, "lat": 38.91561933333333, "bike_id": "e1f59b9f0ba0ba7a30d536615e315f65", "type": "electric_scooter", "is_reserved": 0, "lon": -77.031486}, {"fusion_lat": 0.0, "name": "af43a38e272673f52d7b648eca784660", "is_disabled": 0, "rental_uris": {"android": "https://dc.lft.to/lastmile_qr_scan", "ios": "https://dc.lft.to/lastmile_qr_scan"}, "fusion_lon": 0.0, "lat": 38.878306, "bike_id": "af43a38e272673f52d7b648eca784660", "type": "electric_scooter", "is_reserved": 0, "lon": -76.99020116666667}, {"fusion_lat": 0.0, "name": "7848281b6187438d117ef0f3cc0f9a8f", "is_disabled": 0, "rental_uris": {"android": "https://dc.lft.to/lastmile_qr_scan", "ios": "https://dc.lft.to/lastmile_qr_scan"}, "fusion_lon": 0.0, "lat": 38.89473133333333, "bike_id": "7848281b6187438d117ef0f3cc0f9a8f", "type": "electric_scooter", "is_reserved": 0, "lon": -77.02191883333333}, {"fusion_lat": 0.0, "name": "e9aa343eaec561c8fa9cbf9cfbf74683", "is_disabled": 0, "rental_uris": {"android": "https://dc.lft.to/lastmile_qr_scan", "ios": "https://dc.lft.to/lastmile_qr_scan"}, "fusion_lon": 0.0, "lat": 39.0077755, "bike_id": "e9aa343eaec561c8fa9cbf9cfbf74683", "type": "electric_bike", "is_reserved": 0, "lon": -76.88978716666666}, {"fusion_lat": 0.0, "name": "6de01df1a3bc9a04800b56f6a96c4401", "is_disabled": 0, "rental_uris": {"android": "https://dc.lft.to/lastmile_qr_scan", "ios": "https://dc.lft.to/lastmile_qr_scan"}, "fusion_lon": 0.0, "lat": 38.923603166666666, "bike_id": "6de01df1a3bc9a04800b56f6a96c4401", "type": "electric_scooter", "is_reserved": 0, "lon": -77.04252966666667}, {"fusion_lat": 0.0, "name": "aefa8a389f4487fb998380a6ed7b5316", "is_disabled": 0, "rental_uris": {"android": "https://dc.lft.to/lastmile_qr_scan", "ios": "https://dc.lft.to/lastmile_qr_scan"}, "fusion_lon": 0.0, "lat": 38.92056316666667, "bike_id": "aefa8a389f4487fb998380a6ed7b5316", "type": "electric_scooter", "is_reserved": 0, "lon": -77.041914}, {"fusion_lat": 0.0, "name": "3b4ef22df8bf28264ef896d8894a47f3", "is_disabled": 0, "rental_uris": {"android": "https://dc.lft.to/lastmile_qr_scan", "ios": "https://dc.lft.to/lastmile_qr_scan"}, "fusion_lon": 0.0, "lat": 38.9184065, "bike_id": "3b4ef22df8bf28264ef896d8894a47f3", "type": "electric_scooter", "is_reserved": 0, "lon": -77.04471383333333}, {"fusion_lat": 0.0, "name": "7a6d25ab782f6607bd28946c0229de4b", "is_disabled": 0, "rental_uris": {"android": "https://dc.lft.to/lastmile_qr_scan", "ios": "https://dc.lft.to/lastmile_qr_scan"}, "fusion_lon": 0.0, "lat": 38.924582666666666, "bike_id": "7a6d25ab782f6607bd28946c0229de4b", "type": "electric_scooter", "is_reserved": 0, "lon": -76.99332533333333}, {"fusion_lat": 0.0, "name": "26c7c57d4763f7d6364b7df788e376eb", "is_disabled": 0, "rental_uris": {"android": "https://dc.lft.to/lastmile_qr_scan", "ios": "https://dc.lft.to/lastmile_qr_scan"}, "fusion_lon": 0.0, "lat": 38.9095525, "bike_id": "26c7c57d4763f7d6364b7df788e376eb", "type": "electric_scooter", "is_reserved": 0, "lon": -77.04867783333333}, {"fusion_lat": 0.0, "name": "1ab1c112b4a8ba5bae3f37691c2cc2ea", "is_disabled": 0, "rental_uris": {"android": "https://dc.lft.to/lastmile_qr_scan", "ios": "https://dc.lft.to/lastmile_qr_scan"}, "fusion_lon": 0.0, "lat": 38.9355885, "bike_id": "1ab1c112b4a8ba5bae3f37691c2cc2ea", "type": "electric_bike", "is_reserved": 0, "lon": -77.03706566666666}, {"fusion_lat": 0.0, "name": "cf40cbea1a48757d563d3d5970f39be1", "is_disabled": 0, "rental_uris": {"android": "https://dc.lft.to/lastmile_qr_scan", "ios": "https://dc.lft.to/lastmile_qr_scan"}, "fusion_lon": 0.0, "lat": 38.90893533333333, "bike_id": "cf40cbea1a48757d563d3d5970f39be1", "type": "electric_bike", "is_reserved": 0, "lon": -77.0322525}, {"fusion_lat": 0.0, "name": "9987bd1ba14d0ca386fbc665e5449907", "is_disabled": 0, "rental_uris": {"android": "https://dc.lft.to/lastmile_qr_scan", "ios": "https://dc.lft.to/lastmile_qr_scan"}, "fusion_lon": 0.0, "lat": 38.92782566666666, "bike_id": "9987bd1ba14d0ca386fbc665e5449907", "type": "electric_scooter", "is_reserved": 0, "lon": -76.9796665}, {"fusion_lat": 0.0, "name": "cdb0d5e166c7cbdc69cca97309a9f346", "is_disabled": 0, "rental_uris": {"android": "https://dc.lft.to/lastmile_qr_scan", "ios": "https://dc.lft.to/lastmile_qr_scan"}, "fusion_lon": 0.0, "lat": 38.91025833333333, "bike_id": "cdb0d5e166c7cbdc69cca97309a9f346", "type": "electric_scooter", "is_reserved": 0, "lon": -77.00760066666666}, {"fusion_lat": 0.0, "name": "174a2d8a5c56934b32b9f782e235eaf8", "is_disabled": 0, "rental_uris": {"android": "https://dc.lft.to/lastmile_qr_scan", "ios": "https://dc.lft.to/lastmile_qr_scan"}, "fusion_lon": 0.0, "lat": 38.920684, "bike_id": "174a2d8a5c56934b32b9f782e235eaf8", "type": "electric_scooter", "is_reserved": 0, "lon": -76.998695}, {"fusion_lat": 0.0, "name": "0e1167ec39eb3c4bdce7d57e8c5792d3", "is_disabled": 0, "rental_uris": {"android": "https://dc.lft.to/lastmile_qr_scan", "ios": "https://dc.lft.to/lastmile_qr_scan"}, "fusion_lon": 0.0, "lat": 38.90090583333333, "bike_id": "0e1167ec39eb3c4bdce7d57e8c5792d3", "type": "electric_scooter", "is_reserved": 0, "lon": -77.01898383333334}, {"fusion_lat": 0.0, "name": "bf91223a1c1813dc6471195e324b5795", "is_disabled": 0, "rental_uris": {"android": "https://dc.lft.to/lastmile_qr_scan", "ios": "https://dc.lft.to/lastmile_qr_scan"}, "fusion_lon": 0.0, "lat": 38.903378000000004, "bike_id": "bf91223a1c1813dc6471195e324b5795", "type": "electric_scooter", "is_reserved": 0, "lon": -77.046515}, {"fusion_lat": 0.0, "name": "69b06b12f4c6d42c1a7ac5cd852380c8", "is_disabled": 0, "rental_uris": {"android": "https://dc.lft.to/lastmile_qr_scan", "ios": "https://dc.lft.to/lastmile_qr_scan"}, "fusion_lon": 0.0, "lat": 38.886218666666664, "bike_id": "69b06b12f4c6d42c1a7ac5cd852380c8", "type": "electric_scooter", "is_reserved": 0, "lon": -77.0198455}, {"fusion_lat": 0.0, "name": "0a1d1054b2a138798f101b924ae082ad", "is_disabled": 0, "rental_uris": {"android": "https://dc.lft.to/lastmile_qr_scan", "ios": "https://dc.lft.to/lastmile_qr_scan"}, "fusion_lon": 0.0, "lat": 38.920813333333335, "bike_id": "0a1d1054b2a138798f101b924ae082ad", "type": "electric_scooter", "is_reserved": 0, "lon": -77.02407516666666}, {"fusion_lat": 0.0, "name": "dda86487534d0067a96e6eb0a29bccac", "is_disabled": 0, "rental_uris": {"android": "https://dc.lft.to/lastmile_qr_scan", "ios": "https://dc.lft.to/lastmile_qr_scan"}, "fusion_lon": 0.0, "lat": 38.898711, "bike_id": "dda86487534d0067a96e6eb0a29bccac", "type": "electric_scooter", "is_reserved": 0, "lon": -76.9463375}, {"fusion_lat": 0.0, "name": "5ac21b30eb4fab3f92493fab6ad2a819", "is_disabled": 0, "rental_uris": {"android": "https://dc.lft.to/lastmile_qr_scan", "ios": "https://dc.lft.to/lastmile_qr_scan"}, "fusion_lon": 0.0, "lat": 38.91264983333333, "bike_id": "5ac21b30eb4fab3f92493fab6ad2a819", "type": "electric_scooter", "is_reserved": 0, "lon": -77.0225835}, {"fusion_lat": 0.0, "name": "a5f57d901677a5871ca19e3bedf18351", "is_disabled": 0, "rental_uris": {"android": "https://dc.lft.to/lastmile_qr_scan", "ios": "https://dc.lft.to/lastmile_qr_scan"}, "fusion_lon": 0.0, "lat": 38.9490925, "bike_id": "a5f57d901677a5871ca19e3bedf18351", "type": "electric_bike", "is_reserved": 0, "lon": -77.03813416666667}, {"fusion_lat": 0.0, "name": "69b492e82bb51b6d6fa47876509d40e3", "is_disabled": 0, "rental_uris": {"android": "https://dc.lft.to/lastmile_qr_scan", "ios": "https://dc.lft.to/lastmile_qr_scan"}, "fusion_lon": 0.0, "lat": 38.95278616666667, "bike_id": "69b492e82bb51b6d6fa47876509d40e3", "type": "electric_bike", "is_reserved": 0, "lon": -77.06879516666666}, {"fusion_lat": 0.0, "name": "6df5c46a648d265f2eea0aed3d227100", "is_disabled": 0, "rental_uris": {"android": "https://dc.lft.to/lastmile_qr_scan", "ios": "https://dc.lft.to/lastmile_qr_scan"}, "fusion_lon": 0.0, "lat": 38.906440833333335, "bike_id": "6df5c46a648d265f2eea0aed3d227100", "type": "electric_scooter", "is_reserved": 0, "lon": -77.042848}, {"fusion_lat": 0.0, "name": "f5822a6efede325a62fc35292af2b5af", "is_disabled": 0, "rental_uris": {"android": "https://dc.lft.to/lastmile_qr_scan", "ios": "https://dc.lft.to/lastmile_qr_scan"}, "fusion_lon": 0.0, "lat": 38.89885616666667, "bike_id": "f5822a6efede325a62fc35292af2b5af", "type": "electric_scooter", "is_reserved": 0, "lon": -77.0150095}, {"fusion_lat": 0.0, "name": "99bcf21472c878cac96736e60356dfc9", "is_disabled": 0, "rental_uris": {"android": "https://dc.lft.to/lastmile_qr_scan", "ios": "https://dc.lft.to/lastmile_qr_scan"}, "fusion_lon": 0.0, "lat": 38.93870716666667, "bike_id": "99bcf21472c878cac96736e60356dfc9", "type": "electric_scooter", "is_reserved": 0, "lon": -77.02471133333333}, {"fusion_lat": 0.0, "name": "d487132a7faf333295a046bd9df9de19", "is_disabled": 0, "rental_uris": {"android": "https://dc.lft.to/lastmile_qr_scan", "ios": "https://dc.lft.to/lastmile_qr_scan"}, "fusion_lon": 0.0, "lat": 38.897986333333336, "bike_id": "d487132a7faf333295a046bd9df9de19", "type": "electric_scooter", "is_reserved": 0, "lon": -77.0119445}, {"fusion_lat": 0.0, "name": "0ae4f963090f78e56d8515cdbe72b83e", "is_disabled": 0, "rental_uris": {"android": "https://dc.lft.to/lastmile_qr_scan", "ios": "https://dc.lft.to/lastmile_qr_scan"}, "fusion_lon": 0.0, "lat": 38.92537166666666, "bike_id": "0ae4f963090f78e56d8515cdbe72b83e", "type": "electric_scooter", "is_reserved": 0, "lon": -77.03838166666667}, {"fusion_lat": 0.0, "name": "00379bba6c4bf8b21e7e6d57c7be067c", "is_disabled": 0, "rental_uris": {"android": "https://dc.lft.to/lastmile_qr_scan", "ios": "https://dc.lft.to/lastmile_qr_scan"}, "fusion_lon": 0.0, "lat": 38.95279416666666, "bike_id": "00379bba6c4bf8b21e7e6d57c7be067c", "type": "electric_scooter", "is_reserved": 0, "lon": -77.0687145}, {"fusion_lat": 0.0, "name": "305a38ef56400cf0bba9b46238dd2eb7", "is_disabled": 0, "rental_uris": {"android": "https://dc.lft.to/lastmile_qr_scan", "ios": "https://dc.lft.to/lastmile_qr_scan"}, "fusion_lon": 0.0, "lat": 38.90088166666666, "bike_id": "305a38ef56400cf0bba9b46238dd2eb7", "type": "electric_scooter", "is_reserved": 0, "lon": -76.9833705}, {"fusion_lat": 0.0, "name": "ffffd5132386f9968de9f407dd7733f9", "is_disabled": 0, "rental_uris": {"android": "https://dc.lft.to/lastmile_qr_scan", "ios": "https://dc.lft.to/lastmile_qr_scan"}, "fusion_lon": 0.0, "lat": 38.910382, "bike_id": "ffffd5132386f9968de9f407dd7733f9", "type": "electric_scooter", "is_reserved": 0, "lon": -77.00835616666667}, {"fusion_lat": 0.0, "name": "59817c23c5a8ec070b679bc6345b53f9", "is_disabled": 0, "rental_uris": {"android": "https://dc.lft.to/lastmile_qr_scan", "ios": "https://dc.lft.to/lastmile_qr_scan"}, "fusion_lon": 0.0, "lat": 38.928948166666665, "bike_id": "59817c23c5a8ec070b679bc6345b53f9", "type": "electric_bike", "is_reserved": 0, "lon": -77.2317995}, {"fusion_lat": 0.0, "name": "d93c214e8d1475e83f5cf60e221bacfe", "is_disabled": 0, "rental_uris": {"android": "https://dc.lft.to/lastmile_qr_scan", "ios": "https://dc.lft.to/lastmile_qr_scan"}, "fusion_lon": 0.0, "lat": 38.915719333333335, "bike_id": "d93c214e8d1475e83f5cf60e221bacfe", "type": "electric_scooter", "is_reserved": 0, "lon": -77.03860483333334}, {"fusion_lat": 0.0, "name": "9d04e44556c99ccfb99cd094bfde22d8", "is_disabled": 0, "rental_uris": {"android": "https://dc.lft.to/lastmile_qr_scan", "ios": "https://dc.lft.to/lastmile_qr_scan"}, "fusion_lon": 0.0, "lat": 38.92130183333333, "bike_id": "9d04e44556c99ccfb99cd094bfde22d8", "type": "electric_scooter", "is_reserved": 0, "lon": -77.045825}, {"fusion_lat": 0.0, "name": "66db7085b555272b8bd469a85cbae10a", "is_disabled": 0, "rental_uris": {"android": "https://dc.lft.to/lastmile_qr_scan", "ios": "https://dc.lft.to/lastmile_qr_scan"}, "fusion_lon": 0.0, "lat": 38.888467, "bike_id": "66db7085b555272b8bd469a85cbae10a", "type": "electric_scooter", "is_reserved": 0, "lon": -76.9267955}, {"fusion_lat": 0.0, "name": "2c096254a051640a7606543065a772ba", "is_disabled": 0, "rental_uris": {"android": "https://dc.lft.to/lastmile_qr_scan", "ios": "https://dc.lft.to/lastmile_qr_scan"}, "fusion_lon": 0.0, "lat": 38.91327183333333, "bike_id": "2c096254a051640a7606543065a772ba", "type": "electric_scooter", "is_reserved": 0, "lon": -77.021349}, {"fusion_lat": 0.0, "name": "9ba24cb68bb3c560545a4a512c6521cb", "is_disabled": 0, "rental_uris": {"android": "https://dc.lft.to/lastmile_qr_scan", "ios": "https://dc.lft.to/lastmile_qr_scan"}, "fusion_lon": 0.0, "lat": 38.91121583333333, "bike_id": "9ba24cb68bb3c560545a4a512c6521cb", "type": "electric_scooter", "is_reserved": 0, "lon": -77.02196983333333}, {"fusion_lat": 0.0, "name": "52feb54bfbef044c9a73e9e8ec6c7318", "is_disabled": 0, "rental_uris": {"android": "https://dc.lft.to/lastmile_qr_scan", "ios": "https://dc.lft.to/lastmile_qr_scan"}, "fusion_lon": 0.0, "lat": 38.89730083333333, "bike_id": "52feb54bfbef044c9a73e9e8ec6c7318", "type": "electric_scooter", "is_reserved": 0, "lon": -77.02254433333333}, {"fusion_lat": 0.0, "name": "392aa9fa0dcc5cc511a0d1ff2aaba315", "is_disabled": 0, "rental_uris": {"android": "https://dc.lft.to/lastmile_qr_scan", "ios": "https://dc.lft.to/lastmile_qr_scan"}, "fusion_lon": 0.0, "lat": 38.905206666666665, "bike_id": "392aa9fa0dcc5cc511a0d1ff2aaba315", "type": "electric_scooter", "is_reserved": 0, "lon": -77.0677685}, {"fusion_lat": 0.0, "name": "ebc6bcd20c06e7dc4059244b1da0c5af", "is_disabled": 0, "rental_uris": {"android": "https://dc.lft.to/lastmile_qr_scan", "ios": "https://dc.lft.to/lastmile_qr_scan"}, "fusion_lon": 0.0, "lat": 38.9111615, "bike_id": "ebc6bcd20c06e7dc4059244b1da0c5af", "type": "electric_scooter", "is_reserved": 0, "lon": -76.99768916666666}, {"fusion_lat": 0.0, "name": "951619f8227b7d0b4cbe2dca2066d204", "is_disabled": 0, "rental_uris": {"android": "https://dc.lft.to/lastmile_qr_scan", "ios": "https://dc.lft.to/lastmile_qr_scan"}, "fusion_lon": 0.0, "lat": 38.92283466666667, "bike_id": "951619f8227b7d0b4cbe2dca2066d204", "type": "electric_scooter", "is_reserved": 0, "lon": -77.0366505}, {"fusion_lat": 0.0, "name": "06a71b98a4f1a7e89a65eb62e6aa510d", "is_disabled": 0, "rental_uris": {"android": "https://dc.lft.to/lastmile_qr_scan", "ios": "https://dc.lft.to/lastmile_qr_scan"}, "fusion_lon": 0.0, "lat": 38.887314, "bike_id": "06a71b98a4f1a7e89a65eb62e6aa510d", "type": "electric_scooter", "is_reserved": 0, "lon": -77.017452}, {"fusion_lat": 0.0, "name": "abfc978c5ccfd12a04b45b23e43b9b50", "is_disabled": 0, "rental_uris": {"android": "https://dc.lft.to/lastmile_qr_scan", "ios": "https://dc.lft.to/lastmile_qr_scan"}, "fusion_lon": 0.0, "lat": 38.9159405, "bike_id": "abfc978c5ccfd12a04b45b23e43b9b50", "type": "electric_scooter", "is_reserved": 0, "lon": -77.01114633333333}, {"fusion_lat": 0.0, "name": "2893bdb18a547d618bdcc2739d926dee", "is_disabled": 0, "rental_uris": {"android": "https://dc.lft.to/lastmile_qr_scan", "ios": "https://dc.lft.to/lastmile_qr_scan"}, "fusion_lon": 0.0, "lat": 38.88489933333334, "bike_id": "2893bdb18a547d618bdcc2739d926dee", "type": "electric_scooter", "is_reserved": 0, "lon": -77.01083383333334}, {"fusion_lat": 0.0, "name": "fcb8b865f632991d1a137c331849200a", "is_disabled": 0, "rental_uris": {"android": "https://dc.lft.to/lastmile_qr_scan", "ios": "https://dc.lft.to/lastmile_qr_scan"}, "fusion_lon": 0.0, "lat": 38.89977866666667, "bike_id": "fcb8b865f632991d1a137c331849200a", "type": "electric_scooter", "is_reserved": 0, "lon": -77.03339416666667}, {"fusion_lat": 0.0, "name": "e71fbfa597fdbd1cd3f0b812c9d46ab5", "is_disabled": 0, "rental_uris": {"android": "https://dc.lft.to/lastmile_qr_scan", "ios": "https://dc.lft.to/lastmile_qr_scan"}, "fusion_lon": 0.0, "lat": 38.907161, "bike_id": "e71fbfa597fdbd1cd3f0b812c9d46ab5", "type": "electric_scooter", "is_reserved": 0, "lon": -77.04755116666666}, {"fusion_lat": 0.0, "name": "2faf87995a24d3afe99bb449a6a14538", "is_disabled": 0, "rental_uris": {"android": "https://dc.lft.to/lastmile_qr_scan", "ios": "https://dc.lft.to/lastmile_qr_scan"}, "fusion_lon": 0.0, "lat": 38.8998525, "bike_id": "2faf87995a24d3afe99bb449a6a14538", "type": "electric_scooter", "is_reserved": 0, "lon": -77.0112895}, {"fusion_lat": 0.0, "name": "fed9ba3d8113a8eb62c9039ac73acf1e", "is_disabled": 0, "rental_uris": {"android": "https://dc.lft.to/lastmile_qr_scan", "ios": "https://dc.lft.to/lastmile_qr_scan"}, "fusion_lon": 0.0, "lat": 38.903427, "bike_id": "fed9ba3d8113a8eb62c9039ac73acf1e", "type": "electric_scooter", "is_reserved": 0, "lon": -76.933703}, {"fusion_lat": 0.0, "name": "925001f772bf7a178d8f43b557aabb96", "is_disabled": 0, "rental_uris": {"android": "https://dc.lft.to/lastmile_qr_scan", "ios": "https://dc.lft.to/lastmile_qr_scan"}, "fusion_lon": 0.0, "lat": 38.88302183333333, "bike_id": "925001f772bf7a178d8f43b557aabb96", "type": "electric_scooter", "is_reserved": 0, "lon": -76.94860816666667}, {"fusion_lat": 0.0, "name": "96eba6835b21522e6a9e5c83da5516a4", "is_disabled": 0, "rental_uris": {"android": "https://dc.lft.to/lastmile_qr_scan", "ios": "https://dc.lft.to/lastmile_qr_scan"}, "fusion_lon": 0.0, "lat": 38.92865233333333, "bike_id": "96eba6835b21522e6a9e5c83da5516a4", "type": "electric_scooter", "is_reserved": 0, "lon": -77.03407516666667}, {"fusion_lat": 0.0, "name": "ea65af7a05cc59cc26a8e8657074dfac", "is_disabled": 0, "rental_uris": {"android": "https://dc.lft.to/lastmile_qr_scan", "ios": "https://dc.lft.to/lastmile_qr_scan"}, "fusion_lon": 0.0, "lat": 38.81915383333333, "bike_id": "ea65af7a05cc59cc26a8e8657074dfac", "type": "electric_bike", "is_reserved": 0, "lon": -77.04802866666667}, {"fusion_lat": 0.0, "name": "0568a242f0e4514d6ef62dfea6f45166", "is_disabled": 0, "rental_uris": {"android": "https://dc.lft.to/lastmile_qr_scan", "ios": "https://dc.lft.to/lastmile_qr_scan"}, "fusion_lon": 0.0, "lat": 38.925339666666666, "bike_id": "0568a242f0e4514d6ef62dfea6f45166", "type": "electric_scooter", "is_reserved": 0, "lon": -77.00750666666667}, {"fusion_lat": 0.0, "name": "e41f30902f9137f09315937277282dbd", "is_disabled": 0, "rental_uris": {"android": "https://dc.lft.to/lastmile_qr_scan", "ios": "https://dc.lft.to/lastmile_qr_scan"}, "fusion_lon": 0.0, "lat": 38.892463166666666, "bike_id": "e41f30902f9137f09315937277282dbd", "type": "electric_scooter", "is_reserved": 0, "lon": -77.03350766666667}, {"fusion_lat": 0.0, "name": "9b91b395be41ea40abf895b02fea3a83", "is_disabled": 0, "rental_uris": {"android": "https://dc.lft.to/lastmile_qr_scan", "ios": "https://dc.lft.to/lastmile_qr_scan"}, "fusion_lon": 0.0, "lat": 38.92680383333333, "bike_id": "9b91b395be41ea40abf895b02fea3a83", "type": "electric_scooter", "is_reserved": 0, "lon": -77.03086}, {"fusion_lat": 0.0, "name": "4661249494302f61838da63d7d4e1e00", "is_disabled": 0, "rental_uris": {"android": "https://dc.lft.to/lastmile_qr_scan", "ios": "https://dc.lft.to/lastmile_qr_scan"}, "fusion_lon": 0.0, "lat": 38.92474, "bike_id": "4661249494302f61838da63d7d4e1e00", "type": "electric_scooter", "is_reserved": 0, "lon": -77.03915733333334}, {"fusion_lat": 0.0, "name": "1ab4fd62bdf525d8f8f8e5b6c9a140f6", "is_disabled": 0, "rental_uris": {"android": "https://dc.lft.to/lastmile_qr_scan", "ios": "https://dc.lft.to/lastmile_qr_scan"}, "fusion_lon": 0.0, "lat": 38.90940583333333, "bike_id": "1ab4fd62bdf525d8f8f8e5b6c9a140f6", "type": "electric_scooter", "is_reserved": 0, "lon": -77.02186116666667}, {"fusion_lat": 0.0, "name": "9a06b25333784d3926562b9a93052031", "is_disabled": 0, "rental_uris": {"android": "https://dc.lft.to/lastmile_qr_scan", "ios": "https://dc.lft.to/lastmile_qr_scan"}, "fusion_lon": 0.0, "lat": 38.90710283333333, "bike_id": "9a06b25333784d3926562b9a93052031", "type": "electric_scooter", "is_reserved": 0, "lon": -77.051362}, {"fusion_lat": 0.0, "name": "320b6de781ffbc922eb474700d00280f", "is_disabled": 0, "rental_uris": {"android": "https://dc.lft.to/lastmile_qr_scan", "ios": "https://dc.lft.to/lastmile_qr_scan"}, "fusion_lon": 0.0, "lat": 38.9231195, "bike_id": "320b6de781ffbc922eb474700d00280f", "type": "electric_scooter", "is_reserved": 0, "lon": -77.03914266666666}, {"fusion_lat": 0.0, "name": "48cebb84db4a4bb0fd76c9a4a81e1d3c", "is_disabled": 0, "rental_uris": {"android": "https://dc.lft.to/lastmile_qr_scan", "ios": "https://dc.lft.to/lastmile_qr_scan"}, "fusion_lon": 0.0, "lat": 38.9184455, "bike_id": "48cebb84db4a4bb0fd76c9a4a81e1d3c", "type": "electric_scooter", "is_reserved": 0, "lon": -77.03209283333334}, {"fusion_lat": 0.0, "name": "1ce63170a9b2def79aeb5f88332a1a76", "is_disabled": 0, "rental_uris": {"android": "https://dc.lft.to/lastmile_qr_scan", "ios": "https://dc.lft.to/lastmile_qr_scan"}, "fusion_lon": 0.0, "lat": 38.900306, "bike_id": "1ce63170a9b2def79aeb5f88332a1a76", "type": "electric_scooter", "is_reserved": 0, "lon": -77.002128}, {"fusion_lat": 0.0, "name": "4a5f9cdec8f1f5c6e934a7527ef8f6cd", "is_disabled": 0, "rental_uris": {"android": "https://dc.lft.to/lastmile_qr_scan", "ios": "https://dc.lft.to/lastmile_qr_scan"}, "fusion_lon": 0.0, "lat": 38.88106766666667, "bike_id": "4a5f9cdec8f1f5c6e934a7527ef8f6cd", "type": "electric_bike", "is_reserved": 0, "lon": -77.01672533333333}, {"fusion_lat": 0.0, "name": "63127fd36be3261871bf39b05bc48447", "is_disabled": 0, "rental_uris": {"android": "https://dc.lft.to/lastmile_qr_scan", "ios": "https://dc.lft.to/lastmile_qr_scan"}, "fusion_lon": 0.0, "lat": 38.89220616666667, "bike_id": "63127fd36be3261871bf39b05bc48447", "type": "electric_scooter", "is_reserved": 0, "lon": -77.03218216666667}, {"fusion_lat": 0.0, "name": "a2564a30376547288e81c3e114c79476", "is_disabled": 0, "rental_uris": {"android": "https://dc.lft.to/lastmile_qr_scan", "ios": "https://dc.lft.to/lastmile_qr_scan"}, "fusion_lon": 0.0, "lat": 38.91606083333333, "bike_id": "a2564a30376547288e81c3e114c79476", "type": "electric_scooter", "is_reserved": 0, "lon": -77.04602566666667}, {"fusion_lat": 0.0, "name": "24391ec61520f8a4cb0aadf3f42a2177", "is_disabled": 0, "rental_uris": {"android": "https://dc.lft.to/lastmile_qr_scan", "ios": "https://dc.lft.to/lastmile_qr_scan"}, "fusion_lon": 0.0, "lat": 38.87748666666667, "bike_id": "24391ec61520f8a4cb0aadf3f42a2177", "type": "electric_scooter", "is_reserved": 0, "lon": -77.0142795}, {"fusion_lat": 0.0, "name": "be86911f085559e749fe921cda54988e", "is_disabled": 0, "rental_uris": {"android": "https://dc.lft.to/lastmile_qr_scan", "ios": "https://dc.lft.to/lastmile_qr_scan"}, "fusion_lon": 0.0, "lat": 38.900648833333335, "bike_id": "be86911f085559e749fe921cda54988e", "type": "electric_scooter", "is_reserved": 0, "lon": -76.92745366666666}, {"fusion_lat": 0.0, "name": "01ff51d8961d827079a33438c6f32e81", "is_disabled": 0, "rental_uris": {"android": "https://dc.lft.to/lastmile_qr_scan", "ios": "https://dc.lft.to/lastmile_qr_scan"}, "fusion_lon": 0.0, "lat": 38.92258666666667, "bike_id": "01ff51d8961d827079a33438c6f32e81", "type": "electric_scooter", "is_reserved": 0, "lon": -77.036634}, {"fusion_lat": 0.0, "name": "510d5f1e6bdf691832a01ead7ec0dbca", "is_disabled": 0, "rental_uris": {"android": "https://dc.lft.to/lastmile_qr_scan", "ios": "https://dc.lft.to/lastmile_qr_scan"}, "fusion_lon": 0.0, "lat": 38.8954865, "bike_id": "510d5f1e6bdf691832a01ead7ec0dbca", "type": "electric_scooter", "is_reserved": 0, "lon": -76.94945483333333}, {"fusion_lat": 0.0, "name": "1e1cd8fcd7439d0d1c0f2ff814fd4c0c", "is_disabled": 0, "rental_uris": {"android": "https://dc.lft.to/lastmile_qr_scan", "ios": "https://dc.lft.to/lastmile_qr_scan"}, "fusion_lon": 0.0, "lat": 38.88443483333333, "bike_id": "1e1cd8fcd7439d0d1c0f2ff814fd4c0c", "type": "electric_scooter", "is_reserved": 0, "lon": -77.003469}, {"fusion_lat": 0.0, "name": "3139396dfa07cc6320f81ec7c9ddbd33", "is_disabled": 0, "rental_uris": {"android": "https://dc.lft.to/lastmile_qr_scan", "ios": "https://dc.lft.to/lastmile_qr_scan"}, "fusion_lon": 0.0, "lat": 38.92594866666666, "bike_id": "3139396dfa07cc6320f81ec7c9ddbd33", "type": "electric_scooter", "is_reserved": 0, "lon": -77.03401616666666}, {"fusion_lat": 0.0, "name": "75e56b9d80bd0ace6dda248abbb09a04", "is_disabled": 0, "rental_uris": {"android": "https://dc.lft.to/lastmile_qr_scan", "ios": "https://dc.lft.to/lastmile_qr_scan"}, "fusion_lon": 0.0, "lat": 38.896478, "bike_id": "75e56b9d80bd0ace6dda248abbb09a04", "type": "electric_scooter", "is_reserved": 0, "lon": -77.0508495}, {"fusion_lat": 0.0, "name": "d2f4576fc1cca834fdb5f7ba3c58d91a", "is_disabled": 0, "rental_uris": {"android": "https://dc.lft.to/lastmile_qr_scan", "ios": "https://dc.lft.to/lastmile_qr_scan"}, "fusion_lon": 0.0, "lat": 38.804485166666666, "bike_id": "d2f4576fc1cca834fdb5f7ba3c58d91a", "type": "electric_bike", "is_reserved": 0, "lon": -77.05386183333333}, {"fusion_lat": 0.0, "name": "b2d026165200b6956a354b8e1df27b02", "is_disabled": 0, "rental_uris": {"android": "https://dc.lft.to/lastmile_qr_scan", "ios": "https://dc.lft.to/lastmile_qr_scan"}, "fusion_lon": 0.0, "lat": 38.91633366666667, "bike_id": "b2d026165200b6956a354b8e1df27b02", "type": "electric_scooter", "is_reserved": 0, "lon": -77.04556333333333}, {"fusion_lat": 0.0, "name": "44b21c60b99231c08118d13d671a47d5", "is_disabled": 0, "rental_uris": {"android": "https://dc.lft.to/lastmile_qr_scan", "ios": "https://dc.lft.to/lastmile_qr_scan"}, "fusion_lon": 0.0, "lat": 38.86663816666667, "bike_id": "44b21c60b99231c08118d13d671a47d5", "type": "electric_scooter", "is_reserved": 0, "lon": -77.01036466666666}, {"fusion_lat": 0.0, "name": "77aa2253b606bf86273a98fa927e5657", "is_disabled": 0, "rental_uris": {"android": "https://dc.lft.to/lastmile_qr_scan", "ios": "https://dc.lft.to/lastmile_qr_scan"}, "fusion_lon": 0.0, "lat": 38.89362233333333, "bike_id": "77aa2253b606bf86273a98fa927e5657", "type": "electric_scooter", "is_reserved": 0, "lon": -77.02256283333334}, {"fusion_lat": 0.0, "name": "633e1d75b30c67daaafc843d99fd70e9", "is_disabled": 0, "rental_uris": {"android": "https://dc.lft.to/lastmile_qr_scan", "ios": "https://dc.lft.to/lastmile_qr_scan"}, "fusion_lon": 0.0, "lat": 38.877423, "bike_id": "633e1d75b30c67daaafc843d99fd70e9", "type": "electric_scooter", "is_reserved": 0, "lon": -77.003487}, {"fusion_lat": 0.0, "name": "d962d8c992ec962f5fe269f145cc6d84", "is_disabled": 0, "rental_uris": {"android": "https://dc.lft.to/lastmile_qr_scan", "ios": "https://dc.lft.to/lastmile_qr_scan"}, "fusion_lon": 0.0, "lat": 38.903256166666665, "bike_id": "d962d8c992ec962f5fe269f145cc6d84", "type": "electric_scooter", "is_reserved": 0, "lon": -77.01201533333334}, {"fusion_lat": 0.0, "name": "fb7a04ab153199c621e0269779eec065", "is_disabled": 0, "rental_uris": {"android": "https://dc.lft.to/lastmile_qr_scan", "ios": "https://dc.lft.to/lastmile_qr_scan"}, "fusion_lon": 0.0, "lat": 38.876861166666664, "bike_id": "fb7a04ab153199c621e0269779eec065", "type": "electric_scooter", "is_reserved": 0, "lon": -77.01757833333333}, {"fusion_lat": 0.0, "name": "c1315aefb5f2eaa368f083d54d65a44a", "is_disabled": 0, "rental_uris": {"android": "https://dc.lft.to/lastmile_qr_scan", "ios": "https://dc.lft.to/lastmile_qr_scan"}, "fusion_lon": 0.0, "lat": 38.93364033333334, "bike_id": "c1315aefb5f2eaa368f083d54d65a44a", "type": "electric_scooter", "is_reserved": 0, "lon": -77.0326715}, {"fusion_lat": 0.0, "name": "f1c5ac4b7bedb82ba90939e27ffadaec", "is_disabled": 0, "rental_uris": {"android": "https://dc.lft.to/lastmile_qr_scan", "ios": "https://dc.lft.to/lastmile_qr_scan"}, "fusion_lon": 0.0, "lat": 38.926575, "bike_id": "f1c5ac4b7bedb82ba90939e27ffadaec", "type": "electric_scooter", "is_reserved": 0, "lon": -77.037096}, {"fusion_lat": 0.0, "name": "a8dfd434314c028656de2f1e22b5e90f", "is_disabled": 0, "rental_uris": {"android": "https://dc.lft.to/lastmile_qr_scan", "ios": "https://dc.lft.to/lastmile_qr_scan"}, "fusion_lon": 0.0, "lat": 38.923725833333336, "bike_id": "a8dfd434314c028656de2f1e22b5e90f", "type": "electric_scooter", "is_reserved": 0, "lon": -77.02537333333333}, {"fusion_lat": 0.0, "name": "54f93b8870e39e4eeeec750fe86048a2", "is_disabled": 0, "rental_uris": {"android": "https://dc.lft.to/lastmile_qr_scan", "ios": "https://dc.lft.to/lastmile_qr_scan"}, "fusion_lon": 0.0, "lat": 38.903573, "bike_id": "54f93b8870e39e4eeeec750fe86048a2", "type": "electric_scooter", "is_reserved": 0, "lon": -77.0626875}, {"fusion_lat": 0.0, "name": "e9f558c484d0f76302c94c9cc8116b87", "is_disabled": 0, "rental_uris": {"android": "https://dc.lft.to/lastmile_qr_scan", "ios": "https://dc.lft.to/lastmile_qr_scan"}, "fusion_lon": 0.0, "lat": 38.92868933333333, "bike_id": "e9f558c484d0f76302c94c9cc8116b87", "type": "electric_scooter", "is_reserved": 0, "lon": -77.03482}, {"fusion_lat": 0.0, "name": "dab6efda604a840e7eb23b784f2ea556", "is_disabled": 0, "rental_uris": {"android": "https://dc.lft.to/lastmile_qr_scan", "ios": "https://dc.lft.to/lastmile_qr_scan"}, "fusion_lon": 0.0, "lat": 38.91404683333333, "bike_id": "dab6efda604a840e7eb23b784f2ea556", "type": "electric_scooter", "is_reserved": 0, "lon": -77.03144166666667}, {"fusion_lat": 0.0, "name": "630e71e7a16f64c58d16f2d140f516bc", "is_disabled": 0, "rental_uris": {"android": "https://dc.lft.to/lastmile_qr_scan", "ios": "https://dc.lft.to/lastmile_qr_scan"}, "fusion_lon": 0.0, "lat": 38.849089, "bike_id": "630e71e7a16f64c58d16f2d140f516bc", "type": "electric_bike", "is_reserved": 0, "lon": -77.09977633333334}, {"fusion_lat": 0.0, "name": "ec80cec74a4cea094705f0b92a7f38ef", "is_disabled": 0, "rental_uris": {"android": "https://dc.lft.to/lastmile_qr_scan", "ios": "https://dc.lft.to/lastmile_qr_scan"}, "fusion_lon": 0.0, "lat": 38.93880716666666, "bike_id": "ec80cec74a4cea094705f0b92a7f38ef", "type": "electric_scooter", "is_reserved": 0, "lon": -77.02463466666667}, {"fusion_lat": 0.0, "name": "90914e135bbc72a57dc7b2a7e233034e", "is_disabled": 0, "rental_uris": {"android": "https://dc.lft.to/lastmile_qr_scan", "ios": "https://dc.lft.to/lastmile_qr_scan"}, "fusion_lon": 0.0, "lat": 38.89339966666667, "bike_id": "90914e135bbc72a57dc7b2a7e233034e", "type": "electric_scooter", "is_reserved": 0, "lon": -76.99388266666666}, {"fusion_lat": 0.0, "name": "8913944c29e66c384b2e4581bf670b71", "is_disabled": 0, "rental_uris": {"android": "https://dc.lft.to/lastmile_qr_scan", "ios": "https://dc.lft.to/lastmile_qr_scan"}, "fusion_lon": 0.0, "lat": 38.914150166666666, "bike_id": "8913944c29e66c384b2e4581bf670b71", "type": "electric_scooter", "is_reserved": 0, "lon": -77.0272755}, {"fusion_lat": 0.0, "name": "8862a661a4f3712cd9abc6a30808cc80", "is_disabled": 0, "rental_uris": {"android": "https://dc.lft.to/lastmile_qr_scan", "ios": "https://dc.lft.to/lastmile_qr_scan"}, "fusion_lon": 0.0, "lat": 38.865191833333334, "bike_id": "8862a661a4f3712cd9abc6a30808cc80", "type": "electric_bike", "is_reserved": 0, "lon": -76.97338266666667}, {"fusion_lat": 0.0, "name": "18039f7e653f65cd7bf5e357a0328eaf", "is_disabled": 0, "rental_uris": {"android": "https://dc.lft.to/lastmile_qr_scan", "ios": "https://dc.lft.to/lastmile_qr_scan"}, "fusion_lon": 0.0, "lat": 38.961832, "bike_id": "18039f7e653f65cd7bf5e357a0328eaf", "type": "electric_bike", "is_reserved": 0, "lon": -77.05267983333333}, {"fusion_lat": 0.0, "name": "5650c3bf13387c576ec1f6be442fbc37", "is_disabled": 0, "rental_uris": {"android": "https://dc.lft.to/lastmile_qr_scan", "ios": "https://dc.lft.to/lastmile_qr_scan"}, "fusion_lon": 0.0, "lat": 38.90476666666667, "bike_id": "5650c3bf13387c576ec1f6be442fbc37", "type": "electric_scooter", "is_reserved": 0, "lon": -77.04867316666666}, {"fusion_lat": 0.0, "name": "05eef66632884bef82f53131c82a79a5", "is_disabled": 0, "rental_uris": {"android": "https://dc.lft.to/lastmile_qr_scan", "ios": "https://dc.lft.to/lastmile_qr_scan"}, "fusion_lon": 0.0, "lat": 38.93063383333333, "bike_id": "05eef66632884bef82f53131c82a79a5", "type": "electric_scooter", "is_reserved": 0, "lon": -77.040585}, {"fusion_lat": 0.0, "name": "ce0eddf3f61ba3f15e9984c8199c2de8", "is_disabled": 0, "rental_uris": {"android": "https://dc.lft.to/lastmile_qr_scan", "ios": "https://dc.lft.to/lastmile_qr_scan"}, "fusion_lon": 0.0, "lat": 38.897445833333336, "bike_id": "ce0eddf3f61ba3f15e9984c8199c2de8", "type": "electric_scooter", "is_reserved": 0, "lon": -77.02506016666666}, {"fusion_lat": 0.0, "name": "8f7676065a26e8fccb786462319fe973", "is_disabled": 0, "rental_uris": {"android": "https://dc.lft.to/lastmile_qr_scan", "ios": "https://dc.lft.to/lastmile_qr_scan"}, "fusion_lon": 0.0, "lat": 38.911099166666666, "bike_id": "8f7676065a26e8fccb786462319fe973", "type": "electric_scooter", "is_reserved": 0, "lon": -77.0293125}, {"fusion_lat": 0.0, "name": "96a6a49908a9f41b3b7073b6f179d44e", "is_disabled": 0, "rental_uris": {"android": "https://dc.lft.to/lastmile_qr_scan", "ios": "https://dc.lft.to/lastmile_qr_scan"}, "fusion_lon": 0.0, "lat": 38.924377, "bike_id": "96a6a49908a9f41b3b7073b6f179d44e", "type": "electric_scooter", "is_reserved": 0, "lon": -77.04460033333334}, {"fusion_lat": 0.0, "name": "0c151b9b09509233b56a9f742dfbf404", "is_disabled": 0, "rental_uris": {"android": "https://dc.lft.to/lastmile_qr_scan", "ios": "https://dc.lft.to/lastmile_qr_scan"}, "fusion_lon": 0.0, "lat": 38.904238, "bike_id": "0c151b9b09509233b56a9f742dfbf404", "type": "electric_scooter", "is_reserved": 0, "lon": -77.018809}, {"fusion_lat": 0.0, "name": "489cdf87bbe3daf93cc677d9eb434909", "is_disabled": 0, "rental_uris": {"android": "https://dc.lft.to/lastmile_qr_scan", "ios": "https://dc.lft.to/lastmile_qr_scan"}, "fusion_lon": 0.0, "lat": 38.97377866666667, "bike_id": "489cdf87bbe3daf93cc677d9eb434909", "type": "electric_scooter", "is_reserved": 0, "lon": -77.01286833333333}, {"fusion_lat": 0.0, "name": "46970e84e7571eb7612bfe09a62eeb2d", "is_disabled": 0, "rental_uris": {"android": "https://dc.lft.to/lastmile_qr_scan", "ios": "https://dc.lft.to/lastmile_qr_scan"}, "fusion_lon": 0.0, "lat": 38.902819666666666, "bike_id": "46970e84e7571eb7612bfe09a62eeb2d", "type": "electric_scooter", "is_reserved": 0, "lon": -77.03640566666667}, {"fusion_lat": 0.0, "name": "6d2d46d67560150074193e9949bc7b9d", "is_disabled": 0, "rental_uris": {"android": "https://dc.lft.to/lastmile_qr_scan", "ios": "https://dc.lft.to/lastmile_qr_scan"}, "fusion_lon": 0.0, "lat": 38.9699135, "bike_id": "6d2d46d67560150074193e9949bc7b9d", "type": "electric_scooter", "is_reserved": 0, "lon": -77.01163183333334}, {"fusion_lat": 0.0, "name": "e58578bd571d0d59044ad68a69253013", "is_disabled": 0, "rental_uris": {"android": "https://dc.lft.to/lastmile_qr_scan", "ios": "https://dc.lft.to/lastmile_qr_scan"}, "fusion_lon": 0.0, "lat": 38.89243966666667, "bike_id": "e58578bd571d0d59044ad68a69253013", "type": "electric_scooter", "is_reserved": 0, "lon": -77.03348783333334}, {"fusion_lat": 0.0, "name": "65ff297630a543812113e4baab797f1f", "is_disabled": 0, "rental_uris": {"android": "https://dc.lft.to/lastmile_qr_scan", "ios": "https://dc.lft.to/lastmile_qr_scan"}, "fusion_lon": 0.0, "lat": 38.911921666666665, "bike_id": "65ff297630a543812113e4baab797f1f", "type": "electric_scooter", "is_reserved": 0, "lon": -77.01193733333334}, {"fusion_lat": 0.0, "name": "90850aa40e2f3e054cb7ef3058c678c1", "is_disabled": 0, "rental_uris": {"android": "https://dc.lft.to/lastmile_qr_scan", "ios": "https://dc.lft.to/lastmile_qr_scan"}, "fusion_lon": 0.0, "lat": 38.89108383333333, "bike_id": "90850aa40e2f3e054cb7ef3058c678c1", "type": "electric_scooter", "is_reserved": 0, "lon": -76.94382716666667}, {"fusion_lat": 0.0, "name": "1e985e3c20627d2fcdd5eae176e1632c", "is_disabled": 0, "rental_uris": {"android": "https://dc.lft.to/lastmile_qr_scan", "ios": "https://dc.lft.to/lastmile_qr_scan"}, "fusion_lon": 0.0, "lat": 38.91569666666667, "bike_id": "1e985e3c20627d2fcdd5eae176e1632c", "type": "electric_scooter", "is_reserved": 0, "lon": -77.038637}, {"fusion_lat": 0.0, "name": "c6b52006feaf47a36cc4b1645022d1b6", "is_disabled": 0, "rental_uris": {"android": "https://dc.lft.to/lastmile_qr_scan", "ios": "https://dc.lft.to/lastmile_qr_scan"}, "fusion_lon": 0.0, "lat": 38.901396, "bike_id": "c6b52006feaf47a36cc4b1645022d1b6", "type": "electric_scooter", "is_reserved": 0, "lon": -76.98656466666667}, {"fusion_lat": 0.0, "name": "e0c2ad808ca948918ac65a002234339f", "is_disabled": 0, "rental_uris": {"android": "https://dc.lft.to/lastmile_qr_scan", "ios": "https://dc.lft.to/lastmile_qr_scan"}, "fusion_lon": 0.0, "lat": 38.874768833333334, "bike_id": "e0c2ad808ca948918ac65a002234339f", "type": "electric_scooter", "is_reserved": 0, "lon": -77.00039383333333}, {"fusion_lat": 0.0, "name": "5571d05ad29e8e2ce2a081e6337abfc7", "is_disabled": 0, "rental_uris": {"android": "https://dc.lft.to/lastmile_qr_scan", "ios": "https://dc.lft.to/lastmile_qr_scan"}, "fusion_lon": 0.0, "lat": 38.95334183333333, "bike_id": "5571d05ad29e8e2ce2a081e6337abfc7", "type": "electric_bike", "is_reserved": 0, "lon": -76.98261433333333}, {"fusion_lat": 0.0, "name": "fb7d804521ed30154eb71a2edc63f354", "is_disabled": 0, "rental_uris": {"android": "https://dc.lft.to/lastmile_qr_scan", "ios": "https://dc.lft.to/lastmile_qr_scan"}, "fusion_lon": 0.0, "lat": 38.92617216666667, "bike_id": "fb7d804521ed30154eb71a2edc63f354", "type": "electric_scooter", "is_reserved": 0, "lon": -77.04329033333333}, {"fusion_lat": 0.0, "name": "3e82d9451be3fcbfdb6dd458161832e4", "is_disabled": 0, "rental_uris": {"android": "https://dc.lft.to/lastmile_qr_scan", "ios": "https://dc.lft.to/lastmile_qr_scan"}, "fusion_lon": 0.0, "lat": 38.9072465, "bike_id": "3e82d9451be3fcbfdb6dd458161832e4", "type": "electric_scooter", "is_reserved": 0, "lon": -77.04337216666667}, {"fusion_lat": 0.0, "name": "57868e7de2f5cc33f04270cd672d2e0c", "is_disabled": 0, "rental_uris": {"android": "https://dc.lft.to/lastmile_qr_scan", "ios": "https://dc.lft.to/lastmile_qr_scan"}, "fusion_lon": 0.0, "lat": 38.94200283333333, "bike_id": "57868e7de2f5cc33f04270cd672d2e0c", "type": "electric_scooter", "is_reserved": 0, "lon": -77.0258915}, {"fusion_lat": 0.0, "name": "77d21a3dca62230b74ac53ed56a33e99", "is_disabled": 0, "rental_uris": {"android": "https://dc.lft.to/lastmile_qr_scan", "ios": "https://dc.lft.to/lastmile_qr_scan"}, "fusion_lon": 0.0, "lat": 38.895133333333334, "bike_id": "77d21a3dca62230b74ac53ed56a33e99", "type": "electric_scooter", "is_reserved": 0, "lon": -76.999616}, {"fusion_lat": 0.0, "name": "67c2ad111e330e2e38dbf4d15364e20e", "is_disabled": 0, "rental_uris": {"android": "https://dc.lft.to/lastmile_qr_scan", "ios": "https://dc.lft.to/lastmile_qr_scan"}, "fusion_lon": 0.0, "lat": 38.91803766666666, "bike_id": "67c2ad111e330e2e38dbf4d15364e20e", "type": "electric_scooter", "is_reserved": 0, "lon": -77.0271735}, {"fusion_lat": 0.0, "name": "71c2220f22a150e3f63ac4bacc5513f3", "is_disabled": 0, "rental_uris": {"android": "https://dc.lft.to/lastmile_qr_scan", "ios": "https://dc.lft.to/lastmile_qr_scan"}, "fusion_lon": 0.0, "lat": 38.9068995, "bike_id": "71c2220f22a150e3f63ac4bacc5513f3", "type": "electric_scooter", "is_reserved": 0, "lon": -77.03768316666667}, {"fusion_lat": 0.0, "name": "dd4ec9651f583b40fec5359145213b3c", "is_disabled": 0, "rental_uris": {"android": "https://dc.lft.to/lastmile_qr_scan", "ios": "https://dc.lft.to/lastmile_qr_scan"}, "fusion_lon": 0.0, "lat": 38.83935533333333, "bike_id": "dd4ec9651f583b40fec5359145213b3c", "type": "electric_bike", "is_reserved": 0, "lon": -77.079101}, {"fusion_lat": 0.0, "name": "f932ab7a9e16030746f771094ef254d1", "is_disabled": 0, "rental_uris": {"android": "https://dc.lft.to/lastmile_qr_scan", "ios": "https://dc.lft.to/lastmile_qr_scan"}, "fusion_lon": 0.0, "lat": 38.910655166666665, "bike_id": "f932ab7a9e16030746f771094ef254d1", "type": "electric_scooter", "is_reserved": 0, "lon": -77.03663066666667}, {"fusion_lat": 0.0, "name": "657ef1e0f6d273967917f5ed6129ca51", "is_disabled": 0, "rental_uris": {"android": "https://dc.lft.to/lastmile_qr_scan", "ios": "https://dc.lft.to/lastmile_qr_scan"}, "fusion_lon": 0.0, "lat": 38.978818, "bike_id": "657ef1e0f6d273967917f5ed6129ca51", "type": "electric_bike", "is_reserved": 0, "lon": -77.06028333333333}, {"fusion_lat": 0.0, "name": "ddff65066bb9e95a3370d31a18c4d770", "is_disabled": 0, "rental_uris": {"android": "https://dc.lft.to/lastmile_qr_scan", "ios": "https://dc.lft.to/lastmile_qr_scan"}, "fusion_lon": 0.0, "lat": 38.9274525, "bike_id": "ddff65066bb9e95a3370d31a18c4d770", "type": "electric_scooter", "is_reserved": 0, "lon": -77.0364015}, {"fusion_lat": 0.0, "name": "7d553aef747915dc05a2226d0a0bdd85", "is_disabled": 0, "rental_uris": {"android": "https://dc.lft.to/lastmile_qr_scan", "ios": "https://dc.lft.to/lastmile_qr_scan"}, "fusion_lon": 0.0, "lat": 38.903194666666664, "bike_id": "7d553aef747915dc05a2226d0a0bdd85", "type": "electric_scooter", "is_reserved": 0, "lon": -77.0318975}, {"fusion_lat": 0.0, "name": "ea807118c4695918c850771f5bc8103a", "is_disabled": 0, "rental_uris": {"android": "https://dc.lft.to/lastmile_qr_scan", "ios": "https://dc.lft.to/lastmile_qr_scan"}, "fusion_lon": 0.0, "lat": 38.887543, "bike_id": "ea807118c4695918c850771f5bc8103a", "type": "electric_scooter", "is_reserved": 0, "lon": -76.99789566666666}, {"fusion_lat": 0.0, "name": "942b49210aefc2d28aa105795cf938c3", "is_disabled": 0, "rental_uris": {"android": "https://dc.lft.to/lastmile_qr_scan", "ios": "https://dc.lft.to/lastmile_qr_scan"}, "fusion_lon": 0.0, "lat": 38.93589733333334, "bike_id": "942b49210aefc2d28aa105795cf938c3", "type": "electric_scooter", "is_reserved": 0, "lon": -77.023789}, {"fusion_lat": 0.0, "name": "2ef52f13cd76fbcc4185ce38f131b4f1", "is_disabled": 0, "rental_uris": {"android": "https://dc.lft.to/lastmile_qr_scan", "ios": "https://dc.lft.to/lastmile_qr_scan"}, "fusion_lon": 0.0, "lat": 38.9066385, "bike_id": "2ef52f13cd76fbcc4185ce38f131b4f1", "type": "electric_scooter", "is_reserved": 0, "lon": -77.029592}, {"fusion_lat": 0.0, "name": "57d14feb25ba0a6e30b57eeda7863ad5", "is_disabled": 0, "rental_uris": {"android": "https://dc.lft.to/lastmile_qr_scan", "ios": "https://dc.lft.to/lastmile_qr_scan"}, "fusion_lon": 0.0, "lat": 38.88989766666667, "bike_id": "57d14feb25ba0a6e30b57eeda7863ad5", "type": "electric_scooter", "is_reserved": 0, "lon": -76.92985433333334}, {"fusion_lat": 0.0, "name": "4f94f9607f14a700397a2a13d010309d", "is_disabled": 0, "rental_uris": {"android": "https://dc.lft.to/lastmile_qr_scan", "ios": "https://dc.lft.to/lastmile_qr_scan"}, "fusion_lon": 0.0, "lat": 38.91705183333333, "bike_id": "4f94f9607f14a700397a2a13d010309d", "type": "electric_scooter", "is_reserved": 0, "lon": -77.02750133333333}, {"fusion_lat": 0.0, "name": "543added470d02e6ad7b58ec61245a51", "is_disabled": 0, "rental_uris": {"android": "https://dc.lft.to/lastmile_qr_scan", "ios": "https://dc.lft.to/lastmile_qr_scan"}, "fusion_lon": 0.0, "lat": 38.94517616666667, "bike_id": "543added470d02e6ad7b58ec61245a51", "type": "electric_scooter", "is_reserved": 0, "lon": -77.03892083333334}, {"fusion_lat": 0.0, "name": "215956d3b25049b5755e16bddfdae75a", "is_disabled": 0, "rental_uris": {"android": "https://dc.lft.to/lastmile_qr_scan", "ios": "https://dc.lft.to/lastmile_qr_scan"}, "fusion_lon": 0.0, "lat": 38.92353266666667, "bike_id": "215956d3b25049b5755e16bddfdae75a", "type": "electric_scooter", "is_reserved": 0, "lon": -76.99256333333334}, {"fusion_lat": 0.0, "name": "eb0466b03db32c1c109f7212097b40b7", "is_disabled": 0, "rental_uris": {"android": "https://dc.lft.to/lastmile_qr_scan", "ios": "https://dc.lft.to/lastmile_qr_scan"}, "fusion_lon": 0.0, "lat": 38.847553166666664, "bike_id": "eb0466b03db32c1c109f7212097b40b7", "type": "electric_scooter", "is_reserved": 0, "lon": -76.99501566666666}, {"fusion_lat": 0.0, "name": "863b4abf5c17d79bed5f9007601e1c80", "is_disabled": 0, "rental_uris": {"android": "https://dc.lft.to/lastmile_qr_scan", "ios": "https://dc.lft.to/lastmile_qr_scan"}, "fusion_lon": 0.0, "lat": 38.937049333333334, "bike_id": "863b4abf5c17d79bed5f9007601e1c80", "type": "electric_scooter", "is_reserved": 0, "lon": -77.06106883333334}, {"fusion_lat": 0.0, "name": "6192c185bb06b17b755b4cae7b8a3f3a", "is_disabled": 0, "rental_uris": {"android": "https://dc.lft.to/lastmile_qr_scan", "ios": "https://dc.lft.to/lastmile_qr_scan"}, "fusion_lon": 0.0, "lat": 38.9012305, "bike_id": "6192c185bb06b17b755b4cae7b8a3f3a", "type": "electric_scooter", "is_reserved": 0, "lon": -77.04033366666667}, {"fusion_lat": 0.0, "name": "298ed292b1c78fb733c3b55aae340c41", "is_disabled": 0, "rental_uris": {"android": "https://dc.lft.to/lastmile_qr_scan", "ios": "https://dc.lft.to/lastmile_qr_scan"}, "fusion_lon": 0.0, "lat": 38.941114666666664, "bike_id": "298ed292b1c78fb733c3b55aae340c41", "type": "electric_scooter", "is_reserved": 0, "lon": -77.03481683333334}, {"fusion_lat": 0.0, "name": "006c40f52b2f7c91a460bc89e3194be9", "is_disabled": 0, "rental_uris": {"android": "https://dc.lft.to/lastmile_qr_scan", "ios": "https://dc.lft.to/lastmile_qr_scan"}, "fusion_lon": 0.0, "lat": 38.9196, "bike_id": "006c40f52b2f7c91a460bc89e3194be9", "type": "electric_scooter", "is_reserved": 0, "lon": -77.01780733333334}, {"fusion_lat": 0.0, "name": "e135d02b9c2c13ec4f826ff7ee2bd950", "is_disabled": 0, "rental_uris": {"android": "https://dc.lft.to/lastmile_qr_scan", "ios": "https://dc.lft.to/lastmile_qr_scan"}, "fusion_lon": 0.0, "lat": 38.930475333333334, "bike_id": "e135d02b9c2c13ec4f826ff7ee2bd950", "type": "electric_scooter", "is_reserved": 0, "lon": -77.0406095}, {"fusion_lat": 0.0, "name": "13889f060f46954bd4f1bd8d4c8c0b05", "is_disabled": 0, "rental_uris": {"android": "https://dc.lft.to/lastmile_qr_scan", "ios": "https://dc.lft.to/lastmile_qr_scan"}, "fusion_lon": 0.0, "lat": 38.91405616666667, "bike_id": "13889f060f46954bd4f1bd8d4c8c0b05", "type": "electric_scooter", "is_reserved": 0, "lon": -77.03217116666667}, {"fusion_lat": 0.0, "name": "d49c67dc74f6a5f0252cf4f7ffa248b5", "is_disabled": 0, "rental_uris": {"android": "https://dc.lft.to/lastmile_qr_scan", "ios": "https://dc.lft.to/lastmile_qr_scan"}, "fusion_lon": 0.0, "lat": 38.90956766666667, "bike_id": "d49c67dc74f6a5f0252cf4f7ffa248b5", "type": "electric_scooter", "is_reserved": 0, "lon": -77.04861483333333}, {"fusion_lat": 0.0, "name": "80dcc37ff120a09230bdcef2287ef639", "is_disabled": 0, "rental_uris": {"android": "https://dc.lft.to/lastmile_qr_scan", "ios": "https://dc.lft.to/lastmile_qr_scan"}, "fusion_lon": 0.0, "lat": 38.899611166666666, "bike_id": "80dcc37ff120a09230bdcef2287ef639", "type": "electric_scooter", "is_reserved": 0, "lon": -77.0151675}, {"fusion_lat": 0.0, "name": "b9885e427401e639182aa6d21b8816f4", "is_disabled": 0, "rental_uris": {"android": "https://dc.lft.to/lastmile_qr_scan", "ios": "https://dc.lft.to/lastmile_qr_scan"}, "fusion_lon": 0.0, "lat": 38.922056166666664, "bike_id": "b9885e427401e639182aa6d21b8816f4", "type": "electric_scooter", "is_reserved": 0, "lon": -77.04128033333333}, {"fusion_lat": 0.0, "name": "1b327ff939927cde5557a7aec172caf5", "is_disabled": 0, "rental_uris": {"android": "https://dc.lft.to/lastmile_qr_scan", "ios": "https://dc.lft.to/lastmile_qr_scan"}, "fusion_lon": 0.0, "lat": 38.92414383333333, "bike_id": "1b327ff939927cde5557a7aec172caf5", "type": "electric_scooter", "is_reserved": 0, "lon": -77.02009333333334}, {"fusion_lat": 0.0, "name": "fafa5a13041e0503f2e96d47772d76b7", "is_disabled": 0, "rental_uris": {"android": "https://dc.lft.to/lastmile_qr_scan", "ios": "https://dc.lft.to/lastmile_qr_scan"}, "fusion_lon": 0.0, "lat": 38.9565495, "bike_id": "fafa5a13041e0503f2e96d47772d76b7", "type": "electric_scooter", "is_reserved": 0, "lon": -77.0333015}, {"fusion_lat": 0.0, "name": "0865b7ade2d394f45fae372a00ccffd0", "is_disabled": 0, "rental_uris": {"android": "https://dc.lft.to/lastmile_qr_scan", "ios": "https://dc.lft.to/lastmile_qr_scan"}, "fusion_lon": 0.0, "lat": 38.90935733333333, "bike_id": "0865b7ade2d394f45fae372a00ccffd0", "type": "electric_scooter", "is_reserved": 0, "lon": -77.03856516666667}, {"fusion_lat": 0.0, "name": "70bdb117845644ce8ca53880059569f3", "is_disabled": 0, "rental_uris": {"android": "https://dc.lft.to/lastmile_qr_scan", "ios": "https://dc.lft.to/lastmile_qr_scan"}, "fusion_lon": 0.0, "lat": 38.907815, "bike_id": "70bdb117845644ce8ca53880059569f3", "type": "electric_scooter", "is_reserved": 0, "lon": -77.03864433333334}, {"fusion_lat": 0.0, "name": "fa26bf2358fb8616a7f5bfbcb35c8b45", "is_disabled": 0, "rental_uris": {"android": "https://dc.lft.to/lastmile_qr_scan", "ios": "https://dc.lft.to/lastmile_qr_scan"}, "fusion_lon": 0.0, "lat": 38.90713683333333, "bike_id": "fa26bf2358fb8616a7f5bfbcb35c8b45", "type": "electric_scooter", "is_reserved": 0, "lon": -77.02972966666667}, {"fusion_lat": 0.0, "name": "f306d461f0a054caa98d94c735897e79", "is_disabled": 0, "rental_uris": {"android": "https://dc.lft.to/lastmile_qr_scan", "ios": "https://dc.lft.to/lastmile_qr_scan"}, "fusion_lon": 0.0, "lat": 38.87687366666667, "bike_id": "f306d461f0a054caa98d94c735897e79", "type": "electric_scooter", "is_reserved": 0, "lon": -77.017575}, {"fusion_lat": 0.0, "name": "04fbcbcc4e4a6c6f111c0d12e543f0d3", "is_disabled": 0, "rental_uris": {"android": "https://dc.lft.to/lastmile_qr_scan", "ios": "https://dc.lft.to/lastmile_qr_scan"}, "fusion_lon": 0.0, "lat": 39.01076416666667, "bike_id": "04fbcbcc4e4a6c6f111c0d12e543f0d3", "type": "electric_bike", "is_reserved": 0, "lon": -76.91062}, {"fusion_lat": 0.0, "name": "694a87013d27c3e054dd331619e9e388", "is_disabled": 0, "rental_uris": {"android": "https://dc.lft.to/lastmile_qr_scan", "ios": "https://dc.lft.to/lastmile_qr_scan"}, "fusion_lon": 0.0, "lat": 38.942213833333334, "bike_id": "694a87013d27c3e054dd331619e9e388", "type": "electric_scooter", "is_reserved": 0, "lon": -77.023307}, {"fusion_lat": 0.0, "name": "c4c5ebe3e27a758c013a365d4915c268", "is_disabled": 0, "rental_uris": {"android": "https://dc.lft.to/lastmile_qr_scan", "ios": "https://dc.lft.to/lastmile_qr_scan"}, "fusion_lon": 0.0, "lat": 38.890665, "bike_id": "c4c5ebe3e27a758c013a365d4915c268", "type": "electric_scooter", "is_reserved": 0, "lon": -76.94448616666666}, {"fusion_lat": 0.0, "name": "2bb78809ccf5bc140e99578e9f87e1c6", "is_disabled": 0, "rental_uris": {"android": "https://dc.lft.to/lastmile_qr_scan", "ios": "https://dc.lft.to/lastmile_qr_scan"}, "fusion_lon": 0.0, "lat": 38.93627683333333, "bike_id": "2bb78809ccf5bc140e99578e9f87e1c6", "type": "electric_scooter", "is_reserved": 0, "lon": -77.03689666666666}, {"fusion_lat": 0.0, "name": "e884213b66759fe121b894a14eedd744", "is_disabled": 0, "rental_uris": {"android": "https://dc.lft.to/lastmile_qr_scan", "ios": "https://dc.lft.to/lastmile_qr_scan"}, "fusion_lon": 0.0, "lat": 38.897322, "bike_id": "e884213b66759fe121b894a14eedd744", "type": "electric_scooter", "is_reserved": 0, "lon": -77.04549083333333}, {"fusion_lat": 0.0, "name": "aa430010d3318225ffe497458ae443fc", "is_disabled": 0, "rental_uris": {"android": "https://dc.lft.to/lastmile_qr_scan", "ios": "https://dc.lft.to/lastmile_qr_scan"}, "fusion_lon": 0.0, "lat": 38.90397633333333, "bike_id": "aa430010d3318225ffe497458ae443fc", "type": "electric_scooter", "is_reserved": 0, "lon": -77.00578966666667}, {"fusion_lat": 0.0, "name": "a83b183b1b2e685e959edf959a759e8e", "is_disabled": 0, "rental_uris": {"android": "https://dc.lft.to/lastmile_qr_scan", "ios": "https://dc.lft.to/lastmile_qr_scan"}, "fusion_lon": 0.0, "lat": 38.913147333333335, "bike_id": "a83b183b1b2e685e959edf959a759e8e", "type": "electric_scooter", "is_reserved": 0, "lon": -77.03636616666667}, {"fusion_lat": 0.0, "name": "aef84f0ab4b582e8b9cb72fb736e5df3", "is_disabled": 0, "rental_uris": {"android": "https://dc.lft.to/lastmile_qr_scan", "ios": "https://dc.lft.to/lastmile_qr_scan"}, "fusion_lon": 0.0, "lat": 38.88063833333333, "bike_id": "aef84f0ab4b582e8b9cb72fb736e5df3", "type": "electric_scooter", "is_reserved": 0, "lon": -76.98506633333334}, {"fusion_lat": 0.0, "name": "f0757ef2bc032c55d6bb3edd3bb3ddea", "is_disabled": 0, "rental_uris": {"android": "https://dc.lft.to/lastmile_qr_scan", "ios": "https://dc.lft.to/lastmile_qr_scan"}, "fusion_lon": 0.0, "lat": 38.960083833333336, "bike_id": "f0757ef2bc032c55d6bb3edd3bb3ddea", "type": "electric_scooter", "is_reserved": 0, "lon": -77.01979783333333}, {"fusion_lat": 0.0, "name": "5938e5756387128ce591cb67084a5b17", "is_disabled": 0, "rental_uris": {"android": "https://dc.lft.to/lastmile_qr_scan", "ios": "https://dc.lft.to/lastmile_qr_scan"}, "fusion_lon": 0.0, "lat": 38.922735, "bike_id": "5938e5756387128ce591cb67084a5b17", "type": "electric_scooter", "is_reserved": 0, "lon": -77.03682483333333}, {"fusion_lat": 0.0, "name": "cd432583aeca73aaf7a073af967a52ea", "is_disabled": 0, "rental_uris": {"android": "https://dc.lft.to/lastmile_qr_scan", "ios": "https://dc.lft.to/lastmile_qr_scan"}, "fusion_lon": 0.0, "lat": 38.912634, "bike_id": "cd432583aeca73aaf7a073af967a52ea", "type": "electric_scooter", "is_reserved": 0, "lon": -77.044655}, {"fusion_lat": 0.0, "name": "230a103bf62e31f0adf2a5472951515f", "is_disabled": 0, "rental_uris": {"android": "https://dc.lft.to/lastmile_qr_scan", "ios": "https://dc.lft.to/lastmile_qr_scan"}, "fusion_lon": 0.0, "lat": 38.91793083333334, "bike_id": "230a103bf62e31f0adf2a5472951515f", "type": "electric_scooter", "is_reserved": 0, "lon": -77.00917466666667}, {"fusion_lat": 0.0, "name": "dada2b101ec794b6072475230bdd9663", "is_disabled": 0, "rental_uris": {"android": "https://dc.lft.to/lastmile_qr_scan", "ios": "https://dc.lft.to/lastmile_qr_scan"}, "fusion_lon": 0.0, "lat": 38.894830666666664, "bike_id": "dada2b101ec794b6072475230bdd9663", "type": "electric_scooter", "is_reserved": 0, "lon": -76.99746366666666}, {"fusion_lat": 0.0, "name": "716edeba0a0d79a74f84d3b271c80757", "is_disabled": 0, "rental_uris": {"android": "https://dc.lft.to/lastmile_qr_scan", "ios": "https://dc.lft.to/lastmile_qr_scan"}, "fusion_lon": 0.0, "lat": 38.901265, "bike_id": "716edeba0a0d79a74f84d3b271c80757", "type": "electric_scooter", "is_reserved": 0, "lon": -77.05150483333334}, {"fusion_lat": 0.0, "name": "adca0b547a92d3f206869d2e5419b837", "is_disabled": 0, "rental_uris": {"android": "https://dc.lft.to/lastmile_qr_scan", "ios": "https://dc.lft.to/lastmile_qr_scan"}, "fusion_lon": 0.0, "lat": 38.905084, "bike_id": "adca0b547a92d3f206869d2e5419b837", "type": "electric_scooter", "is_reserved": 0, "lon": -77.01711516666667}, {"fusion_lat": 0.0, "name": "c1b82996115874a19ff296ef683fb9e2", "is_disabled": 0, "rental_uris": {"android": "https://dc.lft.to/lastmile_qr_scan", "ios": "https://dc.lft.to/lastmile_qr_scan"}, "fusion_lon": 0.0, "lat": 38.9018355, "bike_id": "c1b82996115874a19ff296ef683fb9e2", "type": "electric_scooter", "is_reserved": 0, "lon": -76.92904516666667}, {"fusion_lat": 0.0, "name": "cb4f503953bf9c4bf6cfd3e89371ba5e", "is_disabled": 0, "rental_uris": {"android": "https://dc.lft.to/lastmile_qr_scan", "ios": "https://dc.lft.to/lastmile_qr_scan"}, "fusion_lon": 0.0, "lat": 38.8874485, "bike_id": "cb4f503953bf9c4bf6cfd3e89371ba5e", "type": "electric_scooter", "is_reserved": 0, "lon": -76.99626316666667}, {"fusion_lat": 0.0, "name": "901b438990f521e5cfcc8527a4c676e9", "is_disabled": 0, "rental_uris": {"android": "https://dc.lft.to/lastmile_qr_scan", "ios": "https://dc.lft.to/lastmile_qr_scan"}, "fusion_lon": 0.0, "lat": 38.9197975, "bike_id": "901b438990f521e5cfcc8527a4c676e9", "type": "electric_scooter", "is_reserved": 0, "lon": -77.02172333333333}, {"fusion_lat": 0.0, "name": "c923bfa72234a017b08fb0082c67a6bc", "is_disabled": 0, "rental_uris": {"android": "https://dc.lft.to/lastmile_qr_scan", "ios": "https://dc.lft.to/lastmile_qr_scan"}, "fusion_lon": 0.0, "lat": 38.855128, "bike_id": "c923bfa72234a017b08fb0082c67a6bc", "type": "electric_bike", "is_reserved": 0, "lon": -77.1053805}, {"fusion_lat": 0.0, "name": "973b45a96fa492225a468bfb9568fefb", "is_disabled": 0, "rental_uris": {"android": "https://dc.lft.to/lastmile_qr_scan", "ios": "https://dc.lft.to/lastmile_qr_scan"}, "fusion_lon": 0.0, "lat": 38.9031395, "bike_id": "973b45a96fa492225a468bfb9568fefb", "type": "electric_scooter", "is_reserved": 0, "lon": -76.97806266666667}, {"fusion_lat": 0.0, "name": "a7a5bce4ad64476c3c81b65bd7bdc2ac", "is_disabled": 0, "rental_uris": {"android": "https://dc.lft.to/lastmile_qr_scan", "ios": "https://dc.lft.to/lastmile_qr_scan"}, "fusion_lon": 0.0, "lat": 38.924277000000004, "bike_id": "a7a5bce4ad64476c3c81b65bd7bdc2ac", "type": "electric_scooter", "is_reserved": 0, "lon": -76.98600083333334}, {"fusion_lat": 0.0, "name": "def702e9a697a739944a2a552939c078", "is_disabled": 0, "rental_uris": {"android": "https://dc.lft.to/lastmile_qr_scan", "ios": "https://dc.lft.to/lastmile_qr_scan"}, "fusion_lon": 0.0, "lat": 38.88870766666667, "bike_id": "def702e9a697a739944a2a552939c078", "type": "electric_scooter", "is_reserved": 0, "lon": -76.98453883333333}, {"fusion_lat": 0.0, "name": "34d9238aa55a7cf3a712afaf5f07f544", "is_disabled": 0, "rental_uris": {"android": "https://dc.lft.to/lastmile_qr_scan", "ios": "https://dc.lft.to/lastmile_qr_scan"}, "fusion_lon": 0.0, "lat": 38.86016816666667, "bike_id": "34d9238aa55a7cf3a712afaf5f07f544", "type": "electric_bike", "is_reserved": 0, "lon": -77.12807933333333}, {"fusion_lat": 0.0, "name": "f3f2a8433913ca867f6e7a91df8f06cf", "is_disabled": 0, "rental_uris": {"android": "https://dc.lft.to/lastmile_qr_scan", "ios": "https://dc.lft.to/lastmile_qr_scan"}, "fusion_lon": 0.0, "lat": 38.92072233333333, "bike_id": "f3f2a8433913ca867f6e7a91df8f06cf", "type": "electric_scooter", "is_reserved": 0, "lon": -77.02417416666667}, {"fusion_lat": 0.0, "name": "297e7c8eb2fff54b1d76f8504aa5d0d9", "is_disabled": 0, "rental_uris": {"android": "https://dc.lft.to/lastmile_qr_scan", "ios": "https://dc.lft.to/lastmile_qr_scan"}, "fusion_lon": 0.0, "lat": 38.9181755, "bike_id": "297e7c8eb2fff54b1d76f8504aa5d0d9", "type": "electric_scooter", "is_reserved": 0, "lon": -77.02489366666667}, {"fusion_lat": 0.0, "name": "7aaaa4a21cdde1c676f880038ae2d612", "is_disabled": 0, "rental_uris": {"android": "https://dc.lft.to/lastmile_qr_scan", "ios": "https://dc.lft.to/lastmile_qr_scan"}, "fusion_lon": 0.0, "lat": 38.929299, "bike_id": "7aaaa4a21cdde1c676f880038ae2d612", "type": "electric_scooter", "is_reserved": 0, "lon": -77.02338633333333}, {"fusion_lat": 0.0, "name": "2944f2ebfda3ae8b3a8c00c15b0e174a", "is_disabled": 0, "rental_uris": {"android": "https://dc.lft.to/lastmile_qr_scan", "ios": "https://dc.lft.to/lastmile_qr_scan"}, "fusion_lon": 0.0, "lat": 38.9231765, "bike_id": "2944f2ebfda3ae8b3a8c00c15b0e174a", "type": "electric_scooter", "is_reserved": 0, "lon": -77.02039566666667}, {"fusion_lat": 0.0, "name": "357e95301c77d0f3b381e25976786dfc", "is_disabled": 0, "rental_uris": {"android": "https://dc.lft.to/lastmile_qr_scan", "ios": "https://dc.lft.to/lastmile_qr_scan"}, "fusion_lon": 0.0, "lat": 38.93078233333333, "bike_id": "357e95301c77d0f3b381e25976786dfc", "type": "electric_scooter", "is_reserved": 0, "lon": -77.07760633333334}, {"fusion_lat": 0.0, "name": "f857ee471d96fb18ca981453aa1f36f9", "is_disabled": 0, "rental_uris": {"android": "https://dc.lft.to/lastmile_qr_scan", "ios": "https://dc.lft.to/lastmile_qr_scan"}, "fusion_lon": 0.0, "lat": 38.908136166666665, "bike_id": "f857ee471d96fb18ca981453aa1f36f9", "type": "electric_scooter", "is_reserved": 0, "lon": -77.03445316666667}, {"fusion_lat": 0.0, "name": "402f590865f949f98a7bd005fcdad410", "is_disabled": 0, "rental_uris": {"android": "https://dc.lft.to/lastmile_qr_scan", "ios": "https://dc.lft.to/lastmile_qr_scan"}, "fusion_lon": 0.0, "lat": 38.952351166666666, "bike_id": "402f590865f949f98a7bd005fcdad410", "type": "electric_scooter", "is_reserved": 0, "lon": -76.9900735}, {"fusion_lat": 0.0, "name": "83518a0fd9f240e83bdc37aafe29c7a3", "is_disabled": 0, "rental_uris": {"android": "https://dc.lft.to/lastmile_qr_scan", "ios": "https://dc.lft.to/lastmile_qr_scan"}, "fusion_lon": 0.0, "lat": 38.92152733333333, "bike_id": "83518a0fd9f240e83bdc37aafe29c7a3", "type": "electric_scooter", "is_reserved": 0, "lon": -77.03365283333333}, {"fusion_lat": 0.0, "name": "6171b1931287cb3c1aa214bab6671e96", "is_disabled": 0, "rental_uris": {"android": "https://dc.lft.to/lastmile_qr_scan", "ios": "https://dc.lft.to/lastmile_qr_scan"}, "fusion_lon": 0.0, "lat": 38.907292, "bike_id": "6171b1931287cb3c1aa214bab6671e96", "type": "electric_scooter", "is_reserved": 0, "lon": -77.02899216666667}, {"fusion_lat": 0.0, "name": "44720f2f1959529d062c0a49370fcda5", "is_disabled": 0, "rental_uris": {"android": "https://dc.lft.to/lastmile_qr_scan", "ios": "https://dc.lft.to/lastmile_qr_scan"}, "fusion_lon": 0.0, "lat": 38.903950333333334, "bike_id": "44720f2f1959529d062c0a49370fcda5", "type": "electric_scooter", "is_reserved": 0, "lon": -76.99008933333333}, {"fusion_lat": 0.0, "name": "7c769f5287d389bd950e6db6c91f8137", "is_disabled": 0, "rental_uris": {"android": "https://dc.lft.to/lastmile_qr_scan", "ios": "https://dc.lft.to/lastmile_qr_scan"}, "fusion_lon": 0.0, "lat": 38.9072415, "bike_id": "7c769f5287d389bd950e6db6c91f8137", "type": "electric_scooter", "is_reserved": 0, "lon": -77.01219316666666}, {"fusion_lat": 0.0, "name": "6cf07b91719b6182e0d9727b79d4f15d", "is_disabled": 0, "rental_uris": {"android": "https://dc.lft.to/lastmile_qr_scan", "ios": "https://dc.lft.to/lastmile_qr_scan"}, "fusion_lon": 0.0, "lat": 38.93525566666667, "bike_id": "6cf07b91719b6182e0d9727b79d4f15d", "type": "electric_scooter", "is_reserved": 0, "lon": -77.03266366666666}, {"fusion_lat": 0.0, "name": "e9dd5a0f3bf136e3860472222c7224fa", "is_disabled": 0, "rental_uris": {"android": "https://dc.lft.to/lastmile_qr_scan", "ios": "https://dc.lft.to/lastmile_qr_scan"}, "fusion_lon": 0.0, "lat": 38.9041055, "bike_id": "e9dd5a0f3bf136e3860472222c7224fa", "type": "electric_scooter", "is_reserved": 0, "lon": -76.973331}, {"fusion_lat": 0.0, "name": "d178648eaf34983cea2ca790c9cee7b3", "is_disabled": 0, "rental_uris": {"android": "https://dc.lft.to/lastmile_qr_scan", "ios": "https://dc.lft.to/lastmile_qr_scan"}, "fusion_lon": 0.0, "lat": 38.902584, "bike_id": "d178648eaf34983cea2ca790c9cee7b3", "type": "electric_scooter", "is_reserved": 0, "lon": -76.97449716666667}, {"fusion_lat": 0.0, "name": "8cb537308119651026c57b7120293d05", "is_disabled": 0, "rental_uris": {"android": "https://dc.lft.to/lastmile_qr_scan", "ios": "https://dc.lft.to/lastmile_qr_scan"}, "fusion_lon": 0.0, "lat": 38.918395, "bike_id": "8cb537308119651026c57b7120293d05", "type": "electric_scooter", "is_reserved": 0, "lon": -77.03201783333333}, {"fusion_lat": 0.0, "name": "d5f5f106b31b20ae725434e1f0a7c557", "is_disabled": 0, "rental_uris": {"android": "https://dc.lft.to/lastmile_qr_scan", "ios": "https://dc.lft.to/lastmile_qr_scan"}, "fusion_lon": 0.0, "lat": 38.93767916666667, "bike_id": "d5f5f106b31b20ae725434e1f0a7c557", "type": "electric_scooter", "is_reserved": 0, "lon": -77.032834}, {"fusion_lat": 0.0, "name": "ea3b65352419813d46db543addb9b3fd", "is_disabled": 0, "rental_uris": {"android": "https://dc.lft.to/lastmile_qr_scan", "ios": "https://dc.lft.to/lastmile_qr_scan"}, "fusion_lon": 0.0, "lat": 38.89751283333333, "bike_id": "ea3b65352419813d46db543addb9b3fd", "type": "electric_scooter", "is_reserved": 0, "lon": -77.0249705}, {"fusion_lat": 0.0, "name": "97e5b2f0c9872c6ce2532fc281b89816", "is_disabled": 0, "rental_uris": {"android": "https://dc.lft.to/lastmile_qr_scan", "ios": "https://dc.lft.to/lastmile_qr_scan"},