{"data": {"bikes": [{"bike_id": "3f422facde70ce7de872aadc115aab3e", "type": "electric_scooter", "is_disabled": 0, "lat": 38.912991166666664, "rental_uris": {"ios": "https://dc.lft.to/lastmile_qr_scan", "android": "https://dc.lft.to/lastmile_qr_scan"}, "is_reserved": 0, "fusion_lon": 0.0, "fusion_lat": 0.0, "lon": -77.06677233333333, "name": "3f422facde70ce7de872aadc115aab3e"}, {"bike_id": "04f6756b49198e923d1fa9843f58040f", "type": "electric_scooter", "is_disabled": 0, "lat": 38.909555, "rental_uris": {"ios": "https://dc.lft.to/lastmile_qr_scan", "android": "https://dc.lft.to/lastmile_qr_scan"}, "is_reserved": 0, "fusion_lon": 0.0, "fusion_lat": 0.0, "lon": -77.04861966666667, "name": "04f6756b49198e923d1fa9843f58040f"}, {"bike_id": "26e4dc594cba45cfe87b339050c9c96c", "type": "electric_scooter", "is_disabled": 0, "lat": 38.923186, "rental_uris": {"ios": "https://dc.lft.to/lastmile_qr_scan", "android": "https://dc.lft.to/lastmile_qr_scan"}, "is_reserved": 0, "fusion_lon": 0.0, "fusion_lat": 0.0, "lon": -77.021331, "name": "26e4dc594cba45cfe87b339050c9c96c"}, {"bike_id": "6acd279926c8319688060a8cff513a15", "type": "electric_scooter", "is_disabled": 0, "lat": 38.90407016666666, "rental_uris": {"ios": "https://dc.lft.to/lastmile_qr_scan", "android": "https://dc.lft.to/lastmile_qr_scan"}, "is_reserved": 0, "fusion_lon": 0.0, "fusion_lat": 0.0, "lon": -76.9732705, "name": "6acd279926c8319688060a8cff513a15"}, {"bike_id": "0b474a8078425bd136f6d0fb1f2c02ad", "type": "electric_scooter", "is_disabled": 0, "lat": 38.917017666666666, "rental_uris": {"ios": "https://dc.lft.to/lastmile_qr_scan", "android": "https://dc.lft.to/lastmile_qr_scan"}, "is_reserved": 0, "fusion_lon": 0.0, "fusion_lat": 0.0, "lon": -77.09577083333333, "name": "0b474a8078425bd136f6d0fb1f2c02ad"}, {"bike_id": "64a68879e9c21fe06c66185a06ed2c0e", "type": "electric_scooter", "is_disabled": 0, "lat": 38.9216685, "rental_uris": {"ios": "https://dc.lft.to/lastmile_qr_scan", "android": "https://dc.lft.to/lastmile_qr_scan"}, "is_reserved": 0, "fusion_lon": 0.0, "fusion_lat": 0.0, "lon": -77.019167, "name": "64a68879e9c21fe06c66185a06ed2c0e"}, {"bike_id": "a331ae545ca2c11897c7ba500d3ec35d", "type": "electric_scooter", "is_disabled": 0, "lat": 38.951506333333334, "rental_uris": {"ios": "https://dc.lft.to/lastmile_qr_scan", "android": "https://dc.lft.to/lastmile_qr_scan"}, "is_reserved": 0, "fusion_lon": 0.0, "fusion_lat": 0.0, "lon": -77.01865866666667, "name": "a331ae545ca2c11897c7ba500d3ec35d"}, {"bike_id": "977e97e13d83db0dfbd25736f52d5350", "type": "electric_scooter", "is_disabled": 0, "lat": 38.912138, "rental_uris": {"ios": "https://dc.lft.to/lastmile_qr_scan", "android": "https://dc.lft.to/lastmile_qr_scan"}, "is_reserved": 0, "fusion_lon": 0.0, "fusion_lat": 0.0, "lon": -77.031824, "name": "977e97e13d83db0dfbd25736f52d5350"}, {"bike_id": "dd4128a7f9aed1e7f94ea3d3252679f8", "type": "electric_scooter", "is_disabled": 0, "lat": 38.93270366666667, "rental_uris": {"ios": "https://dc.lft.to/lastmile_qr_scan", "android": "https://dc.lft.to/lastmile_qr_scan"}, "is_reserved": 0, "fusion_lon": 0.0, "fusion_lat": 0.0, "lon": -77.02654833333334, "name": "dd4128a7f9aed1e7f94ea3d3252679f8"}, {"bike_id": "0860a6ed49dce2198fd54476e7df130a", "type": "electric_scooter", "is_disabled": 0, "lat": 38.897251833333335, "rental_uris": {"ios": "https://dc.lft.to/lastmile_qr_scan", "android": "https://dc.lft.to/lastmile_qr_scan"}, "is_reserved": 0, "fusion_lon": 0.0, "fusion_lat": 0.0, "lon": -77.00437433333333, "name": "0860a6ed49dce2198fd54476e7df130a"}, {"bike_id": "833eeccc7dd9760187d5f59a9f297229", "type": "electric_scooter", "is_disabled": 0, "lat": 38.914124, "rental_uris": {"ios": "https://dc.lft.to/lastmile_qr_scan", "android": "https://dc.lft.to/lastmile_qr_scan"}, "is_reserved": 0, "fusion_lon": 0.0, "fusion_lat": 0.0, "lon": -77.02212466666667, "name": "833eeccc7dd9760187d5f59a9f297229"}, {"bike_id": "33cc48dbd61c5e50b5371d3dd9bf07f3", "type": "electric_scooter", "is_disabled": 0, "lat": 38.88931016666667, "rental_uris": {"ios": "https://dc.lft.to/lastmile_qr_scan", "android": "https://dc.lft.to/lastmile_qr_scan"}, "is_reserved": 0, "fusion_lon": 0.0, "fusion_lat": 0.0, "lon": -77.01508633333333, "name": "33cc48dbd61c5e50b5371d3dd9bf07f3"}, {"bike_id": "e2ecf9cf2feed102b8b0f98069cf8457", "type": "electric_scooter", "is_disabled": 0, "lat": 38.9572915, "rental_uris": {"ios": "https://dc.lft.to/lastmile_qr_scan", "android": "https://dc.lft.to/lastmile_qr_scan"}, "is_reserved": 0, "fusion_lon": 0.0, "fusion_lat": 0.0, "lon": -77.02400466666667, "name": "e2ecf9cf2feed102b8b0f98069cf8457"}, {"bike_id": "f3a3ddee452bdda69f5cbd491e497a05", "type": "electric_scooter", "is_disabled": 0, "lat": 38.89816966666667, "rental_uris": {"ios": "https://dc.lft.to/lastmile_qr_scan", "android": "https://dc.lft.to/lastmile_qr_scan"}, "is_reserved": 0, "fusion_lon": 0.0, "fusion_lat": 0.0, "lon": -77.02579583333333, "name": "f3a3ddee452bdda69f5cbd491e497a05"}, {"bike_id": "2864ef80c224573aa7f7e6b935342565", "type": "electric_scooter", "is_disabled": 0, "lat": 38.916888166666666, "rental_uris": {"ios": "https://dc.lft.to/lastmile_qr_scan", "android": "https://dc.lft.to/lastmile_qr_scan"}, "is_reserved": 0, "fusion_lon": 0.0, "fusion_lat": 0.0, "lon": -77.022758, "name": "2864ef80c224573aa7f7e6b935342565"}, {"bike_id": "83a2201711d01fa47dc5ade1a47af117", "type": "electric_scooter", "is_disabled": 0, "lat": 38.945071166666665, "rental_uris": {"ios": "https://dc.lft.to/lastmile_qr_scan", "android": "https://dc.lft.to/lastmile_qr_scan"}, "is_reserved": 0, "fusion_lon": 0.0, "fusion_lat": 0.0, "lon": -77.03378816666667, "name": "83a2201711d01fa47dc5ade1a47af117"}, {"bike_id": "c273d9c175fa274c99121300cdf3f901", "type": "electric_scooter", "is_disabled": 0, "lat": 38.91479133333333, "rental_uris": {"ios": "https://dc.lft.to/lastmile_qr_scan", "android": "https://dc.lft.to/lastmile_qr_scan"}, "is_reserved": 0, "fusion_lon": 0.0, "fusion_lat": 0.0, "lon": -77.0215515, "name": "c273d9c175fa274c99121300cdf3f901"}, {"bike_id": "df03eabbaef61ffb0731af1bf1c6e7cf", "type": "electric_scooter", "is_disabled": 0, "lat": 38.904827833333336, "rental_uris": {"ios": "https://dc.lft.to/lastmile_qr_scan", "android": "https://dc.lft.to/lastmile_qr_scan"}, "is_reserved": 0, "fusion_lon": 0.0, "fusion_lat": 0.0, "lon": -77.05341333333334, "name": "df03eabbaef61ffb0731af1bf1c6e7cf"}, {"bike_id": "37cb3ed4fdf91e998a2cc2ca76eb5970", "type": "electric_scooter", "is_disabled": 0, "lat": 38.89906333333333, "rental_uris": {"ios": "https://dc.lft.to/lastmile_qr_scan", "android": "https://dc.lft.to/lastmile_qr_scan"}, "is_reserved": 0, "fusion_lon": 0.0, "fusion_lat": 0.0, "lon": -77.015089, "name": "37cb3ed4fdf91e998a2cc2ca76eb5970"}, {"bike_id": "f0825c7949293b2e9d604777bffbffb1", "type": "electric_scooter", "is_disabled": 0, "lat": 38.924592, "rental_uris": {"ios": "https://dc.lft.to/lastmile_qr_scan", "android": "https://dc.lft.to/lastmile_qr_scan"}, "is_reserved": 0, "fusion_lon": 0.0, "fusion_lat": 0.0, "lon": -77.02222916666666, "name": "f0825c7949293b2e9d604777bffbffb1"}, {"bike_id": "be42d03eb172c68b699100d4239ebbb6", "type": "electric_scooter", "is_disabled": 0, "lat": 38.87369866666667, "rental_uris": {"ios": "https://dc.lft.to/lastmile_qr_scan", "android": "https://dc.lft.to/lastmile_qr_scan"}, "is_reserved": 0, "fusion_lon": 0.0, "fusion_lat": 0.0, "lon": -77.0013995, "name": "be42d03eb172c68b699100d4239ebbb6"}, {"bike_id": "3ca2f9b002f917f435e50b11d0f69669", "type": "electric_scooter", "is_disabled": 0, "lat": 38.915516333333336, "rental_uris": {"ios": "https://dc.lft.to/lastmile_qr_scan", "android": "https://dc.lft.to/lastmile_qr_scan"}, "is_reserved": 0, "fusion_lon": 0.0, "fusion_lat": 0.0, "lon": -77.0386795, "name": "3ca2f9b002f917f435e50b11d0f69669"}, {"bike_id": "cb5d646376bddfe4ea5afe8976c5f4db", "type": "electric_scooter", "is_disabled": 0, "lat": 38.860941, "rental_uris": {"ios": "https://dc.lft.to/lastmile_qr_scan", "android": "https://dc.lft.to/lastmile_qr_scan"}, "is_reserved": 0, "fusion_lon": 0.0, "fusion_lat": 0.0, "lon": -76.96886633333334, "name": "cb5d646376bddfe4ea5afe8976c5f4db"}, {"bike_id": "a5762f92a04f8f7a05b42d8803a1f448", "type": "electric_scooter", "is_disabled": 0, "lat": 38.95898233333333, "rental_uris": {"ios": "https://dc.lft.to/lastmile_qr_scan", "android": "https://dc.lft.to/lastmile_qr_scan"}, "is_reserved": 0, "fusion_lon": 0.0, "fusion_lat": 0.0, "lon": -77.085978, "name": "a5762f92a04f8f7a05b42d8803a1f448"}, {"bike_id": "3ef67e5a44642fe4e70931233313c0aa", "type": "electric_scooter", "is_disabled": 0, "lat": 38.873393166666666, "rental_uris": {"ios": "https://dc.lft.to/lastmile_qr_scan", "android": "https://dc.lft.to/lastmile_qr_scan"}, "is_reserved": 0, "fusion_lon": 0.0, "fusion_lat": 0.0, "lon": -77.00255383333334, "name": "3ef67e5a44642fe4e70931233313c0aa"}, {"bike_id": "b0e33f902e1c35bb1180bf061e184595", "type": "electric_scooter", "is_disabled": 0, "lat": 38.94986166666666, "rental_uris": {"ios": "https://dc.lft.to/lastmile_qr_scan", "android": "https://dc.lft.to/lastmile_qr_scan"}, "is_reserved": 0, "fusion_lon": 0.0, "fusion_lat": 0.0, "lon": -77.0270535, "name": "b0e33f902e1c35bb1180bf061e184595"}, {"bike_id": "72b4828b0cf07923a1c84e557a800552", "type": "electric_scooter", "is_disabled": 0, "lat": 38.9135725, "rental_uris": {"ios": "https://dc.lft.to/lastmile_qr_scan", "android": "https://dc.lft.to/lastmile_qr_scan"}, "is_reserved": 0, "fusion_lon": 0.0, "fusion_lat": 0.0, "lon": -77.04554783333333, "name": "72b4828b0cf07923a1c84e557a800552"}, {"bike_id": "5c9153c97401f8924d404bf234b53808", "type": "electric_scooter", "is_disabled": 0, "lat": 38.905657166666664, "rental_uris": {"ios": "https://dc.lft.to/lastmile_qr_scan", "android": "https://dc.lft.to/lastmile_qr_scan"}, "is_reserved": 0, "fusion_lon": 0.0, "fusion_lat": 0.0, "lon": -77.02206633333333, "name": "5c9153c97401f8924d404bf234b53808"}, {"bike_id": "f137d54e3ec8a344766918bf687587d6", "type": "electric_scooter", "is_disabled": 0, "lat": 38.90007166666667, "rental_uris": {"ios": "https://dc.lft.to/lastmile_qr_scan", "android": "https://dc.lft.to/lastmile_qr_scan"}, "is_reserved": 0, "fusion_lon": 0.0, "fusion_lat": 0.0, "lon": -77.04489616666666, "name": "f137d54e3ec8a344766918bf687587d6"}, {"bike_id": "03965f6e80bac04a9debe8f0dbb066c8", "type": "electric_scooter", "is_disabled": 0, "lat": 38.919857, "rental_uris": {"ios": "https://dc.lft.to/lastmile_qr_scan", "android": "https://dc.lft.to/lastmile_qr_scan"}, "is_reserved": 0, "fusion_lon": 0.0, "fusion_lat": 0.0, "lon": -76.973189, "name": "03965f6e80bac04a9debe8f0dbb066c8"}, {"bike_id": "f220d1da13832cfe7896fa11b2395965", "type": "electric_scooter", "is_disabled": 0, "lat": 38.87817883333334, "rental_uris": {"ios": "https://dc.lft.to/lastmile_qr_scan", "android": "https://dc.lft.to/lastmile_qr_scan"}, "is_reserved": 0, "fusion_lon": 0.0, "fusion_lat": 0.0, "lon": -76.93097, "name": "f220d1da13832cfe7896fa11b2395965"}, {"bike_id": "2b667863eeece243f38cdd13f8232aa9", "type": "electric_scooter", "is_disabled": 0, "lat": 38.904054333333335, "rental_uris": {"ios": "https://dc.lft.to/lastmile_qr_scan", "android": "https://dc.lft.to/lastmile_qr_scan"}, "is_reserved": 0, "fusion_lon": 0.0, "fusion_lat": 0.0, "lon": -76.97327633333333, "name": "2b667863eeece243f38cdd13f8232aa9"}, {"bike_id": "118a2412c2b376fbe91341d206d45572", "type": "electric_bike", "is_disabled": 0, "lat": 38.872955833333336, "rental_uris": {"ios": "https://dc.lft.to/lastmile_qr_scan", "android": "https://dc.lft.to/lastmile_qr_scan"}, "is_reserved": 0, "fusion_lon": 0.0, "fusion_lat": 0.0, "lon": -76.96976833333333, "name": "118a2412c2b376fbe91341d206d45572"}, {"bike_id": "c5afed618b8687b79dd028f922c6e1c4", "type": "electric_scooter", "is_disabled": 0, "lat": 38.907134666666664, "rental_uris": {"ios": "https://dc.lft.to/lastmile_qr_scan", "android": "https://dc.lft.to/lastmile_qr_scan"}, "is_reserved": 0, "fusion_lon": 0.0, "fusion_lat": 0.0, "lon": -77.03194566666667, "name": "c5afed618b8687b79dd028f922c6e1c4"}, {"bike_id": "239ee7bebaef326d10d629fabe34fb30", "type": "electric_scooter", "is_disabled": 0, "lat": 38.900124166666664, "rental_uris": {"ios": "https://dc.lft.to/lastmile_qr_scan", "android": "https://dc.lft.to/lastmile_qr_scan"}, "is_reserved": 0, "fusion_lon": 0.0, "fusion_lat": 0.0, "lon": -76.99746883333333, "name": "239ee7bebaef326d10d629fabe34fb30"}, {"bike_id": "62b826aa82850b95f502327f90d3d707", "type": "electric_scooter", "is_disabled": 0, "lat": 38.9197425, "rental_uris": {"ios": "https://dc.lft.to/lastmile_qr_scan", "android": "https://dc.lft.to/lastmile_qr_scan"}, "is_reserved": 0, "fusion_lon": 0.0, "fusion_lat": 0.0, "lon": -77.019113, "name": "62b826aa82850b95f502327f90d3d707"}, {"bike_id": "358eef72bdb1d67fa8e9540381ae3534", "type": "electric_scooter", "is_disabled": 0, "lat": 38.91508866666667, "rental_uris": {"ios": "https://dc.lft.to/lastmile_qr_scan", "android": "https://dc.lft.to/lastmile_qr_scan"}, "is_reserved": 0, "fusion_lon": 0.0, "fusion_lat": 0.0, "lon": -77.06853233333334, "name": "358eef72bdb1d67fa8e9540381ae3534"}, {"bike_id": "02fc99a6637727e69814e575360a1584", "type": "electric_scooter", "is_disabled": 0, "lat": 38.91177033333334, "rental_uris": {"ios": "https://dc.lft.to/lastmile_qr_scan", "android": "https://dc.lft.to/lastmile_qr_scan"}, "is_reserved": 0, "fusion_lon": 0.0, "fusion_lat": 0.0, "lon": -77.00650016666667, "name": "02fc99a6637727e69814e575360a1584"}, {"bike_id": "72d1e46df565329e0872e4ec7cf2f841", "type": "electric_scooter", "is_disabled": 0, "lat": 38.8836085, "rental_uris": {"ios": "https://dc.lft.to/lastmile_qr_scan", "android": "https://dc.lft.to/lastmile_qr_scan"}, "is_reserved": 0, "fusion_lon": 0.0, "fusion_lat": 0.0, "lon": -76.99521933333334, "name": "72d1e46df565329e0872e4ec7cf2f841"}, {"bike_id": "6397122bc81fb141c4988c86e7dd12b8", "type": "electric_scooter", "is_disabled": 0, "lat": 38.91406933333333, "rental_uris": {"ios": "https://dc.lft.to/lastmile_qr_scan", "android": "https://dc.lft.to/lastmile_qr_scan"}, "is_reserved": 0, "fusion_lon": 0.0, "fusion_lat": 0.0, "lon": -77.04462883333333, "name": "6397122bc81fb141c4988c86e7dd12b8"}, {"bike_id": "5851c9da4aea99586db2db7ab9fd8897", "type": "electric_scooter", "is_disabled": 0, "lat": 38.936489, "rental_uris": {"ios": "https://dc.lft.to/lastmile_qr_scan", "android": "https://dc.lft.to/lastmile_qr_scan"}, "is_reserved": 0, "fusion_lon": 0.0, "fusion_lat": 0.0, "lon": -77.02637266666666, "name": "5851c9da4aea99586db2db7ab9fd8897"}, {"bike_id": "b7c56161ee8beb06d27e27a7782f3111", "type": "electric_bike", "is_disabled": 0, "lat": 38.86932566666667, "rental_uris": {"ios": "https://dc.lft.to/lastmile_qr_scan", "android": "https://dc.lft.to/lastmile_qr_scan"}, "is_reserved": 0, "fusion_lon": 0.0, "fusion_lat": 0.0, "lon": -77.09469416666667, "name": "b7c56161ee8beb06d27e27a7782f3111"}, {"bike_id": "39610f30f91816473d6d27524bc15cd4", "type": "electric_bike", "is_disabled": 0, "lat": 38.959081166666664, "rental_uris": {"ios": "https://dc.lft.to/lastmile_qr_scan", "android": "https://dc.lft.to/lastmile_qr_scan"}, "is_reserved": 0, "fusion_lon": 0.0, "fusion_lat": 0.0, "lon": -77.08502, "name": "39610f30f91816473d6d27524bc15cd4"}, {"bike_id": "1cdbb604926592b07e410670e1587bcb", "type": "electric_scooter", "is_disabled": 0, "lat": 38.88845, "rental_uris": {"ios": "https://dc.lft.to/lastmile_qr_scan", "android": "https://dc.lft.to/lastmile_qr_scan"}, "is_reserved": 0, "fusion_lon": 0.0, "fusion_lat": 0.0, "lon": -76.926797, "name": "1cdbb604926592b07e410670e1587bcb"}, {"bike_id": "8aa026657f67aea03bc2ec0aeb112618", "type": "electric_scooter", "is_disabled": 0, "lat": 38.912628, "rental_uris": {"ios": "https://dc.lft.to/lastmile_qr_scan", "android": "https://dc.lft.to/lastmile_qr_scan"}, "is_reserved": 0, "fusion_lon": 0.0, "fusion_lat": 0.0, "lon": -77.04463583333333, "name": "8aa026657f67aea03bc2ec0aeb112618"}, {"bike_id": "5f0009756fa5c1598c1a517bbf5300eb", "type": "electric_scooter", "is_disabled": 0, "lat": 38.908091666666664, "rental_uris": {"ios": "https://dc.lft.to/lastmile_qr_scan", "android": "https://dc.lft.to/lastmile_qr_scan"}, "is_reserved": 0, "fusion_lon": 0.0, "fusion_lat": 0.0, "lon": -77.03448983333334, "name": "5f0009756fa5c1598c1a517bbf5300eb"}, {"bike_id": "73897e6051c72122a6edc3ccb233e728", "type": "electric_scooter", "is_disabled": 0, "lat": 38.917023666666665, "rental_uris": {"ios": "https://dc.lft.to/lastmile_qr_scan", "android": "https://dc.lft.to/lastmile_qr_scan"}, "is_reserved": 0, "fusion_lon": 0.0, "fusion_lat": 0.0, "lon": -77.030291, "name": "73897e6051c72122a6edc3ccb233e728"}, {"bike_id": "36f2502bf00b514e9fcc21fff5d81507", "type": "electric_scooter", "is_disabled": 0, "lat": 38.884317333333335, "rental_uris": {"ios": "https://dc.lft.to/lastmile_qr_scan", "android": "https://dc.lft.to/lastmile_qr_scan"}, "is_reserved": 0, "fusion_lon": 0.0, "fusion_lat": 0.0, "lon": -76.95749466666666, "name": "36f2502bf00b514e9fcc21fff5d81507"}, {"bike_id": "632775cac801b64a95325062709e4e58", "type": "electric_scooter", "is_disabled": 0, "lat": 38.887425, "rental_uris": {"ios": "https://dc.lft.to/lastmile_qr_scan", "android": "https://dc.lft.to/lastmile_qr_scan"}, "is_reserved": 0, "fusion_lon": 0.0, "fusion_lat": 0.0, "lon": -77.028423, "name": "632775cac801b64a95325062709e4e58"}, {"bike_id": "0817db3514c79558231a3cdcda6de978", "type": "electric_scooter", "is_disabled": 0, "lat": 38.93061066666667, "rental_uris": {"ios": "https://dc.lft.to/lastmile_qr_scan", "android": "https://dc.lft.to/lastmile_qr_scan"}, "is_reserved": 0, "fusion_lon": 0.0, "fusion_lat": 0.0, "lon": -77.0297835, "name": "0817db3514c79558231a3cdcda6de978"}, {"bike_id": "7490bb5f68425d12597cda064f9e64ef", "type": "electric_scooter", "is_disabled": 0, "lat": 38.88622483333333, "rental_uris": {"ios": "https://dc.lft.to/lastmile_qr_scan", "android": "https://dc.lft.to/lastmile_qr_scan"}, "is_reserved": 0, "fusion_lon": 0.0, "fusion_lat": 0.0, "lon": -77.01910783333334, "name": "7490bb5f68425d12597cda064f9e64ef"}, {"bike_id": "975c9f761d9f1b6be3379dab0f2ebdc4", "type": "electric_scooter", "is_disabled": 0, "lat": 38.93546666666667, "rental_uris": {"ios": "https://dc.lft.to/lastmile_qr_scan", "android": "https://dc.lft.to/lastmile_qr_scan"}, "is_reserved": 0, "fusion_lon": 0.0, "fusion_lat": 0.0, "lon": -77.05819366666667, "name": "975c9f761d9f1b6be3379dab0f2ebdc4"}, {"bike_id": "b379708451a98230f80e48ca5362bd7e", "type": "electric_scooter", "is_disabled": 0, "lat": 38.932645666666666, "rental_uris": {"ios": "https://dc.lft.to/lastmile_qr_scan", "android": "https://dc.lft.to/lastmile_qr_scan"}, "is_reserved": 0, "fusion_lon": 0.0, "fusion_lat": 0.0, "lon": -77.019222, "name": "b379708451a98230f80e48ca5362bd7e"}, {"bike_id": "1b953f2390d17e5527bf150c3d8a7340", "type": "electric_scooter", "is_disabled": 0, "lat": 38.89341816666666, "rental_uris": {"ios": "https://dc.lft.to/lastmile_qr_scan", "android": "https://dc.lft.to/lastmile_qr_scan"}, "is_reserved": 0, "fusion_lon": 0.0, "fusion_lat": 0.0, "lon": -77.02406483333333, "name": "1b953f2390d17e5527bf150c3d8a7340"}, {"bike_id": "f06992cbb91d0cb2c38b3ff899d358be", "type": "electric_scooter", "is_disabled": 0, "lat": 38.93870733333333, "rental_uris": {"ios": "https://dc.lft.to/lastmile_qr_scan", "android": "https://dc.lft.to/lastmile_qr_scan"}, "is_reserved": 0, "fusion_lon": 0.0, "fusion_lat": 0.0, "lon": -77.02917916666667, "name": "f06992cbb91d0cb2c38b3ff899d358be"}, {"bike_id": "0c27fbae7c3f73f5219737f8b00371e7", "type": "electric_scooter", "is_disabled": 0, "lat": 38.91470066666667, "rental_uris": {"ios": "https://dc.lft.to/lastmile_qr_scan", "android": "https://dc.lft.to/lastmile_qr_scan"}, "is_reserved": 0, "fusion_lon": 0.0, "fusion_lat": 0.0, "lon": -77.03840933333333, "name": "0c27fbae7c3f73f5219737f8b00371e7"}, {"bike_id": "ebfe65c841447a6bf4c301cb2675ad8c", "type": "electric_bike", "is_disabled": 0, "lat": 38.906967, "rental_uris": {"ios": "https://dc.lft.to/lastmile_qr_scan", "android": "https://dc.lft.to/lastmile_qr_scan"}, "is_reserved": 0, "fusion_lon": 0.0, "fusion_lat": 0.0, "lon": -77.03099483333334, "name": "ebfe65c841447a6bf4c301cb2675ad8c"}, {"bike_id": "4fc231067e95f5fa19798f6ffe86fecb", "type": "electric_scooter", "is_disabled": 0, "lat": 38.8842905, "rental_uris": {"ios": "https://dc.lft.to/lastmile_qr_scan", "android": "https://dc.lft.to/lastmile_qr_scan"}, "is_reserved": 0, "fusion_lon": 0.0, "fusion_lat": 0.0, "lon": -77.02576066666667, "name": "4fc231067e95f5fa19798f6ffe86fecb"}, {"bike_id": "cbbd6e265734922ab31c5c934ef979a1", "type": "electric_bike", "is_disabled": 0, "lat": 38.952426333333335, "rental_uris": {"ios": "https://dc.lft.to/lastmile_qr_scan", "android": "https://dc.lft.to/lastmile_qr_scan"}, "is_reserved": 0, "fusion_lon": 0.0, "fusion_lat": 0.0, "lon": -76.97673083333333, "name": "cbbd6e265734922ab31c5c934ef979a1"}, {"bike_id": "e3093ecb5e30166c4d81233c31187e79", "type": "electric_scooter", "is_disabled": 0, "lat": 38.9064105, "rental_uris": {"ios": "https://dc.lft.to/lastmile_qr_scan", "android": "https://dc.lft.to/lastmile_qr_scan"}, "is_reserved": 0, "fusion_lon": 0.0, "fusion_lat": 0.0, "lon": -77.010186, "name": "e3093ecb5e30166c4d81233c31187e79"}, {"bike_id": "ed9fe079f08a56d16077e4ec82a83cf2", "type": "electric_scooter", "is_disabled": 0, "lat": 38.966287333333334, "rental_uris": {"ios": "https://dc.lft.to/lastmile_qr_scan", "android": "https://dc.lft.to/lastmile_qr_scan"}, "is_reserved": 0, "fusion_lon": 0.0, "fusion_lat": 0.0, "lon": -77.02248533333334, "name": "ed9fe079f08a56d16077e4ec82a83cf2"}, {"bike_id": "6fea48690dc95e09a57da3d5cf040a4b", "type": "electric_scooter", "is_disabled": 0, "lat": 38.90803533333333, "rental_uris": {"ios": "https://dc.lft.to/lastmile_qr_scan", "android": "https://dc.lft.to/lastmile_qr_scan"}, "is_reserved": 0, "fusion_lon": 0.0, "fusion_lat": 0.0, "lon": -77.03448166666666, "name": "6fea48690dc95e09a57da3d5cf040a4b"}, {"bike_id": "0b90b043ec99d72c2acff8d7a4e8d7a7", "type": "electric_scooter", "is_disabled": 0, "lat": 38.900891333333334, "rental_uris": {"ios": "https://dc.lft.to/lastmile_qr_scan", "android": "https://dc.lft.to/lastmile_qr_scan"}, "is_reserved": 0, "fusion_lon": 0.0, "fusion_lat": 0.0, "lon": -77.02803383333334, "name": "0b90b043ec99d72c2acff8d7a4e8d7a7"}, {"bike_id": "539f99a09c6b4bcbfb659f97744827b9", "type": "electric_bike", "is_disabled": 0, "lat": 39.05630333333333, "rental_uris": {"ios": "https://dc.lft.to/lastmile_qr_scan", "android": "https://dc.lft.to/lastmile_qr_scan"}, "is_reserved": 0, "fusion_lon": 0.0, "fusion_lat": 0.0, "lon": -77.12527283333333, "name": "539f99a09c6b4bcbfb659f97744827b9"}, {"bike_id": "d34f7ad0e10e9296cdc7787960cef708", "type": "electric_scooter", "is_disabled": 0, "lat": 38.918169, "rental_uris": {"ios": "https://dc.lft.to/lastmile_qr_scan", "android": "https://dc.lft.to/lastmile_qr_scan"}, "is_reserved": 0, "fusion_lon": 0.0, "fusion_lat": 0.0, "lon": -77.025313, "name": "d34f7ad0e10e9296cdc7787960cef708"}, {"bike_id": "ff17069fead23c861dcd5a8a3cb45305", "type": "electric_scooter", "is_disabled": 0, "lat": 38.90687633333334, "rental_uris": {"ios": "https://dc.lft.to/lastmile_qr_scan", "android": "https://dc.lft.to/lastmile_qr_scan"}, "is_reserved": 0, "fusion_lon": 0.0, "fusion_lat": 0.0, "lon": -77.07209616666667, "name": "ff17069fead23c861dcd5a8a3cb45305"}, {"bike_id": "b02b6ef71dadcc0f2eeefadb71c50f71", "type": "electric_scooter", "is_disabled": 0, "lat": 38.89220816666667, "rental_uris": {"ios": "https://dc.lft.to/lastmile_qr_scan", "android": "https://dc.lft.to/lastmile_qr_scan"}, "is_reserved": 0, "fusion_lon": 0.0, "fusion_lat": 0.0, "lon": -77.0419505, "name": "b02b6ef71dadcc0f2eeefadb71c50f71"}, {"bike_id": "8bf62704e856fd64a14e680342313ef1", "type": "electric_scooter", "is_disabled": 0, "lat": 38.899595, "rental_uris": {"ios": "https://dc.lft.to/lastmile_qr_scan", "android": "https://dc.lft.to/lastmile_qr_scan"}, "is_reserved": 0, "fusion_lon": 0.0, "fusion_lat": 0.0, "lon": -77.02170266666667, "name": "8bf62704e856fd64a14e680342313ef1"}, {"bike_id": "891f5b2917ba9c28193bc08a2a6666bf", "type": "electric_scooter", "is_disabled": 0, "lat": 38.937037333333336, "rental_uris": {"ios": "https://dc.lft.to/lastmile_qr_scan", "android": "https://dc.lft.to/lastmile_qr_scan"}, "is_reserved": 0, "fusion_lon": 0.0, "fusion_lat": 0.0, "lon": -77.0610045, "name": "891f5b2917ba9c28193bc08a2a6666bf"}, {"bike_id": "7f3e27193a3069b96a347dd09fa2ef09", "type": "electric_scooter", "is_disabled": 0, "lat": 38.90032983333333, "rental_uris": {"ios": "https://dc.lft.to/lastmile_qr_scan", "android": "https://dc.lft.to/lastmile_qr_scan"}, "is_reserved": 0, "fusion_lon": 0.0, "fusion_lat": 0.0, "lon": -76.98813033333333, "name": "7f3e27193a3069b96a347dd09fa2ef09"}, {"bike_id": "7ead2ae861f3db29800cfe05b3b49fb8", "type": "electric_scooter", "is_disabled": 0, "lat": 38.907234, "rental_uris": {"ios": "https://dc.lft.to/lastmile_qr_scan", "android": "https://dc.lft.to/lastmile_qr_scan"}, "is_reserved": 0, "fusion_lon": 0.0, "fusion_lat": 0.0, "lon": -77.01485983333333, "name": "7ead2ae861f3db29800cfe05b3b49fb8"}, {"bike_id": "5b2c138f56450361d3f300256ca5d4b9", "type": "electric_scooter", "is_disabled": 0, "lat": 38.90679816666667, "rental_uris": {"ios": "https://dc.lft.to/lastmile_qr_scan", "android": "https://dc.lft.to/lastmile_qr_scan"}, "is_reserved": 0, "fusion_lon": 0.0, "fusion_lat": 0.0, "lon": -77.06340816666666, "name": "5b2c138f56450361d3f300256ca5d4b9"}, {"bike_id": "2a5dbf1166d41a673cf40b05705fe7a1", "type": "electric_scooter", "is_disabled": 0, "lat": 38.929806166666665, "rental_uris": {"ios": "https://dc.lft.to/lastmile_qr_scan", "android": "https://dc.lft.to/lastmile_qr_scan"}, "is_reserved": 0, "fusion_lon": 0.0, "fusion_lat": 0.0, "lon": -77.03471216666667, "name": "2a5dbf1166d41a673cf40b05705fe7a1"}, {"bike_id": "b25c36767054a7b62c6f8693a4f8d66c", "type": "electric_scooter", "is_disabled": 0, "lat": 38.898644166666664, "rental_uris": {"ios": "https://dc.lft.to/lastmile_qr_scan", "android": "https://dc.lft.to/lastmile_qr_scan"}, "is_reserved": 0, "fusion_lon": 0.0, "fusion_lat": 0.0, "lon": -77.02017033333334, "name": "b25c36767054a7b62c6f8693a4f8d66c"}, {"bike_id": "a3a2f0b00d7248abf1d7a109b1b70d86", "type": "electric_scooter", "is_disabled": 0, "lat": 38.90004733333333, "rental_uris": {"ios": "https://dc.lft.to/lastmile_qr_scan", "android": "https://dc.lft.to/lastmile_qr_scan"}, "is_reserved": 0, "fusion_lon": 0.0, "fusion_lat": 0.0, "lon": -76.98010566666666, "name": "a3a2f0b00d7248abf1d7a109b1b70d86"}, {"bike_id": "b2c7a26fb7b8c6bc89f9a4a18006cb7a", "type": "electric_scooter", "is_disabled": 0, "lat": 38.862457, "rental_uris": {"ios": "https://dc.lft.to/lastmile_qr_scan", "android": "https://dc.lft.to/lastmile_qr_scan"}, "is_reserved": 0, "fusion_lon": 0.0, "fusion_lat": 0.0, "lon": -76.9950325, "name": "b2c7a26fb7b8c6bc89f9a4a18006cb7a"}, {"bike_id": "db5a6ad08174512da59e96c974c0208c", "type": "electric_scooter", "is_disabled": 0, "lat": 38.92517433333333, "rental_uris": {"ios": "https://dc.lft.to/lastmile_qr_scan", "android": "https://dc.lft.to/lastmile_qr_scan"}, "is_reserved": 0, "fusion_lon": 0.0, "fusion_lat": 0.0, "lon": -77.0512445, "name": "db5a6ad08174512da59e96c974c0208c"}, {"bike_id": "38feb2d26d50637a6294f655c5ebcd0e", "type": "electric_bike", "is_disabled": 0, "lat": 38.983624666666664, "rental_uris": {"ios": "https://dc.lft.to/lastmile_qr_scan", "android": "https://dc.lft.to/lastmile_qr_scan"}, "is_reserved": 0, "fusion_lon": 0.0, "fusion_lat": 0.0, "lon": -76.9721375, "name": "38feb2d26d50637a6294f655c5ebcd0e"}, {"bike_id": "842aa014c1591430ba0b915eb25cefdf", "type": "electric_scooter", "is_disabled": 0, "lat": 38.831499666666666, "rental_uris": {"ios": "https://dc.lft.to/lastmile_qr_scan", "android": "https://dc.lft.to/lastmile_qr_scan"}, "is_reserved": 0, "fusion_lon": 0.0, "fusion_lat": 0.0, "lon": -77.05127833333333, "name": "842aa014c1591430ba0b915eb25cefdf"}, {"bike_id": "1889e5bc7fa888ea2fae93edba684b1d", "type": "electric_scooter", "is_disabled": 0, "lat": 38.9367235, "rental_uris": {"ios": "https://dc.lft.to/lastmile_qr_scan", "android": "https://dc.lft.to/lastmile_qr_scan"}, "is_reserved": 0, "fusion_lon": 0.0, "fusion_lat": 0.0, "lon": -77.0355855, "name": "1889e5bc7fa888ea2fae93edba684b1d"}, {"bike_id": "57747d840168ca29fce01462ea1f17a3", "type": "electric_scooter", "is_disabled": 0, "lat": 38.8984825, "rental_uris": {"ios": "https://dc.lft.to/lastmile_qr_scan", "android": "https://dc.lft.to/lastmile_qr_scan"}, "is_reserved": 0, "fusion_lon": 0.0, "fusion_lat": 0.0, "lon": -77.02841116666667, "name": "57747d840168ca29fce01462ea1f17a3"}, {"bike_id": "69b1567c5a3470ca07eb5e1f2d0a8845", "type": "electric_scooter", "is_disabled": 0, "lat": 38.9613555, "rental_uris": {"ios": "https://dc.lft.to/lastmile_qr_scan", "android": "https://dc.lft.to/lastmile_qr_scan"}, "is_reserved": 0, "fusion_lon": 0.0, "fusion_lat": 0.0, "lon": -77.02784666666666, "name": "69b1567c5a3470ca07eb5e1f2d0a8845"}, {"bike_id": "292c38f1e9184ae8302c60f901c5cab6", "type": "electric_scooter", "is_disabled": 0, "lat": 38.8646755, "rental_uris": {"ios": "https://dc.lft.to/lastmile_qr_scan", "android": "https://dc.lft.to/lastmile_qr_scan"}, "is_reserved": 0, "fusion_lon": 0.0, "fusion_lat": 0.0, "lon": -76.98229983333333, "name": "292c38f1e9184ae8302c60f901c5cab6"}, {"bike_id": "b767731ea359f475b73dc969822b1e16", "type": "electric_scooter", "is_disabled": 0, "lat": 38.92338566666667, "rental_uris": {"ios": "https://dc.lft.to/lastmile_qr_scan", "android": "https://dc.lft.to/lastmile_qr_scan"}, "is_reserved": 0, "fusion_lon": 0.0, "fusion_lat": 0.0, "lon": -77.05245533333333, "name": "b767731ea359f475b73dc969822b1e16"}, {"bike_id": "67d30f86c73c7ce25694e8e96655060c", "type": "electric_scooter", "is_disabled": 0, "lat": 38.940933666666666, "rental_uris": {"ios": "https://dc.lft.to/lastmile_qr_scan", "android": "https://dc.lft.to/lastmile_qr_scan"}, "is_reserved": 0, "fusion_lon": 0.0, "fusion_lat": 0.0, "lon": -77.0772345, "name": "67d30f86c73c7ce25694e8e96655060c"}, {"bike_id": "792eae343130d20ae0264ccac629f3ef", "type": "electric_scooter", "is_disabled": 0, "lat": 38.906093166666665, "rental_uris": {"ios": "https://dc.lft.to/lastmile_qr_scan", "android": "https://dc.lft.to/lastmile_qr_scan"}, "is_reserved": 0, "fusion_lon": 0.0, "fusion_lat": 0.0, "lon": -77.01212766666667, "name": "792eae343130d20ae0264ccac629f3ef"}, {"bike_id": "651312e0a7d3d3fadcd2ab290d0b1766", "type": "electric_scooter", "is_disabled": 0, "lat": 38.89819416666667, "rental_uris": {"ios": "https://dc.lft.to/lastmile_qr_scan", "android": "https://dc.lft.to/lastmile_qr_scan"}, "is_reserved": 0, "fusion_lon": 0.0, "fusion_lat": 0.0, "lon": -77.04352616666667, "name": "651312e0a7d3d3fadcd2ab290d0b1766"}, {"bike_id": "77ea5349f64fe0701d59fa638fd8ab4e", "type": "electric_scooter", "is_disabled": 0, "lat": 38.93081333333333, "rental_uris": {"ios": "https://dc.lft.to/lastmile_qr_scan", "android": "https://dc.lft.to/lastmile_qr_scan"}, "is_reserved": 0, "fusion_lon": 0.0, "fusion_lat": 0.0, "lon": -77.02810716666667, "name": "77ea5349f64fe0701d59fa638fd8ab4e"}, {"bike_id": "0224fff653e26f1a71fbc6e26fafdf47", "type": "electric_scooter", "is_disabled": 0, "lat": 38.92050116666667, "rental_uris": {"ios": "https://dc.lft.to/lastmile_qr_scan", "android": "https://dc.lft.to/lastmile_qr_scan"}, "is_reserved": 0, "fusion_lon": 0.0, "fusion_lat": 0.0, "lon": -77.03339616666666, "name": "0224fff653e26f1a71fbc6e26fafdf47"}, {"bike_id": "1f168250f4964c02a34c7b59f489ee88", "type": "electric_scooter", "is_disabled": 0, "lat": 38.891792, "rental_uris": {"ios": "https://dc.lft.to/lastmile_qr_scan", "android": "https://dc.lft.to/lastmile_qr_scan"}, "is_reserved": 0, "fusion_lon": 0.0, "fusion_lat": 0.0, "lon": -76.91187016666666, "name": "1f168250f4964c02a34c7b59f489ee88"}, {"bike_id": "c9bf6d7acc3659fa82fc066bfc1fb2c5", "type": "electric_scooter", "is_disabled": 0, "lat": 38.937330333333335, "rental_uris": {"ios": "https://dc.lft.to/lastmile_qr_scan", "android": "https://dc.lft.to/lastmile_qr_scan"}, "is_reserved": 0, "fusion_lon": 0.0, "fusion_lat": 0.0, "lon": -77.033499, "name": "c9bf6d7acc3659fa82fc066bfc1fb2c5"}, {"bike_id": "992b94dafea4b8a12ed41832fd728078", "type": "electric_scooter", "is_disabled": 0, "lat": 38.8972015, "rental_uris": {"ios": "https://dc.lft.to/lastmile_qr_scan", "android": "https://dc.lft.to/lastmile_qr_scan"}, "is_reserved": 0, "fusion_lon": 0.0, "fusion_lat": 0.0, "lon": -77.0249595, "name": "992b94dafea4b8a12ed41832fd728078"}, {"bike_id": "9c9ba16bfc9dd5873a35a6e1d45049e1", "type": "electric_scooter", "is_disabled": 0, "lat": 38.91217733333333, "rental_uris": {"ios": "https://dc.lft.to/lastmile_qr_scan", "android": "https://dc.lft.to/lastmile_qr_scan"}, "is_reserved": 0, "fusion_lon": 0.0, "fusion_lat": 0.0, "lon": -77.04491866666666, "name": "9c9ba16bfc9dd5873a35a6e1d45049e1"}, {"bike_id": "0cc4cbba5808616fc123d9a5bf9cbeb0", "type": "electric_scooter", "is_disabled": 0, "lat": 38.936780666666664, "rental_uris": {"ios": "https://dc.lft.to/lastmile_qr_scan", "android": "https://dc.lft.to/lastmile_qr_scan"}, "is_reserved": 0, "fusion_lon": 0.0, "fusion_lat": 0.0, "lon": -77.03275583333334, "name": "0cc4cbba5808616fc123d9a5bf9cbeb0"}, {"bike_id": "1a456cd250bffc75e6dcc2d9ccd22463", "type": "electric_bike", "is_disabled": 0, "lat": 38.83603733333333, "rental_uris": {"ios": "https://dc.lft.to/lastmile_qr_scan", "android": "https://dc.lft.to/lastmile_qr_scan"}, "is_reserved": 0, "fusion_lon": 0.0, "fusion_lat": 0.0, "lon": -77.00382666666667, "name": "1a456cd250bffc75e6dcc2d9ccd22463"}, {"bike_id": "00387dd760ac9c0715dca3d6c5bf163f", "type": "electric_scooter", "is_disabled": 0, "lat": 38.896127166666666, "rental_uris": {"ios": "https://dc.lft.to/lastmile_qr_scan", "android": "https://dc.lft.to/lastmile_qr_scan"}, "is_reserved": 0, "fusion_lon": 0.0, "fusion_lat": 0.0, "lon": -77.0002435, "name": "00387dd760ac9c0715dca3d6c5bf163f"}, {"bike_id": "7ed9ae20eee7017472f75abbe45672b1", "type": "electric_scooter", "is_disabled": 0, "lat": 38.892089166666665, "rental_uris": {"ios": "https://dc.lft.to/lastmile_qr_scan", "android": "https://dc.lft.to/lastmile_qr_scan"}, "is_reserved": 0, "fusion_lon": 0.0, "fusion_lat": 0.0, "lon": -77.03180533333334, "name": "7ed9ae20eee7017472f75abbe45672b1"}, {"bike_id": "e9c8abbbf933d41a78dd10a1e05722b7", "type": "electric_bike", "is_disabled": 0, "lat": 38.87130416666667, "rental_uris": {"ios": "https://dc.lft.to/lastmile_qr_scan", "android": "https://dc.lft.to/lastmile_qr_scan"}, "is_reserved": 0, "fusion_lon": 0.0, "fusion_lat": 0.0, "lon": -77.1002335, "name": "e9c8abbbf933d41a78dd10a1e05722b7"}, {"bike_id": "b8d7a0316fc578e728869ff188dab946", "type": "electric_scooter", "is_disabled": 0, "lat": 38.900763, "rental_uris": {"ios": "https://dc.lft.to/lastmile_qr_scan", "android": "https://dc.lft.to/lastmile_qr_scan"}, "is_reserved": 0, "fusion_lon": 0.0, "fusion_lat": 0.0, "lon": -77.00918433333334, "name": "b8d7a0316fc578e728869ff188dab946"}, {"bike_id": "d3ae737f86b5bf40d7c6f0107eea0c8d", "type": "electric_scooter", "is_disabled": 0, "lat": 38.911147666666665, "rental_uris": {"ios": "https://dc.lft.to/lastmile_qr_scan", "android": "https://dc.lft.to/lastmile_qr_scan"}, "is_reserved": 0, "fusion_lon": 0.0, "fusion_lat": 0.0, "lon": -77.044658, "name": "d3ae737f86b5bf40d7c6f0107eea0c8d"}, {"bike_id": "50fe30c031ef8b206f9fc5cd3ef2eeea", "type": "electric_scooter", "is_disabled": 0, "lat": 38.91395983333334, "rental_uris": {"ios": "https://dc.lft.to/lastmile_qr_scan", "android": "https://dc.lft.to/lastmile_qr_scan"}, "is_reserved": 0, "fusion_lon": 0.0, "fusion_lat": 0.0, "lon": -77.031815, "name": "50fe30c031ef8b206f9fc5cd3ef2eeea"}, {"bike_id": "fc891eb393dff3419af7ee0054eb9f97", "type": "electric_scooter", "is_disabled": 0, "lat": 38.9162795, "rental_uris": {"ios": "https://dc.lft.to/lastmile_qr_scan", "android": "https://dc.lft.to/lastmile_qr_scan"}, "is_reserved": 0, "fusion_lon": 0.0, "fusion_lat": 0.0, "lon": -77.0254865, "name": "fc891eb393dff3419af7ee0054eb9f97"}, {"bike_id": "18bdf55b5ccaf6698bee822beec482d4", "type": "electric_scooter", "is_disabled": 0, "lat": 38.89177683333333, "rental_uris": {"ios": "https://dc.lft.to/lastmile_qr_scan", "android": "https://dc.lft.to/lastmile_qr_scan"}, "is_reserved": 0, "fusion_lon": 0.0, "fusion_lat": 0.0, "lon": -77.0220545, "name": "18bdf55b5ccaf6698bee822beec482d4"}, {"bike_id": "078e96a337df22c7aae5af1e9fe8bffe", "type": "electric_scooter", "is_disabled": 0, "lat": 38.910156666666666, "rental_uris": {"ios": "https://dc.lft.to/lastmile_qr_scan", "android": "https://dc.lft.to/lastmile_qr_scan"}, "is_reserved": 0, "fusion_lon": 0.0, "fusion_lat": 0.0, "lon": -77.0366055, "name": "078e96a337df22c7aae5af1e9fe8bffe"}, {"bike_id": "3f0db56fb66fa97f4fef9f3b7e33766d", "type": "electric_scooter", "is_disabled": 0, "lat": 38.87180383333333, "rental_uris": {"ios": "https://dc.lft.to/lastmile_qr_scan", "android": "https://dc.lft.to/lastmile_qr_scan"}, "is_reserved": 0, "fusion_lon": 0.0, "fusion_lat": 0.0, "lon": -77.01220683333334, "name": "3f0db56fb66fa97f4fef9f3b7e33766d"}, {"bike_id": "58927e52ed86348dc9825249f771bbc1", "type": "electric_scooter", "is_disabled": 0, "lat": 38.909578833333335, "rental_uris": {"ios": "https://dc.lft.to/lastmile_qr_scan", "android": "https://dc.lft.to/lastmile_qr_scan"}, "is_reserved": 0, "fusion_lon": 0.0, "fusion_lat": 0.0, "lon": -77.0394135, "name": "58927e52ed86348dc9825249f771bbc1"}, {"bike_id": "2b913078c61d1d1c6a8482f41bccc430", "type": "electric_scooter", "is_disabled": 0, "lat": 38.91942566666667, "rental_uris": {"ios": "https://dc.lft.to/lastmile_qr_scan", "android": "https://dc.lft.to/lastmile_qr_scan"}, "is_reserved": 0, "fusion_lon": 0.0, "fusion_lat": 0.0, "lon": -77.01391616666666, "name": "2b913078c61d1d1c6a8482f41bccc430"}, {"bike_id": "0ba43a9feef5eb9115da662928529f61", "type": "electric_scooter", "is_disabled": 0, "lat": 38.926663833333336, "rental_uris": {"ios": "https://dc.lft.to/lastmile_qr_scan", "android": "https://dc.lft.to/lastmile_qr_scan"}, "is_reserved": 0, "fusion_lon": 0.0, "fusion_lat": 0.0, "lon": -77.02699716666666, "name": "0ba43a9feef5eb9115da662928529f61"}, {"bike_id": "c3eb8597837c9a8d4aecafa53511459a", "type": "electric_scooter", "is_disabled": 0, "lat": 38.903849, "rental_uris": {"ios": "https://dc.lft.to/lastmile_qr_scan", "android": "https://dc.lft.to/lastmile_qr_scan"}, "is_reserved": 0, "fusion_lon": 0.0, "fusion_lat": 0.0, "lon": -76.9820185, "name": "c3eb8597837c9a8d4aecafa53511459a"}, {"bike_id": "3fec07aa19bad29407037742e982b055", "type": "electric_scooter", "is_disabled": 0, "lat": 38.932597333333334, "rental_uris": {"ios": "https://dc.lft.to/lastmile_qr_scan", "android": "https://dc.lft.to/lastmile_qr_scan"}, "is_reserved": 0, "fusion_lon": 0.0, "fusion_lat": 0.0, "lon": -77.03270183333333, "name": "3fec07aa19bad29407037742e982b055"}, {"bike_id": "8710f3f60f4f505bc472d1f0de6de69a", "type": "electric_scooter", "is_disabled": 0, "lat": 38.932739, "rental_uris": {"ios": "https://dc.lft.to/lastmile_qr_scan", "android": "https://dc.lft.to/lastmile_qr_scan"}, "is_reserved": 0, "fusion_lon": 0.0, "fusion_lat": 0.0, "lon": -77.045353, "name": "8710f3f60f4f505bc472d1f0de6de69a"}, {"bike_id": "341c883455c0c2a49e6b617001beddb1", "type": "electric_scooter", "is_disabled": 0, "lat": 38.9199385, "rental_uris": {"ios": "https://dc.lft.to/lastmile_qr_scan", "android": "https://dc.lft.to/lastmile_qr_scan"}, "is_reserved": 0, "fusion_lon": 0.0, "fusion_lat": 0.0, "lon": -77.0323075, "name": "341c883455c0c2a49e6b617001beddb1"}, {"bike_id": "4a3ff2291ae09cbdf3c9b59b4d73b6f3", "type": "electric_scooter", "is_disabled": 0, "lat": 38.896130166666666, "rental_uris": {"ios": "https://dc.lft.to/lastmile_qr_scan", "android": "https://dc.lft.to/lastmile_qr_scan"}, "is_reserved": 0, "fusion_lon": 0.0, "fusion_lat": 0.0, "lon": -76.98161166666667, "name": "4a3ff2291ae09cbdf3c9b59b4d73b6f3"}, {"bike_id": "1afc82e35f2d051a5183512f0422c40c", "type": "electric_scooter", "is_disabled": 0, "lat": 38.92409633333333, "rental_uris": {"ios": "https://dc.lft.to/lastmile_qr_scan", "android": "https://dc.lft.to/lastmile_qr_scan"}, "is_reserved": 0, "fusion_lon": 0.0, "fusion_lat": 0.0, "lon": -77.02130966666667, "name": "1afc82e35f2d051a5183512f0422c40c"}, {"bike_id": "036f4fb4177bbe91440bc8974c5304c6", "type": "electric_scooter", "is_disabled": 0, "lat": 38.917554, "rental_uris": {"ios": "https://dc.lft.to/lastmile_qr_scan", "android": "https://dc.lft.to/lastmile_qr_scan"}, "is_reserved": 0, "fusion_lon": 0.0, "fusion_lat": 0.0, "lon": -77.04764316666666, "name": "036f4fb4177bbe91440bc8974c5304c6"}, {"bike_id": "f05e3c6c503267f9f442076cb30548fb", "type": "electric_scooter", "is_disabled": 0, "lat": 38.91250016666667, "rental_uris": {"ios": "https://dc.lft.to/lastmile_qr_scan", "android": "https://dc.lft.to/lastmile_qr_scan"}, "is_reserved": 0, "fusion_lon": 0.0, "fusion_lat": 0.0, "lon": -77.038302, "name": "f05e3c6c503267f9f442076cb30548fb"}, {"bike_id": "12572f0d52e5b1f6b0a958a0056a5d67", "type": "electric_scooter", "is_disabled": 0, "lat": 38.88466966666667, "rental_uris": {"ios": "https://dc.lft.to/lastmile_qr_scan", "android": "https://dc.lft.to/lastmile_qr_scan"}, "is_reserved": 0, "fusion_lon": 0.0, "fusion_lat": 0.0, "lon": -77.02657233333333, "name": "12572f0d52e5b1f6b0a958a0056a5d67"}, {"bike_id": "b8229623d64f9c345af8f98feae715c6", "type": "electric_scooter", "is_disabled": 0, "lat": 38.904879666666666, "rental_uris": {"ios": "https://dc.lft.to/lastmile_qr_scan", "android": "https://dc.lft.to/lastmile_qr_scan"}, "is_reserved": 0, "fusion_lon": 0.0, "fusion_lat": 0.0, "lon": -77.061122, "name": "b8229623d64f9c345af8f98feae715c6"}, {"bike_id": "7cb699ae42c3612d42020347c43e5cb3", "type": "electric_scooter", "is_disabled": 0, "lat": 38.9198825, "rental_uris": {"ios": "https://dc.lft.to/lastmile_qr_scan", "android": "https://dc.lft.to/lastmile_qr_scan"}, "is_reserved": 0, "fusion_lon": 0.0, "fusion_lat": 0.0, "lon": -77.03232433333334, "name": "7cb699ae42c3612d42020347c43e5cb3"}, {"bike_id": "20a146c36f3242d55c14fa273892f391", "type": "electric_scooter", "is_disabled": 0, "lat": 38.91349683333333, "rental_uris": {"ios": "https://dc.lft.to/lastmile_qr_scan", "android": "https://dc.lft.to/lastmile_qr_scan"}, "is_reserved": 0, "fusion_lon": 0.0, "fusion_lat": 0.0, "lon": -77.0256495, "name": "20a146c36f3242d55c14fa273892f391"}, {"bike_id": "00c89f6e7de5f1753bfb3e03d32f73b4", "type": "electric_scooter", "is_disabled": 0, "lat": 38.90246066666667, "rental_uris": {"ios": "https://dc.lft.to/lastmile_qr_scan", "android": "https://dc.lft.to/lastmile_qr_scan"}, "is_reserved": 0, "fusion_lon": 0.0, "fusion_lat": 0.0, "lon": -77.01701466666667, "name": "00c89f6e7de5f1753bfb3e03d32f73b4"}, {"bike_id": "d97e7a9e0153250f3f42184ff98c77a3", "type": "electric_scooter", "is_disabled": 0, "lat": 38.90540133333333, "rental_uris": {"ios": "https://dc.lft.to/lastmile_qr_scan", "android": "https://dc.lft.to/lastmile_qr_scan"}, "is_reserved": 0, "fusion_lon": 0.0, "fusion_lat": 0.0, "lon": -77.04267616666667, "name": "d97e7a9e0153250f3f42184ff98c77a3"}, {"bike_id": "ad47777e27ce7d8fd8e03b86d32922fc", "type": "electric_scooter", "is_disabled": 0, "lat": 38.9290295, "rental_uris": {"ios": "https://dc.lft.to/lastmile_qr_scan", "android": "https://dc.lft.to/lastmile_qr_scan"}, "is_reserved": 0, "fusion_lon": 0.0, "fusion_lat": 0.0, "lon": -77.03621416666667, "name": "ad47777e27ce7d8fd8e03b86d32922fc"}, {"bike_id": "fc5a4107075a1894f48b852f3c750f68", "type": "electric_scooter", "is_disabled": 0, "lat": 38.887640833333336, "rental_uris": {"ios": "https://dc.lft.to/lastmile_qr_scan", "android": "https://dc.lft.to/lastmile_qr_scan"}, "is_reserved": 0, "fusion_lon": 0.0, "fusion_lat": 0.0, "lon": -76.95599033333333, "name": "fc5a4107075a1894f48b852f3c750f68"}, {"bike_id": "4dd0e1d56a12f8d9ed0270d42810c440", "type": "electric_scooter", "is_disabled": 0, "lat": 38.91420333333333, "rental_uris": {"ios": "https://dc.lft.to/lastmile_qr_scan", "android": "https://dc.lft.to/lastmile_qr_scan"}, "is_reserved": 0, "fusion_lon": 0.0, "fusion_lat": 0.0, "lon": -77.04489583333333, "name": "4dd0e1d56a12f8d9ed0270d42810c440"}, {"bike_id": "0a2a14f69b705822677120ffd721182d", "type": "electric_bike", "is_disabled": 0, "lat": 38.93362316666666, "rental_uris": {"ios": "https://dc.lft.to/lastmile_qr_scan", "android": "https://dc.lft.to/lastmile_qr_scan"}, "is_reserved": 0, "fusion_lon": 0.0, "fusion_lat": 0.0, "lon": -77.03525383333333, "name": "0a2a14f69b705822677120ffd721182d"}, {"bike_id": "1adc885204dc53cc85772081d9571652", "type": "electric_bike", "is_disabled": 0, "lat": 38.947813, "rental_uris": {"ios": "https://dc.lft.to/lastmile_qr_scan", "android": "https://dc.lft.to/lastmile_qr_scan"}, "is_reserved": 0, "fusion_lon": 0.0, "fusion_lat": 0.0, "lon": -76.972108, "name": "1adc885204dc53cc85772081d9571652"}, {"bike_id": "e44ab4432812785af99bd3a9f45b0b93", "type": "electric_scooter", "is_disabled": 0, "lat": 38.92529916666667, "rental_uris": {"ios": "https://dc.lft.to/lastmile_qr_scan", "android": "https://dc.lft.to/lastmile_qr_scan"}, "is_reserved": 0, "fusion_lon": 0.0, "fusion_lat": 0.0, "lon": -77.03262833333334, "name": "e44ab4432812785af99bd3a9f45b0b93"}, {"bike_id": "92f90a34710fa1b7dfa9f430b9cc6265", "type": "electric_scooter", "is_disabled": 0, "lat": 38.90472533333333, "rental_uris": {"ios": "https://dc.lft.to/lastmile_qr_scan", "android": "https://dc.lft.to/lastmile_qr_scan"}, "is_reserved": 0, "fusion_lon": 0.0, "fusion_lat": 0.0, "lon": -77.05327816666667, "name": "92f90a34710fa1b7dfa9f430b9cc6265"}, {"bike_id": "bedfac3b8105ef5c4e93fd4cc280bbae", "type": "electric_bike", "is_disabled": 0, "lat": 39.024323333333335, "rental_uris": {"ios": "https://dc.lft.to/lastmile_qr_scan", "android": "https://dc.lft.to/lastmile_qr_scan"}, "is_reserved": 0, "fusion_lon": 0.0, "fusion_lat": 0.0, "lon": -77.13101733333333, "name": "bedfac3b8105ef5c4e93fd4cc280bbae"}, {"bike_id": "9851f4616abec4457fcc26feef7c4944", "type": "electric_scooter", "is_disabled": 0, "lat": 38.90557116666667, "rental_uris": {"ios": "https://dc.lft.to/lastmile_qr_scan", "android": "https://dc.lft.to/lastmile_qr_scan"}, "is_reserved": 0, "fusion_lon": 0.0, "fusion_lat": 0.0, "lon": -77.0445975, "name": "9851f4616abec4457fcc26feef7c4944"}, {"bike_id": "0a1a0c134882a7b25398edbece71bb0c", "type": "electric_scooter", "is_disabled": 0, "lat": 38.941814666666666, "rental_uris": {"ios": "https://dc.lft.to/lastmile_qr_scan", "android": "https://dc.lft.to/lastmile_qr_scan"}, "is_reserved": 0, "fusion_lon": 0.0, "fusion_lat": 0.0, "lon": -77.02486766666667, "name": "0a1a0c134882a7b25398edbece71bb0c"}, {"bike_id": "a185eea6fed7617a8eda89bb00c78da3", "type": "electric_bike", "is_disabled": 0, "lat": 38.82943516666667, "rental_uris": {"ios": "https://dc.lft.to/lastmile_qr_scan", "android": "https://dc.lft.to/lastmile_qr_scan"}, "is_reserved": 0, "fusion_lon": 0.0, "fusion_lat": 0.0, "lon": -77.12354583333334, "name": "a185eea6fed7617a8eda89bb00c78da3"}, {"bike_id": "71ce61f4288b7a7d0b53ff7875a170bb", "type": "electric_scooter", "is_disabled": 0, "lat": 38.859153, "rental_uris": {"ios": "https://dc.lft.to/lastmile_qr_scan", "android": "https://dc.lft.to/lastmile_qr_scan"}, "is_reserved": 0, "fusion_lon": 0.0, "fusion_lat": 0.0, "lon": -76.98981266666667, "name": "71ce61f4288b7a7d0b53ff7875a170bb"}, {"bike_id": "5e390d04c86e4b1592dc6164ec91d9b9", "type": "electric_scooter", "is_disabled": 0, "lat": 38.916877, "rental_uris": {"ios": "https://dc.lft.to/lastmile_qr_scan", "android": "https://dc.lft.to/lastmile_qr_scan"}, "is_reserved": 0, "fusion_lon": 0.0, "fusion_lat": 0.0, "lon": -77.03146766666667, "name": "5e390d04c86e4b1592dc6164ec91d9b9"}, {"bike_id": "81ff9501be873a9d6874c3c7368a4ba7", "type": "electric_scooter", "is_disabled": 0, "lat": 38.926247333333336, "rental_uris": {"ios": "https://dc.lft.to/lastmile_qr_scan", "android": "https://dc.lft.to/lastmile_qr_scan"}, "is_reserved": 0, "fusion_lon": 0.0, "fusion_lat": 0.0, "lon": -77.02144483333333, "name": "81ff9501be873a9d6874c3c7368a4ba7"}, {"bike_id": "2327ab6f3f52e6079773de44f2f03d60", "type": "electric_scooter", "is_disabled": 0, "lat": 38.93638166666667, "rental_uris": {"ios": "https://dc.lft.to/lastmile_qr_scan", "android": "https://dc.lft.to/lastmile_qr_scan"}, "is_reserved": 0, "fusion_lon": 0.0, "fusion_lat": 0.0, "lon": -77.03263283333334, "name": "2327ab6f3f52e6079773de44f2f03d60"}, {"bike_id": "2e7a7e19733d70e62f25b124236ba5db", "type": "electric_scooter", "is_disabled": 0, "lat": 38.897458666666665, "rental_uris": {"ios": "https://dc.lft.to/lastmile_qr_scan", "android": "https://dc.lft.to/lastmile_qr_scan"}, "is_reserved": 0, "fusion_lon": 0.0, "fusion_lat": 0.0, "lon": -77.02967066666666, "name": "2e7a7e19733d70e62f25b124236ba5db"}, {"bike_id": "e80947c24c0b48d4ca6b8ee5871955f3", "type": "electric_scooter", "is_disabled": 0, "lat": 38.907162, "rental_uris": {"ios": "https://dc.lft.to/lastmile_qr_scan", "android": "https://dc.lft.to/lastmile_qr_scan"}, "is_reserved": 0, "fusion_lon": 0.0, "fusion_lat": 0.0, "lon": -77.00970133333334, "name": "e80947c24c0b48d4ca6b8ee5871955f3"}, {"bike_id": "f9782b98911d0a6d84bf717e1b449acd", "type": "electric_scooter", "is_disabled": 0, "lat": 38.9211105, "rental_uris": {"ios": "https://dc.lft.to/lastmile_qr_scan", "android": "https://dc.lft.to/lastmile_qr_scan"}, "is_reserved": 0, "fusion_lon": 0.0, "fusion_lat": 0.0, "lon": -77.0317535, "name": "f9782b98911d0a6d84bf717e1b449acd"}, {"bike_id": "fcde1d356b7a368db9f4ee3520693103", "type": "electric_bike", "is_disabled": 0, "lat": 38.892868, "rental_uris": {"ios": "https://dc.lft.to/lastmile_qr_scan", "android": "https://dc.lft.to/lastmile_qr_scan"}, "is_reserved": 0, "fusion_lon": 0.0, "fusion_lat": 0.0, "lon": -76.97614366666667, "name": "fcde1d356b7a368db9f4ee3520693103"}, {"bike_id": "e30fe9ca2d31180f62bd615fa5a211df", "type": "electric_scooter", "is_disabled": 0, "lat": 38.932516, "rental_uris": {"ios": "https://dc.lft.to/lastmile_qr_scan", "android": "https://dc.lft.to/lastmile_qr_scan"}, "is_reserved": 0, "fusion_lon": 0.0, "fusion_lat": 0.0, "lon": -77.03257133333334, "name": "e30fe9ca2d31180f62bd615fa5a211df"}, {"bike_id": "abf50e8e43d8a5989cf543152949dfb3", "type": "electric_bike", "is_disabled": 0, "lat": 38.899851166666664, "rental_uris": {"ios": "https://dc.lft.to/lastmile_qr_scan", "android": "https://dc.lft.to/lastmile_qr_scan"}, "is_reserved": 0, "fusion_lon": 0.0, "fusion_lat": 0.0, "lon": -77.02207016666667, "name": "abf50e8e43d8a5989cf543152949dfb3"}, {"bike_id": "8700c22cd335b9b607195cffc11c52a9", "type": "electric_scooter", "is_disabled": 0, "lat": 38.928672666666664, "rental_uris": {"ios": "https://dc.lft.to/lastmile_qr_scan", "android": "https://dc.lft.to/lastmile_qr_scan"}, "is_reserved": 0, "fusion_lon": 0.0, "fusion_lat": 0.0, "lon": -77.03286716666666, "name": "8700c22cd335b9b607195cffc11c52a9"}, {"bike_id": "7cf9a8ba77a785e6ac9d0ff56c60c317", "type": "electric_scooter", "is_disabled": 0, "lat": 38.913227, "rental_uris": {"ios": "https://dc.lft.to/lastmile_qr_scan", "android": "https://dc.lft.to/lastmile_qr_scan"}, "is_reserved": 0, "fusion_lon": 0.0, "fusion_lat": 0.0, "lon": -77.04533266666667, "name": "7cf9a8ba77a785e6ac9d0ff56c60c317"}, {"bike_id": "464e8fb228e881f26e2d566e3db4051a", "type": "electric_bike", "is_disabled": 0, "lat": 38.85431766666667, "rental_uris": {"ios": "https://dc.lft.to/lastmile_qr_scan", "android": "https://dc.lft.to/lastmile_qr_scan"}, "is_reserved": 0, "fusion_lon": 0.0, "fusion_lat": 0.0, "lon": -77.083047, "name": "464e8fb228e881f26e2d566e3db4051a"}, {"bike_id": "12bda56dd5663482eb494c96fa220cdb", "type": "electric_scooter", "is_disabled": 0, "lat": 38.905048, "rental_uris": {"ios": "https://dc.lft.to/lastmile_qr_scan", "android": "https://dc.lft.to/lastmile_qr_scan"}, "is_reserved": 0, "fusion_lon": 0.0, "fusion_lat": 0.0, "lon": -77.0601925, "name": "12bda56dd5663482eb494c96fa220cdb"}, {"bike_id": "88d133f95007dda3ce2d7381cb92f9b5", "type": "electric_scooter", "is_disabled": 0, "lat": 38.8746395, "rental_uris": {"ios": "https://dc.lft.to/lastmile_qr_scan", "android": "https://dc.lft.to/lastmile_qr_scan"}, "is_reserved": 0, "fusion_lon": 0.0, "fusion_lat": 0.0, "lon": -77.00512816666667, "name": "88d133f95007dda3ce2d7381cb92f9b5"}, {"bike_id": "ac482ed9c6a8b5cff4d87bd978abf3f2", "type": "electric_scooter", "is_disabled": 0, "lat": 38.8921415, "rental_uris": {"ios": "https://dc.lft.to/lastmile_qr_scan", "android": "https://dc.lft.to/lastmile_qr_scan"}, "is_reserved": 0, "fusion_lon": 0.0, "fusion_lat": 0.0, "lon": -77.03185683333334, "name": "ac482ed9c6a8b5cff4d87bd978abf3f2"}, {"bike_id": "4b9b55cba66efc8da810fcc0f5b2749f", "type": "electric_scooter", "is_disabled": 0, "lat": 38.90406683333333, "rental_uris": {"ios": "https://dc.lft.to/lastmile_qr_scan", "android": "https://dc.lft.to/lastmile_qr_scan"}, "is_reserved": 0, "fusion_lon": 0.0, "fusion_lat": 0.0, "lon": -77.04349533333334, "name": "4b9b55cba66efc8da810fcc0f5b2749f"}, {"bike_id": "c58c645f09264f4f6e89830af9eb5ed1", "type": "electric_scooter", "is_disabled": 0, "lat": 38.92864316666667, "rental_uris": {"ios": "https://dc.lft.to/lastmile_qr_scan", "android": "https://dc.lft.to/lastmile_qr_scan"}, "is_reserved": 0, "fusion_lon": 0.0, "fusion_lat": 0.0, "lon": -77.021741, "name": "c58c645f09264f4f6e89830af9eb5ed1"}, {"bike_id": "904b0e129f07cf70bb94ad3f9b236cd4", "type": "electric_scooter", "is_disabled": 0, "lat": 38.92196966666667, "rental_uris": {"ios": "https://dc.lft.to/lastmile_qr_scan", "android": "https://dc.lft.to/lastmile_qr_scan"}, "is_reserved": 0, "fusion_lon": 0.0, "fusion_lat": 0.0, "lon": -77.03894933333333, "name": "904b0e129f07cf70bb94ad3f9b236cd4"}, {"bike_id": "63662adf9733faeeb57ccca239a3bce2", "type": "electric_scooter", "is_disabled": 0, "lat": 38.9185495, "rental_uris": {"ios": "https://dc.lft.to/lastmile_qr_scan", "android": "https://dc.lft.to/lastmile_qr_scan"}, "is_reserved": 0, "fusion_lon": 0.0, "fusion_lat": 0.0, "lon": -77.040359, "name": "63662adf9733faeeb57ccca239a3bce2"}, {"bike_id": "f7c24366cb6fe6e86878cb5e03d0dc78", "type": "electric_scooter", "is_disabled": 0, "lat": 38.92234933333334, "rental_uris": {"ios": "https://dc.lft.to/lastmile_qr_scan", "android": "https://dc.lft.to/lastmile_qr_scan"}, "is_reserved": 0, "fusion_lon": 0.0, "fusion_lat": 0.0, "lon": -77.03517216666667, "name": "f7c24366cb6fe6e86878cb5e03d0dc78"}, {"bike_id": "7c8435f0d3e402cce2aa263cb0d6f0e2", "type": "electric_scooter", "is_disabled": 0, "lat": 38.90400366666667, "rental_uris": {"ios": "https://dc.lft.to/lastmile_qr_scan", "android": "https://dc.lft.to/lastmile_qr_scan"}, "is_reserved": 0, "fusion_lon": 0.0, "fusion_lat": 0.0, "lon": -77.043099, "name": "7c8435f0d3e402cce2aa263cb0d6f0e2"}, {"bike_id": "b4a40030ef334a769e2162915892f1f6", "type": "electric_scooter", "is_disabled": 0, "lat": 38.8804075, "rental_uris": {"ios": "https://dc.lft.to/lastmile_qr_scan", "android": "https://dc.lft.to/lastmile_qr_scan"}, "is_reserved": 0, "fusion_lon": 0.0, "fusion_lat": 0.0, "lon": -76.93215683333334, "name": "b4a40030ef334a769e2162915892f1f6"}, {"bike_id": "42fa9e7f42bc508f038446117c2c726a", "type": "electric_scooter", "is_disabled": 0, "lat": 38.9321825, "rental_uris": {"ios": "https://dc.lft.to/lastmile_qr_scan", "android": "https://dc.lft.to/lastmile_qr_scan"}, "is_reserved": 0, "fusion_lon": 0.0, "fusion_lat": 0.0, "lon": -76.99603366666666, "name": "42fa9e7f42bc508f038446117c2c726a"}, {"bike_id": "6780a2d3ecd856f72a45ae47a82c3976", "type": "electric_scooter", "is_disabled": 0, "lat": 38.92643783333333, "rental_uris": {"ios": "https://dc.lft.to/lastmile_qr_scan", "android": "https://dc.lft.to/lastmile_qr_scan"}, "is_reserved": 0, "fusion_lon": 0.0, "fusion_lat": 0.0, "lon": -77.03837483333334, "name": "6780a2d3ecd856f72a45ae47a82c3976"}, {"bike_id": "2c3601fd879883e3ed8650108f750797", "type": "electric_scooter", "is_disabled": 0, "lat": 38.92856666666667, "rental_uris": {"ios": "https://dc.lft.to/lastmile_qr_scan", "android": "https://dc.lft.to/lastmile_qr_scan"}, "is_reserved": 0, "fusion_lon": 0.0, "fusion_lat": 0.0, "lon": -77.0310175, "name": "2c3601fd879883e3ed8650108f750797"}, {"bike_id": "b5d46f8b71119387ea5e9d154de9bd21", "type": "electric_scooter", "is_disabled": 0, "lat": 38.8997945, "rental_uris": {"ios": "https://dc.lft.to/lastmile_qr_scan", "android": "https://dc.lft.to/lastmile_qr_scan"}, "is_reserved": 0, "fusion_lon": 0.0, "fusion_lat": 0.0, "lon": -77.03214483333333, "name": "b5d46f8b71119387ea5e9d154de9bd21"}, {"bike_id": "8738351e84b4019a3b8affebd628508a", "type": "electric_scooter", "is_disabled": 0, "lat": 38.91683333333334, "rental_uris": {"ios": "https://dc.lft.to/lastmile_qr_scan", "android": "https://dc.lft.to/lastmile_qr_scan"}, "is_reserved": 0, "fusion_lon": 0.0, "fusion_lat": 0.0, "lon": -77.03196316666667, "name": "8738351e84b4019a3b8affebd628508a"}, {"bike_id": "5a6d58f2cb69766a14204e9913ae462d", "type": "electric_scooter", "is_disabled": 0, "lat": 38.9333085, "rental_uris": {"ios": "https://dc.lft.to/lastmile_qr_scan", "android": "https://dc.lft.to/lastmile_qr_scan"}, "is_reserved": 0, "fusion_lon": 0.0, "fusion_lat": 0.0, "lon": -77.03874966666666, "name": "5a6d58f2cb69766a14204e9913ae462d"}, {"bike_id": "5be8cef48db2adcf12c5ef6fcb6ccaad", "type": "electric_scooter", "is_disabled": 0, "lat": 38.901127, "rental_uris": {"ios": "https://dc.lft.to/lastmile_qr_scan", "android": "https://dc.lft.to/lastmile_qr_scan"}, "is_reserved": 0, "fusion_lon": 0.0, "fusion_lat": 0.0, "lon": -77.0268005, "name": "5be8cef48db2adcf12c5ef6fcb6ccaad"}, {"bike_id": "224b23c41fdb8bdea96637dd50557407", "type": "electric_scooter", "is_disabled": 0, "lat": 38.91079, "rental_uris": {"ios": "https://dc.lft.to/lastmile_qr_scan", "android": "https://dc.lft.to/lastmile_qr_scan"}, "is_reserved": 0, "fusion_lon": 0.0, "fusion_lat": 0.0, "lon": -77.037252, "name": "224b23c41fdb8bdea96637dd50557407"}, {"bike_id": "278e118af914d8177547308586afb674", "type": "electric_scooter", "is_disabled": 0, "lat": 38.907159666666665, "rental_uris": {"ios": "https://dc.lft.to/lastmile_qr_scan", "android": "https://dc.lft.to/lastmile_qr_scan"}, "is_reserved": 0, "fusion_lon": 0.0, "fusion_lat": 0.0, "lon": -77.0111425, "name": "278e118af914d8177547308586afb674"}, {"bike_id": "f9e066b9ce25607182b526987fae9436", "type": "electric_scooter", "is_disabled": 0, "lat": 38.9052025, "rental_uris": {"ios": "https://dc.lft.to/lastmile_qr_scan", "android": "https://dc.lft.to/lastmile_qr_scan"}, "is_reserved": 0, "fusion_lon": 0.0, "fusion_lat": 0.0, "lon": -77.05933233333333, "name": "f9e066b9ce25607182b526987fae9436"}, {"bike_id": "3ba95565c8581bf5179091aba26b2214", "type": "electric_scooter", "is_disabled": 0, "lat": 38.9180445, "rental_uris": {"ios": "https://dc.lft.to/lastmile_qr_scan", "android": "https://dc.lft.to/lastmile_qr_scan"}, "is_reserved": 0, "fusion_lon": 0.0, "fusion_lat": 0.0, "lon": -77.00764466666666, "name": "3ba95565c8581bf5179091aba26b2214"}, {"bike_id": "85d80d4250bbc8b3667f554108a8ab04", "type": "electric_scooter", "is_disabled": 0, "lat": 38.9020015, "rental_uris": {"ios": "https://dc.lft.to/lastmile_qr_scan", "android": "https://dc.lft.to/lastmile_qr_scan"}, "is_reserved": 0, "fusion_lon": 0.0, "fusion_lat": 0.0, "lon": -77.01779, "name": "85d80d4250bbc8b3667f554108a8ab04"}, {"bike_id": "80192aa767b3442e42e7263d7851f111", "type": "electric_scooter", "is_disabled": 0, "lat": 38.91174783333334, "rental_uris": {"ios": "https://dc.lft.to/lastmile_qr_scan", "android": "https://dc.lft.to/lastmile_qr_scan"}, "is_reserved": 0, "fusion_lon": 0.0, "fusion_lat": 0.0, "lon": -77.0609255, "name": "80192aa767b3442e42e7263d7851f111"}, {"bike_id": "d85f033632d2669f79cc8aa3a44c6ed9", "type": "electric_scooter", "is_disabled": 0, "lat": 38.897022166666666, "rental_uris": {"ios": "https://dc.lft.to/lastmile_qr_scan", "android": "https://dc.lft.to/lastmile_qr_scan"}, "is_reserved": 0, "fusion_lon": 0.0, "fusion_lat": 0.0, "lon": -76.93000716666667, "name": "d85f033632d2669f79cc8aa3a44c6ed9"}, {"bike_id": "79d7f6ba3988db556d25e04596e8f5de", "type": "electric_scooter", "is_disabled": 0, "lat": 38.91448533333333, "rental_uris": {"ios": "https://dc.lft.to/lastmile_qr_scan", "android": "https://dc.lft.to/lastmile_qr_scan"}, "is_reserved": 0, "fusion_lon": 0.0, "fusion_lat": 0.0, "lon": -77.02174433333333, "name": "79d7f6ba3988db556d25e04596e8f5de"}, {"bike_id": "0bf60648b56219d4380913afbb8cbe86", "type": "electric_scooter", "is_disabled": 0, "lat": 38.8745395, "rental_uris": {"ios": "https://dc.lft.to/lastmile_qr_scan", "android": "https://dc.lft.to/lastmile_qr_scan"}, "is_reserved": 0, "fusion_lon": 0.0, "fusion_lat": 0.0, "lon": -77.00310383333333, "name": "0bf60648b56219d4380913afbb8cbe86"}, {"bike_id": "305413a69fa63f23b6b424aa08bdd6a1", "type": "electric_scooter", "is_disabled": 0, "lat": 38.903947, "rental_uris": {"ios": "https://dc.lft.to/lastmile_qr_scan", "android": "https://dc.lft.to/lastmile_qr_scan"}, "is_reserved": 0, "fusion_lon": 0.0, "fusion_lat": 0.0, "lon": -77.06512133333334, "name": "305413a69fa63f23b6b424aa08bdd6a1"}, {"bike_id": "943b4bb3e96449deb4ebc58b2e84dfa5", "type": "electric_scooter", "is_disabled": 0, "lat": 38.900105833333335, "rental_uris": {"ios": "https://dc.lft.to/lastmile_qr_scan", "android": "https://dc.lft.to/lastmile_qr_scan"}, "is_reserved": 0, "fusion_lon": 0.0, "fusion_lat": 0.0, "lon": -76.99604066666667, "name": "943b4bb3e96449deb4ebc58b2e84dfa5"}, {"bike_id": "0db30110527b207f2ef813fbcb020c26", "type": "electric_scooter", "is_disabled": 0, "lat": 38.89218533333333, "rental_uris": {"ios": "https://dc.lft.to/lastmile_qr_scan", "android": "https://dc.lft.to/lastmile_qr_scan"}, "is_reserved": 0, "fusion_lon": 0.0, "fusion_lat": 0.0, "lon": -77.02212466666667, "name": "0db30110527b207f2ef813fbcb020c26"}, {"bike_id": "37f0d2ea8ce0ad698f5ba2dac919fc4e", "type": "electric_scooter", "is_disabled": 0, "lat": 38.9101755, "rental_uris": {"ios": "https://dc.lft.to/lastmile_qr_scan", "android": "https://dc.lft.to/lastmile_qr_scan"}, "is_reserved": 0, "fusion_lon": 0.0, "fusion_lat": 0.0, "lon": -77.05279283333333, "name": "37f0d2ea8ce0ad698f5ba2dac919fc4e"}, {"bike_id": "00deac3e59212a3d8dd51378e274ac8e", "type": "electric_scooter", "is_disabled": 0, "lat": 38.892191833333335, "rental_uris": {"ios": "https://dc.lft.to/lastmile_qr_scan", "android": "https://dc.lft.to/lastmile_qr_scan"}, "is_reserved": 0, "fusion_lon": 0.0, "fusion_lat": 0.0, "lon": -77.04859616666667, "name": "00deac3e59212a3d8dd51378e274ac8e"}, {"bike_id": "f9bea8ce24123c3ad428bac7afc4eb22", "type": "electric_scooter", "is_disabled": 0, "lat": 38.9428985, "rental_uris": {"ios": "https://dc.lft.to/lastmile_qr_scan", "android": "https://dc.lft.to/lastmile_qr_scan"}, "is_reserved": 0, "fusion_lon": 0.0, "fusion_lat": 0.0, "lon": -77.00488716666666, "name": "f9bea8ce24123c3ad428bac7afc4eb22"}, {"bike_id": "024e2f38c17232382f0b2d31f6e01326", "type": "electric_bike", "is_disabled": 0, "lat": 38.874787833333336, "rental_uris": {"ios": "https://dc.lft.to/lastmile_qr_scan", "android": "https://dc.lft.to/lastmile_qr_scan"}, "is_reserved": 0, "fusion_lon": 0.0, "fusion_lat": 0.0, "lon": -76.96526133333333, "name": "024e2f38c17232382f0b2d31f6e01326"}, {"bike_id": "fe150265178f0f3c648252357e746fee", "type": "electric_scooter", "is_disabled": 0, "lat": 38.8934375, "rental_uris": {"ios": "https://dc.lft.to/lastmile_qr_scan", "android": "https://dc.lft.to/lastmile_qr_scan"}, "is_reserved": 0, "fusion_lon": 0.0, "fusion_lat": 0.0, "lon": -76.98088383333334, "name": "fe150265178f0f3c648252357e746fee"}, {"bike_id": "0a34066d79f2d4e23ba84e1a53d74402", "type": "electric_scooter", "is_disabled": 0, "lat": 38.92470816666667, "rental_uris": {"ios": "https://dc.lft.to/lastmile_qr_scan", "android": "https://dc.lft.to/lastmile_qr_scan"}, "is_reserved": 0, "fusion_lon": 0.0, "fusion_lat": 0.0, "lon": -77.0291225, "name": "0a34066d79f2d4e23ba84e1a53d74402"}, {"bike_id": "18ef2c416c925492f4e94bbcac31466a", "type": "electric_scooter", "is_disabled": 0, "lat": 38.897055, "rental_uris": {"ios": "https://dc.lft.to/lastmile_qr_scan", "android": "https://dc.lft.to/lastmile_qr_scan"}, "is_reserved": 0, "fusion_lon": 0.0, "fusion_lat": 0.0, "lon": -77.00769433333333, "name": "18ef2c416c925492f4e94bbcac31466a"}, {"bike_id": "8434e7b577906c80efa8e75c954b4c9d", "type": "electric_scooter", "is_disabled": 0, "lat": 38.941942, "rental_uris": {"ios": "https://dc.lft.to/lastmile_qr_scan", "android": "https://dc.lft.to/lastmile_qr_scan"}, "is_reserved": 0, "fusion_lon": 0.0, "fusion_lat": 0.0, "lon": -77.02353333333333, "name": "8434e7b577906c80efa8e75c954b4c9d"}, {"bike_id": "fb0c77a6b3bd440dcb178e6ea417c186", "type": "electric_scooter", "is_disabled": 0, "lat": 38.912930833333334, "rental_uris": {"ios": "https://dc.lft.to/lastmile_qr_scan", "android": "https://dc.lft.to/lastmile_qr_scan"}, "is_reserved": 0, "fusion_lon": 0.0, "fusion_lat": 0.0, "lon": -77.01968316666667, "name": "fb0c77a6b3bd440dcb178e6ea417c186"}, {"bike_id": "7c2919b982d829f1a4537894e0b26304", "type": "electric_scooter", "is_disabled": 0, "lat": 38.9105405, "rental_uris": {"ios": "https://dc.lft.to/lastmile_qr_scan", "android": "https://dc.lft.to/lastmile_qr_scan"}, "is_reserved": 0, "fusion_lon": 0.0, "fusion_lat": 0.0, "lon": -77.044925, "name": "7c2919b982d829f1a4537894e0b26304"}, {"bike_id": "9c65cd799f70ccde92cbe3ce53f5700a", "type": "electric_scooter", "is_disabled": 0, "lat": 38.87364566666667, "rental_uris": {"ios": "https://dc.lft.to/lastmile_qr_scan", "android": "https://dc.lft.to/lastmile_qr_scan"}, "is_reserved": 0, "fusion_lon": 0.0, "fusion_lat": 0.0, "lon": -77.00146983333333, "name": "9c65cd799f70ccde92cbe3ce53f5700a"}, {"bike_id": "b05110c72cab078f7837fedab9ae79c1", "type": "electric_bike", "is_disabled": 0, "lat": 38.874985333333335, "rental_uris": {"ios": "https://dc.lft.to/lastmile_qr_scan", "android": "https://dc.lft.to/lastmile_qr_scan"}, "is_reserved": 0, "fusion_lon": 0.0, "fusion_lat": 0.0, "lon": -77.00807916666666, "name": "b05110c72cab078f7837fedab9ae79c1"}, {"bike_id": "c3bbf61520453c825240853f644ced25", "type": "electric_scooter", "is_disabled": 0, "lat": 38.95204666666667, "rental_uris": {"ios": "https://dc.lft.to/lastmile_qr_scan", "android": "https://dc.lft.to/lastmile_qr_scan"}, "is_reserved": 0, "fusion_lon": 0.0, "fusion_lat": 0.0, "lon": -77.06796066666666, "name": "c3bbf61520453c825240853f644ced25"}, {"bike_id": "b6388309f0cfdbbdc71256c6cb0b8725", "type": "electric_scooter", "is_disabled": 0, "lat": 38.9362065, "rental_uris": {"ios": "https://dc.lft.to/lastmile_qr_scan", "android": "https://dc.lft.to/lastmile_qr_scan"}, "is_reserved": 0, "fusion_lon": 0.0, "fusion_lat": 0.0, "lon": -77.06758716666667, "name": "b6388309f0cfdbbdc71256c6cb0b8725"}, {"bike_id": "668aff4bf5d8b55fee99d134812706b8", "type": "electric_scooter", "is_disabled": 0, "lat": 38.91261933333333, "rental_uris": {"ios": "https://dc.lft.to/lastmile_qr_scan", "android": "https://dc.lft.to/lastmile_qr_scan"}, "is_reserved": 0, "fusion_lon": 0.0, "fusion_lat": 0.0, "lon": -77.04464016666667, "name": "668aff4bf5d8b55fee99d134812706b8"}, {"bike_id": "8a484da88140228bbe1f977b1e823eef", "type": "electric_scooter", "is_disabled": 0, "lat": 38.91867366666666, "rental_uris": {"ios": "https://dc.lft.to/lastmile_qr_scan", "android": "https://dc.lft.to/lastmile_qr_scan"}, "is_reserved": 0, "fusion_lon": 0.0, "fusion_lat": 0.0, "lon": -77.0445, "name": "8a484da88140228bbe1f977b1e823eef"}, {"bike_id": "0a218a81474dbf31d86331a8e4d96d92", "type": "electric_scooter", "is_disabled": 0, "lat": 38.899389166666666, "rental_uris": {"ios": "https://dc.lft.to/lastmile_qr_scan", "android": "https://dc.lft.to/lastmile_qr_scan"}, "is_reserved": 0, "fusion_lon": 0.0, "fusion_lat": 0.0, "lon": -77.021103, "name": "0a218a81474dbf31d86331a8e4d96d92"}, {"bike_id": "d6bbeb2aed09204fdaddbf64c3ed1422", "type": "electric_bike", "is_disabled": 0, "lat": 38.87290433333333, "rental_uris": {"ios": "https://dc.lft.to/lastmile_qr_scan", "android": "https://dc.lft.to/lastmile_qr_scan"}, "is_reserved": 0, "fusion_lon": 0.0, "fusion_lat": 0.0, "lon": -77.1392205, "name": "d6bbeb2aed09204fdaddbf64c3ed1422"}, {"bike_id": "b49dbae40ac33a94b69eeebf5841f590", "type": "electric_scooter", "is_disabled": 0, "lat": 38.90750966666667, "rental_uris": {"ios": "https://dc.lft.to/lastmile_qr_scan", "android": "https://dc.lft.to/lastmile_qr_scan"}, "is_reserved": 0, "fusion_lon": 0.0, "fusion_lat": 0.0, "lon": -77.04328466666666, "name": "b49dbae40ac33a94b69eeebf5841f590"}, {"bike_id": "3cf4f92eb3507781eec354074c6182e4", "type": "electric_scooter", "is_disabled": 0, "lat": 38.9078185, "rental_uris": {"ios": "https://dc.lft.to/lastmile_qr_scan", "android": "https://dc.lft.to/lastmile_qr_scan"}, "is_reserved": 0, "fusion_lon": 0.0, "fusion_lat": 0.0, "lon": -77.04234666666666, "name": "3cf4f92eb3507781eec354074c6182e4"}, {"bike_id": "325f9b66c87735c796c5f2ff5352f829", "type": "electric_scooter", "is_disabled": 0, "lat": 38.896524166666666, "rental_uris": {"ios": "https://dc.lft.to/lastmile_qr_scan", "android": "https://dc.lft.to/lastmile_qr_scan"}, "is_reserved": 0, "fusion_lon": 0.0, "fusion_lat": 0.0, "lon": -77.02591266666667, "name": "325f9b66c87735c796c5f2ff5352f829"}, {"bike_id": "52d9e618e3d30838dedaef1ab5ec867e", "type": "electric_scooter", "is_disabled": 0, "lat": 38.90987583333333, "rental_uris": {"ios": "https://dc.lft.to/lastmile_qr_scan", "android": "https://dc.lft.to/lastmile_qr_scan"}, "is_reserved": 0, "fusion_lon": 0.0, "fusion_lat": 0.0, "lon": -77.0319375, "name": "52d9e618e3d30838dedaef1ab5ec867e"}, {"bike_id": "8aad46e18721bef2e5d121cd76e5ef63", "type": "electric_scooter", "is_disabled": 0, "lat": 38.892641166666664, "rental_uris": {"ios": "https://dc.lft.to/lastmile_qr_scan", "android": "https://dc.lft.to/lastmile_qr_scan"}, "is_reserved": 0, "fusion_lon": 0.0, "fusion_lat": 0.0, "lon": -77.0034725, "name": "8aad46e18721bef2e5d121cd76e5ef63"}, {"bike_id": "69b65105c956388a1030468503dcc483", "type": "electric_scooter", "is_disabled": 0, "lat": 38.87084933333333, "rental_uris": {"ios": "https://dc.lft.to/lastmile_qr_scan", "android": "https://dc.lft.to/lastmile_qr_scan"}, "is_reserved": 0, "fusion_lon": 0.0, "fusion_lat": 0.0, "lon": -77.01223683333333, "name": "69b65105c956388a1030468503dcc483"}, {"bike_id": "0970d4dff9cf5b172e2bfa145082257e", "type": "electric_scooter", "is_disabled": 0, "lat": 38.88402166666667, "rental_uris": {"ios": "https://dc.lft.to/lastmile_qr_scan", "android": "https://dc.lft.to/lastmile_qr_scan"}, "is_reserved": 0, "fusion_lon": 0.0, "fusion_lat": 0.0, "lon": -76.953971, "name": "0970d4dff9cf5b172e2bfa145082257e"}, {"bike_id": "2841298c4551a628c736704cefcd266a", "type": "electric_scooter", "is_disabled": 0, "lat": 38.940412, "rental_uris": {"ios": "https://dc.lft.to/lastmile_qr_scan", "android": "https://dc.lft.to/lastmile_qr_scan"}, "is_reserved": 0, "fusion_lon": 0.0, "fusion_lat": 0.0, "lon": -77.029047, "name": "2841298c4551a628c736704cefcd266a"}, {"bike_id": "7e56c8721f22a2cd42781c67e2c75ed4", "type": "electric_bike", "is_disabled": 0, "lat": 38.908303333333336, "rental_uris": {"ios": "https://dc.lft.to/lastmile_qr_scan", "android": "https://dc.lft.to/lastmile_qr_scan"}, "is_reserved": 0, "fusion_lon": 0.0, "fusion_lat": 0.0, "lon": -76.9331655, "name": "7e56c8721f22a2cd42781c67e2c75ed4"}, {"bike_id": "7f8922d830b2ed3a17022c73d5b69185", "type": "electric_bike", "is_disabled": 0, "lat": 38.897397, "rental_uris": {"ios": "https://dc.lft.to/lastmile_qr_scan", "android": "https://dc.lft.to/lastmile_qr_scan"}, "is_reserved": 0, "fusion_lon": 0.0, "fusion_lat": 0.0, "lon": -76.920461, "name": "7f8922d830b2ed3a17022c73d5b69185"}, {"bike_id": "a5ec0f9c81e5b49b1cc93a8a42dadd70", "type": "electric_scooter", "is_disabled": 0, "lat": 38.917510666666665, "rental_uris": {"ios": "https://dc.lft.to/lastmile_qr_scan", "android": "https://dc.lft.to/lastmile_qr_scan"}, "is_reserved": 0, "fusion_lon": 0.0, "fusion_lat": 0.0, "lon": -77.041579, "name": "a5ec0f9c81e5b49b1cc93a8a42dadd70"}, {"bike_id": "bf93b07b5ebebb72795832c7d380816a", "type": "electric_scooter", "is_disabled": 0, "lat": 38.89214, "rental_uris": {"ios": "https://dc.lft.to/lastmile_qr_scan", "android": "https://dc.lft.to/lastmile_qr_scan"}, "is_reserved": 0, "fusion_lon": 0.0, "fusion_lat": 0.0, "lon": -77.02582566666666, "name": "bf93b07b5ebebb72795832c7d380816a"}, {"bike_id": "8492b58d22444753a56704e0c859bc4c", "type": "electric_scooter", "is_disabled": 0, "lat": 38.9220885, "rental_uris": {"ios": "https://dc.lft.to/lastmile_qr_scan", "android": "https://dc.lft.to/lastmile_qr_scan"}, "is_reserved": 0, "fusion_lon": 0.0, "fusion_lat": 0.0, "lon": -77.03285833333334, "name": "8492b58d22444753a56704e0c859bc4c"}, {"bike_id": "f16187c6b786bea5bb053b98bf9e43f3", "type": "electric_scooter", "is_disabled": 0, "lat": 38.905927166666665, "rental_uris": {"ios": "https://dc.lft.to/lastmile_qr_scan", "android": "https://dc.lft.to/lastmile_qr_scan"}, "is_reserved": 0, "fusion_lon": 0.0, "fusion_lat": 0.0, "lon": -77.067123, "name": "f16187c6b786bea5bb053b98bf9e43f3"}, {"bike_id": "fb9baf5d95719d6aae520d635ebb639a", "type": "electric_scooter", "is_disabled": 0, "lat": 38.908499666666664, "rental_uris": {"ios": "https://dc.lft.to/lastmile_qr_scan", "android": "https://dc.lft.to/lastmile_qr_scan"}, "is_reserved": 0, "fusion_lon": 0.0, "fusion_lat": 0.0, "lon": -76.9995805, "name": "fb9baf5d95719d6aae520d635ebb639a"}, {"bike_id": "cba34d48ddc356286028ec5480a224cc", "type": "electric_scooter", "is_disabled": 0, "lat": 38.9170125, "rental_uris": {"ios": "https://dc.lft.to/lastmile_qr_scan", "android": "https://dc.lft.to/lastmile_qr_scan"}, "is_reserved": 0, "fusion_lon": 0.0, "fusion_lat": 0.0, "lon": -77.0246325, "name": "cba34d48ddc356286028ec5480a224cc"}, {"bike_id": "d755086182a6bc98bf596a1b295986d5", "type": "electric_scooter", "is_disabled": 0, "lat": 38.9452085, "rental_uris": {"ios": "https://dc.lft.to/lastmile_qr_scan", "android": "https://dc.lft.to/lastmile_qr_scan"}, "is_reserved": 0, "fusion_lon": 0.0, "fusion_lat": 0.0, "lon": -77.02089366666667, "name": "d755086182a6bc98bf596a1b295986d5"}, {"bike_id": "6d4b6cd31904707e3780e5e7b1f98d3b", "type": "electric_scooter", "is_disabled": 0, "lat": 38.912639666666664, "rental_uris": {"ios": "https://dc.lft.to/lastmile_qr_scan", "android": "https://dc.lft.to/lastmile_qr_scan"}, "is_reserved": 0, "fusion_lon": 0.0, "fusion_lat": 0.0, "lon": -77.0314135, "name": "6d4b6cd31904707e3780e5e7b1f98d3b"}, {"bike_id": "97ede9f87bfa40bbc2d9f633abeb95dd", "type": "electric_scooter", "is_disabled": 0, "lat": 38.918173, "rental_uris": {"ios": "https://dc.lft.to/lastmile_qr_scan", "android": "https://dc.lft.to/lastmile_qr_scan"}, "is_reserved": 0, "fusion_lon": 0.0, "fusion_lat": 0.0, "lon": -77.049467, "name": "97ede9f87bfa40bbc2d9f633abeb95dd"}, {"bike_id": "7b7437e80519c30b48b4adf6b4469e73", "type": "electric_scooter", "is_disabled": 0, "lat": 38.91690966666667, "rental_uris": {"ios": "https://dc.lft.to/lastmile_qr_scan", "android": "https://dc.lft.to/lastmile_qr_scan"}, "is_reserved": 0, "fusion_lon": 0.0, "fusion_lat": 0.0, "lon": -77.00494566666667, "name": "7b7437e80519c30b48b4adf6b4469e73"}, {"bike_id": "f9a8708907385a909f7368fbe633f25d", "type": "electric_scooter", "is_disabled": 0, "lat": 38.9167505, "rental_uris": {"ios": "https://dc.lft.to/lastmile_qr_scan", "android": "https://dc.lft.to/lastmile_qr_scan"}, "is_reserved": 0, "fusion_lon": 0.0, "fusion_lat": 0.0, "lon": -77.0271585, "name": "f9a8708907385a909f7368fbe633f25d"}, {"bike_id": "5b185077b0962fb406b9ef0a3a178742", "type": "electric_scooter", "is_disabled": 0, "lat": 38.87620716666667, "rental_uris": {"ios": "https://dc.lft.to/lastmile_qr_scan", "android": "https://dc.lft.to/lastmile_qr_scan"}, "is_reserved": 0, "fusion_lon": 0.0, "fusion_lat": 0.0, "lon": -77.01587533333333, "name": "5b185077b0962fb406b9ef0a3a178742"}, {"bike_id": "f6d08ae6533616d5c012c10435a00a62", "type": "electric_scooter", "is_disabled": 0, "lat": 38.916557, "rental_uris": {"ios": "https://dc.lft.to/lastmile_qr_scan", "android": "https://dc.lft.to/lastmile_qr_scan"}, "is_reserved": 0, "fusion_lon": 0.0, "fusion_lat": 0.0, "lon": -77.00928716666667, "name": "f6d08ae6533616d5c012c10435a00a62"}, {"bike_id": "2449c8f06820198296c7b2afff31129b", "type": "electric_scooter", "is_disabled": 0, "lat": 38.862399, "rental_uris": {"ios": "https://dc.lft.to/lastmile_qr_scan", "android": "https://dc.lft.to/lastmile_qr_scan"}, "is_reserved": 0, "fusion_lon": 0.0, "fusion_lat": 0.0, "lon": -76.9949265, "name": "2449c8f06820198296c7b2afff31129b"}, {"bike_id": "4cb5c8ea64e064b66349942fef0f352d", "type": "electric_scooter", "is_disabled": 0, "lat": 38.9115205, "rental_uris": {"ios": "https://dc.lft.to/lastmile_qr_scan", "android": "https://dc.lft.to/lastmile_qr_scan"}, "is_reserved": 0, "fusion_lon": 0.0, "fusion_lat": 0.0, "lon": -77.03841533333333, "name": "4cb5c8ea64e064b66349942fef0f352d"}, {"bike_id": "e391a882fbc80f4806452e73fb924e7d", "type": "electric_scooter", "is_disabled": 0, "lat": 38.9210765, "rental_uris": {"ios": "https://dc.lft.to/lastmile_qr_scan", "android": "https://dc.lft.to/lastmile_qr_scan"}, "is_reserved": 0, "fusion_lon": 0.0, "fusion_lat": 0.0, "lon": -77.03338633333334, "name": "e391a882fbc80f4806452e73fb924e7d"}, {"bike_id": "848401a17a02e7023dcc45a19412386e", "type": "electric_scooter", "is_disabled": 0, "lat": 38.90239116666667, "rental_uris": {"ios": "https://dc.lft.to/lastmile_qr_scan", "android": "https://dc.lft.to/lastmile_qr_scan"}, "is_reserved": 0, "fusion_lon": 0.0, "fusion_lat": 0.0, "lon": -76.9741155, "name": "848401a17a02e7023dcc45a19412386e"}, {"bike_id": "d379111bd2c46221a781adda5b2cd35b", "type": "electric_scooter", "is_disabled": 0, "lat": 38.933729166666666, "rental_uris": {"ios": "https://dc.lft.to/lastmile_qr_scan", "android": "https://dc.lft.to/lastmile_qr_scan"}, "is_reserved": 0, "fusion_lon": 0.0, "fusion_lat": 0.0, "lon": -77.05757733333333, "name": "d379111bd2c46221a781adda5b2cd35b"}, {"bike_id": "2b96c3a4fd55b48a8b095b265a0d826d", "type": "electric_scooter", "is_disabled": 0, "lat": 38.90478366666667, "rental_uris": {"ios": "https://dc.lft.to/lastmile_qr_scan", "android": "https://dc.lft.to/lastmile_qr_scan"}, "is_reserved": 0, "fusion_lon": 0.0, "fusion_lat": 0.0, "lon": -77.03948583333333, "name": "2b96c3a4fd55b48a8b095b265a0d826d"}, {"bike_id": "267e8823482053c3c819d819d0f03830", "type": "electric_scooter", "is_disabled": 0, "lat": 38.90762933333333, "rental_uris": {"ios": "https://dc.lft.to/lastmile_qr_scan", "android": "https://dc.lft.to/lastmile_qr_scan"}, "is_reserved": 0, "fusion_lon": 0.0, "fusion_lat": 0.0, "lon": -77.0319905, "name": "267e8823482053c3c819d819d0f03830"}, {"bike_id": "99a3c72d181643d87b3fa8900a4f35ff", "type": "electric_scooter", "is_disabled": 0, "lat": 38.90972583333333, "rental_uris": {"ios": "https://dc.lft.to/lastmile_qr_scan", "android": "https://dc.lft.to/lastmile_qr_scan"}, "is_reserved": 0, "fusion_lon": 0.0, "fusion_lat": 0.0, "lon": -77.02172416666667, "name": "99a3c72d181643d87b3fa8900a4f35ff"}, {"bike_id": "72091e5b469069ba4f94c9be15973d1a", "type": "electric_scooter", "is_disabled": 0, "lat": 38.91491383333333, "rental_uris": {"ios": "https://dc.lft.to/lastmile_qr_scan", "android": "https://dc.lft.to/lastmile_qr_scan"}, "is_reserved": 0, "fusion_lon": 0.0, "fusion_lat": 0.0, "lon": -76.985753, "name": "72091e5b469069ba4f94c9be15973d1a"}, {"bike_id": "a86a32dc3e4d87f0389475e1b6f15d8e", "type": "electric_scooter", "is_disabled": 0, "lat": 38.91983333333334, "rental_uris": {"ios": "https://dc.lft.to/lastmile_qr_scan", "android": "https://dc.lft.to/lastmile_qr_scan"}, "is_reserved": 0, "fusion_lon": 0.0, "fusion_lat": 0.0, "lon": -76.9729825, "name": "a86a32dc3e4d87f0389475e1b6f15d8e"}, {"bike_id": "dc8279aad25d23a4159151389444d220", "type": "electric_scooter", "is_disabled": 0, "lat": 38.9259645, "rental_uris": {"ios": "https://dc.lft.to/lastmile_qr_scan", "android": "https://dc.lft.to/lastmile_qr_scan"}, "is_reserved": 0, "fusion_lon": 0.0, "fusion_lat": 0.0, "lon": -77.0083345, "name": "dc8279aad25d23a4159151389444d220"}, {"bike_id": "e2ecb671dbb0c83b8a01eabbecc09a34", "type": "electric_scooter", "is_disabled": 0, "lat": 38.862102666666665, "rental_uris": {"ios": "https://dc.lft.to/lastmile_qr_scan", "android": "https://dc.lft.to/lastmile_qr_scan"}, "is_reserved": 0, "fusion_lon": 0.0, "fusion_lat": 0.0, "lon": -76.99480016666666, "name": "e2ecb671dbb0c83b8a01eabbecc09a34"}, {"bike_id": "be050af9e4c4255cd49c8071ed8fd4ab", "type": "electric_scooter", "is_disabled": 0, "lat": 38.87452283333333, "rental_uris": {"ios": "https://dc.lft.to/lastmile_qr_scan", "android": "https://dc.lft.to/lastmile_qr_scan"}, "is_reserved": 0, "fusion_lon": 0.0, "fusion_lat": 0.0, "lon": -77.00538883333333, "name": "be050af9e4c4255cd49c8071ed8fd4ab"}, {"bike_id": "0edf47bf41c4db855921777159111e94", "type": "electric_scooter", "is_disabled": 0, "lat": 38.900212333333336, "rental_uris": {"ios": "https://dc.lft.to/lastmile_qr_scan", "android": "https://dc.lft.to/lastmile_qr_scan"}, "is_reserved": 0, "fusion_lon": 0.0, "fusion_lat": 0.0, "lon": -76.980546, "name": "0edf47bf41c4db855921777159111e94"}, {"bike_id": "a9278f3ddbf68c595954f018566ec598", "type": "electric_scooter", "is_disabled": 0, "lat": 38.90238866666667, "rental_uris": {"ios": "https://dc.lft.to/lastmile_qr_scan", "android": "https://dc.lft.to/lastmile_qr_scan"}, "is_reserved": 0, "fusion_lon": 0.0, "fusion_lat": 0.0, "lon": -77.03831766666667, "name": "a9278f3ddbf68c595954f018566ec598"}, {"bike_id": "e75f67697fd96b214906fd260bccd0c8", "type": "electric_scooter", "is_disabled": 0, "lat": 38.902396, "rental_uris": {"ios": "https://dc.lft.to/lastmile_qr_scan", "android": "https://dc.lft.to/lastmile_qr_scan"}, "is_reserved": 0, "fusion_lon": 0.0, "fusion_lat": 0.0, "lon": -77.03256133333333, "name": "e75f67697fd96b214906fd260bccd0c8"}, {"bike_id": "7407a42ba733c44891dad878236364a0", "type": "electric_scooter", "is_disabled": 0, "lat": 38.913011166666664, "rental_uris": {"ios": "https://dc.lft.to/lastmile_qr_scan", "android": "https://dc.lft.to/lastmile_qr_scan"}, "is_reserved": 0, "fusion_lon": 0.0, "fusion_lat": 0.0, "lon": -77.0363815, "name": "7407a42ba733c44891dad878236364a0"}, {"bike_id": "df0a044f0158255f0bd9877e5cd54540", "type": "electric_scooter", "is_disabled": 0, "lat": 38.9222635, "rental_uris": {"ios": "https://dc.lft.to/lastmile_qr_scan", "android": "https://dc.lft.to/lastmile_qr_scan"}, "is_reserved": 0, "fusion_lon": 0.0, "fusion_lat": 0.0, "lon": -77.04705833333334, "name": "df0a044f0158255f0bd9877e5cd54540"}, {"bike_id": "1e7aa135f57c702d538cf87fed7bb4a9", "type": "electric_scooter", "is_disabled": 0, "lat": 38.931215333333334, "rental_uris": {"ios": "https://dc.lft.to/lastmile_qr_scan", "android": "https://dc.lft.to/lastmile_qr_scan"}, "is_reserved": 0, "fusion_lon": 0.0, "fusion_lat": 0.0, "lon": -77.0365395, "name": "1e7aa135f57c702d538cf87fed7bb4a9"}, {"bike_id": "5a44255e34caa15e8291bc9ef4fe2539", "type": "electric_scooter", "is_disabled": 0, "lat": 38.877040666666666, "rental_uris": {"ios": "https://dc.lft.to/lastmile_qr_scan", "android": "https://dc.lft.to/lastmile_qr_scan"}, "is_reserved": 0, "fusion_lon": 0.0, "fusion_lat": 0.0, "lon": -77.00607, "name": "5a44255e34caa15e8291bc9ef4fe2539"}, {"bike_id": "396f8c021ffdfdfadba13ccd7355800a", "type": "electric_bike", "is_disabled": 0, "lat": 38.85933966666666, "rental_uris": {"ios": "https://dc.lft.to/lastmile_qr_scan", "android": "https://dc.lft.to/lastmile_qr_scan"}, "is_reserved": 0, "fusion_lon": 0.0, "fusion_lat": 0.0, "lon": -77.11828133333333, "name": "396f8c021ffdfdfadba13ccd7355800a"}, {"bike_id": "b2342b4d8ed11318f17e20334711fa88", "type": "electric_scooter", "is_disabled": 0, "lat": 38.892293, "rental_uris": {"ios": "https://dc.lft.to/lastmile_qr_scan", "android": "https://dc.lft.to/lastmile_qr_scan"}, "is_reserved": 0, "fusion_lon": 0.0, "fusion_lat": 0.0, "lon": -77.02379216666667, "name": "b2342b4d8ed11318f17e20334711fa88"}, {"bike_id": "e2b9ff693386a39b68e5ec2b731c083f", "type": "electric_scooter", "is_disabled": 0, "lat": 38.90586616666667, "rental_uris": {"ios": "https://dc.lft.to/lastmile_qr_scan", "android": "https://dc.lft.to/lastmile_qr_scan"}, "is_reserved": 0, "fusion_lon": 0.0, "fusion_lat": 0.0, "lon": -77.06803883333333, "name": "e2b9ff693386a39b68e5ec2b731c083f"}, {"bike_id": "fa786c3bc5198a9f911037aed86b08cb", "type": "electric_scooter", "is_disabled": 0, "lat": 38.9584445, "rental_uris": {"ios": "https://dc.lft.to/lastmile_qr_scan", "android": "https://dc.lft.to/lastmile_qr_scan"}, "is_reserved": 0, "fusion_lon": 0.0, "fusion_lat": 0.0, "lon": -77.02739516666666, "name": "fa786c3bc5198a9f911037aed86b08cb"}, {"bike_id": "9f6f7cba176fccd3a88f07d6ef992fe6", "type": "electric_scooter", "is_disabled": 0, "lat": 38.949820333333335, "rental_uris": {"ios": "https://dc.lft.to/lastmile_qr_scan", "android": "https://dc.lft.to/lastmile_qr_scan"}, "is_reserved": 0, "fusion_lon": 0.0, "fusion_lat": 0.0, "lon": -77.02652266666666, "name": "9f6f7cba176fccd3a88f07d6ef992fe6"}, {"bike_id": "5eb602b79404852a20774166f7949db9", "type": "electric_scooter", "is_disabled": 0, "lat": 38.921203166666665, "rental_uris": {"ios": "https://dc.lft.to/lastmile_qr_scan", "android": "https://dc.lft.to/lastmile_qr_scan"}, "is_reserved": 0, "fusion_lon": 0.0, "fusion_lat": 0.0, "lon": -77.04426133333334, "name": "5eb602b79404852a20774166f7949db9"}, {"bike_id": "26e6055d38b21995cee69eddf1687b52", "type": "electric_scooter", "is_disabled": 0, "lat": 38.91567516666667, "rental_uris": {"ios": "https://dc.lft.to/lastmile_qr_scan", "android": "https://dc.lft.to/lastmile_qr_scan"}, "is_reserved": 0, "fusion_lon": 0.0, "fusion_lat": 0.0, "lon": -77.03190383333333, "name": "26e6055d38b21995cee69eddf1687b52"}, {"bike_id": "e71a0e684f600e6274ba348654642dd5", "type": "electric_bike", "is_disabled": 0, "lat": 38.82377733333333, "rental_uris": {"ios": "https://dc.lft.to/lastmile_qr_scan", "android": "https://dc.lft.to/lastmile_qr_scan"}, "is_reserved": 0, "fusion_lon": 0.0, "fusion_lat": 0.0, "lon": -77.00225, "name": "e71a0e684f600e6274ba348654642dd5"}, {"bike_id": "1923595e602685479112350b788dc2ee", "type": "electric_scooter", "is_disabled": 0, "lat": 38.915363666666664, "rental_uris": {"ios": "https://dc.lft.to/lastmile_qr_scan", "android": "https://dc.lft.to/lastmile_qr_scan"}, "is_reserved": 0, "fusion_lon": 0.0, "fusion_lat": 0.0, "lon": -76.97020433333333, "name": "1923595e602685479112350b788dc2ee"}, {"bike_id": "52a0ff843c925700f255c317001737b9", "type": "electric_scooter", "is_disabled": 0, "lat": 38.921613, "rental_uris": {"ios": "https://dc.lft.to/lastmile_qr_scan", "android": "https://dc.lft.to/lastmile_qr_scan"}, "is_reserved": 0, "fusion_lon": 0.0, "fusion_lat": 0.0, "lon": -77.032547, "name": "52a0ff843c925700f255c317001737b9"}, {"bike_id": "07a6c571639efb14fc94eb5371c306a8", "type": "electric_bike", "is_disabled": 0, "lat": 38.88236883333333, "rental_uris": {"ios": "https://dc.lft.to/lastmile_qr_scan", "android": "https://dc.lft.to/lastmile_qr_scan"}, "is_reserved": 0, "fusion_lon": 0.0, "fusion_lat": 0.0, "lon": -76.962527, "name": "07a6c571639efb14fc94eb5371c306a8"}, {"bike_id": "a9f89a6fead8d469407af147ea134291", "type": "electric_scooter", "is_disabled": 0, "lat": 38.900162333333334, "rental_uris": {"ios": "https://dc.lft.to/lastmile_qr_scan", "android": "https://dc.lft.to/lastmile_qr_scan"}, "is_reserved": 0, "fusion_lon": 0.0, "fusion_lat": 0.0, "lon": -76.99603866666666, "name": "a9f89a6fead8d469407af147ea134291"}, {"bike_id": "68b2109b27e96ebf31665b89ae4bc729", "type": "electric_scooter", "is_disabled": 0, "lat": 38.90651183333333, "rental_uris": {"ios": "https://dc.lft.to/lastmile_qr_scan", "android": "https://dc.lft.to/lastmile_qr_scan"}, "is_reserved": 0, "fusion_lon": 0.0, "fusion_lat": 0.0, "lon": -77.04183016666667, "name": "68b2109b27e96ebf31665b89ae4bc729"}, {"bike_id": "e7f1c8c872f051a3cdf749038276b94a", "type": "electric_scooter", "is_disabled": 0, "lat": 38.9173445, "rental_uris": {"ios": "https://dc.lft.to/lastmile_qr_scan", "android": "https://dc.lft.to/lastmile_qr_scan"}, "is_reserved": 0, "fusion_lon": 0.0, "fusion_lat": 0.0, "lon": -77.04172866666667, "name": "e7f1c8c872f051a3cdf749038276b94a"}, {"bike_id": "fdba1d743023570bb46f39f4af1010ab", "type": "electric_scooter", "is_disabled": 0, "lat": 38.906547333333336, "rental_uris": {"ios": "https://dc.lft.to/lastmile_qr_scan", "android": "https://dc.lft.to/lastmile_qr_scan"}, "is_reserved": 0, "fusion_lon": 0.0, "fusion_lat": 0.0, "lon": -77.0711525, "name": "fdba1d743023570bb46f39f4af1010ab"}, {"bike_id": "465512b510dc31804c675503b85e50a2", "type": "electric_bike", "is_disabled": 0, "lat": 39.042988333333334, "rental_uris": {"ios": "https://dc.lft.to/lastmile_qr_scan", "android": "https://dc.lft.to/lastmile_qr_scan"}, "is_reserved": 0, "fusion_lon": 0.0, "fusion_lat": 0.0, "lon": -77.05159116666667, "name": "465512b510dc31804c675503b85e50a2"}, {"bike_id": "d11c3e29314146bfbed04f88121010b1", "type": "electric_scooter", "is_disabled": 0, "lat": 38.90103666666667, "rental_uris": {"ios": "https://dc.lft.to/lastmile_qr_scan", "android": "https://dc.lft.to/lastmile_qr_scan"}, "is_reserved": 0, "fusion_lon": 0.0, "fusion_lat": 0.0, "lon": -77.02400233333333, "name": "d11c3e29314146bfbed04f88121010b1"}, {"bike_id": "066dc1493a4197d56668fef379a4c756", "type": "electric_scooter", "is_disabled": 0, "lat": 38.8935405, "rental_uris": {"ios": "https://dc.lft.to/lastmile_qr_scan", "android": "https://dc.lft.to/lastmile_qr_scan"}, "is_reserved": 0, "fusion_lon": 0.0, "fusion_lat": 0.0, "lon": -76.94932433333334, "name": "066dc1493a4197d56668fef379a4c756"}, {"bike_id": "912648d429e5eb2b90c09d77e1ad3d51", "type": "electric_scooter", "is_disabled": 0, "lat": 38.921717666666666, "rental_uris": {"ios": "https://dc.lft.to/lastmile_qr_scan", "android": "https://dc.lft.to/lastmile_qr_scan"}, "is_reserved": 0, "fusion_lon": 0.0, "fusion_lat": 0.0, "lon": -77.0400615, "name": "912648d429e5eb2b90c09d77e1ad3d51"}, {"bike_id": "928be781a45dc7cad5827a8918e108ad", "type": "electric_scooter", "is_disabled": 0, "lat": 38.879391, "rental_uris": {"ios": "https://dc.lft.to/lastmile_qr_scan", "android": "https://dc.lft.to/lastmile_qr_scan"}, "is_reserved": 0, "fusion_lon": 0.0, "fusion_lat": 0.0, "lon": -77.0235275, "name": "928be781a45dc7cad5827a8918e108ad"}, {"bike_id": "db4e399c1d59f6d90f8086112b1cd69f", "type": "electric_scooter", "is_disabled": 0, "lat": 38.9141355, "rental_uris": {"ios": "https://dc.lft.to/lastmile_qr_scan", "android": "https://dc.lft.to/lastmile_qr_scan"}, "is_reserved": 0, "fusion_lon": 0.0, "fusion_lat": 0.0, "lon": -77.03901, "name": "db4e399c1d59f6d90f8086112b1cd69f"}, {"bike_id": "675ef7376f547a469710be16b1e11571", "type": "electric_scooter", "is_disabled": 0, "lat": 38.92398216666667, "rental_uris": {"ios": "https://dc.lft.to/lastmile_qr_scan", "android": "https://dc.lft.to/lastmile_qr_scan"}, "is_reserved": 0, "fusion_lon": 0.0, "fusion_lat": 0.0, "lon": -77.020925, "name": "675ef7376f547a469710be16b1e11571"}, {"bike_id": "56452cd80c31dbab71d58696e2f524a5", "type": "electric_scooter", "is_disabled": 0, "lat": 38.85201566666667, "rental_uris": {"ios": "https://dc.lft.to/lastmile_qr_scan", "android": "https://dc.lft.to/lastmile_qr_scan"}, "is_reserved": 0, "fusion_lon": 0.0, "fusion_lat": 0.0, "lon": -76.985573, "name": "56452cd80c31dbab71d58696e2f524a5"}, {"bike_id": "97223ef6812c1ca2181ed7da4dff34ca", "type": "electric_scooter", "is_disabled": 0, "lat": 38.85702966666667, "rental_uris": {"ios": "https://dc.lft.to/lastmile_qr_scan", "android": "https://dc.lft.to/lastmile_qr_scan"}, "is_reserved": 0, "fusion_lon": 0.0, "fusion_lat": 0.0, "lon": -76.98960416666667, "name": "97223ef6812c1ca2181ed7da4dff34ca"}, {"bike_id": "532dab445043ea8fd762bf8bb19db162", "type": "electric_scooter", "is_disabled": 0, "lat": 38.930031166666666, "rental_uris": {"ios": "https://dc.lft.to/lastmile_qr_scan", "android": "https://dc.lft.to/lastmile_qr_scan"}, "is_reserved": 0, "fusion_lon": 0.0, "fusion_lat": 0.0, "lon": -77.01430866666666, "name": "532dab445043ea8fd762bf8bb19db162"}, {"bike_id": "04788ba0f55b4275f8167291c166cbc3", "type": "electric_scooter", "is_disabled": 0, "lat": 38.900596, "rental_uris": {"ios": "https://dc.lft.to/lastmile_qr_scan", "android": "https://dc.lft.to/lastmile_qr_scan"}, "is_reserved": 0, "fusion_lon": 0.0, "fusion_lat": 0.0, "lon": -76.934733, "name": "04788ba0f55b4275f8167291c166cbc3"}, {"bike_id": "46df2e881fc31031a995ebbac0b4bb7c", "type": "electric_scooter", "is_disabled": 0, "lat": 38.905604333333336, "rental_uris": {"ios": "https://dc.lft.to/lastmile_qr_scan", "android": "https://dc.lft.to/lastmile_qr_scan"}, "is_reserved": 0, "fusion_lon": 0.0, "fusion_lat": 0.0, "lon": -77.02206333333334, "name": "46df2e881fc31031a995ebbac0b4bb7c"}, {"bike_id": "a713e7b217e2d2b2fd82bcb9fc3561e8", "type": "electric_scooter", "is_disabled": 0, "lat": 38.936808666666664, "rental_uris": {"ios": "https://dc.lft.to/lastmile_qr_scan", "android": "https://dc.lft.to/lastmile_qr_scan"}, "is_reserved": 0, "fusion_lon": 0.0, "fusion_lat": 0.0, "lon": -77.03277983333334, "name": "a713e7b217e2d2b2fd82bcb9fc3561e8"}, {"bike_id": "85f00869807d121a9e98db169557d2d1", "type": "electric_bike", "is_disabled": 0, "lat": 39.0577815, "rental_uris": {"ios": "https://dc.lft.to/lastmile_qr_scan", "android": "https://dc.lft.to/lastmile_qr_scan"}, "is_reserved": 0, "fusion_lon": 0.0, "fusion_lat": 0.0, "lon": -77.15018933333333, "name": "85f00869807d121a9e98db169557d2d1"}, {"bike_id": "415b0e7be575c8a3630c5ef72678b1a1", "type": "electric_scooter", "is_disabled": 0, "lat": 38.912887, "rental_uris": {"ios": "https://dc.lft.to/lastmile_qr_scan", "android": "https://dc.lft.to/lastmile_qr_scan"}, "is_reserved": 0, "fusion_lon": 0.0, "fusion_lat": 0.0, "lon": -77.0197505, "name": "415b0e7be575c8a3630c5ef72678b1a1"}, {"bike_id": "d5d31b8ff0ce82170eca4f5d5200f80c", "type": "electric_scooter", "is_disabled": 0, "lat": 38.90475566666667, "rental_uris": {"ios": "https://dc.lft.to/lastmile_qr_scan", "android": "https://dc.lft.to/lastmile_qr_scan"}, "is_reserved": 0, "fusion_lon": 0.0, "fusion_lat": 0.0, "lon": -77.03553616666666, "name": "d5d31b8ff0ce82170eca4f5d5200f80c"}, {"bike_id": "a58d32cf94244a86076a7027a238e700", "type": "electric_scooter", "is_disabled": 0, "lat": 38.893194333333334, "rental_uris": {"ios": "https://dc.lft.to/lastmile_qr_scan", "android": "https://dc.lft.to/lastmile_qr_scan"}, "is_reserved": 0, "fusion_lon": 0.0, "fusion_lat": 0.0, "lon": -77.04872566666667, "name": "a58d32cf94244a86076a7027a238e700"}, {"bike_id": "d6b0f354764a45efe74607421f176fe3", "type": "electric_scooter", "is_disabled": 0, "lat": 38.92032966666667, "rental_uris": {"ios": "https://dc.lft.to/lastmile_qr_scan", "android": "https://dc.lft.to/lastmile_qr_scan"}, "is_reserved": 0, "fusion_lon": 0.0, "fusion_lat": 0.0, "lon": -77.023546, "name": "d6b0f354764a45efe74607421f176fe3"}, {"bike_id": "b505e991eee9879e17db0587c8683413", "type": "electric_scooter", "is_disabled": 0, "lat": 38.89845, "rental_uris": {"ios": "https://dc.lft.to/lastmile_qr_scan", "android": "https://dc.lft.to/lastmile_qr_scan"}, "is_reserved": 0, "fusion_lon": 0.0, "fusion_lat": 0.0, "lon": -77.040895, "name": "b505e991eee9879e17db0587c8683413"}, {"bike_id": "a189ea5ab593397ae495d283a4ae8389", "type": "electric_scooter", "is_disabled": 0, "lat": 38.912670166666665, "rental_uris": {"ios": "https://dc.lft.to/lastmile_qr_scan", "android": "https://dc.lft.to/lastmile_qr_scan"}, "is_reserved": 0, "fusion_lon": 0.0, "fusion_lat": 0.0, "lon": -77.03825183333333, "name": "a189ea5ab593397ae495d283a4ae8389"}, {"bike_id": "603ef19dc71883056ce5d3b47ec3470d", "type": "electric_scooter", "is_disabled": 0, "lat": 38.901387666666665, "rental_uris": {"ios": "https://dc.lft.to/lastmile_qr_scan", "android": "https://dc.lft.to/lastmile_qr_scan"}, "is_reserved": 0, "fusion_lon": 0.0, "fusion_lat": 0.0, "lon": -77.0498175, "name": "603ef19dc71883056ce5d3b47ec3470d"}, {"bike_id": "744b0eb4186ae841ad1d65dd4776871c", "type": "electric_scooter", "is_disabled": 0, "lat": 38.88110566666667, "rental_uris": {"ios": "https://dc.lft.to/lastmile_qr_scan", "android": "https://dc.lft.to/lastmile_qr_scan"}, "is_reserved": 0, "fusion_lon": 0.0, "fusion_lat": 0.0, "lon": -77.02653683333334, "name": "744b0eb4186ae841ad1d65dd4776871c"}, {"bike_id": "92fdd166e4ab7a805c7c85a87df0e907", "type": "electric_scooter", "is_disabled": 0, "lat": 38.862329, "rental_uris": {"ios": "https://dc.lft.to/lastmile_qr_scan", "android": "https://dc.lft.to/lastmile_qr_scan"}, "is_reserved": 0, "fusion_lon": 0.0, "fusion_lat": 0.0, "lon": -76.99519683333334, "name": "92fdd166e4ab7a805c7c85a87df0e907"}, {"bike_id": "4f9aaadcb641f0aaf2482fe76d85b7be", "type": "electric_bike", "is_disabled": 0, "lat": 38.799818, "rental_uris": {"ios": "https://dc.lft.to/lastmile_qr_scan", "android": "https://dc.lft.to/lastmile_qr_scan"}, "is_reserved": 0, "fusion_lon": 0.0, "fusion_lat": 0.0, "lon": -77.12977, "name": "4f9aaadcb641f0aaf2482fe76d85b7be"}, {"bike_id": "0e4d337e6ead50fbc3a98caf7feba5cc", "type": "electric_scooter", "is_disabled": 0, "lat": 38.90520683333333, "rental_uris": {"ios": "https://dc.lft.to/lastmile_qr_scan", "android": "https://dc.lft.to/lastmile_qr_scan"}, "is_reserved": 0, "fusion_lon": 0.0, "fusion_lat": 0.0, "lon": -77.00590233333334, "name": "0e4d337e6ead50fbc3a98caf7feba5cc"}, {"bike_id": "c7f4cc628127b41d373f7dc033bc21eb", "type": "electric_scooter", "is_disabled": 0, "lat": 38.91054483333333, "rental_uris": {"ios": "https://dc.lft.to/lastmile_qr_scan", "android": "https://dc.lft.to/lastmile_qr_scan"}, "is_reserved": 0, "fusion_lon": 0.0, "fusion_lat": 0.0, "lon": -77.03086283333333, "name": "c7f4cc628127b41d373f7dc033bc21eb"}, {"bike_id": "9bc2a09fcaa353714023cbc441042ae8", "type": "electric_scooter", "is_disabled": 0, "lat": 38.91702266666667, "rental_uris": {"ios": "https://dc.lft.to/lastmile_qr_scan", "android": "https://dc.lft.to/lastmile_qr_scan"}, "is_reserved": 0, "fusion_lon": 0.0, "fusion_lat": 0.0, "lon": -77.0079515, "name": "9bc2a09fcaa353714023cbc441042ae8"}, {"bike_id": "7653899431e47b716115af0b266caed3", "type": "electric_scooter", "is_disabled": 0, "lat": 38.90102316666667, "rental_uris": {"ios": "https://dc.lft.to/lastmile_qr_scan", "android": "https://dc.lft.to/lastmile_qr_scan"}, "is_reserved": 0, "fusion_lon": 0.0, "fusion_lat": 0.0, "lon": -77.020007, "name": "7653899431e47b716115af0b266caed3"}, {"bike_id": "b12fc8d751a86809de20e7ce9d2e3c82", "type": "electric_scooter", "is_disabled": 0, "lat": 38.9074555, "rental_uris": {"ios": "https://dc.lft.to/lastmile_qr_scan", "android": "https://dc.lft.to/lastmile_qr_scan"}, "is_reserved": 0, "fusion_lon": 0.0, "fusion_lat": 0.0, "lon": -77.0239185, "name": "b12fc8d751a86809de20e7ce9d2e3c82"}, {"bike_id": "8640fedb59dbbd186b7ca2fbbd1c1e87", "type": "electric_scooter", "is_disabled": 0, "lat": 38.910264833333336, "rental_uris": {"ios": "https://dc.lft.to/lastmile_qr_scan", "android": "https://dc.lft.to/lastmile_qr_scan"}, "is_reserved": 0, "fusion_lon": 0.0, "fusion_lat": 0.0, "lon": -76.98665116666666, "name": "8640fedb59dbbd186b7ca2fbbd1c1e87"}, {"bike_id": "8bfbbbe2da3bd8e60e616b3c50748d23", "type": "electric_scooter", "is_disabled": 0, "lat": 38.86659066666667, "rental_uris": {"ios": "https://dc.lft.to/lastmile_qr_scan", "android": "https://dc.lft.to/lastmile_qr_scan"}, "is_reserved": 0, "fusion_lon": 0.0, "fusion_lat": 0.0, "lon": -76.9888545, "name": "8bfbbbe2da3bd8e60e616b3c50748d23"}, {"bike_id": "44066e726329305f0fedb847301799b3", "type": "electric_scooter", "is_disabled": 0, "lat": 38.90122183333333, "rental_uris": {"ios": "https://dc.lft.to/lastmile_qr_scan", "android": "https://dc.lft.to/lastmile_qr_scan"},