{"data": {"bikes": [{"type": "electric_scooter", "name": "e2c15f5bb35ae63a23451121ad519a0d", "fusion_lon": 0.0, "is_reserved": 0, "lon": -76.99745383333334, "fusion_lat": 0.0, "is_disabled": 0, "bike_id": "e2c15f5bb35ae63a23451121ad519a0d", "lat": 38.8851985, "rental_uris": {"ios": "https://dc.lft.to/lastmile_qr_scan", "android": "https://dc.lft.to/lastmile_qr_scan"}}, {"type": "electric_scooter", "name": "9bef858c2c35dc79f1415b45aa586f9e", "fusion_lon": 0.0, "is_reserved": 0, "lon": -77.0290615, "fusion_lat": 0.0, "is_disabled": 0, "bike_id": "9bef858c2c35dc79f1415b45aa586f9e", "lat": 38.94031433333333, "rental_uris": {"ios": "https://dc.lft.to/lastmile_qr_scan", "android": "https://dc.lft.to/lastmile_qr_scan"}}, {"type": "electric_scooter", "name": "4b24920809144c99ddc2e20972a92b31", "fusion_lon": 0.0, "is_reserved": 0, "lon": -76.95397983333334, "fusion_lat": 0.0, "is_disabled": 0, "bike_id": "4b24920809144c99ddc2e20972a92b31", "lat": 38.884037666666664, "rental_uris": {"ios": "https://dc.lft.to/lastmile_qr_scan", "android": "https://dc.lft.to/lastmile_qr_scan"}}, {"type": "electric_scooter", "name": "9ae764ad55543a83ff7d21b8248dcc36", "fusion_lon": 0.0, "is_reserved": 0, "lon": -77.04317483333334, "fusion_lat": 0.0, "is_disabled": 0, "bike_id": "9ae764ad55543a83ff7d21b8248dcc36", "lat": 38.9023775, "rental_uris": {"ios": "https://dc.lft.to/lastmile_qr_scan", "android": "https://dc.lft.to/lastmile_qr_scan"}}, {"type": "electric_scooter", "name": "98be3ebaff9faf3c8596071f5ff5d4c3", "fusion_lon": 0.0, "is_reserved": 0, "lon": -77.00706366666667, "fusion_lat": 0.0, "is_disabled": 0, "bike_id": "98be3ebaff9faf3c8596071f5ff5d4c3", "lat": 38.884919333333336, "rental_uris": {"ios": "https://dc.lft.to/lastmile_qr_scan", "android": "https://dc.lft.to/lastmile_qr_scan"}}, {"type": "electric_scooter", "name": "7bf351d4c1bad220043a983294942bd6", "fusion_lon": 0.0, "is_reserved": 0, "lon": -77.00353733333333, "fusion_lat": 0.0, "is_disabled": 0, "bike_id": "7bf351d4c1bad220043a983294942bd6", "lat": 38.8926595, "rental_uris": {"ios": "https://dc.lft.to/lastmile_qr_scan", "android": "https://dc.lft.to/lastmile_qr_scan"}}, {"type": "electric_bike", "name": "b181af30a50f5d2cd5ce81f3bf3083ab", "fusion_lon": 0.0, "is_reserved": 0, "lon": -77.079091, "fusion_lat": 0.0, "is_disabled": 0, "bike_id": "b181af30a50f5d2cd5ce81f3bf3083ab", "lat": 38.838289, "rental_uris": {"ios": "https://dc.lft.to/lastmile_qr_scan", "android": "https://dc.lft.to/lastmile_qr_scan"}}, {"type": "electric_scooter", "name": "00dbd9b8047ca2e218745c4841d380d6", "fusion_lon": 0.0, "is_reserved": 0, "lon": -77.002087, "fusion_lat": 0.0, "is_disabled": 0, "bike_id": "00dbd9b8047ca2e218745c4841d380d6", "lat": 38.900730333333335, "rental_uris": {"ios": "https://dc.lft.to/lastmile_qr_scan", "android": "https://dc.lft.to/lastmile_qr_scan"}}, {"type": "electric_scooter", "name": "1c24884a051e8a7cc189386ca49d188b", "fusion_lon": 0.0, "is_reserved": 0, "lon": -77.04985166666667, "fusion_lat": 0.0, "is_disabled": 0, "bike_id": "1c24884a051e8a7cc189386ca49d188b", "lat": 38.901085333333334, "rental_uris": {"ios": "https://dc.lft.to/lastmile_qr_scan", "android": "https://dc.lft.to/lastmile_qr_scan"}}, {"type": "electric_scooter", "name": "86758d436405a0c782f49b86b37e4e0f", "fusion_lon": 0.0, "is_reserved": 0, "lon": -76.97740316666666, "fusion_lat": 0.0, "is_disabled": 0, "bike_id": "86758d436405a0c782f49b86b37e4e0f", "lat": 38.86467183333333, "rental_uris": {"ios": "https://dc.lft.to/lastmile_qr_scan", "android": "https://dc.lft.to/lastmile_qr_scan"}}, {"type": "electric_bike", "name": "e327871887f79be1ee123143960c8662", "fusion_lon": 0.0, "is_reserved": 0, "lon": -76.9330615, "fusion_lat": 0.0, "is_disabled": 0, "bike_id": "e327871887f79be1ee123143960c8662", "lat": 38.9083455, "rental_uris": {"ios": "https://dc.lft.to/lastmile_qr_scan", "android": "https://dc.lft.to/lastmile_qr_scan"}}, {"type": "electric_bike", "name": "3069bc83726c076d6b8d684769753ffc", "fusion_lon": 0.0, "is_reserved": 0, "lon": -76.91215983333333, "fusion_lat": 0.0, "is_disabled": 0, "bike_id": "3069bc83726c076d6b8d684769753ffc", "lat": 38.90314166666667, "rental_uris": {"ios": "https://dc.lft.to/lastmile_qr_scan", "android": "https://dc.lft.to/lastmile_qr_scan"}}, {"type": "electric_scooter", "name": "620f40f935c1aae81d834827dd112baf", "fusion_lon": 0.0, "is_reserved": 0, "lon": -77.04444666666667, "fusion_lat": 0.0, "is_disabled": 0, "bike_id": "620f40f935c1aae81d834827dd112baf", "lat": 38.918724166666664, "rental_uris": {"ios": "https://dc.lft.to/lastmile_qr_scan", "android": "https://dc.lft.to/lastmile_qr_scan"}}, {"type": "electric_scooter", "name": "fefc0a0e1850ed1a4404b995e5143038", "fusion_lon": 0.0, "is_reserved": 0, "lon": -77.00893533333333, "fusion_lat": 0.0, "is_disabled": 0, "bike_id": "fefc0a0e1850ed1a4404b995e5143038", "lat": 38.88501683333333, "rental_uris": {"ios": "https://dc.lft.to/lastmile_qr_scan", "android": "https://dc.lft.to/lastmile_qr_scan"}}, {"type": "electric_scooter", "name": "852c2d2d8bd720efa06e344eeaf05cbb", "fusion_lon": 0.0, "is_reserved": 0, "lon": -77.03261666666667, "fusion_lat": 0.0, "is_disabled": 0, "bike_id": "852c2d2d8bd720efa06e344eeaf05cbb", "lat": 38.9181665, "rental_uris": {"ios": "https://dc.lft.to/lastmile_qr_scan", "android": "https://dc.lft.to/lastmile_qr_scan"}}, {"type": "electric_scooter", "name": "14ad40cfed2ffbb055f84fbe4115a0a5", "fusion_lon": 0.0, "is_reserved": 0, "lon": -77.03068983333333, "fusion_lat": 0.0, "is_disabled": 0, "bike_id": "14ad40cfed2ffbb055f84fbe4115a0a5", "lat": 38.9075685, "rental_uris": {"ios": "https://dc.lft.to/lastmile_qr_scan", "android": "https://dc.lft.to/lastmile_qr_scan"}}, {"type": "electric_scooter", "name": "4c357fbb10fc382d64fa8d599e3e54d9", "fusion_lon": 0.0, "is_reserved": 0, "lon": -77.05491033333334, "fusion_lat": 0.0, "is_disabled": 0, "bike_id": "4c357fbb10fc382d64fa8d599e3e54d9", "lat": 38.893659, "rental_uris": {"ios": "https://dc.lft.to/lastmile_qr_scan", "android": "https://dc.lft.to/lastmile_qr_scan"}}, {"type": "electric_scooter", "name": "a8c30b6841e5ebbd407e80e9a5d8395f", "fusion_lon": 0.0, "is_reserved": 0, "lon": -77.038307, "fusion_lat": 0.0, "is_disabled": 0, "bike_id": "a8c30b6841e5ebbd407e80e9a5d8395f", "lat": 38.9077095, "rental_uris": {"ios": "https://dc.lft.to/lastmile_qr_scan", "android": "https://dc.lft.to/lastmile_qr_scan"}}, {"type": "electric_scooter", "name": "e96833eb9cfe329a5b4dacb11503e1b1", "fusion_lon": 0.0, "is_reserved": 0, "lon": -77.04336933333333, "fusion_lat": 0.0, "is_disabled": 0, "bike_id": "e96833eb9cfe329a5b4dacb11503e1b1", "lat": 38.902320333333336, "rental_uris": {"ios": "https://dc.lft.to/lastmile_qr_scan", "android": "https://dc.lft.to/lastmile_qr_scan"}}, {"type": "electric_scooter", "name": "ff92e44910e9816ebf6dfdbc95ccd5b2", "fusion_lon": 0.0, "is_reserved": 0, "lon": -77.042793, "fusion_lat": 0.0, "is_disabled": 0, "bike_id": "ff92e44910e9816ebf6dfdbc95ccd5b2", "lat": 38.92317766666667, "rental_uris": {"ios": "https://dc.lft.to/lastmile_qr_scan", "android": "https://dc.lft.to/lastmile_qr_scan"}}, {"type": "electric_scooter", "name": "3cc206adf7169935819bec7ae117e950", "fusion_lon": 0.0, "is_reserved": 0, "lon": -76.98162816666667, "fusion_lat": 0.0, "is_disabled": 0, "bike_id": "3cc206adf7169935819bec7ae117e950", "lat": 38.896214, "rental_uris": {"ios": "https://dc.lft.to/lastmile_qr_scan", "android": "https://dc.lft.to/lastmile_qr_scan"}}, {"type": "electric_scooter", "name": "0206dd03d45282b1a2d455680ac5c27e", "fusion_lon": 0.0, "is_reserved": 0, "lon": -77.0287945, "fusion_lat": 0.0, "is_disabled": 0, "bike_id": "0206dd03d45282b1a2d455680ac5c27e", "lat": 38.90257416666667, "rental_uris": {"ios": "https://dc.lft.to/lastmile_qr_scan", "android": "https://dc.lft.to/lastmile_qr_scan"}}, {"type": "electric_scooter", "name": "96d2326b0fa2e916a291cfb6d0a2b3e1", "fusion_lon": 0.0, "is_reserved": 0, "lon": -77.02358533333333, "fusion_lat": 0.0, "is_disabled": 0, "bike_id": "96d2326b0fa2e916a291cfb6d0a2b3e1", "lat": 38.92506066666667, "rental_uris": {"ios": "https://dc.lft.to/lastmile_qr_scan", "android": "https://dc.lft.to/lastmile_qr_scan"}}, {"type": "electric_scooter", "name": "3c56d1f3e6ebb6469ae122f775b405a5", "fusion_lon": 0.0, "is_reserved": 0, "lon": -76.9544655, "fusion_lat": 0.0, "is_disabled": 0, "bike_id": "3c56d1f3e6ebb6469ae122f775b405a5", "lat": 38.883894833333336, "rental_uris": {"ios": "https://dc.lft.to/lastmile_qr_scan", "android": "https://dc.lft.to/lastmile_qr_scan"}}, {"type": "electric_scooter", "name": "1c0ddc274021a0be0920719473521ff7", "fusion_lon": 0.0, "is_reserved": 0, "lon": -77.0463915, "fusion_lat": 0.0, "is_disabled": 0, "bike_id": "1c0ddc274021a0be0920719473521ff7", "lat": 38.901861, "rental_uris": {"ios": "https://dc.lft.to/lastmile_qr_scan", "android": "https://dc.lft.to/lastmile_qr_scan"}}, {"type": "electric_scooter", "name": "08fed2941ffa0dd4655b06e88c4ecb05", "fusion_lon": 0.0, "is_reserved": 0, "lon": -76.99821633333333, "fusion_lat": 0.0, "is_disabled": 0, "bike_id": "08fed2941ffa0dd4655b06e88c4ecb05", "lat": 38.89296316666667, "rental_uris": {"ios": "https://dc.lft.to/lastmile_qr_scan", "android": "https://dc.lft.to/lastmile_qr_scan"}}, {"type": "electric_scooter", "name": "2e763fb7f2bec2eb7753ec6f949ed0d7", "fusion_lon": 0.0, "is_reserved": 0, "lon": -77.04262383333334, "fusion_lat": 0.0, "is_disabled": 0, "bike_id": "2e763fb7f2bec2eb7753ec6f949ed0d7", "lat": 38.92298016666667, "rental_uris": {"ios": "https://dc.lft.to/lastmile_qr_scan", "android": "https://dc.lft.to/lastmile_qr_scan"}}, {"type": "electric_scooter", "name": "07631633d625dd8ed5bbecd1fad05d42", "fusion_lon": 0.0, "is_reserved": 0, "lon": -77.02611033333334, "fusion_lat": 0.0, "is_disabled": 0, "bike_id": "07631633d625dd8ed5bbecd1fad05d42", "lat": 38.951832, "rental_uris": {"ios": "https://dc.lft.to/lastmile_qr_scan", "android": "https://dc.lft.to/lastmile_qr_scan"}}, {"type": "electric_scooter", "name": "220a0a38ba0d47f2d26fe4e80fd0e91c", "fusion_lon": 0.0, "is_reserved": 0, "lon": -77.02657166666667, "fusion_lat": 0.0, "is_disabled": 0, "bike_id": "220a0a38ba0d47f2d26fe4e80fd0e91c", "lat": 38.884774166666666, "rental_uris": {"ios": "https://dc.lft.to/lastmile_qr_scan", "android": "https://dc.lft.to/lastmile_qr_scan"}}, {"type": "electric_scooter", "name": "bff47041635dcdae9f5a6b3bd51fdb60", "fusion_lon": 0.0, "is_reserved": 0, "lon": -77.0345345, "fusion_lat": 0.0, "is_disabled": 0, "bike_id": "bff47041635dcdae9f5a6b3bd51fdb60", "lat": 38.90270616666667, "rental_uris": {"ios": "https://dc.lft.to/lastmile_qr_scan", "android": "https://dc.lft.to/lastmile_qr_scan"}}, {"type": "electric_bike", "name": "f44c7f1158b7200289a9b96ecf1f8480", "fusion_lon": 0.0, "is_reserved": 0, "lon": -77.0328065, "fusion_lat": 0.0, "is_disabled": 0, "bike_id": "f44c7f1158b7200289a9b96ecf1f8480", "lat": 38.934429, "rental_uris": {"ios": "https://dc.lft.to/lastmile_qr_scan", "android": "https://dc.lft.to/lastmile_qr_scan"}}, {"type": "electric_bike", "name": "7f534606f271e5e46a686290fd65b377", "fusion_lon": 0.0, "is_reserved": 0, "lon": -77.01455716666666, "fusion_lat": 0.0, "is_disabled": 0, "bike_id": "7f534606f271e5e46a686290fd65b377", "lat": 38.96278483333333, "rental_uris": {"ios": "https://dc.lft.to/lastmile_qr_scan", "android": "https://dc.lft.to/lastmile_qr_scan"}}, {"type": "electric_scooter", "name": "ee23b6b05031ca717377aee998cf6d37", "fusion_lon": 0.0, "is_reserved": 0, "lon": -77.04244, "fusion_lat": 0.0, "is_disabled": 0, "bike_id": "ee23b6b05031ca717377aee998cf6d37", "lat": 38.92274966666667, "rental_uris": {"ios": "https://dc.lft.to/lastmile_qr_scan", "android": "https://dc.lft.to/lastmile_qr_scan"}}, {"type": "electric_scooter", "name": "9ec05989c1c51ca984dcd5c2c3f4cf50", "fusion_lon": 0.0, "is_reserved": 0, "lon": -76.94960283333333, "fusion_lat": 0.0, "is_disabled": 0, "bike_id": "9ec05989c1c51ca984dcd5c2c3f4cf50", "lat": 38.90487816666667, "rental_uris": {"ios": "https://dc.lft.to/lastmile_qr_scan", "android": "https://dc.lft.to/lastmile_qr_scan"}}, {"type": "electric_bike", "name": "da7eb168c7017ce4ff5ecb744b35e95e", "fusion_lon": 0.0, "is_reserved": 0, "lon": -76.97729866666667, "fusion_lat": 0.0, "is_disabled": 0, "bike_id": "da7eb168c7017ce4ff5ecb744b35e95e", "lat": 38.951735166666666, "rental_uris": {"ios": "https://dc.lft.to/lastmile_qr_scan", "android": "https://dc.lft.to/lastmile_qr_scan"}}, {"type": "electric_scooter", "name": "356dbfc6f624c514e467160fba9d17ad", "fusion_lon": 0.0, "is_reserved": 0, "lon": -77.04011666666666, "fusion_lat": 0.0, "is_disabled": 0, "bike_id": "356dbfc6f624c514e467160fba9d17ad", "lat": 38.901111666666665, "rental_uris": {"ios": "https://dc.lft.to/lastmile_qr_scan", "android": "https://dc.lft.to/lastmile_qr_scan"}}, {"type": "electric_scooter", "name": "5b355b5c81d216390e691c19ce6f03c5", "fusion_lon": 0.0, "is_reserved": 0, "lon": -77.04391466666667, "fusion_lat": 0.0, "is_disabled": 0, "bike_id": "5b355b5c81d216390e691c19ce6f03c5", "lat": 38.90219666666667, "rental_uris": {"ios": "https://dc.lft.to/lastmile_qr_scan", "android": "https://dc.lft.to/lastmile_qr_scan"}}, {"type": "electric_scooter", "name": "bbda8a35f53276898c2096a306e74837", "fusion_lon": 0.0, "is_reserved": 0, "lon": -77.04124283333333, "fusion_lat": 0.0, "is_disabled": 0, "bike_id": "bbda8a35f53276898c2096a306e74837", "lat": 38.905978166666664, "rental_uris": {"ios": "https://dc.lft.to/lastmile_qr_scan", "android": "https://dc.lft.to/lastmile_qr_scan"}}, {"type": "electric_bike", "name": "613abde271dae70179884543d400d1aa", "fusion_lon": 0.0, "is_reserved": 0, "lon": -77.10839433333334, "fusion_lat": 0.0, "is_disabled": 0, "bike_id": "613abde271dae70179884543d400d1aa", "lat": 38.812024666666666, "rental_uris": {"ios": "https://dc.lft.to/lastmile_qr_scan", "android": "https://dc.lft.to/lastmile_qr_scan"}}, {"type": "electric_bike", "name": "dbe6bd8e1b76c92b3b2ff8d66b2aef86", "fusion_lon": 0.0, "is_reserved": 0, "lon": -77.0700785, "fusion_lat": 0.0, "is_disabled": 0, "bike_id": "dbe6bd8e1b76c92b3b2ff8d66b2aef86", "lat": 38.90590533333334, "rental_uris": {"ios": "https://dc.lft.to/lastmile_qr_scan", "android": "https://dc.lft.to/lastmile_qr_scan"}}, {"type": "electric_scooter", "name": "b9ee33687b8ea6e7ed54dc457665c20e", "fusion_lon": 0.0, "is_reserved": 0, "lon": -76.9270395, "fusion_lat": 0.0, "is_disabled": 0, "bike_id": "b9ee33687b8ea6e7ed54dc457665c20e", "lat": 38.8820885, "rental_uris": {"ios": "https://dc.lft.to/lastmile_qr_scan", "android": "https://dc.lft.to/lastmile_qr_scan"}}, {"type": "electric_scooter", "name": "f9e6e8aba1dd0e0d124b289f6eb0e1da", "fusion_lon": 0.0, "is_reserved": 0, "lon": -77.04454316666667, "fusion_lat": 0.0, "is_disabled": 0, "bike_id": "f9e6e8aba1dd0e0d124b289f6eb0e1da", "lat": 38.91007, "rental_uris": {"ios": "https://dc.lft.to/lastmile_qr_scan", "android": "https://dc.lft.to/lastmile_qr_scan"}}, {"type": "electric_scooter", "name": "4e34964acafb7d2fa4aa3f013f2ba30f", "fusion_lon": 0.0, "is_reserved": 0, "lon": -77.007974, "fusion_lat": 0.0, "is_disabled": 0, "bike_id": "4e34964acafb7d2fa4aa3f013f2ba30f", "lat": 38.897208166666665, "rental_uris": {"ios": "https://dc.lft.to/lastmile_qr_scan", "android": "https://dc.lft.to/lastmile_qr_scan"}}, {"type": "electric_scooter", "name": "b2ac47301fd05c510195be9e28de1f4d", "fusion_lon": 0.0, "is_reserved": 0, "lon": -77.02222133333333, "fusion_lat": 0.0, "is_disabled": 0, "bike_id": "b2ac47301fd05c510195be9e28de1f4d", "lat": 38.896193333333336, "rental_uris": {"ios": "https://dc.lft.to/lastmile_qr_scan", "android": "https://dc.lft.to/lastmile_qr_scan"}}, {"type": "electric_scooter", "name": "7076e1bc8f38363b9bab23bf97f0dfeb", "fusion_lon": 0.0, "is_reserved": 0, "lon": -77.0091945, "fusion_lat": 0.0, "is_disabled": 0, "bike_id": "7076e1bc8f38363b9bab23bf97f0dfeb", "lat": 38.87937616666667, "rental_uris": {"ios": "https://dc.lft.to/lastmile_qr_scan", "android": "https://dc.lft.to/lastmile_qr_scan"}}, {"type": "electric_scooter", "name": "f8501671e34718e7ea5e8feee808f9b9", "fusion_lon": 0.0, "is_reserved": 0, "lon": -77.00924733333333, "fusion_lat": 0.0, "is_disabled": 0, "bike_id": "f8501671e34718e7ea5e8feee808f9b9", "lat": 38.908332, "rental_uris": {"ios": "https://dc.lft.to/lastmile_qr_scan", "android": "https://dc.lft.to/lastmile_qr_scan"}}, {"type": "electric_scooter", "name": "a2d33aa34caee72de59eeb0dcff7116a", "fusion_lon": 0.0, "is_reserved": 0, "lon": -77.03216966666666, "fusion_lat": 0.0, "is_disabled": 0, "bike_id": "a2d33aa34caee72de59eeb0dcff7116a", "lat": 38.91185183333333, "rental_uris": {"ios": "https://dc.lft.to/lastmile_qr_scan", "android": "https://dc.lft.to/lastmile_qr_scan"}}, {"type": "electric_scooter", "name": "a4f65978a7e53963000dbded8aa397f8", "fusion_lon": 0.0, "is_reserved": 0, "lon": -77.01432883333334, "fusion_lat": 0.0, "is_disabled": 0, "bike_id": "a4f65978a7e53963000dbded8aa397f8", "lat": 38.952273, "rental_uris": {"ios": "https://dc.lft.to/lastmile_qr_scan", "android": "https://dc.lft.to/lastmile_qr_scan"}}, {"type": "electric_scooter", "name": "69abffd9643a53f023f4dc127255d950", "fusion_lon": 0.0, "is_reserved": 0, "lon": -77.07308083333334, "fusion_lat": 0.0, "is_disabled": 0, "bike_id": "69abffd9643a53f023f4dc127255d950", "lat": 38.922267833333336, "rental_uris": {"ios": "https://dc.lft.to/lastmile_qr_scan", "android": "https://dc.lft.to/lastmile_qr_scan"}}, {"type": "electric_scooter", "name": "2702a506751252a96de20e446c571cdf", "fusion_lon": 0.0, "is_reserved": 0, "lon": -77.04384783333333, "fusion_lat": 0.0, "is_disabled": 0, "bike_id": "2702a506751252a96de20e446c571cdf", "lat": 38.90720316666667, "rental_uris": {"ios": "https://dc.lft.to/lastmile_qr_scan", "android": "https://dc.lft.to/lastmile_qr_scan"}}, {"type": "electric_scooter", "name": "2126b30f96d97cc7ec1ea666a9fc374b", "fusion_lon": 0.0, "is_reserved": 0, "lon": -77.03588633333334, "fusion_lat": 0.0, "is_disabled": 0, "bike_id": "2126b30f96d97cc7ec1ea666a9fc374b", "lat": 38.936749166666665, "rental_uris": {"ios": "https://dc.lft.to/lastmile_qr_scan", "android": "https://dc.lft.to/lastmile_qr_scan"}}, {"type": "electric_scooter", "name": "9ef88525661c2c5a35c25f4d5135e827", "fusion_lon": 0.0, "is_reserved": 0, "lon": -77.011858, "fusion_lat": 0.0, "is_disabled": 0, "bike_id": "9ef88525661c2c5a35c25f4d5135e827", "lat": 38.9002845, "rental_uris": {"ios": "https://dc.lft.to/lastmile_qr_scan", "android": "https://dc.lft.to/lastmile_qr_scan"}}, {"type": "electric_scooter", "name": "dd300565e7b5013b5b1f6bbe8e1d02b2", "fusion_lon": 0.0, "is_reserved": 0, "lon": -77.03493633333333, "fusion_lat": 0.0, "is_disabled": 0, "bike_id": "dd300565e7b5013b5b1f6bbe8e1d02b2", "lat": 38.9248225, "rental_uris": {"ios": "https://dc.lft.to/lastmile_qr_scan", "android": "https://dc.lft.to/lastmile_qr_scan"}}, {"type": "electric_scooter", "name": "6492868d035cf651dbc1349e19837a26", "fusion_lon": 0.0, "is_reserved": 0, "lon": -77.013013, "fusion_lat": 0.0, "is_disabled": 0, "bike_id": "6492868d035cf651dbc1349e19837a26", "lat": 38.930338666666664, "rental_uris": {"ios": "https://dc.lft.to/lastmile_qr_scan", "android": "https://dc.lft.to/lastmile_qr_scan"}}, {"type": "electric_scooter", "name": "b0e0be61e617fd2f9d5da6bf6b72dc73", "fusion_lon": 0.0, "is_reserved": 0, "lon": -77.045034, "fusion_lat": 0.0, "is_disabled": 0, "bike_id": "b0e0be61e617fd2f9d5da6bf6b72dc73", "lat": 38.892248333333335, "rental_uris": {"ios": "https://dc.lft.to/lastmile_qr_scan", "android": "https://dc.lft.to/lastmile_qr_scan"}}, {"type": "electric_scooter", "name": "4828c9d22769b47ec1840bd44c2636c7", "fusion_lon": 0.0, "is_reserved": 0, "lon": -77.0232035, "fusion_lat": 0.0, "is_disabled": 0, "bike_id": "4828c9d22769b47ec1840bd44c2636c7", "lat": 38.878736833333335, "rental_uris": {"ios": "https://dc.lft.to/lastmile_qr_scan", "android": "https://dc.lft.to/lastmile_qr_scan"}}, {"type": "electric_scooter", "name": "be1aa4e6d95454fd7c544afc225c6db2", "fusion_lon": 0.0, "is_reserved": 0, "lon": -77.02694733333334, "fusion_lat": 0.0, "is_disabled": 0, "bike_id": "be1aa4e6d95454fd7c544afc225c6db2", "lat": 38.9152115, "rental_uris": {"ios": "https://dc.lft.to/lastmile_qr_scan", "android": "https://dc.lft.to/lastmile_qr_scan"}}, {"type": "electric_scooter", "name": "92bfb2981c2625ea38b6b554d82aeb00", "fusion_lon": 0.0, "is_reserved": 0, "lon": -77.00563716666667, "fusion_lat": 0.0, "is_disabled": 0, "bike_id": "92bfb2981c2625ea38b6b554d82aeb00", "lat": 38.885069, "rental_uris": {"ios": "https://dc.lft.to/lastmile_qr_scan", "android": "https://dc.lft.to/lastmile_qr_scan"}}, {"type": "electric_scooter", "name": "cedc8a96a25ecebaca76c91d148642d3", "fusion_lon": 0.0, "is_reserved": 0, "lon": -77.02582016666666, "fusion_lat": 0.0, "is_disabled": 0, "bike_id": "cedc8a96a25ecebaca76c91d148642d3", "lat": 38.920324666666666, "rental_uris": {"ios": "https://dc.lft.to/lastmile_qr_scan", "android": "https://dc.lft.to/lastmile_qr_scan"}}, {"type": "electric_scooter", "name": "73a8ec494aa370a69e562a98b47f6092", "fusion_lon": 0.0, "is_reserved": 0, "lon": -77.03272666666666, "fusion_lat": 0.0, "is_disabled": 0, "bike_id": "73a8ec494aa370a69e562a98b47f6092", "lat": 38.898774, "rental_uris": {"ios": "https://dc.lft.to/lastmile_qr_scan", "android": "https://dc.lft.to/lastmile_qr_scan"}}, {"type": "electric_bike", "name": "22b1ef0cfc0a326c4bf0a7c9f4aeb820", "fusion_lon": 0.0, "is_reserved": 0, "lon": -77.04025816666666, "fusion_lat": 0.0, "is_disabled": 0, "bike_id": "22b1ef0cfc0a326c4bf0a7c9f4aeb820", "lat": 38.90843983333333, "rental_uris": {"ios": "https://dc.lft.to/lastmile_qr_scan", "android": "https://dc.lft.to/lastmile_qr_scan"}}, {"type": "electric_scooter", "name": "bc34c3f47d8a65615ef5072461807ca6", "fusion_lon": 0.0, "is_reserved": 0, "lon": -76.99565883333334, "fusion_lat": 0.0, "is_disabled": 0, "bike_id": "bc34c3f47d8a65615ef5072461807ca6", "lat": 38.95075333333333, "rental_uris": {"ios": "https://dc.lft.to/lastmile_qr_scan", "android": "https://dc.lft.to/lastmile_qr_scan"}}, {"type": "electric_scooter", "name": "2d25d319fe727af8ceb037429de6f85e", "fusion_lon": 0.0, "is_reserved": 0, "lon": -77.04336933333333, "fusion_lat": 0.0, "is_disabled": 0, "bike_id": "2d25d319fe727af8ceb037429de6f85e", "lat": 38.90378416666667, "rental_uris": {"ios": "https://dc.lft.to/lastmile_qr_scan", "android": "https://dc.lft.to/lastmile_qr_scan"}}, {"type": "electric_scooter", "name": "ff1a4563776bfad6a1fc7014af9c92e3", "fusion_lon": 0.0, "is_reserved": 0, "lon": -77.03930816666667, "fusion_lat": 0.0, "is_disabled": 0, "bike_id": "ff1a4563776bfad6a1fc7014af9c92e3", "lat": 38.903638, "rental_uris": {"ios": "https://dc.lft.to/lastmile_qr_scan", "android": "https://dc.lft.to/lastmile_qr_scan"}}, {"type": "electric_scooter", "name": "115d091471371e9ac4ff596451b88c87", "fusion_lon": 0.0, "is_reserved": 0, "lon": -77.03316316666667, "fusion_lat": 0.0, "is_disabled": 0, "bike_id": "115d091471371e9ac4ff596451b88c87", "lat": 38.90833266666667, "rental_uris": {"ios": "https://dc.lft.to/lastmile_qr_scan", "android": "https://dc.lft.to/lastmile_qr_scan"}}, {"type": "electric_scooter", "name": "09a35fa6d7b396e32a45b319b848f1b3", "fusion_lon": 0.0, "is_reserved": 0, "lon": -77.05657516666666, "fusion_lat": 0.0, "is_disabled": 0, "bike_id": "09a35fa6d7b396e32a45b319b848f1b3", "lat": 38.895460666666665, "rental_uris": {"ios": "https://dc.lft.to/lastmile_qr_scan", "android": "https://dc.lft.to/lastmile_qr_scan"}}, {"type": "electric_scooter", "name": "550205d6d7553a0a81c81e8880b0d1d2", "fusion_lon": 0.0, "is_reserved": 0, "lon": -77.0211045, "fusion_lat": 0.0, "is_disabled": 0, "bike_id": "550205d6d7553a0a81c81e8880b0d1d2", "lat": 38.91114316666667, "rental_uris": {"ios": "https://dc.lft.to/lastmile_qr_scan", "android": "https://dc.lft.to/lastmile_qr_scan"}}, {"type": "electric_bike", "name": "5f58c508c9aafbf68aff9612a5df0773", "fusion_lon": 0.0, "is_reserved": 0, "lon": -77.02976616666666, "fusion_lat": 0.0, "is_disabled": 0, "bike_id": "5f58c508c9aafbf68aff9612a5df0773", "lat": 38.93702183333333, "rental_uris": {"ios": "https://dc.lft.to/lastmile_qr_scan", "android": "https://dc.lft.to/lastmile_qr_scan"}}, {"type": "electric_scooter", "name": "96c10c823e64529dae0a1cafee6849de", "fusion_lon": 0.0, "is_reserved": 0, "lon": -77.04201, "fusion_lat": 0.0, "is_disabled": 0, "bike_id": "96c10c823e64529dae0a1cafee6849de", "lat": 38.90571283333333, "rental_uris": {"ios": "https://dc.lft.to/lastmile_qr_scan", "android": "https://dc.lft.to/lastmile_qr_scan"}}, {"type": "electric_scooter", "name": "8256a032e6b52295473e29ca273fb04d", "fusion_lon": 0.0, "is_reserved": 0, "lon": -77.074079, "fusion_lat": 0.0, "is_disabled": 0, "bike_id": "8256a032e6b52295473e29ca273fb04d", "lat": 38.908323333333335, "rental_uris": {"ios": "https://dc.lft.to/lastmile_qr_scan", "android": "https://dc.lft.to/lastmile_qr_scan"}}, {"type": "electric_scooter", "name": "c730f246b73427eeb7cd75e76e63645c", "fusion_lon": 0.0, "is_reserved": 0, "lon": -77.036586, "fusion_lat": 0.0, "is_disabled": 0, "bike_id": "c730f246b73427eeb7cd75e76e63645c", "lat": 38.92242383333333, "rental_uris": {"ios": "https://dc.lft.to/lastmile_qr_scan", "android": "https://dc.lft.to/lastmile_qr_scan"}}, {"type": "electric_scooter", "name": "681528364e6efcda1a312aa62399cf2b", "fusion_lon": 0.0, "is_reserved": 0, "lon": -76.98510133333333, "fusion_lat": 0.0, "is_disabled": 0, "bike_id": "681528364e6efcda1a312aa62399cf2b", "lat": 38.88085566666667, "rental_uris": {"ios": "https://dc.lft.to/lastmile_qr_scan", "android": "https://dc.lft.to/lastmile_qr_scan"}}, {"type": "electric_scooter", "name": "e35569ca07815f9a72a5dbe531731568", "fusion_lon": 0.0, "is_reserved": 0, "lon": -77.0532575, "fusion_lat": 0.0, "is_disabled": 0, "bike_id": "e35569ca07815f9a72a5dbe531731568", "lat": 38.91552466666667, "rental_uris": {"ios": "https://dc.lft.to/lastmile_qr_scan", "android": "https://dc.lft.to/lastmile_qr_scan"}}, {"type": "electric_scooter", "name": "f78eccd62f2568dee61d015461afb403", "fusion_lon": 0.0, "is_reserved": 0, "lon": -77.03390883333333, "fusion_lat": 0.0, "is_disabled": 0, "bike_id": "f78eccd62f2568dee61d015461afb403", "lat": 38.91919166666667, "rental_uris": {"ios": "https://dc.lft.to/lastmile_qr_scan", "android": "https://dc.lft.to/lastmile_qr_scan"}}, {"type": "electric_scooter", "name": "f65d389122146847c505e9949b3b2140", "fusion_lon": 0.0, "is_reserved": 0, "lon": -77.04336083333334, "fusion_lat": 0.0, "is_disabled": 0, "bike_id": "f65d389122146847c505e9949b3b2140", "lat": 38.892275833333336, "rental_uris": {"ios": "https://dc.lft.to/lastmile_qr_scan", "android": "https://dc.lft.to/lastmile_qr_scan"}}, {"type": "electric_bike", "name": "61ada4eb91c96d0a874da464281087fb", "fusion_lon": 0.0, "is_reserved": 0, "lon": -77.06450866666667, "fusion_lat": 0.0, "is_disabled": 0, "bike_id": "61ada4eb91c96d0a874da464281087fb", "lat": 38.97394533333333, "rental_uris": {"ios": "https://dc.lft.to/lastmile_qr_scan", "android": "https://dc.lft.to/lastmile_qr_scan"}}, {"type": "electric_scooter", "name": "1c2df9c07ae8ab8fdb6e55ad7d8cb091", "fusion_lon": 0.0, "is_reserved": 0, "lon": -77.01171766666667, "fusion_lat": 0.0, "is_disabled": 0, "bike_id": "1c2df9c07ae8ab8fdb6e55ad7d8cb091", "lat": 38.915676833333336, "rental_uris": {"ios": "https://dc.lft.to/lastmile_qr_scan", "android": "https://dc.lft.to/lastmile_qr_scan"}}, {"type": "electric_scooter", "name": "0dbc351781dac93f88ef5e5671ccca2d", "fusion_lon": 0.0, "is_reserved": 0, "lon": -77.04509516666667, "fusion_lat": 0.0, "is_disabled": 0, "bike_id": "0dbc351781dac93f88ef5e5671ccca2d", "lat": 38.903629, "rental_uris": {"ios": "https://dc.lft.to/lastmile_qr_scan", "android": "https://dc.lft.to/lastmile_qr_scan"}}, {"type": "electric_scooter", "name": "1fb80e77448590e7ee820763e0befa93", "fusion_lon": 0.0, "is_reserved": 0, "lon": -77.0246715, "fusion_lat": 0.0, "is_disabled": 0, "bike_id": "1fb80e77448590e7ee820763e0befa93", "lat": 38.917858333333335, "rental_uris": {"ios": "https://dc.lft.to/lastmile_qr_scan", "android": "https://dc.lft.to/lastmile_qr_scan"}}, {"type": "electric_scooter", "name": "adb622c1c1f8d06ef27f3292331a111c", "fusion_lon": 0.0, "is_reserved": 0, "lon": -76.92986566666667, "fusion_lat": 0.0, "is_disabled": 0, "bike_id": "adb622c1c1f8d06ef27f3292331a111c", "lat": 38.90145033333334, "rental_uris": {"ios": "https://dc.lft.to/lastmile_qr_scan", "android": "https://dc.lft.to/lastmile_qr_scan"}}, {"type": "electric_scooter", "name": "7eb053c42e77ca55f86263e2772f80e6", "fusion_lon": 0.0, "is_reserved": 0, "lon": -77.059699, "fusion_lat": 0.0, "is_disabled": 0, "bike_id": "7eb053c42e77ca55f86263e2772f80e6", "lat": 38.928377833333336, "rental_uris": {"ios": "https://dc.lft.to/lastmile_qr_scan", "android": "https://dc.lft.to/lastmile_qr_scan"}}, {"type": "electric_scooter", "name": "a3a9362aa568f25afae9797f89a907e6", "fusion_lon": 0.0, "is_reserved": 0, "lon": -76.98729816666666, "fusion_lat": 0.0, "is_disabled": 0, "bike_id": "a3a9362aa568f25afae9797f89a907e6", "lat": 38.908064333333336, "rental_uris": {"ios": "https://dc.lft.to/lastmile_qr_scan", "android": "https://dc.lft.to/lastmile_qr_scan"}}, {"type": "electric_scooter", "name": "6b3a3be3fd704e709b45e96191070e07", "fusion_lon": 0.0, "is_reserved": 0, "lon": -77.044705, "fusion_lat": 0.0, "is_disabled": 0, "bike_id": "6b3a3be3fd704e709b45e96191070e07", "lat": 38.914124, "rental_uris": {"ios": "https://dc.lft.to/lastmile_qr_scan", "android": "https://dc.lft.to/lastmile_qr_scan"}}, {"type": "electric_scooter", "name": "31f46346fd659cee4b07f7833f5a9351", "fusion_lon": 0.0, "is_reserved": 0, "lon": -77.04903116666667, "fusion_lat": 0.0, "is_disabled": 0, "bike_id": "31f46346fd659cee4b07f7833f5a9351", "lat": 38.88837316666667, "rental_uris": {"ios": "https://dc.lft.to/lastmile_qr_scan", "android": "https://dc.lft.to/lastmile_qr_scan"}}, {"type": "electric_scooter", "name": "329ad7fa0ca32d8f3ac468357e5baa63", "fusion_lon": 0.0, "is_reserved": 0, "lon": -77.00540216666667, "fusion_lat": 0.0, "is_disabled": 0, "bike_id": "329ad7fa0ca32d8f3ac468357e5baa63", "lat": 38.87458983333333, "rental_uris": {"ios": "https://dc.lft.to/lastmile_qr_scan", "android": "https://dc.lft.to/lastmile_qr_scan"}}, {"type": "electric_scooter", "name": "4bed5f5101e507ce714f5c2669eb1087", "fusion_lon": 0.0, "is_reserved": 0, "lon": -77.0321395, "fusion_lat": 0.0, "is_disabled": 0, "bike_id": "4bed5f5101e507ce714f5c2669eb1087", "lat": 38.920126333333336, "rental_uris": {"ios": "https://dc.lft.to/lastmile_qr_scan", "android": "https://dc.lft.to/lastmile_qr_scan"}}, {"type": "electric_scooter", "name": "580e974065f00ba6a23f3a5d8face398", "fusion_lon": 0.0, "is_reserved": 0, "lon": -77.038268, "fusion_lat": 0.0, "is_disabled": 0, "bike_id": "580e974065f00ba6a23f3a5d8face398", "lat": 38.907695833333335, "rental_uris": {"ios": "https://dc.lft.to/lastmile_qr_scan", "android": "https://dc.lft.to/lastmile_qr_scan"}}, {"type": "electric_scooter", "name": "4ed307a20cfe2e474fcf0b2449a945cd", "fusion_lon": 0.0, "is_reserved": 0, "lon": -77.0428015, "fusion_lat": 0.0, "is_disabled": 0, "bike_id": "4ed307a20cfe2e474fcf0b2449a945cd", "lat": 38.922849666666664, "rental_uris": {"ios": "https://dc.lft.to/lastmile_qr_scan", "android": "https://dc.lft.to/lastmile_qr_scan"}}, {"type": "electric_scooter", "name": "ac57464d31b5d8a86a56b38aa8711c78", "fusion_lon": 0.0, "is_reserved": 0, "lon": -77.032074, "fusion_lat": 0.0, "is_disabled": 0, "bike_id": "ac57464d31b5d8a86a56b38aa8711c78", "lat": 38.92174, "rental_uris": {"ios": "https://dc.lft.to/lastmile_qr_scan", "android": "https://dc.lft.to/lastmile_qr_scan"}}, {"type": "electric_scooter", "name": "20318185c3e7eea39b0c4fe959811b98", "fusion_lon": 0.0, "is_reserved": 0, "lon": -77.0404285, "fusion_lat": 0.0, "is_disabled": 0, "bike_id": "20318185c3e7eea39b0c4fe959811b98", "lat": 38.90376366666667, "rental_uris": {"ios": "https://dc.lft.to/lastmile_qr_scan", "android": "https://dc.lft.to/lastmile_qr_scan"}}, {"type": "electric_scooter", "name": "13b80364323261b9257453c050c7511a", "fusion_lon": 0.0, "is_reserved": 0, "lon": -77.0044455, "fusion_lat": 0.0, "is_disabled": 0, "bike_id": "13b80364323261b9257453c050c7511a", "lat": 38.911944, "rental_uris": {"ios": "https://dc.lft.to/lastmile_qr_scan", "android": "https://dc.lft.to/lastmile_qr_scan"}}, {"type": "electric_scooter", "name": "aec01ed5ca5c946026f0d92d9948415a", "fusion_lon": 0.0, "is_reserved": 0, "lon": -77.033541, "fusion_lat": 0.0, "is_disabled": 0, "bike_id": "aec01ed5ca5c946026f0d92d9948415a", "lat": 38.92101366666667, "rental_uris": {"ios": "https://dc.lft.to/lastmile_qr_scan", "android": "https://dc.lft.to/lastmile_qr_scan"}}, {"type": "electric_scooter", "name": "ea443b594871d6dacd3c102b92e4d933", "fusion_lon": 0.0, "is_reserved": 0, "lon": -77.01300266666667, "fusion_lat": 0.0, "is_disabled": 0, "bike_id": "ea443b594871d6dacd3c102b92e4d933", "lat": 38.93004233333333, "rental_uris": {"ios": "https://dc.lft.to/lastmile_qr_scan", "android": "https://dc.lft.to/lastmile_qr_scan"}}, {"type": "electric_scooter", "name": "e45ed1876e707d77066b39a55face567", "fusion_lon": 0.0, "is_reserved": 0, "lon": -77.0087795, "fusion_lat": 0.0, "is_disabled": 0, "bike_id": "e45ed1876e707d77066b39a55face567", "lat": 38.9224115, "rental_uris": {"ios": "https://dc.lft.to/lastmile_qr_scan", "android": "https://dc.lft.to/lastmile_qr_scan"}}, {"type": "electric_scooter", "name": "f24f7f2fbbcdc1f1f7932425d232ce60", "fusion_lon": 0.0, "is_reserved": 0, "lon": -77.05075683333334, "fusion_lat": 0.0, "is_disabled": 0, "bike_id": "f24f7f2fbbcdc1f1f7932425d232ce60", "lat": 38.923573, "rental_uris": {"ios": "https://dc.lft.to/lastmile_qr_scan", "android": "https://dc.lft.to/lastmile_qr_scan"}}, {"type": "electric_scooter", "name": "70a6742580c504ab1a4f4d49e4bb7387", "fusion_lon": 0.0, "is_reserved": 0, "lon": -77.03769883333334, "fusion_lat": 0.0, "is_disabled": 0, "bike_id": "70a6742580c504ab1a4f4d49e4bb7387", "lat": 38.908635, "rental_uris": {"ios": "https://dc.lft.to/lastmile_qr_scan", "android": "https://dc.lft.to/lastmile_qr_scan"}}, {"type": "electric_scooter", "name": "38a31cf8bfbe2f0f73e6cdbc7d388127", "fusion_lon": 0.0, "is_reserved": 0, "lon": -77.02404416666667, "fusion_lat": 0.0, "is_disabled": 0, "bike_id": "38a31cf8bfbe2f0f73e6cdbc7d388127", "lat": 38.893724, "rental_uris": {"ios": "https://dc.lft.to/lastmile_qr_scan", "android": "https://dc.lft.to/lastmile_qr_scan"}}, {"type": "electric_scooter", "name": "adaff5b9ae4240f43b561418b36c79cc", "fusion_lon": 0.0, "is_reserved": 0, "lon": -77.04371716666667, "fusion_lat": 0.0, "is_disabled": 0, "bike_id": "adaff5b9ae4240f43b561418b36c79cc", "lat": 38.892197, "rental_uris": {"ios": "https://dc.lft.to/lastmile_qr_scan", "android": "https://dc.lft.to/lastmile_qr_scan"}}, {"type": "electric_scooter", "name": "47291e105e81703ec8c5bed5318e825a", "fusion_lon": 0.0, "is_reserved": 0, "lon": -76.982306, "fusion_lat": 0.0, "is_disabled": 0, "bike_id": "47291e105e81703ec8c5bed5318e825a", "lat": 38.86473183333333, "rental_uris": {"ios": "https://dc.lft.to/lastmile_qr_scan", "android": "https://dc.lft.to/lastmile_qr_scan"}}, {"type": "electric_bike", "name": "7100853c8c6243a617ffe0beb8a9afd3", "fusion_lon": 0.0, "is_reserved": 0, "lon": -77.11825466666667, "fusion_lat": 0.0, "is_disabled": 0, "bike_id": "7100853c8c6243a617ffe0beb8a9afd3", "lat": 38.859385333333336, "rental_uris": {"ios": "https://dc.lft.to/lastmile_qr_scan", "android": "https://dc.lft.to/lastmile_qr_scan"}}, {"type": "electric_scooter", "name": "667d69e8da60d06b37026686790837e9", "fusion_lon": 0.0, "is_reserved": 0, "lon": -77.0265245, "fusion_lat": 0.0, "is_disabled": 0, "bike_id": "667d69e8da60d06b37026686790837e9", "lat": 38.9498215, "rental_uris": {"ios": "https://dc.lft.to/lastmile_qr_scan", "android": "https://dc.lft.to/lastmile_qr_scan"}}, {"type": "electric_scooter", "name": "7a0b649cfd3ab82b3dff9e8ad64d5d7b", "fusion_lon": 0.0, "is_reserved": 0, "lon": -77.0384195, "fusion_lat": 0.0, "is_disabled": 0, "bike_id": "7a0b649cfd3ab82b3dff9e8ad64d5d7b", "lat": 38.912121166666665, "rental_uris": {"ios": "https://dc.lft.to/lastmile_qr_scan", "android": "https://dc.lft.to/lastmile_qr_scan"}}, {"type": "electric_scooter", "name": "e6f08324ba018631c9ce67c96c2924f7", "fusion_lon": 0.0, "is_reserved": 0, "lon": -77.07166866666667, "fusion_lat": 0.0, "is_disabled": 0, "bike_id": "e6f08324ba018631c9ce67c96c2924f7", "lat": 38.907748833333336, "rental_uris": {"ios": "https://dc.lft.to/lastmile_qr_scan", "android": "https://dc.lft.to/lastmile_qr_scan"}}, {"type": "electric_scooter", "name": "3314c4852a340bc9855cd996dde988e4", "fusion_lon": 0.0, "is_reserved": 0, "lon": -77.0420785, "fusion_lat": 0.0, "is_disabled": 0, "bike_id": "3314c4852a340bc9855cd996dde988e4", "lat": 38.92307066666667, "rental_uris": {"ios": "https://dc.lft.to/lastmile_qr_scan", "android": "https://dc.lft.to/lastmile_qr_scan"}}, {"type": "electric_scooter", "name": "f464256223695418252a7feb605d77e6", "fusion_lon": 0.0, "is_reserved": 0, "lon": -77.001377, "fusion_lat": 0.0, "is_disabled": 0, "bike_id": "f464256223695418252a7feb605d77e6", "lat": 38.8861425, "rental_uris": {"ios": "https://dc.lft.to/lastmile_qr_scan", "android": "https://dc.lft.to/lastmile_qr_scan"}}, {"type": "electric_bike", "name": "6679da32cf2a2e0de5e0276d08b7f8a1", "fusion_lon": 0.0, "is_reserved": 0, "lon": -77.00213533333333, "fusion_lat": 0.0, "is_disabled": 0, "bike_id": "6679da32cf2a2e0de5e0276d08b7f8a1", "lat": 38.823668833333336, "rental_uris": {"ios": "https://dc.lft.to/lastmile_qr_scan", "android": "https://dc.lft.to/lastmile_qr_scan"}}, {"type": "electric_scooter", "name": "1935e8dc228216c7e674b356511f65da", "fusion_lon": 0.0, "is_reserved": 0, "lon": -77.02794533333334, "fusion_lat": 0.0, "is_disabled": 0, "bike_id": "1935e8dc228216c7e674b356511f65da", "lat": 38.958393666666666, "rental_uris": {"ios": "https://dc.lft.to/lastmile_qr_scan", "android": "https://dc.lft.to/lastmile_qr_scan"}}, {"type": "electric_bike", "name": "03084538faddad379ca8259eaf56c5bc", "fusion_lon": 0.0, "is_reserved": 0, "lon": -77.066935, "fusion_lat": 0.0, "is_disabled": 0, "bike_id": "03084538faddad379ca8259eaf56c5bc", "lat": 38.84563283333333, "rental_uris": {"ios": "https://dc.lft.to/lastmile_qr_scan", "android": "https://dc.lft.to/lastmile_qr_scan"}}, {"type": "electric_scooter", "name": "67961d304f94a0fb7d0ab700eb4a2076", "fusion_lon": 0.0, "is_reserved": 0, "lon": -77.03147216666666, "fusion_lat": 0.0, "is_disabled": 0, "bike_id": "67961d304f94a0fb7d0ab700eb4a2076", "lat": 38.91415416666667, "rental_uris": {"ios": "https://dc.lft.to/lastmile_qr_scan", "android": "https://dc.lft.to/lastmile_qr_scan"}}, {"type": "electric_bike", "name": "64caff67c981decafd1a1a940e395707", "fusion_lon": 0.0, "is_reserved": 0, "lon": -77.059732, "fusion_lat": 0.0, "is_disabled": 0, "bike_id": "64caff67c981decafd1a1a940e395707", "lat": 38.80684183333334, "rental_uris": {"ios": "https://dc.lft.to/lastmile_qr_scan", "android": "https://dc.lft.to/lastmile_qr_scan"}}, {"type": "electric_bike", "name": "037f4ba4f78f4ed8f5a703e69d3d43ce", "fusion_lon": 0.0, "is_reserved": 0, "lon": -77.11576233333334, "fusion_lat": 0.0, "is_disabled": 0, "bike_id": "037f4ba4f78f4ed8f5a703e69d3d43ce", "lat": 38.99342883333333, "rental_uris": {"ios": "https://dc.lft.to/lastmile_qr_scan", "android": "https://dc.lft.to/lastmile_qr_scan"}}, {"type": "electric_scooter", "name": "e617297d40163cb6ee177fa7ff346624", "fusion_lon": 0.0, "is_reserved": 0, "lon": -77.02488283333334, "fusion_lat": 0.0, "is_disabled": 0, "bike_id": "e617297d40163cb6ee177fa7ff346624", "lat": 38.941833833333334, "rental_uris": {"ios": "https://dc.lft.to/lastmile_qr_scan", "android": "https://dc.lft.to/lastmile_qr_scan"}}, {"type": "electric_scooter", "name": "e6c2d02300abe534ef035c08d1047f11", "fusion_lon": 0.0, "is_reserved": 0, "lon": -77.02520166666666, "fusion_lat": 0.0, "is_disabled": 0, "bike_id": "e6c2d02300abe534ef035c08d1047f11", "lat": 38.938653333333335, "rental_uris": {"ios": "https://dc.lft.to/lastmile_qr_scan", "android": "https://dc.lft.to/lastmile_qr_scan"}}, {"type": "electric_scooter", "name": "1a8414386919ca0107997a1c5b126cdc", "fusion_lon": 0.0, "is_reserved": 0, "lon": -77.02158566666667, "fusion_lat": 0.0, "is_disabled": 0, "bike_id": "1a8414386919ca0107997a1c5b126cdc", "lat": 38.92460633333334, "rental_uris": {"ios": "https://dc.lft.to/lastmile_qr_scan", "android": "https://dc.lft.to/lastmile_qr_scan"}}, {"type": "electric_scooter", "name": "44ffc8de08a2b7fe1c309d8c4a6074e1", "fusion_lon": 0.0, "is_reserved": 0, "lon": -77.03218016666666, "fusion_lat": 0.0, "is_disabled": 0, "bike_id": "44ffc8de08a2b7fe1c309d8c4a6074e1", "lat": 38.919989666666666, "rental_uris": {"ios": "https://dc.lft.to/lastmile_qr_scan", "android": "https://dc.lft.to/lastmile_qr_scan"}}, {"type": "electric_scooter", "name": "2958b8dd942083eab7ce1f40c473bda4", "fusion_lon": 0.0, "is_reserved": 0, "lon": -77.048016, "fusion_lat": 0.0, "is_disabled": 0, "bike_id": "2958b8dd942083eab7ce1f40c473bda4", "lat": 38.904629166666666, "rental_uris": {"ios": "https://dc.lft.to/lastmile_qr_scan", "android": "https://dc.lft.to/lastmile_qr_scan"}}, {"type": "electric_scooter", "name": "0ba4d6a623b7b82903bc6399229e58bc", "fusion_lon": 0.0, "is_reserved": 0, "lon": -77.02985933333333, "fusion_lat": 0.0, "is_disabled": 0, "bike_id": "0ba4d6a623b7b82903bc6399229e58bc", "lat": 38.9205545, "rental_uris": {"ios": "https://dc.lft.to/lastmile_qr_scan", "android": "https://dc.lft.to/lastmile_qr_scan"}}, {"type": "electric_scooter", "name": "c582d5f65a9cb2fc183e24f99750f0a0", "fusion_lon": 0.0, "is_reserved": 0, "lon": -77.04649433333333, "fusion_lat": 0.0, "is_disabled": 0, "bike_id": "c582d5f65a9cb2fc183e24f99750f0a0", "lat": 38.89646183333333, "rental_uris": {"ios": "https://dc.lft.to/lastmile_qr_scan", "android": "https://dc.lft.to/lastmile_qr_scan"}}, {"type": "electric_scooter", "name": "9d1608b00784ecd84bb06f7e6604b07d", "fusion_lon": 0.0, "is_reserved": 0, "lon": -77.01129333333333, "fusion_lat": 0.0, "is_disabled": 0, "bike_id": "9d1608b00784ecd84bb06f7e6604b07d", "lat": 38.89877933333333, "rental_uris": {"ios": "https://dc.lft.to/lastmile_qr_scan", "android": "https://dc.lft.to/lastmile_qr_scan"}}, {"type": "electric_scooter", "name": "dca6684c048bbf0d27eae379a1954066", "fusion_lon": 0.0, "is_reserved": 0, "lon": -77.0059245, "fusion_lat": 0.0, "is_disabled": 0, "bike_id": "dca6684c048bbf0d27eae379a1954066", "lat": 38.90241816666666, "rental_uris": {"ios": "https://dc.lft.to/lastmile_qr_scan", "android": "https://dc.lft.to/lastmile_qr_scan"}}, {"type": "electric_scooter", "name": "f3a2297176150e6ad745174bdb032cd3", "fusion_lon": 0.0, "is_reserved": 0, "lon": -77.0080065, "fusion_lat": 0.0, "is_disabled": 0, "bike_id": "f3a2297176150e6ad745174bdb032cd3", "lat": 38.87901, "rental_uris": {"ios": "https://dc.lft.to/lastmile_qr_scan", "android": "https://dc.lft.to/lastmile_qr_scan"}}, {"type": "electric_scooter", "name": "50ec803fa4bf70b54b495a4f2eafeb06", "fusion_lon": 0.0, "is_reserved": 0, "lon": -77.0423045, "fusion_lat": 0.0, "is_disabled": 0, "bike_id": "50ec803fa4bf70b54b495a4f2eafeb06", "lat": 38.90709433333333, "rental_uris": {"ios": "https://dc.lft.to/lastmile_qr_scan", "android": "https://dc.lft.to/lastmile_qr_scan"}}, {"type": "electric_scooter", "name": "ed6f17ef54b1870e3b9f32c7a5ae769c", "fusion_lon": 0.0, "is_reserved": 0, "lon": -77.04388866666666, "fusion_lat": 0.0, "is_disabled": 0, "bike_id": "ed6f17ef54b1870e3b9f32c7a5ae769c", "lat": 38.91549916666666, "rental_uris": {"ios": "https://dc.lft.to/lastmile_qr_scan", "android": "https://dc.lft.to/lastmile_qr_scan"}}, {"type": "electric_scooter", "name": "c5c2e6eabdb1a035f94998ce762cab0b", "fusion_lon": 0.0, "is_reserved": 0, "lon": -77.03219233333333, "fusion_lat": 0.0, "is_disabled": 0, "bike_id": "c5c2e6eabdb1a035f94998ce762cab0b", "lat": 38.919994833333334, "rental_uris": {"ios": "https://dc.lft.to/lastmile_qr_scan", "android": "https://dc.lft.to/lastmile_qr_scan"}}, {"type": "electric_scooter", "name": "d03431cd2328a5316bc25889d26fcf25", "fusion_lon": 0.0, "is_reserved": 0, "lon": -76.98483983333334, "fusion_lat": 0.0, "is_disabled": 0, "bike_id": "d03431cd2328a5316bc25889d26fcf25", "lat": 38.90503433333333, "rental_uris": {"ios": "https://dc.lft.to/lastmile_qr_scan", "android": "https://dc.lft.to/lastmile_qr_scan"}}, {"type": "electric_scooter", "name": "dba92ac5a08b942d407347a4976c1d31", "fusion_lon": 0.0, "is_reserved": 0, "lon": -77.025053, "fusion_lat": 0.0, "is_disabled": 0, "bike_id": "dba92ac5a08b942d407347a4976c1d31", "lat": 38.911057166666666, "rental_uris": {"ios": "https://dc.lft.to/lastmile_qr_scan", "android": "https://dc.lft.to/lastmile_qr_scan"}}, {"type": "electric_scooter", "name": "4e246a17e065db50f00f566e5e0f9498", "fusion_lon": 0.0, "is_reserved": 0, "lon": -77.07164866666666, "fusion_lat": 0.0, "is_disabled": 0, "bike_id": "4e246a17e065db50f00f566e5e0f9498", "lat": 38.908711, "rental_uris": {"ios": "https://dc.lft.to/lastmile_qr_scan", "android": "https://dc.lft.to/lastmile_qr_scan"}}, {"type": "electric_scooter", "name": "af8e01fbb84fc0fa44422e59bb134c08", "fusion_lon": 0.0, "is_reserved": 0, "lon": -76.992484, "fusion_lat": 0.0, "is_disabled": 0, "bike_id": "af8e01fbb84fc0fa44422e59bb134c08", "lat": 38.88265066666666, "rental_uris": {"ios": "https://dc.lft.to/lastmile_qr_scan", "android": "https://dc.lft.to/lastmile_qr_scan"}}, {"type": "electric_bike", "name": "040fef1cbd18b12ba968b9501471d15f", "fusion_lon": 0.0, "is_reserved": 0, "lon": -77.009201, "fusion_lat": 0.0, "is_disabled": 0, "bike_id": "040fef1cbd18b12ba968b9501471d15f", "lat": 38.82787183333333, "rental_uris": {"ios": "https://dc.lft.to/lastmile_qr_scan", "android": "https://dc.lft.to/lastmile_qr_scan"}}, {"type": "electric_scooter", "name": "b5f3e42b2834fa0900ea7243a5dbe96d", "fusion_lon": 0.0, "is_reserved": 0, "lon": -77.03609183333333, "fusion_lat": 0.0, "is_disabled": 0, "bike_id": "b5f3e42b2834fa0900ea7243a5dbe96d", "lat": 38.928527333333335, "rental_uris": {"ios": "https://dc.lft.to/lastmile_qr_scan", "android": "https://dc.lft.to/lastmile_qr_scan"}}, {"type": "electric_scooter", "name": "5aa6a0e03e30127b114dde56549b17bf", "fusion_lon": 0.0, "is_reserved": 0, "lon": -77.03085433333334, "fusion_lat": 0.0, "is_disabled": 0, "bike_id": "5aa6a0e03e30127b114dde56549b17bf", "lat": 38.9386665, "rental_uris": {"ios": "https://dc.lft.to/lastmile_qr_scan", "android": "https://dc.lft.to/lastmile_qr_scan"}}, {"type": "electric_scooter", "name": "bf396f0ff33e322f8e2801671a603355", "fusion_lon": 0.0, "is_reserved": 0, "lon": -77.06770966666667, "fusion_lat": 0.0, "is_disabled": 0, "bike_id": "bf396f0ff33e322f8e2801671a603355", "lat": 38.90411733333333, "rental_uris": {"ios": "https://dc.lft.to/lastmile_qr_scan", "android": "https://dc.lft.to/lastmile_qr_scan"}}, {"type": "electric_scooter", "name": "843e7c071f134cd578e9e05ab6817150", "fusion_lon": 0.0, "is_reserved": 0, "lon": -77.0195075, "fusion_lat": 0.0, "is_disabled": 0, "bike_id": "843e7c071f134cd578e9e05ab6817150", "lat": 38.9193105, "rental_uris": {"ios": "https://dc.lft.to/lastmile_qr_scan", "android": "https://dc.lft.to/lastmile_qr_scan"}}, {"type": "electric_scooter", "name": "508aa25249c47adf5962d69443e557a7", "fusion_lon": 0.0, "is_reserved": 0, "lon": -77.0017325, "fusion_lat": 0.0, "is_disabled": 0, "bike_id": "508aa25249c47adf5962d69443e557a7", "lat": 38.90643033333333, "rental_uris": {"ios": "https://dc.lft.to/lastmile_qr_scan", "android": "https://dc.lft.to/lastmile_qr_scan"}}, {"type": "electric_scooter", "name": "f37bd54987d9b66c0e680dbaf847ae57", "fusion_lon": 0.0, "is_reserved": 0, "lon": -77.032505, "fusion_lat": 0.0, "is_disabled": 0, "bike_id": "f37bd54987d9b66c0e680dbaf847ae57", "lat": 38.899050833333334, "rental_uris": {"ios": "https://dc.lft.to/lastmile_qr_scan", "android": "https://dc.lft.to/lastmile_qr_scan"}}, {"type": "electric_scooter", "name": "b32d3acf49458549a4fa948e9884adc2", "fusion_lon": 0.0, "is_reserved": 0, "lon": -77.05627283333334, "fusion_lat": 0.0, "is_disabled": 0, "bike_id": "b32d3acf49458549a4fa948e9884adc2", "lat": 38.93159466666667, "rental_uris": {"ios": "https://dc.lft.to/lastmile_qr_scan", "android": "https://dc.lft.to/lastmile_qr_scan"}}, {"type": "electric_scooter", "name": "890d5ac402dc2aa84375840f485e5752", "fusion_lon": 0.0, "is_reserved": 0, "lon": -77.03335066666666, "fusion_lat": 0.0, "is_disabled": 0, "bike_id": "890d5ac402dc2aa84375840f485e5752", "lat": 38.901207166666666, "rental_uris": {"ios": "https://dc.lft.to/lastmile_qr_scan", "android": "https://dc.lft.to/lastmile_qr_scan"}}, {"type": "electric_scooter", "name": "d5a9a2907295e9de8a99250201f336e8", "fusion_lon": 0.0, "is_reserved": 0, "lon": -77.03378683333334, "fusion_lat": 0.0, "is_disabled": 0, "bike_id": "d5a9a2907295e9de8a99250201f336e8", "lat": 38.9065665, "rental_uris": {"ios": "https://dc.lft.to/lastmile_qr_scan", "android": "https://dc.lft.to/lastmile_qr_scan"}}, {"type": "electric_scooter", "name": "b27a3c22847bf570da6bea52187094a4", "fusion_lon": 0.0, "is_reserved": 0, "lon": -77.04046216666667, "fusion_lat": 0.0, "is_disabled": 0, "bike_id": "b27a3c22847bf570da6bea52187094a4", "lat": 38.906069333333335, "rental_uris": {"ios": "https://dc.lft.to/lastmile_qr_scan", "android": "https://dc.lft.to/lastmile_qr_scan"}}, {"type": "electric_scooter", "name": "1271208dffaa4e04d140588c1287a213", "fusion_lon": 0.0, "is_reserved": 0, "lon": -77.025334, "fusion_lat": 0.0, "is_disabled": 0, "bike_id": "1271208dffaa4e04d140588c1287a213", "lat": 38.9275515, "rental_uris": {"ios": "https://dc.lft.to/lastmile_qr_scan", "android": "https://dc.lft.to/lastmile_qr_scan"}}, {"type": "electric_bike", "name": "3720edc34a77df80131ae810a5e0d87c", "fusion_lon": 0.0, "is_reserved": 0, "lon": -76.99782616666667, "fusion_lat": 0.0, "is_disabled": 0, "bike_id": "3720edc34a77df80131ae810a5e0d87c", "lat": 38.829134833333335, "rental_uris": {"ios": "https://dc.lft.to/lastmile_qr_scan", "android": "https://dc.lft.to/lastmile_qr_scan"}}, {"type": "electric_scooter", "name": "db524b2be99a998a3a87c756e9bdecd8", "fusion_lon": 0.0, "is_reserved": 0, "lon": -77.01278466666666, "fusion_lat": 0.0, "is_disabled": 0, "bike_id": "db524b2be99a998a3a87c756e9bdecd8", "lat": 38.95665133333333, "rental_uris": {"ios": "https://dc.lft.to/lastmile_qr_scan", "android": "https://dc.lft.to/lastmile_qr_scan"}}, {"type": "electric_scooter", "name": "d922ffabc6493727c47cc5d68e88db82", "fusion_lon": 0.0, "is_reserved": 0, "lon": -76.98056383333333, "fusion_lat": 0.0, "is_disabled": 0, "bike_id": "d922ffabc6493727c47cc5d68e88db82", "lat": 38.90143716666667, "rental_uris": {"ios": "https://dc.lft.to/lastmile_qr_scan", "android": "https://dc.lft.to/lastmile_qr_scan"}}, {"type": "electric_scooter", "name": "56d4d4081a4c0f281103216c0a657265", "fusion_lon": 0.0, "is_reserved": 0, "lon": -77.03092816666667, "fusion_lat": 0.0, "is_disabled": 0, "bike_id": "56d4d4081a4c0f281103216c0a657265", "lat": 38.93388083333333, "rental_uris": {"ios": "https://dc.lft.to/lastmile_qr_scan", "android": "https://dc.lft.to/lastmile_qr_scan"}}, {"type": "electric_scooter", "name": "08056cbb9564e80ff45934fbd0b6b730", "fusion_lon": 0.0, "is_reserved": 0, "lon": -76.996176, "fusion_lat": 0.0, "is_disabled": 0, "bike_id": "08056cbb9564e80ff45934fbd0b6b730", "lat": 38.90448666666666, "rental_uris": {"ios": "https://dc.lft.to/lastmile_qr_scan", "android": "https://dc.lft.to/lastmile_qr_scan"}}, {"type": "electric_scooter", "name": "d344efd0f7b4a8b379f1f6240eb15695", "fusion_lon": 0.0, "is_reserved": 0, "lon": -77.03863283333334, "fusion_lat": 0.0, "is_disabled": 0, "bike_id": "d344efd0f7b4a8b379f1f6240eb15695", "lat": 38.91718816666667, "rental_uris": {"ios": "https://dc.lft.to/lastmile_qr_scan", "android": "https://dc.lft.to/lastmile_qr_scan"}}, {"type": "electric_scooter", "name": "741fa4edc0480738aa1c8a1f4699695b", "fusion_lon": 0.0, "is_reserved": 0, "lon": -77.003373, "fusion_lat": 0.0, "is_disabled": 0, "bike_id": "741fa4edc0480738aa1c8a1f4699695b", "lat": 38.89191616666667, "rental_uris": {"ios": "https://dc.lft.to/lastmile_qr_scan", "android": "https://dc.lft.to/lastmile_qr_scan"}}, {"type": "electric_scooter", "name": "23f0b20adcd0d53bc7dc9e98b0d783bd", "fusion_lon": 0.0, "is_reserved": 0, "lon": -76.99857116666666, "fusion_lat": 0.0, "is_disabled": 0, "bike_id": "23f0b20adcd0d53bc7dc9e98b0d783bd", "lat": 38.902473, "rental_uris": {"ios": "https://dc.lft.to/lastmile_qr_scan", "android": "https://dc.lft.to/lastmile_qr_scan"}}, {"type": "electric_scooter", "name": "e6342c1a845a6c2c7973ff7bcd17a198", "fusion_lon": 0.0, "is_reserved": 0, "lon": -77.088556, "fusion_lat": 0.0, "is_disabled": 0, "bike_id": "e6342c1a845a6c2c7973ff7bcd17a198", "lat": 38.933612833333335, "rental_uris": {"ios": "https://dc.lft.to/lastmile_qr_scan", "android": "https://dc.lft.to/lastmile_qr_scan"}}, {"type": "electric_bike", "name": "c09df260925108527f4f1407b9987655", "fusion_lon": 0.0, "is_reserved": 0, "lon": -76.97221333333333, "fusion_lat": 0.0, "is_disabled": 0, "bike_id": "c09df260925108527f4f1407b9987655", "lat": 38.900393666666666, "rental_uris": {"ios": "https://dc.lft.to/lastmile_qr_scan", "android": "https://dc.lft.to/lastmile_qr_scan"}}, {"type": "electric_scooter", "name": "81c1ce15d14f463672b2b4fe8fe48b3a", "fusion_lon": 0.0, "is_reserved": 0, "lon": -77.02488383333333, "fusion_lat": 0.0, "is_disabled": 0, "bike_id": "81c1ce15d14f463672b2b4fe8fe48b3a", "lat": 38.93864833333333, "rental_uris": {"ios": "https://dc.lft.to/lastmile_qr_scan", "android": "https://dc.lft.to/lastmile_qr_scan"}}, {"type": "electric_scooter", "name": "63bfd61f1d724344e9b5bb213193e412", "fusion_lon": 0.0, "is_reserved": 0, "lon": -77.06493433333333, "fusion_lat": 0.0, "is_disabled": 0, "bike_id": "63bfd61f1d724344e9b5bb213193e412", "lat": 38.91014766666667, "rental_uris": {"ios": "https://dc.lft.to/lastmile_qr_scan", "android": "https://dc.lft.to/lastmile_qr_scan"}}, {"type": "electric_scooter", "name": "95d0e0e952dc0ea08c0d6179adb15006", "fusion_lon": 0.0, "is_reserved": 0, "lon": -77.028967, "fusion_lat": 0.0, "is_disabled": 0, "bike_id": "95d0e0e952dc0ea08c0d6179adb15006", "lat": 38.91689516666667, "rental_uris": {"ios": "https://dc.lft.to/lastmile_qr_scan", "android": "https://dc.lft.to/lastmile_qr_scan"}}, {"type": "electric_scooter", "name": "f0b8176ed253af2e90309ffafcbf4fb9", "fusion_lon": 0.0, "is_reserved": 0, "lon": -77.011466, "fusion_lat": 0.0, "is_disabled": 0, "bike_id": "f0b8176ed253af2e90309ffafcbf4fb9", "lat": 38.895985833333334, "rental_uris": {"ios": "https://dc.lft.to/lastmile_qr_scan", "android": "https://dc.lft.to/lastmile_qr_scan"}}, {"type": "electric_scooter", "name": "fe123610704e8d964947d8fb00c9efe3", "fusion_lon": 0.0, "is_reserved": 0, "lon": -76.9700785, "fusion_lat": 0.0, "is_disabled": 0, "bike_id": "fe123610704e8d964947d8fb00c9efe3", "lat": 38.91544866666667, "rental_uris": {"ios": "https://dc.lft.to/lastmile_qr_scan", "android": "https://dc.lft.to/lastmile_qr_scan"}}, {"type": "electric_scooter", "name": "bf216ecd8948900c4ec65fbbb6767dc6", "fusion_lon": 0.0, "is_reserved": 0, "lon": -76.99500933333333, "fusion_lat": 0.0, "is_disabled": 0, "bike_id": "bf216ecd8948900c4ec65fbbb6767dc6", "lat": 38.8836605, "rental_uris": {"ios": "https://dc.lft.to/lastmile_qr_scan", "android": "https://dc.lft.to/lastmile_qr_scan"}}, {"type": "electric_scooter", "name": "5c8e3da96e3cafd8079defb9f9a6cd49", "fusion_lon": 0.0, "is_reserved": 0, "lon": -77.04691733333334, "fusion_lat": 0.0, "is_disabled": 0, "bike_id": "5c8e3da96e3cafd8079defb9f9a6cd49", "lat": 38.892278166666664, "rental_uris": {"ios": "https://dc.lft.to/lastmile_qr_scan", "android": "https://dc.lft.to/lastmile_qr_scan"}}, {"type": "electric_scooter", "name": "3b88d7283de8b65873c1a21069acd760", "fusion_lon": 0.0, "is_reserved": 0, "lon": -77.06422016666667, "fusion_lat": 0.0, "is_disabled": 0, "bike_id": "3b88d7283de8b65873c1a21069acd760", "lat": 38.905978166666664, "rental_uris": {"ios": "https://dc.lft.to/lastmile_qr_scan", "android": "https://dc.lft.to/lastmile_qr_scan"}}, {"type": "electric_scooter", "name": "7e9b62afff5df93b230739bc5d7b4224", "fusion_lon": 0.0, "is_reserved": 0, "lon": -77.05115433333333, "fusion_lat": 0.0, "is_disabled": 0, "bike_id": "7e9b62afff5df93b230739bc5d7b4224", "lat": 38.92349933333333, "rental_uris": {"ios": "https://dc.lft.to/lastmile_qr_scan", "android": "https://dc.lft.to/lastmile_qr_scan"}}, {"type": "electric_scooter", "name": "7f5d3b45037a4e5af3bf2b4c77468608", "fusion_lon": 0.0, "is_reserved": 0, "lon": -76.98503433333333, "fusion_lat": 0.0, "is_disabled": 0, "bike_id": "7f5d3b45037a4e5af3bf2b4c77468608", "lat": 38.860547, "rental_uris": {"ios": "https://dc.lft.to/lastmile_qr_scan", "android": "https://dc.lft.to/lastmile_qr_scan"}}, {"type": "electric_scooter", "name": "8c60708813379b75b163f02c6edea277", "fusion_lon": 0.0, "is_reserved": 0, "lon": -76.94933133333333, "fusion_lat": 0.0, "is_disabled": 0, "bike_id": "8c60708813379b75b163f02c6edea277", "lat": 38.89353966666667, "rental_uris": {"ios": "https://dc.lft.to/lastmile_qr_scan", "android": "https://dc.lft.to/lastmile_qr_scan"}}, {"type": "electric_scooter", "name": "8b26cd83dc076b8d1061138a7944b175", "fusion_lon": 0.0, "is_reserved": 0, "lon": -76.99627116666667, "fusion_lat": 0.0, "is_disabled": 0, "bike_id": "8b26cd83dc076b8d1061138a7944b175", "lat": 38.900044666666666, "rental_uris": {"ios": "https://dc.lft.to/lastmile_qr_scan", "android": "https://dc.lft.to/lastmile_qr_scan"}}, {"type": "electric_scooter", "name": "4e63c3e497e7609890c58ba1a2017bc3", "fusion_lon": 0.0, "is_reserved": 0, "lon": -77.04042333333334, "fusion_lat": 0.0, "is_disabled": 0, "bike_id": "4e63c3e497e7609890c58ba1a2017bc3", "lat": 38.924634833333336, "rental_uris": {"ios": "https://dc.lft.to/lastmile_qr_scan", "android": "https://dc.lft.to/lastmile_qr_scan"}}, {"type": "electric_scooter", "name": "b419484d970bba32d766101679f795a5", "fusion_lon": 0.0, "is_reserved": 0, "lon": -76.98688816666666, "fusion_lat": 0.0, "is_disabled": 0, "bike_id": "b419484d970bba32d766101679f795a5", "lat": 38.9072875, "rental_uris": {"ios": "https://dc.lft.to/lastmile_qr_scan", "android": "https://dc.lft.to/lastmile_qr_scan"}}, {"type": "electric_scooter", "name": "f8acf2a2fbe83b8dae72598369379dbe", "fusion_lon": 0.0, "is_reserved": 0, "lon": -76.99970516666667, "fusion_lat": 0.0, "is_disabled": 0, "bike_id": "f8acf2a2fbe83b8dae72598369379dbe", "lat": 38.89610416666667, "rental_uris": {"ios": "https://dc.lft.to/lastmile_qr_scan", "android": "https://dc.lft.to/lastmile_qr_scan"}}, {"type": "electric_scooter", "name": "f506c2dd07d7a919526805f6fcf1efb2", "fusion_lon": 0.0, "is_reserved": 0, "lon": -76.9971235, "fusion_lat": 0.0, "is_disabled": 0, "bike_id": "f506c2dd07d7a919526805f6fcf1efb2", "lat": 38.9036865, "rental_uris": {"ios": "https://dc.lft.to/lastmile_qr_scan", "android": "https://dc.lft.to/lastmile_qr_scan"}}, {"type": "electric_scooter", "name": "d926bd6586d60c35c26ab882caee0303", "fusion_lon": 0.0, "is_reserved": 0, "lon": -77.03919583333334, "fusion_lat": 0.0, "is_disabled": 0, "bike_id": "d926bd6586d60c35c26ab882caee0303", "lat": 38.92097783333333, "rental_uris": {"ios": "https://dc.lft.to/lastmile_qr_scan", "android": "https://dc.lft.to/lastmile_qr_scan"}}, {"type": "electric_scooter", "name": "020cf7346c4b2b2a191e12dd7a201212", "fusion_lon": 0.0, "is_reserved": 0, "lon": -77.03280866666667, "fusion_lat": 0.0, "is_disabled": 0, "bike_id": "020cf7346c4b2b2a191e12dd7a201212", "lat": 38.89885116666667, "rental_uris": {"ios": "https://dc.lft.to/lastmile_qr_scan", "android": "https://dc.lft.to/lastmile_qr_scan"}}, {"type": "electric_bike", "name": "405e0df13a580d6225e64c5715524ce1", "fusion_lon": 0.0, "is_reserved": 0, "lon": -77.05160983333333, "fusion_lat": 0.0, "is_disabled": 0, "bike_id": "405e0df13a580d6225e64c5715524ce1", "lat": 39.0430455, "rental_uris": {"ios": "https://dc.lft.to/lastmile_qr_scan", "android": "https://dc.lft.to/lastmile_qr_scan"}}, {"type": "electric_scooter", "name": "03f8741e71a5636bd579bdf83a0fea4a", "fusion_lon": 0.0, "is_reserved": 0, "lon": -77.0050715, "fusion_lat": 0.0, "is_disabled": 0, "bike_id": "03f8741e71a5636bd579bdf83a0fea4a", "lat": 38.91191033333333, "rental_uris": {"ios": "https://dc.lft.to/lastmile_qr_scan", "android": "https://dc.lft.to/lastmile_qr_scan"}}, {"type": "electric_scooter", "name": "aef72ee0c57a7efcc5feaebc74220b9c", "fusion_lon": 0.0, "is_reserved": 0, "lon": -77.036577, "fusion_lat": 0.0, "is_disabled": 0, "bike_id": "aef72ee0c57a7efcc5feaebc74220b9c", "lat": 38.92215216666666, "rental_uris": {"ios": "https://dc.lft.to/lastmile_qr_scan", "android": "https://dc.lft.to/lastmile_qr_scan"}}, {"type": "electric_scooter", "name": "e8319bf6356c1e9cb0159345eae2fd7b", "fusion_lon": 0.0, "is_reserved": 0, "lon": -77.03479133333333, "fusion_lat": 0.0, "is_disabled": 0, "bike_id": "e8319bf6356c1e9cb0159345eae2fd7b", "lat": 38.92157566666667, "rental_uris": {"ios": "https://dc.lft.to/lastmile_qr_scan", "android": "https://dc.lft.to/lastmile_qr_scan"}}, {"type": "electric_scooter", "name": "a75755b82000d693801111e697c9c805", "fusion_lon": 0.0, "is_reserved": 0, "lon": -77.021121, "fusion_lat": 0.0, "is_disabled": 0, "bike_id": "a75755b82000d693801111e697c9c805", "lat": 38.94078966666667, "rental_uris": {"ios": "https://dc.lft.to/lastmile_qr_scan", "android": "https://dc.lft.to/lastmile_qr_scan"}}, {"type": "electric_scooter", "name": "5a449b9d801500163b69186ee3a81d43", "fusion_lon": 0.0, "is_reserved": 0, "lon": -77.0363395, "fusion_lat": 0.0, "is_disabled": 0, "bike_id": "5a449b9d801500163b69186ee3a81d43", "lat": 38.90263316666667, "rental_uris": {"ios": "https://dc.lft.to/lastmile_qr_scan", "android": "https://dc.lft.to/lastmile_qr_scan"}}, {"type": "electric_scooter", "name": "d06c75d74dc5b1dfc323937eb8976119", "fusion_lon": 0.0, "is_reserved": 0, "lon": -77.02980233333334, "fusion_lat": 0.0, "is_disabled": 0, "bike_id": "d06c75d74dc5b1dfc323937eb8976119", "lat": 38.89633516666667, "rental_uris": {"ios": "https://dc.lft.to/lastmile_qr_scan", "android": "https://dc.lft.to/lastmile_qr_scan"}}, {"type": "electric_scooter", "name": "ce8da21bc36814154e778cf588b5d8be", "fusion_lon": 0.0, "is_reserved": 0, "lon": -77.02726033333333, "fusion_lat": 0.0, "is_disabled": 0, "bike_id": "ce8da21bc36814154e778cf588b5d8be", "lat": 38.95179683333333, "rental_uris": {"ios": "https://dc.lft.to/lastmile_qr_scan", "android": "https://dc.lft.to/lastmile_qr_scan"}}, {"type": "electric_scooter", "name": "0b6eab743106206ab139ef5323d60485", "fusion_lon": 0.0, "is_reserved": 0, "lon": -76.98067116666667, "fusion_lat": 0.0, "is_disabled": 0, "bike_id": "0b6eab743106206ab139ef5323d60485", "lat": 38.9002145, "rental_uris": {"ios": "https://dc.lft.to/lastmile_qr_scan", "android": "https://dc.lft.to/lastmile_qr_scan"}}, {"type": "electric_scooter", "name": "4aa44846deb823fbc98fe3db6ea9c1d0", "fusion_lon": 0.0, "is_reserved": 0, "lon": -77.03863066666666, "fusion_lat": 0.0, "is_disabled": 0, "bike_id": "4aa44846deb823fbc98fe3db6ea9c1d0", "lat": 38.917181166666666, "rental_uris": {"ios": "https://dc.lft.to/lastmile_qr_scan", "android": "https://dc.lft.to/lastmile_qr_scan"}}, {"type": "electric_scooter", "name": "717c67deed5fc3050381495ecee40d4d", "fusion_lon": 0.0, "is_reserved": 0, "lon": -77.05087733333333, "fusion_lat": 0.0, "is_disabled": 0, "bike_id": "717c67deed5fc3050381495ecee40d4d", "lat": 38.923476666666666, "rental_uris": {"ios": "https://dc.lft.to/lastmile_qr_scan", "android": "https://dc.lft.to/lastmile_qr_scan"}}, {"type": "electric_scooter", "name": "b2d3426fc44e3c636674f31518fbebcb", "fusion_lon": 0.0, "is_reserved": 0, "lon": -76.996906, "fusion_lat": 0.0, "is_disabled": 0, "bike_id": "b2d3426fc44e3c636674f31518fbebcb", "lat": 38.9083055, "rental_uris": {"ios": "https://dc.lft.to/lastmile_qr_scan", "android": "https://dc.lft.to/lastmile_qr_scan"}}, {"type": "electric_bike", "name": "f61c4eb4c49e1229d891a9e7810f5c3e", "fusion_lon": 0.0, "is_reserved": 0, "lon": -77.072285, "fusion_lat": 0.0, "is_disabled": 0, "bike_id": "f61c4eb4c49e1229d891a9e7810f5c3e", "lat": 38.96817, "rental_uris": {"ios": "https://dc.lft.to/lastmile_qr_scan", "android": "https://dc.lft.to/lastmile_qr_scan"}}, {"type": "electric_scooter", "name": "a794d8bdbc9ae7bc8b92db87ad2c42bb", "fusion_lon": 0.0, "is_reserved": 0, "lon": -77.052339, "fusion_lat": 0.0, "is_disabled": 0, "bike_id": "a794d8bdbc9ae7bc8b92db87ad2c42bb", "lat": 38.92465283333333, "rental_uris": {"ios": "https://dc.lft.to/lastmile_qr_scan", "android": "https://dc.lft.to/lastmile_qr_scan"}}, {"type": "electric_scooter", "name": "263e99702474e731932d6c6afa93511a", "fusion_lon": 0.0, "is_reserved": 0, "lon": -76.98486916666667, "fusion_lat": 0.0, "is_disabled": 0, "bike_id": "263e99702474e731932d6c6afa93511a", "lat": 38.904467333333336, "rental_uris": {"ios": "https://dc.lft.to/lastmile_qr_scan", "android": "https://dc.lft.to/lastmile_qr_scan"}}, {"type": "electric_scooter", "name": "7ee41339f78b70aa47f0c9aa0d60fcb6", "fusion_lon": 0.0, "is_reserved": 0, "lon": -77.03165233333333, "fusion_lat": 0.0, "is_disabled": 0, "bike_id": "7ee41339f78b70aa47f0c9aa0d60fcb6", "lat": 38.916253, "rental_uris": {"ios": "https://dc.lft.to/lastmile_qr_scan", "android": "https://dc.lft.to/lastmile_qr_scan"}}, {"type": "electric_scooter", "name": "99343cf65eff036119171b4f31645cc1", "fusion_lon": 0.0, "is_reserved": 0, "lon": -77.0058215, "fusion_lat": 0.0, "is_disabled": 0, "bike_id": "99343cf65eff036119171b4f31645cc1", "lat": 38.905607, "rental_uris": {"ios": "https://dc.lft.to/lastmile_qr_scan", "android": "https://dc.lft.to/lastmile_qr_scan"}}, {"type": "electric_scooter", "name": "6fbdff2a7068397550068ebe3ccd084b", "fusion_lon": 0.0, "is_reserved": 0, "lon": -77.01628083333334, "fusion_lat": 0.0, "is_disabled": 0, "bike_id": "6fbdff2a7068397550068ebe3ccd084b", "lat": 38.89984533333333, "rental_uris": {"ios": "https://dc.lft.to/lastmile_qr_scan", "android": "https://dc.lft.to/lastmile_qr_scan"}}, {"type": "electric_scooter", "name": "7148747b39604719359a5f0d8ad2f026", "fusion_lon": 0.0, "is_reserved": 0, "lon": -76.96907066666667, "fusion_lat": 0.0, "is_disabled": 0, "bike_id": "7148747b39604719359a5f0d8ad2f026", "lat": 38.86087, "rental_uris": {"ios": "https://dc.lft.to/lastmile_qr_scan", "android": "https://dc.lft.to/lastmile_qr_scan"}}, {"type": "electric_scooter", "name": "74ca81562d0a9cabd6ac3f03a5227b4c", "fusion_lon": 0.0, "is_reserved": 0, "lon": -77.0284025, "fusion_lat": 0.0, "is_disabled": 0, "bike_id": "74ca81562d0a9cabd6ac3f03a5227b4c", "lat": 38.932322, "rental_uris": {"ios": "https://dc.lft.to/lastmile_qr_scan", "android": "https://dc.lft.to/lastmile_qr_scan"}}, {"type": "electric_scooter", "name": "99b22115a804f34e3094ca3ddc7ab86c", "fusion_lon": 0.0, "is_reserved": 0, "lon": -76.99857883333334, "fusion_lat": 0.0, "is_disabled": 0, "bike_id": "99b22115a804f34e3094ca3ddc7ab86c", "lat": 38.908839, "rental_uris": {"ios": "https://dc.lft.to/lastmile_qr_scan", "android": "https://dc.lft.to/lastmile_qr_scan"}}, {"type": "electric_scooter", "name": "ec8add7d5123d710c92144cf905c119f", "fusion_lon": 0.0, "is_reserved": 0, "lon": -77.03537666666666, "fusion_lat": 0.0, "is_disabled": 0, "bike_id": "ec8add7d5123d710c92144cf905c119f", "lat": 38.9228, "rental_uris": {"ios": "https://dc.lft.to/lastmile_qr_scan", "android": "https://dc.lft.to/lastmile_qr_scan"}}, {"type": "electric_scooter", "name": "b47dff24937263ede767fbde44ebc1ed", "fusion_lon": 0.0, "is_reserved": 0, "lon": -77.02315366666667, "fusion_lat": 0.0, "is_disabled": 0, "bike_id": "b47dff24937263ede767fbde44ebc1ed", "lat": 38.929430333333336, "rental_uris": {"ios": "https://dc.lft.to/lastmile_qr_scan", "android": "https://dc.lft.to/lastmile_qr_scan"}}, {"type": "electric_scooter", "name": "464b657c3f4e190e4b924568b7f6598e", "fusion_lon": 0.0, "is_reserved": 0, "lon": -76.94932066666667, "fusion_lat": 0.0, "is_disabled": 0, "bike_id": "464b657c3f4e190e4b924568b7f6598e", "lat": 38.893555166666665, "rental_uris": {"ios": "https://dc.lft.to/lastmile_qr_scan", "android": "https://dc.lft.to/lastmile_qr_scan"}}, {"type": "electric_scooter", "name": "8b2ea3643614734de76802499e4bb013", "fusion_lon": 0.0, "is_reserved": 0, "lon": -77.02221666666667, "fusion_lat": 0.0, "is_disabled": 0, "bike_id": "8b2ea3643614734de76802499e4bb013", "lat": 38.91269966666667, "rental_uris": {"ios": "https://dc.lft.to/lastmile_qr_scan", "android": "https://dc.lft.to/lastmile_qr_scan"}}, {"type": "electric_scooter", "name": "03a39b9205e960a7a74e08c3848d3a5f", "fusion_lon": 0.0, "is_reserved": 0, "lon": -77.04500083333333, "fusion_lat": 0.0, "is_disabled": 0, "bike_id": "03a39b9205e960a7a74e08c3848d3a5f", "lat": 38.914169, "rental_uris": {"ios": "https://dc.lft.to/lastmile_qr_scan", "android": "https://dc.lft.to/lastmile_qr_scan"}}, {"type": "electric_scooter", "name": "f7a8f41b3a72153c64c5a9fe01bf7936", "fusion_lon": 0.0, "is_reserved": 0, "lon": -77.0324295, "fusion_lat": 0.0, "is_disabled": 0, "bike_id": "f7a8f41b3a72153c64c5a9fe01bf7936", "lat": 38.925347, "rental_uris": {"ios": "https://dc.lft.to/lastmile_qr_scan", "android": "https://dc.lft.to/lastmile_qr_scan"}}, {"type": "electric_scooter", "name": "e607341b32f42bc66ec67ccd278b0f9d", "fusion_lon": 0.0, "is_reserved": 0, "lon": -77.0433145, "fusion_lat": 0.0, "is_disabled": 0, "bike_id": "e607341b32f42bc66ec67ccd278b0f9d", "lat": 38.89227733333333, "rental_uris": {"ios": "https://dc.lft.to/lastmile_qr_scan", "android": "https://dc.lft.to/lastmile_qr_scan"}}, {"type": "electric_scooter", "name": "36f2c95c3ea3abd01c42b9736616c867", "fusion_lon": 0.0, "is_reserved": 0, "lon": -77.0281755, "fusion_lat": 0.0, "is_disabled": 0, "bike_id": "36f2c95c3ea3abd01c42b9736616c867", "lat": 38.9061415, "rental_uris": {"ios": "https://dc.lft.to/lastmile_qr_scan", "android": "https://dc.lft.to/lastmile_qr_scan"}}, {"type": "electric_scooter", "name": "ab31ead6c4d6c8295516f36eafda8f51", "fusion_lon": 0.0, "is_reserved": 0, "lon": -77.03441416666666, "fusion_lat": 0.0, "is_disabled": 0, "bike_id": "ab31ead6c4d6c8295516f36eafda8f51", "lat": 38.91024266666667, "rental_uris": {"ios": "https://dc.lft.to/lastmile_qr_scan", "android": "https://dc.lft.to/lastmile_qr_scan"}}, {"type": "electric_scooter", "name": "37099b64c40c201cda86b9500f31338e", "fusion_lon": 0.0, "is_reserved": 0, "lon": -77.01597866666667, "fusion_lat": 0.0, "is_disabled": 0, "bike_id": "37099b64c40c201cda86b9500f31338e", "lat": 38.916911, "rental_uris": {"ios": "https://dc.lft.to/lastmile_qr_scan", "android": "https://dc.lft.to/lastmile_qr_scan"}}, {"type": "electric_scooter", "name": "01c3e9cc77e0344a3691679e1c401ba8", "fusion_lon": 0.0, "is_reserved": 0, "lon": -77.03377266666666, "fusion_lat": 0.0, "is_disabled": 0, "bike_id": "01c3e9cc77e0344a3691679e1c401ba8", "lat": 38.919724333333335, "rental_uris": {"ios": "https://dc.lft.to/lastmile_qr_scan", "android": "https://dc.lft.to/lastmile_qr_scan"}}, {"type": "electric_scooter", "name": "46cc386f5c1b60f648a102514a0af645", "fusion_lon": 0.0, "is_reserved": 0, "lon": -76.9993505, "fusion_lat": 0.0, "is_disabled": 0, "bike_id": "46cc386f5c1b60f648a102514a0af645", "lat": 38.843144333333335, "rental_uris": {"ios": "https://dc.lft.to/lastmile_qr_scan", "android": "https://dc.lft.to/lastmile_qr_scan"}}, {"type": "electric_scooter", "name": "4482953ecefaa7456614177eef8c873e", "fusion_lon": 0.0, "is_reserved": 0, "lon": -76.988298, "fusion_lat": 0.0, "is_disabled": 0, "bike_id": "4482953ecefaa7456614177eef8c873e", "lat": 38.90037733333333, "rental_uris": {"ios": "https://dc.lft.to/lastmile_qr_scan", "android": "https://dc.lft.to/lastmile_qr_scan"}}, {"type": "electric_scooter", "name": "b800382aa1a3d478f19dfb73f0c23cb5", "fusion_lon": 0.0, "is_reserved": 0, "lon": -77.01242766666667, "fusion_lat": 0.0, "is_disabled": 0, "bike_id": "b800382aa1a3d478f19dfb73f0c23cb5", "lat": 38.885985833333336, "rental_uris": {"ios": "https://dc.lft.to/lastmile_qr_scan", "android": "https://dc.lft.to/lastmile_qr_scan"}}, {"type": "electric_scooter", "name": "8970135462a1ed7c0851c9ef62e1f6bf", "fusion_lon": 0.0, "is_reserved": 0, "lon": -77.02341833333334, "fusion_lat": 0.0, "is_disabled": 0, "bike_id": "8970135462a1ed7c0851c9ef62e1f6bf", "lat": 38.916704833333334, "rental_uris": {"ios": "https://dc.lft.to/lastmile_qr_scan", "android": "https://dc.lft.to/lastmile_qr_scan"}}, {"type": "electric_bike", "name": "ab933daab52193aad462ef0819ff5303", "fusion_lon": 0.0, "is_reserved": 0, "lon": -76.92134516666667, "fusion_lat": 0.0, "is_disabled": 0, "bike_id": "ab933daab52193aad462ef0819ff5303", "lat": 39.013722333333334, "rental_uris": {"ios": "https://dc.lft.to/lastmile_qr_scan", "android": "https://dc.lft.to/lastmile_qr_scan"}}, {"type": "electric_scooter", "name": "b89aa63c00a44c14d23c429e8e64e927", "fusion_lon": 0.0, "is_reserved": 0, "lon": -76.9552705, "fusion_lat": 0.0, "is_disabled": 0, "bike_id": "b89aa63c00a44c14d23c429e8e64e927", "lat": 38.8877995, "rental_uris": {"ios": "https://dc.lft.to/lastmile_qr_scan", "android": "https://dc.lft.to/lastmile_qr_scan"}}, {"type": "electric_scooter", "name": "b035229b6710b2ed57723398d0e6f88e", "fusion_lon": 0.0, "is_reserved": 0, "lon": -76.9903145, "fusion_lat": 0.0, "is_disabled": 0, "bike_id": "b035229b6710b2ed57723398d0e6f88e", "lat": 38.8960375, "rental_uris": {"ios": "https://dc.lft.to/lastmile_qr_scan", "android": "https://dc.lft.to/lastmile_qr_scan"}}, {"type": "electric_scooter", "name": "9b3907bc5789ed7300cb0dd1a60d7b82", "fusion_lon": 0.0, "is_reserved": 0, "lon": -77.02958783333334, "fusion_lat": 0.0, "is_disabled": 0, "bike_id": "9b3907bc5789ed7300cb0dd1a60d7b82", "lat": 38.916774, "rental_uris": {"ios": "https://dc.lft.to/lastmile_qr_scan", "android": "https://dc.lft.to/lastmile_qr_scan"}}, {"type": "electric_scooter", "name": "e1abaa34e50f3463650ecddeee921b8f", "fusion_lon": 0.0, "is_reserved": 0, "lon": -77.006006, "fusion_lat": 0.0, "is_disabled": 0, "bike_id": "e1abaa34e50f3463650ecddeee921b8f", "lat": 38.87550316666667, "rental_uris": {"ios": "https://dc.lft.to/lastmile_qr_scan", "android": "https://dc.lft.to/lastmile_qr_scan"}}, {"type": "electric_scooter", "name": "e0528064a1a0390192bee2179e5c072a", "fusion_lon": 0.0, "is_reserved": 0, "lon": -77.03190366666666, "fusion_lat": 0.0, "is_disabled": 0, "bike_id": "e0528064a1a0390192bee2179e5c072a", "lat": 38.917889833333334, "rental_uris": {"ios": "https://dc.lft.to/lastmile_qr_scan", "android": "https://dc.lft.to/lastmile_qr_scan"}}, {"type": "electric_scooter", "name": "eadba4547fb8a8b32d23964782db587e", "fusion_lon": 0.0, "is_reserved": 0, "lon": -77.04208566666667, "fusion_lat": 0.0, "is_disabled": 0, "bike_id": "eadba4547fb8a8b32d23964782db587e", "lat": 38.90689233333333, "rental_uris": {"ios": "https://dc.lft.to/lastmile_qr_scan", "android": "https://dc.lft.to/lastmile_qr_scan"}}, {"type": "electric_scooter", "name": "9f17a50d95ded271a021c7d4244d974b", "fusion_lon": 0.0, "is_reserved": 0, "lon": -77.03850633333333, "fusion_lat": 0.0, "is_disabled": 0, "bike_id": "9f17a50d95ded271a021c7d4244d974b", "lat": 38.9080085, "rental_uris": {"ios": "https://dc.lft.to/lastmile_qr_scan", "android": "https://dc.lft.to/lastmile_qr_scan"}}, {"type": "electric_scooter", "name": "95ff588be7a44bb9f2478db0fe5b8438", "fusion_lon": 0.0, "is_reserved": 0, "lon": -76.937299, "fusion_lat": 0.0, "is_disabled": 0, "bike_id": "95ff588be7a44bb9f2478db0fe5b8438", "lat": 38.8901655, "rental_uris": {"ios": "https://dc.lft.to/lastmile_qr_scan", "android": "https://dc.lft.to/lastmile_qr_scan"}}, {"type": "electric_scooter", "name": "0dc6360b9e580483f22ad4cdc604316e", "fusion_lon": 0.0, "is_reserved": 0, "lon": -77.04026133333333, "fusion_lat": 0.0, "is_disabled": 0, "bike_id": "0dc6360b9e580483f22ad4cdc604316e", "lat": 38.89794466666667, "rental_uris": {"ios": "https://dc.lft.to/lastmile_qr_scan", "android": "https://dc.lft.to/lastmile_qr_scan"}}, {"type": "electric_scooter", "name": "1024e636f4b2e2399497a4ff832463db", "fusion_lon": 0.0, "is_reserved": 0, "lon": -77.00856083333333, "fusion_lat": 0.0, "is_disabled": 0, "bike_id": "1024e636f4b2e2399497a4ff832463db", "lat": 38.901332833333335, "rental_uris": {"ios": "https://dc.lft.to/lastmile_qr_scan", "android": "https://dc.lft.to/lastmile_qr_scan"}}, {"type": "electric_scooter", "name": "74d9563661546fcc3c883e8e07b794dd", "fusion_lon": 0.0, "is_reserved": 0, "lon": -77.0425005, "fusion_lat": 0.0, "is_disabled": 0, "bike_id": "74d9563661546fcc3c883e8e07b794dd", "lat": 38.922684833333335, "rental_uris": {"ios": "https://dc.lft.to/lastmile_qr_scan", "android": "https://dc.lft.to/lastmile_qr_scan"}}, {"type": "electric_scooter", "name": "db0706044defa8c270855f2596b175e2", "fusion_lon": 0.0, "is_reserved": 0, "lon": -77.06480916666666, "fusion_lat": 0.0, "is_disabled": 0, "bike_id": "db0706044defa8c270855f2596b175e2", "lat": 38.934801, "rental_uris": {"ios": "https://dc.lft.to/lastmile_qr_scan", "android": "https://dc.lft.to/lastmile_qr_scan"}}, {"type": "electric_scooter", "name": "26dacc93cfbfb10d93137242a3d5237c", "fusion_lon": 0.0, "is_reserved": 0, "lon": -77.02736816666666, "fusion_lat": 0.0, "is_disabled": 0, "bike_id": "26dacc93cfbfb10d93137242a3d5237c", "lat": 38.951969, "rental_uris": {"ios": "https://dc.lft.to/lastmile_qr_scan", "android": "https://dc.lft.to/lastmile_qr_scan"}}, {"type": "electric_scooter", "name": "fea7114961c202f12fbd7c1cfbbbb760", "fusion_lon": 0.0, "is_reserved": 0, "lon": -77.04171166666667, "fusion_lat": 0.0, "is_disabled": 0, "bike_id": "fea7114961c202f12fbd7c1cfbbbb760", "lat": 38.90506516666667, "rental_uris": {"ios": "https://dc.lft.to/lastmile_qr_scan", "android": "https://dc.lft.to/lastmile_qr_scan"}}, {"type": "electric_bike", "name": "d45963c4ef3d4b76129d421f29b69e0f", "fusion_lon": 0.0, "is_reserved": 0, "lon": -77.07160983333333, "fusion_lat": 0.0, "is_disabled": 0, "bike_id": "d45963c4ef3d4b76129d421f29b69e0f", "lat": 38.907744666666666, "rental_uris": {"ios": "https://dc.lft.to/lastmile_qr_scan", "android": "https://dc.lft.to/lastmile_qr_scan"}}, {"type": "electric_scooter", "name": "8e395c3c0aa895bad49d7f99e37641d2", "fusion_lon": 0.0, "is_reserved": 0, "lon": -77.0401495, "fusion_lat": 0.0, "is_disabled": 0, "bike_id": "8e395c3c0aa895bad49d7f99e37641d2", "lat": 38.901218, "rental_uris": {"ios": "https://dc.lft.to/lastmile_qr_scan", "android": "https://dc.lft.to/lastmile_qr_scan"}}, {"type": "electric_scooter", "name": "daee9324f434a7427b1eb82318ef8d24", "fusion_lon": 0.0, "is_reserved": 0, "lon": -76.9487385, "fusion_lat": 0.0, "is_disabled": 0, "bike_id": "daee9324f434a7427b1eb82318ef8d24", "lat": 38.895498, "rental_uris": {"ios": "https://dc.lft.to/lastmile_qr_scan", "android": "https://dc.lft.to/lastmile_qr_scan"}}, {"type": "electric_scooter", "name": "aa59bff3f379cd2be5512a4e8ae3ab82", "fusion_lon": 0.0, "is_reserved": 0, "lon": -77.06912166666666, "fusion_lat": 0.0, "is_disabled": 0, "bike_id": "aa59bff3f379cd2be5512a4e8ae3ab82", "lat": 38.90634416666666, "rental_uris": {"ios": "https://dc.lft.to/lastmile_qr_scan", "android": "https://dc.lft.to/lastmile_qr_scan"}}, {"type": "electric_scooter", "name": "0eebc4fdb46e0a596f2a33b24544f1ce", "fusion_lon": 0.0, "is_reserved": 0, "lon": -77.06004383333334, "fusion_lat": 0.0, "is_disabled": 0, "bike_id": "0eebc4fdb46e0a596f2a33b24544f1ce", "lat": 38.90147416666667, "rental_uris": {"ios": "https://dc.lft.to/lastmile_qr_scan", "android": "https://dc.lft.to/lastmile_qr_scan"}}, {"type": "electric_bike", "name": "2128cd17703c19ec3bd05c4ee7a065cf", "fusion_lon": 0.0, "is_reserved": 0, "lon": -77.2332835, "fusion_lat": 0.0, "is_disabled": 0, "bike_id": "2128cd17703c19ec3bd05c4ee7a065cf", "lat": 38.87278633333333, "rental_uris": {"ios": "https://dc.lft.to/lastmile_qr_scan", "android": "https://dc.lft.to/lastmile_qr_scan"}}, {"type": "electric_scooter", "name": "e9ac98032924cf231ca8c654117ab313", "fusion_lon": 0.0, "is_reserved": 0, "lon": -76.94158033333333, "fusion_lat": 0.0, "is_disabled": 0, "bike_id": "e9ac98032924cf231ca8c654117ab313", "lat": 38.908251, "rental_uris": {"ios": "https://dc.lft.to/lastmile_qr_scan", "android": "https://dc.lft.to/lastmile_qr_scan"}}, {"type": "electric_scooter", "name": "d3ffabc85f6502abe30a90056fe4b663", "fusion_lon": 0.0, "is_reserved": 0, "lon": -76.99224716666667, "fusion_lat": 0.0, "is_disabled": 0, "bike_id": "d3ffabc85f6502abe30a90056fe4b663", "lat": 38.908210833333335, "rental_uris": {"ios": "https://dc.lft.to/lastmile_qr_scan", "android": "https://dc.lft.to/lastmile_qr_scan"}}, {"type": "electric_scooter", "name": "677b01cf1f857f38956e3c4cecb9db8a", "fusion_lon": 0.0, "is_reserved": 0, "lon": -77.03482566666666, "fusion_lat": 0.0, "is_disabled": 0, "bike_id": "677b01cf1f857f38956e3c4cecb9db8a", "lat": 38.903622666666664, "rental_uris": {"ios": "https://dc.lft.to/lastmile_qr_scan", "android": "https://dc.lft.to/lastmile_qr_scan"}}, {"type": "electric_scooter", "name": "248b05e1f3aedbf08dff64da6a113256", "fusion_lon": 0.0, "is_reserved": 0, "lon": -77.03208683333334, "fusion_lat": 0.0, "is_disabled": 0, "bike_id": "248b05e1f3aedbf08dff64da6a113256", "lat": 38.917855, "rental_uris": {"ios": "https://dc.lft.to/lastmile_qr_scan", "android": "https://dc.lft.to/lastmile_qr_scan"}}, {"type": "electric_scooter", "name": "d85fa59f337ad061deddf7c50d328d9e", "fusion_lon": 0.0, "is_reserved": 0, "lon": -77.05125333333334, "fusion_lat": 0.0, "is_disabled": 0, "bike_id": "d85fa59f337ad061deddf7c50d328d9e", "lat": 38.902109833333334, "rental_uris": {"ios": "https://dc.lft.to/lastmile_qr_scan", "android": "https://dc.lft.to/lastmile_qr_scan"}}, {"type": "electric_scooter", "name": "8c481e81d3b46bc24cd9113a5c122962", "fusion_lon": 0.0, "is_reserved": 0, "lon": -77.0413245, "fusion_lat": 0.0, "is_disabled": 0, "bike_id": "8c481e81d3b46bc24cd9113a5c122962", "lat": 38.91379766666667, "rental_uris": {"ios": "https://dc.lft.to/lastmile_qr_scan", "android": "https://dc.lft.to/lastmile_qr_scan"}}, {"type": "electric_scooter", "name": "f4c9df2a356c8b28ca7210503f07161e", "fusion_lon": 0.0, "is_reserved": 0, "lon": -77.02596716666666, "fusion_lat": 0.0, "is_disabled": 0, "bike_id": "f4c9df2a356c8b28ca7210503f07161e", "lat": 38.9169245, "rental_uris": {"ios": "https://dc.lft.to/lastmile_qr_scan", "android": "https://dc.lft.to/lastmile_qr_scan"}}, {"type": "electric_scooter", "name": "3823fcc8ce413b1a3b159d66aebf3c47", "fusion_lon": 0.0, "is_reserved": 0, "lon": -77.0399485, "fusion_lat": 0.0, "is_disabled": 0, "bike_id": "3823fcc8ce413b1a3b159d66aebf3c47", "lat": 38.92725566666667, "rental_uris": {"ios": "https://dc.lft.to/lastmile_qr_scan", "android": "https://dc.lft.to/lastmile_qr_scan"}}, {"type": "electric_scooter", "name": "9578f038221a0a3cf554c514bb8c1195", "fusion_lon": 0.0, "is_reserved": 0, "lon": -77.006662, "fusion_lat": 0.0, "is_disabled": 0, "bike_id": "9578f038221a0a3cf554c514bb8c1195", "lat": 38.89999066666667, "rental_uris": {"ios": "https://dc.lft.to/lastmile_qr_scan", "android": "https://dc.lft.to/lastmile_qr_scan"}}, {"type": "electric_scooter", "name": "66504befd0c635ac71e01faf80296634", "fusion_lon": 0.0, "is_reserved": 0, "lon": -77.06754, "fusion_lat": 0.0, "is_disabled": 0, "bike_id": "66504befd0c635ac71e01faf80296634", "lat": 38.93615883333333, "rental_uris": {"ios": "https://dc.lft.to/lastmile_qr_scan", "android": "https://dc.lft.to/lastmile_qr_scan"}}, {"type": "electric_scooter", "name": "daae3bf3012c084817758012dcf5a836", "fusion_lon": 0.0, "is_reserved": 0, "lon": -77.044073, "fusion_lat": 0.0, "is_disabled": 0, "bike_id": "daae3bf3012c084817758012dcf5a836", "lat": 38.897373, "rental_uris": {"ios": "https://dc.lft.to/lastmile_qr_scan", "android": "https://dc.lft.to/lastmile_qr_scan"}}, {"type": "electric_scooter", "name": "07e9649370b8de2ffb6729104e83bbbf", "fusion_lon": 0.0, "is_reserved": 0, "lon": -77.044793, "fusion_lat": 0.0, "is_disabled": 0, "bike_id": "07e9649370b8de2ffb6729104e83bbbf", "lat": 38.91087316666667, "rental_uris": {"ios": "https://dc.lft.to/lastmile_qr_scan", "android": "https://dc.lft.to/lastmile_qr_scan"}}, {"type": "electric_scooter", "name": "1def1d08b7e662aa88cd085633657c90", "fusion_lon": 0.0, "is_reserved": 0, "lon": -77.03430666666667, "fusion_lat": 0.0, "is_disabled": 0, "bike_id": "1def1d08b7e662aa88cd085633657c90", "lat": 38.9040635, "rental_uris": {"ios": "https://dc.lft.to/lastmile_qr_scan", "android": "https://dc.lft.to/lastmile_qr_scan"}}, {"type": "electric_bike", "name": "8ab72f8bcff498d8753873e250d22e66", "fusion_lon": 0.0, "is_reserved": 0, "lon": -77.139356, "fusion_lat": 0.0, "is_disabled": 0, "bike_id": "8ab72f8bcff498d8753873e250d22e66", "lat": 38.872982, "rental_uris": {"ios": "https://dc.lft.to/lastmile_qr_scan", "android": "https://dc.lft.to/lastmile_qr_scan"}}, {"type": "electric_scooter", "name": "27f0491f9f251b284d759080990740fa", "fusion_lon": 0.0, "is_reserved": 0, "lon": -77.0304785, "fusion_lat": 0.0, "is_disabled": 0, "bike_id": "27f0491f9f251b284d759080990740fa", "lat": 38.904365166666665, "rental_uris": {"ios": "https://dc.lft.to/lastmile_qr_scan", "android": "https://dc.lft.to/lastmile_qr_scan"}}, {"type": "electric_scooter", "name": "34a5467aff9e595255a1676800d2159f", "fusion_lon": 0.0, "is_reserved": 0, "lon": -77.04804716666666, "fusion_lat": 0.0, "is_disabled": 0, "bike_id": "34a5467aff9e595255a1676800d2159f", "lat": 38.89223283333333, "rental_uris": {"ios": "https://dc.lft.to/lastmile_qr_scan", "android": "https://dc.lft.to/lastmile_qr_scan"}}, {"type": "electric_bike", "name": "96dadac7cdded77f136a565f6874a850", "fusion_lon": 0.0, "is_reserved": 0, "lon": -77.12464733333333, "fusion_lat": 0.0, "is_disabled": 0, "bike_id": "96dadac7cdded77f136a565f6874a850", "lat": 38.853733, "rental_uris": {"ios": "https://dc.lft.to/lastmile_qr_scan", "android": "https://dc.lft.to/lastmile_qr_scan"}}, {"type": "electric_scooter", "name": "c78cbdefbe135de4bdbdcebb2b445c78", "fusion_lon": 0.0, "is_reserved": 0, "lon": -77.012075, "fusion_lat": 0.0, "is_disabled": 0, "bike_id": "c78cbdefbe135de4bdbdcebb2b445c78", "lat": 38.86403983333334, "rental_uris": {"ios": "https://dc.lft.to/lastmile_qr_scan", "android": "https://dc.lft.to/lastmile_qr_scan"}}, {"type": "electric_scooter", "name": "3d0916e7cdd6daf2198a379e6506b0cd", "fusion_lon": 0.0, "is_reserved": 0, "lon": -77.04471383333333, "fusion_lat": 0.0, "is_disabled": 0, "bike_id": "3d0916e7cdd6daf2198a379e6506b0cd", "lat": 38.9111425, "rental_uris": {"ios": "https://dc.lft.to/lastmile_qr_scan", "android": "https://dc.lft.to/lastmile_qr_scan"}}, {"type": "electric_scooter", "name": "d250a387f89421007a41a8f094ebcf9c", "fusion_lon": 0.0, "is_reserved": 0, "lon": -77.02594766666667, "fusion_lat": 0.0, "is_disabled": 0, "bike_id": "d250a387f89421007a41a8f094ebcf9c", "lat": 38.9169105, "rental_uris": {"ios": "https://dc.lft.to/lastmile_qr_scan", "android": "https://dc.lft.to/lastmile_qr_scan"}}, {"type": "electric_scooter", "name": "86f1186f5b1ccde92065ced7bac0d161", "fusion_lon": 0.0, "is_reserved": 0, "lon": -77.03905216666666, "fusion_lat": 0.0, "is_disabled": 0, "bike_id": "86f1186f5b1ccde92065ced7bac0d161", "lat": 38.92248283333333, "rental_uris": {"ios": "https://dc.lft.to/lastmile_qr_scan", "android": "https://dc.lft.to/lastmile_qr_scan"}}, {"type": "electric_scooter", "name": "33a897c57b9b552507e00a750135366f", "fusion_lon": 0.0, "is_reserved": 0, "lon": -77.02092966666666, "fusion_lat": 0.0, "is_disabled": 0, "bike_id": "33a897c57b9b552507e00a750135366f", "lat": 38.9326715, "rental_uris": {"ios": "https://dc.lft.to/lastmile_qr_scan", "android": "https://dc.lft.to/lastmile_qr_scan"}}, {"type": "electric_scooter", "name": "6fb18fdd3fe5357ddc66616d13da1046", "fusion_lon": 0.0, "is_reserved": 0, "lon": -77.007106, "fusion_lat": 0.0, "is_disabled": 0, "bike_id": "6fb18fdd3fe5357ddc66616d13da1046", "lat": 38.900207333333334, "rental_uris": {"ios": "https://dc.lft.to/lastmile_qr_scan", "android": "https://dc.lft.to/lastmile_qr_scan"}}, {"type": "electric_scooter", "name": "10790e0f47c0b8f7fd5a05ade1937a9a", "fusion_lon": 0.0, "is_reserved": 0, "lon": -77.03232633333333, "fusion_lat": 0.0, "is_disabled": 0, "bike_id": "10790e0f47c0b8f7fd5a05ade1937a9a", "lat": 38.904465333333334, "rental_uris": {"ios": "https://dc.lft.to/lastmile_qr_scan", "android": "https://dc.lft.to/lastmile_qr_scan"}}, {"type": "electric_scooter", "name": "859e335cd0ecaf4d0ce5b608a3a0e8b7", "fusion_lon": 0.0, "is_reserved": 0, "lon": -77.04444066666667, "fusion_lat": 0.0, "is_disabled": 0, "bike_id": "859e335cd0ecaf4d0ce5b608a3a0e8b7", "lat": 38.911736833333336, "rental_uris": {"ios": "https://dc.lft.to/lastmile_qr_scan", "android": "https://dc.lft.to/lastmile_qr_scan"}}, {"type": "electric_scooter", "name": "fa018f9ce900e645e94051f8823d51a0", "fusion_lon": 0.0, "is_reserved": 0, "lon": -77.03729666666666, "fusion_lat": 0.0, "is_disabled": 0, "bike_id": "fa018f9ce900e645e94051f8823d51a0", "lat": 38.911326, "rental_uris": {"ios": "https://dc.lft.to/lastmile_qr_scan", "android": "https://dc.lft.to/lastmile_qr_scan"}}, {"type": "electric_scooter", "name": "0470804af3f9427d1d6b30a119f26753", "fusion_lon": 0.0, "is_reserved": 0, "lon": -77.0259565, "fusion_lat": 0.0, "is_disabled": 0, "bike_id": "0470804af3f9427d1d6b30a119f26753", "lat": 38.916920833333336, "rental_uris": {"ios": "https://dc.lft.to/lastmile_qr_scan", "android": "https://dc.lft.to/lastmile_qr_scan"}}, {"type": "electric_scooter", "name": "949d524dd4064fa888bf238d4c263645", "fusion_lon": 0.0, "is_reserved": 0, "lon": -77.04577466666667, "fusion_lat": 0.0, "is_disabled": 0, "bike_id": "949d524dd4064fa888bf238d4c263645", "lat": 38.913466, "rental_uris": {"ios": "https://dc.lft.to/lastmile_qr_scan", "android": "https://dc.lft.to/lastmile_qr_scan"}}, {"type": "electric_scooter", "name": "51ab788eaa6617d36a006ab5b1af48e7", "fusion_lon": 0.0, "is_reserved": 0, "lon": -77.04331616666667, "fusion_lat": 0.0, "is_disabled": 0, "bike_id": "51ab788eaa6617d36a006ab5b1af48e7", "lat": 38.9068665, "rental_uris": {"ios": "https://dc.lft.to/lastmile_qr_scan", "android": "https://dc.lft.to/lastmile_qr_scan"}}, {"type": "electric_scooter", "name": "8e94439347d7b07dd87ffdfe4cb65992", "fusion_lon": 0.0, "is_reserved": 0, "lon": -76.98486566666666, "fusion_lat": 0.0, "is_disabled": 0, "bike_id": "8e94439347d7b07dd87ffdfe4cb65992", "lat": 38.88022566666667, "rental_uris": {"ios": "https://dc.lft.to/lastmile_qr_scan", "android": "https://dc.lft.to/lastmile_qr_scan"}}, {"type": "electric_scooter", "name": "84248f01e754a41e7506e0ebb215723e", "fusion_lon": 0.0, "is_reserved": 0, "lon": -77.04827866666666, "fusion_lat": 0.0, "is_disabled": 0, "bike_id": "84248f01e754a41e7506e0ebb215723e", "lat": 38.90049, "rental_uris": {"ios": "https://dc.lft.to/lastmile_qr_scan", "android": "https://dc.lft.to/lastmile_qr_scan"}}, {"type": "electric_scooter", "name": "574597a39554ccff8d95ef0a7c53cfa6", "fusion_lon": 0.0, "is_reserved": 0, "lon": -77.00572633333333, "fusion_lat": 0.0, "is_disabled": 0, "bike_id": "574597a39554ccff8d95ef0a7c53cfa6", "lat": 38.880880166666664, "rental_uris": {"ios": "https://dc.lft.to/lastmile_qr_scan", "android": "https://dc.lft.to/lastmile_qr_scan"}}, {"type": "electric_scooter", "name": "4f4beb8192ceed9d1a4bd946c3922c77", "fusion_lon": 0.0, "is_reserved": 0, "lon": -77.004712, "fusion_lat": 0.0, "is_disabled": 0, "bike_id": "4f4beb8192ceed9d1a4bd946c3922c77", "lat": 38.91140016666667, "rental_uris": {"ios": "https://dc.lft.to/lastmile_qr_scan", "android": "https://dc.lft.to/lastmile_qr_scan"}}, {"type": "electric_scooter", "name": "8fa5dcd9c5fbc5ded1cc5559a4085eb2", "fusion_lon": 0.0, "is_reserved": 0, "lon": -77.02214133333334, "fusion_lat": 0.0, "is_disabled": 0, "bike_id": "8fa5dcd9c5fbc5ded1cc5559a4085eb2", "lat": 38.909992, "rental_uris": {"ios": "https://dc.lft.to/lastmile_qr_scan", "android": "https://dc.lft.to/lastmile_qr_scan"}}, {"type": "electric_scooter", "name": "e8b1ab2f039bbec13b4f1391b91d11c3", "fusion_lon": 0.0, "is_reserved": 0, "lon": -77.00938516666666, "fusion_lat": 0.0, "is_disabled": 0, "bike_id": "e8b1ab2f039bbec13b4f1391b91d11c3", "lat": 38.905548833333334, "rental_uris": {"ios": "https://dc.lft.to/lastmile_qr_scan", "android": "https://dc.lft.to/lastmile_qr_scan"}}, {"type": "electric_scooter", "name": "b0aa98df06db9967582ef25284c5e849", "fusion_lon": 0.0, "is_reserved": 0, "lon": -76.99896733333334, "fusion_lat": 0.0, "is_disabled": 0, "bike_id": "b0aa98df06db9967582ef25284c5e849", "lat": 38.92306383333333, "rental_uris": {"ios": "https://dc.lft.to/lastmile_qr_scan", "android": "https://dc.lft.to/lastmile_qr_scan"}}, {"type": "electric_scooter", "name": "e2917ecc6c4fca4e5c539ae84aae383d", "fusion_lon": 0.0, "is_reserved": 0, "lon": -77.04057833333333, "fusion_lat": 0.0, "is_disabled": 0, "bike_id": "e2917ecc6c4fca4e5c539ae84aae383d", "lat": 38.908558, "rental_uris": {"ios": "https://dc.lft.to/lastmile_qr_scan", "android": "https://dc.lft.to/lastmile_qr_scan"}}, {"type": "electric_scooter", "name": "a6550b79db57d32e863aa0fe53421404", "fusion_lon": 0.0, "is_reserved": 0, "lon": -77.0469025, "fusion_lat": 0.0, "is_disabled": 0, "bike_id": "a6550b79db57d32e863aa0fe53421404", "lat": 38.90086316666667, "rental_uris": {"ios": "https://dc.lft.to/lastmile_qr_scan", "android": "https://dc.lft.to/lastmile_qr_scan"}}, {"type": "electric_scooter", "name": "73c16671d0577c30b199c565971c277c", "fusion_lon": 0.0, "is_reserved": 0, "lon": -77.036009, "fusion_lat": 0.0, "is_disabled": 0, "bike_id": "73c16671d0577c30b199c565971c277c", "lat": 38.9170105, "rental_uris": {"ios": "https://dc.lft.to/lastmile_qr_scan", "android": "https://dc.lft.to/lastmile_qr_scan"}}, {"type": "electric_scooter", "name": "f4eed71e839a64773c3cba97ae63f1e1", "fusion_lon": 0.0, "is_reserved": 0, "lon": -77.0231355, "fusion_lat": 0.0, "is_disabled": 0, "bike_id": "f4eed71e839a64773c3cba97ae63f1e1", "lat": 38.9159395, "rental_uris": {"ios": "https://dc.lft.to/lastmile_qr_scan", "android": "https://dc.lft.to/lastmile_qr_scan"}}, {"type": "electric_scooter", "name": "5e67ab139c80f98bf01fa3649a3bd92b", "fusion_lon": 0.0, "is_reserved": 0, "lon": -77.02730616666666, "fusion_lat": 0.0, "is_disabled": 0, "bike_id": "5e67ab139c80f98bf01fa3649a3bd92b", "lat": 38.952098666666664, "rental_uris": {"ios": "https://dc.lft.to/lastmile_qr_scan", "android": "https://dc.lft.to/lastmile_qr_scan"}}, {"type": "electric_bike", "name": "6bc8a8fe6c72c95f4765c5e8426ef8ec", "fusion_lon": 0.0, "is_reserved": 0, "lon": -77.07886116666667, "fusion_lat": 0.0, "is_disabled": 0, "bike_id": "6bc8a8fe6c72c95f4765c5e8426ef8ec", "lat": 38.862848166666666, "rental_uris": {"ios": "https://dc.lft.to/lastmile_qr_scan", "android": "https://dc.lft.to/lastmile_qr_scan"}}, {"type": "electric_scooter", "name": "a0288accb533f8132222086d668e2836", "fusion_lon": 0.0, "is_reserved": 0, "lon": -76.98741866666667, "fusion_lat": 0.0, "is_disabled": 0, "bike_id": "a0288accb533f8132222086d668e2836", "lat": 38.918993, "rental_uris": {"ios": "https://dc.lft.to/lastmile_qr_scan", "android": "https://dc.lft.to/lastmile_qr_scan"}}, {"type": "electric_scooter", "name": "f2c8098a12243780eb3ffc7ad1a980df", "fusion_lon": 0.0, "is_reserved": 0, "lon": -77.02721733333334, "fusion_lat": 0.0, "is_disabled": 0, "bike_id": "f2c8098a12243780eb3ffc7ad1a980df", "lat": 38.924819666666664, "rental_uris": {"ios": "https://dc.lft.to/lastmile_qr_scan", "android": "https://dc.lft.to/lastmile_qr_scan"}}, {"type": "electric_scooter", "name": "5e7791844400b23c6eb4d7622bd06042", "fusion_lon": 0.0, "is_reserved": 0, "lon": -77.02363416666667, "fusion_lat": 0.0, "is_disabled": 0, "bike_id": "5e7791844400b23c6eb4d7622bd06042", "lat": 38.892265, "rental_uris": {"ios": "https://dc.lft.to/lastmile_qr_scan", "android": "https://dc.lft.to/lastmile_qr_scan"}}, {"type": "electric_bike", "name": "165e5a99fe908094dedd34faf6996003", "fusion_lon": 0.0, "is_reserved": 0, "lon": -77.0267665, "fusion_lat": 0.0, "is_disabled": 0, "bike_id": "165e5a99fe908094dedd34faf6996003", "lat": 38.99598683333333, "rental_uris": {"ios": "https://dc.lft.to/lastmile_qr_scan", "android": "https://dc.lft.to/lastmile_qr_scan"}}, {"type": "electric_scooter", "name": "2a11a364e08f7985728630bcbe5c15de", "fusion_lon": 0.0, "is_reserved": 0, "lon": -76.93154766666666, "fusion_lat": 0.0, "is_disabled": 0, "bike_id": "2a11a364e08f7985728630bcbe5c15de", "lat": 38.9083585, "rental_uris": {"ios": "https://dc.lft.to/lastmile_qr_scan", "android": "https://dc.lft.to/lastmile_qr_scan"}}, {"type": "electric_scooter", "name": "5d4213466811f66c4299b1bef354765e", "fusion_lon": 0.0, "is_reserved": 0, "lon": -76.97829816666666, "fusion_lat": 0.0, "is_disabled": 0, "bike_id": "5d4213466811f66c4299b1bef354765e", "lat": 38.907709, "rental_uris": {"ios": "https://dc.lft.to/lastmile_qr_scan", "android": "https://dc.lft.to/lastmile_qr_scan"}}, {"type": "electric_scooter", "name": "0267eb0ac20d8977251136c84edd6904", "fusion_lon": 0.0, "is_reserved": 0, "lon": -77.03329066666667, "fusion_lat": 0.0, "is_disabled": 0, "bike_id": "0267eb0ac20d8977251136c84edd6904", "lat": 38.90109366666667, "rental_uris": {"ios": "https://dc.lft.to/lastmile_qr_scan", "android": "https://dc.lft.to/lastmile_qr_scan"}}, {"type": "electric_scooter", "name": "ead9492b2dadbfd3868a052b94c49e5f", "fusion_lon": 0.0, "is_reserved": 0, "lon": -77.05062183333334, "fusion_lat": 0.0, "is_disabled": 0, "bike_id": "ead9492b2dadbfd3868a052b94c49e5f", "lat": 38.924139833333335, "rental_uris": {"ios": "https://dc.lft.to/lastmile_qr_scan", "android": "https://dc.lft.to/lastmile_qr_scan"}}, {"type": "electric_scooter", "name": "e83e701ca3dc6f1cd17d636786f0236f", "fusion_lon": 0.0, "is_reserved": 0, "lon": -77.04483866666666, "fusion_lat": 0.0, "is_disabled": 0, "bike_id": "e83e701ca3dc6f1cd17d636786f0236f", "lat": 38.897893333333336, "rental_uris": {"ios": "https://dc.lft.to/lastmile_qr_scan", "android": "https://dc.lft.to/lastmile_qr_scan"}}, {"type": "electric_scooter", "name": "52dcb8b8b16b0fb5fc29eb62b7f74df6", "fusion_lon": 0.0, "is_reserved": 0, "lon": -77.031006, "fusion_lat": 0.0, "is_disabled": 0, "bike_id": "52dcb8b8b16b0fb5fc29eb62b7f74df6", "lat": 38.928588, "rental_uris": {"ios": "https://dc.lft.to/lastmile_qr_scan", "android": "https://dc.lft.to/lastmile_qr_scan"}}, {"type": "electric_scooter", "name": "7133c7004ef2f8c7c36a7285d045fc13", "fusion_lon": 0.0, "is_reserved": 0, "lon": -77.049706, "fusion_lat": 0.0, "is_disabled": 0, "bike_id": "7133c7004ef2f8c7c36a7285d045fc13", "lat": 38.90716166666667, "rental_uris": {"ios": "https://dc.lft.to/lastmile_qr_scan", "android": "https://dc.lft.to/lastmile_qr_scan"}}, {"type": "electric_scooter", "name": "6fc5f36e07c5f108fe9e33dcde05c660", "fusion_lon": 0.0, "is_reserved": 0, "lon": -77.01823883333333, "fusion_lat": 0.0, "is_disabled": 0, "bike_id": "6fc5f36e07c5f108fe9e33dcde05c660", "lat": 38.92258483333333, "rental_uris": {"ios": "https://dc.lft.to/lastmile_qr_scan", "android": "https://dc.lft.to/lastmile_qr_scan"}}, {"type": "electric_scooter", "name": "78363627c9db484448754119c389d6fe", "fusion_lon": 0.0, "is_reserved": 0, "lon": -77.034128, "fusion_lat": 0.0, "is_disabled": 0, "bike_id": "78363627c9db484448754119c389d6fe", "lat": 38.9324665, "rental_uris": {"ios": "https://dc.lft.to/lastmile_qr_scan", "android": "https://dc.lft.to/lastmile_qr_scan"}}, {"type": "electric_bike", "name": "fffa056ecbad9f3c5abb0d6bdcf1be49", "fusion_lon": 0.0, "is_reserved": 0, "lon": -77.003058, "fusion_lat": 0.0, "is_disabled": 0, "bike_id": "fffa056ecbad9f3c5abb0d6bdcf1be49", "lat": 38.90750766666667, "rental_uris": {"ios": "https://dc.lft.to/lastmile_qr_scan", "android": "https://dc.lft.to/lastmile_qr_scan"}}, {"type": "electric_bike", "name": "dcbe6ab4b3aa55c26fa9d22e6bbb9e8f", "fusion_lon": 0.0, "is_reserved": 0, "lon": -77.08815483333333, "fusion_lat": 0.0, "is_disabled": 0, "bike_id": "dcbe6ab4b3aa55c26fa9d22e6bbb9e8f", "lat": 38.871689, "rental_uris": {"ios": "https://dc.lft.to/lastmile_qr_scan", "android": "https://dc.lft.to/lastmile_qr_scan"}},