{"data": {"bikes": [{"lat": 38.886678833333335, "is_disabled": 0, "type": "electric_scooter", "lon": -76.990337, "bike_id": "31b4b0734efcfb367840d6ca60f970f1", "fusion_lat": 0.0, "name": "31b4b0734efcfb367840d6ca60f970f1", "is_reserved": 0, "rental_uris": {"android": "https://dc.lft.to/lastmile_qr_scan", "ios": "https://dc.lft.to/lastmile_qr_scan"}, "fusion_lon": 0.0}, {"lat": 39.07502316666667, "is_disabled": 0, "type": "electric_bike", "lon": -77.1189575, "bike_id": "6d4caa6ea1dcf570d9858e600e86011f", "fusion_lat": 0.0, "name": "6d4caa6ea1dcf570d9858e600e86011f", "is_reserved": 0, "rental_uris": {"android": "https://dc.lft.to/lastmile_qr_scan", "ios": "https://dc.lft.to/lastmile_qr_scan"}, "fusion_lon": 0.0}, {"lat": 38.926544, "is_disabled": 0, "type": "electric_scooter", "lon": -77.0241765, "bike_id": "2bc09ca694b1a693d19c6c955dae8691", "fusion_lat": 0.0, "name": "2bc09ca694b1a693d19c6c955dae8691", "is_reserved": 0, "rental_uris": {"android": "https://dc.lft.to/lastmile_qr_scan", "ios": "https://dc.lft.to/lastmile_qr_scan"}, "fusion_lon": 0.0}, {"lat": 38.92108533333333, "is_disabled": 0, "type": "electric_scooter", "lon": -77.045751, "bike_id": "a77319230c5a5f9a69fc4299f292b59c", "fusion_lat": 0.0, "name": "a77319230c5a5f9a69fc4299f292b59c", "is_reserved": 0, "rental_uris": {"android": "https://dc.lft.to/lastmile_qr_scan", "ios": "https://dc.lft.to/lastmile_qr_scan"}, "fusion_lon": 0.0}, {"lat": 38.912647, "is_disabled": 0, "type": "electric_scooter", "lon": -77.02251183333334, "bike_id": "e8f4f8ae12fa8a523313d2d756d2d28b", "fusion_lat": 0.0, "name": "e8f4f8ae12fa8a523313d2d756d2d28b", "is_reserved": 0, "rental_uris": {"android": "https://dc.lft.to/lastmile_qr_scan", "ios": "https://dc.lft.to/lastmile_qr_scan"}, "fusion_lon": 0.0}, {"lat": 38.911027833333335, "is_disabled": 0, "type": "electric_scooter", "lon": -77.03860633333333, "bike_id": "8414760f0a1f96fd63c2a58b13b015c9", "fusion_lat": 0.0, "name": "8414760f0a1f96fd63c2a58b13b015c9", "is_reserved": 0, "rental_uris": {"android": "https://dc.lft.to/lastmile_qr_scan", "ios": "https://dc.lft.to/lastmile_qr_scan"}, "fusion_lon": 0.0}, {"lat": 38.90830366666667, "is_disabled": 0, "type": "electric_scooter", "lon": -77.04336416666666, "bike_id": "3aa4593ab0c4033518887d4af4b184c4", "fusion_lat": 0.0, "name": "3aa4593ab0c4033518887d4af4b184c4", "is_reserved": 0, "rental_uris": {"android": "https://dc.lft.to/lastmile_qr_scan", "ios": "https://dc.lft.to/lastmile_qr_scan"}, "fusion_lon": 0.0}, {"lat": 38.915476, "is_disabled": 0, "type": "electric_scooter", "lon": -77.0123425, "bike_id": "4642336621c04870a857905da24de417", "fusion_lat": 0.0, "name": "4642336621c04870a857905da24de417", "is_reserved": 0, "rental_uris": {"android": "https://dc.lft.to/lastmile_qr_scan", "ios": "https://dc.lft.to/lastmile_qr_scan"}, "fusion_lon": 0.0}, {"lat": 38.9042865, "is_disabled": 0, "type": "electric_scooter", "lon": -77.02618216666667, "bike_id": "63b8cbc82239b6f0ebf3e8a58d7cdd13", "fusion_lat": 0.0, "name": "63b8cbc82239b6f0ebf3e8a58d7cdd13", "is_reserved": 0, "rental_uris": {"android": "https://dc.lft.to/lastmile_qr_scan", "ios": "https://dc.lft.to/lastmile_qr_scan"}, "fusion_lon": 0.0}, {"lat": 38.9221445, "is_disabled": 0, "type": "electric_scooter", "lon": -77.032923, "bike_id": "128734236269298251c7f32c99d78afa", "fusion_lat": 0.0, "name": "128734236269298251c7f32c99d78afa", "is_reserved": 0, "rental_uris": {"android": "https://dc.lft.to/lastmile_qr_scan", "ios": "https://dc.lft.to/lastmile_qr_scan"}, "fusion_lon": 0.0}, {"lat": 38.960899166666664, "is_disabled": 0, "type": "electric_scooter", "lon": -77.082847, "bike_id": "4a6312493ac665e8b2adf048a8b5613d", "fusion_lat": 0.0, "name": "4a6312493ac665e8b2adf048a8b5613d", "is_reserved": 0, "rental_uris": {"android": "https://dc.lft.to/lastmile_qr_scan", "ios": "https://dc.lft.to/lastmile_qr_scan"}, "fusion_lon": 0.0}, {"lat": 38.90133866666667, "is_disabled": 0, "type": "electric_scooter", "lon": -77.000687, "bike_id": "9d12e0478a9eae6adc6ff4b4d2f2dd11", "fusion_lat": 0.0, "name": "9d12e0478a9eae6adc6ff4b4d2f2dd11", "is_reserved": 0, "rental_uris": {"android": "https://dc.lft.to/lastmile_qr_scan", "ios": "https://dc.lft.to/lastmile_qr_scan"}, "fusion_lon": 0.0}, {"lat": 38.90216916666667, "is_disabled": 0, "type": "electric_scooter", "lon": -76.94592683333333, "bike_id": "d9086c9697ffe3bd58c5a8dc3b1ee8ae", "fusion_lat": 0.0, "name": "d9086c9697ffe3bd58c5a8dc3b1ee8ae", "is_reserved": 0, "rental_uris": {"android": "https://dc.lft.to/lastmile_qr_scan", "ios": "https://dc.lft.to/lastmile_qr_scan"}, "fusion_lon": 0.0}, {"lat": 38.928600833333334, "is_disabled": 0, "type": "electric_scooter", "lon": -77.054367, "bike_id": "c4ec91b87360803f4f83c1f05cbd13b8", "fusion_lat": 0.0, "name": "c4ec91b87360803f4f83c1f05cbd13b8", "is_reserved": 0, "rental_uris": {"android": "https://dc.lft.to/lastmile_qr_scan", "ios": "https://dc.lft.to/lastmile_qr_scan"}, "fusion_lon": 0.0}, {"lat": 38.919617333333335, "is_disabled": 0, "type": "electric_bike", "lon": -76.97266883333333, "bike_id": "da31c636423d062bd645461a790625e1", "fusion_lat": 0.0, "name": "da31c636423d062bd645461a790625e1", "is_reserved": 0, "rental_uris": {"android": "https://dc.lft.to/lastmile_qr_scan", "ios": "https://dc.lft.to/lastmile_qr_scan"}, "fusion_lon": 0.0}, {"lat": 38.93009033333333, "is_disabled": 0, "type": "electric_bike", "lon": -77.2164445, "bike_id": "4926fa748f06c8ec6dff9d5b5453d2b8", "fusion_lat": 0.0, "name": "4926fa748f06c8ec6dff9d5b5453d2b8", "is_reserved": 0, "rental_uris": {"android": "https://dc.lft.to/lastmile_qr_scan", "ios": "https://dc.lft.to/lastmile_qr_scan"}, "fusion_lon": 0.0}, {"lat": 38.9098045, "is_disabled": 0, "type": "electric_scooter", "lon": -77.03437383333333, "bike_id": "e77f5e2d89d9726d9e3f2c9f09e98e1f", "fusion_lat": 0.0, "name": "e77f5e2d89d9726d9e3f2c9f09e98e1f", "is_reserved": 0, "rental_uris": {"android": "https://dc.lft.to/lastmile_qr_scan", "ios": "https://dc.lft.to/lastmile_qr_scan"}, "fusion_lon": 0.0}, {"lat": 38.9285005, "is_disabled": 0, "type": "electric_scooter", "lon": -77.03734783333333, "bike_id": "508fe0607d24cd312399e25a61539177", "fusion_lat": 0.0, "name": "508fe0607d24cd312399e25a61539177", "is_reserved": 0, "rental_uris": {"android": "https://dc.lft.to/lastmile_qr_scan", "ios": "https://dc.lft.to/lastmile_qr_scan"}, "fusion_lon": 0.0}, {"lat": 38.947146833333335, "is_disabled": 0, "type": "electric_scooter", "lon": -77.02257383333334, "bike_id": "768b1813ded4a39928c76f1c67f440ad", "fusion_lat": 0.0, "name": "768b1813ded4a39928c76f1c67f440ad", "is_reserved": 0, "rental_uris": {"android": "https://dc.lft.to/lastmile_qr_scan", "ios": "https://dc.lft.to/lastmile_qr_scan"}, "fusion_lon": 0.0}, {"lat": 38.897797, "is_disabled": 0, "type": "electric_scooter", "lon": -77.04356216666666, "bike_id": "83c492100f477beb5b8dc01f07c7ff89", "fusion_lat": 0.0, "name": "83c492100f477beb5b8dc01f07c7ff89", "is_reserved": 0, "rental_uris": {"android": "https://dc.lft.to/lastmile_qr_scan", "ios": "https://dc.lft.to/lastmile_qr_scan"}, "fusion_lon": 0.0}, {"lat": 38.90147533333333, "is_disabled": 0, "type": "electric_bike", "lon": -76.98660266666667, "bike_id": "de06c818a63d06b0bb44c39b26385046", "fusion_lat": 0.0, "name": "de06c818a63d06b0bb44c39b26385046", "is_reserved": 0, "rental_uris": {"android": "https://dc.lft.to/lastmile_qr_scan", "ios": "https://dc.lft.to/lastmile_qr_scan"}, "fusion_lon": 0.0}, {"lat": 38.914236833333334, "is_disabled": 0, "type": "electric_scooter", "lon": -77.0050365, "bike_id": "725aa349b0488206fcea39c3449e39d8", "fusion_lat": 0.0, "name": "725aa349b0488206fcea39c3449e39d8", "is_reserved": 0, "rental_uris": {"android": "https://dc.lft.to/lastmile_qr_scan", "ios": "https://dc.lft.to/lastmile_qr_scan"}, "fusion_lon": 0.0}, {"lat": 38.93138966666667, "is_disabled": 0, "type": "electric_scooter", "lon": -77.04144533333333, "bike_id": "7415da60783b441c78e96a332634a983", "fusion_lat": 0.0, "name": "7415da60783b441c78e96a332634a983", "is_reserved": 0, "rental_uris": {"android": "https://dc.lft.to/lastmile_qr_scan", "ios": "https://dc.lft.to/lastmile_qr_scan"}, "fusion_lon": 0.0}, {"lat": 38.913629666666665, "is_disabled": 0, "type": "electric_scooter", "lon": -77.06927516666667, "bike_id": "fd8ca170ffa20d1e7c818dd5ea615a75", "fusion_lat": 0.0, "name": "fd8ca170ffa20d1e7c818dd5ea615a75", "is_reserved": 0, "rental_uris": {"android": "https://dc.lft.to/lastmile_qr_scan", "ios": "https://dc.lft.to/lastmile_qr_scan"}, "fusion_lon": 0.0}, {"lat": 38.8591595, "is_disabled": 0, "type": "electric_scooter", "lon": -76.98982133333334, "bike_id": "470e9ff1f8031ba9997a92dc0311836f", "fusion_lat": 0.0, "name": "470e9ff1f8031ba9997a92dc0311836f", "is_reserved": 0, "rental_uris": {"android": "https://dc.lft.to/lastmile_qr_scan", "ios": "https://dc.lft.to/lastmile_qr_scan"}, "fusion_lon": 0.0}, {"lat": 38.923152, "is_disabled": 0, "type": "electric_scooter", "lon": -77.03959983333333, "bike_id": "d275db706f5098e5a61cb97549d2c7f2", "fusion_lat": 0.0, "name": "d275db706f5098e5a61cb97549d2c7f2", "is_reserved": 0, "rental_uris": {"android": "https://dc.lft.to/lastmile_qr_scan", "ios": "https://dc.lft.to/lastmile_qr_scan"}, "fusion_lon": 0.0}, {"lat": 38.921525, "is_disabled": 0, "type": "electric_scooter", "lon": -77.033427, "bike_id": "d4c52851f71a9746110f7b5a2e511ef3", "fusion_lat": 0.0, "name": "d4c52851f71a9746110f7b5a2e511ef3", "is_reserved": 0, "rental_uris": {"android": "https://dc.lft.to/lastmile_qr_scan", "ios": "https://dc.lft.to/lastmile_qr_scan"}, "fusion_lon": 0.0}, {"lat": 38.9141145, "is_disabled": 0, "type": "electric_scooter", "lon": -77.02920233333333, "bike_id": "720f77f2d90abd7b0b0140daef303746", "fusion_lat": 0.0, "name": "720f77f2d90abd7b0b0140daef303746", "is_reserved": 0, "rental_uris": {"android": "https://dc.lft.to/lastmile_qr_scan", "ios": "https://dc.lft.to/lastmile_qr_scan"}, "fusion_lon": 0.0}, {"lat": 38.90631533333333, "is_disabled": 0, "type": "electric_scooter", "lon": -77.026946, "bike_id": "daa7246d203ec7411af26034f838b501", "fusion_lat": 0.0, "name": "daa7246d203ec7411af26034f838b501", "is_reserved": 0, "rental_uris": {"android": "https://dc.lft.to/lastmile_qr_scan", "ios": "https://dc.lft.to/lastmile_qr_scan"}, "fusion_lon": 0.0}, {"lat": 38.910250166666664, "is_disabled": 0, "type": "electric_scooter", "lon": -77.034455, "bike_id": "245f213e524e4ee09373a675fa861819", "fusion_lat": 0.0, "name": "245f213e524e4ee09373a675fa861819", "is_reserved": 0, "rental_uris": {"android": "https://dc.lft.to/lastmile_qr_scan", "ios": "https://dc.lft.to/lastmile_qr_scan"}, "fusion_lon": 0.0}, {"lat": 38.921851, "is_disabled": 0, "type": "electric_scooter", "lon": -77.039794, "bike_id": "aa13b2fc9458118bc980c449fae334f4", "fusion_lat": 0.0, "name": "aa13b2fc9458118bc980c449fae334f4", "is_reserved": 0, "rental_uris": {"android": "https://dc.lft.to/lastmile_qr_scan", "ios": "https://dc.lft.to/lastmile_qr_scan"}, "fusion_lon": 0.0}, {"lat": 38.8770825, "is_disabled": 0, "type": "electric_scooter", "lon": -77.00703366666667, "bike_id": "8040f9fe95e66d0885adf6f7ce9d8c0b", "fusion_lat": 0.0, "name": "8040f9fe95e66d0885adf6f7ce9d8c0b", "is_reserved": 0, "rental_uris": {"android": "https://dc.lft.to/lastmile_qr_scan", "ios": "https://dc.lft.to/lastmile_qr_scan"}, "fusion_lon": 0.0}, {"lat": 38.92476833333333, "is_disabled": 0, "type": "electric_scooter", "lon": -77.02834466666667, "bike_id": "766daa140343625b74929380fc8e85ee", "fusion_lat": 0.0, "name": "766daa140343625b74929380fc8e85ee", "is_reserved": 0, "rental_uris": {"android": "https://dc.lft.to/lastmile_qr_scan", "ios": "https://dc.lft.to/lastmile_qr_scan"}, "fusion_lon": 0.0}, {"lat": 38.844244833333335, "is_disabled": 0, "type": "electric_scooter", "lon": -76.99775683333333, "bike_id": "d7f9229d5a19eec44c2a18b0c9fc6b37", "fusion_lat": 0.0, "name": "d7f9229d5a19eec44c2a18b0c9fc6b37", "is_reserved": 0, "rental_uris": {"android": "https://dc.lft.to/lastmile_qr_scan", "ios": "https://dc.lft.to/lastmile_qr_scan"}, "fusion_lon": 0.0}, {"lat": 38.914522, "is_disabled": 0, "type": "electric_scooter", "lon": -77.03216833333333, "bike_id": "2499dacb8d6ff739a5d67b4112941492", "fusion_lat": 0.0, "name": "2499dacb8d6ff739a5d67b4112941492", "is_reserved": 0, "rental_uris": {"android": "https://dc.lft.to/lastmile_qr_scan", "ios": "https://dc.lft.to/lastmile_qr_scan"}, "fusion_lon": 0.0}, {"lat": 38.90771016666667, "is_disabled": 0, "type": "electric_scooter", "lon": -77.038631, "bike_id": "dc0b39bb3e9983c0d9d06592a60938ad", "fusion_lat": 0.0, "name": "dc0b39bb3e9983c0d9d06592a60938ad", "is_reserved": 0, "rental_uris": {"android": "https://dc.lft.to/lastmile_qr_scan", "ios": "https://dc.lft.to/lastmile_qr_scan"}, "fusion_lon": 0.0}, {"lat": 38.9865035, "is_disabled": 0, "type": "electric_bike", "lon": -77.0563195, "bike_id": "cafa2c159c8201c283e14e3543c6ae16", "fusion_lat": 0.0, "name": "cafa2c159c8201c283e14e3543c6ae16", "is_reserved": 0, "rental_uris": {"android": "https://dc.lft.to/lastmile_qr_scan", "ios": "https://dc.lft.to/lastmile_qr_scan"}, "fusion_lon": 0.0}, {"lat": 38.91473516666667, "is_disabled": 0, "type": "electric_scooter", "lon": -77.00350266666666, "bike_id": "418b3d3209881d5c8363c8ed220ac111", "fusion_lat": 0.0, "name": "418b3d3209881d5c8363c8ed220ac111", "is_reserved": 0, "rental_uris": {"android": "https://dc.lft.to/lastmile_qr_scan", "ios": "https://dc.lft.to/lastmile_qr_scan"}, "fusion_lon": 0.0}, {"lat": 38.90095483333333, "is_disabled": 0, "type": "electric_scooter", "lon": -77.049443, "bike_id": "0e61c52e38a10166754f3ced5bb16cb9", "fusion_lat": 0.0, "name": "0e61c52e38a10166754f3ced5bb16cb9", "is_reserved": 0, "rental_uris": {"android": "https://dc.lft.to/lastmile_qr_scan", "ios": "https://dc.lft.to/lastmile_qr_scan"}, "fusion_lon": 0.0}, {"lat": 38.8809475, "is_disabled": 0, "type": "electric_scooter", "lon": -76.9984975, "bike_id": "cb7caf98e20a32829f9f93b042190f74", "fusion_lat": 0.0, "name": "cb7caf98e20a32829f9f93b042190f74", "is_reserved": 0, "rental_uris": {"android": "https://dc.lft.to/lastmile_qr_scan", "ios": "https://dc.lft.to/lastmile_qr_scan"}, "fusion_lon": 0.0}, {"lat": 38.95626683333333, "is_disabled": 0, "type": "electric_bike", "lon": -76.93884766666666, "bike_id": "9323bd1bd13f7a9c76d34db1c9f60d30", "fusion_lat": 0.0, "name": "9323bd1bd13f7a9c76d34db1c9f60d30", "is_reserved": 0, "rental_uris": {"android": "https://dc.lft.to/lastmile_qr_scan", "ios": "https://dc.lft.to/lastmile_qr_scan"}, "fusion_lon": 0.0}, {"lat": 38.84276333333333, "is_disabled": 0, "type": "electric_bike", "lon": -76.9884395, "bike_id": "d031ec4ef73bae04aaf74b6e1b812af1", "fusion_lat": 0.0, "name": "d031ec4ef73bae04aaf74b6e1b812af1", "is_reserved": 0, "rental_uris": {"android": "https://dc.lft.to/lastmile_qr_scan", "ios": "https://dc.lft.to/lastmile_qr_scan"}, "fusion_lon": 0.0}, {"lat": 38.91439233333333, "is_disabled": 0, "type": "electric_scooter", "lon": -77.01205516666667, "bike_id": "6f1879d42645981e6859b8738c99f5bb", "fusion_lat": 0.0, "name": "6f1879d42645981e6859b8738c99f5bb", "is_reserved": 0, "rental_uris": {"android": "https://dc.lft.to/lastmile_qr_scan", "ios": "https://dc.lft.to/lastmile_qr_scan"}, "fusion_lon": 0.0}, {"lat": 38.90728516666667, "is_disabled": 0, "type": "electric_scooter", "lon": -77.03713, "bike_id": "3f412e35ca63aeeffb2fa4943fc74fe9", "fusion_lat": 0.0, "name": "3f412e35ca63aeeffb2fa4943fc74fe9", "is_reserved": 0, "rental_uris": {"android": "https://dc.lft.to/lastmile_qr_scan", "ios": "https://dc.lft.to/lastmile_qr_scan"}, "fusion_lon": 0.0}, {"lat": 38.91971316666667, "is_disabled": 0, "type": "electric_scooter", "lon": -77.0120725, "bike_id": "7bfefee131272bba36a772b4063cedef", "fusion_lat": 0.0, "name": "7bfefee131272bba36a772b4063cedef", "is_reserved": 0, "rental_uris": {"android": "https://dc.lft.to/lastmile_qr_scan", "ios": "https://dc.lft.to/lastmile_qr_scan"}, "fusion_lon": 0.0}, {"lat": 38.925724833333334, "is_disabled": 0, "type": "electric_scooter", "lon": -77.05750466666667, "bike_id": "6b6de2a3cddf510e1eb109703b7db43a", "fusion_lat": 0.0, "name": "6b6de2a3cddf510e1eb109703b7db43a", "is_reserved": 0, "rental_uris": {"android": "https://dc.lft.to/lastmile_qr_scan", "ios": "https://dc.lft.to/lastmile_qr_scan"}, "fusion_lon": 0.0}, {"lat": 38.92666716666667, "is_disabled": 0, "type": "electric_scooter", "lon": -76.99536016666667, "bike_id": "d83c50a09abd86bbd6c3dfd604b9c1ac", "fusion_lat": 0.0, "name": "d83c50a09abd86bbd6c3dfd604b9c1ac", "is_reserved": 0, "rental_uris": {"android": "https://dc.lft.to/lastmile_qr_scan", "ios": "https://dc.lft.to/lastmile_qr_scan"}, "fusion_lon": 0.0}, {"lat": 38.89798483333333, "is_disabled": 0, "type": "electric_scooter", "lon": -77.00054083333333, "bike_id": "7c2bf7070a0372528ff66fb141549027", "fusion_lat": 0.0, "name": "7c2bf7070a0372528ff66fb141549027", "is_reserved": 0, "rental_uris": {"android": "https://dc.lft.to/lastmile_qr_scan", "ios": "https://dc.lft.to/lastmile_qr_scan"}, "fusion_lon": 0.0}, {"lat": 38.89780916666667, "is_disabled": 0, "type": "electric_bike", "lon": -76.904454, "bike_id": "1491e6b80090477280683991f6be62b3", "fusion_lat": 0.0, "name": "1491e6b80090477280683991f6be62b3", "is_reserved": 0, "rental_uris": {"android": "https://dc.lft.to/lastmile_qr_scan", "ios": "https://dc.lft.to/lastmile_qr_scan"}, "fusion_lon": 0.0}, {"lat": 38.841038833333336, "is_disabled": 0, "type": "electric_bike", "lon": -77.0893895, "bike_id": "ec3237fb2aba35b93b70cd6238659b5c", "fusion_lat": 0.0, "name": "ec3237fb2aba35b93b70cd6238659b5c", "is_reserved": 0, "rental_uris": {"android": "https://dc.lft.to/lastmile_qr_scan", "ios": "https://dc.lft.to/lastmile_qr_scan"}, "fusion_lon": 0.0}, {"lat": 38.926136, "is_disabled": 0, "type": "electric_scooter", "lon": -77.02160633333334, "bike_id": "d24e28de94801e701e1c5f64c6360ce4", "fusion_lat": 0.0, "name": "d24e28de94801e701e1c5f64c6360ce4", "is_reserved": 0, "rental_uris": {"android": "https://dc.lft.to/lastmile_qr_scan", "ios": "https://dc.lft.to/lastmile_qr_scan"}, "fusion_lon": 0.0}, {"lat": 38.97089033333334, "is_disabled": 0, "type": "electric_bike", "lon": -77.06966233333333, "bike_id": "c53622a03bbd2e84e7ccd119ee6ef99c", "fusion_lat": 0.0, "name": "c53622a03bbd2e84e7ccd119ee6ef99c", "is_reserved": 0, "rental_uris": {"android": "https://dc.lft.to/lastmile_qr_scan", "ios": "https://dc.lft.to/lastmile_qr_scan"}, "fusion_lon": 0.0}, {"lat": 38.914454, "is_disabled": 0, "type": "electric_scooter", "lon": -77.04158116666666, "bike_id": "44f8938c8011c67f5f6d091a9988f8ce", "fusion_lat": 0.0, "name": "44f8938c8011c67f5f6d091a9988f8ce", "is_reserved": 0, "rental_uris": {"android": "https://dc.lft.to/lastmile_qr_scan", "ios": "https://dc.lft.to/lastmile_qr_scan"}, "fusion_lon": 0.0}, {"lat": 38.90730933333333, "is_disabled": 0, "type": "electric_scooter", "lon": -77.04338533333333, "bike_id": "0ff48a5024ae80bbc50814e455e442cc", "fusion_lat": 0.0, "name": "0ff48a5024ae80bbc50814e455e442cc", "is_reserved": 0, "rental_uris": {"android": "https://dc.lft.to/lastmile_qr_scan", "ios": "https://dc.lft.to/lastmile_qr_scan"}, "fusion_lon": 0.0}, {"lat": 38.90277966666667, "is_disabled": 0, "type": "electric_scooter", "lon": -77.03865283333333, "bike_id": "115b01b92251b64ea3f162369a6916ed", "fusion_lat": 0.0, "name": "115b01b92251b64ea3f162369a6916ed", "is_reserved": 0, "rental_uris": {"android": "https://dc.lft.to/lastmile_qr_scan", "ios": "https://dc.lft.to/lastmile_qr_scan"}, "fusion_lon": 0.0}, {"lat": 38.8791665, "is_disabled": 0, "type": "electric_scooter", "lon": -77.03093833333334, "bike_id": "14501a79568bfc3ed489761a35f7aa26", "fusion_lat": 0.0, "name": "14501a79568bfc3ed489761a35f7aa26", "is_reserved": 0, "rental_uris": {"android": "https://dc.lft.to/lastmile_qr_scan", "ios": "https://dc.lft.to/lastmile_qr_scan"}, "fusion_lon": 0.0}, {"lat": 38.9040965, "is_disabled": 0, "type": "electric_scooter", "lon": -77.050579, "bike_id": "6bbf2e231407d59bb8ab96c8aa9df4cf", "fusion_lat": 0.0, "name": "6bbf2e231407d59bb8ab96c8aa9df4cf", "is_reserved": 0, "rental_uris": {"android": "https://dc.lft.to/lastmile_qr_scan", "ios": "https://dc.lft.to/lastmile_qr_scan"}, "fusion_lon": 0.0}, {"lat": 38.886692333333336, "is_disabled": 0, "type": "electric_bike", "lon": -77.16251516666667, "bike_id": "bf584ce45b5675479864e487ec8fdcb0", "fusion_lat": 0.0, "name": "bf584ce45b5675479864e487ec8fdcb0", "is_reserved": 0, "rental_uris": {"android": "https://dc.lft.to/lastmile_qr_scan", "ios": "https://dc.lft.to/lastmile_qr_scan"}, "fusion_lon": 0.0}, {"lat": 38.90824416666667, "is_disabled": 0, "type": "electric_scooter", "lon": -77.0201385, "bike_id": "5ca7022a5b4ac44591dc098d7aad99f8", "fusion_lat": 0.0, "name": "5ca7022a5b4ac44591dc098d7aad99f8", "is_reserved": 0, "rental_uris": {"android": "https://dc.lft.to/lastmile_qr_scan", "ios": "https://dc.lft.to/lastmile_qr_scan"}, "fusion_lon": 0.0}, {"lat": 38.9052285, "is_disabled": 0, "type": "electric_bike", "lon": -77.06603866666667, "bike_id": "873ce4021a197a51bdebb3b866d695d0", "fusion_lat": 0.0, "name": "873ce4021a197a51bdebb3b866d695d0", "is_reserved": 0, "rental_uris": {"android": "https://dc.lft.to/lastmile_qr_scan", "ios": "https://dc.lft.to/lastmile_qr_scan"}, "fusion_lon": 0.0}, {"lat": 38.93376666666666, "is_disabled": 0, "type": "electric_scooter", "lon": -77.035545, "bike_id": "7dba0488c717089a8a344102ad809d5c", "fusion_lat": 0.0, "name": "7dba0488c717089a8a344102ad809d5c", "is_reserved": 0, "rental_uris": {"android": "https://dc.lft.to/lastmile_qr_scan", "ios": "https://dc.lft.to/lastmile_qr_scan"}, "fusion_lon": 0.0}, {"lat": 38.928989, "is_disabled": 0, "type": "electric_scooter", "lon": -77.0165495, "bike_id": "96437314c05a7fc5a252eb94648419c8", "fusion_lat": 0.0, "name": "96437314c05a7fc5a252eb94648419c8", "is_reserved": 0, "rental_uris": {"android": "https://dc.lft.to/lastmile_qr_scan", "ios": "https://dc.lft.to/lastmile_qr_scan"}, "fusion_lon": 0.0}, {"lat": 38.9039165, "is_disabled": 0, "type": "electric_scooter", "lon": -76.990053, "bike_id": "dc91b014923414f6e41c75c0320bdce2", "fusion_lat": 0.0, "name": "dc91b014923414f6e41c75c0320bdce2", "is_reserved": 0, "rental_uris": {"android": "https://dc.lft.to/lastmile_qr_scan", "ios": "https://dc.lft.to/lastmile_qr_scan"}, "fusion_lon": 0.0}, {"lat": 38.8860335, "is_disabled": 0, "type": "electric_scooter", "lon": -77.01894683333333, "bike_id": "ee1645958e6620a6575fae0834f54cc0", "fusion_lat": 0.0, "name": "ee1645958e6620a6575fae0834f54cc0", "is_reserved": 0, "rental_uris": {"android": "https://dc.lft.to/lastmile_qr_scan", "ios": "https://dc.lft.to/lastmile_qr_scan"}, "fusion_lon": 0.0}, {"lat": 38.8854845, "is_disabled": 0, "type": "electric_bike", "lon": -77.11787533333333, "bike_id": "dbad28af4c0b669be8e18d4fec6f1771", "fusion_lat": 0.0, "name": "dbad28af4c0b669be8e18d4fec6f1771", "is_reserved": 0, "rental_uris": {"android": "https://dc.lft.to/lastmile_qr_scan", "ios": "https://dc.lft.to/lastmile_qr_scan"}, "fusion_lon": 0.0}, {"lat": 38.95711433333334, "is_disabled": 0, "type": "electric_scooter", "lon": -77.02403983333333, "bike_id": "2c98cc8d9a038fe1fbfe6378a29cd2cb", "fusion_lat": 0.0, "name": "2c98cc8d9a038fe1fbfe6378a29cd2cb", "is_reserved": 0, "rental_uris": {"android": "https://dc.lft.to/lastmile_qr_scan", "ios": "https://dc.lft.to/lastmile_qr_scan"}, "fusion_lon": 0.0}, {"lat": 38.94820416666666, "is_disabled": 0, "type": "electric_scooter", "lon": -76.99903283333333, "bike_id": "ef13e4ea479d4e46e89d2693ef9eec3c", "fusion_lat": 0.0, "name": "ef13e4ea479d4e46e89d2693ef9eec3c", "is_reserved": 0, "rental_uris": {"android": "https://dc.lft.to/lastmile_qr_scan", "ios": "https://dc.lft.to/lastmile_qr_scan"}, "fusion_lon": 0.0}, {"lat": 38.90645683333334, "is_disabled": 0, "type": "electric_scooter", "lon": -77.00823016666666, "bike_id": "3a42a0a30bfd2162102f4f9c1fe66b3a", "fusion_lat": 0.0, "name": "3a42a0a30bfd2162102f4f9c1fe66b3a", "is_reserved": 0, "rental_uris": {"android": "https://dc.lft.to/lastmile_qr_scan", "ios": "https://dc.lft.to/lastmile_qr_scan"}, "fusion_lon": 0.0}, {"lat": 38.9125415, "is_disabled": 0, "type": "electric_scooter", "lon": -77.05141683333333, "bike_id": "1451d2ddb6eb0428634172565fdc2546", "fusion_lat": 0.0, "name": "1451d2ddb6eb0428634172565fdc2546", "is_reserved": 0, "rental_uris": {"android": "https://dc.lft.to/lastmile_qr_scan", "ios": "https://dc.lft.to/lastmile_qr_scan"}, "fusion_lon": 0.0}, {"lat": 38.90830966666667, "is_disabled": 0, "type": "electric_scooter", "lon": -77.043328, "bike_id": "ae3aad1877a46a0ccca07bfd628a7233", "fusion_lat": 0.0, "name": "ae3aad1877a46a0ccca07bfd628a7233", "is_reserved": 0, "rental_uris": {"android": "https://dc.lft.to/lastmile_qr_scan", "ios": "https://dc.lft.to/lastmile_qr_scan"}, "fusion_lon": 0.0}, {"lat": 38.908642, "is_disabled": 0, "type": "electric_bike", "lon": -76.94009383333334, "bike_id": "e41e81a6b7cbfd7888ad8c62e737a4b7", "fusion_lat": 0.0, "name": "e41e81a6b7cbfd7888ad8c62e737a4b7", "is_reserved": 0, "rental_uris": {"android": "https://dc.lft.to/lastmile_qr_scan", "ios": "https://dc.lft.to/lastmile_qr_scan"}, "fusion_lon": 0.0}, {"lat": 38.8450745, "is_disabled": 0, "type": "electric_bike", "lon": -76.99355883333334, "bike_id": "e6250867810f31f5817d5b4003f2d888", "fusion_lat": 0.0, "name": "e6250867810f31f5817d5b4003f2d888", "is_reserved": 0, "rental_uris": {"android": "https://dc.lft.to/lastmile_qr_scan", "ios": "https://dc.lft.to/lastmile_qr_scan"}, "fusion_lon": 0.0}, {"lat": 38.8670785, "is_disabled": 0, "type": "electric_scooter", "lon": -76.98727566666666, "bike_id": "626bd26fb7eb2ec1a3a096e7410c6e61", "fusion_lat": 0.0, "name": "626bd26fb7eb2ec1a3a096e7410c6e61", "is_reserved": 0, "rental_uris": {"android": "https://dc.lft.to/lastmile_qr_scan", "ios": "https://dc.lft.to/lastmile_qr_scan"}, "fusion_lon": 0.0}, {"lat": 38.91878, "is_disabled": 0, "type": "electric_scooter", "lon": -77.0350055, "bike_id": "d14a825eb08191ad4b38d19310c075da", "fusion_lat": 0.0, "name": "d14a825eb08191ad4b38d19310c075da", "is_reserved": 0, "rental_uris": {"android": "https://dc.lft.to/lastmile_qr_scan", "ios": "https://dc.lft.to/lastmile_qr_scan"}, "fusion_lon": 0.0}, {"lat": 38.91263, "is_disabled": 0, "type": "electric_scooter", "lon": -77.02250483333333, "bike_id": "1d6e2df0ef8936004f40bc2c392967d1", "fusion_lat": 0.0, "name": "1d6e2df0ef8936004f40bc2c392967d1", "is_reserved": 0, "rental_uris": {"android": "https://dc.lft.to/lastmile_qr_scan", "ios": "https://dc.lft.to/lastmile_qr_scan"}, "fusion_lon": 0.0}, {"lat": 38.896521166666666, "is_disabled": 0, "type": "electric_scooter", "lon": -77.00519816666667, "bike_id": "a65b92b5aa7e6b0ce34a44912a5cc46b", "fusion_lat": 0.0, "name": "a65b92b5aa7e6b0ce34a44912a5cc46b", "is_reserved": 0, "rental_uris": {"android": "https://dc.lft.to/lastmile_qr_scan", "ios": "https://dc.lft.to/lastmile_qr_scan"}, "fusion_lon": 0.0}, {"lat": 38.9058715, "is_disabled": 0, "type": "electric_scooter", "lon": -76.98618883333333, "bike_id": "c48c2d6f641875b88a9a6f6a0aa78d32", "fusion_lat": 0.0, "name": "c48c2d6f641875b88a9a6f6a0aa78d32", "is_reserved": 0, "rental_uris": {"android": "https://dc.lft.to/lastmile_qr_scan", "ios": "https://dc.lft.to/lastmile_qr_scan"}, "fusion_lon": 0.0}, {"lat": 38.906220166666664, "is_disabled": 0, "type": "electric_scooter", "lon": -77.0218255, "bike_id": "42cfdbf628d6a3b5786f6e94afbbba93", "fusion_lat": 0.0, "name": "42cfdbf628d6a3b5786f6e94afbbba93", "is_reserved": 0, "rental_uris": {"android": "https://dc.lft.to/lastmile_qr_scan", "ios": "https://dc.lft.to/lastmile_qr_scan"}, "fusion_lon": 0.0}, {"lat": 38.914952, "is_disabled": 0, "type": "electric_scooter", "lon": -76.98374166666666, "bike_id": "085a0ae1262a1e6d4d96cdffa173c7ce", "fusion_lat": 0.0, "name": "085a0ae1262a1e6d4d96cdffa173c7ce", "is_reserved": 0, "rental_uris": {"android": "https://dc.lft.to/lastmile_qr_scan", "ios": "https://dc.lft.to/lastmile_qr_scan"}, "fusion_lon": 0.0}, {"lat": 38.914626, "is_disabled": 0, "type": "electric_scooter", "lon": -77.0142875, "bike_id": "81b0f4aeb4903d5fff343ccd48b0fbfb", "fusion_lat": 0.0, "name": "81b0f4aeb4903d5fff343ccd48b0fbfb", "is_reserved": 0, "rental_uris": {"android": "https://dc.lft.to/lastmile_qr_scan", "ios": "https://dc.lft.to/lastmile_qr_scan"}, "fusion_lon": 0.0}, {"lat": 38.88274583333333, "is_disabled": 0, "type": "electric_bike", "lon": -76.93243566666666, "bike_id": "b1d190ac36341616e76585cd7a92b5ea", "fusion_lat": 0.0, "name": "b1d190ac36341616e76585cd7a92b5ea", "is_reserved": 0, "rental_uris": {"android": "https://dc.lft.to/lastmile_qr_scan", "ios": "https://dc.lft.to/lastmile_qr_scan"}, "fusion_lon": 0.0}, {"lat": 38.90876633333333, "is_disabled": 0, "type": "electric_scooter", "lon": -77.03662183333333, "bike_id": "02531f12dffef95e7fefba1cd9b7660e", "fusion_lat": 0.0, "name": "02531f12dffef95e7fefba1cd9b7660e", "is_reserved": 0, "rental_uris": {"android": "https://dc.lft.to/lastmile_qr_scan", "ios": "https://dc.lft.to/lastmile_qr_scan"}, "fusion_lon": 0.0}, {"lat": 38.86616633333333, "is_disabled": 0, "type": "electric_scooter", "lon": -76.986604, "bike_id": "1943739f2c4a85fcb681ec0f9b4c9605", "fusion_lat": 0.0, "name": "1943739f2c4a85fcb681ec0f9b4c9605", "is_reserved": 0, "rental_uris": {"android": "https://dc.lft.to/lastmile_qr_scan", "ios": "https://dc.lft.to/lastmile_qr_scan"}, "fusion_lon": 0.0}, {"lat": 38.93576916666667, "is_disabled": 0, "type": "electric_scooter", "lon": -77.037542, "bike_id": "d06107a82e10e85f2e38ba8a475fd00b", "fusion_lat": 0.0, "name": "d06107a82e10e85f2e38ba8a475fd00b", "is_reserved": 0, "rental_uris": {"android": "https://dc.lft.to/lastmile_qr_scan", "ios": "https://dc.lft.to/lastmile_qr_scan"}, "fusion_lon": 0.0}, {"lat": 38.89426066666667, "is_disabled": 0, "type": "electric_scooter", "lon": -77.02090583333333, "bike_id": "5584ef3a9dc609d2cc31262169508615", "fusion_lat": 0.0, "name": "5584ef3a9dc609d2cc31262169508615", "is_reserved": 0, "rental_uris": {"android": "https://dc.lft.to/lastmile_qr_scan", "ios": "https://dc.lft.to/lastmile_qr_scan"}, "fusion_lon": 0.0}, {"lat": 38.903394166666665, "is_disabled": 0, "type": "electric_scooter", "lon": -76.97057, "bike_id": "8f6f5bd44107c950dd333e9af3da5ccc", "fusion_lat": 0.0, "name": "8f6f5bd44107c950dd333e9af3da5ccc", "is_reserved": 0, "rental_uris": {"android": "https://dc.lft.to/lastmile_qr_scan", "ios": "https://dc.lft.to/lastmile_qr_scan"}, "fusion_lon": 0.0}, {"lat": 38.901417333333335, "is_disabled": 0, "type": "electric_scooter", "lon": -77.05106033333334, "bike_id": "984322f0a21ef1dc9b18f5b3176d0994", "fusion_lat": 0.0, "name": "984322f0a21ef1dc9b18f5b3176d0994", "is_reserved": 0, "rental_uris": {"android": "https://dc.lft.to/lastmile_qr_scan", "ios": "https://dc.lft.to/lastmile_qr_scan"}, "fusion_lon": 0.0}, {"lat": 38.9260335, "is_disabled": 0, "type": "electric_scooter", "lon": -77.02156133333334, "bike_id": "b55c0e682498ad2f4782031c940dd036", "fusion_lat": 0.0, "name": "b55c0e682498ad2f4782031c940dd036", "is_reserved": 0, "rental_uris": {"android": "https://dc.lft.to/lastmile_qr_scan", "ios": "https://dc.lft.to/lastmile_qr_scan"}, "fusion_lon": 0.0}, {"lat": 38.950742, "is_disabled": 0, "type": "electric_bike", "lon": -77.01195816666667, "bike_id": "552cbf41150f877424c59b557b036a04", "fusion_lat": 0.0, "name": "552cbf41150f877424c59b557b036a04", "is_reserved": 0, "rental_uris": {"android": "https://dc.lft.to/lastmile_qr_scan", "ios": "https://dc.lft.to/lastmile_qr_scan"}, "fusion_lon": 0.0}, {"lat": 38.903470166666665, "is_disabled": 0, "type": "electric_scooter", "lon": -77.00216416666666, "bike_id": "2058105e50bcc1e7b227513fd89ada13", "fusion_lat": 0.0, "name": "2058105e50bcc1e7b227513fd89ada13", "is_reserved": 0, "rental_uris": {"android": "https://dc.lft.to/lastmile_qr_scan", "ios": "https://dc.lft.to/lastmile_qr_scan"}, "fusion_lon": 0.0}, {"lat": 38.911901666666665, "is_disabled": 0, "type": "electric_scooter", "lon": -77.04487466666667, "bike_id": "7bba3c7f2fe52dfe7cc97b1fed096e85", "fusion_lat": 0.0, "name": "7bba3c7f2fe52dfe7cc97b1fed096e85", "is_reserved": 0, "rental_uris": {"android": "https://dc.lft.to/lastmile_qr_scan", "ios": "https://dc.lft.to/lastmile_qr_scan"}, "fusion_lon": 0.0}, {"lat": 38.9075325, "is_disabled": 0, "type": "electric_scooter", "lon": -77.04153283333333, "bike_id": "f526b0e486131fef9d4d961161283ce2", "fusion_lat": 0.0, "name": "f526b0e486131fef9d4d961161283ce2", "is_reserved": 0, "rental_uris": {"android": "https://dc.lft.to/lastmile_qr_scan", "ios": "https://dc.lft.to/lastmile_qr_scan"}, "fusion_lon": 0.0}, {"lat": 38.8665505, "is_disabled": 0, "type": "electric_scooter", "lon": -76.98884533333333, "bike_id": "808b4347b83a904356aacd637ee25bba", "fusion_lat": 0.0, "name": "808b4347b83a904356aacd637ee25bba", "is_reserved": 0, "rental_uris": {"android": "https://dc.lft.to/lastmile_qr_scan", "ios": "https://dc.lft.to/lastmile_qr_scan"}, "fusion_lon": 0.0}, {"lat": 38.8922045, "is_disabled": 0, "type": "electric_scooter", "lon": -77.03169, "bike_id": "bf1219c272807152c779883173599d91", "fusion_lat": 0.0, "name": "bf1219c272807152c779883173599d91", "is_reserved": 0, "rental_uris": {"android": "https://dc.lft.to/lastmile_qr_scan", "ios": "https://dc.lft.to/lastmile_qr_scan"}, "fusion_lon": 0.0}, {"lat": 38.94170066666667, "is_disabled": 0, "type": "electric_bike", "lon": -76.9848405, "bike_id": "844a2a01e5cf05229107d5200179242f", "fusion_lat": 0.0, "name": "844a2a01e5cf05229107d5200179242f", "is_reserved": 0, "rental_uris": {"android": "https://dc.lft.to/lastmile_qr_scan", "ios": "https://dc.lft.to/lastmile_qr_scan"}, "fusion_lon": 0.0}, {"lat": 38.912544833333335, "is_disabled": 0, "type": "electric_scooter", "lon": -77.03218033333333, "bike_id": "7fad05375698ec282283e83f6ba3f86e", "fusion_lat": 0.0, "name": "7fad05375698ec282283e83f6ba3f86e", "is_reserved": 0, "rental_uris": {"android": "https://dc.lft.to/lastmile_qr_scan", "ios": "https://dc.lft.to/lastmile_qr_scan"}, "fusion_lon": 0.0}, {"lat": 38.90720233333333, "is_disabled": 0, "type": "electric_scooter", "lon": -77.02983133333333, "bike_id": "dd23b129c94863c7514ff7111640ecce", "fusion_lat": 0.0, "name": "dd23b129c94863c7514ff7111640ecce", "is_reserved": 0, "rental_uris": {"android": "https://dc.lft.to/lastmile_qr_scan", "ios": "https://dc.lft.to/lastmile_qr_scan"}, "fusion_lon": 0.0}, {"lat": 38.884918666666664, "is_disabled": 0, "type": "electric_scooter", "lon": -77.00706466666666, "bike_id": "619a6d53d9475df539754a0951e41b5a", "fusion_lat": 0.0, "name": "619a6d53d9475df539754a0951e41b5a", "is_reserved": 0, "rental_uris": {"android": "https://dc.lft.to/lastmile_qr_scan", "ios": "https://dc.lft.to/lastmile_qr_scan"}, "fusion_lon": 0.0}, {"lat": 38.91610766666667, "is_disabled": 0, "type": "electric_scooter", "lon": -77.02311533333334, "bike_id": "6cbb6985c4ba5a7a6c8e019a39ef0371", "fusion_lat": 0.0, "name": "6cbb6985c4ba5a7a6c8e019a39ef0371", "is_reserved": 0, "rental_uris": {"android": "https://dc.lft.to/lastmile_qr_scan", "ios": "https://dc.lft.to/lastmile_qr_scan"}, "fusion_lon": 0.0}, {"lat": 38.927357, "is_disabled": 0, "type": "electric_scooter", "lon": -77.03450716666667, "bike_id": "636340df357c1947f4de89c28858e7bb", "fusion_lat": 0.0, "name": "636340df357c1947f4de89c28858e7bb", "is_reserved": 0, "rental_uris": {"android": "https://dc.lft.to/lastmile_qr_scan", "ios": "https://dc.lft.to/lastmile_qr_scan"}, "fusion_lon": 0.0}, {"lat": 38.80574716666667, "is_disabled": 0, "type": "electric_bike", "lon": -77.06859283333333, "bike_id": "761e9c911a88603a096f82cc404096c5", "fusion_lat": 0.0, "name": "761e9c911a88603a096f82cc404096c5", "is_reserved": 0, "rental_uris": {"android": "https://dc.lft.to/lastmile_qr_scan", "ios": "https://dc.lft.to/lastmile_qr_scan"}, "fusion_lon": 0.0}, {"lat": 38.985013, "is_disabled": 0, "type": "electric_bike", "lon": -76.982101, "bike_id": "cd15ef53903df147ffe71e2ff9800a06", "fusion_lat": 0.0, "name": "cd15ef53903df147ffe71e2ff9800a06", "is_reserved": 0, "rental_uris": {"android": "https://dc.lft.to/lastmile_qr_scan", "ios": "https://dc.lft.to/lastmile_qr_scan"}, "fusion_lon": 0.0}, {"lat": 38.89419866666667, "is_disabled": 0, "type": "electric_scooter", "lon": -77.02426116666666, "bike_id": "e77987c95b3c7364cbe8aabb15bc3133", "fusion_lat": 0.0, "name": "e77987c95b3c7364cbe8aabb15bc3133", "is_reserved": 0, "rental_uris": {"android": "https://dc.lft.to/lastmile_qr_scan", "ios": "https://dc.lft.to/lastmile_qr_scan"}, "fusion_lon": 0.0}, {"lat": 38.90110516666667, "is_disabled": 0, "type": "electric_scooter", "lon": -77.04982966666667, "bike_id": "e089de51564fa9e34d685941aa614aad", "fusion_lat": 0.0, "name": "e089de51564fa9e34d685941aa614aad", "is_reserved": 0, "rental_uris": {"android": "https://dc.lft.to/lastmile_qr_scan", "ios": "https://dc.lft.to/lastmile_qr_scan"}, "fusion_lon": 0.0}, {"lat": 38.920146833333334, "is_disabled": 0, "type": "electric_scooter", "lon": -77.01956466666667, "bike_id": "a737d4ad03691d5710b9643e12338d1c", "fusion_lat": 0.0, "name": "a737d4ad03691d5710b9643e12338d1c", "is_reserved": 0, "rental_uris": {"android": "https://dc.lft.to/lastmile_qr_scan", "ios": "https://dc.lft.to/lastmile_qr_scan"}, "fusion_lon": 0.0}, {"lat": 38.917382333333336, "is_disabled": 0, "type": "electric_scooter", "lon": -77.03195533333333, "bike_id": "85efaad82d89463be0ee39424d76a1fa", "fusion_lat": 0.0, "name": "85efaad82d89463be0ee39424d76a1fa", "is_reserved": 0, "rental_uris": {"android": "https://dc.lft.to/lastmile_qr_scan", "ios": "https://dc.lft.to/lastmile_qr_scan"}, "fusion_lon": 0.0}, {"lat": 38.89209483333333, "is_disabled": 0, "type": "electric_scooter", "lon": -76.98697733333333, "bike_id": "a4dd310be8f73531cb8a2076bbb1ce50", "fusion_lat": 0.0, "name": "a4dd310be8f73531cb8a2076bbb1ce50", "is_reserved": 0, "rental_uris": {"android": "https://dc.lft.to/lastmile_qr_scan", "ios": "https://dc.lft.to/lastmile_qr_scan"}, "fusion_lon": 0.0}, {"lat": 38.982689666666666, "is_disabled": 0, "type": "electric_bike", "lon": -77.0177285, "bike_id": "26fde75f30097a97590282f80bf2bacb", "fusion_lat": 0.0, "name": "26fde75f30097a97590282f80bf2bacb", "is_reserved": 0, "rental_uris": {"android": "https://dc.lft.to/lastmile_qr_scan", "ios": "https://dc.lft.to/lastmile_qr_scan"}, "fusion_lon": 0.0}, {"lat": 38.895537166666664, "is_disabled": 0, "type": "electric_scooter", "lon": -77.02281716666667, "bike_id": "82e06e927e70be69b96d2cc48244b44c", "fusion_lat": 0.0, "name": "82e06e927e70be69b96d2cc48244b44c", "is_reserved": 0, "rental_uris": {"android": "https://dc.lft.to/lastmile_qr_scan", "ios": "https://dc.lft.to/lastmile_qr_scan"}, "fusion_lon": 0.0}, {"lat": 38.91409616666667, "is_disabled": 0, "type": "electric_scooter", "lon": -77.045037, "bike_id": "98460f256403ef17d3e7115e0292d9af", "fusion_lat": 0.0, "name": "98460f256403ef17d3e7115e0292d9af", "is_reserved": 0, "rental_uris": {"android": "https://dc.lft.to/lastmile_qr_scan", "ios": "https://dc.lft.to/lastmile_qr_scan"}, "fusion_lon": 0.0}, {"lat": 38.922913333333334, "is_disabled": 0, "type": "electric_scooter", "lon": -77.04720066666667, "bike_id": "888d7b3f2dd08070440c4a77dc8ec949", "fusion_lat": 0.0, "name": "888d7b3f2dd08070440c4a77dc8ec949", "is_reserved": 0, "rental_uris": {"android": "https://dc.lft.to/lastmile_qr_scan", "ios": "https://dc.lft.to/lastmile_qr_scan"}, "fusion_lon": 0.0}, {"lat": 38.93077433333333, "is_disabled": 0, "type": "electric_scooter", "lon": -77.03415166666667, "bike_id": "27d8b12c677f71945e35b91f3c02a718", "fusion_lat": 0.0, "name": "27d8b12c677f71945e35b91f3c02a718", "is_reserved": 0, "rental_uris": {"android": "https://dc.lft.to/lastmile_qr_scan", "ios": "https://dc.lft.to/lastmile_qr_scan"}, "fusion_lon": 0.0}, {"lat": 38.8398865, "is_disabled": 0, "type": "electric_bike", "lon": -77.00569866666666, "bike_id": "8126bf2370eca7ae125a448645cd5768", "fusion_lat": 0.0, "name": "8126bf2370eca7ae125a448645cd5768", "is_reserved": 0, "rental_uris": {"android": "https://dc.lft.to/lastmile_qr_scan", "ios": "https://dc.lft.to/lastmile_qr_scan"}, "fusion_lon": 0.0}, {"lat": 38.924039, "is_disabled": 0, "type": "electric_scooter", "lon": -77.052538, "bike_id": "ae5b2a744221368aa979b1def69b225a", "fusion_lat": 0.0, "name": "ae5b2a744221368aa979b1def69b225a", "is_reserved": 0, "rental_uris": {"android": "https://dc.lft.to/lastmile_qr_scan", "ios": "https://dc.lft.to/lastmile_qr_scan"}, "fusion_lon": 0.0}, {"lat": 38.9125385, "is_disabled": 0, "type": "electric_scooter", "lon": -77.038629, "bike_id": "44e105005ce79c289a9b4e974901c4a8", "fusion_lat": 0.0, "name": "44e105005ce79c289a9b4e974901c4a8", "is_reserved": 0, "rental_uris": {"android": "https://dc.lft.to/lastmile_qr_scan", "ios": "https://dc.lft.to/lastmile_qr_scan"}, "fusion_lon": 0.0}, {"lat": 38.900348666666666, "is_disabled": 0, "type": "electric_scooter", "lon": -76.99500883333333, "bike_id": "b1f3a61be9df09c99151ec833a705632", "fusion_lat": 0.0, "name": "b1f3a61be9df09c99151ec833a705632", "is_reserved": 0, "rental_uris": {"android": "https://dc.lft.to/lastmile_qr_scan", "ios": "https://dc.lft.to/lastmile_qr_scan"}, "fusion_lon": 0.0}, {"lat": 38.87308816666667, "is_disabled": 0, "type": "electric_bike", "lon": -77.01097033333333, "bike_id": "dced527975326a0b8c8b4098e3cebbd7", "fusion_lat": 0.0, "name": "dced527975326a0b8c8b4098e3cebbd7", "is_reserved": 0, "rental_uris": {"android": "https://dc.lft.to/lastmile_qr_scan", "ios": "https://dc.lft.to/lastmile_qr_scan"}, "fusion_lon": 0.0}, {"lat": 38.90418916666667, "is_disabled": 0, "type": "electric_scooter", "lon": -77.059088, "bike_id": "b6f0bc113b97675e8699d730ff36a00b", "fusion_lat": 0.0, "name": "b6f0bc113b97675e8699d730ff36a00b", "is_reserved": 0, "rental_uris": {"android": "https://dc.lft.to/lastmile_qr_scan", "ios": "https://dc.lft.to/lastmile_qr_scan"}, "fusion_lon": 0.0}, {"lat": 38.9337935, "is_disabled": 0, "type": "electric_scooter", "lon": -77.02603233333333, "bike_id": "856a363303f543c0f4d59df3d3cee348", "fusion_lat": 0.0, "name": "856a363303f543c0f4d59df3d3cee348", "is_reserved": 0, "rental_uris": {"android": "https://dc.lft.to/lastmile_qr_scan", "ios": "https://dc.lft.to/lastmile_qr_scan"}, "fusion_lon": 0.0}, {"lat": 38.90952733333334, "is_disabled": 0, "type": "electric_scooter", "lon": -77.04171116666667, "bike_id": "f173f1247972d71a038713e5f879dd5b", "fusion_lat": 0.0, "name": "f173f1247972d71a038713e5f879dd5b", "is_reserved": 0, "rental_uris": {"android": "https://dc.lft.to/lastmile_qr_scan", "ios": "https://dc.lft.to/lastmile_qr_scan"}, "fusion_lon": 0.0}, {"lat": 38.909841, "is_disabled": 0, "type": "electric_scooter", "lon": -76.9846915, "bike_id": "39c39a23aaa8011aba47db6d25c1bc61", "fusion_lat": 0.0, "name": "39c39a23aaa8011aba47db6d25c1bc61", "is_reserved": 0, "rental_uris": {"android": "https://dc.lft.to/lastmile_qr_scan", "ios": "https://dc.lft.to/lastmile_qr_scan"}, "fusion_lon": 0.0}, {"lat": 38.905638, "is_disabled": 0, "type": "electric_scooter", "lon": -77.0050065, "bike_id": "38ae93d9d84919b1808d95ba257994ff", "fusion_lat": 0.0, "name": "38ae93d9d84919b1808d95ba257994ff", "is_reserved": 0, "rental_uris": {"android": "https://dc.lft.to/lastmile_qr_scan", "ios": "https://dc.lft.to/lastmile_qr_scan"}, "fusion_lon": 0.0}, {"lat": 38.91612933333333, "is_disabled": 0, "type": "electric_scooter", "lon": -77.02285833333333, "bike_id": "2c760b6955ed4d91abf52d8897662ece", "fusion_lat": 0.0, "name": "2c760b6955ed4d91abf52d8897662ece", "is_reserved": 0, "rental_uris": {"android": "https://dc.lft.to/lastmile_qr_scan", "ios": "https://dc.lft.to/lastmile_qr_scan"}, "fusion_lon": 0.0}, {"lat": 38.91498333333333, "is_disabled": 0, "type": "electric_scooter", "lon": -77.0678375, "bike_id": "0ac67647b240b5cd35cb53e23b3c090d", "fusion_lat": 0.0, "name": "0ac67647b240b5cd35cb53e23b3c090d", "is_reserved": 0, "rental_uris": {"android": "https://dc.lft.to/lastmile_qr_scan", "ios": "https://dc.lft.to/lastmile_qr_scan"}, "fusion_lon": 0.0}, {"lat": 38.910176666666665, "is_disabled": 0, "type": "electric_scooter", "lon": -77.04279016666666, "bike_id": "75c1830b0e1b94b617396a7d995524bf", "fusion_lat": 0.0, "name": "75c1830b0e1b94b617396a7d995524bf", "is_reserved": 0, "rental_uris": {"android": "https://dc.lft.to/lastmile_qr_scan", "ios": "https://dc.lft.to/lastmile_qr_scan"}, "fusion_lon": 0.0}, {"lat": 38.89221416666667, "is_disabled": 0, "type": "electric_scooter", "lon": -77.0197795, "bike_id": "4fb0899a1be1bd194144bcef147a9410", "fusion_lat": 0.0, "name": "4fb0899a1be1bd194144bcef147a9410", "is_reserved": 0, "rental_uris": {"android": "https://dc.lft.to/lastmile_qr_scan", "ios": "https://dc.lft.to/lastmile_qr_scan"}, "fusion_lon": 0.0}, {"lat": 38.8669985, "is_disabled": 0, "type": "electric_scooter", "lon": -76.98711116666666, "bike_id": "b246f017254867b27269b9ab9c2cd48c", "fusion_lat": 0.0, "name": "b246f017254867b27269b9ab9c2cd48c", "is_reserved": 0, "rental_uris": {"android": "https://dc.lft.to/lastmile_qr_scan", "ios": "https://dc.lft.to/lastmile_qr_scan"}, "fusion_lon": 0.0}, {"lat": 38.93248666666667, "is_disabled": 0, "type": "electric_scooter", "lon": -77.0665785, "bike_id": "782cdf1b4a8fd2f3db65a42b50421547", "fusion_lat": 0.0, "name": "782cdf1b4a8fd2f3db65a42b50421547", "is_reserved": 0, "rental_uris": {"android": "https://dc.lft.to/lastmile_qr_scan", "ios": "https://dc.lft.to/lastmile_qr_scan"}, "fusion_lon": 0.0}, {"lat": 38.879907833333334, "is_disabled": 0, "type": "electric_scooter", "lon": -76.9868115, "bike_id": "8a6f850345924e1c76ae8baee8a507d4", "fusion_lat": 0.0, "name": "8a6f850345924e1c76ae8baee8a507d4", "is_reserved": 0, "rental_uris": {"android": "https://dc.lft.to/lastmile_qr_scan", "ios": "https://dc.lft.to/lastmile_qr_scan"}, "fusion_lon": 0.0}, {"lat": 38.914208, "is_disabled": 0, "type": "electric_scooter", "lon": -77.03184683333333, "bike_id": "db7a652f7a0fc93af0dca6fb5145124e", "fusion_lat": 0.0, "name": "db7a652f7a0fc93af0dca6fb5145124e", "is_reserved": 0, "rental_uris": {"android": "https://dc.lft.to/lastmile_qr_scan", "ios": "https://dc.lft.to/lastmile_qr_scan"}, "fusion_lon": 0.0}, {"lat": 38.93203466666667, "is_disabled": 0, "type": "electric_scooter", "lon": -76.97765033333333, "bike_id": "2ef73fec1f81660a40bfedbeeb21839d", "fusion_lat": 0.0, "name": "2ef73fec1f81660a40bfedbeeb21839d", "is_reserved": 0, "rental_uris": {"android": "https://dc.lft.to/lastmile_qr_scan", "ios": "https://dc.lft.to/lastmile_qr_scan"}, "fusion_lon": 0.0}, {"lat": 38.902848666666664, "is_disabled": 0, "type": "electric_scooter", "lon": -77.036425, "bike_id": "efff298bb6cb61d3120fa5ea3886e5de", "fusion_lat": 0.0, "name": "efff298bb6cb61d3120fa5ea3886e5de", "is_reserved": 0, "rental_uris": {"android": "https://dc.lft.to/lastmile_qr_scan", "ios": "https://dc.lft.to/lastmile_qr_scan"}, "fusion_lon": 0.0}, {"lat": 38.895845, "is_disabled": 0, "type": "electric_bike", "lon": -77.12680466666667, "bike_id": "394b907a9ee9e8b69ee133d6bb36be43", "fusion_lat": 0.0, "name": "394b907a9ee9e8b69ee133d6bb36be43", "is_reserved": 0, "rental_uris": {"android": "https://dc.lft.to/lastmile_qr_scan", "ios": "https://dc.lft.to/lastmile_qr_scan"}, "fusion_lon": 0.0}, {"lat": 38.916954, "is_disabled": 0, "type": "electric_scooter", "lon": -77.03338533333333, "bike_id": "8aae95786b944c3373c3f8fdd5cf15d7", "fusion_lat": 0.0, "name": "8aae95786b944c3373c3f8fdd5cf15d7", "is_reserved": 0, "rental_uris": {"android": "https://dc.lft.to/lastmile_qr_scan", "ios": "https://dc.lft.to/lastmile_qr_scan"}, "fusion_lon": 0.0}, {"lat": 38.9100515, "is_disabled": 0, "type": "electric_scooter", "lon": -77.04424116666667, "bike_id": "83336590102731b8f251d22a3ae63b63", "fusion_lat": 0.0, "name": "83336590102731b8f251d22a3ae63b63", "is_reserved": 0, "rental_uris": {"android": "https://dc.lft.to/lastmile_qr_scan", "ios": "https://dc.lft.to/lastmile_qr_scan"}, "fusion_lon": 0.0}, {"lat": 38.91011783333333, "is_disabled": 0, "type": "electric_scooter", "lon": -77.04441166666666, "bike_id": "27d5c70be442061894e621193dd9c031", "fusion_lat": 0.0, "name": "27d5c70be442061894e621193dd9c031", "is_reserved": 0, "rental_uris": {"android": "https://dc.lft.to/lastmile_qr_scan", "ios": "https://dc.lft.to/lastmile_qr_scan"}, "fusion_lon": 0.0}, {"lat": 38.906563166666665, "is_disabled": 0, "type": "electric_scooter", "lon": -77.0386375, "bike_id": "de5e540765bd3630014ef2883762d86c", "fusion_lat": 0.0, "name": "de5e540765bd3630014ef2883762d86c", "is_reserved": 0, "rental_uris": {"android": "https://dc.lft.to/lastmile_qr_scan", "ios": "https://dc.lft.to/lastmile_qr_scan"}, "fusion_lon": 0.0}, {"lat": 38.909652333333334, "is_disabled": 0, "type": "electric_scooter", "lon": -77.02284116666667, "bike_id": "ca3b6e8e04267fa6e20d9d49750db3f2", "fusion_lat": 0.0, "name": "ca3b6e8e04267fa6e20d9d49750db3f2", "is_reserved": 0, "rental_uris": {"android": "https://dc.lft.to/lastmile_qr_scan", "ios": "https://dc.lft.to/lastmile_qr_scan"}, "fusion_lon": 0.0}, {"lat": 38.865233833333335, "is_disabled": 0, "type": "electric_scooter", "lon": -76.990237, "bike_id": "cca79d911eaf6b2ac864ca3fb6b20ec8", "fusion_lat": 0.0, "name": "cca79d911eaf6b2ac864ca3fb6b20ec8", "is_reserved": 0, "rental_uris": {"android": "https://dc.lft.to/lastmile_qr_scan", "ios": "https://dc.lft.to/lastmile_qr_scan"}, "fusion_lon": 0.0}, {"lat": 38.93355366666667, "is_disabled": 0, "type": "electric_bike", "lon": -77.09961083333333, "bike_id": "3420e719a99acaae505462fb9a46f01f", "fusion_lat": 0.0, "name": "3420e719a99acaae505462fb9a46f01f", "is_reserved": 0, "rental_uris": {"android": "https://dc.lft.to/lastmile_qr_scan", "ios": "https://dc.lft.to/lastmile_qr_scan"}, "fusion_lon": 0.0}, {"lat": 38.8556385, "is_disabled": 0, "type": "electric_bike", "lon": -77.11136233333333, "bike_id": "30b44378fb7dee40600eed2679a511f8", "fusion_lat": 0.0, "name": "30b44378fb7dee40600eed2679a511f8", "is_reserved": 0, "rental_uris": {"android": "https://dc.lft.to/lastmile_qr_scan", "ios": "https://dc.lft.to/lastmile_qr_scan"}, "fusion_lon": 0.0}, {"lat": 38.90524516666667, "is_disabled": 0, "type": "electric_scooter", "lon": -77.06240383333333, "bike_id": "b4af745b1f78a8376ae53534ffcb32fc", "fusion_lat": 0.0, "name": "b4af745b1f78a8376ae53534ffcb32fc", "is_reserved": 0, "rental_uris": {"android": "https://dc.lft.to/lastmile_qr_scan", "ios": "https://dc.lft.to/lastmile_qr_scan"}, "fusion_lon": 0.0}, {"lat": 38.93322383333334, "is_disabled": 0, "type": "electric_scooter", "lon": -77.04368216666667, "bike_id": "15853badee69faff4c444fba2d9718fe", "fusion_lat": 0.0, "name": "15853badee69faff4c444fba2d9718fe", "is_reserved": 0, "rental_uris": {"android": "https://dc.lft.to/lastmile_qr_scan", "ios": "https://dc.lft.to/lastmile_qr_scan"}, "fusion_lon": 0.0}, {"lat": 38.89218783333333, "is_disabled": 0, "type": "electric_scooter", "lon": -77.02627466666667, "bike_id": "bca03c62bb8bc67ec4fdc60f97d3b369", "fusion_lat": 0.0, "name": "bca03c62bb8bc67ec4fdc60f97d3b369", "is_reserved": 0, "rental_uris": {"android": "https://dc.lft.to/lastmile_qr_scan", "ios": "https://dc.lft.to/lastmile_qr_scan"}, "fusion_lon": 0.0}, {"lat": 38.919490833333334, "is_disabled": 0, "type": "electric_scooter", "lon": -76.980725, "bike_id": "05881a845c876432b5bd3df2326efd87", "fusion_lat": 0.0, "name": "05881a845c876432b5bd3df2326efd87", "is_reserved": 0, "rental_uris": {"android": "https://dc.lft.to/lastmile_qr_scan", "ios": "https://dc.lft.to/lastmile_qr_scan"}, "fusion_lon": 0.0}, {"lat": 38.90206216666667, "is_disabled": 0, "type": "electric_scooter", "lon": -77.02373433333334, "bike_id": "66bc23d9416f9e2fe9c6a5263727b2db", "fusion_lat": 0.0, "name": "66bc23d9416f9e2fe9c6a5263727b2db", "is_reserved": 0, "rental_uris": {"android": "https://dc.lft.to/lastmile_qr_scan", "ios": "https://dc.lft.to/lastmile_qr_scan"}, "fusion_lon": 0.0}, {"lat": 38.88733233333333, "is_disabled": 0, "type": "electric_scooter", "lon": -77.03218066666666, "bike_id": "58cb1e15cff7ff29a667dd92d42284e6", "fusion_lat": 0.0, "name": "58cb1e15cff7ff29a667dd92d42284e6", "is_reserved": 0, "rental_uris": {"android": "https://dc.lft.to/lastmile_qr_scan", "ios": "https://dc.lft.to/lastmile_qr_scan"}, "fusion_lon": 0.0}, {"lat": 38.90068483333334, "is_disabled": 0, "type": "electric_scooter", "lon": -77.00221, "bike_id": "4d76c1df0bd7f7d79b1da552b77c9ad2", "fusion_lat": 0.0, "name": "4d76c1df0bd7f7d79b1da552b77c9ad2", "is_reserved": 0, "rental_uris": {"android": "https://dc.lft.to/lastmile_qr_scan", "ios": "https://dc.lft.to/lastmile_qr_scan"}, "fusion_lon": 0.0}, {"lat": 38.917743333333334, "is_disabled": 0, "type": "electric_scooter", "lon": -77.03852383333333, "bike_id": "7356a922d81b2bb920fc0067f0428e53", "fusion_lat": 0.0, "name": "7356a922d81b2bb920fc0067f0428e53", "is_reserved": 0, "rental_uris": {"android": "https://dc.lft.to/lastmile_qr_scan", "ios": "https://dc.lft.to/lastmile_qr_scan"}, "fusion_lon": 0.0}, {"lat": 38.92331733333333, "is_disabled": 0, "type": "electric_scooter", "lon": -77.02689416666666, "bike_id": "c2306dc6f64f4559abee647935bd79cf", "fusion_lat": 0.0, "name": "c2306dc6f64f4559abee647935bd79cf", "is_reserved": 0, "rental_uris": {"android": "https://dc.lft.to/lastmile_qr_scan", "ios": "https://dc.lft.to/lastmile_qr_scan"}, "fusion_lon": 0.0}, {"lat": 38.898179, "is_disabled": 0, "type": "electric_scooter", "lon": -77.0324655, "bike_id": "079a1b6b07a7dd465fbdc496ad5e64e1", "fusion_lat": 0.0, "name": "079a1b6b07a7dd465fbdc496ad5e64e1", "is_reserved": 0, "rental_uris": {"android": "https://dc.lft.to/lastmile_qr_scan", "ios": "https://dc.lft.to/lastmile_qr_scan"}, "fusion_lon": 0.0}, {"lat": 38.9064955, "is_disabled": 0, "type": "electric_scooter", "lon": -77.02957333333333, "bike_id": "f3fedc76dedf58eec5ab3c56a72bda56", "fusion_lat": 0.0, "name": "f3fedc76dedf58eec5ab3c56a72bda56", "is_reserved": 0, "rental_uris": {"android": "https://dc.lft.to/lastmile_qr_scan", "ios": "https://dc.lft.to/lastmile_qr_scan"}, "fusion_lon": 0.0}, {"lat": 38.9026245, "is_disabled": 0, "type": "electric_scooter", "lon": -77.03842533333334, "bike_id": "b57c01e4e4ddbc94f357cf884a90c0c8", "fusion_lat": 0.0, "name": "b57c01e4e4ddbc94f357cf884a90c0c8", "is_reserved": 0, "rental_uris": {"android": "https://dc.lft.to/lastmile_qr_scan", "ios": "https://dc.lft.to/lastmile_qr_scan"}, "fusion_lon": 0.0}, {"lat": 39.0519995, "is_disabled": 0, "type": "electric_bike", "lon": -77.10916183333333, "bike_id": "3e1fc22c7fb8883566f26b7e3268cee9", "fusion_lat": 0.0, "name": "3e1fc22c7fb8883566f26b7e3268cee9", "is_reserved": 0, "rental_uris": {"android": "https://dc.lft.to/lastmile_qr_scan", "ios": "https://dc.lft.to/lastmile_qr_scan"}, "fusion_lon": 0.0}, {"lat": 38.8997285, "is_disabled": 0, "type": "electric_scooter", "lon": -76.92664516666666, "bike_id": "b92e9d1e3a06126d5ea90c08abb1a1aa", "fusion_lat": 0.0, "name": "b92e9d1e3a06126d5ea90c08abb1a1aa", "is_reserved": 0, "rental_uris": {"android": "https://dc.lft.to/lastmile_qr_scan", "ios": "https://dc.lft.to/lastmile_qr_scan"}, "fusion_lon": 0.0}, {"lat": 38.900958, "is_disabled": 0, "type": "electric_scooter", "lon": -77.01208166666666, "bike_id": "9407247d7c183c83a4070503acf589d5", "fusion_lat": 0.0, "name": "9407247d7c183c83a4070503acf589d5", "is_reserved": 0, "rental_uris": {"android": "https://dc.lft.to/lastmile_qr_scan", "ios": "https://dc.lft.to/lastmile_qr_scan"}, "fusion_lon": 0.0}, {"lat": 38.94071983333333, "is_disabled": 0, "type": "electric_scooter", "lon": -77.06138033333333, "bike_id": "3a217de7c881273eb3ad0a4e6dd469b3", "fusion_lat": 0.0, "name": "3a217de7c881273eb3ad0a4e6dd469b3", "is_reserved": 0, "rental_uris": {"android": "https://dc.lft.to/lastmile_qr_scan", "ios": "https://dc.lft.to/lastmile_qr_scan"}, "fusion_lon": 0.0}, {"lat": 38.9226625, "is_disabled": 0, "type": "electric_scooter", "lon": -77.042532, "bike_id": "216a4cf1d925956ab59e5a06d84bc3e2", "fusion_lat": 0.0, "name": "216a4cf1d925956ab59e5a06d84bc3e2", "is_reserved": 0, "rental_uris": {"android": "https://dc.lft.to/lastmile_qr_scan", "ios": "https://dc.lft.to/lastmile_qr_scan"}, "fusion_lon": 0.0}, {"lat": 38.8762555, "is_disabled": 0, "type": "electric_scooter", "lon": -76.96526533333333, "bike_id": "49af1eee526ed31075770e9d9c255543", "fusion_lat": 0.0, "name": "49af1eee526ed31075770e9d9c255543", "is_reserved": 0, "rental_uris": {"android": "https://dc.lft.to/lastmile_qr_scan", "ios": "https://dc.lft.to/lastmile_qr_scan"}, "fusion_lon": 0.0}, {"lat": 38.93198483333333, "is_disabled": 0, "type": "electric_scooter", "lon": -77.04428216666666, "bike_id": "8bf12004b1be7c9b8dbd48d3e75cc24a", "fusion_lat": 0.0, "name": "8bf12004b1be7c9b8dbd48d3e75cc24a", "is_reserved": 0, "rental_uris": {"android": "https://dc.lft.to/lastmile_qr_scan", "ios": "https://dc.lft.to/lastmile_qr_scan"}, "fusion_lon": 0.0}, {"lat": 38.89752883333333, "is_disabled": 0, "type": "electric_scooter", "lon": -77.05489333333334, "bike_id": "806ba8e71d1d188afb4c59ce084628b2", "fusion_lat": 0.0, "name": "806ba8e71d1d188afb4c59ce084628b2", "is_reserved": 0, "rental_uris": {"android": "https://dc.lft.to/lastmile_qr_scan", "ios": "https://dc.lft.to/lastmile_qr_scan"}, "fusion_lon": 0.0}, {"lat": 38.91267083333334, "is_disabled": 0, "type": "electric_scooter", "lon": -77.022526, "bike_id": "59b98049bc3f7986149063cccd82cd4e", "fusion_lat": 0.0, "name": "59b98049bc3f7986149063cccd82cd4e", "is_reserved": 0, "rental_uris": {"android": "https://dc.lft.to/lastmile_qr_scan", "ios": "https://dc.lft.to/lastmile_qr_scan"}, "fusion_lon": 0.0}, {"lat": 38.91473366666666, "is_disabled": 0, "type": "electric_scooter", "lon": -77.03218416666667, "bike_id": "d38e2219834a35198edde0e10ff48aa0", "fusion_lat": 0.0, "name": "d38e2219834a35198edde0e10ff48aa0", "is_reserved": 0, "rental_uris": {"android": "https://dc.lft.to/lastmile_qr_scan", "ios": "https://dc.lft.to/lastmile_qr_scan"}, "fusion_lon": 0.0}, {"lat": 38.93107883333333, "is_disabled": 0, "type": "electric_scooter", "lon": -77.03506916666667, "bike_id": "106974b868b61517016dbe429f0ea8a2", "fusion_lat": 0.0, "name": "106974b868b61517016dbe429f0ea8a2", "is_reserved": 0, "rental_uris": {"android": "https://dc.lft.to/lastmile_qr_scan", "ios": "https://dc.lft.to/lastmile_qr_scan"}, "fusion_lon": 0.0}, {"lat": 38.91479433333333, "is_disabled": 0, "type": "electric_scooter", "lon": -76.98366466666667, "bike_id": "bfc3727a16127d648f6994aaea8f9089", "fusion_lat": 0.0, "name": "bfc3727a16127d648f6994aaea8f9089", "is_reserved": 0, "rental_uris": {"android": "https://dc.lft.to/lastmile_qr_scan", "ios": "https://dc.lft.to/lastmile_qr_scan"}, "fusion_lon": 0.0}, {"lat": 38.91167766666667, "is_disabled": 0, "type": "electric_scooter", "lon": -77.02972583333333, "bike_id": "b23e78c947d41d594e5915e00ad69dd5", "fusion_lat": 0.0, "name": "b23e78c947d41d594e5915e00ad69dd5", "is_reserved": 0, "rental_uris": {"android": "https://dc.lft.to/lastmile_qr_scan", "ios": "https://dc.lft.to/lastmile_qr_scan"}, "fusion_lon": 0.0}, {"lat": 38.9181835, "is_disabled": 0, "type": "electric_scooter", "lon": -77.0391355, "bike_id": "ecd22414ff6d25ea48250a7aa3cbad69", "fusion_lat": 0.0, "name": "ecd22414ff6d25ea48250a7aa3cbad69", "is_reserved": 0, "rental_uris": {"android": "https://dc.lft.to/lastmile_qr_scan", "ios": "https://dc.lft.to/lastmile_qr_scan"}, "fusion_lon": 0.0}, {"lat": 38.9727425, "is_disabled": 0, "type": "electric_bike", "lon": -77.03621866666667, "bike_id": "3afdca2c2997a982f33c4b691bd112f7", "fusion_lat": 0.0, "name": "3afdca2c2997a982f33c4b691bd112f7", "is_reserved": 0, "rental_uris": {"android": "https://dc.lft.to/lastmile_qr_scan", "ios": "https://dc.lft.to/lastmile_qr_scan"}, "fusion_lon": 0.0}, {"lat": 38.923391333333335, "is_disabled": 0, "type": "electric_scooter", "lon": -77.0418925, "bike_id": "13ccc6c387770bb7c78523709669f066", "fusion_lat": 0.0, "name": "13ccc6c387770bb7c78523709669f066", "is_reserved": 0, "rental_uris": {"android": "https://dc.lft.to/lastmile_qr_scan", "ios": "https://dc.lft.to/lastmile_qr_scan"}, "fusion_lon": 0.0}, {"lat": 38.914226666666664, "is_disabled": 0, "type": "electric_scooter", "lon": -77.02201316666667, "bike_id": "485e9e17d058638cd19aba943999508a", "fusion_lat": 0.0, "name": "485e9e17d058638cd19aba943999508a", "is_reserved": 0, "rental_uris": {"android": "https://dc.lft.to/lastmile_qr_scan", "ios": "https://dc.lft.to/lastmile_qr_scan"}, "fusion_lon": 0.0}, {"lat": 38.89477383333333, "is_disabled": 0, "type": "electric_scooter", "lon": -77.02131516666667, "bike_id": "a75abfd35c943c9fe2e91d57a92e4884", "fusion_lat": 0.0, "name": "a75abfd35c943c9fe2e91d57a92e4884", "is_reserved": 0, "rental_uris": {"android": "https://dc.lft.to/lastmile_qr_scan", "ios": "https://dc.lft.to/lastmile_qr_scan"}, "fusion_lon": 0.0}, {"lat": 38.9035985, "is_disabled": 0, "type": "electric_scooter", "lon": -77.04009783333333, "bike_id": "0f113becdcc418a839f9d9d0b698e8c4", "fusion_lat": 0.0, "name": "0f113becdcc418a839f9d9d0b698e8c4", "is_reserved": 0, "rental_uris": {"android": "https://dc.lft.to/lastmile_qr_scan", "ios": "https://dc.lft.to/lastmile_qr_scan"}, "fusion_lon": 0.0}, {"lat": 38.90768883333333, "is_disabled": 0, "type": "electric_scooter", "lon": -76.9830765, "bike_id": "9bce774d08c9f42687b7b410d0b1701e", "fusion_lat": 0.0, "name": "9bce774d08c9f42687b7b410d0b1701e", "is_reserved": 0, "rental_uris": {"android": "https://dc.lft.to/lastmile_qr_scan", "ios": "https://dc.lft.to/lastmile_qr_scan"}, "fusion_lon": 0.0}, {"lat": 38.90978916666667, "is_disabled": 0, "type": "electric_bike", "lon": -76.98520616666667, "bike_id": "53156764d5883d70b4668764ff8c1781", "fusion_lat": 0.0, "name": "53156764d5883d70b4668764ff8c1781", "is_reserved": 0, "rental_uris": {"android": "https://dc.lft.to/lastmile_qr_scan", "ios": "https://dc.lft.to/lastmile_qr_scan"}, "fusion_lon": 0.0}, {"lat": 38.893443833333336, "is_disabled": 0, "type": "electric_scooter", "lon": -76.94935316666667, "bike_id": "69ba008dd30c97ee8b4a852bedf967aa", "fusion_lat": 0.0, "name": "69ba008dd30c97ee8b4a852bedf967aa", "is_reserved": 0, "rental_uris": {"android": "https://dc.lft.to/lastmile_qr_scan", "ios": "https://dc.lft.to/lastmile_qr_scan"}, "fusion_lon": 0.0}, {"lat": 38.8955945, "is_disabled": 0, "type": "electric_scooter", "lon": -76.93386566666666, "bike_id": "6a92d3e198f863f661f2b7fcd68d7554", "fusion_lat": 0.0, "name": "6a92d3e198f863f661f2b7fcd68d7554", "is_reserved": 0, "rental_uris": {"android": "https://dc.lft.to/lastmile_qr_scan", "ios": "https://dc.lft.to/lastmile_qr_scan"}, "fusion_lon": 0.0}, {"lat": 38.926586, "is_disabled": 0, "type": "electric_scooter", "lon": -77.0559645, "bike_id": "fb57a24e73103b6c1cabd8cbb88e5bdd", "fusion_lat": 0.0, "name": "fb57a24e73103b6c1cabd8cbb88e5bdd", "is_reserved": 0, "rental_uris": {"android": "https://dc.lft.to/lastmile_qr_scan", "ios": "https://dc.lft.to/lastmile_qr_scan"}, "fusion_lon": 0.0}, {"lat": 38.914869, "is_disabled": 0, "type": "electric_scooter", "lon": -77.03238416666667, "bike_id": "43e00093afb44dce50857e209da8ee7f", "fusion_lat": 0.0, "name": "43e00093afb44dce50857e209da8ee7f", "is_reserved": 0, "rental_uris": {"android": "https://dc.lft.to/lastmile_qr_scan", "ios": "https://dc.lft.to/lastmile_qr_scan"}, "fusion_lon": 0.0}, {"lat": 38.91819266666667, "is_disabled": 0, "type": "electric_scooter", "lon": -77.03445733333334, "bike_id": "7a4338f0fe30b68562b1dff125221fed", "fusion_lat": 0.0, "name": "7a4338f0fe30b68562b1dff125221fed", "is_reserved": 0, "rental_uris": {"android": "https://dc.lft.to/lastmile_qr_scan", "ios": "https://dc.lft.to/lastmile_qr_scan"}, "fusion_lon": 0.0}, {"lat": 38.89226933333333, "is_disabled": 0, "type": "electric_scooter", "lon": -77.0283095, "bike_id": "477929a52015bc68c8aa6d85d182c34a", "fusion_lat": 0.0, "name": "477929a52015bc68c8aa6d85d182c34a", "is_reserved": 0, "rental_uris": {"android": "https://dc.lft.to/lastmile_qr_scan", "ios": "https://dc.lft.to/lastmile_qr_scan"}, "fusion_lon": 0.0}, {"lat": 38.96075033333334, "is_disabled": 0, "type": "electric_scooter", "lon": -77.07289583333333, "bike_id": "0bdbd84d252d06376523445070396a40", "fusion_lat": 0.0, "name": "0bdbd84d252d06376523445070396a40", "is_reserved": 0, "rental_uris": {"android": "https://dc.lft.to/lastmile_qr_scan", "ios": "https://dc.lft.to/lastmile_qr_scan"}, "fusion_lon": 0.0}, {"lat": 38.903612, "is_disabled": 0, "type": "electric_scooter", "lon": -76.97658933333334, "bike_id": "d8082fe84e3ba97a020c056b943c6cdb", "fusion_lat": 0.0, "name": "d8082fe84e3ba97a020c056b943c6cdb", "is_reserved": 0, "rental_uris": {"android": "https://dc.lft.to/lastmile_qr_scan", "ios": "https://dc.lft.to/lastmile_qr_scan"}, "fusion_lon": 0.0}, {"lat": 38.926054, "is_disabled": 0, "type": "electric_scooter", "lon": -77.02493316666667, "bike_id": "dd753109cb3f2b4815c7c6ee26bb9afa", "fusion_lat": 0.0, "name": "dd753109cb3f2b4815c7c6ee26bb9afa", "is_reserved": 0, "rental_uris": {"android": "https://dc.lft.to/lastmile_qr_scan", "ios": "https://dc.lft.to/lastmile_qr_scan"}, "fusion_lon": 0.0}, {"lat": 38.92115233333333, "is_disabled": 0, "type": "electric_scooter", "lon": -77.043619, "bike_id": "39c2ced9a45d8c8512f0c5cd2a57a81d", "fusion_lat": 0.0, "name": "39c2ced9a45d8c8512f0c5cd2a57a81d", "is_reserved": 0, "rental_uris": {"android": "https://dc.lft.to/lastmile_qr_scan", "ios": "https://dc.lft.to/lastmile_qr_scan"}, "fusion_lon": 0.0}, {"lat": 38.874706, "is_disabled": 0, "type": "electric_scooter", "lon": -77.00520383333334, "bike_id": "e3a2253032af1c207031b8d952aa5717", "fusion_lat": 0.0, "name": "e3a2253032af1c207031b8d952aa5717", "is_reserved": 0, "rental_uris": {"android": "https://dc.lft.to/lastmile_qr_scan", "ios": "https://dc.lft.to/lastmile_qr_scan"}, "fusion_lon": 0.0}, {"lat": 38.900726166666665, "is_disabled": 0, "type": "electric_scooter", "lon": -77.04540133333333, "bike_id": "441a00dcb57699c7f316afc1ffc6ecf7", "fusion_lat": 0.0, "name": "441a00dcb57699c7f316afc1ffc6ecf7", "is_reserved": 0, "rental_uris": {"android": "https://dc.lft.to/lastmile_qr_scan", "ios": "https://dc.lft.to/lastmile_qr_scan"}, "fusion_lon": 0.0}, {"lat": 38.886549, "is_disabled": 0, "type": "electric_bike", "lon": -77.0339245, "bike_id": "5e7cec640fd06403cd64c3e8e81a1207", "fusion_lat": 0.0, "name": "5e7cec640fd06403cd64c3e8e81a1207", "is_reserved": 0, "rental_uris": {"android": "https://dc.lft.to/lastmile_qr_scan", "ios": "https://dc.lft.to/lastmile_qr_scan"}, "fusion_lon": 0.0}, {"lat": 38.928537166666665, "is_disabled": 0, "type": "electric_scooter", "lon": -77.02998583333333, "bike_id": "5070c0e82a97850fcca99ae94be05de4", "fusion_lat": 0.0, "name": "5070c0e82a97850fcca99ae94be05de4", "is_reserved": 0, "rental_uris": {"android": "https://dc.lft.to/lastmile_qr_scan", "ios": "https://dc.lft.to/lastmile_qr_scan"}, "fusion_lon": 0.0}, {"lat": 38.917786166666666, "is_disabled": 0, "type": "electric_scooter", "lon": -77.02606016666667, "bike_id": "eb81034a3b518c1f8fbfe90944e4f0b4", "fusion_lat": 0.0, "name": "eb81034a3b518c1f8fbfe90944e4f0b4", "is_reserved": 0, "rental_uris": {"android": "https://dc.lft.to/lastmile_qr_scan", "ios": "https://dc.lft.to/lastmile_qr_scan"}, "fusion_lon": 0.0}, {"lat": 38.92114483333334, "is_disabled": 0, "type": "electric_scooter", "lon": -77.031876, "bike_id": "3dd9f5aa16faa9d4552f8ce62b1fbe18", "fusion_lat": 0.0, "name": "3dd9f5aa16faa9d4552f8ce62b1fbe18", "is_reserved": 0, "rental_uris": {"android": "https://dc.lft.to/lastmile_qr_scan", "ios": "https://dc.lft.to/lastmile_qr_scan"}, "fusion_lon": 0.0}, {"lat": 38.88688116666667, "is_disabled": 0, "type": "electric_scooter", "lon": -77.017655, "bike_id": "763cd0ced69e248f378cbc49dcbf53a9", "fusion_lat": 0.0, "name": "763cd0ced69e248f378cbc49dcbf53a9", "is_reserved": 0, "rental_uris": {"android": "https://dc.lft.to/lastmile_qr_scan", "ios": "https://dc.lft.to/lastmile_qr_scan"}, "fusion_lon": 0.0}, {"lat": 38.898361, "is_disabled": 0, "type": "electric_scooter", "lon": -76.995015, "bike_id": "14d2487a344f3cdd91ddb5fe10ccfeea", "fusion_lat": 0.0, "name": "14d2487a344f3cdd91ddb5fe10ccfeea", "is_reserved": 0, "rental_uris": {"android": "https://dc.lft.to/lastmile_qr_scan", "ios": "https://dc.lft.to/lastmile_qr_scan"}, "fusion_lon": 0.0}, {"lat": 38.91606316666667, "is_disabled": 0, "type": "electric_scooter", "lon": -77.04567766666666, "bike_id": "e6d6bb17b68f3084b5fd521c368dd260", "fusion_lat": 0.0, "name": "e6d6bb17b68f3084b5fd521c368dd260", "is_reserved": 0, "rental_uris": {"android": "https://dc.lft.to/lastmile_qr_scan", "ios": "https://dc.lft.to/lastmile_qr_scan"}, "fusion_lon": 0.0}, {"lat": 38.894917166666666, "is_disabled": 0, "type": "electric_scooter", "lon": -77.002055, "bike_id": "2af77b5cbb99ba3923615e171bf72772", "fusion_lat": 0.0, "name": "2af77b5cbb99ba3923615e171bf72772", "is_reserved": 0, "rental_uris": {"android": "https://dc.lft.to/lastmile_qr_scan", "ios": "https://dc.lft.to/lastmile_qr_scan"}, "fusion_lon": 0.0}, {"lat": 38.902013333333336, "is_disabled": 0, "type": "electric_scooter", "lon": -77.02320183333333, "bike_id": "06f27413a0cd689e308fcd829193f14e", "fusion_lat": 0.0, "name": "06f27413a0cd689e308fcd829193f14e", "is_reserved": 0, "rental_uris": {"android": "https://dc.lft.to/lastmile_qr_scan", "ios": "https://dc.lft.to/lastmile_qr_scan"}, "fusion_lon": 0.0}, {"lat": 38.905488166666665, "is_disabled": 0, "type": "electric_scooter", "lon": -77.057063, "bike_id": "3c7caac2aa5c377b8a21eb7cb03b35fc", "fusion_lat": 0.0, "name": "3c7caac2aa5c377b8a21eb7cb03b35fc", "is_reserved": 0, "rental_uris": {"android": "https://dc.lft.to/lastmile_qr_scan", "ios": "https://dc.lft.to/lastmile_qr_scan"}, "fusion_lon": 0.0}, {"lat": 38.892198666666665, "is_disabled": 0, "type": "electric_bike", "lon": -77.107843, "bike_id": "0b8e0fdcbe14ee77e70379db24746e21", "fusion_lat": 0.0, "name": "0b8e0fdcbe14ee77e70379db24746e21", "is_reserved": 0, "rental_uris": {"android": "https://dc.lft.to/lastmile_qr_scan", "ios": "https://dc.lft.to/lastmile_qr_scan"}, "fusion_lon": 0.0}, {"lat": 38.89459083333333, "is_disabled": 0, "type": "electric_bike", "lon": -77.07299133333333, "bike_id": "2a04a32fddece94c1205d3b1139bd1a0", "fusion_lat": 0.0, "name": "2a04a32fddece94c1205d3b1139bd1a0", "is_reserved": 0, "rental_uris": {"android": "https://dc.lft.to/lastmile_qr_scan", "ios": "https://dc.lft.to/lastmile_qr_scan"}, "fusion_lon": 0.0}, {"lat": 38.96223333333333, "is_disabled": 0, "type": "electric_bike", "lon": -77.02628983333334, "bike_id": "4e8143015d393cd1361f2724bdb9c0c5", "fusion_lat": 0.0, "name": "4e8143015d393cd1361f2724bdb9c0c5", "is_reserved": 0, "rental_uris": {"android": "https://dc.lft.to/lastmile_qr_scan", "ios": "https://dc.lft.to/lastmile_qr_scan"}, "fusion_lon": 0.0}, {"lat": 38.93196233333333, "is_disabled": 0, "type": "electric_scooter", "lon": -77.02354516666666, "bike_id": "5855deb96783b5792be8f2b5f4d74203", "fusion_lat": 0.0, "name": "5855deb96783b5792be8f2b5f4d74203", "is_reserved": 0, "rental_uris": {"android": "https://dc.lft.to/lastmile_qr_scan", "ios": "https://dc.lft.to/lastmile_qr_scan"}, "fusion_lon": 0.0}, {"lat": 38.88654366666667, "is_disabled": 0, "type": "electric_scooter", "lon": -77.033887, "bike_id": "eee252c7d3e4da92e26be59d52a32d09", "fusion_lat": 0.0, "name": "eee252c7d3e4da92e26be59d52a32d09", "is_reserved": 0, "rental_uris": {"android": "https://dc.lft.to/lastmile_qr_scan", "ios": "https://dc.lft.to/lastmile_qr_scan"}, "fusion_lon": 0.0}, {"lat": 38.91677833333333, "is_disabled": 0, "type": "electric_scooter", "lon": -77.03233866666666, "bike_id": "e7f006af02c2fb77b2c1a7ea51e21ee2", "fusion_lat": 0.0, "name": "e7f006af02c2fb77b2c1a7ea51e21ee2", "is_reserved": 0, "rental_uris": {"android": "https://dc.lft.to/lastmile_qr_scan", "ios": "https://dc.lft.to/lastmile_qr_scan"}, "fusion_lon": 0.0}, {"lat": 38.91427016666667, "is_disabled": 0, "type": "electric_scooter", "lon": -77.03645166666666, "bike_id": "3073af36ad915d827bd65270287d7d8a", "fusion_lat": 0.0, "name": "3073af36ad915d827bd65270287d7d8a", "is_reserved": 0, "rental_uris": {"android": "https://dc.lft.to/lastmile_qr_scan", "ios": "https://dc.lft.to/lastmile_qr_scan"}, "fusion_lon": 0.0}, {"lat": 38.9323585, "is_disabled": 0, "type": "electric_bike", "lon": -76.97422733333333, "bike_id": "92ebe950556fe7df92cad4fb720082d4", "fusion_lat": 0.0, "name": "92ebe950556fe7df92cad4fb720082d4", "is_reserved": 0, "rental_uris": {"android": "https://dc.lft.to/lastmile_qr_scan", "ios": "https://dc.lft.to/lastmile_qr_scan"}, "fusion_lon": 0.0}, {"lat": 38.92101133333333, "is_disabled": 0, "type": "electric_scooter", "lon": -77.02549933333333, "bike_id": "821ab6cfe572bf60f3811fd625cbdf45", "fusion_lat": 0.0, "name": "821ab6cfe572bf60f3811fd625cbdf45", "is_reserved": 0, "rental_uris": {"android": "https://dc.lft.to/lastmile_qr_scan", "ios": "https://dc.lft.to/lastmile_qr_scan"}, "fusion_lon": 0.0}, {"lat": 38.9182535, "is_disabled": 0, "type": "electric_scooter", "lon": -77.022684, "bike_id": "b8fdfe84af6861069a5f366e38161c3f", "fusion_lat": 0.0, "name": "b8fdfe84af6861069a5f366e38161c3f", "is_reserved": 0, "rental_uris": {"android": "https://dc.lft.to/lastmile_qr_scan", "ios": "https://dc.lft.to/lastmile_qr_scan"}, "fusion_lon": 0.0}, {"lat": 38.948224833333335, "is_disabled": 0, "type": "electric_scooter", "lon": -76.9990165, "bike_id": "fa75eb45e96f91843e0d3c7a6f63dde3", "fusion_lat": 0.0, "name": "fa75eb45e96f91843e0d3c7a6f63dde3", "is_reserved": 0, "rental_uris": {"android": "https://dc.lft.to/lastmile_qr_scan", "ios": "https://dc.lft.to/lastmile_qr_scan"}, "fusion_lon": 0.0}, {"lat": 38.9141565, "is_disabled": 0, "type": "electric_scooter", "lon": -77.02211216666667, "bike_id": "88f579bc5311bfdb93a11160d52c7c5e", "fusion_lat": 0.0, "name": "88f579bc5311bfdb93a11160d52c7c5e", "is_reserved": 0, "rental_uris": {"android": "https://dc.lft.to/lastmile_qr_scan", "ios": "https://dc.lft.to/lastmile_qr_scan"}, "fusion_lon": 0.0}, {"lat": 38.88040983333333, "is_disabled": 0, "type": "electric_scooter", "lon": -76.98635533333334, "bike_id": "c0b43fd0f76baafbf55f0c78288167c2", "fusion_lat": 0.0, "name": "c0b43fd0f76baafbf55f0c78288167c2", "is_reserved": 0, "rental_uris": {"android": "https://dc.lft.to/lastmile_qr_scan", "ios": "https://dc.lft.to/lastmile_qr_scan"}, "fusion_lon": 0.0}, {"lat": 38.902051666666665, "is_disabled": 0, "type": "electric_scooter", "lon": -76.99943733333333, "bike_id": "7b6ba3851d8bd1789e4bbe28aedee478", "fusion_lat": 0.0, "name": "7b6ba3851d8bd1789e4bbe28aedee478", "is_reserved": 0, "rental_uris": {"android": "https://dc.lft.to/lastmile_qr_scan", "ios": "https://dc.lft.to/lastmile_qr_scan"}, "fusion_lon": 0.0}, {"lat": 38.962213166666665, "is_disabled": 0, "type": "electric_bike", "lon": -77.02629983333334, "bike_id": "8bdd2562c2d90cba24df19e8fc97ba2d", "fusion_lat": 0.0, "name": "8bdd2562c2d90cba24df19e8fc97ba2d", "is_reserved": 0, "rental_uris": {"android": "https://dc.lft.to/lastmile_qr_scan", "ios": "https://dc.lft.to/lastmile_qr_scan"}, "fusion_lon": 0.0}, {"lat": 38.86345333333333, "is_disabled": 0, "type": "electric_scooter", "lon": -76.99002733333333, "bike_id": "adebe3c8f30c40e0068b118a15b34c76", "fusion_lat": 0.0, "name": "adebe3c8f30c40e0068b118a15b34c76", "is_reserved": 0, "rental_uris": {"android": "https://dc.lft.to/lastmile_qr_scan", "ios": "https://dc.lft.to/lastmile_qr_scan"}, "fusion_lon": 0.0}, {"lat": 38.912533, "is_disabled": 0, "type": "electric_scooter", "lon": -77.04768516666667, "bike_id": "508da6701ad9e017056019e8fd0ab8c4", "fusion_lat": 0.0, "name": "508da6701ad9e017056019e8fd0ab8c4", "is_reserved": 0, "rental_uris": {"android": "https://dc.lft.to/lastmile_qr_scan", "ios": "https://dc.lft.to/lastmile_qr_scan"}, "fusion_lon": 0.0}, {"lat": 38.8987895, "is_disabled": 0, "type": "electric_scooter", "lon": -77.0533715, "bike_id": "ad32e3e06769ebf2ba027655c7378514", "fusion_lat": 0.0, "name": "ad32e3e06769ebf2ba027655c7378514", "is_reserved": 0, "rental_uris": {"android": "https://dc.lft.to/lastmile_qr_scan", "ios": "https://dc.lft.to/lastmile_qr_scan"}, "fusion_lon": 0.0}, {"lat": 38.955523, "is_disabled": 0, "type": "electric_bike", "lon": -76.935443, "bike_id": "b10a3d4a36fed9c06629303c263d7931", "fusion_lat": 0.0, "name": "b10a3d4a36fed9c06629303c263d7931", "is_reserved": 0, "rental_uris": {"android": "https://dc.lft.to/lastmile_qr_scan", "ios": "https://dc.lft.to/lastmile_qr_scan"}, "fusion_lon": 0.0}, {"lat": 38.899159, "is_disabled": 0, "type": "electric_scooter", "lon": -76.93381966666666, "bike_id": "b84c7ba8745bd2a1958fb4b6a928d80f", "fusion_lat": 0.0, "name": "b84c7ba8745bd2a1958fb4b6a928d80f", "is_reserved": 0, "rental_uris": {"android": "https://dc.lft.to/lastmile_qr_scan", "ios": "https://dc.lft.to/lastmile_qr_scan"}, "fusion_lon": 0.0}, {"lat": 38.90652566666667, "is_disabled": 0, "type": "electric_scooter", "lon": -77.02598033333334, "bike_id": "cf079e58c8c0f31f6c5c4134d6f572ae", "fusion_lat": 0.0, "name": "cf079e58c8c0f31f6c5c4134d6f572ae", "is_reserved": 0, "rental_uris": {"android": "https://dc.lft.to/lastmile_qr_scan", "ios": "https://dc.lft.to/lastmile_qr_scan"}, "fusion_lon": 0.0}, {"lat": 38.804438833333336, "is_disabled": 0, "type": "electric_bike", "lon": -77.06093466666667, "bike_id": "c52f6288849e68c972937dab65f9ec67", "fusion_lat": 0.0, "name": "c52f6288849e68c972937dab65f9ec67", "is_reserved": 0, "rental_uris": {"android": "https://dc.lft.to/lastmile_qr_scan", "ios": "https://dc.lft.to/lastmile_qr_scan"}, "fusion_lon": 0.0}, {"lat": 38.955740166666665, "is_disabled": 0, "type": "electric_scooter", "lon": -77.07009966666666, "bike_id": "20bce2d540c08a38e67da37963cd6d58", "fusion_lat": 0.0, "name": "20bce2d540c08a38e67da37963cd6d58", "is_reserved": 0, "rental_uris": {"android": "https://dc.lft.to/lastmile_qr_scan", "ios": "https://dc.lft.to/lastmile_qr_scan"}, "fusion_lon": 0.0}, {"lat": 38.897137666666666, "is_disabled": 0, "type": "electric_scooter", "lon": -77.0080005, "bike_id": "dde9972601d41b13736bf460b11d82c8", "fusion_lat": 0.0, "name": "dde9972601d41b13736bf460b11d82c8", "is_reserved": 0, "rental_uris": {"android": "https://dc.lft.to/lastmile_qr_scan", "ios": "https://dc.lft.to/lastmile_qr_scan"}, "fusion_lon": 0.0}, {"lat": 38.869056666666665, "is_disabled": 0, "type": "electric_bike", "lon": -77.1317915, "bike_id": "632ee289cecb186914ada18bfc301700", "fusion_lat": 0.0, "name": "632ee289cecb186914ada18bfc301700", "is_reserved": 0, "rental_uris": {"android": "https://dc.lft.to/lastmile_qr_scan", "ios": "https://dc.lft.to/lastmile_qr_scan"}, "fusion_lon": 0.0}, {"lat": 38.922044, "is_disabled": 0, "type": "electric_scooter", "lon": -77.04006883333334, "bike_id": "a45a8cadf867c94edde2b0bc7bf1cb14", "fusion_lat": 0.0, "name": "a45a8cadf867c94edde2b0bc7bf1cb14", "is_reserved": 0, "rental_uris": {"android": "https://dc.lft.to/lastmile_qr_scan", "ios": "https://dc.lft.to/lastmile_qr_scan"}, "fusion_lon": 0.0}, {"lat": 38.8872035, "is_disabled": 0, "type": "electric_scooter", "lon": -77.02383533333334, "bike_id": "e50666af08a5e5bd0452f8427dfb929a", "fusion_lat": 0.0, "name": "e50666af08a5e5bd0452f8427dfb929a", "is_reserved": 0, "rental_uris": {"android": "https://dc.lft.to/lastmile_qr_scan", "ios": "https://dc.lft.to/lastmile_qr_scan"}, "fusion_lon": 0.0}, {"lat": 38.9077835, "is_disabled": 0, "type": "electric_scooter", "lon": -77.04243116666666, "bike_id": "5ee8e2ab515981bb0c0ff0aaebd38327", "fusion_lat": 0.0, "name": "5ee8e2ab515981bb0c0ff0aaebd38327", "is_reserved": 0, "rental_uris": {"android": "https://dc.lft.to/lastmile_qr_scan", "ios": "https://dc.lft.to/lastmile_qr_scan"}, "fusion_lon": 0.0}, {"lat": 38.905814, "is_disabled": 0, "type": "electric_scooter", "lon": -77.02951966666667, "bike_id": "fc31515984eecb99b420902d80df1d89", "fusion_lat": 0.0, "name": "fc31515984eecb99b420902d80df1d89", "is_reserved": 0, "rental_uris": {"android": "https://dc.lft.to/lastmile_qr_scan", "ios": "https://dc.lft.to/lastmile_qr_scan"}, "fusion_lon": 0.0}, {"lat": 38.90721383333333, "is_disabled": 0, "type": "electric_scooter", "lon": -77.043353, "bike_id": "bee1657393f416c9d4510d0e1df26a89", "fusion_lat": 0.0, "name": "bee1657393f416c9d4510d0e1df26a89", "is_reserved": 0, "rental_uris": {"android": "https://dc.lft.to/lastmile_qr_scan", "ios": "https://dc.lft.to/lastmile_qr_scan"}, "fusion_lon": 0.0}, {"lat": 38.92002983333333, "is_disabled": 0, "type": "electric_scooter", "lon": -77.02054283333334, "bike_id": "72c752bd8018aee5cddee8026f8e61c6", "fusion_lat": 0.0, "name": "72c752bd8018aee5cddee8026f8e61c6", "is_reserved": 0, "rental_uris": {"android": "https://dc.lft.to/lastmile_qr_scan", "ios": "https://dc.lft.to/lastmile_qr_scan"}, "fusion_lon": 0.0}, {"lat": 38.91047916666667, "is_disabled": 0, "type": "electric_scooter", "lon": -77.01508833333334, "bike_id": "821ed04c0eacfcbae027da6d4246ab15", "fusion_lat": 0.0, "name": "821ed04c0eacfcbae027da6d4246ab15", "is_reserved": 0, "rental_uris": {"android": "https://dc.lft.to/lastmile_qr_scan", "ios": "https://dc.lft.to/lastmile_qr_scan"}, "fusion_lon": 0.0}, {"lat": 38.95402383333333, "is_disabled": 0, "type": "electric_scooter", "lon": -77.0363095, "bike_id": "260c9fd2d19ff110f1981279eaef0611", "fusion_lat": 0.0, "name": "260c9fd2d19ff110f1981279eaef0611", "is_reserved": 0, "rental_uris": {"android": "https://dc.lft.to/lastmile_qr_scan", "ios": "https://dc.lft.to/lastmile_qr_scan"}, "fusion_lon": 0.0}, {"lat": 38.89736166666667, "is_disabled": 0, "type": "electric_scooter", "lon": -77.00751083333333, "bike_id": "c0f2bea0aff078a23c2808c491d1ebe9", "fusion_lat": 0.0, "name": "c0f2bea0aff078a23c2808c491d1ebe9", "is_reserved": 0, "rental_uris": {"android": "https://dc.lft.to/lastmile_qr_scan", "ios": "https://dc.lft.to/lastmile_qr_scan"}, "fusion_lon": 0.0}, {"lat": 38.91605, "is_disabled": 0, "type": "electric_scooter", "lon": -77.02128933333333, "bike_id": "2e1b29242431bea807144976e219f4ba", "fusion_lat": 0.0, "name": "2e1b29242431bea807144976e219f4ba", "is_reserved": 0, "rental_uris": {"android": "https://dc.lft.to/lastmile_qr_scan", "ios": "https://dc.lft.to/lastmile_qr_scan"}, "fusion_lon": 0.0}, {"lat": 38.90738, "is_disabled": 0, "type": "electric_scooter", "lon": -77.02404316666667, "bike_id": "85f0ad03cb12e93d06ff35661f14c8f8", "fusion_lat": 0.0, "name": "85f0ad03cb12e93d06ff35661f14c8f8", "is_reserved": 0, "rental_uris": {"android": "https://dc.lft.to/lastmile_qr_scan", "ios": "https://dc.lft.to/lastmile_qr_scan"}, "fusion_lon": 0.0}, {"lat": 38.920886, "is_disabled": 0, "type": "electric_scooter", "lon": -77.0421605, "bike_id": "204703206b2cc4637a38317092da7ada", "fusion_lat": 0.0, "name": "204703206b2cc4637a38317092da7ada", "is_reserved": 0, "rental_uris": {"android": "https://dc.lft.to/lastmile_qr_scan", "ios": "https://dc.lft.to/lastmile_qr_scan"}, "fusion_lon": 0.0}, {"lat": 38.90548283333333, "is_disabled": 0, "type": "electric_scooter", "lon": -77.0570875, "bike_id": "0ecacba6253168620de107e736ae3cda", "fusion_lat": 0.0, "name": "0ecacba6253168620de107e736ae3cda", "is_reserved": 0, "rental_uris": {"android": "https://dc.lft.to/lastmile_qr_scan", "ios": "https://dc.lft.to/lastmile_qr_scan"}, "fusion_lon": 0.0}, {"lat": 38.903790666666666, "is_disabled": 0, "type": "electric_scooter", "lon": -77.04354516666666, "bike_id": "226012c3ce2721f1df86e85fc19567ba", "fusion_lat": 0.0, "name": "226012c3ce2721f1df86e85fc19567ba", "is_reserved": 0, "rental_uris": {"android": "https://dc.lft.to/lastmile_qr_scan", "ios": "https://dc.lft.to/lastmile_qr_scan"}, "fusion_lon": 0.0}, {"lat": 38.89042383333334, "is_disabled": 0, "type": "electric_scooter", "lon": -76.951406, "bike_id": "43faed489bb18efb13497e57bf7caa97", "fusion_lat": 0.0, "name": "43faed489bb18efb13497e57bf7caa97", "is_reserved": 0, "rental_uris": {"android": "https://dc.lft.to/lastmile_qr_scan", "ios": "https://dc.lft.to/lastmile_qr_scan"}, "fusion_lon": 0.0}, {"lat": 38.91265583333333, "is_disabled": 0, "type": "electric_bike", "lon": -77.01968633333334, "bike_id": "29578d633d47a6f581106e5fdf7de4d7", "fusion_lat": 0.0, "name": "29578d633d47a6f581106e5fdf7de4d7", "is_reserved": 0, "rental_uris": {"android": "https://dc.lft.to/lastmile_qr_scan", "ios": "https://dc.lft.to/lastmile_qr_scan"}, "fusion_lon": 0.0}, {"lat": 38.91532, "is_disabled": 0, "type": "electric_scooter", "lon": -77.03182833333334, "bike_id": "12dcd359d43949f187292862fb7fab24", "fusion_lat": 0.0, "name": "12dcd359d43949f187292862fb7fab24", "is_reserved": 0, "rental_uris": {"android": "https://dc.lft.to/lastmile_qr_scan", "ios": "https://dc.lft.to/lastmile_qr_scan"}, "fusion_lon": 0.0}, {"lat": 38.9177845, "is_disabled": 0, "type": "electric_scooter", "lon": -77.02879916666667, "bike_id": "c6d3265f0ca6562cbcd3fb78ced2f84a", "fusion_lat": 0.0, "name": "c6d3265f0ca6562cbcd3fb78ced2f84a", "is_reserved": 0, "rental_uris": {"android": "https://dc.lft.to/lastmile_qr_scan", "ios": "https://dc.lft.to/lastmile_qr_scan"}, "fusion_lon": 0.0}, {"lat": 38.922036, "is_disabled": 0, "type": "electric_scooter", "lon": -76.95660233333334, "bike_id": "d01b1e0bb190fe67b110bbfaaa5a0e63", "fusion_lat": 0.0, "name": "d01b1e0bb190fe67b110bbfaaa5a0e63", "is_reserved": 0, "rental_uris": {"android": "https://dc.lft.to/lastmile_qr_scan", "ios": "https://dc.lft.to/lastmile_qr_scan"}, "fusion_lon": 0.0}, {"lat": 39.088598, "is_disabled": 0, "type": "electric_bike", "lon": -77.17842383333333, "bike_id": "9345272fa13d5b5afdb3fe6137c9d2a3", "fusion_lat": 0.0, "name": "9345272fa13d5b5afdb3fe6137c9d2a3", "is_reserved": 0, "rental_uris": {"android": "https://dc.lft.to/lastmile_qr_scan", "ios": "https://dc.lft.to/lastmile_qr_scan"}, "fusion_lon": 0.0}, {"lat": 38.92853233333334, "is_disabled": 0, "type": "electric_bike", "lon": -77.222181, "bike_id": "c26d811088c17891aef809db3f1dfab6", "fusion_lat": 0.0, "name": "c26d811088c17891aef809db3f1dfab6", "is_reserved": 0, "rental_uris": {"android": "https://dc.lft.to/lastmile_qr_scan", "ios": "https://dc.lft.to/lastmile_qr_scan"}, "fusion_lon": 0.0}, {"lat": 38.901673333333335, "is_disabled": 0, "type": "electric_scooter", "lon": -77.04995816666667, "bike_id": "430ac85da9f657494f70dd7313ff73c3", "fusion_lat": 0.0, "name": "430ac85da9f657494f70dd7313ff73c3", "is_reserved": 0, "rental_uris": {"android": "https://dc.lft.to/lastmile_qr_scan", "ios": "https://dc.lft.to/lastmile_qr_scan"}, "fusion_lon": 0.0}, {"lat": 38.87086, "is_disabled": 0, "type": "electric_bike", "lon": -77.01210316666666, "bike_id": "0e2dd9278998197649f85062698d06ac", "fusion_lat": 0.0, "name": "0e2dd9278998197649f85062698d06ac", "is_reserved": 0, "rental_uris": {"android": "https://dc.lft.to/lastmile_qr_scan", "ios": "https://dc.lft.to/lastmile_qr_scan"}, "fusion_lon": 0.0}, {"lat": 38.9063705, "is_disabled": 0, "type": "electric_scooter", "lon": -77.03148533333334, "bike_id": "452a0cb589827c6e644c1757dd63cee9", "fusion_lat": 0.0, "name": "452a0cb589827c6e644c1757dd63cee9", "is_reserved": 0, "rental_uris": {"android": "https://dc.lft.to/lastmile_qr_scan", "ios": "https://dc.lft.to/lastmile_qr_scan"}, "fusion_lon": 0.0}, {"lat": 38.9031635, "is_disabled": 0, "type": "electric_scooter", "lon": -77.02883083333333, "bike_id": "84f28eec10a41ce4fb3d6e3e4ba534e8", "fusion_lat": 0.0, "name": "84f28eec10a41ce4fb3d6e3e4ba534e8", "is_reserved": 0, "rental_uris": {"android": "https://dc.lft.to/lastmile_qr_scan", "ios": "https://dc.lft.to/lastmile_qr_scan"}, "fusion_lon": 0.0}, {"lat": 38.91762583333333, "is_disabled": 0, "type": "electric_scooter", "lon": -77.04770616666667, "bike_id": "674280fbad16570f142f8b3231f6c02a", "fusion_lat": 0.0, "name": "674280fbad16570f142f8b3231f6c02a", "is_reserved": 0, "rental_uris": {"android": "https://dc.lft.to/lastmile_qr_scan", "ios": "https://dc.lft.to/lastmile_qr_scan"}, "fusion_lon": 0.0}, {"lat": 38.941179, "is_disabled": 0, "type": "electric_scooter", "lon": -77.00077933333333, "bike_id": "ca4a8242d20accb30d92092efcdf9ea4", "fusion_lat": 0.0, "name": "ca4a8242d20accb30d92092efcdf9ea4", "is_reserved": 0, "rental_uris": {"android": "https://dc.lft.to/lastmile_qr_scan", "ios": "https://dc.lft.to/lastmile_qr_scan"}, "fusion_lon": 0.0}, {"lat": 38.9118675, "is_disabled": 0, "type": "electric_scooter", "lon": -77.03212083333334, "bike_id": "c7e7da08b8d2d3bb293d34629e65bd94", "fusion_lat": 0.0, "name": "c7e7da08b8d2d3bb293d34629e65bd94", "is_reserved": 0, "rental_uris": {"android": "https://dc.lft.to/lastmile_qr_scan", "ios": "https://dc.lft.to/lastmile_qr_scan"}, "fusion_lon": 0.0}, {"lat": 38.9587855, "is_disabled": 0, "type": "electric_bike", "lon": -76.92508766666667, "bike_id": "e583b82701221e9492a825d467af2051", "fusion_lat": 0.0, "name": "e583b82701221e9492a825d467af2051", "is_reserved": 0, "rental_uris": {"android": "https://dc.lft.to/lastmile_qr_scan", "ios": "https://dc.lft.to/lastmile_qr_scan"}, "fusion_lon": 0.0}, {"lat": 38.916827, "is_disabled": 0, "type": "electric_scooter", "lon": -77.00194816666666, "bike_id": "71afb918a04aca004fae4b4f658b20a0", "fusion_lat": 0.0, "name": "71afb918a04aca004fae4b4f658b20a0", "is_reserved": 0, "rental_uris": {"android": "https://dc.lft.to/lastmile_qr_scan", "ios": "https://dc.lft.to/lastmile_qr_scan"}, "fusion_lon": 0.0}, {"lat": 38.92534066666666, "is_disabled": 0, "type": "electric_scooter", "lon": -77.0263885, "bike_id": "00f9ce1234c4ea081c29f8c55fb651c6", "fusion_lat": 0.0, "name": "00f9ce1234c4ea081c29f8c55fb651c6", "is_reserved": 0, "rental_uris": {"android": "https://dc.lft.to/lastmile_qr_scan", "ios": "https://dc.lft.to/lastmile_qr_scan"}, "fusion_lon": 0.0}, {"lat": 38.883632, "is_disabled": 0, "type": "electric_scooter", "lon": -76.94156233333334, "bike_id": "1a058e1c5d74fd18235b0cada9ff1af7", "fusion_lat": 0.0, "name": "1a058e1c5d74fd18235b0cada9ff1af7", "is_reserved": 0, "rental_uris": {"android": "https://dc.lft.to/lastmile_qr_scan", "ios": "https://dc.lft.to/lastmile_qr_scan"}, "fusion_lon": 0.0}, {"lat": 38.90258, "is_disabled": 0, "type": "electric_scooter", "lon": -77.003487, "bike_id": "2da1db434930155b654718976c4143ea", "fusion_lat": 0.0, "name": "2da1db434930155b654718976c4143ea", "is_reserved": 0, "rental_uris": {"android": "https://dc.lft.to/lastmile_qr_scan", "ios": "https://dc.lft.to/lastmile_qr_scan"}, "fusion_lon": 0.0}, {"lat": 38.915381, "is_disabled": 0, "type": "electric_scooter", "lon": -77.03212033333334, "bike_id": "0b46730276fbc0d64828e75297103068", "fusion_lat": 0.0, "name": "0b46730276fbc0d64828e75297103068", "is_reserved": 0, "rental_uris": {"android": "https://dc.lft.to/lastmile_qr_scan", "ios": "https://dc.lft.to/lastmile_qr_scan"}, "fusion_lon": 0.0}, {"lat": 38.99993083333333, "is_disabled": 0, "type": "electric_bike", "lon": -76.92496183333333, "bike_id": "eb48e52da88cee6621b131eb5eb0a342", "fusion_lat": 0.0, "name": "eb48e52da88cee6621b131eb5eb0a342", "is_reserved": 0, "rental_uris": {"android": "https://dc.lft.to/lastmile_qr_scan", "ios": "https://dc.lft.to/lastmile_qr_scan"}, "fusion_lon": 0.0}, {"lat": 38.897325, "is_disabled": 0, "type": "electric_scooter", "lon": -77.054745, "bike_id": "40e3480e0d2a24c53b0b10d12615cb86", "fusion_lat": 0.0, "name": "40e3480e0d2a24c53b0b10d12615cb86", "is_reserved": 0, "rental_uris": {"android": "https://dc.lft.to/lastmile_qr_scan", "ios": "https://dc.lft.to/lastmile_qr_scan"}, "fusion_lon": 0.0}, {"lat": 38.916345, "is_disabled": 0, "type": "electric_scooter", "lon": -77.02243183333333, "bike_id": "0a7469296126554acb387f2717e56042", "fusion_lat": 0.0, "name": "0a7469296126554acb387f2717e56042", "is_reserved": 0, "rental_uris": {"android": "https://dc.lft.to/lastmile_qr_scan", "ios": "https://dc.lft.to/lastmile_qr_scan"}, "fusion_lon": 0.0}, {"lat": 38.913061666666664, "is_disabled": 0, "type": "electric_scooter", "lon": -77.03202916666666, "bike_id": "31c6319f9b0608f45415dccc906cac1e", "fusion_lat": 0.0, "name": "31c6319f9b0608f45415dccc906cac1e", "is_reserved": 0, "rental_uris": {"android": "https://dc.lft.to/lastmile_qr_scan", "ios": "https://dc.lft.to/lastmile_qr_scan"}, "fusion_lon": 0.0}, {"lat": 38.91400083333333, "is_disabled": 0, "type": "electric_scooter", "lon": -77.04496483333334, "bike_id": "4b8224b89a0155207da6426a941c27b1", "fusion_lat": 0.0, "name": "4b8224b89a0155207da6426a941c27b1", "is_reserved": 0, "rental_uris": {"android": "https://dc.lft.to/lastmile_qr_scan", "ios": "https://dc.lft.to/lastmile_qr_scan"}, "fusion_lon": 0.0}, {"lat": 38.89087766666667, "is_disabled": 0, "type": "electric_scooter", "lon": -76.9527075, "bike_id": "8f424e0753d8bcdbad8ce376fc99f860", "fusion_lat": 0.0, "name": "8f424e0753d8bcdbad8ce376fc99f860", "is_reserved": 0, "rental_uris": {"android": "https://dc.lft.to/lastmile_qr_scan", "ios": "https://dc.lft.to/lastmile_qr_scan"}, "fusion_lon": 0.0}, {"lat": 38.9521655, "is_disabled": 0, "type": "electric_scooter", "lon": -77.08600033333333, "bike_id": "555dd7a626f70f576bf3d6a999033d1e", "fusion_lat": 0.0, "name": "555dd7a626f70f576bf3d6a999033d1e", "is_reserved": 0, "rental_uris": {"android": "https://dc.lft.to/lastmile_qr_scan", "ios": "https://dc.lft.to/lastmile_qr_scan"}, "fusion_lon": 0.0}, {"lat": 38.8999515, "is_disabled": 0, "type": "electric_scooter", "lon": -76.99959633333333, "bike_id": "eba0a26a900bf2e04c8756ad9d65590f", "fusion_lat": 0.0, "name": "eba0a26a900bf2e04c8756ad9d65590f", "is_reserved": 0, "rental_uris": {"android": "https://dc.lft.to/lastmile_qr_scan", "ios": "https://dc.lft.to/lastmile_qr_scan"}, "fusion_lon": 0.0}, {"lat": 38.9295305, "is_disabled": 0, "type": "electric_scooter", "lon": -76.99087383333334, "bike_id": "00c3eb67ad5425394f90efd05d8a3564", "fusion_lat": 0.0, "name": "00c3eb67ad5425394f90efd05d8a3564", "is_reserved": 0, "rental_uris": {"android": "https://dc.lft.to/lastmile_qr_scan", "ios": "https://dc.lft.to/lastmile_qr_scan"}, "fusion_lon": 0.0}, {"lat": 38.97229733333333, "is_disabled": 0, "type": "electric_bike", "lon": -77.0360675, "bike_id": "3eeab261d0bd71cf1a952c76128c109f", "fusion_lat": 0.0, "name": "3eeab261d0bd71cf1a952c76128c109f", "is_reserved": 0, "rental_uris": {"android": "https://dc.lft.to/lastmile_qr_scan", "ios": "https://dc.lft.to/lastmile_qr_scan"}, "fusion_lon": 0.0}, {"lat": 38.915452333333334, "is_disabled": 0, "type": "electric_scooter", "lon": -77.07415416666667, "bike_id": "43a541690e996d463f7cd850e1abc9ce", "fusion_lat": 0.0, "name": "43a541690e996d463f7cd850e1abc9ce", "is_reserved": 0, "rental_uris": {"android": "https://dc.lft.to/lastmile_qr_scan", "ios": "https://dc.lft.to/lastmile_qr_scan"}, "fusion_lon": 0.0}, {"lat": 38.897293166666664, "is_disabled": 0, "type": "electric_scooter", "lon": -77.0547465, "bike_id": "43706e5d6fff395e271ceb637b4606e9", "fusion_lat": 0.0, "name": "43706e5d6fff395e271ceb637b4606e9", "is_reserved": 0, "rental_uris": {"android": "https://dc.lft.to/lastmile_qr_scan", "ios": "https://dc.lft.to/lastmile_qr_scan"}, "fusion_lon": 0.0}, {"lat": 38.90965283333333, "is_disabled": 0, "type": "electric_scooter", "lon": -76.99602833333333, "bike_id": "f7bd8ff365d14f7f305249d0462610ac", "fusion_lat": 0.0, "name": "f7bd8ff365d14f7f305249d0462610ac", "is_reserved": 0, "rental_uris": {"android": "https://dc.lft.to/lastmile_qr_scan", "ios": "https://dc.lft.to/lastmile_qr_scan"}, "fusion_lon": 0.0}, {"lat": 38.892807, "is_disabled": 0, "type": "electric_scooter", "lon": -76.95852266666667, "bike_id": "597a1b3a39b0210ca35d3540ac510b77", "fusion_lat": 0.0, "name": "597a1b3a39b0210ca35d3540ac510b77", "is_reserved": 0, "rental_uris": {"android": "https://dc.lft.to/lastmile_qr_scan", "ios": "https://dc.lft.to/lastmile_qr_scan"}, "fusion_lon": 0.0}, {"lat": 38.931480666666666, "is_disabled": 0, "type": "electric_scooter", "lon": -77.02125366666667, "bike_id": "aba1f17afd3fe8fa849a7ba463c235c9", "fusion_lat": 0.0, "name": "aba1f17afd3fe8fa849a7ba463c235c9", "is_reserved": 0, "rental_uris": {"android": "https://dc.lft.to/lastmile_qr_scan", "ios": "https://dc.lft.to/lastmile_qr_scan"}, "fusion_lon": 0.0}, {"lat": 38.90560283333333, "is_disabled": 0, "type": "electric_scooter", "lon": -77.01310616666666, "bike_id": "8ce45b183b6d07ac2dda4fe8bd47ab7f", "fusion_lat": 0.0, "name": "8ce45b183b6d07ac2dda4fe8bd47ab7f", "is_reserved": 0, "rental_uris": {"android": "https://dc.lft.to/lastmile_qr_scan", "ios": "https://dc.lft.to/lastmile_qr_scan"}, "fusion_lon": 0.0}, {"lat": 38.917413, "is_disabled": 0, "type": "electric_scooter", "lon": -77.03190133333334, "bike_id": "7d76e8b1c781d0c66b53a7b99581dcbe", "fusion_lat": 0.0, "name": "7d76e8b1c781d0c66b53a7b99581dcbe", "is_reserved": 0, "rental_uris": {"android": "https://dc.lft.to/lastmile_qr_scan", "ios": "https://dc.lft.to/lastmile_qr_scan"}, "fusion_lon": 0.0}, {"lat": 38.9019165, "is_disabled": 0, "type": "electric_scooter", "lon": -77.02456733333334, "bike_id": "cdd0ba72aa0664c7668ff198e318d88b", "fusion_lat": 0.0, "name": "cdd0ba72aa0664c7668ff198e318d88b", "is_reserved": 0, "rental_uris": {"android": "https://dc.lft.to/lastmile_qr_scan", "ios": "https://dc.lft.to/lastmile_qr_scan"}, "fusion_lon": 0.0}, {"lat": 38.940635666666665, "is_disabled": 0, "type": "electric_scooter", "lon": -76.99458933333334, "bike_id": "21dbdc5396cd2eeb897131d37301dc85", "fusion_lat": 0.0, "name": "21dbdc5396cd2eeb897131d37301dc85", "is_reserved": 0, "rental_uris": {"android": "https://dc.lft.to/lastmile_qr_scan", "ios": "https://dc.lft.to/lastmile_qr_scan"}, "fusion_lon": 0.0}, {"lat": 38.917404833333336, "is_disabled": 0, "type": "electric_scooter", "lon": -77.03196183333333, "bike_id": "a305dfc028be7e6c44d9b37bf83fef09", "fusion_lat": 0.0, "name": "a305dfc028be7e6c44d9b37bf83fef09", "is_reserved": 0, "rental_uris": {"android": "https://dc.lft.to/lastmile_qr_scan", "ios": "https://dc.lft.to/lastmile_qr_scan"}, "fusion_lon": 0.0}, {"lat": 38.902597666666665, "is_disabled": 0, "type": "electric_scooter", "lon": -77.05260983333334, "bike_id": "a7bad8dd1ee50b38714aa40ca33653dd", "fusion_lat": 0.0, "name": "a7bad8dd1ee50b38714aa40ca33653dd", "is_reserved": 0, "rental_uris": {"android": "https://dc.lft.to/lastmile_qr_scan", "ios": "https://dc.lft.to/lastmile_qr_scan"}, "fusion_lon": 0.0}, {"lat": 38.884797166666665, "is_disabled": 0, "type": "electric_scooter", "lon": -76.94528866666667, "bike_id": "93c37aaced33276db4db31ab899d0384", "fusion_lat": 0.0, "name": "93c37aaced33276db4db31ab899d0384", "is_reserved": 0, "rental_uris": {"android": "https://dc.lft.to/lastmile_qr_scan", "ios": "https://dc.lft.to/lastmile_qr_scan"}, "fusion_lon": 0.0}, {"lat": 38.93076333333333, "is_disabled": 0, "type": "electric_scooter", "lon": -77.07757066666667, "bike_id": "ff616e5cc786141cc9381b95ad887ee6", "fusion_lat": 0.0, "name": "ff616e5cc786141cc9381b95ad887ee6", "is_reserved": 0, "rental_uris": {"android": "https://dc.lft.to/lastmile_qr_scan", "ios": "https://dc.lft.to/lastmile_qr_scan"}, "fusion_lon": 0.0}, {"lat": 38.90022716666667, "is_disabled": 0, "type": "electric_scooter", "lon": -76.98372716666667, "bike_id": "0e4e74b3f22204e45762b4a9eb1dabb0", "fusion_lat": 0.0, "name": "0e4e74b3f22204e45762b4a9eb1dabb0", "is_reserved": 0, "rental_uris": {"android": "https://dc.lft.to/lastmile_qr_scan", "ios": "https://dc.lft.to/lastmile_qr_scan"}, "fusion_lon": 0.0}, {"lat": 38.91780516666667, "is_disabled": 0, "type": "electric_scooter", "lon": -77.02228566666666, "bike_id": "3a7f0d4abfa2514c2fd2d2c2c2bf276b", "fusion_lat": 0.0, "name": "3a7f0d4abfa2514c2fd2d2c2c2bf276b", "is_reserved": 0, "rental_uris": {"android": "https://dc.lft.to/lastmile_qr_scan", "ios": "https://dc.lft.to/lastmile_qr_scan"}, "fusion_lon": 0.0}, {"lat": 38.909415833333334, "is_disabled": 0, "type": "electric_scooter", "lon": -77.04427933333334, "bike_id": "540accbd1a408f93b3750225d6b2770d", "fusion_lat": 0.0, "name": "540accbd1a408f93b3750225d6b2770d", "is_reserved": 0, "rental_uris": {"android": "https://dc.lft.to/lastmile_qr_scan", "ios": "https://dc.lft.to/lastmile_qr_scan"}, "fusion_lon": 0.0}, {"lat": 38.91823566666667, "is_disabled": 0, "type": "electric_scooter", "lon": -77.03164566666666, "bike_id": "ab784fcbd3efcbbcd33e1389bc762939", "fusion_lat": 0.0, "name": "ab784fcbd3efcbbcd33e1389bc762939", "is_reserved": 0, "rental_uris": {"android": "https://dc.lft.to/lastmile_qr_scan", "ios": "https://dc.lft.to/lastmile_qr_scan"}, "fusion_lon": 0.0},