{"data": {"bikes": [{"name": "624fbd3f65f8b6cbcb7ca9b0485e1a69", "fusion_lat": 0.0, "type": "electric_scooter", "lat": 38.901310333333335, "is_reserved": 0, "is_disabled": 0, "fusion_lon": 0.0, "bike_id": "624fbd3f65f8b6cbcb7ca9b0485e1a69", "lon": -77.0448745, "rental_uris": {"ios": "https://dc.lft.to/lastmile_qr_scan", "android": "https://dc.lft.to/lastmile_qr_scan"}}, {"name": "a7569a543e77e6f0df6a6ed883d4af07", "fusion_lat": 0.0, "type": "electric_scooter", "lat": 38.96116, "is_reserved": 0, "is_disabled": 0, "fusion_lon": 0.0, "bike_id": "a7569a543e77e6f0df6a6ed883d4af07", "lon": -77.028158, "rental_uris": {"ios": "https://dc.lft.to/lastmile_qr_scan", "android": "https://dc.lft.to/lastmile_qr_scan"}}, {"name": "30428faba7a43a67d5d57a5276b9b720", "fusion_lat": 0.0, "type": "electric_scooter", "lat": 38.89473533333334, "is_reserved": 0, "is_disabled": 0, "fusion_lon": 0.0, "bike_id": "30428faba7a43a67d5d57a5276b9b720", "lon": -76.9840515, "rental_uris": {"ios": "https://dc.lft.to/lastmile_qr_scan", "android": "https://dc.lft.to/lastmile_qr_scan"}}, {"name": "e18dab4129c494dc17c0fab5a09b6f7c", "fusion_lat": 0.0, "type": "electric_scooter", "lat": 38.9258085, "is_reserved": 0, "is_disabled": 0, "fusion_lon": 0.0, "bike_id": "e18dab4129c494dc17c0fab5a09b6f7c", "lon": -77.02841033333333, "rental_uris": {"ios": "https://dc.lft.to/lastmile_qr_scan", "android": "https://dc.lft.to/lastmile_qr_scan"}}, {"name": "68f9d2b2469bed87815d7290713fa203", "fusion_lat": 0.0, "type": "electric_bike", "lat": 38.872442166666666, "is_reserved": 0, "is_disabled": 0, "fusion_lon": 0.0, "bike_id": "68f9d2b2469bed87815d7290713fa203", "lon": -77.011564, "rental_uris": {"ios": "https://dc.lft.to/lastmile_qr_scan", "android": "https://dc.lft.to/lastmile_qr_scan"}}, {"name": "4dfd73b5f1322cb45ab7cba83b6206f7", "fusion_lat": 0.0, "type": "electric_scooter", "lat": 38.91043616666666, "is_reserved": 0, "is_disabled": 0, "fusion_lon": 0.0, "bike_id": "4dfd73b5f1322cb45ab7cba83b6206f7", "lon": -77.04860266666667, "rental_uris": {"ios": "https://dc.lft.to/lastmile_qr_scan", "android": "https://dc.lft.to/lastmile_qr_scan"}}, {"name": "a6fc3865349b7108b32f72af7e3c1ac6", "fusion_lat": 0.0, "type": "electric_scooter", "lat": 38.902142, "is_reserved": 0, "is_disabled": 0, "fusion_lon": 0.0, "bike_id": "a6fc3865349b7108b32f72af7e3c1ac6", "lon": -76.98191433333334, "rental_uris": {"ios": "https://dc.lft.to/lastmile_qr_scan", "android": "https://dc.lft.to/lastmile_qr_scan"}}, {"name": "a80f4b361e695eaa6db6e7326630890a", "fusion_lat": 0.0, "type": "electric_bike", "lat": 38.9397395, "is_reserved": 0, "is_disabled": 0, "fusion_lon": 0.0, "bike_id": "a80f4b361e695eaa6db6e7326630890a", "lon": -76.98658483333334, "rental_uris": {"ios": "https://dc.lft.to/lastmile_qr_scan", "android": "https://dc.lft.to/lastmile_qr_scan"}}, {"name": "3497b3a440659076228467f7d8a88516", "fusion_lat": 0.0, "type": "electric_scooter", "lat": 38.89923566666667, "is_reserved": 0, "is_disabled": 0, "fusion_lon": 0.0, "bike_id": "3497b3a440659076228467f7d8a88516", "lon": -76.93387783333333, "rental_uris": {"ios": "https://dc.lft.to/lastmile_qr_scan", "android": "https://dc.lft.to/lastmile_qr_scan"}}, {"name": "8b7b4c7382e2d3c7818613fc717c4917", "fusion_lat": 0.0, "type": "electric_scooter", "lat": 38.94320966666667, "is_reserved": 0, "is_disabled": 0, "fusion_lon": 0.0, "bike_id": "8b7b4c7382e2d3c7818613fc717c4917", "lon": -77.05915483333334, "rental_uris": {"ios": "https://dc.lft.to/lastmile_qr_scan", "android": "https://dc.lft.to/lastmile_qr_scan"}}, {"name": "8f9c98a8b49165553bd56bd77e1f2500", "fusion_lat": 0.0, "type": "electric_bike", "lat": 38.85159, "is_reserved": 0, "is_disabled": 0, "fusion_lon": 0.0, "bike_id": "8f9c98a8b49165553bd56bd77e1f2500", "lon": -77.12877883333333, "rental_uris": {"ios": "https://dc.lft.to/lastmile_qr_scan", "android": "https://dc.lft.to/lastmile_qr_scan"}}, {"name": "9fee18cd2f97c1ce938d45ce48069dd3", "fusion_lat": 0.0, "type": "electric_scooter", "lat": 38.90583316666667, "is_reserved": 0, "is_disabled": 0, "fusion_lon": 0.0, "bike_id": "9fee18cd2f97c1ce938d45ce48069dd3", "lon": -77.00753816666666, "rental_uris": {"ios": "https://dc.lft.to/lastmile_qr_scan", "android": "https://dc.lft.to/lastmile_qr_scan"}}, {"name": "4c75e9c85e4d7b13e89baf1a81c6d3cc", "fusion_lat": 0.0, "type": "electric_scooter", "lat": 38.930694333333335, "is_reserved": 0, "is_disabled": 0, "fusion_lon": 0.0, "bike_id": "4c75e9c85e4d7b13e89baf1a81c6d3cc", "lon": -77.03405666666667, "rental_uris": {"ios": "https://dc.lft.to/lastmile_qr_scan", "android": "https://dc.lft.to/lastmile_qr_scan"}}, {"name": "6634ef512cdfb9dd423206ec144fafcd", "fusion_lat": 0.0, "type": "electric_scooter", "lat": 38.86517516666667, "is_reserved": 0, "is_disabled": 0, "fusion_lon": 0.0, "bike_id": "6634ef512cdfb9dd423206ec144fafcd", "lon": -76.97348616666666, "rental_uris": {"ios": "https://dc.lft.to/lastmile_qr_scan", "android": "https://dc.lft.to/lastmile_qr_scan"}}, {"name": "22360b9109b0b26e9272ca23b86845b6", "fusion_lat": 0.0, "type": "electric_scooter", "lat": 38.902729666666666, "is_reserved": 0, "is_disabled": 0, "fusion_lon": 0.0, "bike_id": "22360b9109b0b26e9272ca23b86845b6", "lon": -77.003291, "rental_uris": {"ios": "https://dc.lft.to/lastmile_qr_scan", "android": "https://dc.lft.to/lastmile_qr_scan"}}, {"name": "f0344d7739e037ee849238332eedd6e7", "fusion_lat": 0.0, "type": "electric_scooter", "lat": 38.88351183333333, "is_reserved": 0, "is_disabled": 0, "fusion_lon": 0.0, "bike_id": "f0344d7739e037ee849238332eedd6e7", "lon": -77.03167166666667, "rental_uris": {"ios": "https://dc.lft.to/lastmile_qr_scan", "android": "https://dc.lft.to/lastmile_qr_scan"}}, {"name": "5df7b68ff0a579c4131b9b817b2dce5d", "fusion_lat": 0.0, "type": "electric_scooter", "lat": 38.89862183333334, "is_reserved": 0, "is_disabled": 0, "fusion_lon": 0.0, "bike_id": "5df7b68ff0a579c4131b9b817b2dce5d", "lon": -76.9756545, "rental_uris": {"ios": "https://dc.lft.to/lastmile_qr_scan", "android": "https://dc.lft.to/lastmile_qr_scan"}}, {"name": "24a1c16c613a423de0ccf9430b065e96", "fusion_lat": 0.0, "type": "electric_scooter", "lat": 38.939964333333336, "is_reserved": 0, "is_disabled": 0, "fusion_lon": 0.0, "bike_id": "24a1c16c613a423de0ccf9430b065e96", "lon": -77.02960066666667, "rental_uris": {"ios": "https://dc.lft.to/lastmile_qr_scan", "android": "https://dc.lft.to/lastmile_qr_scan"}}, {"name": "0795e16cff593e2f3050553910540567", "fusion_lat": 0.0, "type": "electric_scooter", "lat": 38.932611666666666, "is_reserved": 0, "is_disabled": 0, "fusion_lon": 0.0, "bike_id": "0795e16cff593e2f3050553910540567", "lon": -77.0400505, "rental_uris": {"ios": "https://dc.lft.to/lastmile_qr_scan", "android": "https://dc.lft.to/lastmile_qr_scan"}}, {"name": "499b42e052276243c1be8aaccf6c4178", "fusion_lat": 0.0, "type": "electric_bike", "lat": 38.9455895, "is_reserved": 0, "is_disabled": 0, "fusion_lon": 0.0, "bike_id": "499b42e052276243c1be8aaccf6c4178", "lon": -76.8954245, "rental_uris": {"ios": "https://dc.lft.to/lastmile_qr_scan", "android": "https://dc.lft.to/lastmile_qr_scan"}}, {"name": "36e5aba773185e610aec381a6a183cf3", "fusion_lat": 0.0, "type": "electric_scooter", "lat": 38.908378166666665, "is_reserved": 0, "is_disabled": 0, "fusion_lon": 0.0, "bike_id": "36e5aba773185e610aec381a6a183cf3", "lon": -76.99980633333334, "rental_uris": {"ios": "https://dc.lft.to/lastmile_qr_scan", "android": "https://dc.lft.to/lastmile_qr_scan"}}, {"name": "6ab36fbc5ad06cb7b32c39ac9138fa4a", "fusion_lat": 0.0, "type": "electric_scooter", "lat": 38.8948605, "is_reserved": 0, "is_disabled": 0, "fusion_lon": 0.0, "bike_id": "6ab36fbc5ad06cb7b32c39ac9138fa4a", "lon": -76.9487745, "rental_uris": {"ios": "https://dc.lft.to/lastmile_qr_scan", "android": "https://dc.lft.to/lastmile_qr_scan"}}, {"name": "7e66f53ef7bf16e956a022292701b40a", "fusion_lat": 0.0, "type": "electric_scooter", "lat": 38.91622233333333, "is_reserved": 0, "is_disabled": 0, "fusion_lon": 0.0, "bike_id": "7e66f53ef7bf16e956a022292701b40a", "lon": -77.0385335, "rental_uris": {"ios": "https://dc.lft.to/lastmile_qr_scan", "android": "https://dc.lft.to/lastmile_qr_scan"}}, {"name": "40230b89a2910040dc65fd546725aa84", "fusion_lat": 0.0, "type": "electric_scooter", "lat": 38.892788333333336, "is_reserved": 0, "is_disabled": 0, "fusion_lon": 0.0, "bike_id": "40230b89a2910040dc65fd546725aa84", "lon": -77.03206233333333, "rental_uris": {"ios": "https://dc.lft.to/lastmile_qr_scan", "android": "https://dc.lft.to/lastmile_qr_scan"}}, {"name": "ff3f2b9e5f119a699053398c4e685d39", "fusion_lat": 0.0, "type": "electric_scooter", "lat": 38.93126733333333, "is_reserved": 0, "is_disabled": 0, "fusion_lon": 0.0, "bike_id": "ff3f2b9e5f119a699053398c4e685d39", "lon": -77.03605166666667, "rental_uris": {"ios": "https://dc.lft.to/lastmile_qr_scan", "android": "https://dc.lft.to/lastmile_qr_scan"}}, {"name": "6255862020bb37092982aabb166885dd", "fusion_lat": 0.0, "type": "electric_scooter", "lat": 38.91547933333333, "is_reserved": 0, "is_disabled": 0, "fusion_lon": 0.0, "bike_id": "6255862020bb37092982aabb166885dd", "lon": -77.03854966666667, "rental_uris": {"ios": "https://dc.lft.to/lastmile_qr_scan", "android": "https://dc.lft.to/lastmile_qr_scan"}}, {"name": "53d27cf459b769e0b37fb5563604bd90", "fusion_lat": 0.0, "type": "electric_scooter", "lat": 38.897749, "is_reserved": 0, "is_disabled": 0, "fusion_lon": 0.0, "bike_id": "53d27cf459b769e0b37fb5563604bd90", "lon": -76.99167833333334, "rental_uris": {"ios": "https://dc.lft.to/lastmile_qr_scan", "android": "https://dc.lft.to/lastmile_qr_scan"}}, {"name": "755239a0c6cbcd13a30c4888b6e0513f", "fusion_lat": 0.0, "type": "electric_bike", "lat": 38.97334883333333, "is_reserved": 0, "is_disabled": 0, "fusion_lon": 0.0, "bike_id": "755239a0c6cbcd13a30c4888b6e0513f", "lon": -77.021481, "rental_uris": {"ios": "https://dc.lft.to/lastmile_qr_scan", "android": "https://dc.lft.to/lastmile_qr_scan"}}, {"name": "44072d20e61b192250f07fc7c075cc7b", "fusion_lat": 0.0, "type": "electric_scooter", "lat": 38.8840045, "is_reserved": 0, "is_disabled": 0, "fusion_lon": 0.0, "bike_id": "44072d20e61b192250f07fc7c075cc7b", "lon": -76.93041616666666, "rental_uris": {"ios": "https://dc.lft.to/lastmile_qr_scan", "android": "https://dc.lft.to/lastmile_qr_scan"}}, {"name": "dd412b2518b855e5a0b3efb689441419", "fusion_lat": 0.0, "type": "electric_scooter", "lat": 38.9076175, "is_reserved": 0, "is_disabled": 0, "fusion_lon": 0.0, "bike_id": "dd412b2518b855e5a0b3efb689441419", "lon": -77.000324, "rental_uris": {"ios": "https://dc.lft.to/lastmile_qr_scan", "android": "https://dc.lft.to/lastmile_qr_scan"}}, {"name": "b64d9913e33cf8df97c25cb812c12e06", "fusion_lat": 0.0, "type": "electric_scooter", "lat": 38.9081345, "is_reserved": 0, "is_disabled": 0, "fusion_lon": 0.0, "bike_id": "b64d9913e33cf8df97c25cb812c12e06", "lon": -77.02606166666666, "rental_uris": {"ios": "https://dc.lft.to/lastmile_qr_scan", "android": "https://dc.lft.to/lastmile_qr_scan"}}, {"name": "1d184dd96b80f21c8b39a140c4c446e1", "fusion_lat": 0.0, "type": "electric_scooter", "lat": 38.900423, "is_reserved": 0, "is_disabled": 0, "fusion_lon": 0.0, "bike_id": "1d184dd96b80f21c8b39a140c4c446e1", "lon": -77.04331883333333, "rental_uris": {"ios": "https://dc.lft.to/lastmile_qr_scan", "android": "https://dc.lft.to/lastmile_qr_scan"}}, {"name": "14e96687f49f02f1698c1dfe69e227de", "fusion_lat": 0.0, "type": "electric_scooter", "lat": 38.918261666666666, "is_reserved": 0, "is_disabled": 0, "fusion_lon": 0.0, "bike_id": "14e96687f49f02f1698c1dfe69e227de", "lon": -77.0317425, "rental_uris": {"ios": "https://dc.lft.to/lastmile_qr_scan", "android": "https://dc.lft.to/lastmile_qr_scan"}}, {"name": "8681db74568c7c6cae8e21eafb5c879b", "fusion_lat": 0.0, "type": "electric_scooter", "lat": 38.928689166666665, "is_reserved": 0, "is_disabled": 0, "fusion_lon": 0.0, "bike_id": "8681db74568c7c6cae8e21eafb5c879b", "lon": -77.013783, "rental_uris": {"ios": "https://dc.lft.to/lastmile_qr_scan", "android": "https://dc.lft.to/lastmile_qr_scan"}}, {"name": "335e22009681b86843f7af9ea17c7483", "fusion_lat": 0.0, "type": "electric_scooter", "lat": 38.90510416666667, "is_reserved": 0, "is_disabled": 0, "fusion_lon": 0.0, "bike_id": "335e22009681b86843f7af9ea17c7483", "lon": -77.06381633333334, "rental_uris": {"ios": "https://dc.lft.to/lastmile_qr_scan", "android": "https://dc.lft.to/lastmile_qr_scan"}}, {"name": "7a58becde6d67d8703b16961e7dbc752", "fusion_lat": 0.0, "type": "electric_scooter", "lat": 38.94189033333333, "is_reserved": 0, "is_disabled": 0, "fusion_lon": 0.0, "bike_id": "7a58becde6d67d8703b16961e7dbc752", "lon": -77.02488316666667, "rental_uris": {"ios": "https://dc.lft.to/lastmile_qr_scan", "android": "https://dc.lft.to/lastmile_qr_scan"}}, {"name": "7f2575ef048032219dd0918d5b11fbad", "fusion_lat": 0.0, "type": "electric_scooter", "lat": 38.898559, "is_reserved": 0, "is_disabled": 0, "fusion_lon": 0.0, "bike_id": "7f2575ef048032219dd0918d5b11fbad", "lon": -76.9903145, "rental_uris": {"ios": "https://dc.lft.to/lastmile_qr_scan", "android": "https://dc.lft.to/lastmile_qr_scan"}}, {"name": "fa887122f7817048e6ac1c46b4b9dc8a", "fusion_lat": 0.0, "type": "electric_scooter", "lat": 38.900919, "is_reserved": 0, "is_disabled": 0, "fusion_lon": 0.0, "bike_id": "fa887122f7817048e6ac1c46b4b9dc8a", "lon": -77.01358966666666, "rental_uris": {"ios": "https://dc.lft.to/lastmile_qr_scan", "android": "https://dc.lft.to/lastmile_qr_scan"}}, {"name": "8a2cd176d285925c399359eb0170f496", "fusion_lat": 0.0, "type": "electric_scooter", "lat": 38.902727166666665, "is_reserved": 0, "is_disabled": 0, "fusion_lon": 0.0, "bike_id": "8a2cd176d285925c399359eb0170f496", "lon": -76.98713716666667, "rental_uris": {"ios": "https://dc.lft.to/lastmile_qr_scan", "android": "https://dc.lft.to/lastmile_qr_scan"}}, {"name": "cff14dd5b8ef1e8855e6883fb994d2d4", "fusion_lat": 0.0, "type": "electric_scooter", "lat": 38.914041, "is_reserved": 0, "is_disabled": 0, "fusion_lon": 0.0, "bike_id": "cff14dd5b8ef1e8855e6883fb994d2d4", "lon": -77.02228283333334, "rental_uris": {"ios": "https://dc.lft.to/lastmile_qr_scan", "android": "https://dc.lft.to/lastmile_qr_scan"}}, {"name": "1a29615bc70ed17dc854789da7ea8a73", "fusion_lat": 0.0, "type": "electric_scooter", "lat": 38.9565335, "is_reserved": 0, "is_disabled": 0, "fusion_lon": 0.0, "bike_id": "1a29615bc70ed17dc854789da7ea8a73", "lon": -77.0329605, "rental_uris": {"ios": "https://dc.lft.to/lastmile_qr_scan", "android": "https://dc.lft.to/lastmile_qr_scan"}}, {"name": "ca4ad9b18d904c87ee464c93e65a49da", "fusion_lat": 0.0, "type": "electric_bike", "lat": 39.088656666666665, "is_reserved": 0, "is_disabled": 0, "fusion_lon": 0.0, "bike_id": "ca4ad9b18d904c87ee464c93e65a49da", "lon": -77.1783795, "rental_uris": {"ios": "https://dc.lft.to/lastmile_qr_scan", "android": "https://dc.lft.to/lastmile_qr_scan"}}, {"name": "bf60a2c5cb2d8ec244667edb539041bc", "fusion_lat": 0.0, "type": "electric_scooter", "lat": 38.90731183333333, "is_reserved": 0, "is_disabled": 0, "fusion_lon": 0.0, "bike_id": "bf60a2c5cb2d8ec244667edb539041bc", "lon": -77.03270316666666, "rental_uris": {"ios": "https://dc.lft.to/lastmile_qr_scan", "android": "https://dc.lft.to/lastmile_qr_scan"}}, {"name": "4b862a56627398a070bc6cba45bb9c07", "fusion_lat": 0.0, "type": "electric_bike", "lat": 39.053603333333335, "is_reserved": 0, "is_disabled": 0, "fusion_lon": 0.0, "bike_id": "4b862a56627398a070bc6cba45bb9c07", "lon": -77.04729, "rental_uris": {"ios": "https://dc.lft.to/lastmile_qr_scan", "android": "https://dc.lft.to/lastmile_qr_scan"}}, {"name": "51573382de25f0ec46350134751dcae2", "fusion_lat": 0.0, "type": "electric_bike", "lat": 38.935237, "is_reserved": 0, "is_disabled": 0, "fusion_lon": 0.0, "bike_id": "51573382de25f0ec46350134751dcae2", "lon": -76.950658, "rental_uris": {"ios": "https://dc.lft.to/lastmile_qr_scan", "android": "https://dc.lft.to/lastmile_qr_scan"}}, {"name": "707448487ea839219c3525edefebc547", "fusion_lat": 0.0, "type": "electric_scooter", "lat": 38.902808666666665, "is_reserved": 0, "is_disabled": 0, "fusion_lon": 0.0, "bike_id": "707448487ea839219c3525edefebc547", "lon": -77.03649016666667, "rental_uris": {"ios": "https://dc.lft.to/lastmile_qr_scan", "android": "https://dc.lft.to/lastmile_qr_scan"}}, {"name": "8c5ab7280395c95c4c223e1278fe9bda", "fusion_lat": 0.0, "type": "electric_scooter", "lat": 38.9225015, "is_reserved": 0, "is_disabled": 0, "fusion_lon": 0.0, "bike_id": "8c5ab7280395c95c4c223e1278fe9bda", "lon": -76.99396883333333, "rental_uris": {"ios": "https://dc.lft.to/lastmile_qr_scan", "android": "https://dc.lft.to/lastmile_qr_scan"}}, {"name": "825c84e649b39a2b8f83d85cce310c57", "fusion_lat": 0.0, "type": "electric_scooter", "lat": 38.9056405, "is_reserved": 0, "is_disabled": 0, "fusion_lon": 0.0, "bike_id": "825c84e649b39a2b8f83d85cce310c57", "lon": -77.02229866666667, "rental_uris": {"ios": "https://dc.lft.to/lastmile_qr_scan", "android": "https://dc.lft.to/lastmile_qr_scan"}}, {"name": "f75bfdf2e7a993dc9d3af0d4025588e7", "fusion_lat": 0.0, "type": "electric_scooter", "lat": 38.8653915, "is_reserved": 0, "is_disabled": 0, "fusion_lon": 0.0, "bike_id": "f75bfdf2e7a993dc9d3af0d4025588e7", "lon": -76.987082, "rental_uris": {"ios": "https://dc.lft.to/lastmile_qr_scan", "android": "https://dc.lft.to/lastmile_qr_scan"}}, {"name": "3b7c3eb06149aa36b0a9a097de9d3bac", "fusion_lat": 0.0, "type": "electric_scooter", "lat": 38.901323, "is_reserved": 0, "is_disabled": 0, "fusion_lon": 0.0, "bike_id": "3b7c3eb06149aa36b0a9a097de9d3bac", "lon": -77.0421585, "rental_uris": {"ios": "https://dc.lft.to/lastmile_qr_scan", "android": "https://dc.lft.to/lastmile_qr_scan"}}, {"name": "c162747ff244002c4c3abd4f050c6fae", "fusion_lat": 0.0, "type": "electric_bike", "lat": 38.92858433333333, "is_reserved": 0, "is_disabled": 0, "fusion_lon": 0.0, "bike_id": "c162747ff244002c4c3abd4f050c6fae", "lon": -77.22209433333333, "rental_uris": {"ios": "https://dc.lft.to/lastmile_qr_scan", "android": "https://dc.lft.to/lastmile_qr_scan"}}, {"name": "ef6e361940072f4625480f18f8de0997", "fusion_lat": 0.0, "type": "electric_scooter", "lat": 38.9148675, "is_reserved": 0, "is_disabled": 0, "fusion_lon": 0.0, "bike_id": "ef6e361940072f4625480f18f8de0997", "lon": -77.03246933333334, "rental_uris": {"ios": "https://dc.lft.to/lastmile_qr_scan", "android": "https://dc.lft.to/lastmile_qr_scan"}}, {"name": "7b6a01399b19d26fbdf72eb6ea4cd483", "fusion_lat": 0.0, "type": "electric_scooter", "lat": 38.897143666666665, "is_reserved": 0, "is_disabled": 0, "fusion_lon": 0.0, "bike_id": "7b6a01399b19d26fbdf72eb6ea4cd483", "lon": -77.03261816666667, "rental_uris": {"ios": "https://dc.lft.to/lastmile_qr_scan", "android": "https://dc.lft.to/lastmile_qr_scan"}}, {"name": "6ac5f28840929b84efc1ca2bfdc1bfc4", "fusion_lat": 0.0, "type": "electric_scooter", "lat": 38.91805516666667, "is_reserved": 0, "is_disabled": 0, "fusion_lon": 0.0, "bike_id": "6ac5f28840929b84efc1ca2bfdc1bfc4", "lon": -77.0322255, "rental_uris": {"ios": "https://dc.lft.to/lastmile_qr_scan", "android": "https://dc.lft.to/lastmile_qr_scan"}}, {"name": "b48129ca15ab200cf715e5fb6a0a10d4", "fusion_lat": 0.0, "type": "electric_scooter", "lat": 38.89575933333333, "is_reserved": 0, "is_disabled": 0, "fusion_lon": 0.0, "bike_id": "b48129ca15ab200cf715e5fb6a0a10d4", "lon": -76.94883983333334, "rental_uris": {"ios": "https://dc.lft.to/lastmile_qr_scan", "android": "https://dc.lft.to/lastmile_qr_scan"}}, {"name": "90bf86b4aaa328ca5a659d94c51ecb0c", "fusion_lat": 0.0, "type": "electric_scooter", "lat": 38.90581783333333, "is_reserved": 0, "is_disabled": 0, "fusion_lon": 0.0, "bike_id": "90bf86b4aaa328ca5a659d94c51ecb0c", "lon": -77.03266833333333, "rental_uris": {"ios": "https://dc.lft.to/lastmile_qr_scan", "android": "https://dc.lft.to/lastmile_qr_scan"}}, {"name": "4a114926c821a82132b88bbde793709a", "fusion_lat": 0.0, "type": "electric_bike", "lat": 38.95846, "is_reserved": 0, "is_disabled": 0, "fusion_lon": 0.0, "bike_id": "4a114926c821a82132b88bbde793709a", "lon": -76.99868683333334, "rental_uris": {"ios": "https://dc.lft.to/lastmile_qr_scan", "android": "https://dc.lft.to/lastmile_qr_scan"}}, {"name": "6057048abce8d581d662946392084152", "fusion_lat": 0.0, "type": "electric_scooter", "lat": 38.90088566666667, "is_reserved": 0, "is_disabled": 0, "fusion_lon": 0.0, "bike_id": "6057048abce8d581d662946392084152", "lon": -77.0499725, "rental_uris": {"ios": "https://dc.lft.to/lastmile_qr_scan", "android": "https://dc.lft.to/lastmile_qr_scan"}}, {"name": "347493db15422af219d3e3e17abc0d96", "fusion_lat": 0.0, "type": "electric_scooter", "lat": 38.9187795, "is_reserved": 0, "is_disabled": 0, "fusion_lon": 0.0, "bike_id": "347493db15422af219d3e3e17abc0d96", "lon": -77.04360666666666, "rental_uris": {"ios": "https://dc.lft.to/lastmile_qr_scan", "android": "https://dc.lft.to/lastmile_qr_scan"}}, {"name": "42d4f74b7c99ed98c9101232e6900581", "fusion_lat": 0.0, "type": "electric_scooter", "lat": 38.8913685, "is_reserved": 0, "is_disabled": 0, "fusion_lon": 0.0, "bike_id": "42d4f74b7c99ed98c9101232e6900581", "lon": -76.99160383333333, "rental_uris": {"ios": "https://dc.lft.to/lastmile_qr_scan", "android": "https://dc.lft.to/lastmile_qr_scan"}}, {"name": "24b2f3435c88d48e873c4f636ffd200d", "fusion_lat": 0.0, "type": "electric_scooter", "lat": 38.91119716666667, "is_reserved": 0, "is_disabled": 0, "fusion_lon": 0.0, "bike_id": "24b2f3435c88d48e873c4f636ffd200d", "lon": -77.0240885, "rental_uris": {"ios": "https://dc.lft.to/lastmile_qr_scan", "android": "https://dc.lft.to/lastmile_qr_scan"}}, {"name": "21bb93b30c5482a92fc1d74d82d3a7fc", "fusion_lat": 0.0, "type": "electric_scooter", "lat": 38.92760416666667, "is_reserved": 0, "is_disabled": 0, "fusion_lon": 0.0, "bike_id": "21bb93b30c5482a92fc1d74d82d3a7fc", "lon": -77.03270183333333, "rental_uris": {"ios": "https://dc.lft.to/lastmile_qr_scan", "android": "https://dc.lft.to/lastmile_qr_scan"}}, {"name": "6ddd57dac007f11162a157c172c738b7", "fusion_lat": 0.0, "type": "electric_bike", "lat": 38.968654666666666, "is_reserved": 0, "is_disabled": 0, "fusion_lon": 0.0, "bike_id": "6ddd57dac007f11162a157c172c738b7", "lon": -77.033306, "rental_uris": {"ios": "https://dc.lft.to/lastmile_qr_scan", "android": "https://dc.lft.to/lastmile_qr_scan"}}, {"name": "dc3d90645a7eb399f0ae1f7abc73e284", "fusion_lat": 0.0, "type": "electric_scooter", "lat": 38.922465833333334, "is_reserved": 0, "is_disabled": 0, "fusion_lon": 0.0, "bike_id": "dc3d90645a7eb399f0ae1f7abc73e284", "lon": -77.036675, "rental_uris": {"ios": "https://dc.lft.to/lastmile_qr_scan", "android": "https://dc.lft.to/lastmile_qr_scan"}}, {"name": "9336c40a9bae3bbc78c12057b5497115", "fusion_lat": 0.0, "type": "electric_scooter", "lat": 38.8996905, "is_reserved": 0, "is_disabled": 0, "fusion_lon": 0.0, "bike_id": "9336c40a9bae3bbc78c12057b5497115", "lon": -77.0311525, "rental_uris": {"ios": "https://dc.lft.to/lastmile_qr_scan", "android": "https://dc.lft.to/lastmile_qr_scan"}}, {"name": "2ff5957a1193c1ec574c47066d9b4312", "fusion_lat": 0.0, "type": "electric_scooter", "lat": 38.899776833333334, "is_reserved": 0, "is_disabled": 0, "fusion_lon": 0.0, "bike_id": "2ff5957a1193c1ec574c47066d9b4312", "lon": -77.02947533333334, "rental_uris": {"ios": "https://dc.lft.to/lastmile_qr_scan", "android": "https://dc.lft.to/lastmile_qr_scan"}}, {"name": "bbd77c3c40ea49d83a91d51cb1086bb6", "fusion_lat": 0.0, "type": "electric_scooter", "lat": 38.911337833333334, "is_reserved": 0, "is_disabled": 0, "fusion_lon": 0.0, "bike_id": "bbd77c3c40ea49d83a91d51cb1086bb6", "lon": -77.03178866666667, "rental_uris": {"ios": "https://dc.lft.to/lastmile_qr_scan", "android": "https://dc.lft.to/lastmile_qr_scan"}}, {"name": "e6df5904cdebddf55c7e1e49d8711b8d", "fusion_lat": 0.0, "type": "electric_scooter", "lat": 38.90566583333333, "is_reserved": 0, "is_disabled": 0, "fusion_lon": 0.0, "bike_id": "e6df5904cdebddf55c7e1e49d8711b8d", "lon": -77.03447183333333, "rental_uris": {"ios": "https://dc.lft.to/lastmile_qr_scan", "android": "https://dc.lft.to/lastmile_qr_scan"}}, {"name": "db4fffea1c5fd1439a3ca4407a9cf58e", "fusion_lat": 0.0, "type": "electric_scooter", "lat": 38.9096095, "is_reserved": 0, "is_disabled": 0, "fusion_lon": 0.0, "bike_id": "db4fffea1c5fd1439a3ca4407a9cf58e", "lon": -77.0412345, "rental_uris": {"ios": "https://dc.lft.to/lastmile_qr_scan", "android": "https://dc.lft.to/lastmile_qr_scan"}}, {"name": "2237ffac99d08db7ff9815a3ef9db479", "fusion_lat": 0.0, "type": "electric_scooter", "lat": 38.925780333333336, "is_reserved": 0, "is_disabled": 0, "fusion_lon": 0.0, "bike_id": "2237ffac99d08db7ff9815a3ef9db479", "lon": -77.02847266666667, "rental_uris": {"ios": "https://dc.lft.to/lastmile_qr_scan", "android": "https://dc.lft.to/lastmile_qr_scan"}}, {"name": "d5ae3014e5d8f0e9066be4eb5ac8d17e", "fusion_lat": 0.0, "type": "electric_scooter", "lat": 38.912021, "is_reserved": 0, "is_disabled": 0, "fusion_lon": 0.0, "bike_id": "d5ae3014e5d8f0e9066be4eb5ac8d17e", "lon": -77.000856, "rental_uris": {"ios": "https://dc.lft.to/lastmile_qr_scan", "android": "https://dc.lft.to/lastmile_qr_scan"}}, {"name": "7c10d68756f2104725cb1c26db9a671d", "fusion_lat": 0.0, "type": "electric_scooter", "lat": 38.92069016666667, "is_reserved": 0, "is_disabled": 0, "fusion_lon": 0.0, "bike_id": "7c10d68756f2104725cb1c26db9a671d", "lon": -77.02962816666667, "rental_uris": {"ios": "https://dc.lft.to/lastmile_qr_scan", "android": "https://dc.lft.to/lastmile_qr_scan"}}, {"name": "ffc17b519231e9bc0d07e30f7b5194b7", "fusion_lat": 0.0, "type": "electric_scooter", "lat": 38.935406666666665, "is_reserved": 0, "is_disabled": 0, "fusion_lon": 0.0, "bike_id": "ffc17b519231e9bc0d07e30f7b5194b7", "lon": -77.02352833333333, "rental_uris": {"ios": "https://dc.lft.to/lastmile_qr_scan", "android": "https://dc.lft.to/lastmile_qr_scan"}}, {"name": "8774c72dacb0a047d38efa29e48328dc", "fusion_lat": 0.0, "type": "electric_scooter", "lat": 38.9123885, "is_reserved": 0, "is_disabled": 0, "fusion_lon": 0.0, "bike_id": "8774c72dacb0a047d38efa29e48328dc", "lon": -77.00915033333334, "rental_uris": {"ios": "https://dc.lft.to/lastmile_qr_scan", "android": "https://dc.lft.to/lastmile_qr_scan"}}, {"name": "363d479993eca5fee601ed9fdc8fe788", "fusion_lat": 0.0, "type": "electric_scooter", "lat": 38.900309, "is_reserved": 0, "is_disabled": 0, "fusion_lon": 0.0, "bike_id": "363d479993eca5fee601ed9fdc8fe788", "lon": -76.98851633333334, "rental_uris": {"ios": "https://dc.lft.to/lastmile_qr_scan", "android": "https://dc.lft.to/lastmile_qr_scan"}}, {"name": "e31b25d2d969e23b86027e81a8299128", "fusion_lat": 0.0, "type": "electric_scooter", "lat": 38.911541166666666, "is_reserved": 0, "is_disabled": 0, "fusion_lon": 0.0, "bike_id": "e31b25d2d969e23b86027e81a8299128", "lon": -77.04439583333334, "rental_uris": {"ios": "https://dc.lft.to/lastmile_qr_scan", "android": "https://dc.lft.to/lastmile_qr_scan"}}, {"name": "d3f3ff41eccbb50a2569dc531fe3ad0c", "fusion_lat": 0.0, "type": "electric_scooter", "lat": 38.912901, "is_reserved": 0, "is_disabled": 0, "fusion_lon": 0.0, "bike_id": "d3f3ff41eccbb50a2569dc531fe3ad0c", "lon": -77.023925, "rental_uris": {"ios": "https://dc.lft.to/lastmile_qr_scan", "android": "https://dc.lft.to/lastmile_qr_scan"}}, {"name": "563620700ecf760b3f0178db64b9ab2d", "fusion_lat": 0.0, "type": "electric_bike", "lat": 38.96500016666667, "is_reserved": 0, "is_disabled": 0, "fusion_lon": 0.0, "bike_id": "563620700ecf760b3f0178db64b9ab2d", "lon": -77.0649665, "rental_uris": {"ios": "https://dc.lft.to/lastmile_qr_scan", "android": "https://dc.lft.to/lastmile_qr_scan"}}, {"name": "7753170007144f740db112e6c5060c1c", "fusion_lat": 0.0, "type": "electric_scooter", "lat": 38.9013795, "is_reserved": 0, "is_disabled": 0, "fusion_lon": 0.0, "bike_id": "7753170007144f740db112e6c5060c1c", "lon": -77.0448345, "rental_uris": {"ios": "https://dc.lft.to/lastmile_qr_scan", "android": "https://dc.lft.to/lastmile_qr_scan"}}, {"name": "21379347bd5dc5bbccdd123183b9d362", "fusion_lat": 0.0, "type": "electric_scooter", "lat": 38.896098, "is_reserved": 0, "is_disabled": 0, "fusion_lon": 0.0, "bike_id": "21379347bd5dc5bbccdd123183b9d362", "lon": -77.04121666666667, "rental_uris": {"ios": "https://dc.lft.to/lastmile_qr_scan", "android": "https://dc.lft.to/lastmile_qr_scan"}}, {"name": "b85c3fc7065579011b6f3cac5e0d9b32", "fusion_lat": 0.0, "type": "electric_scooter", "lat": 38.902474833333336, "is_reserved": 0, "is_disabled": 0, "fusion_lon": 0.0, "bike_id": "b85c3fc7065579011b6f3cac5e0d9b32", "lon": -77.026944, "rental_uris": {"ios": "https://dc.lft.to/lastmile_qr_scan", "android": "https://dc.lft.to/lastmile_qr_scan"}}, {"name": "0763a6ba062ba3bb561218572234c013", "fusion_lat": 0.0, "type": "electric_bike", "lat": 38.955500666666666, "is_reserved": 0, "is_disabled": 0, "fusion_lon": 0.0, "bike_id": "0763a6ba062ba3bb561218572234c013", "lon": -77.01616883333334, "rental_uris": {"ios": "https://dc.lft.to/lastmile_qr_scan", "android": "https://dc.lft.to/lastmile_qr_scan"}}, {"name": "7cedae63e83cbdfa808961dcd322e561", "fusion_lat": 0.0, "type": "electric_scooter", "lat": 38.8964735, "is_reserved": 0, "is_disabled": 0, "fusion_lon": 0.0, "bike_id": "7cedae63e83cbdfa808961dcd322e561", "lon": -77.04661333333334, "rental_uris": {"ios": "https://dc.lft.to/lastmile_qr_scan", "android": "https://dc.lft.to/lastmile_qr_scan"}}, {"name": "37dc0a3142db39f54141c22920d808a6", "fusion_lat": 0.0, "type": "electric_bike", "lat": 39.105693333333335, "is_reserved": 0, "is_disabled": 0, "fusion_lon": 0.0, "bike_id": "37dc0a3142db39f54141c22920d808a6", "lon": -77.15269283333333, "rental_uris": {"ios": "https://dc.lft.to/lastmile_qr_scan", "android": "https://dc.lft.to/lastmile_qr_scan"}}, {"name": "84f155d71f49ffaf10d6b7eb9cb199e7", "fusion_lat": 0.0, "type": "electric_scooter", "lat": 38.94284566666666, "is_reserved": 0, "is_disabled": 0, "fusion_lon": 0.0, "bike_id": "84f155d71f49ffaf10d6b7eb9cb199e7", "lon": -77.02505966666666, "rental_uris": {"ios": "https://dc.lft.to/lastmile_qr_scan", "android": "https://dc.lft.to/lastmile_qr_scan"}}, {"name": "d03e64e1107c35992bb56308bdfbdce7", "fusion_lat": 0.0, "type": "electric_scooter", "lat": 38.8765055, "is_reserved": 0, "is_disabled": 0, "fusion_lon": 0.0, "bike_id": "d03e64e1107c35992bb56308bdfbdce7", "lon": -76.965028, "rental_uris": {"ios": "https://dc.lft.to/lastmile_qr_scan", "android": "https://dc.lft.to/lastmile_qr_scan"}}, {"name": "7d7d605550eb7b0c440adfbb30c3ad00", "fusion_lat": 0.0, "type": "electric_scooter", "lat": 38.923899, "is_reserved": 0, "is_disabled": 0, "fusion_lon": 0.0, "bike_id": "7d7d605550eb7b0c440adfbb30c3ad00", "lon": -77.03097833333334, "rental_uris": {"ios": "https://dc.lft.to/lastmile_qr_scan", "android": "https://dc.lft.to/lastmile_qr_scan"}}, {"name": "3b216a2ab2b0fadf57509b1169f8a08e", "fusion_lat": 0.0, "type": "electric_scooter", "lat": 38.906643833333334, "is_reserved": 0, "is_disabled": 0, "fusion_lon": 0.0, "bike_id": "3b216a2ab2b0fadf57509b1169f8a08e", "lon": -77.02192433333333, "rental_uris": {"ios": "https://dc.lft.to/lastmile_qr_scan", "android": "https://dc.lft.to/lastmile_qr_scan"}}, {"name": "77baf5bab1d4b7543b905d141f448d0f", "fusion_lat": 0.0, "type": "electric_scooter", "lat": 38.90977133333333, "is_reserved": 0, "is_disabled": 0, "fusion_lon": 0.0, "bike_id": "77baf5bab1d4b7543b905d141f448d0f", "lon": -77.0368045, "rental_uris": {"ios": "https://dc.lft.to/lastmile_qr_scan", "android": "https://dc.lft.to/lastmile_qr_scan"}}, {"name": "4e520eacc19edaa63ebe2e74d4da36b9", "fusion_lat": 0.0, "type": "electric_scooter", "lat": 38.905664333333334, "is_reserved": 0, "is_disabled": 0, "fusion_lon": 0.0, "bike_id": "4e520eacc19edaa63ebe2e74d4da36b9", "lon": -77.02964166666666, "rental_uris": {"ios": "https://dc.lft.to/lastmile_qr_scan", "android": "https://dc.lft.to/lastmile_qr_scan"}}, {"name": "8dfbeb4ac14fd9624c20d8371b370ff2", "fusion_lat": 0.0, "type": "electric_bike", "lat": 38.89572066666667, "is_reserved": 0, "is_disabled": 0, "fusion_lon": 0.0, "bike_id": "8dfbeb4ac14fd9624c20d8371b370ff2", "lon": -77.12740416666666, "rental_uris": {"ios": "https://dc.lft.to/lastmile_qr_scan", "android": "https://dc.lft.to/lastmile_qr_scan"}}, {"name": "50a1d4efab06a5e04181b1870080f2ce", "fusion_lat": 0.0, "type": "electric_scooter", "lat": 38.91183516666667, "is_reserved": 0, "is_disabled": 0, "fusion_lon": 0.0, "bike_id": "50a1d4efab06a5e04181b1870080f2ce", "lon": -77.04498566666666, "rental_uris": {"ios": "https://dc.lft.to/lastmile_qr_scan", "android": "https://dc.lft.to/lastmile_qr_scan"}}, {"name": "539843bb0fcdc17528232153c537220c", "fusion_lat": 0.0, "type": "electric_scooter", "lat": 38.914158, "is_reserved": 0, "is_disabled": 0, "fusion_lon": 0.0, "bike_id": "539843bb0fcdc17528232153c537220c", "lon": -77.00980933333334, "rental_uris": {"ios": "https://dc.lft.to/lastmile_qr_scan", "android": "https://dc.lft.to/lastmile_qr_scan"}}, {"name": "fde5e525d52b9132c655b22f9091c7c4", "fusion_lat": 0.0, "type": "electric_scooter", "lat": 38.9154695, "is_reserved": 0, "is_disabled": 0, "fusion_lon": 0.0, "bike_id": "fde5e525d52b9132c655b22f9091c7c4", "lon": -77.03852533333334, "rental_uris": {"ios": "https://dc.lft.to/lastmile_qr_scan", "android": "https://dc.lft.to/lastmile_qr_scan"}}, {"name": "037b62065c4dd7a6aa2b09f31cfc0bda", "fusion_lat": 0.0, "type": "electric_bike", "lat": 38.86874666666667, "is_reserved": 0, "is_disabled": 0, "fusion_lon": 0.0, "bike_id": "037b62065c4dd7a6aa2b09f31cfc0bda", "lon": -76.916666, "rental_uris": {"ios": "https://dc.lft.to/lastmile_qr_scan", "android": "https://dc.lft.to/lastmile_qr_scan"}}, {"name": "26aff10a9b122a3845f41238482234f6", "fusion_lat": 0.0, "type": "electric_bike", "lat": 38.89653666666667, "is_reserved": 0, "is_disabled": 0, "fusion_lon": 0.0, "bike_id": "26aff10a9b122a3845f41238482234f6", "lon": -77.10456083333334, "rental_uris": {"ios": "https://dc.lft.to/lastmile_qr_scan", "android": "https://dc.lft.to/lastmile_qr_scan"}}, {"name": "d7248ee406bf0631d0a396b243ac6365", "fusion_lat": 0.0, "type": "electric_scooter", "lat": 38.903975, "is_reserved": 0, "is_disabled": 0, "fusion_lon": 0.0, "bike_id": "d7248ee406bf0631d0a396b243ac6365", "lon": -76.98944733333333, "rental_uris": {"ios": "https://dc.lft.to/lastmile_qr_scan", "android": "https://dc.lft.to/lastmile_qr_scan"}}, {"name": "950f7f07153f4ff4505318c3dcb9d4a0", "fusion_lat": 0.0, "type": "electric_scooter", "lat": 38.9187875, "is_reserved": 0, "is_disabled": 0, "fusion_lon": 0.0, "bike_id": "950f7f07153f4ff4505318c3dcb9d4a0", "lon": -77.04442833333333, "rental_uris": {"ios": "https://dc.lft.to/lastmile_qr_scan", "android": "https://dc.lft.to/lastmile_qr_scan"}}, {"name": "4a99f2cd86cd029ca786d08120530084", "fusion_lat": 0.0, "type": "electric_scooter", "lat": 38.90867183333334, "is_reserved": 0, "is_disabled": 0, "fusion_lon": 0.0, "bike_id": "4a99f2cd86cd029ca786d08120530084", "lon": -76.99963916666667, "rental_uris": {"ios": "https://dc.lft.to/lastmile_qr_scan", "android": "https://dc.lft.to/lastmile_qr_scan"}}, {"name": "9e7891d97fcbc109b8361df10f808b3d", "fusion_lat": 0.0, "type": "electric_scooter", "lat": 38.87896116666667, "is_reserved": 0, "is_disabled": 0, "fusion_lon": 0.0, "bike_id": "9e7891d97fcbc109b8361df10f808b3d", "lon": -77.02280216666666, "rental_uris": {"ios": "https://dc.lft.to/lastmile_qr_scan", "android": "https://dc.lft.to/lastmile_qr_scan"}}, {"name": "2f34268186578de62f72bbf90c22c260", "fusion_lat": 0.0, "type": "electric_scooter", "lat": 38.918217166666665, "is_reserved": 0, "is_disabled": 0, "fusion_lon": 0.0, "bike_id": "2f34268186578de62f72bbf90c22c260", "lon": -77.03458066666667, "rental_uris": {"ios": "https://dc.lft.to/lastmile_qr_scan", "android": "https://dc.lft.to/lastmile_qr_scan"}}, {"name": "794d8775267e948351af8f84d7dca18c", "fusion_lat": 0.0, "type": "electric_scooter", "lat": 38.89687633333333, "is_reserved": 0, "is_disabled": 0, "fusion_lon": 0.0, "bike_id": "794d8775267e948351af8f84d7dca18c", "lon": -76.94725866666667, "rental_uris": {"ios": "https://dc.lft.to/lastmile_qr_scan", "android": "https://dc.lft.to/lastmile_qr_scan"}}, {"name": "1b234758d93f8b2bfa792bde9cc1c039", "fusion_lat": 0.0, "type": "electric_scooter", "lat": 38.91010833333333, "is_reserved": 0, "is_disabled": 0, "fusion_lon": 0.0, "bike_id": "1b234758d93f8b2bfa792bde9cc1c039", "lon": -76.99670916666666, "rental_uris": {"ios": "https://dc.lft.to/lastmile_qr_scan", "android": "https://dc.lft.to/lastmile_qr_scan"}}, {"name": "0f6d04e7763b44c2bcd9719952e17f0e", "fusion_lat": 0.0, "type": "electric_scooter", "lat": 38.927449, "is_reserved": 0, "is_disabled": 0, "fusion_lon": 0.0, "bike_id": "0f6d04e7763b44c2bcd9719952e17f0e", "lon": -77.02495833333333, "rental_uris": {"ios": "https://dc.lft.to/lastmile_qr_scan", "android": "https://dc.lft.to/lastmile_qr_scan"}}, {"name": "590a4fdde37c002e7ba1f518b2391652", "fusion_lat": 0.0, "type": "electric_scooter", "lat": 38.928803, "is_reserved": 0, "is_disabled": 0, "fusion_lon": 0.0, "bike_id": "590a4fdde37c002e7ba1f518b2391652", "lon": -77.02713433333334, "rental_uris": {"ios": "https://dc.lft.to/lastmile_qr_scan", "android": "https://dc.lft.to/lastmile_qr_scan"}}, {"name": "a9c5bb7d5ace81da5db26ad68b228ae1", "fusion_lat": 0.0, "type": "electric_scooter", "lat": 38.91181866666667, "is_reserved": 0, "is_disabled": 0, "fusion_lon": 0.0, "bike_id": "a9c5bb7d5ace81da5db26ad68b228ae1", "lon": -77.03189216666667, "rental_uris": {"ios": "https://dc.lft.to/lastmile_qr_scan", "android": "https://dc.lft.to/lastmile_qr_scan"}}, {"name": "308fead93fde4fdbd2dadfb90d1aebd0", "fusion_lat": 0.0, "type": "electric_scooter", "lat": 38.902859666666664, "is_reserved": 0, "is_disabled": 0, "fusion_lon": 0.0, "bike_id": "308fead93fde4fdbd2dadfb90d1aebd0", "lon": -77.039896, "rental_uris": {"ios": "https://dc.lft.to/lastmile_qr_scan", "android": "https://dc.lft.to/lastmile_qr_scan"}}, {"name": "c9c5a1f33ba1b48638ee6a77f96ae61d", "fusion_lat": 0.0, "type": "electric_scooter", "lat": 38.89966583333333, "is_reserved": 0, "is_disabled": 0, "fusion_lon": 0.0, "bike_id": "c9c5a1f33ba1b48638ee6a77f96ae61d", "lon": -77.05296933333334, "rental_uris": {"ios": "https://dc.lft.to/lastmile_qr_scan", "android": "https://dc.lft.to/lastmile_qr_scan"}}, {"name": "a63997b55056f2311694758dc862a7aa", "fusion_lat": 0.0, "type": "electric_scooter", "lat": 38.8784295, "is_reserved": 0, "is_disabled": 0, "fusion_lon": 0.0, "bike_id": "a63997b55056f2311694758dc862a7aa", "lon": -76.98621033333333, "rental_uris": {"ios": "https://dc.lft.to/lastmile_qr_scan", "android": "https://dc.lft.to/lastmile_qr_scan"}}, {"name": "863a4ac56c1fd030d6df1ce3a372ceaf", "fusion_lat": 0.0, "type": "electric_scooter", "lat": 38.9274015, "is_reserved": 0, "is_disabled": 0, "fusion_lon": 0.0, "bike_id": "863a4ac56c1fd030d6df1ce3a372ceaf", "lon": -77.02253916666666, "rental_uris": {"ios": "https://dc.lft.to/lastmile_qr_scan", "android": "https://dc.lft.to/lastmile_qr_scan"}}, {"name": "96a27e643251ba6001ec997e7f3b5c01", "fusion_lat": 0.0, "type": "electric_scooter", "lat": 38.90722783333333, "is_reserved": 0, "is_disabled": 0, "fusion_lon": 0.0, "bike_id": "96a27e643251ba6001ec997e7f3b5c01", "lon": -77.03200933333333, "rental_uris": {"ios": "https://dc.lft.to/lastmile_qr_scan", "android": "https://dc.lft.to/lastmile_qr_scan"}}, {"name": "1e6358cc2c587ed85b66f172ffaebcce", "fusion_lat": 0.0, "type": "electric_bike", "lat": 38.927995, "is_reserved": 0, "is_disabled": 0, "fusion_lon": 0.0, "bike_id": "1e6358cc2c587ed85b66f172ffaebcce", "lon": -77.03254183333334, "rental_uris": {"ios": "https://dc.lft.to/lastmile_qr_scan", "android": "https://dc.lft.to/lastmile_qr_scan"}}, {"name": "9348758db976a6068d2dd0a0252a384d", "fusion_lat": 0.0, "type": "electric_scooter", "lat": 38.883262333333334, "is_reserved": 0, "is_disabled": 0, "fusion_lon": 0.0, "bike_id": "9348758db976a6068d2dd0a0252a384d", "lon": -77.01546683333333, "rental_uris": {"ios": "https://dc.lft.to/lastmile_qr_scan", "android": "https://dc.lft.to/lastmile_qr_scan"}}, {"name": "70b662ecf915dbfe52d8ecfa83d71aac", "fusion_lat": 0.0, "type": "electric_scooter", "lat": 38.93914016666667, "is_reserved": 0, "is_disabled": 0, "fusion_lon": 0.0, "bike_id": "70b662ecf915dbfe52d8ecfa83d71aac", "lon": -77.06041333333333, "rental_uris": {"ios": "https://dc.lft.to/lastmile_qr_scan", "android": "https://dc.lft.to/lastmile_qr_scan"}}, {"name": "f542ec37dffbff224c3977cba5338c86", "fusion_lat": 0.0, "type": "electric_scooter", "lat": 38.90135983333333, "is_reserved": 0, "is_disabled": 0, "fusion_lon": 0.0, "bike_id": "f542ec37dffbff224c3977cba5338c86", "lon": -77.04714666666666, "rental_uris": {"ios": "https://dc.lft.to/lastmile_qr_scan", "android": "https://dc.lft.to/lastmile_qr_scan"}}, {"name": "9420e70d887e1ba5e0660ab0eef9a69d", "fusion_lat": 0.0, "type": "electric_scooter", "lat": 38.90559566666667, "is_reserved": 0, "is_disabled": 0, "fusion_lon": 0.0, "bike_id": "9420e70d887e1ba5e0660ab0eef9a69d", "lon": -77.00574966666667, "rental_uris": {"ios": "https://dc.lft.to/lastmile_qr_scan", "android": "https://dc.lft.to/lastmile_qr_scan"}}, {"name": "d817aec1a14dbad1da056d4b504db786", "fusion_lat": 0.0, "type": "electric_bike", "lat": 38.85794116666667, "is_reserved": 0, "is_disabled": 0, "fusion_lon": 0.0, "bike_id": "d817aec1a14dbad1da056d4b504db786", "lon": -76.98743783333333, "rental_uris": {"ios": "https://dc.lft.to/lastmile_qr_scan", "android": "https://dc.lft.to/lastmile_qr_scan"}}, {"name": "ac10bcf97bd4ae09030e3092e2d6aeb1", "fusion_lat": 0.0, "type": "electric_bike", "lat": 38.959592, "is_reserved": 0, "is_disabled": 0, "fusion_lon": 0.0, "bike_id": "ac10bcf97bd4ae09030e3092e2d6aeb1", "lon": -77.1009285, "rental_uris": {"ios": "https://dc.lft.to/lastmile_qr_scan", "android": "https://dc.lft.to/lastmile_qr_scan"}}, {"name": "427115dcb1bb18609bfde1bff6e66bb6", "fusion_lat": 0.0, "type": "electric_scooter", "lat": 38.907124, "is_reserved": 0, "is_disabled": 0, "fusion_lon": 0.0, "bike_id": "427115dcb1bb18609bfde1bff6e66bb6", "lon": -77.0054135, "rental_uris": {"ios": "https://dc.lft.to/lastmile_qr_scan", "android": "https://dc.lft.to/lastmile_qr_scan"}}, {"name": "d10cd72e5f57dd2e91c1284b0df87b29", "fusion_lat": 0.0, "type": "electric_scooter", "lat": 38.93546466666667, "is_reserved": 0, "is_disabled": 0, "fusion_lon": 0.0, "bike_id": "d10cd72e5f57dd2e91c1284b0df87b29", "lon": -77.0342935, "rental_uris": {"ios": "https://dc.lft.to/lastmile_qr_scan", "android": "https://dc.lft.to/lastmile_qr_scan"}}, {"name": "05c497fc66fd733bbbea06dd65a352e1", "fusion_lat": 0.0, "type": "electric_scooter", "lat": 38.91696733333333, "is_reserved": 0, "is_disabled": 0, "fusion_lon": 0.0, "bike_id": "05c497fc66fd733bbbea06dd65a352e1", "lon": -77.031643, "rental_uris": {"ios": "https://dc.lft.to/lastmile_qr_scan", "android": "https://dc.lft.to/lastmile_qr_scan"}}, {"name": "b4ccaac656a2afba04deb6950244efd9", "fusion_lat": 0.0, "type": "electric_scooter", "lat": 38.90462766666667, "is_reserved": 0, "is_disabled": 0, "fusion_lon": 0.0, "bike_id": "b4ccaac656a2afba04deb6950244efd9", "lon": -77.01426233333333, "rental_uris": {"ios": "https://dc.lft.to/lastmile_qr_scan", "android": "https://dc.lft.to/lastmile_qr_scan"}}, {"name": "67392a9b3028bed0a62d8dad53b3a14d", "fusion_lat": 0.0, "type": "electric_scooter", "lat": 38.91854766666667, "is_reserved": 0, "is_disabled": 0, "fusion_lon": 0.0, "bike_id": "67392a9b3028bed0a62d8dad53b3a14d", "lon": -77.02607866666666, "rental_uris": {"ios": "https://dc.lft.to/lastmile_qr_scan", "android": "https://dc.lft.to/lastmile_qr_scan"}}, {"name": "d9324c6b202a7398dc4409f173bffd92", "fusion_lat": 0.0, "type": "electric_scooter", "lat": 38.918863333333334, "is_reserved": 0, "is_disabled": 0, "fusion_lon": 0.0, "bike_id": "d9324c6b202a7398dc4409f173bffd92", "lon": -77.03766083333333, "rental_uris": {"ios": "https://dc.lft.to/lastmile_qr_scan", "android": "https://dc.lft.to/lastmile_qr_scan"}}, {"name": "705ba962f97ad0807fe3d2add302fc6e", "fusion_lat": 0.0, "type": "electric_scooter", "lat": 38.9060635, "is_reserved": 0, "is_disabled": 0, "fusion_lon": 0.0, "bike_id": "705ba962f97ad0807fe3d2add302fc6e", "lon": -77.041679, "rental_uris": {"ios": "https://dc.lft.to/lastmile_qr_scan", "android": "https://dc.lft.to/lastmile_qr_scan"}}, {"name": "9e3620242cceb8c672597f18f746523d", "fusion_lat": 0.0, "type": "electric_scooter", "lat": 38.900395833333334, "is_reserved": 0, "is_disabled": 0, "fusion_lon": 0.0, "bike_id": "9e3620242cceb8c672597f18f746523d", "lon": -76.998302, "rental_uris": {"ios": "https://dc.lft.to/lastmile_qr_scan", "android": "https://dc.lft.to/lastmile_qr_scan"}}, {"name": "4a2abf339a67806ebde8bb45f0e9d5f7", "fusion_lat": 0.0, "type": "electric_scooter", "lat": 38.921655666666666, "is_reserved": 0, "is_disabled": 0, "fusion_lon": 0.0, "bike_id": "4a2abf339a67806ebde8bb45f0e9d5f7", "lon": -77.04014716666667, "rental_uris": {"ios": "https://dc.lft.to/lastmile_qr_scan", "android": "https://dc.lft.to/lastmile_qr_scan"}}, {"name": "7a2a58d86ffd6603e7ecad6df833e695", "fusion_lat": 0.0, "type": "electric_scooter", "lat": 38.91491883333333, "is_reserved": 0, "is_disabled": 0, "fusion_lon": 0.0, "bike_id": "7a2a58d86ffd6603e7ecad6df833e695", "lon": -77.04064616666666, "rental_uris": {"ios": "https://dc.lft.to/lastmile_qr_scan", "android": "https://dc.lft.to/lastmile_qr_scan"}}, {"name": "ce543b5266d5671665870c181049dcfe", "fusion_lat": 0.0, "type": "electric_bike", "lat": 38.929972166666666, "is_reserved": 0, "is_disabled": 0, "fusion_lon": 0.0, "bike_id": "ce543b5266d5671665870c181049dcfe", "lon": -77.01967383333333, "rental_uris": {"ios": "https://dc.lft.to/lastmile_qr_scan", "android": "https://dc.lft.to/lastmile_qr_scan"}}, {"name": "94f0931d7e4fa52901d900c2800ecaad", "fusion_lat": 0.0, "type": "electric_scooter", "lat": 38.90881683333333, "is_reserved": 0, "is_disabled": 0, "fusion_lon": 0.0, "bike_id": "94f0931d7e4fa52901d900c2800ecaad", "lon": -77.018936, "rental_uris": {"ios": "https://dc.lft.to/lastmile_qr_scan", "android": "https://dc.lft.to/lastmile_qr_scan"}}, {"name": "5a550d81aae657e2e08c101ebe9c5050", "fusion_lat": 0.0, "type": "electric_scooter", "lat": 38.90417516666667, "is_reserved": 0, "is_disabled": 0, "fusion_lon": 0.0, "bike_id": "5a550d81aae657e2e08c101ebe9c5050", "lon": -76.97887316666667, "rental_uris": {"ios": "https://dc.lft.to/lastmile_qr_scan", "android": "https://dc.lft.to/lastmile_qr_scan"}}, {"name": "25e7e495b8161d1a9ec791ec0e64ab6d", "fusion_lat": 0.0, "type": "electric_bike", "lat": 38.92984783333333, "is_reserved": 0, "is_disabled": 0, "fusion_lon": 0.0, "bike_id": "25e7e495b8161d1a9ec791ec0e64ab6d", "lon": -77.019824, "rental_uris": {"ios": "https://dc.lft.to/lastmile_qr_scan", "android": "https://dc.lft.to/lastmile_qr_scan"}}, {"name": "745fdea2e0e1cd2b3fa55b047627556b", "fusion_lat": 0.0, "type": "electric_scooter", "lat": 38.9113005, "is_reserved": 0, "is_disabled": 0, "fusion_lon": 0.0, "bike_id": "745fdea2e0e1cd2b3fa55b047627556b", "lon": -77.0239235, "rental_uris": {"ios": "https://dc.lft.to/lastmile_qr_scan", "android": "https://dc.lft.to/lastmile_qr_scan"}}, {"name": "31982ad5cd5dd12e8ed7bab7d5f9004f", "fusion_lat": 0.0, "type": "electric_scooter", "lat": 38.921318166666666, "is_reserved": 0, "is_disabled": 0, "fusion_lon": 0.0, "bike_id": "31982ad5cd5dd12e8ed7bab7d5f9004f", "lon": -77.0420965, "rental_uris": {"ios": "https://dc.lft.to/lastmile_qr_scan", "android": "https://dc.lft.to/lastmile_qr_scan"}}, {"name": "5cb6aabeb10eff75a3921db63a1a00c2", "fusion_lat": 0.0, "type": "electric_scooter", "lat": 38.907855, "is_reserved": 0, "is_disabled": 0, "fusion_lon": 0.0, "bike_id": "5cb6aabeb10eff75a3921db63a1a00c2", "lon": -77.03557333333333, "rental_uris": {"ios": "https://dc.lft.to/lastmile_qr_scan", "android": "https://dc.lft.to/lastmile_qr_scan"}}, {"name": "0efc4dd9c6c81cf7af1a3c320f3b2595", "fusion_lat": 0.0, "type": "electric_scooter", "lat": 38.901146833333335, "is_reserved": 0, "is_disabled": 0, "fusion_lon": 0.0, "bike_id": "0efc4dd9c6c81cf7af1a3c320f3b2595", "lon": -77.02194966666667, "rental_uris": {"ios": "https://dc.lft.to/lastmile_qr_scan", "android": "https://dc.lft.to/lastmile_qr_scan"}}, {"name": "46610a1115e39d341abd9e8824716988", "fusion_lat": 0.0, "type": "electric_scooter", "lat": 38.902606, "is_reserved": 0, "is_disabled": 0, "fusion_lon": 0.0, "bike_id": "46610a1115e39d341abd9e8824716988", "lon": -76.99609966666667, "rental_uris": {"ios": "https://dc.lft.to/lastmile_qr_scan", "android": "https://dc.lft.to/lastmile_qr_scan"}}, {"name": "6e7f55253c1317fe5ebfc3b55df28b3b", "fusion_lat": 0.0, "type": "electric_scooter", "lat": 38.937674333333334, "is_reserved": 0, "is_disabled": 0, "fusion_lon": 0.0, "bike_id": "6e7f55253c1317fe5ebfc3b55df28b3b", "lon": -77.03283266666666, "rental_uris": {"ios": "https://dc.lft.to/lastmile_qr_scan", "android": "https://dc.lft.to/lastmile_qr_scan"}}, {"name": "4556a6a9eab9d569cbadc0d00468874f", "fusion_lat": 0.0, "type": "electric_scooter", "lat": 38.926468, "is_reserved": 0, "is_disabled": 0, "fusion_lon": 0.0, "bike_id": "4556a6a9eab9d569cbadc0d00468874f", "lon": -77.03700766666667, "rental_uris": {"ios": "https://dc.lft.to/lastmile_qr_scan", "android": "https://dc.lft.to/lastmile_qr_scan"}}, {"name": "551de349a9ca86b53a483e5d671e0406", "fusion_lat": 0.0, "type": "electric_scooter", "lat": 38.90959566666667, "is_reserved": 0, "is_disabled": 0, "fusion_lon": 0.0, "bike_id": "551de349a9ca86b53a483e5d671e0406", "lon": -77.03380683333333, "rental_uris": {"ios": "https://dc.lft.to/lastmile_qr_scan", "android": "https://dc.lft.to/lastmile_qr_scan"}}, {"name": "7e7254726c219122dac2511ce563a582", "fusion_lat": 0.0, "type": "electric_scooter", "lat": 38.88920933333333, "is_reserved": 0, "is_disabled": 0, "fusion_lon": 0.0, "bike_id": "7e7254726c219122dac2511ce563a582", "lon": -76.95373516666666, "rental_uris": {"ios": "https://dc.lft.to/lastmile_qr_scan", "android": "https://dc.lft.to/lastmile_qr_scan"}}, {"name": "eb251a780e88405917a53669b3e9ff29", "fusion_lat": 0.0, "type": "electric_scooter", "lat": 38.9289525, "is_reserved": 0, "is_disabled": 0, "fusion_lon": 0.0, "bike_id": "eb251a780e88405917a53669b3e9ff29", "lon": -77.02313533333333, "rental_uris": {"ios": "https://dc.lft.to/lastmile_qr_scan", "android": "https://dc.lft.to/lastmile_qr_scan"}}, {"name": "7de44b9183c1a5f231a273af1e48140e", "fusion_lat": 0.0, "type": "electric_scooter", "lat": 38.90573583333333, "is_reserved": 0, "is_disabled": 0, "fusion_lon": 0.0, "bike_id": "7de44b9183c1a5f231a273af1e48140e", "lon": -77.02757316666667, "rental_uris": {"ios": "https://dc.lft.to/lastmile_qr_scan", "android": "https://dc.lft.to/lastmile_qr_scan"}}, {"name": "404399c2482737c04be4d90e214535e7", "fusion_lat": 0.0, "type": "electric_scooter", "lat": 38.912007333333335, "is_reserved": 0, "is_disabled": 0, "fusion_lon": 0.0, "bike_id": "404399c2482737c04be4d90e214535e7", "lon": -77.04450366666667, "rental_uris": {"ios": "https://dc.lft.to/lastmile_qr_scan", "android": "https://dc.lft.to/lastmile_qr_scan"}}, {"name": "5f091f7282333b4ebc507a76c936c168", "fusion_lat": 0.0, "type": "electric_scooter", "lat": 38.89201883333333, "is_reserved": 0, "is_disabled": 0, "fusion_lon": 0.0, "bike_id": "5f091f7282333b4ebc507a76c936c168", "lon": -77.0024025, "rental_uris": {"ios": "https://dc.lft.to/lastmile_qr_scan", "android": "https://dc.lft.to/lastmile_qr_scan"}}, {"name": "348b60f7d8c225c7dca2ee4a78fade74", "fusion_lat": 0.0, "type": "electric_scooter", "lat": 38.934772, "is_reserved": 0, "is_disabled": 0, "fusion_lon": 0.0, "bike_id": "348b60f7d8c225c7dca2ee4a78fade74", "lon": -77.0284445, "rental_uris": {"ios": "https://dc.lft.to/lastmile_qr_scan", "android": "https://dc.lft.to/lastmile_qr_scan"}}, {"name": "f2bb001314cd3b2755db0ef95c2f38a4", "fusion_lat": 0.0, "type": "electric_scooter", "lat": 38.903829333333334, "is_reserved": 0, "is_disabled": 0, "fusion_lon": 0.0, "bike_id": "f2bb001314cd3b2755db0ef95c2f38a4", "lon": -77.045058, "rental_uris": {"ios": "https://dc.lft.to/lastmile_qr_scan", "android": "https://dc.lft.to/lastmile_qr_scan"}}, {"name": "29ca484bdb720566dfff0818921a1476", "fusion_lat": 0.0, "type": "electric_scooter", "lat": 38.901398, "is_reserved": 0, "is_disabled": 0, "fusion_lon": 0.0, "bike_id": "29ca484bdb720566dfff0818921a1476", "lon": -77.0471355, "rental_uris": {"ios": "https://dc.lft.to/lastmile_qr_scan", "android": "https://dc.lft.to/lastmile_qr_scan"}}, {"name": "a04ed129920acfe89a4acfd41d976141", "fusion_lat": 0.0, "type": "electric_scooter", "lat": 38.94204033333333, "is_reserved": 0, "is_disabled": 0, "fusion_lon": 0.0, "bike_id": "a04ed129920acfe89a4acfd41d976141", "lon": -77.02513266666666, "rental_uris": {"ios": "https://dc.lft.to/lastmile_qr_scan", "android": "https://dc.lft.to/lastmile_qr_scan"}}, {"name": "416decc963e64c2d439948a22f2ffe47", "fusion_lat": 0.0, "type": "electric_scooter", "lat": 38.86158533333333, "is_reserved": 0, "is_disabled": 0, "fusion_lon": 0.0, "bike_id": "416decc963e64c2d439948a22f2ffe47", "lon": -76.989299, "rental_uris": {"ios": "https://dc.lft.to/lastmile_qr_scan", "android": "https://dc.lft.to/lastmile_qr_scan"}}, {"name": "56b2145586b557b275a14458b425cb9e", "fusion_lat": 0.0, "type": "electric_bike", "lat": 38.83156066666667, "is_reserved": 0, "is_disabled": 0, "fusion_lon": 0.0, "bike_id": "56b2145586b557b275a14458b425cb9e", "lon": -77.11316283333333, "rental_uris": {"ios": "https://dc.lft.to/lastmile_qr_scan", "android": "https://dc.lft.to/lastmile_qr_scan"}}, {"name": "4965c7b32d8b3d3bfb66d9525c112a80", "fusion_lat": 0.0, "type": "electric_scooter", "lat": 38.907281833333336, "is_reserved": 0, "is_disabled": 0, "fusion_lon": 0.0, "bike_id": "4965c7b32d8b3d3bfb66d9525c112a80", "lon": -77.04335533333334, "rental_uris": {"ios": "https://dc.lft.to/lastmile_qr_scan", "android": "https://dc.lft.to/lastmile_qr_scan"}}, {"name": "5763f5dd42d1baf47ddfbd67e28a9629", "fusion_lat": 0.0, "type": "electric_bike", "lat": 38.92437233333333, "is_reserved": 0, "is_disabled": 0, "fusion_lon": 0.0, "bike_id": "5763f5dd42d1baf47ddfbd67e28a9629", "lon": -76.99134, "rental_uris": {"ios": "https://dc.lft.to/lastmile_qr_scan", "android": "https://dc.lft.to/lastmile_qr_scan"}}, {"name": "02d89c96e82ebe798a5fa48572a0938b", "fusion_lat": 0.0, "type": "electric_scooter", "lat": 38.921330833333336, "is_reserved": 0, "is_disabled": 0, "fusion_lon": 0.0, "bike_id": "02d89c96e82ebe798a5fa48572a0938b", "lon": -77.02543733333333, "rental_uris": {"ios": "https://dc.lft.to/lastmile_qr_scan", "android": "https://dc.lft.to/lastmile_qr_scan"}}, {"name": "cd9200b83d7fc306c6075a7e6e867f99", "fusion_lat": 0.0, "type": "electric_scooter", "lat": 38.90847866666667, "is_reserved": 0, "is_disabled": 0, "fusion_lon": 0.0, "bike_id": "cd9200b83d7fc306c6075a7e6e867f99", "lon": -77.00289833333333, "rental_uris": {"ios": "https://dc.lft.to/lastmile_qr_scan", "android": "https://dc.lft.to/lastmile_qr_scan"}}, {"name": "6ac137d3f50cc55656ad5e52143496a6", "fusion_lat": 0.0, "type": "electric_bike", "lat": 38.842749, "is_reserved": 0, "is_disabled": 0, "fusion_lon": 0.0, "bike_id": "6ac137d3f50cc55656ad5e52143496a6", "lon": -76.98842666666667, "rental_uris": {"ios": "https://dc.lft.to/lastmile_qr_scan", "android": "https://dc.lft.to/lastmile_qr_scan"}}, {"name": "934bf4316d2711e9dc518252b4102701", "fusion_lat": 0.0, "type": "electric_bike", "lat": 38.960140333333335, "is_reserved": 0, "is_disabled": 0, "fusion_lon": 0.0, "bike_id": "934bf4316d2711e9dc518252b4102701", "lon": -76.9986125, "rental_uris": {"ios": "https://dc.lft.to/lastmile_qr_scan", "android": "https://dc.lft.to/lastmile_qr_scan"}}, {"name": "0a2109c44cdb2013e02ca82939b82a87", "fusion_lat": 0.0, "type": "electric_scooter", "lat": 38.928261166666665, "is_reserved": 0, "is_disabled": 0, "fusion_lon": 0.0, "bike_id": "0a2109c44cdb2013e02ca82939b82a87", "lon": -77.02257133333333, "rental_uris": {"ios": "https://dc.lft.to/lastmile_qr_scan", "android": "https://dc.lft.to/lastmile_qr_scan"}}, {"name": "06d7cf6269f8e9885765c523e9233711", "fusion_lat": 0.0, "type": "electric_bike", "lat": 38.88120516666667, "is_reserved": 0, "is_disabled": 0, "fusion_lon": 0.0, "bike_id": "06d7cf6269f8e9885765c523e9233711", "lon": -77.0134605, "rental_uris": {"ios": "https://dc.lft.to/lastmile_qr_scan", "android": "https://dc.lft.to/lastmile_qr_scan"}}, {"name": "ff4ade45ce6c1539166ed9894b607499", "fusion_lat": 0.0, "type": "electric_scooter", "lat": 38.917131166666664, "is_reserved": 0, "is_disabled": 0, "fusion_lon": 0.0, "bike_id": "ff4ade45ce6c1539166ed9894b607499", "lon": -77.02795716666667, "rental_uris": {"ios": "https://dc.lft.to/lastmile_qr_scan", "android": "https://dc.lft.to/lastmile_qr_scan"}}, {"name": "3324152a295e6eefd9292b17aaae2685", "fusion_lat": 0.0, "type": "electric_scooter", "lat": 38.90063833333333, "is_reserved": 0, "is_disabled": 0, "fusion_lon": 0.0, "bike_id": "3324152a295e6eefd9292b17aaae2685", "lon": -77.00218183333334, "rental_uris": {"ios": "https://dc.lft.to/lastmile_qr_scan", "android": "https://dc.lft.to/lastmile_qr_scan"}}, {"name": "2432f67b84e42fa0b99056d263bcba01", "fusion_lat": 0.0, "type": "electric_scooter", "lat": 38.92583183333333, "is_reserved": 0, "is_disabled": 0, "fusion_lon": 0.0, "bike_id": "2432f67b84e42fa0b99056d263bcba01", "lon": -76.99486733333333, "rental_uris": {"ios": "https://dc.lft.to/lastmile_qr_scan", "android": "https://dc.lft.to/lastmile_qr_scan"}}, {"name": "0a694c636e67e0a8f389148e16c2732f", "fusion_lat": 0.0, "type": "electric_scooter", "lat": 38.903508, "is_reserved": 0, "is_disabled": 0, "fusion_lon": 0.0, "bike_id": "0a694c636e67e0a8f389148e16c2732f", "lon": -77.02613833333334, "rental_uris": {"ios": "https://dc.lft.to/lastmile_qr_scan", "android": "https://dc.lft.to/lastmile_qr_scan"}}, {"name": "76c6680ecd85d0652662833a0d471393", "fusion_lat": 0.0, "type": "electric_scooter", "lat": 38.924415, "is_reserved": 0, "is_disabled": 0, "fusion_lon": 0.0, "bike_id": "76c6680ecd85d0652662833a0d471393", "lon": -77.04139566666667, "rental_uris": {"ios": "https://dc.lft.to/lastmile_qr_scan", "android": "https://dc.lft.to/lastmile_qr_scan"}}, {"name": "ffe1809c9e3755fe8d6aaaf41c66d9e9", "fusion_lat": 0.0, "type": "electric_scooter", "lat": 38.930753833333334, "is_reserved": 0, "is_disabled": 0, "fusion_lon": 0.0, "bike_id": "ffe1809c9e3755fe8d6aaaf41c66d9e9", "lon": -77.03397433333333, "rental_uris": {"ios": "https://dc.lft.to/lastmile_qr_scan", "android": "https://dc.lft.to/lastmile_qr_scan"}}, {"name": "6a3304e469f709547311254f0855e3c0", "fusion_lat": 0.0, "type": "electric_bike", "lat": 38.813365166666664, "is_reserved": 0, "is_disabled": 0, "fusion_lon": 0.0, "bike_id": "6a3304e469f709547311254f0855e3c0", "lon": -77.05086983333334, "rental_uris": {"ios": "https://dc.lft.to/lastmile_qr_scan", "android": "https://dc.lft.to/lastmile_qr_scan"}}, {"name": "b937a68ac742c71879e715cbac35e2a6", "fusion_lat": 0.0, "type": "electric_bike", "lat": 38.91859083333333, "is_reserved": 0, "is_disabled": 0, "fusion_lon": 0.0, "bike_id": "b937a68ac742c71879e715cbac35e2a6", "lon": -77.03536033333333, "rental_uris": {"ios": "https://dc.lft.to/lastmile_qr_scan", "android": "https://dc.lft.to/lastmile_qr_scan"}}, {"name": "d60131892b5a6167d699fe13a1143ac1", "fusion_lat": 0.0, "type": "electric_scooter", "lat": 38.91568633333333, "is_reserved": 0, "is_disabled": 0, "fusion_lon": 0.0, "bike_id": "d60131892b5a6167d699fe13a1143ac1", "lon": -77.02238516666667, "rental_uris": {"ios": "https://dc.lft.to/lastmile_qr_scan", "android": "https://dc.lft.to/lastmile_qr_scan"}}, {"name": "ae4dfd1ff71a6fdce8cbbfb54901809c", "fusion_lat": 0.0, "type": "electric_bike", "lat": 38.9655525, "is_reserved": 0, "is_disabled": 0, "fusion_lon": 0.0, "bike_id": "ae4dfd1ff71a6fdce8cbbfb54901809c", "lon": -77.03515066666667, "rental_uris": {"ios": "https://dc.lft.to/lastmile_qr_scan", "android": "https://dc.lft.to/lastmile_qr_scan"}}, {"name": "9d9f1c2fe2c3882b912a14cb69f2fd50", "fusion_lat": 0.0, "type": "electric_scooter", "lat": 38.93277833333333, "is_reserved": 0, "is_disabled": 0, "fusion_lon": 0.0, "bike_id": "9d9f1c2fe2c3882b912a14cb69f2fd50", "lon": -77.03501783333333, "rental_uris": {"ios": "https://dc.lft.to/lastmile_qr_scan", "android": "https://dc.lft.to/lastmile_qr_scan"}}, {"name": "30bb9f7e40a073beeea48f33939cad2b", "fusion_lat": 0.0, "type": "electric_scooter", "lat": 38.870158, "is_reserved": 0, "is_disabled": 0, "fusion_lon": 0.0, "bike_id": "30bb9f7e40a073beeea48f33939cad2b", "lon": -77.012291, "rental_uris": {"ios": "https://dc.lft.to/lastmile_qr_scan", "android": "https://dc.lft.to/lastmile_qr_scan"}}, {"name": "89878b2445ecb354e30e500edd7fadef", "fusion_lat": 0.0, "type": "electric_scooter", "lat": 38.8909375, "is_reserved": 0, "is_disabled": 0, "fusion_lon": 0.0, "bike_id": "89878b2445ecb354e30e500edd7fadef", "lon": -76.99789483333333, "rental_uris": {"ios": "https://dc.lft.to/lastmile_qr_scan", "android": "https://dc.lft.to/lastmile_qr_scan"}}, {"name": "d0bc0383cd9e2647d35027d16fe3b3e4", "fusion_lat": 0.0, "type": "electric_scooter", "lat": 38.914251666666665, "is_reserved": 0, "is_disabled": 0, "fusion_lon": 0.0, "bike_id": "d0bc0383cd9e2647d35027d16fe3b3e4", "lon": -77.041641, "rental_uris": {"ios": "https://dc.lft.to/lastmile_qr_scan", "android": "https://dc.lft.to/lastmile_qr_scan"}}, {"name": "86c78dbbe1b9025190414157c5dc0b15", "fusion_lat": 0.0, "type": "electric_scooter", "lat": 38.910411833333335, "is_reserved": 0, "is_disabled": 0, "fusion_lon": 0.0, "bike_id": "86c78dbbe1b9025190414157c5dc0b15", "lon": -77.02813216666667, "rental_uris": {"ios": "https://dc.lft.to/lastmile_qr_scan", "android": "https://dc.lft.to/lastmile_qr_scan"}}, {"name": "98c675e42cf9ff0421a004712253a435", "fusion_lat": 0.0, "type": "electric_scooter", "lat": 38.86524466666667, "is_reserved": 0, "is_disabled": 0, "fusion_lon": 0.0, "bike_id": "98c675e42cf9ff0421a004712253a435", "lon": -76.98561466666666, "rental_uris": {"ios": "https://dc.lft.to/lastmile_qr_scan", "android": "https://dc.lft.to/lastmile_qr_scan"}}, {"name": "2e4469ee75df315716174e5f7f8403f2", "fusion_lat": 0.0, "type": "electric_scooter", "lat": 38.90068183333333, "is_reserved": 0, "is_disabled": 0, "fusion_lon": 0.0, "bike_id": "2e4469ee75df315716174e5f7f8403f2", "lon": -77.045103, "rental_uris": {"ios": "https://dc.lft.to/lastmile_qr_scan", "android": "https://dc.lft.to/lastmile_qr_scan"}}, {"name": "8fb882686366b943381f39ee1a1128e6", "fusion_lat": 0.0, "type": "electric_scooter", "lat": 38.9096695, "is_reserved": 0, "is_disabled": 0, "fusion_lon": 0.0, "bike_id": "8fb882686366b943381f39ee1a1128e6", "lon": -77.0462475, "rental_uris": {"ios": "https://dc.lft.to/lastmile_qr_scan", "android": "https://dc.lft.to/lastmile_qr_scan"}}, {"name": "b0d679622501489c302a890634f8c708", "fusion_lat": 0.0, "type": "electric_bike", "lat": 38.827920666666664, "is_reserved": 0, "is_disabled": 0, "fusion_lon": 0.0, "bike_id": "b0d679622501489c302a890634f8c708", "lon": -77.0089955, "rental_uris": {"ios": "https://dc.lft.to/lastmile_qr_scan", "android": "https://dc.lft.to/lastmile_qr_scan"}}, {"name": "7fd9ccc9f7baf6e8e5ef470369b043ff", "fusion_lat": 0.0, "type": "electric_bike", "lat": 39.0945955, "is_reserved": 0, "is_disabled": 0, "fusion_lon": 0.0, "bike_id": "7fd9ccc9f7baf6e8e5ef470369b043ff", "lon": -77.149969, "rental_uris": {"ios": "https://dc.lft.to/lastmile_qr_scan", "android": "https://dc.lft.to/lastmile_qr_scan"}}, {"name": "b3c83df992c5db2a39f5d2e784bb59d4", "fusion_lat": 0.0, "type": "electric_scooter", "lat": 38.9237775, "is_reserved": 0, "is_disabled": 0, "fusion_lon": 0.0, "bike_id": "b3c83df992c5db2a39f5d2e784bb59d4", "lon": -77.02989983333333, "rental_uris": {"ios": "https://dc.lft.to/lastmile_qr_scan", "android": "https://dc.lft.to/lastmile_qr_scan"}}, {"name": "d9b789055dbea70fb03dee4034d2b3cf", "fusion_lat": 0.0, "type": "electric_scooter", "lat": 38.91818583333333, "is_reserved": 0, "is_disabled": 0, "fusion_lon": 0.0, "bike_id": "d9b789055dbea70fb03dee4034d2b3cf", "lon": -77.02801933333333, "rental_uris": {"ios": "https://dc.lft.to/lastmile_qr_scan", "android": "https://dc.lft.to/lastmile_qr_scan"}}, {"name": "6b1c21dbd90baa3dd95690f9468d0985", "fusion_lat": 0.0, "type": "electric_scooter", "lat": 38.899155, "is_reserved": 0, "is_disabled": 0, "fusion_lon": 0.0, "bike_id": "6b1c21dbd90baa3dd95690f9468d0985", "lon": -76.933638, "rental_uris": {"ios": "https://dc.lft.to/lastmile_qr_scan", "android": "https://dc.lft.to/lastmile_qr_scan"}}, {"name": "1ad98bc43c43a219aca0d8697e177f8d", "fusion_lat": 0.0, "type": "electric_scooter", "lat": 38.901212666666666, "is_reserved": 0, "is_disabled": 0, "fusion_lon": 0.0, "bike_id": "1ad98bc43c43a219aca0d8697e177f8d", "lon": -77.027193, "rental_uris": {"ios": "https://dc.lft.to/lastmile_qr_scan", "android": "https://dc.lft.to/lastmile_qr_scan"}}, {"name": "97ce9313ea7e6d681eb3822186dcbd9d", "fusion_lat": 0.0, "type": "electric_scooter", "lat": 38.912622166666665, "is_reserved": 0, "is_disabled": 0, "fusion_lon": 0.0, "bike_id": "97ce9313ea7e6d681eb3822186dcbd9d", "lon": -77.03807, "rental_uris": {"ios": "https://dc.lft.to/lastmile_qr_scan", "android": "https://dc.lft.to/lastmile_qr_scan"}}, {"name": "5eff30e3da47e68385cd62389903f5d8", "fusion_lat": 0.0, "type": "electric_bike", "lat": 38.8753435, "is_reserved": 0, "is_disabled": 0, "fusion_lon": 0.0, "bike_id": "5eff30e3da47e68385cd62389903f5d8", "lon": -77.19911166666667, "rental_uris": {"ios": "https://dc.lft.to/lastmile_qr_scan", "android": "https://dc.lft.to/lastmile_qr_scan"}}, {"name": "a43eb95e7ca376b6f59695529e59d923", "fusion_lat": 0.0, "type": "electric_scooter", "lat": 38.89221416666667, "is_reserved": 0, "is_disabled": 0, "fusion_lon": 0.0, "bike_id": "a43eb95e7ca376b6f59695529e59d923", "lon": -77.02228433333333, "rental_uris": {"ios": "https://dc.lft.to/lastmile_qr_scan", "android": "https://dc.lft.to/lastmile_qr_scan"}}, {"name": "319d38c0d7ba20e0fc2392a665b45ffd", "fusion_lat": 0.0, "type": "electric_scooter", "lat": 38.927241, "is_reserved": 0, "is_disabled": 0, "fusion_lon": 0.0, "bike_id": "319d38c0d7ba20e0fc2392a665b45ffd", "lon": -77.00571333333333, "rental_uris": {"ios": "https://dc.lft.to/lastmile_qr_scan", "android": "https://dc.lft.to/lastmile_qr_scan"}}, {"name": "b594e7438252402acf1e1206aa54ec9f", "fusion_lat": 0.0, "type": "electric_bike", "lat": 38.8961785, "is_reserved": 0, "is_disabled": 0, "fusion_lon": 0.0, "bike_id": "b594e7438252402acf1e1206aa54ec9f", "lon": -76.99287066666666, "rental_uris": {"ios": "https://dc.lft.to/lastmile_qr_scan", "android": "https://dc.lft.to/lastmile_qr_scan"}}, {"name": "f2117c476109d8129d5ba93ca7a1abcc", "fusion_lat": 0.0, "type": "electric_bike", "lat": 38.858000833333335, "is_reserved": 0, "is_disabled": 0, "fusion_lon": 0.0, "bike_id": "f2117c476109d8129d5ba93ca7a1abcc", "lon": -77.09962133333333, "rental_uris": {"ios": "https://dc.lft.to/lastmile_qr_scan", "android": "https://dc.lft.to/lastmile_qr_scan"}}, {"name": "4f5d67a0763288be61fc966df099fd5c", "fusion_lat": 0.0, "type": "electric_scooter", "lat": 38.8949605, "is_reserved": 0, "is_disabled": 0, "fusion_lon": 0.0, "bike_id": "4f5d67a0763288be61fc966df099fd5c", "lon": -77.02365633333334, "rental_uris": {"ios": "https://dc.lft.to/lastmile_qr_scan", "android": "https://dc.lft.to/lastmile_qr_scan"}}, {"name": "6becf144cef63190c26a2539ba1fdeb6", "fusion_lat": 0.0, "type": "electric_bike", "lat": 38.827336, "is_reserved": 0, "is_disabled": 0, "fusion_lon": 0.0, "bike_id": "6becf144cef63190c26a2539ba1fdeb6", "lon": -77.0086135, "rental_uris": {"ios": "https://dc.lft.to/lastmile_qr_scan", "android": "https://dc.lft.to/lastmile_qr_scan"}}, {"name": "30ed4fa6f169fab46c3fad6c330b8358", "fusion_lat": 0.0, "type": "electric_scooter", "lat": 38.89274366666667, "is_reserved": 0, "is_disabled": 0, "fusion_lon": 0.0, "bike_id": "30ed4fa6f169fab46c3fad6c330b8358", "lon": -77.050217, "rental_uris": {"ios": "https://dc.lft.to/lastmile_qr_scan", "android": "https://dc.lft.to/lastmile_qr_scan"}}, {"name": "4f8c38950456518f5c2e8f2183133875", "fusion_lat": 0.0, "type": "electric_scooter", "lat": 38.905638833333335, "is_reserved": 0, "is_disabled": 0, "fusion_lon": 0.0, "bike_id": "4f8c38950456518f5c2e8f2183133875", "lon": -77.005832, "rental_uris": {"ios": "https://dc.lft.to/lastmile_qr_scan", "android": "https://dc.lft.to/lastmile_qr_scan"}}, {"name": "97e62fd60e1e4c2aa1fd02447fcf7c87", "fusion_lat": 0.0, "type": "electric_scooter", "lat": 38.910615166666666, "is_reserved": 0, "is_disabled": 0, "fusion_lon": 0.0, "bike_id": "97e62fd60e1e4c2aa1fd02447fcf7c87", "lon": -77.04583266666667, "rental_uris": {"ios": "https://dc.lft.to/lastmile_qr_scan", "android": "https://dc.lft.to/lastmile_qr_scan"}}, {"name": "b0ceef867a0d209233cf1e03d4b4d2c9", "fusion_lat": 0.0, "type": "electric_scooter", "lat": 38.89888, "is_reserved": 0, "is_disabled": 0, "fusion_lon": 0.0, "bike_id": "b0ceef867a0d209233cf1e03d4b4d2c9", "lon": -77.03290333333334, "rental_uris": {"ios": "https://dc.lft.to/lastmile_qr_scan", "android": "https://dc.lft.to/lastmile_qr_scan"}}, {"name": "f5ddd9c92046f053fb02960f29e1ffa7", "fusion_lat": 0.0, "type": "electric_scooter", "lat": 38.929863166666664, "is_reserved": 0, "is_disabled": 0, "fusion_lon": 0.0, "bike_id": "f5ddd9c92046f053fb02960f29e1ffa7", "lon": -77.02610483333333, "rental_uris": {"ios": "https://dc.lft.to/lastmile_qr_scan", "android": "https://dc.lft.to/lastmile_qr_scan"}}, {"name": "74bf9cbec4605f7b688e92c36b2bb43e", "fusion_lat": 0.0, "type": "electric_scooter", "lat": 38.8651225, "is_reserved": 0, "is_disabled": 0, "fusion_lon": 0.0, "bike_id": "74bf9cbec4605f7b688e92c36b2bb43e", "lon": -76.99007483333334, "rental_uris": {"ios": "https://dc.lft.to/lastmile_qr_scan", "android": "https://dc.lft.to/lastmile_qr_scan"}}, {"name": "3e3ff4587d5115cb76be8d4ca83fbb8e", "fusion_lat": 0.0, "type": "electric_scooter", "lat": 38.9284845, "is_reserved": 0, "is_disabled": 0, "fusion_lon": 0.0, "bike_id": "3e3ff4587d5115cb76be8d4ca83fbb8e", "lon": -77.05424733333334, "rental_uris": {"ios": "https://dc.lft.to/lastmile_qr_scan", "android": "https://dc.lft.to/lastmile_qr_scan"}}, {"name": "130e7d9ecaacda0653df0514c17932c5", "fusion_lat": 0.0, "type": "electric_scooter", "lat": 38.94204166666667, "is_reserved": 0, "is_disabled": 0, "fusion_lon": 0.0, "bike_id": "130e7d9ecaacda0653df0514c17932c5", "lon": -77.02513633333334, "rental_uris": {"ios": "https://dc.lft.to/lastmile_qr_scan", "android": "https://dc.lft.to/lastmile_qr_scan"}}, {"name": "c0ac0375ba0a34262155b593f9e724bb", "fusion_lat": 0.0, "type": "electric_scooter", "lat": 38.900257, "is_reserved": 0, "is_disabled": 0, "fusion_lon": 0.0, "bike_id": "c0ac0375ba0a34262155b593f9e724bb", "lon": -76.99756366666666, "rental_uris": {"ios": "https://dc.lft.to/lastmile_qr_scan", "android": "https://dc.lft.to/lastmile_qr_scan"}}, {"name": "b510e2e2c26556cdc08df428cd568c99", "fusion_lat": 0.0, "type": "electric_scooter", "lat": 38.905542, "is_reserved": 0, "is_disabled": 0, "fusion_lon": 0.0, "bike_id": "b510e2e2c26556cdc08df428cd568c99", "lon": -76.99128733333333, "rental_uris": {"ios": "https://dc.lft.to/lastmile_qr_scan", "android": "https://dc.lft.to/lastmile_qr_scan"}}, {"name": "187d9aa6c168cf5a8f919d35a85354e1", "fusion_lat": 0.0, "type": "electric_scooter", "lat": 38.901080666666665, "is_reserved": 0, "is_disabled": 0, "fusion_lon": 0.0, "bike_id": "187d9aa6c168cf5a8f919d35a85354e1", "lon": -77.03173316666667, "rental_uris": {"ios": "https://dc.lft.to/lastmile_qr_scan", "android": "https://dc.lft.to/lastmile_qr_scan"}}, {"name": "a7f09c4a2d238c518a768fbf732441fa", "fusion_lat": 0.0, "type": "electric_scooter", "lat": 38.91897866666667, "is_reserved": 0, "is_disabled": 0, "fusion_lon": 0.0, "bike_id": "a7f09c4a2d238c518a768fbf732441fa", "lon": -77.05290133333334, "rental_uris": {"ios": "https://dc.lft.to/lastmile_qr_scan", "android": "https://dc.lft.to/lastmile_qr_scan"}}, {"name": "a456b19f5c662d8929924243794ebb10", "fusion_lat": 0.0, "type": "electric_scooter", "lat": 38.92073583333333, "is_reserved": 0, "is_disabled": 0, "fusion_lon": 0.0, "bike_id": "a456b19f5c662d8929924243794ebb10", "lon": -77.02395383333334, "rental_uris": {"ios": "https://dc.lft.to/lastmile_qr_scan", "android": "https://dc.lft.to/lastmile_qr_scan"}}, {"name": "834cef9b216684d877c4f30c1d138a11", "fusion_lat": 0.0, "type": "electric_scooter", "lat": 38.932377333333335, "is_reserved": 0, "is_disabled": 0, "fusion_lon": 0.0, "bike_id": "834cef9b216684d877c4f30c1d138a11", "lon": -77.03097633333333, "rental_uris": {"ios": "https://dc.lft.to/lastmile_qr_scan", "android": "https://dc.lft.to/lastmile_qr_scan"}}, {"name": "75dd8d9aea41de0a6c1a5911d219759c", "fusion_lat": 0.0, "type": "electric_scooter", "lat": 38.895152, "is_reserved": 0, "is_disabled": 0, "fusion_lon": 0.0, "bike_id": "75dd8d9aea41de0a6c1a5911d219759c", "lon": -76.94890183333334, "rental_uris": {"ios": "https://dc.lft.to/lastmile_qr_scan", "android": "https://dc.lft.to/lastmile_qr_scan"}}, {"name": "67b12a49e32c53fdaef75818180c6b52", "fusion_lat": 0.0, "type": "electric_scooter", "lat": 38.89834966666667, "is_reserved": 0, "is_disabled": 0, "fusion_lon": 0.0, "bike_id": "67b12a49e32c53fdaef75818180c6b52", "lon": -76.94643066666667, "rental_uris": {"ios": "https://dc.lft.to/lastmile_qr_scan", "android": "https://dc.lft.to/lastmile_qr_scan"}}, {"name": "a5d37ca0d3392c625b5e16c2d443d9a2", "fusion_lat": 0.0, "type": "electric_scooter", "lat": 38.90143066666667, "is_reserved": 0, "is_disabled": 0, "fusion_lon": 0.0, "bike_id": "a5d37ca0d3392c625b5e16c2d443d9a2", "lon": -77.00071066666666, "rental_uris": {"ios": "https://dc.lft.to/lastmile_qr_scan", "android": "https://dc.lft.to/lastmile_qr_scan"}}, {"name": "518c85a1657d07d5dbc0e5a66dc9716c", "fusion_lat": 0.0, "type": "electric_scooter", "lat": 38.880283666666664, "is_reserved": 0, "is_disabled": 0, "fusion_lon": 0.0, "bike_id": "518c85a1657d07d5dbc0e5a66dc9716c", "lon": -76.93131483333333, "rental_uris": {"ios": "https://dc.lft.to/lastmile_qr_scan", "android": "https://dc.lft.to/lastmile_qr_scan"}}, {"name": "68e9867cadee158dfb765836b895e2db", "fusion_lat": 0.0, "type": "electric_bike", "lat": 38.86633, "is_reserved": 0, "is_disabled": 0, "fusion_lon": 0.0, "bike_id": "68e9867cadee158dfb765836b895e2db", "lon": -77.010471, "rental_uris": {"ios": "https://dc.lft.to/lastmile_qr_scan", "android": "https://dc.lft.to/lastmile_qr_scan"}}, {"name": "e14ac486fdd4c643f0979a27922ffe35", "fusion_lat": 0.0, "type": "electric_scooter", "lat": 38.9072185, "is_reserved": 0, "is_disabled": 0, "fusion_lon": 0.0, "bike_id": "e14ac486fdd4c643f0979a27922ffe35", "lon": -77.02895783333334, "rental_uris": {"ios": "https://dc.lft.to/lastmile_qr_scan", "android": "https://dc.lft.to/lastmile_qr_scan"}}, {"name": "de7e149fde320d5c573c9ef16543b6e6", "fusion_lat": 0.0, "type": "electric_scooter", "lat": 38.913993, "is_reserved": 0, "is_disabled": 0, "fusion_lon": 0.0, "bike_id": "de7e149fde320d5c573c9ef16543b6e6", "lon": -77.00841766666667, "rental_uris": {"ios": "https://dc.lft.to/lastmile_qr_scan", "android": "https://dc.lft.to/lastmile_qr_scan"}}, {"name": "e1307b1030841a6ccc037ae06b457a0f", "fusion_lat": 0.0, "type": "electric_scooter", "lat": 38.91576533333333, "is_reserved": 0, "is_disabled": 0, "fusion_lon": 0.0, "bike_id": "e1307b1030841a6ccc037ae06b457a0f", "lon": -77.05221016666667, "rental_uris": {"ios": "https://dc.lft.to/lastmile_qr_scan", "android": "https://dc.lft.to/lastmile_qr_scan"}}, {"name": "87589620acd310cd0e1200a66c49ae2b", "fusion_lat": 0.0, "type": "electric_scooter", "lat": 38.90020716666667, "is_reserved": 0, "is_disabled": 0, "fusion_lon": 0.0, "bike_id": "87589620acd310cd0e1200a66c49ae2b", "lon": -76.99565533333333, "rental_uris": {"ios": "https://dc.lft.to/lastmile_qr_scan", "android": "https://dc.lft.to/lastmile_qr_scan"}}, {"name": "3940329e0cae3bc2822fa90353e56fce", "fusion_lat": 0.0, "type": "electric_scooter", "lat": 38.91767866666667, "is_reserved": 0, "is_disabled": 0, "fusion_lon": 0.0, "bike_id": "3940329e0cae3bc2822fa90353e56fce", "lon": -77.01490233333334, "rental_uris": {"ios": "https://dc.lft.to/lastmile_qr_scan", "android": "https://dc.lft.to/lastmile_qr_scan"}}, {"name": "d70b074639f9a4a2964906b8c7f400e8", "fusion_lat": 0.0, "type": "electric_bike", "lat": 38.8676275, "is_reserved": 0, "is_disabled": 0, "fusion_lon": 0.0, "bike_id": "d70b074639f9a4a2964906b8c7f400e8", "lon": -76.94534833333333, "rental_uris": {"ios": "https://dc.lft.to/lastmile_qr_scan", "android": "https://dc.lft.to/lastmile_qr_scan"}}, {"name": "e82ebe10b5fadc1841390db1e33ffc7c", "fusion_lat": 0.0, "type": "electric_scooter", "lat": 38.93967516666667, "is_reserved": 0, "is_disabled": 0, "fusion_lon": 0.0, "bike_id": "e82ebe10b5fadc1841390db1e33ffc7c", "lon": -77.03282816666666, "rental_uris": {"ios": "https://dc.lft.to/lastmile_qr_scan", "android": "https://dc.lft.to/lastmile_qr_scan"}}, {"name": "d05cd19fa8447da5f5286b9766495e73", "fusion_lat": 0.0, "type": "electric_scooter", "lat": 38.91127633333333, "is_reserved": 0, "is_disabled": 0, "fusion_lon": 0.0, "bike_id": "d05cd19fa8447da5f5286b9766495e73", "lon": -77.03822016666666, "rental_uris": {"ios": "https://dc.lft.to/lastmile_qr_scan", "android": "https://dc.lft.to/lastmile_qr_scan"}}, {"name": "f91ae761f090a48d29d1b380f4f8832d", "fusion_lat": 0.0, "type": "electric_scooter", "lat": 38.90364116666667, "is_reserved": 0, "is_disabled": 0, "fusion_lon": 0.0, "bike_id": "f91ae761f090a48d29d1b380f4f8832d", "lon": -77.035341, "rental_uris": {"ios": "https://dc.lft.to/lastmile_qr_scan", "android": "https://dc.lft.to/lastmile_qr_scan"}}, {"name": "b1f846bc2d64d24f3a72e385f5dc4c52", "fusion_lat": 0.0, "type": "electric_scooter", "lat": 38.910770666666664, "is_reserved": 0, "is_disabled": 0, "fusion_lon": 0.0, "bike_id": "b1f846bc2d64d24f3a72e385f5dc4c52", "lon": -77.02726533333333, "rental_uris": {"ios": "https://dc.lft.to/lastmile_qr_scan", "android": "https://dc.lft.to/lastmile_qr_scan"}}, {"name": "966ebc00e4ff29b52289c41a49476f44", "fusion_lat": 0.0, "type": "electric_scooter", "lat": 38.9012995, "is_reserved": 0, "is_disabled": 0, "fusion_lon": 0.0, "bike_id": "966ebc00e4ff29b52289c41a49476f44", "lon": -77.04717966666666, "rental_uris": {"ios": "https://dc.lft.to/lastmile_qr_scan", "android": "https://dc.lft.to/lastmile_qr_scan"}}, {"name": "a0cebdf37cdfcbe07610dd7bfb387307", "fusion_lat": 0.0, "type": "electric_scooter", "lat": 38.932063666666664, "is_reserved": 0, "is_disabled": 0, "fusion_lon": 0.0, "bike_id": "a0cebdf37cdfcbe07610dd7bfb387307", "lon": -77.03656383333333, "rental_uris": {"ios": "https://dc.lft.to/lastmile_qr_scan", "android": "https://dc.lft.to/lastmile_qr_scan"}}, {"name": "acd4c4d95bd8047876db963c6aae9097", "fusion_lat": 0.0, "type": "electric_scooter", "lat": 38.91774816666667, "is_reserved": 0, "is_disabled": 0, "fusion_lon": 0.0, "bike_id": "acd4c4d95bd8047876db963c6aae9097", "lon": -77.04748233333333, "rental_uris": {"ios": "https://dc.lft.to/lastmile_qr_scan", "android": "https://dc.lft.to/lastmile_qr_scan"}}, {"name": "8f4662493be1c8e6bad57f691f5972ad", "fusion_lat": 0.0, "type": "electric_bike", "lat": 38.8545045, "is_reserved": 0, "is_disabled": 0, "fusion_lon": 0.0, "bike_id": "8f4662493be1c8e6bad57f691f5972ad", "lon": -77.11681183333333, "rental_uris": {"ios": "https://dc.lft.to/lastmile_qr_scan", "android": "https://dc.lft.to/lastmile_qr_scan"}}, {"name": "16c7f1a93c79be9ae0c3f369c62f9de1", "fusion_lat": 0.0, "type": "electric_bike", "lat": 38.8587645, "is_reserved": 0, "is_disabled": 0, "fusion_lon": 0.0, "bike_id": "16c7f1a93c79be9ae0c3f369c62f9de1", "lon": -77.09552766666667, "rental_uris": {"ios": "https://dc.lft.to/lastmile_qr_scan", "android": "https://dc.lft.to/lastmile_qr_scan"}}, {"name": "1c5fb4dd3c9d7eaf34f6bcb65e601a95", "fusion_lat": 0.0, "type": "electric_scooter", "lat": 38.929143333333336, "is_reserved": 0, "is_disabled": 0, "fusion_lon": 0.0, "bike_id": "1c5fb4dd3c9d7eaf34f6bcb65e601a95", "lon": -77.01954433333333, "rental_uris": {"ios": "https://dc.lft.to/lastmile_qr_scan", "android": "https://dc.lft.to/lastmile_qr_scan"}}, {"name": "0f3bf4097e0c37262b3c859c8f5ea448", "fusion_lat": 0.0, "type": "electric_scooter", "lat": 38.89212366666667, "is_reserved": 0, "is_disabled": 0, "fusion_lon": 0.0, "bike_id": "0f3bf4097e0c37262b3c859c8f5ea448", "lon": -76.99564133333334, "rental_uris": {"ios": "https://dc.lft.to/lastmile_qr_scan", "android": "https://dc.lft.to/lastmile_qr_scan"}}, {"name": "ecbd38029a1c18c5901cfb7c383ba849", "fusion_lat": 0.0, "type": "electric_scooter", "lat": 38.91345316666666, "is_reserved": 0, "is_disabled": 0, "fusion_lon": 0.0, "bike_id": "ecbd38029a1c18c5901cfb7c383ba849", "lon": -77.04271666666666, "rental_uris": {"ios": "https://dc.lft.to/lastmile_qr_scan", "android": "https://dc.lft.to/lastmile_qr_scan"}}, {"name": "47bb7435820c78702192cfffcf92d0db", "fusion_lat": 0.0, "type": "electric_scooter", "lat": 38.90844233333333, "is_reserved": 0, "is_disabled": 0, "fusion_lon": 0.0, "bike_id": "47bb7435820c78702192cfffcf92d0db", "lon": -77.0327715, "rental_uris": {"ios": "https://dc.lft.to/lastmile_qr_scan", "android": "https://dc.lft.to/lastmile_qr_scan"}}, {"name": "0f13cacd81e93c18f9b5baba7d4cf6b0", "fusion_lat": 0.0, "type": "electric_scooter", "lat": 38.92346383333334, "is_reserved": 0, "is_disabled": 0, "fusion_lon": 0.0, "bike_id": "0f13cacd81e93c18f9b5baba7d4cf6b0", "lon": -77.0509645, "rental_uris": {"ios": "https://dc.lft.to/lastmile_qr_scan", "android": "https://dc.lft.to/lastmile_qr_scan"}}, {"name": "1721dbd1dc156ab2a7b83e96113477e4", "fusion_lat": 0.0, "type": "electric_scooter", "lat": 38.89532833333333, "is_reserved": 0, "is_disabled": 0, "fusion_lon": 0.0, "bike_id": "1721dbd1dc156ab2a7b83e96113477e4", "lon": -77.0160695, "rental_uris": {"ios": "https://dc.lft.to/lastmile_qr_scan", "android": "https://dc.lft.to/lastmile_qr_scan"}}, {"name": "e08aa0a97f9a9334314ea67f71df0acc", "fusion_lat": 0.0, "type": "electric_scooter", "lat": 38.906353833333334, "is_reserved": 0, "is_disabled": 0, "fusion_lon": 0.0, "bike_id": "e08aa0a97f9a9334314ea67f71df0acc", "lon": -77.00596116666667, "rental_uris": {"ios": "https://dc.lft.to/lastmile_qr_scan", "android": "https://dc.lft.to/lastmile_qr_scan"}}, {"name": "3732f26d020cda5455e056818a61c8a2", "fusion_lat": 0.0, "type": "electric_bike", "lat": 38.94638033333333, "is_reserved": 0, "is_disabled": 0, "fusion_lon": 0.0, "bike_id": "3732f26d020cda5455e056818a61c8a2", "lon": -77.01846666666667, "rental_uris": {"ios": "https://dc.lft.to/lastmile_qr_scan", "android": "https://dc.lft.to/lastmile_qr_scan"}}, {"name": "2624fac8e31ae5dc3fef4b43ba912820", "fusion_lat": 0.0, "type": "electric_bike", "lat": 38.9309775, "is_reserved": 0, "is_disabled": 0, "fusion_lon": 0.0, "bike_id": "2624fac8e31ae5dc3fef4b43ba912820", "lon": -77.02479666666666, "rental_uris": {"ios": "https://dc.lft.to/lastmile_qr_scan", "android": "https://dc.lft.to/lastmile_qr_scan"}}, {"name": "92e189d52b6e925129ab86afdaa3f879", "fusion_lat": 0.0, "type": "electric_scooter", "lat": 38.91714733333333, "is_reserved": 0, "is_disabled": 0, "fusion_lon": 0.0, "bike_id": "92e189d52b6e925129ab86afdaa3f879", "lon": -77.03555466666667, "rental_uris": {"ios": "https://dc.lft.to/lastmile_qr_scan", "android": "https://dc.lft.to/lastmile_qr_scan"}}, {"name": "44529b6102b9993bc3ce416c916fd2f0", "fusion_lat": 0.0, "type": "electric_scooter", "lat": 38.90392633333333, "is_reserved": 0, "is_disabled": 0, "fusion_lon": 0.0, "bike_id": "44529b6102b9993bc3ce416c916fd2f0", "lon": -77.04211116666667, "rental_uris": {"ios": "https://dc.lft.to/lastmile_qr_scan", "android": "https://dc.lft.to/lastmile_qr_scan"}}, {"name": "416a4cf70fbb5d53f9faef9e09dfe188", "fusion_lat": 0.0, "type": "electric_scooter", "lat": 38.91714983333333, "is_reserved": 0, "is_disabled": 0, "fusion_lon": 0.0, "bike_id": "416a4cf70fbb5d53f9faef9e09dfe188", "lon": -77.02911983333334, "rental_uris": {"ios": "https://dc.lft.to/lastmile_qr_scan", "android": "https://dc.lft.to/lastmile_qr_scan"}}, {"name": "515dc102639957305e083d42f892b059", "fusion_lat": 0.0, "type": "electric_bike", "lat": 39.0334975, "is_reserved": 0, "is_disabled": 0, "fusion_lon": 0.0, "bike_id": "515dc102639957305e083d42f892b059", "lon": -77.04911566666667, "rental_uris": {"ios": "https://dc.lft.to/lastmile_qr_scan", "android": "https://dc.lft.to/lastmile_qr_scan"}}, {"name": "af033d569dbbd75ea0a4733244ff8272", "fusion_lat": 0.0, "type": "electric_scooter", "lat": 38.93317, "is_reserved": 0, "is_disabled": 0, "fusion_lon": 0.0, "bike_id": "af033d569dbbd75ea0a4733244ff8272", "lon": -77.03770716666666, "rental_uris": {"ios": "https://dc.lft.to/lastmile_qr_scan", "android": "https://dc.lft.to/lastmile_qr_scan"}}, {"name": "08395cd1df7e12a72f3bf14fbbb261a9", "fusion_lat": 0.0, "type": "electric_scooter", "lat": 38.915820833333335, "is_reserved": 0, "is_disabled": 0, "fusion_lon": 0.0, "bike_id": "08395cd1df7e12a72f3bf14fbbb261a9", "lon": -77.04686916666667, "rental_uris": {"ios": "https://dc.lft.to/lastmile_qr_scan", "android": "https://dc.lft.to/lastmile_qr_scan"}}, {"name": "68f283f4a01f2c6cfaca760ae30e4513", "fusion_lat": 0.0, "type": "electric_scooter", "lat": 38.9360855, "is_reserved": 0, "is_disabled": 0, "fusion_lon": 0.0, "bike_id": "68f283f4a01f2c6cfaca760ae30e4513", "lon": -77.05860533333333, "rental_uris": {"ios": "https://dc.lft.to/lastmile_qr_scan", "android": "https://dc.lft.to/lastmile_qr_scan"}}, {"name": "25314eb47ffad653da68c13fba762d7e", "fusion_lat": 0.0, "type": "electric_scooter", "lat": 38.916376, "is_reserved": 0, "is_disabled": 0, "fusion_lon": 0.0, "bike_id": "25314eb47ffad653da68c13fba762d7e", "lon": -77.0320975, "rental_uris": {"ios": "https://dc.lft.to/lastmile_qr_scan", "android": "https://dc.lft.to/lastmile_qr_scan"}}, {"name": "b4dd208d823c9720db6dc1d634fe398a", "fusion_lat": 0.0, "type": "electric_scooter", "lat": 38.9100935, "is_reserved": 0, "is_disabled": 0, "fusion_lon": 0.0, "bike_id": "b4dd208d823c9720db6dc1d634fe398a", "lon": -77.04424683333333, "rental_uris": {"ios": "https://dc.lft.to/lastmile_qr_scan", "android": "https://dc.lft.to/lastmile_qr_scan"}}, {"name": "cb648754a44f8a66f07f8ed5944e8a87", "fusion_lat": 0.0, "type": "electric_scooter", "lat": 38.906281, "is_reserved": 0, "is_disabled": 0, "fusion_lon": 0.0, "bike_id": "cb648754a44f8a66f07f8ed5944e8a87", "lon": -77.051376, "rental_uris": {"ios": "https://dc.lft.to/lastmile_qr_scan", "android": "https://dc.lft.to/lastmile_qr_scan"}}, {"name": "df2a77a24d1143473fc66b593eca68eb", "fusion_lat": 0.0, "type": "electric_scooter", "lat": 38.975046666666664, "is_reserved": 0, "is_disabled": 0, "fusion_lon": 0.0, "bike_id": "df2a77a24d1143473fc66b593eca68eb", "lon": -77.016942, "rental_uris": {"ios": "https://dc.lft.to/lastmile_qr_scan", "android": "https://dc.lft.to/lastmile_qr_scan"}}, {"name": "ca19da29f96a035cb8d6e6ceb73f82f9", "fusion_lat": 0.0, "type": "electric_scooter", "lat": 38.943594166666664, "is_reserved": 0, "is_disabled": 0, "fusion_lon": 0.0, "bike_id": "ca19da29f96a035cb8d6e6ceb73f82f9", "lon": -77.061501, "rental_uris": {"ios": "https://dc.lft.to/lastmile_qr_scan", "android": "https://dc.lft.to/lastmile_qr_scan"}}, {"name": "7e0404ea11303e39ed79f9ee365e5fdc", "fusion_lat": 0.0, "type": "electric_scooter", "lat": 38.92369983333333, "is_reserved": 0, "is_disabled": 0, "fusion_lon": 0.0, "bike_id": "7e0404ea11303e39ed79f9ee365e5fdc", "lon": -77.01911683333333, "rental_uris": {"ios": "https://dc.lft.to/lastmile_qr_scan", "android": "https://dc.lft.to/lastmile_qr_scan"}}, {"name": "403180435e1a1ed894692738d5ac69f2", "fusion_lat": 0.0, "type": "electric_scooter", "lat": 38.905080833333336, "is_reserved": 0, "is_disabled": 0, "fusion_lon": 0.0, "bike_id": "403180435e1a1ed894692738d5ac69f2", "lon": -77.0447335, "rental_uris": {"ios": "https://dc.lft.to/lastmile_qr_scan", "android": "https://dc.lft.to/lastmile_qr_scan"}}, {"name": "30dadca9226a563b5a167a0f743a4bae", "fusion_lat": 0.0, "type": "electric_scooter", "lat": 38.93591883333333, "is_reserved": 0, "is_disabled": 0, "fusion_lon": 0.0, "bike_id": "30dadca9226a563b5a167a0f743a4bae", "lon": -76.991196, "rental_uris": {"ios": "https://dc.lft.to/lastmile_qr_scan", "android": "https://dc.lft.to/lastmile_qr_scan"}}, {"name": "a078e2fb1ddf0a9bc1999271b5a291c8", "fusion_lat": 0.0, "type": "electric_scooter", "lat": 38.91821366666667, "is_reserved": 0, "is_disabled": 0, "fusion_lon": 0.0, "bike_id": "a078e2fb1ddf0a9bc1999271b5a291c8", "lon": -77.0269615, "rental_uris": {"ios": "https://dc.lft.to/lastmile_qr_scan", "android": "https://dc.lft.to/lastmile_qr_scan"}}, {"name": "9e44075ed2097a530a0413eb93c74db3", "fusion_lat": 0.0, "type": "electric_scooter", "lat": 38.91269116666667, "is_reserved": 0, "is_disabled": 0, "fusion_lon": 0.0, "bike_id": "9e44075ed2097a530a0413eb93c74db3", "lon": -77.03868516666667, "rental_uris": {"ios": "https://dc.lft.to/lastmile_qr_scan", "android": "https://dc.lft.to/lastmile_qr_scan"}}, {"name": "f01ab1c8c3ac04cbdf0ea2907efb5c98", "fusion_lat": 0.0, "type": "electric_scooter", "lat": 38.917123, "is_reserved": 0, "is_disabled": 0, "fusion_lon": 0.0, "bike_id": "f01ab1c8c3ac04cbdf0ea2907efb5c98", "lon": -77.0246685, "rental_uris": {"ios": "https://dc.lft.to/lastmile_qr_scan", "android": "https://dc.lft.to/lastmile_qr_scan"}}, {"name": "a65d1650b602521bfbf14220abfa49ba", "fusion_lat": 0.0, "type": "electric_scooter", "lat": 38.932549, "is_reserved": 0, "is_disabled": 0, "fusion_lon": 0.0, "bike_id": "a65d1650b602521bfbf14220abfa49ba", "lon": -77.04002083333333, "rental_uris": {"ios": "https://dc.lft.to/lastmile_qr_scan", "android": "https://dc.lft.to/lastmile_qr_scan"}}, {"name": "8f3efb7d448010448303a5fe6698d681", "fusion_lat": 0.0, "type": "electric_scooter", "lat": 38.90699433333333, "is_reserved": 0, "is_disabled": 0, "fusion_lon": 0.0, "bike_id": "8f3efb7d448010448303a5fe6698d681", "lon": -76.9885595, "rental_uris": {"ios": "https://dc.lft.to/lastmile_qr_scan", "android": "https://dc.lft.to/lastmile_qr_scan"}}, {"name": "3a7e587edc0f4e3bdee88c52710e792a", "fusion_lat": 0.0, "type": "electric_scooter", "lat": 38.9269115, "is_reserved": 0, "is_disabled": 0, "fusion_lon": 0.0, "bike_id": "3a7e587edc0f4e3bdee88c52710e792a", "lon": -77.03774716666666, "rental_uris": {"ios": "https://dc.lft.to/lastmile_qr_scan", "android": "https://dc.lft.to/lastmile_qr_scan"}}, {"name": "4a6eb4dc263d9cafd7131bd1c059115c", "fusion_lat": 0.0, "type": "electric_scooter", "lat": 38.91218416666667, "is_reserved": 0, "is_disabled": 0, "fusion_lon": 0.0, "bike_id": "4a6eb4dc263d9cafd7131bd1c059115c", "lon": -77.03841233333333, "rental_uris": {"ios": "https://dc.lft.to/lastmile_qr_scan", "android": "https://dc.lft.to/lastmile_qr_scan"}}, {"name": "516c54e7b6447d449f205e14e479d860", "fusion_lat": 0.0, "type": "electric_scooter", "lat": 38.92240783333333, "is_reserved": 0, "is_disabled": 0, "fusion_lon": 0.0, "bike_id": "516c54e7b6447d449f205e14e479d860", "lon": -77.02223033333334, "rental_uris": {"ios": "https://dc.lft.to/lastmile_qr_scan", "android": "https://dc.lft.to/lastmile_qr_scan"}}, {"name": "707a387fd81593dd70654f1b3bb91b4f", "fusion_lat": 0.0, "type": "electric_scooter", "lat": 38.929742833333336, "is_reserved": 0, "is_disabled": 0, "fusion_lon": 0.0, "bike_id": "707a387fd81593dd70654f1b3bb91b4f", "lon": -77.0052945, "rental_uris": {"ios": "https://dc.lft.to/lastmile_qr_scan", "android": "https://dc.lft.to/lastmile_qr_scan"}}, {"name": "1027fbddb3d692f0df77f6011220a6c9", "fusion_lat": 0.0, "type": "electric_scooter", "lat": 38.903139833333334, "is_reserved": 0, "is_disabled": 0, "fusion_lon": 0.0, "bike_id": "1027fbddb3d692f0df77f6011220a6c9", "lon": -77.036502, "rental_uris": {"ios": "https://dc.lft.to/lastmile_qr_scan", "android": "https://dc.lft.to/lastmile_qr_scan"}}, {"name": "7679d9610c0e2098e05520f5b0f5d106", "fusion_lat": 0.0, "type": "electric_scooter", "lat": 38.910176666666665, "is_reserved": 0, "is_disabled": 0, "fusion_lon": 0.0, "bike_id": "7679d9610c0e2098e05520f5b0f5d106", "lon": -77.04428833333333, "rental_uris": {"ios": "https://dc.lft.to/lastmile_qr_scan", "android": "https://dc.lft.to/lastmile_qr_scan"}}, {"name": "6706126c91520b8825eb96926a4f9ecf", "fusion_lat": 0.0, "type": "electric_scooter", "lat": 38.9012355, "is_reserved": 0, "is_disabled": 0, "fusion_lon": 0.0, "bike_id": "6706126c91520b8825eb96926a4f9ecf", "lon": -77.04984183333333, "rental_uris": {"ios": "https://dc.lft.to/lastmile_qr_scan", "android": "https://dc.lft.to/lastmile_qr_scan"}}, {"name": "262d8fe1229b5ae24fd1e5cc2c7734de", "fusion_lat": 0.0, "type": "electric_scooter", "lat": 38.8989295, "is_reserved": 0, "is_disabled": 0, "fusion_lon": 0.0, "bike_id": "262d8fe1229b5ae24fd1e5cc2c7734de", "lon": -76.9857435, "rental_uris": {"ios": "https://dc.lft.to/lastmile_qr_scan", "android": "https://dc.lft.to/lastmile_qr_scan"}}, {"name": "d66ca7a2dd30c4255d99624248a6f9fd", "fusion_lat": 0.0, "type": "electric_scooter", "lat": 38.89891983333333, "is_reserved": 0, "is_disabled": 0, "fusion_lon": 0.0, "bike_id": "d66ca7a2dd30c4255d99624248a6f9fd", "lon": -76.9329495, "rental_uris": {"ios": "https://dc.lft.to/lastmile_qr_scan", "android": "https://dc.lft.to/lastmile_qr_scan"}}, {"name": "bb5d41454c3f1568867faf4a95338b88", "fusion_lat": 0.0, "type": "electric_scooter", "lat": 38.91098616666667, "is_reserved": 0, "is_disabled": 0, "fusion_lon": 0.0, "bike_id": "bb5d41454c3f1568867faf4a95338b88", "lon": -77.0318775, "rental_uris": {"ios": "https://dc.lft.to/lastmile_qr_scan", "android": "https://dc.lft.to/lastmile_qr_scan"}}, {"name": "b330f40e9bb3fe53a5716b3d101797e0", "fusion_lat": 0.0, "type": "electric_scooter", "lat": 38.91820283333333, "is_reserved": 0, "is_disabled": 0, "fusion_lon": 0.0, "bike_id": "b330f40e9bb3fe53a5716b3d101797e0", "lon": -77.03441383333333, "rental_uris": {"ios": "https://dc.lft.to/lastmile_qr_scan", "android": "https://dc.lft.to/lastmile_qr_scan"}}, {"name": "4083fc5f23e9e3dce5e71249d68e6b1d", "fusion_lat": 0.0, "type": "electric_scooter", "lat": 38.8960615, "is_reserved": 0, "is_disabled": 0, "fusion_lon": 0.0, "bike_id": "4083fc5f23e9e3dce5e71249d68e6b1d", "lon": -77.0111665, "rental_uris": {"ios": "https://dc.lft.to/lastmile_qr_scan", "android": "https://dc.lft.to/lastmile_qr_scan"}}, {"name": "56f92e5783867c58e3a1fc4d17e30efb", "fusion_lat": 0.0, "type": "electric_scooter", "lat": 38.8955515, "is_reserved": 0, "is_disabled": 0, "fusion_lon": 0.0, "bike_id": "56f92e5783867c58e3a1fc4d17e30efb", "lon": -76.9488095, "rental_uris": {"ios": "https://dc.lft.to/lastmile_qr_scan", "android": "https://dc.lft.to/lastmile_qr_scan"}}, {"name": "a73374e4ce86b41ef84542ba0e3c15e6", "fusion_lat": 0.0, "type": "electric_scooter", "lat": 38.9271165, "is_reserved": 0, "is_disabled": 0, "fusion_lon": 0.0, "bike_id": "a73374e4ce86b41ef84542ba0e3c15e6", "lon": -77.03733566666666, "rental_uris": {"ios": "https://dc.lft.to/lastmile_qr_scan", "android": "https://dc.lft.to/lastmile_qr_scan"}}, {"name": "c69962434bab9e2666388d8be0a21686", "fusion_lat": 0.0, "type": "electric_scooter", "lat": 38.898929333333335, "is_reserved": 0, "is_disabled": 0, "fusion_lon": 0.0, "bike_id": "c69962434bab9e2666388d8be0a21686", "lon": -77.01509683333333, "rental_uris": {"ios": "https://dc.lft.to/lastmile_qr_scan", "android": "https://dc.lft.to/lastmile_qr_scan"}}, {"name": "93b3ddeb510b0e3337c8528e0b5cb9fe", "fusion_lat": 0.0, "type": "electric_scooter", "lat": 38.90233216666667, "is_reserved": 0, "is_disabled": 0, "fusion_lon": 0.0, "bike_id": "93b3ddeb510b0e3337c8528e0b5cb9fe", "lon": -77.0534475, "rental_uris": {"ios": "https://dc.lft.to/lastmile_qr_scan", "android": "https://dc.lft.to/lastmile_qr_scan"}}, {"name": "7d668969f2bd3c8abe7e3748a9f3fa27", "fusion_lat": 0.0, "type": "electric_bike", "lat": 38.815140666666665, "is_reserved": 0, "is_disabled": 0, "fusion_lon": 0.0, "bike_id": "7d668969f2bd3c8abe7e3748a9f3fa27", "lon": -77.12655133333334, "rental_uris": {"ios": "https://dc.lft.to/lastmile_qr_scan", "android": "https://dc.lft.to/lastmile_qr_scan"}}, {"name": "8b43711799e938bd8d148feab6b45931", "fusion_lat": 0.0, "type": "electric_scooter", "lat": 38.8621085, "is_reserved": 0, "is_disabled": 0, "fusion_lon": 0.0, "bike_id": "8b43711799e938bd8d148feab6b45931", "lon": -76.9947365, "rental_uris": {"ios": "https://dc.lft.to/lastmile_qr_scan", "android": "https://dc.lft.to/lastmile_qr_scan"}}, {"name": "f536ce591fa2b92d5d2151b32cb8c181", "fusion_lat": 0.0, "type": "electric_scooter", "lat": 38.90967716666667, "is_reserved": 0, "is_disabled": 0, "fusion_lon": 0.0, "bike_id": "f536ce591fa2b92d5d2151b32cb8c181", "lon": -77.02683183333333, "rental_uris": {"ios": "https://dc.lft.to/lastmile_qr_scan", "android": "https://dc.lft.to/lastmile_qr_scan"}}, {"name": "3fed385334a15b514a8cc99ac5eb88d5", "fusion_lat": 0.0, "type": "electric_scooter", "lat": 38.91194333333333, "is_reserved": 0, "is_disabled": 0, "fusion_lon": 0.0, "bike_id": "3fed385334a15b514a8cc99ac5eb88d5", "lon": -77.032584, "rental_uris": {"ios": "https://dc.lft.to/lastmile_qr_scan", "android": "https://dc.lft.to/lastmile_qr_scan"}}, {"name": "174aa8310e4e2ee7aeb46aeeffedc1f3", "fusion_lat": 0.0, "type": "electric_scooter", "lat": 38.9192725, "is_reserved": 0, "is_disabled": 0, "fusion_lon": 0.0, "bike_id": "174aa8310e4e2ee7aeb46aeeffedc1f3", "lon": -77.03106616666666, "rental_uris": {"ios": "https://dc.lft.to/lastmile_qr_scan", "android": "https://dc.lft.to/lastmile_qr_scan"}}, {"name": "8193bc051f8939cc2c55778475cf43c4", "fusion_lat": 0.0, "type": "electric_scooter", "lat": 38.9135225, "is_reserved": 0, "is_disabled": 0, "fusion_lon": 0.0, "bike_id": "8193bc051f8939cc2c55778475cf43c4", "lon": -77.04241016666667, "rental_uris": {"ios": "https://dc.lft.to/lastmile_qr_scan", "android": "https://dc.lft.to/lastmile_qr_scan"}}, {"name": "7c4eea70c5c8a93873923af8ecaeb04e", "fusion_lat": 0.0, "type": "electric_scooter", "lat": 38.907302666666666, "is_reserved": 0, "is_disabled": 0, "fusion_lon": 0.0, "bike_id": "7c4eea70c5c8a93873923af8ecaeb04e", "lon": -77.031993, "rental_uris": {"ios": "https://dc.lft.to/lastmile_qr_scan", "android": "https://dc.lft.to/lastmile_qr_scan"}}, {"name": "6e27ed7a094b1878efc9bc1ae2818b3f", "fusion_lat": 0.0, "type": "electric_scooter", "lat": 38.90022416666667, "is_reserved": 0, "is_disabled": 0, "fusion_lon": 0.0, "bike_id": "6e27ed7a094b1878efc9bc1ae2818b3f", "lon": -77.001893, "rental_uris": {"ios": "https://dc.lft.to/lastmile_qr_scan", "android": "https://dc.lft.to/lastmile_qr_scan"}}, {"name": "e97462e17fc43344f8fab97c0d94c320", "fusion_lat": 0.0, "type": "electric_scooter", "lat": 38.91708766666667, "is_reserved": 0, "is_disabled": 0, "fusion_lon": 0.0, "bike_id": "e97462e17fc43344f8fab97c0d94c320", "lon": -77.012021, "rental_uris": {"ios": "https://dc.lft.to/lastmile_qr_scan", "android": "https://dc.lft.to/lastmile_qr_scan"}}, {"name": "101497094f535384d677fbb6cf6addda", "fusion_lat": 0.0, "type": "electric_bike", "lat": 38.810536666666664, "is_reserved": 0, "is_disabled": 0, "fusion_lon": 0.0, "bike_id": "101497094f535384d677fbb6cf6addda", "lon": -77.08506866666667, "rental_uris": {"ios": "https://dc.lft.to/lastmile_qr_scan", "android": "https://dc.lft.to/lastmile_qr_scan"}}, {"name": "d9327c786fb5e34721c1de3e683b1fc5", "fusion_lat": 0.0, "type": "electric_scooter", "lat": 38.9212995, "is_reserved": 0, "is_disabled": 0, "fusion_lon": 0.0, "bike_id": "d9327c786fb5e34721c1de3e683b1fc5", "lon": -76.99388466666667, "rental_uris": {"ios": "https://dc.lft.to/lastmile_qr_scan", "android": "https://dc.lft.to/lastmile_qr_scan"}}, {"name": "97ae94da017c96b56e15a206c9e91ad6", "fusion_lat": 0.0, "type": "electric_scooter", "lat": 38.9067035, "is_reserved": 0, "is_disabled": 0, "fusion_lon": 0.0, "bike_id": "97ae94da017c96b56e15a206c9e91ad6", "lon": -77.02717466666667, "rental_uris": {"ios": "https://dc.lft.to/lastmile_qr_scan", "android": "https://dc.lft.to/lastmile_qr_scan"}},