{"data": {"bikes": [{"is_reserved": 0, "type": "electric_bike", "fusion_lat": 0.0, "is_disabled": 0, "rental_uris": {"ios": "https://dc.lft.to/lastmile_qr_scan", "android": "https://dc.lft.to/lastmile_qr_scan"}, "bike_id": "abe631373698ff83a5a94d5740f0edcb", "lat": 38.913586333333335, "name": "abe631373698ff83a5a94d5740f0edcb", "lon": -76.9858625, "fusion_lon": 0.0}, {"is_reserved": 0, "type": "electric_scooter", "fusion_lat": 0.0, "is_disabled": 0, "rental_uris": {"ios": "https://dc.lft.to/lastmile_qr_scan", "android": "https://dc.lft.to/lastmile_qr_scan"}, "bike_id": "d1df4777b99e185e9f6b7ff9b0cb5ff9", "lat": 38.894311, "name": "d1df4777b99e185e9f6b7ff9b0cb5ff9", "lon": -77.044675, "fusion_lon": 0.0}, {"is_reserved": 0, "type": "electric_scooter", "fusion_lat": 0.0, "is_disabled": 0, "rental_uris": {"ios": "https://dc.lft.to/lastmile_qr_scan", "android": "https://dc.lft.to/lastmile_qr_scan"}, "bike_id": "dbc547909f7b97f60dd0d49cb16c3d07", "lat": 38.89870466666667, "name": "dbc547909f7b97f60dd0d49cb16c3d07", "lon": -77.04658833333333, "fusion_lon": 0.0}, {"is_reserved": 0, "type": "electric_scooter", "fusion_lat": 0.0, "is_disabled": 0, "rental_uris": {"ios": "https://dc.lft.to/lastmile_qr_scan", "android": "https://dc.lft.to/lastmile_qr_scan"}, "bike_id": "bd1a2d9151f2b5597cf53ceab2572e6a", "lat": 38.9106005, "name": "bd1a2d9151f2b5597cf53ceab2572e6a", "lon": -77.04370216666666, "fusion_lon": 0.0}, {"is_reserved": 0, "type": "electric_bike", "fusion_lat": 0.0, "is_disabled": 0, "rental_uris": {"ios": "https://dc.lft.to/lastmile_qr_scan", "android": "https://dc.lft.to/lastmile_qr_scan"}, "bike_id": "7a76b6f06e60ab67662ff5c021645aa8", "lat": 38.90233166666667, "name": "7a76b6f06e60ab67662ff5c021645aa8", "lon": -77.05913366666667, "fusion_lon": 0.0}, {"is_reserved": 0, "type": "electric_scooter", "fusion_lat": 0.0, "is_disabled": 0, "rental_uris": {"ios": "https://dc.lft.to/lastmile_qr_scan", "android": "https://dc.lft.to/lastmile_qr_scan"}, "bike_id": "0b80e2d4bde4ae30f9b363a6e2d27e1c", "lat": 38.89511916666667, "name": "0b80e2d4bde4ae30f9b363a6e2d27e1c", "lon": -77.02296416666667, "fusion_lon": 0.0}, {"is_reserved": 0, "type": "electric_scooter", "fusion_lat": 0.0, "is_disabled": 0, "rental_uris": {"ios": "https://dc.lft.to/lastmile_qr_scan", "android": "https://dc.lft.to/lastmile_qr_scan"}, "bike_id": "adb846b047f233d5dfed30b213bcd80e", "lat": 38.92795183333333, "name": "adb846b047f233d5dfed30b213bcd80e", "lon": -77.03144816666666, "fusion_lon": 0.0}, {"is_reserved": 0, "type": "electric_scooter", "fusion_lat": 0.0, "is_disabled": 0, "rental_uris": {"ios": "https://dc.lft.to/lastmile_qr_scan", "android": "https://dc.lft.to/lastmile_qr_scan"}, "bike_id": "86b4d32c2de3f058b90b04bfcaace591", "lat": 38.931178333333335, "name": "86b4d32c2de3f058b90b04bfcaace591", "lon": -77.02340983333333, "fusion_lon": 0.0}, {"is_reserved": 0, "type": "electric_scooter", "fusion_lat": 0.0, "is_disabled": 0, "rental_uris": {"ios": "https://dc.lft.to/lastmile_qr_scan", "android": "https://dc.lft.to/lastmile_qr_scan"}, "bike_id": "77b8a89e04e0ceae8e3cdb88643ae645", "lat": 38.871052666666664, "name": "77b8a89e04e0ceae8e3cdb88643ae645", "lon": -77.0120485, "fusion_lon": 0.0}, {"is_reserved": 0, "type": "electric_scooter", "fusion_lat": 0.0, "is_disabled": 0, "rental_uris": {"ios": "https://dc.lft.to/lastmile_qr_scan", "android": "https://dc.lft.to/lastmile_qr_scan"}, "bike_id": "465c77520ce933436e4b4a2620873add", "lat": 38.91913066666667, "name": "465c77520ce933436e4b4a2620873add", "lon": -77.0116425, "fusion_lon": 0.0}, {"is_reserved": 0, "type": "electric_scooter", "fusion_lat": 0.0, "is_disabled": 0, "rental_uris": {"ios": "https://dc.lft.to/lastmile_qr_scan", "android": "https://dc.lft.to/lastmile_qr_scan"}, "bike_id": "5d9356591dc3979bc2a1638db2f33eec", "lat": 38.88613266666667, "name": "5d9356591dc3979bc2a1638db2f33eec", "lon": -77.00330066666666, "fusion_lon": 0.0}, {"is_reserved": 0, "type": "electric_scooter", "fusion_lat": 0.0, "is_disabled": 0, "rental_uris": {"ios": "https://dc.lft.to/lastmile_qr_scan", "android": "https://dc.lft.to/lastmile_qr_scan"}, "bike_id": "96aa87e0b119d1992da6f77daab6d4d9", "lat": 38.8767895, "name": "96aa87e0b119d1992da6f77daab6d4d9", "lon": -77.003417, "fusion_lon": 0.0}, {"is_reserved": 0, "type": "electric_scooter", "fusion_lat": 0.0, "is_disabled": 0, "rental_uris": {"ios": "https://dc.lft.to/lastmile_qr_scan", "android": "https://dc.lft.to/lastmile_qr_scan"}, "bike_id": "be59a3270e980106efa441ca9b7838a1", "lat": 38.939707, "name": "be59a3270e980106efa441ca9b7838a1", "lon": -77.0342955, "fusion_lon": 0.0}, {"is_reserved": 0, "type": "electric_scooter", "fusion_lat": 0.0, "is_disabled": 0, "rental_uris": {"ios": "https://dc.lft.to/lastmile_qr_scan", "android": "https://dc.lft.to/lastmile_qr_scan"}, "bike_id": "580ed7501206407602cba7b392d55133", "lat": 38.920743333333334, "name": "580ed7501206407602cba7b392d55133", "lon": -77.0250925, "fusion_lon": 0.0}, {"is_reserved": 0, "type": "electric_scooter", "fusion_lat": 0.0, "is_disabled": 0, "rental_uris": {"ios": "https://dc.lft.to/lastmile_qr_scan", "android": "https://dc.lft.to/lastmile_qr_scan"}, "bike_id": "6749be12d1a5f9bba5d3bcb4b4738564", "lat": 38.9170435, "name": "6749be12d1a5f9bba5d3bcb4b4738564", "lon": -77.092103, "fusion_lon": 0.0}, {"is_reserved": 0, "type": "electric_scooter", "fusion_lat": 0.0, "is_disabled": 0, "rental_uris": {"ios": "https://dc.lft.to/lastmile_qr_scan", "android": "https://dc.lft.to/lastmile_qr_scan"}, "bike_id": "40eb4aae9a642bca58266d3ccdffecaf", "lat": 38.8973455, "name": "40eb4aae9a642bca58266d3ccdffecaf", "lon": -77.04363416666666, "fusion_lon": 0.0}, {"is_reserved": 0, "type": "electric_scooter", "fusion_lat": 0.0, "is_disabled": 0, "rental_uris": {"ios": "https://dc.lft.to/lastmile_qr_scan", "android": "https://dc.lft.to/lastmile_qr_scan"}, "bike_id": "98038fde9ddfc4bf9fcddb4ed489f20d", "lat": 38.88573916666667, "name": "98038fde9ddfc4bf9fcddb4ed489f20d", "lon": -77.00036416666667, "fusion_lon": 0.0}, {"is_reserved": 0, "type": "electric_bike", "fusion_lat": 0.0, "is_disabled": 0, "rental_uris": {"ios": "https://dc.lft.to/lastmile_qr_scan", "android": "https://dc.lft.to/lastmile_qr_scan"}, "bike_id": "7393946f92589d0919dda691f8f30d93", "lat": 38.920383666666666, "name": "7393946f92589d0919dda691f8f30d93", "lon": -76.9795285, "fusion_lon": 0.0}, {"is_reserved": 0, "type": "electric_scooter", "fusion_lat": 0.0, "is_disabled": 0, "rental_uris": {"ios": "https://dc.lft.to/lastmile_qr_scan", "android": "https://dc.lft.to/lastmile_qr_scan"}, "bike_id": "52841473ef18da75affaf20bca114faf", "lat": 38.91059216666667, "name": "52841473ef18da75affaf20bca114faf", "lon": -77.0265705, "fusion_lon": 0.0}, {"is_reserved": 0, "type": "electric_scooter", "fusion_lat": 0.0, "is_disabled": 0, "rental_uris": {"ios": "https://dc.lft.to/lastmile_qr_scan", "android": "https://dc.lft.to/lastmile_qr_scan"}, "bike_id": "0a8e558d01ebbbe6ed132da2bfb3f639", "lat": 38.90639916666667, "name": "0a8e558d01ebbbe6ed132da2bfb3f639", "lon": -77.04557133333333, "fusion_lon": 0.0}, {"is_reserved": 0, "type": "electric_scooter", "fusion_lat": 0.0, "is_disabled": 0, "rental_uris": {"ios": "https://dc.lft.to/lastmile_qr_scan", "android": "https://dc.lft.to/lastmile_qr_scan"}, "bike_id": "282fca90a5d2f72631195b3129f6a1e4", "lat": 38.87657, "name": "282fca90a5d2f72631195b3129f6a1e4", "lon": -77.00066716666667, "fusion_lon": 0.0}, {"is_reserved": 0, "type": "electric_scooter", "fusion_lat": 0.0, "is_disabled": 0, "rental_uris": {"ios": "https://dc.lft.to/lastmile_qr_scan", "android": "https://dc.lft.to/lastmile_qr_scan"}, "bike_id": "b7460621f29796d97dca0a6019a2e799", "lat": 38.94590016666667, "name": "b7460621f29796d97dca0a6019a2e799", "lon": -77.02034333333333, "fusion_lon": 0.0}, {"is_reserved": 0, "type": "electric_scooter", "fusion_lat": 0.0, "is_disabled": 0, "rental_uris": {"ios": "https://dc.lft.to/lastmile_qr_scan", "android": "https://dc.lft.to/lastmile_qr_scan"}, "bike_id": "bb2f161104bb0acf765507c2c3be8e29", "lat": 38.902165, "name": "bb2f161104bb0acf765507c2c3be8e29", "lon": -77.01592766666667, "fusion_lon": 0.0}, {"is_reserved": 0, "type": "electric_scooter", "fusion_lat": 0.0, "is_disabled": 0, "rental_uris": {"ios": "https://dc.lft.to/lastmile_qr_scan", "android": "https://dc.lft.to/lastmile_qr_scan"}, "bike_id": "44a0d53100b9ae3a4ce0cc21389aae3d", "lat": 38.91991383333333, "name": "44a0d53100b9ae3a4ce0cc21389aae3d", "lon": -76.97298066666667, "fusion_lon": 0.0}, {"is_reserved": 0, "type": "electric_scooter", "fusion_lat": 0.0, "is_disabled": 0, "rental_uris": {"ios": "https://dc.lft.to/lastmile_qr_scan", "android": "https://dc.lft.to/lastmile_qr_scan"}, "bike_id": "6fb836aa09b96ff8b0e5d65d86065cc5", "lat": 38.905680333333336, "name": "6fb836aa09b96ff8b0e5d65d86065cc5", "lon": -77.00559183333333, "fusion_lon": 0.0}, {"is_reserved": 0, "type": "electric_scooter", "fusion_lat": 0.0, "is_disabled": 0, "rental_uris": {"ios": "https://dc.lft.to/lastmile_qr_scan", "android": "https://dc.lft.to/lastmile_qr_scan"}, "bike_id": "68e745e42a5cb1da8a482e1caad18be7", "lat": 38.902119166666665, "name": "68e745e42a5cb1da8a482e1caad18be7", "lon": -76.98696683333333, "fusion_lon": 0.0}, {"is_reserved": 0, "type": "electric_scooter", "fusion_lat": 0.0, "is_disabled": 0, "rental_uris": {"ios": "https://dc.lft.to/lastmile_qr_scan", "android": "https://dc.lft.to/lastmile_qr_scan"}, "bike_id": "2bcbcf0899506aa6ebb66635e88fc68f", "lat": 38.91998266666667, "name": "2bcbcf0899506aa6ebb66635e88fc68f", "lon": -77.0321705, "fusion_lon": 0.0}, {"is_reserved": 0, "type": "electric_scooter", "fusion_lat": 0.0, "is_disabled": 0, "rental_uris": {"ios": "https://dc.lft.to/lastmile_qr_scan", "android": "https://dc.lft.to/lastmile_qr_scan"}, "bike_id": "c624fdec94c684a699ab30e3c6f7d69c", "lat": 38.9057205, "name": "c624fdec94c684a699ab30e3c6f7d69c", "lon": -77.01714816666667, "fusion_lon": 0.0}, {"is_reserved": 0, "type": "electric_bike", "fusion_lat": 0.0, "is_disabled": 0, "rental_uris": {"ios": "https://dc.lft.to/lastmile_qr_scan", "android": "https://dc.lft.to/lastmile_qr_scan"}, "bike_id": "a0e0ce63ca820135e9a89087210c04e1", "lat": 38.842803333333336, "name": "a0e0ce63ca820135e9a89087210c04e1", "lon": -76.988402, "fusion_lon": 0.0}, {"is_reserved": 0, "type": "electric_bike", "fusion_lat": 0.0, "is_disabled": 0, "rental_uris": {"ios": "https://dc.lft.to/lastmile_qr_scan", "android": "https://dc.lft.to/lastmile_qr_scan"}, "bike_id": "57448e104974f68792f5eb8170f55e4f", "lat": 38.90831416666666, "name": "57448e104974f68792f5eb8170f55e4f", "lon": -77.038518, "fusion_lon": 0.0}, {"is_reserved": 0, "type": "electric_scooter", "fusion_lat": 0.0, "is_disabled": 0, "rental_uris": {"ios": "https://dc.lft.to/lastmile_qr_scan", "android": "https://dc.lft.to/lastmile_qr_scan"}, "bike_id": "4e637038aa83e4df2a6f3bbb088a7cde", "lat": 38.91806916666667, "name": "4e637038aa83e4df2a6f3bbb088a7cde", "lon": -77.03300283333333, "fusion_lon": 0.0}, {"is_reserved": 0, "type": "electric_scooter", "fusion_lat": 0.0, "is_disabled": 0, "rental_uris": {"ios": "https://dc.lft.to/lastmile_qr_scan", "android": "https://dc.lft.to/lastmile_qr_scan"}, "bike_id": "467f2f30d783b78c21b3ea6dc997cad8", "lat": 38.917751333333335, "name": "467f2f30d783b78c21b3ea6dc997cad8", "lon": -77.041044, "fusion_lon": 0.0}, {"is_reserved": 0, "type": "electric_scooter", "fusion_lat": 0.0, "is_disabled": 0, "rental_uris": {"ios": "https://dc.lft.to/lastmile_qr_scan", "android": "https://dc.lft.to/lastmile_qr_scan"}, "bike_id": "dae3e371625e30c9f5c3a1a020316384", "lat": 38.912565666666666, "name": "dae3e371625e30c9f5c3a1a020316384", "lon": -77.0459835, "fusion_lon": 0.0}, {"is_reserved": 0, "type": "electric_scooter", "fusion_lat": 0.0, "is_disabled": 0, "rental_uris": {"ios": "https://dc.lft.to/lastmile_qr_scan", "android": "https://dc.lft.to/lastmile_qr_scan"}, "bike_id": "0ecdade56602d4e73d5bdede8a00bbfe", "lat": 38.9123885, "name": "0ecdade56602d4e73d5bdede8a00bbfe", "lon": -77.00915333333333, "fusion_lon": 0.0}, {"is_reserved": 0, "type": "electric_scooter", "fusion_lat": 0.0, "is_disabled": 0, "rental_uris": {"ios": "https://dc.lft.to/lastmile_qr_scan", "android": "https://dc.lft.to/lastmile_qr_scan"}, "bike_id": "80dd36a302a97b85bb7639fa2839c16f", "lat": 38.9642875, "name": "80dd36a302a97b85bb7639fa2839c16f", "lon": -77.07424383333333, "fusion_lon": 0.0}, {"is_reserved": 0, "type": "electric_scooter", "fusion_lat": 0.0, "is_disabled": 0, "rental_uris": {"ios": "https://dc.lft.to/lastmile_qr_scan", "android": "https://dc.lft.to/lastmile_qr_scan"}, "bike_id": "47f4908c4bed40cf9f374623a4bb27f2", "lat": 38.90315616666667, "name": "47f4908c4bed40cf9f374623a4bb27f2", "lon": -76.9913185, "fusion_lon": 0.0}, {"is_reserved": 0, "type": "electric_scooter", "fusion_lat": 0.0, "is_disabled": 0, "rental_uris": {"ios": "https://dc.lft.to/lastmile_qr_scan", "android": "https://dc.lft.to/lastmile_qr_scan"}, "bike_id": "2a11303579e8579449eae1803047290d", "lat": 38.936536, "name": "2a11303579e8579449eae1803047290d", "lon": -77.03657616666666, "fusion_lon": 0.0}, {"is_reserved": 0, "type": "electric_scooter", "fusion_lat": 0.0, "is_disabled": 0, "rental_uris": {"ios": "https://dc.lft.to/lastmile_qr_scan", "android": "https://dc.lft.to/lastmile_qr_scan"}, "bike_id": "aa21ebef1a1688013fa765488c823f00", "lat": 38.910135833333335, "name": "aa21ebef1a1688013fa765488c823f00", "lon": -77.01986716666667, "fusion_lon": 0.0}, {"is_reserved": 0, "type": "electric_scooter", "fusion_lat": 0.0, "is_disabled": 0, "rental_uris": {"ios": "https://dc.lft.to/lastmile_qr_scan", "android": "https://dc.lft.to/lastmile_qr_scan"}, "bike_id": "cedb8b6cd6d19329548614339ac125fb", "lat": 38.920798833333336, "name": "cedb8b6cd6d19329548614339ac125fb", "lon": -77.02505983333333, "fusion_lon": 0.0}, {"is_reserved": 0, "type": "electric_scooter", "fusion_lat": 0.0, "is_disabled": 0, "rental_uris": {"ios": "https://dc.lft.to/lastmile_qr_scan", "android": "https://dc.lft.to/lastmile_qr_scan"}, "bike_id": "24cbb865203e595e9f4535b3254c709d", "lat": 38.935619333333335, "name": "24cbb865203e595e9f4535b3254c709d", "lon": -77.0733805, "fusion_lon": 0.0}, {"is_reserved": 0, "type": "electric_scooter", "fusion_lat": 0.0, "is_disabled": 0, "rental_uris": {"ios": "https://dc.lft.to/lastmile_qr_scan", "android": "https://dc.lft.to/lastmile_qr_scan"}, "bike_id": "719d64232c9c728909dae3555c89639f", "lat": 38.85713783333333, "name": "719d64232c9c728909dae3555c89639f", "lon": -76.980951, "fusion_lon": 0.0}, {"is_reserved": 0, "type": "electric_scooter", "fusion_lat": 0.0, "is_disabled": 0, "rental_uris": {"ios": "https://dc.lft.to/lastmile_qr_scan", "android": "https://dc.lft.to/lastmile_qr_scan"}, "bike_id": "5083a1daf0b014e30f2e041ded497bad", "lat": 38.9363025, "name": "5083a1daf0b014e30f2e041ded497bad", "lon": -77.03662583333333, "fusion_lon": 0.0}, {"is_reserved": 0, "type": "electric_scooter", "fusion_lat": 0.0, "is_disabled": 0, "rental_uris": {"ios": "https://dc.lft.to/lastmile_qr_scan", "android": "https://dc.lft.to/lastmile_qr_scan"}, "bike_id": "ed9f7e0d7a3bae3bd479ce121c378d1f", "lat": 38.947288, "name": "ed9f7e0d7a3bae3bd479ce121c378d1f", "lon": -77.0266965, "fusion_lon": 0.0}, {"is_reserved": 0, "type": "electric_bike", "fusion_lat": 0.0, "is_disabled": 0, "rental_uris": {"ios": "https://dc.lft.to/lastmile_qr_scan", "android": "https://dc.lft.to/lastmile_qr_scan"}, "bike_id": "857c1de040ac0cc4af8daca49641ec83", "lat": 38.834092, "name": "857c1de040ac0cc4af8daca49641ec83", "lon": -77.05002366666666, "fusion_lon": 0.0}, {"is_reserved": 0, "type": "electric_scooter", "fusion_lat": 0.0, "is_disabled": 0, "rental_uris": {"ios": "https://dc.lft.to/lastmile_qr_scan", "android": "https://dc.lft.to/lastmile_qr_scan"}, "bike_id": "d6d13bac13fa9beb183f23375c023077", "lat": 38.916936166666666, "name": "d6d13bac13fa9beb183f23375c023077", "lon": -77.052927, "fusion_lon": 0.0}, {"is_reserved": 0, "type": "electric_scooter", "fusion_lat": 0.0, "is_disabled": 0, "rental_uris": {"ios": "https://dc.lft.to/lastmile_qr_scan", "android": "https://dc.lft.to/lastmile_qr_scan"}, "bike_id": "db190c059be65f70d47d57df5c09f0f1", "lat": 38.8854185, "name": "db190c059be65f70d47d57df5c09f0f1", "lon": -76.98539083333333, "fusion_lon": 0.0}, {"is_reserved": 0, "type": "electric_scooter", "fusion_lat": 0.0, "is_disabled": 0, "rental_uris": {"ios": "https://dc.lft.to/lastmile_qr_scan", "android": "https://dc.lft.to/lastmile_qr_scan"}, "bike_id": "01021b129f9ecba2a69a215e44c92450", "lat": 38.89717316666667, "name": "01021b129f9ecba2a69a215e44c92450", "lon": -77.02644916666667, "fusion_lon": 0.0}, {"is_reserved": 0, "type": "electric_scooter", "fusion_lat": 0.0, "is_disabled": 0, "rental_uris": {"ios": "https://dc.lft.to/lastmile_qr_scan", "android": "https://dc.lft.to/lastmile_qr_scan"}, "bike_id": "c9f373b0e91a55d44b202f869291d493", "lat": 38.901961666666665, "name": "c9f373b0e91a55d44b202f869291d493", "lon": -77.02208, "fusion_lon": 0.0}, {"is_reserved": 0, "type": "electric_bike", "fusion_lat": 0.0, "is_disabled": 0, "rental_uris": {"ios": "https://dc.lft.to/lastmile_qr_scan", "android": "https://dc.lft.to/lastmile_qr_scan"}, "bike_id": "88e006b0e6a7c18d020a66cd695a2511", "lat": 38.92802, "name": "88e006b0e6a7c18d020a66cd695a2511", "lon": -77.22937, "fusion_lon": 0.0}, {"is_reserved": 0, "type": "electric_scooter", "fusion_lat": 0.0, "is_disabled": 0, "rental_uris": {"ios": "https://dc.lft.to/lastmile_qr_scan", "android": "https://dc.lft.to/lastmile_qr_scan"}, "bike_id": "a78cd1eb4a95478c46b8c69abf317023", "lat": 38.90052383333333, "name": "a78cd1eb4a95478c46b8c69abf317023", "lon": -77.043397, "fusion_lon": 0.0}, {"is_reserved": 0, "type": "electric_scooter", "fusion_lat": 0.0, "is_disabled": 0, "rental_uris": {"ios": "https://dc.lft.to/lastmile_qr_scan", "android": "https://dc.lft.to/lastmile_qr_scan"}, "bike_id": "81fc729afd3ec814dd4db19c917fe0d7", "lat": 38.921781833333334, "name": "81fc729afd3ec814dd4db19c917fe0d7", "lon": -77.021199, "fusion_lon": 0.0}, {"is_reserved": 0, "type": "electric_scooter", "fusion_lat": 0.0, "is_disabled": 0, "rental_uris": {"ios": "https://dc.lft.to/lastmile_qr_scan", "android": "https://dc.lft.to/lastmile_qr_scan"}, "bike_id": "07b7ecb0348385eb2e17623afa91e44b", "lat": 38.89881283333333, "name": "07b7ecb0348385eb2e17623afa91e44b", "lon": -76.93172133333333, "fusion_lon": 0.0}, {"is_reserved": 0, "type": "electric_scooter", "fusion_lat": 0.0, "is_disabled": 0, "rental_uris": {"ios": "https://dc.lft.to/lastmile_qr_scan", "android": "https://dc.lft.to/lastmile_qr_scan"}, "bike_id": "dab05c4ae989b36df74928906d3018d8", "lat": 38.923712, "name": "dab05c4ae989b36df74928906d3018d8", "lon": -77.01911383333334, "fusion_lon": 0.0}, {"is_reserved": 0, "type": "electric_scooter", "fusion_lat": 0.0, "is_disabled": 0, "rental_uris": {"ios": "https://dc.lft.to/lastmile_qr_scan", "android": "https://dc.lft.to/lastmile_qr_scan"}, "bike_id": "09dfce3eaf63fed83090d798eccf52bd", "lat": 38.90727583333333, "name": "09dfce3eaf63fed83090d798eccf52bd", "lon": -77.02408133333333, "fusion_lon": 0.0}, {"is_reserved": 0, "type": "electric_scooter", "fusion_lat": 0.0, "is_disabled": 0, "rental_uris": {"ios": "https://dc.lft.to/lastmile_qr_scan", "android": "https://dc.lft.to/lastmile_qr_scan"}, "bike_id": "e8512d2ac5448868a7ad86b4cfdc1b3d", "lat": 38.930798, "name": "e8512d2ac5448868a7ad86b4cfdc1b3d", "lon": -77.03217466666666, "fusion_lon": 0.0}, {"is_reserved": 0, "type": "electric_scooter", "fusion_lat": 0.0, "is_disabled": 0, "rental_uris": {"ios": "https://dc.lft.to/lastmile_qr_scan", "android": "https://dc.lft.to/lastmile_qr_scan"}, "bike_id": "d3c89ecf683d6d50f7e54ccc23a11971", "lat": 38.93984366666667, "name": "d3c89ecf683d6d50f7e54ccc23a11971", "lon": -77.02873533333333, "fusion_lon": 0.0}, {"is_reserved": 0, "type": "electric_scooter", "fusion_lat": 0.0, "is_disabled": 0, "rental_uris": {"ios": "https://dc.lft.to/lastmile_qr_scan", "android": "https://dc.lft.to/lastmile_qr_scan"}, "bike_id": "745b6f283bbba0995dc4940732004e77", "lat": 38.916903166666664, "name": "745b6f283bbba0995dc4940732004e77", "lon": -77.03239566666667, "fusion_lon": 0.0}, {"is_reserved": 0, "type": "electric_scooter", "fusion_lat": 0.0, "is_disabled": 0, "rental_uris": {"ios": "https://dc.lft.to/lastmile_qr_scan", "android": "https://dc.lft.to/lastmile_qr_scan"}, "bike_id": "a931c8837d364d44fd84b2ae7396f5aa", "lat": 38.894553, "name": "a931c8837d364d44fd84b2ae7396f5aa", "lon": -77.02733466666666, "fusion_lon": 0.0}, {"is_reserved": 0, "type": "electric_scooter", "fusion_lat": 0.0, "is_disabled": 0, "rental_uris": {"ios": "https://dc.lft.to/lastmile_qr_scan", "android": "https://dc.lft.to/lastmile_qr_scan"}, "bike_id": "b8eb863b3c75e07a669ec1d5f76476c3", "lat": 38.9126235, "name": "b8eb863b3c75e07a669ec1d5f76476c3", "lon": -77.0387055, "fusion_lon": 0.0}, {"is_reserved": 0, "type": "electric_bike", "fusion_lat": 0.0, "is_disabled": 0, "rental_uris": {"ios": "https://dc.lft.to/lastmile_qr_scan", "android": "https://dc.lft.to/lastmile_qr_scan"}, "bike_id": "c009019d443670cb4ee01bf97e8f8b6f", "lat": 38.8828185, "name": "c009019d443670cb4ee01bf97e8f8b6f", "lon": -76.93240733333333, "fusion_lon": 0.0}, {"is_reserved": 0, "type": "electric_scooter", "fusion_lat": 0.0, "is_disabled": 0, "rental_uris": {"ios": "https://dc.lft.to/lastmile_qr_scan", "android": "https://dc.lft.to/lastmile_qr_scan"}, "bike_id": "bb61243e92611277436203dac8a7837a", "lat": 38.919707333333335, "name": "bb61243e92611277436203dac8a7837a", "lon": -77.07122833333334, "fusion_lon": 0.0}, {"is_reserved": 0, "type": "electric_scooter", "fusion_lat": 0.0, "is_disabled": 0, "rental_uris": {"ios": "https://dc.lft.to/lastmile_qr_scan", "android": "https://dc.lft.to/lastmile_qr_scan"}, "bike_id": "03273ed87ff7752f4330e1ac78081e19", "lat": 38.9283075, "name": "03273ed87ff7752f4330e1ac78081e19", "lon": -77.0215655, "fusion_lon": 0.0}, {"is_reserved": 0, "type": "electric_bike", "fusion_lat": 0.0, "is_disabled": 0, "rental_uris": {"ios": "https://dc.lft.to/lastmile_qr_scan", "android": "https://dc.lft.to/lastmile_qr_scan"}, "bike_id": "84c63dfdb53347baccd109f7ec7cc486", "lat": 38.94736433333333, "name": "84c63dfdb53347baccd109f7ec7cc486", "lon": -76.99579616666666, "fusion_lon": 0.0}, {"is_reserved": 0, "type": "electric_scooter", "fusion_lat": 0.0, "is_disabled": 0, "rental_uris": {"ios": "https://dc.lft.to/lastmile_qr_scan", "android": "https://dc.lft.to/lastmile_qr_scan"}, "bike_id": "73ab58a81509d6d6f6f92e5437cbf3ae", "lat": 38.924777, "name": "73ab58a81509d6d6f6f92e5437cbf3ae", "lon": -77.026282, "fusion_lon": 0.0}, {"is_reserved": 0, "type": "electric_scooter", "fusion_lat": 0.0, "is_disabled": 0, "rental_uris": {"ios": "https://dc.lft.to/lastmile_qr_scan", "android": "https://dc.lft.to/lastmile_qr_scan"}, "bike_id": "4b3187a21c87b52315632de08087791f", "lat": 38.88362716666666, "name": "4b3187a21c87b52315632de08087791f", "lon": -76.92789366666666, "fusion_lon": 0.0}, {"is_reserved": 0, "type": "electric_scooter", "fusion_lat": 0.0, "is_disabled": 0, "rental_uris": {"ios": "https://dc.lft.to/lastmile_qr_scan", "android": "https://dc.lft.to/lastmile_qr_scan"}, "bike_id": "f96de056b278b4b94c15827e708b3a21", "lat": 38.9191645, "name": "f96de056b278b4b94c15827e708b3a21", "lon": -77.04820533333333, "fusion_lon": 0.0}, {"is_reserved": 0, "type": "electric_scooter", "fusion_lat": 0.0, "is_disabled": 0, "rental_uris": {"ios": "https://dc.lft.to/lastmile_qr_scan", "android": "https://dc.lft.to/lastmile_qr_scan"}, "bike_id": "795d06c70aa9e60b91aa6825c79edb7a", "lat": 38.87655983333333, "name": "795d06c70aa9e60b91aa6825c79edb7a", "lon": -77.01572683333333, "fusion_lon": 0.0}, {"is_reserved": 0, "type": "electric_scooter", "fusion_lat": 0.0, "is_disabled": 0, "rental_uris": {"ios": "https://dc.lft.to/lastmile_qr_scan", "android": "https://dc.lft.to/lastmile_qr_scan"}, "bike_id": "e09184f5e1f2995be230c9aeae00038b", "lat": 38.9165, "name": "e09184f5e1f2995be230c9aeae00038b", "lon": -77.021773, "fusion_lon": 0.0}, {"is_reserved": 0, "type": "electric_scooter", "fusion_lat": 0.0, "is_disabled": 0, "rental_uris": {"ios": "https://dc.lft.to/lastmile_qr_scan", "android": "https://dc.lft.to/lastmile_qr_scan"}, "bike_id": "0b594be4eeaf5c1601c987defa376cb2", "lat": 38.89834283333333, "name": "0b594be4eeaf5c1601c987defa376cb2", "lon": -77.0499485, "fusion_lon": 0.0}, {"is_reserved": 0, "type": "electric_scooter", "fusion_lat": 0.0, "is_disabled": 0, "rental_uris": {"ios": "https://dc.lft.to/lastmile_qr_scan", "android": "https://dc.lft.to/lastmile_qr_scan"}, "bike_id": "d31ad8375206fc33ebb345071e2320cf", "lat": 38.90191466666667, "name": "d31ad8375206fc33ebb345071e2320cf", "lon": -76.9346585, "fusion_lon": 0.0}, {"is_reserved": 0, "type": "electric_bike", "fusion_lat": 0.0, "is_disabled": 0, "rental_uris": {"ios": "https://dc.lft.to/lastmile_qr_scan", "android": "https://dc.lft.to/lastmile_qr_scan"}, "bike_id": "1da0002965f4ae1cdc695fad96923d7d", "lat": 38.973464166666666, "name": "1da0002965f4ae1cdc695fad96923d7d", "lon": -77.01792483333334, "fusion_lon": 0.0}, {"is_reserved": 0, "type": "electric_scooter", "fusion_lat": 0.0, "is_disabled": 0, "rental_uris": {"ios": "https://dc.lft.to/lastmile_qr_scan", "android": "https://dc.lft.to/lastmile_qr_scan"}, "bike_id": "488ce040bc3e2a35d06c1fef2bef8b58", "lat": 38.93079, "name": "488ce040bc3e2a35d06c1fef2bef8b58", "lon": -77.07762783333334, "fusion_lon": 0.0}, {"is_reserved": 0, "type": "electric_scooter", "fusion_lat": 0.0, "is_disabled": 0, "rental_uris": {"ios": "https://dc.lft.to/lastmile_qr_scan", "android": "https://dc.lft.to/lastmile_qr_scan"}, "bike_id": "3f0c12d7339b4e2cf6da7e80d4da36b4", "lat": 38.9020075, "name": "3f0c12d7339b4e2cf6da7e80d4da36b4", "lon": -77.0345955, "fusion_lon": 0.0}, {"is_reserved": 0, "type": "electric_bike", "fusion_lat": 0.0, "is_disabled": 0, "rental_uris": {"ios": "https://dc.lft.to/lastmile_qr_scan", "android": "https://dc.lft.to/lastmile_qr_scan"}, "bike_id": "d762deaf84ebb07b8856bd7057e413dd", "lat": 38.92644083333333, "name": "d762deaf84ebb07b8856bd7057e413dd", "lon": -77.02839033333333, "fusion_lon": 0.0}, {"is_reserved": 0, "type": "electric_scooter", "fusion_lat": 0.0, "is_disabled": 0, "rental_uris": {"ios": "https://dc.lft.to/lastmile_qr_scan", "android": "https://dc.lft.to/lastmile_qr_scan"}, "bike_id": "990fb4921c0eccdbe6b38a46f9be2243", "lat": 38.92416683333333, "name": "990fb4921c0eccdbe6b38a46f9be2243", "lon": -77.02004416666666, "fusion_lon": 0.0}, {"is_reserved": 0, "type": "electric_scooter", "fusion_lat": 0.0, "is_disabled": 0, "rental_uris": {"ios": "https://dc.lft.to/lastmile_qr_scan", "android": "https://dc.lft.to/lastmile_qr_scan"}, "bike_id": "f352f1f47c279605649a98a2b745a662", "lat": 38.90415333333333, "name": "f352f1f47c279605649a98a2b745a662", "lon": -77.05149066666667, "fusion_lon": 0.0}, {"is_reserved": 0, "type": "electric_scooter", "fusion_lat": 0.0, "is_disabled": 0, "rental_uris": {"ios": "https://dc.lft.to/lastmile_qr_scan", "android": "https://dc.lft.to/lastmile_qr_scan"}, "bike_id": "9a0de84f05211d6ccb2102aa75755881", "lat": 38.921351, "name": "9a0de84f05211d6ccb2102aa75755881", "lon": -77.00399583333333, "fusion_lon": 0.0}, {"is_reserved": 0, "type": "electric_bike", "fusion_lat": 0.0, "is_disabled": 0, "rental_uris": {"ios": "https://dc.lft.to/lastmile_qr_scan", "android": "https://dc.lft.to/lastmile_qr_scan"}, "bike_id": "8f5268f470c093c4a724f532bab51c58", "lat": 38.836067666666665, "name": "8f5268f470c093c4a724f532bab51c58", "lon": -77.00374866666667, "fusion_lon": 0.0}, {"is_reserved": 0, "type": "electric_scooter", "fusion_lat": 0.0, "is_disabled": 0, "rental_uris": {"ios": "https://dc.lft.to/lastmile_qr_scan", "android": "https://dc.lft.to/lastmile_qr_scan"}, "bike_id": "61d66ae21eac0a4511eeaa4bc36e286f", "lat": 38.8823425, "name": "61d66ae21eac0a4511eeaa4bc36e286f", "lon": -76.99093166666667, "fusion_lon": 0.0}, {"is_reserved": 0, "type": "electric_scooter", "fusion_lat": 0.0, "is_disabled": 0, "rental_uris": {"ios": "https://dc.lft.to/lastmile_qr_scan", "android": "https://dc.lft.to/lastmile_qr_scan"}, "bike_id": "1292067f119a05589b0bfd0da2ea6e69", "lat": 38.8954685, "name": "1292067f119a05589b0bfd0da2ea6e69", "lon": -77.026869, "fusion_lon": 0.0}, {"is_reserved": 0, "type": "electric_bike", "fusion_lat": 0.0, "is_disabled": 0, "rental_uris": {"ios": "https://dc.lft.to/lastmile_qr_scan", "android": "https://dc.lft.to/lastmile_qr_scan"}, "bike_id": "78c710972cff9463953445ec45db9e98", "lat": 38.857881666666664, "name": "78c710972cff9463953445ec45db9e98", "lon": -76.98756133333333, "fusion_lon": 0.0}, {"is_reserved": 0, "type": "electric_scooter", "fusion_lat": 0.0, "is_disabled": 0, "rental_uris": {"ios": "https://dc.lft.to/lastmile_qr_scan", "android": "https://dc.lft.to/lastmile_qr_scan"}, "bike_id": "8f3c36d7b693ca374e4e74449240aefc", "lat": 38.8338215, "name": "8f3c36d7b693ca374e4e74449240aefc", "lon": -77.00297666666667, "fusion_lon": 0.0}, {"is_reserved": 0, "type": "electric_scooter", "fusion_lat": 0.0, "is_disabled": 0, "rental_uris": {"ios": "https://dc.lft.to/lastmile_qr_scan", "android": "https://dc.lft.to/lastmile_qr_scan"}, "bike_id": "1d6e5d1cecd7f34fd948cbf04d693811", "lat": 38.931299, "name": "1d6e5d1cecd7f34fd948cbf04d693811", "lon": -77.02175316666667, "fusion_lon": 0.0}, {"is_reserved": 0, "type": "electric_scooter", "fusion_lat": 0.0, "is_disabled": 0, "rental_uris": {"ios": "https://dc.lft.to/lastmile_qr_scan", "android": "https://dc.lft.to/lastmile_qr_scan"}, "bike_id": "135382f782547b2d9f16a0af56a818dc", "lat": 38.93321916666667, "name": "135382f782547b2d9f16a0af56a818dc", "lon": -77.03246483333334, "fusion_lon": 0.0}, {"is_reserved": 0, "type": "electric_scooter", "fusion_lat": 0.0, "is_disabled": 0, "rental_uris": {"ios": "https://dc.lft.to/lastmile_qr_scan", "android": "https://dc.lft.to/lastmile_qr_scan"}, "bike_id": "aed300d375e01abec6585e21b33727b7", "lat": 38.90568866666667, "name": "aed300d375e01abec6585e21b33727b7", "lon": -77.044434, "fusion_lon": 0.0}, {"is_reserved": 0, "type": "electric_scooter", "fusion_lat": 0.0, "is_disabled": 0, "rental_uris": {"ios": "https://dc.lft.to/lastmile_qr_scan", "android": "https://dc.lft.to/lastmile_qr_scan"}, "bike_id": "bad681d82bd2e37898a35bb1a0b56285", "lat": 38.8921905, "name": "bad681d82bd2e37898a35bb1a0b56285", "lon": -77.022202, "fusion_lon": 0.0}, {"is_reserved": 0, "type": "electric_scooter", "fusion_lat": 0.0, "is_disabled": 0, "rental_uris": {"ios": "https://dc.lft.to/lastmile_qr_scan", "android": "https://dc.lft.to/lastmile_qr_scan"}, "bike_id": "fa0e0a07750ec8907304052b6d109be1", "lat": 38.948605666666666, "name": "fa0e0a07750ec8907304052b6d109be1", "lon": -77.078791, "fusion_lon": 0.0}, {"is_reserved": 0, "type": "electric_scooter", "fusion_lat": 0.0, "is_disabled": 0, "rental_uris": {"ios": "https://dc.lft.to/lastmile_qr_scan", "android": "https://dc.lft.to/lastmile_qr_scan"}, "bike_id": "fdf4bfc7908457e5a09a91e06d5a37e4", "lat": 38.89786683333333, "name": "fdf4bfc7908457e5a09a91e06d5a37e4", "lon": -77.05030383333333, "fusion_lon": 0.0}, {"is_reserved": 0, "type": "electric_scooter", "fusion_lat": 0.0, "is_disabled": 0, "rental_uris": {"ios": "https://dc.lft.to/lastmile_qr_scan", "android": "https://dc.lft.to/lastmile_qr_scan"}, "bike_id": "4cf25f4eddbdd2653bfb4d8653fa5645", "lat": 38.9271755, "name": "4cf25f4eddbdd2653bfb4d8653fa5645", "lon": -77.05139783333334, "fusion_lon": 0.0}, {"is_reserved": 0, "type": "electric_scooter", "fusion_lat": 0.0, "is_disabled": 0, "rental_uris": {"ios": "https://dc.lft.to/lastmile_qr_scan", "android": "https://dc.lft.to/lastmile_qr_scan"}, "bike_id": "2dbc87c05798763e1f6847fad9e7b23c", "lat": 38.915622666666664, "name": "2dbc87c05798763e1f6847fad9e7b23c", "lon": -77.03671416666667, "fusion_lon": 0.0}, {"is_reserved": 0, "type": "electric_scooter", "fusion_lat": 0.0, "is_disabled": 0, "rental_uris": {"ios": "https://dc.lft.to/lastmile_qr_scan", "android": "https://dc.lft.to/lastmile_qr_scan"}, "bike_id": "a59a199f56e6f8a5c6d95203419d3dc4", "lat": 38.896927833333336, "name": "a59a199f56e6f8a5c6d95203419d3dc4", "lon": -77.0434295, "fusion_lon": 0.0}, {"is_reserved": 0, "type": "electric_bike", "fusion_lat": 0.0, "is_disabled": 0, "rental_uris": {"ios": "https://dc.lft.to/lastmile_qr_scan", "android": "https://dc.lft.to/lastmile_qr_scan"}, "bike_id": "86ee8d0c38b866b2187c0561b7481fbc", "lat": 38.968961166666666, "name": "86ee8d0c38b866b2187c0561b7481fbc", "lon": -76.9557575, "fusion_lon": 0.0}, {"is_reserved": 0, "type": "electric_scooter", "fusion_lat": 0.0, "is_disabled": 0, "rental_uris": {"ios": "https://dc.lft.to/lastmile_qr_scan", "android": "https://dc.lft.to/lastmile_qr_scan"}, "bike_id": "bec6995e0359b0d46624427f3235df0a", "lat": 38.922932833333334, "name": "bec6995e0359b0d46624427f3235df0a", "lon": -76.99777466666667, "fusion_lon": 0.0}, {"is_reserved": 0, "type": "electric_scooter", "fusion_lat": 0.0, "is_disabled": 0, "rental_uris": {"ios": "https://dc.lft.to/lastmile_qr_scan", "android": "https://dc.lft.to/lastmile_qr_scan"}, "bike_id": "3be680c20837415640fb7f1cde3a8ef1", "lat": 38.892537833333336, "name": "3be680c20837415640fb7f1cde3a8ef1", "lon": -77.03207683333333, "fusion_lon": 0.0}, {"is_reserved": 0, "type": "electric_scooter", "fusion_lat": 0.0, "is_disabled": 0, "rental_uris": {"ios": "https://dc.lft.to/lastmile_qr_scan", "android": "https://dc.lft.to/lastmile_qr_scan"}, "bike_id": "8b8f86467db2947114bf47989c44c8ad", "lat": 38.88012416666667, "name": "8b8f86467db2947114bf47989c44c8ad", "lon": -76.99735733333333, "fusion_lon": 0.0}, {"is_reserved": 0, "type": "electric_scooter", "fusion_lat": 0.0, "is_disabled": 0, "rental_uris": {"ios": "https://dc.lft.to/lastmile_qr_scan", "android": "https://dc.lft.to/lastmile_qr_scan"}, "bike_id": "f4fc36f391b80463ed1de857fa8c7b93", "lat": 38.898820666666666, "name": "f4fc36f391b80463ed1de857fa8c7b93", "lon": -76.93176783333334, "fusion_lon": 0.0}, {"is_reserved": 0, "type": "electric_scooter", "fusion_lat": 0.0, "is_disabled": 0, "rental_uris": {"ios": "https://dc.lft.to/lastmile_qr_scan", "android": "https://dc.lft.to/lastmile_qr_scan"}, "bike_id": "9f1cec533469f23c2fbdb38bfc0024f4", "lat": 38.916947666666665, "name": "9f1cec533469f23c2fbdb38bfc0024f4", "lon": -77.03235716666667, "fusion_lon": 0.0}, {"is_reserved": 0, "type": "electric_scooter", "fusion_lat": 0.0, "is_disabled": 0, "rental_uris": {"ios": "https://dc.lft.to/lastmile_qr_scan", "android": "https://dc.lft.to/lastmile_qr_scan"}, "bike_id": "89be650cfac3f1926424c982cb4dd0fb", "lat": 38.9133565, "name": "89be650cfac3f1926424c982cb4dd0fb", "lon": -77.0303855, "fusion_lon": 0.0}, {"is_reserved": 0, "type": "electric_scooter", "fusion_lat": 0.0, "is_disabled": 0, "rental_uris": {"ios": "https://dc.lft.to/lastmile_qr_scan", "android": "https://dc.lft.to/lastmile_qr_scan"}, "bike_id": "cc86c032d5b3a175c726553816a604fc", "lat": 38.905941, "name": "cc86c032d5b3a175c726553816a604fc", "lon": -77.066567, "fusion_lon": 0.0}, {"is_reserved": 0, "type": "electric_scooter", "fusion_lat": 0.0, "is_disabled": 0, "rental_uris": {"ios": "https://dc.lft.to/lastmile_qr_scan", "android": "https://dc.lft.to/lastmile_qr_scan"}, "bike_id": "4b340ddf114b9b91f0710847fabc9027", "lat": 38.94644616666667, "name": "4b340ddf114b9b91f0710847fabc9027", "lon": -77.01745816666667, "fusion_lon": 0.0}, {"is_reserved": 0, "type": "electric_scooter", "fusion_lat": 0.0, "is_disabled": 0, "rental_uris": {"ios": "https://dc.lft.to/lastmile_qr_scan", "android": "https://dc.lft.to/lastmile_qr_scan"}, "bike_id": "79e53232eb625490ae5728c564ae4553", "lat": 38.90729183333333, "name": "79e53232eb625490ae5728c564ae4553", "lon": -77.03855433333334, "fusion_lon": 0.0}, {"is_reserved": 0, "type": "electric_scooter", "fusion_lat": 0.0, "is_disabled": 0, "rental_uris": {"ios": "https://dc.lft.to/lastmile_qr_scan", "android": "https://dc.lft.to/lastmile_qr_scan"}, "bike_id": "29b0e945e542cdbc37511ee7de109724", "lat": 38.898537, "name": "29b0e945e542cdbc37511ee7de109724", "lon": -77.03960233333333, "fusion_lon": 0.0}, {"is_reserved": 0, "type": "electric_scooter", "fusion_lat": 0.0, "is_disabled": 0, "rental_uris": {"ios": "https://dc.lft.to/lastmile_qr_scan", "android": "https://dc.lft.to/lastmile_qr_scan"}, "bike_id": "98a5677c073d3639274058ed26a38a2d", "lat": 38.927223833333336, "name": "98a5677c073d3639274058ed26a38a2d", "lon": -77.02097283333333, "fusion_lon": 0.0}, {"is_reserved": 0, "type": "electric_scooter", "fusion_lat": 0.0, "is_disabled": 0, "rental_uris": {"ios": "https://dc.lft.to/lastmile_qr_scan", "android": "https://dc.lft.to/lastmile_qr_scan"}, "bike_id": "c023901a6b9cc92b69b0f796e59d0166", "lat": 38.9054225, "name": "c023901a6b9cc92b69b0f796e59d0166", "lon": -77.05806883333334, "fusion_lon": 0.0}, {"is_reserved": 0, "type": "electric_scooter", "fusion_lat": 0.0, "is_disabled": 0, "rental_uris": {"ios": "https://dc.lft.to/lastmile_qr_scan", "android": "https://dc.lft.to/lastmile_qr_scan"}, "bike_id": "ccd75f175bbf0449f004b5c651f4a9d6", "lat": 38.94273283333333, "name": "ccd75f175bbf0449f004b5c651f4a9d6", "lon": -77.02929783333333, "fusion_lon": 0.0}, {"is_reserved": 0, "type": "electric_scooter", "fusion_lat": 0.0, "is_disabled": 0, "rental_uris": {"ios": "https://dc.lft.to/lastmile_qr_scan", "android": "https://dc.lft.to/lastmile_qr_scan"}, "bike_id": "d6b7c0af509916a6061acf433c01c561", "lat": 38.918359833333334, "name": "d6b7c0af509916a6061acf433c01c561", "lon": -77.0318055, "fusion_lon": 0.0}, {"is_reserved": 0, "type": "electric_scooter", "fusion_lat": 0.0, "is_disabled": 0, "rental_uris": {"ios": "https://dc.lft.to/lastmile_qr_scan", "android": "https://dc.lft.to/lastmile_qr_scan"}, "bike_id": "6a2f5b5a5b3a80ee2688ba62a60ba2b0", "lat": 38.96503516666667, "name": "6a2f5b5a5b3a80ee2688ba62a60ba2b0", "lon": -77.0628305, "fusion_lon": 0.0}, {"is_reserved": 0, "type": "electric_scooter", "fusion_lat": 0.0, "is_disabled": 0, "rental_uris": {"ios": "https://dc.lft.to/lastmile_qr_scan", "android": "https://dc.lft.to/lastmile_qr_scan"}, "bike_id": "f888aea7b7140e450c8a96d10913119b", "lat": 38.90279983333333, "name": "f888aea7b7140e450c8a96d10913119b", "lon": -77.04040083333334, "fusion_lon": 0.0}, {"is_reserved": 0, "type": "electric_scooter", "fusion_lat": 0.0, "is_disabled": 0, "rental_uris": {"ios": "https://dc.lft.to/lastmile_qr_scan", "android": "https://dc.lft.to/lastmile_qr_scan"}, "bike_id": "836c58b84630ebbcac17687a77f9484f", "lat": 38.884095, "name": "836c58b84630ebbcac17687a77f9484f", "lon": -77.02976183333334, "fusion_lon": 0.0}, {"is_reserved": 0, "type": "electric_scooter", "fusion_lat": 0.0, "is_disabled": 0, "rental_uris": {"ios": "https://dc.lft.to/lastmile_qr_scan", "android": "https://dc.lft.to/lastmile_qr_scan"}, "bike_id": "47929db03439bc5d0615d416126ddabb", "lat": 38.92419916666667, "name": "47929db03439bc5d0615d416126ddabb", "lon": -77.020102, "fusion_lon": 0.0}, {"is_reserved": 0, "type": "electric_scooter", "fusion_lat": 0.0, "is_disabled": 0, "rental_uris": {"ios": "https://dc.lft.to/lastmile_qr_scan", "android": "https://dc.lft.to/lastmile_qr_scan"}, "bike_id": "9b67ccf2e409b727db00f1112d94a506", "lat": 38.905223, "name": "9b67ccf2e409b727db00f1112d94a506", "lon": -77.0170735, "fusion_lon": 0.0}, {"is_reserved": 0, "type": "electric_scooter", "fusion_lat": 0.0, "is_disabled": 0, "rental_uris": {"ios": "https://dc.lft.to/lastmile_qr_scan", "android": "https://dc.lft.to/lastmile_qr_scan"}, "bike_id": "5767c664f3d3cba48653e635f4fd9fd0", "lat": 38.911790833333335, "name": "5767c664f3d3cba48653e635f4fd9fd0", "lon": -77.02954966666667, "fusion_lon": 0.0}, {"is_reserved": 0, "type": "electric_scooter", "fusion_lat": 0.0, "is_disabled": 0, "rental_uris": {"ios": "https://dc.lft.to/lastmile_qr_scan", "android": "https://dc.lft.to/lastmile_qr_scan"}, "bike_id": "458cc427fd6a717679ccbd2b744a3023", "lat": 38.895108, "name": "458cc427fd6a717679ccbd2b744a3023", "lon": -77.022913, "fusion_lon": 0.0}, {"is_reserved": 0, "type": "electric_scooter", "fusion_lat": 0.0, "is_disabled": 0, "rental_uris": {"ios": "https://dc.lft.to/lastmile_qr_scan", "android": "https://dc.lft.to/lastmile_qr_scan"}, "bike_id": "ec6cb0be8c16c3268874bb505d8fc3cf", "lat": 38.93132166666667, "name": "ec6cb0be8c16c3268874bb505d8fc3cf", "lon": -77.03848316666667, "fusion_lon": 0.0}, {"is_reserved": 0, "type": "electric_bike", "fusion_lat": 0.0, "is_disabled": 0, "rental_uris": {"ios": "https://dc.lft.to/lastmile_qr_scan", "android": "https://dc.lft.to/lastmile_qr_scan"}, "bike_id": "124f74e125d51ce80f45a19494d29b66", "lat": 38.852471333333334, "name": "124f74e125d51ce80f45a19494d29b66", "lon": -77.1140805, "fusion_lon": 0.0}, {"is_reserved": 0, "type": "electric_scooter", "fusion_lat": 0.0, "is_disabled": 0, "rental_uris": {"ios": "https://dc.lft.to/lastmile_qr_scan", "android": "https://dc.lft.to/lastmile_qr_scan"}, "bike_id": "05212c00188269e64ed89346ca1e129a", "lat": 38.92314316666667, "name": "05212c00188269e64ed89346ca1e129a", "lon": -77.02903833333333, "fusion_lon": 0.0}, {"is_reserved": 0, "type": "electric_scooter", "fusion_lat": 0.0, "is_disabled": 0, "rental_uris": {"ios": "https://dc.lft.to/lastmile_qr_scan", "android": "https://dc.lft.to/lastmile_qr_scan"}, "bike_id": "fb12d2ecc76d3c473992f0c4e8b86941", "lat": 38.92421083333333, "name": "fb12d2ecc76d3c473992f0c4e8b86941", "lon": -77.0448485, "fusion_lon": 0.0}, {"is_reserved": 0, "type": "electric_bike", "fusion_lat": 0.0, "is_disabled": 0, "rental_uris": {"ios": "https://dc.lft.to/lastmile_qr_scan", "android": "https://dc.lft.to/lastmile_qr_scan"}, "bike_id": "e38d079f1356135dc0b3b3fa30d313ef", "lat": 39.00646966666667, "name": "e38d079f1356135dc0b3b3fa30d313ef", "lon": -76.90022133333333, "fusion_lon": 0.0}, {"is_reserved": 0, "type": "electric_scooter", "fusion_lat": 0.0, "is_disabled": 0, "rental_uris": {"ios": "https://dc.lft.to/lastmile_qr_scan", "android": "https://dc.lft.to/lastmile_qr_scan"}, "bike_id": "57f01ba92eb413a8f27a70e168ba8899", "lat": 38.95218533333333, "name": "57f01ba92eb413a8f27a70e168ba8899", "lon": -77.08866683333333, "fusion_lon": 0.0}, {"is_reserved": 0, "type": "electric_scooter", "fusion_lat": 0.0, "is_disabled": 0, "rental_uris": {"ios": "https://dc.lft.to/lastmile_qr_scan", "android": "https://dc.lft.to/lastmile_qr_scan"}, "bike_id": "5fbc2796ce1bc2d49a293603945ef397", "lat": 38.906487166666665, "name": "5fbc2796ce1bc2d49a293603945ef397", "lon": -77.04546516666667, "fusion_lon": 0.0}, {"is_reserved": 0, "type": "electric_scooter", "fusion_lat": 0.0, "is_disabled": 0, "rental_uris": {"ios": "https://dc.lft.to/lastmile_qr_scan", "android": "https://dc.lft.to/lastmile_qr_scan"}, "bike_id": "b2ad0afa3d9f1e59d6cdf8edba0639a4", "lat": 38.91557383333333, "name": "b2ad0afa3d9f1e59d6cdf8edba0639a4", "lon": -77.0317695, "fusion_lon": 0.0}, {"is_reserved": 0, "type": "electric_scooter", "fusion_lat": 0.0, "is_disabled": 0, "rental_uris": {"ios": "https://dc.lft.to/lastmile_qr_scan", "android": "https://dc.lft.to/lastmile_qr_scan"}, "bike_id": "3ec4767c75efb5d1472a5a60cc8e8c58", "lat": 38.931731, "name": "3ec4767c75efb5d1472a5a60cc8e8c58", "lon": -77.02343216666667, "fusion_lon": 0.0}, {"is_reserved": 0, "type": "electric_scooter", "fusion_lat": 0.0, "is_disabled": 0, "rental_uris": {"ios": "https://dc.lft.to/lastmile_qr_scan", "android": "https://dc.lft.to/lastmile_qr_scan"}, "bike_id": "1cdfe97c51df08d875c1af340ed5dcc9", "lat": 38.883063166666666, "name": "1cdfe97c51df08d875c1af340ed5dcc9", "lon": -76.93477016666667, "fusion_lon": 0.0}, {"is_reserved": 0, "type": "electric_scooter", "fusion_lat": 0.0, "is_disabled": 0, "rental_uris": {"ios": "https://dc.lft.to/lastmile_qr_scan", "android": "https://dc.lft.to/lastmile_qr_scan"}, "bike_id": "4c97c132ebe2be70886e20c73cd3b400", "lat": 38.9014455, "name": "4c97c132ebe2be70886e20c73cd3b400", "lon": -76.92977333333333, "fusion_lon": 0.0}, {"is_reserved": 0, "type": "electric_scooter", "fusion_lat": 0.0, "is_disabled": 0, "rental_uris": {"ios": "https://dc.lft.to/lastmile_qr_scan", "android": "https://dc.lft.to/lastmile_qr_scan"}, "bike_id": "e17510d76e53a3273db815a6ffaaf1ab", "lat": 38.842786833333335, "name": "e17510d76e53a3273db815a6ffaaf1ab", "lon": -76.98841283333333, "fusion_lon": 0.0}, {"is_reserved": 0, "type": "electric_scooter", "fusion_lat": 0.0, "is_disabled": 0, "rental_uris": {"ios": "https://dc.lft.to/lastmile_qr_scan", "android": "https://dc.lft.to/lastmile_qr_scan"}, "bike_id": "32d619499dcf78206299352e284ec0e2", "lat": 38.92321533333333, "name": "32d619499dcf78206299352e284ec0e2", "lon": -77.045095, "fusion_lon": 0.0}, {"is_reserved": 0, "type": "electric_scooter", "fusion_lat": 0.0, "is_disabled": 0, "rental_uris": {"ios": "https://dc.lft.to/lastmile_qr_scan", "android": "https://dc.lft.to/lastmile_qr_scan"}, "bike_id": "08fa1cf43c26c90ec9bf74547cd418e3", "lat": 38.9025095, "name": "08fa1cf43c26c90ec9bf74547cd418e3", "lon": -77.02775766666667, "fusion_lon": 0.0}, {"is_reserved": 0, "type": "electric_scooter", "fusion_lat": 0.0, "is_disabled": 0, "rental_uris": {"ios": "https://dc.lft.to/lastmile_qr_scan", "android": "https://dc.lft.to/lastmile_qr_scan"}, "bike_id": "865baefd3702f9b7538c3f2d5c2d0ac5", "lat": 38.91708966666667, "name": "865baefd3702f9b7538c3f2d5c2d0ac5", "lon": -77.02409483333334, "fusion_lon": 0.0}, {"is_reserved": 0, "type": "electric_scooter", "fusion_lat": 0.0, "is_disabled": 0, "rental_uris": {"ios": "https://dc.lft.to/lastmile_qr_scan", "android": "https://dc.lft.to/lastmile_qr_scan"}, "bike_id": "8b9aa74dd1d69d344c29937259c4d851", "lat": 38.935056, "name": "8b9aa74dd1d69d344c29937259c4d851", "lon": -77.02422883333334, "fusion_lon": 0.0}, {"is_reserved": 0, "type": "electric_scooter", "fusion_lat": 0.0, "is_disabled": 0, "rental_uris": {"ios": "https://dc.lft.to/lastmile_qr_scan", "android": "https://dc.lft.to/lastmile_qr_scan"}, "bike_id": "c6712a4b099dd067b3c132af8456c3e4", "lat": 38.92106183333333, "name": "c6712a4b099dd067b3c132af8456c3e4", "lon": -77.03046033333334, "fusion_lon": 0.0}, {"is_reserved": 0, "type": "electric_scooter", "fusion_lat": 0.0, "is_disabled": 0, "rental_uris": {"ios": "https://dc.lft.to/lastmile_qr_scan", "android": "https://dc.lft.to/lastmile_qr_scan"}, "bike_id": "d6e6a0c4a518d39575f8bf6f028136d6", "lat": 38.917046166666665, "name": "d6e6a0c4a518d39575f8bf6f028136d6", "lon": -77.0240395, "fusion_lon": 0.0}, {"is_reserved": 0, "type": "electric_scooter", "fusion_lat": 0.0, "is_disabled": 0, "rental_uris": {"ios": "https://dc.lft.to/lastmile_qr_scan", "android": "https://dc.lft.to/lastmile_qr_scan"}, "bike_id": "c36f229f0ea06b5629c4382084118123", "lat": 38.915027, "name": "c36f229f0ea06b5629c4382084118123", "lon": -77.03214316666667, "fusion_lon": 0.0}, {"is_reserved": 0, "type": "electric_scooter", "fusion_lat": 0.0, "is_disabled": 0, "rental_uris": {"ios": "https://dc.lft.to/lastmile_qr_scan", "android": "https://dc.lft.to/lastmile_qr_scan"}, "bike_id": "fbd1a9367a71455d9daffd4e2cc1b349", "lat": 38.909744, "name": "fbd1a9367a71455d9daffd4e2cc1b349", "lon": -77.03296233333333, "fusion_lon": 0.0}, {"is_reserved": 0, "type": "electric_scooter", "fusion_lat": 0.0, "is_disabled": 0, "rental_uris": {"ios": "https://dc.lft.to/lastmile_qr_scan", "android": "https://dc.lft.to/lastmile_qr_scan"}, "bike_id": "59019bffa87d80be71e4a49d875ab32d", "lat": 38.917078, "name": "59019bffa87d80be71e4a49d875ab32d", "lon": -77.03495266666667, "fusion_lon": 0.0}, {"is_reserved": 0, "type": "electric_scooter", "fusion_lat": 0.0, "is_disabled": 0, "rental_uris": {"ios": "https://dc.lft.to/lastmile_qr_scan", "android": "https://dc.lft.to/lastmile_qr_scan"}, "bike_id": "fbfca2167c2275366b2a9b089c5f6cce", "lat": 38.909702333333335, "name": "fbfca2167c2275366b2a9b089c5f6cce", "lon": -77.02202116666666, "fusion_lon": 0.0}, {"is_reserved": 0, "type": "electric_scooter", "fusion_lat": 0.0, "is_disabled": 0, "rental_uris": {"ios": "https://dc.lft.to/lastmile_qr_scan", "android": "https://dc.lft.to/lastmile_qr_scan"}, "bike_id": "2d7fb599d87e084b204a7bcffaacad99", "lat": 38.92318683333333, "name": "2d7fb599d87e084b204a7bcffaacad99", "lon": -77.01956266666667, "fusion_lon": 0.0}, {"is_reserved": 0, "type": "electric_scooter", "fusion_lat": 0.0, "is_disabled": 0, "rental_uris": {"ios": "https://dc.lft.to/lastmile_qr_scan", "android": "https://dc.lft.to/lastmile_qr_scan"}, "bike_id": "3655cfe94ce359846d4dd04ab8281b44", "lat": 38.91564266666666, "name": "3655cfe94ce359846d4dd04ab8281b44", "lon": -77.04089583333334, "fusion_lon": 0.0}, {"is_reserved": 0, "type": "electric_bike", "fusion_lat": 0.0, "is_disabled": 0, "rental_uris": {"ios": "https://dc.lft.to/lastmile_qr_scan", "android": "https://dc.lft.to/lastmile_qr_scan"}, "bike_id": "98b11f7be3c64ac41912bedcb0fd365a", "lat": 38.83868416666667, "name": "98b11f7be3c64ac41912bedcb0fd365a", "lon": -76.9969465, "fusion_lon": 0.0}, {"is_reserved": 0, "type": "electric_scooter", "fusion_lat": 0.0, "is_disabled": 0, "rental_uris": {"ios": "https://dc.lft.to/lastmile_qr_scan", "android": "https://dc.lft.to/lastmile_qr_scan"}, "bike_id": "e166453f7b772339ec79bf5c3273f61f", "lat": 38.89709783333333, "name": "e166453f7b772339ec79bf5c3273f61f", "lon": -77.02696183333333, "fusion_lon": 0.0}, {"is_reserved": 0, "type": "electric_scooter", "fusion_lat": 0.0, "is_disabled": 0, "rental_uris": {"ios": "https://dc.lft.to/lastmile_qr_scan", "android": "https://dc.lft.to/lastmile_qr_scan"}, "bike_id": "8fddd3ac3b4fc1d071afabf52f9ad164", "lat": 38.9363, "name": "8fddd3ac3b4fc1d071afabf52f9ad164", "lon": -77.055681, "fusion_lon": 0.0}, {"is_reserved": 0, "type": "electric_scooter", "fusion_lat": 0.0, "is_disabled": 0, "rental_uris": {"ios": "https://dc.lft.to/lastmile_qr_scan", "android": "https://dc.lft.to/lastmile_qr_scan"}, "bike_id": "62f6a95d5992cf7a9bded7c411e320cb", "lat": 38.918185, "name": "62f6a95d5992cf7a9bded7c411e320cb", "lon": -77.03998266666666, "fusion_lon": 0.0}, {"is_reserved": 0, "type": "electric_bike", "fusion_lat": 0.0, "is_disabled": 0, "rental_uris": {"ios": "https://dc.lft.to/lastmile_qr_scan", "android": "https://dc.lft.to/lastmile_qr_scan"}, "bike_id": "d53843644a2d8bd08af6c1a0315a32b9", "lat": 38.90379816666667, "name": "d53843644a2d8bd08af6c1a0315a32b9", "lon": -76.9375485, "fusion_lon": 0.0}, {"is_reserved": 0, "type": "electric_scooter", "fusion_lat": 0.0, "is_disabled": 0, "rental_uris": {"ios": "https://dc.lft.to/lastmile_qr_scan", "android": "https://dc.lft.to/lastmile_qr_scan"}, "bike_id": "1aaf19661307761fd42fbfe7bf59eeba", "lat": 38.908376833333335, "name": "1aaf19661307761fd42fbfe7bf59eeba", "lon": -77.03309566666667, "fusion_lon": 0.0}, {"is_reserved": 0, "type": "electric_scooter", "fusion_lat": 0.0, "is_disabled": 0, "rental_uris": {"ios": "https://dc.lft.to/lastmile_qr_scan", "android": "https://dc.lft.to/lastmile_qr_scan"}, "bike_id": "1fd611bde73c4ee17a8fa65afba8fb26", "lat": 38.90360966666667, "name": "1fd611bde73c4ee17a8fa65afba8fb26", "lon": -77.06005716666667, "fusion_lon": 0.0}, {"is_reserved": 0, "type": "electric_scooter", "fusion_lat": 0.0, "is_disabled": 0, "rental_uris": {"ios": "https://dc.lft.to/lastmile_qr_scan", "android": "https://dc.lft.to/lastmile_qr_scan"}, "bike_id": "33ccabf9c57a5d4915450c1bb0bc84bb", "lat": 38.88531616666667, "name": "33ccabf9c57a5d4915450c1bb0bc84bb", "lon": -76.98053466666667, "fusion_lon": 0.0}, {"is_reserved": 0, "type": "electric_scooter", "fusion_lat": 0.0, "is_disabled": 0, "rental_uris": {"ios": "https://dc.lft.to/lastmile_qr_scan", "android": "https://dc.lft.to/lastmile_qr_scan"}, "bike_id": "2508340f764ae2d4e0bbd8a42b32c10a", "lat": 38.89937166666667, "name": "2508340f764ae2d4e0bbd8a42b32c10a", "lon": -77.05395383333334, "fusion_lon": 0.0}, {"is_reserved": 0, "type": "electric_scooter", "fusion_lat": 0.0, "is_disabled": 0, "rental_uris": {"ios": "https://dc.lft.to/lastmile_qr_scan", "android": "https://dc.lft.to/lastmile_qr_scan"}, "bike_id": "91f4db6db1005a238f2ef21d1a3a7ed3", "lat": 38.934848333333335, "name": "91f4db6db1005a238f2ef21d1a3a7ed3", "lon": -77.03635316666667, "fusion_lon": 0.0}, {"is_reserved": 0, "type": "electric_scooter", "fusion_lat": 0.0, "is_disabled": 0, "rental_uris": {"ios": "https://dc.lft.to/lastmile_qr_scan", "android": "https://dc.lft.to/lastmile_qr_scan"}, "bike_id": "3de8c3965e6a09fedccd4bb34d9cc3c7", "lat": 38.903573333333334, "name": "3de8c3965e6a09fedccd4bb34d9cc3c7", "lon": -77.00744083333333, "fusion_lon": 0.0}, {"is_reserved": 0, "type": "electric_scooter", "fusion_lat": 0.0, "is_disabled": 0, "rental_uris": {"ios": "https://dc.lft.to/lastmile_qr_scan", "android": "https://dc.lft.to/lastmile_qr_scan"}, "bike_id": "7de81026d0bd6dc1827095fbc0256de0", "lat": 38.89950983333333, "name": "7de81026d0bd6dc1827095fbc0256de0", "lon": -77.047477, "fusion_lon": 0.0}, {"is_reserved": 0, "type": "electric_scooter", "fusion_lat": 0.0, "is_disabled": 0, "rental_uris": {"ios": "https://dc.lft.to/lastmile_qr_scan", "android": "https://dc.lft.to/lastmile_qr_scan"}, "bike_id": "25460badb647f0cbf7d906f776de2810", "lat": 38.90644966666667, "name": "25460badb647f0cbf7d906f776de2810", "lon": -77.018728, "fusion_lon": 0.0}, {"is_reserved": 0, "type": "electric_scooter", "fusion_lat": 0.0, "is_disabled": 0, "rental_uris": {"ios": "https://dc.lft.to/lastmile_qr_scan", "android": "https://dc.lft.to/lastmile_qr_scan"}, "bike_id": "a01f853563b2cf1033f25063dedd8405", "lat": 38.887311, "name": "a01f853563b2cf1033f25063dedd8405", "lon": -76.98377433333333, "fusion_lon": 0.0}, {"is_reserved": 0, "type": "electric_scooter", "fusion_lat": 0.0, "is_disabled": 0, "rental_uris": {"ios": "https://dc.lft.to/lastmile_qr_scan", "android": "https://dc.lft.to/lastmile_qr_scan"}, "bike_id": "29ad4dbacfaf5ce859dfe500d3abee73", "lat": 38.8950855, "name": "29ad4dbacfaf5ce859dfe500d3abee73", "lon": -77.022881, "fusion_lon": 0.0}, {"is_reserved": 0, "type": "electric_scooter", "fusion_lat": 0.0, "is_disabled": 0, "rental_uris": {"ios": "https://dc.lft.to/lastmile_qr_scan", "android": "https://dc.lft.to/lastmile_qr_scan"}, "bike_id": "9f1151cb112becae9308776f16bcedf8", "lat": 38.9204545, "name": "9f1151cb112becae9308776f16bcedf8", "lon": -77.02606066666667, "fusion_lon": 0.0}, {"is_reserved": 0, "type": "electric_scooter", "fusion_lat": 0.0, "is_disabled": 0, "rental_uris": {"ios": "https://dc.lft.to/lastmile_qr_scan", "android": "https://dc.lft.to/lastmile_qr_scan"}, "bike_id": "2c9615e294eb6166edffc1898d9d192d", "lat": 38.956246166666666, "name": "2c9615e294eb6166edffc1898d9d192d", "lon": -77.0223785, "fusion_lon": 0.0}, {"is_reserved": 0, "type": "electric_scooter", "fusion_lat": 0.0, "is_disabled": 0, "rental_uris": {"ios": "https://dc.lft.to/lastmile_qr_scan", "android": "https://dc.lft.to/lastmile_qr_scan"}, "bike_id": "b88ee0544a791fd6d2048df7bb4eb4fe", "lat": 38.92063683333333, "name": "b88ee0544a791fd6d2048df7bb4eb4fe", "lon": -77.04400216666667, "fusion_lon": 0.0}, {"is_reserved": 0, "type": "electric_scooter", "fusion_lat": 0.0, "is_disabled": 0, "rental_uris": {"ios": "https://dc.lft.to/lastmile_qr_scan", "android": "https://dc.lft.to/lastmile_qr_scan"}, "bike_id": "1dbf93c8fd7a793128287c4916b6903b", "lat": 38.881040666666664, "name": "1dbf93c8fd7a793128287c4916b6903b", "lon": -76.987732, "fusion_lon": 0.0}, {"is_reserved": 0, "type": "electric_scooter", "fusion_lat": 0.0, "is_disabled": 0, "rental_uris": {"ios": "https://dc.lft.to/lastmile_qr_scan", "android": "https://dc.lft.to/lastmile_qr_scan"}, "bike_id": "a7d78db1dd7c818af692944f48eddd41", "lat": 38.8757365, "name": "a7d78db1dd7c818af692944f48eddd41", "lon": -77.005955, "fusion_lon": 0.0}, {"is_reserved": 0, "type": "electric_scooter", "fusion_lat": 0.0, "is_disabled": 0, "rental_uris": {"ios": "https://dc.lft.to/lastmile_qr_scan", "android": "https://dc.lft.to/lastmile_qr_scan"}, "bike_id": "4aa50bba65d05e5677d85e28c4677d03", "lat": 38.9323855, "name": "4aa50bba65d05e5677d85e28c4677d03", "lon": -77.04071866666666, "fusion_lon": 0.0}, {"is_reserved": 0, "type": "electric_bike", "fusion_lat": 0.0, "is_disabled": 0, "rental_uris": {"ios": "https://dc.lft.to/lastmile_qr_scan", "android": "https://dc.lft.to/lastmile_qr_scan"}, "bike_id": "3758712c860db93394a58c427933640d", "lat": 38.865663166666664, "name": "3758712c860db93394a58c427933640d", "lon": -76.97474, "fusion_lon": 0.0}, {"is_reserved": 0, "type": "electric_scooter", "fusion_lat": 0.0, "is_disabled": 0, "rental_uris": {"ios": "https://dc.lft.to/lastmile_qr_scan", "android": "https://dc.lft.to/lastmile_qr_scan"}, "bike_id": "d93872e000c5c1f9739bb94698df0372", "lat": 38.911600166666666, "name": "d93872e000c5c1f9739bb94698df0372", "lon": -77.04484766666667, "fusion_lon": 0.0}, {"is_reserved": 0, "type": "electric_scooter", "fusion_lat": 0.0, "is_disabled": 0, "rental_uris": {"ios": "https://dc.lft.to/lastmile_qr_scan", "android": "https://dc.lft.to/lastmile_qr_scan"}, "bike_id": "05f49232b386a98a3f43ae9b1bc4a46b", "lat": 38.88583083333333, "name": "05f49232b386a98a3f43ae9b1bc4a46b", "lon": -77.01226283333334, "fusion_lon": 0.0}, {"is_reserved": 0, "type": "electric_scooter", "fusion_lat": 0.0, "is_disabled": 0, "rental_uris": {"ios": "https://dc.lft.to/lastmile_qr_scan", "android": "https://dc.lft.to/lastmile_qr_scan"}, "bike_id": "7f8ff689022b6720c27a7656f41201fb", "lat": 38.9006845, "name": "7f8ff689022b6720c27a7656f41201fb", "lon": -77.01329933333334, "fusion_lon": 0.0}, {"is_reserved": 0, "type": "electric_scooter", "fusion_lat": 0.0, "is_disabled": 0, "rental_uris": {"ios": "https://dc.lft.to/lastmile_qr_scan", "android": "https://dc.lft.to/lastmile_qr_scan"}, "bike_id": "7deaf8306f13c505c01845800d7c7bfb", "lat": 38.89832633333333, "name": "7deaf8306f13c505c01845800d7c7bfb", "lon": -77.00212466666666, "fusion_lon": 0.0}, {"is_reserved": 0, "type": "electric_bike", "fusion_lat": 0.0, "is_disabled": 0, "rental_uris": {"ios": "https://dc.lft.to/lastmile_qr_scan", "android": "https://dc.lft.to/lastmile_qr_scan"}, "bike_id": "3e764f96364af1dd2040e8388685c614", "lat": 38.82426983333333, "name": "3e764f96364af1dd2040e8388685c614", "lon": -77.12038083333333, "fusion_lon": 0.0}, {"is_reserved": 0, "type": "electric_scooter", "fusion_lat": 0.0, "is_disabled": 0, "rental_uris": {"ios": "https://dc.lft.to/lastmile_qr_scan", "android": "https://dc.lft.to/lastmile_qr_scan"}, "bike_id": "b1ee348a14204609c18b974433d2be60", "lat": 38.91042733333333, "name": "b1ee348a14204609c18b974433d2be60", "lon": -77.0102265, "fusion_lon": 0.0}, {"is_reserved": 0, "type": "electric_scooter", "fusion_lat": 0.0, "is_disabled": 0, "rental_uris": {"ios": "https://dc.lft.to/lastmile_qr_scan", "android": "https://dc.lft.to/lastmile_qr_scan"}, "bike_id": "9f78fc38004483c7d895bf2a980fdce1", "lat": 38.876149166666664, "name": "9f78fc38004483c7d895bf2a980fdce1", "lon": -77.0056445, "fusion_lon": 0.0}, {"is_reserved": 0, "type": "electric_scooter", "fusion_lat": 0.0, "is_disabled": 0, "rental_uris": {"ios": "https://dc.lft.to/lastmile_qr_scan", "android": "https://dc.lft.to/lastmile_qr_scan"}, "bike_id": "8d1eda26544272b01d52808b7d63c406", "lat": 38.930584, "name": "8d1eda26544272b01d52808b7d63c406", "lon": -77.03668933333333, "fusion_lon": 0.0}, {"is_reserved": 0, "type": "electric_scooter", "fusion_lat": 0.0, "is_disabled": 0, "rental_uris": {"ios": "https://dc.lft.to/lastmile_qr_scan", "android": "https://dc.lft.to/lastmile_qr_scan"}, "bike_id": "c22cc22219478fcfa871bdb95a2e9eea", "lat": 38.94317216666666, "name": "c22cc22219478fcfa871bdb95a2e9eea", "lon": -77.07636733333334, "fusion_lon": 0.0}, {"is_reserved": 0, "type": "electric_scooter", "fusion_lat": 0.0, "is_disabled": 0, "rental_uris": {"ios": "https://dc.lft.to/lastmile_qr_scan", "android": "https://dc.lft.to/lastmile_qr_scan"}, "bike_id": "d140026667d051d50516b6db6bdea133", "lat": 38.89232066666667, "name": "d140026667d051d50516b6db6bdea133", "lon": -77.02383933333333, "fusion_lon": 0.0}, {"is_reserved": 0, "type": "electric_scooter", "fusion_lat": 0.0, "is_disabled": 0, "rental_uris": {"ios": "https://dc.lft.to/lastmile_qr_scan", "android": "https://dc.lft.to/lastmile_qr_scan"}, "bike_id": "5214465300a944e11e604fbb07090026", "lat": 38.920069, "name": "5214465300a944e11e604fbb07090026", "lon": -77.041755, "fusion_lon": 0.0}, {"is_reserved": 0, "type": "electric_scooter", "fusion_lat": 0.0, "is_disabled": 0, "rental_uris": {"ios": "https://dc.lft.to/lastmile_qr_scan", "android": "https://dc.lft.to/lastmile_qr_scan"}, "bike_id": "4aaabafb8ae9cfcfcc6b314c0ede00e9", "lat": 38.9154215, "name": "4aaabafb8ae9cfcfcc6b314c0ede00e9", "lon": -77.04433316666666, "fusion_lon": 0.0}, {"is_reserved": 0, "type": "electric_scooter", "fusion_lat": 0.0, "is_disabled": 0, "rental_uris": {"ios": "https://dc.lft.to/lastmile_qr_scan", "android": "https://dc.lft.to/lastmile_qr_scan"}, "bike_id": "bd15e1e35e0e6073a6ff8190bf302acb", "lat": 38.909499333333336, "name": "bd15e1e35e0e6073a6ff8190bf302acb", "lon": -77.04657483333334, "fusion_lon": 0.0}, {"is_reserved": 0, "type": "electric_scooter", "fusion_lat": 0.0, "is_disabled": 0, "rental_uris": {"ios": "https://dc.lft.to/lastmile_qr_scan", "android": "https://dc.lft.to/lastmile_qr_scan"}, "bike_id": "ead9320812a08408fbdb0e9953d78cfd", "lat": 38.883709333333336, "name": "ead9320812a08408fbdb0e9953d78cfd", "lon": -76.9951225, "fusion_lon": 0.0}, {"is_reserved": 0, "type": "electric_scooter", "fusion_lat": 0.0, "is_disabled": 0, "rental_uris": {"ios": "https://dc.lft.to/lastmile_qr_scan", "android": "https://dc.lft.to/lastmile_qr_scan"}, "bike_id": "5fa849870925a84872888ae683edfc60", "lat": 38.902484666666666, "name": "5fa849870925a84872888ae683edfc60", "lon": -77.046802, "fusion_lon": 0.0}, {"is_reserved": 0, "type": "electric_scooter", "fusion_lat": 0.0, "is_disabled": 0, "rental_uris": {"ios": "https://dc.lft.to/lastmile_qr_scan", "android": "https://dc.lft.to/lastmile_qr_scan"}, "bike_id": "03f87e5d966cc5d3897fff2941f6730e", "lat": 38.9310425, "name": "03f87e5d966cc5d3897fff2941f6730e", "lon": -77.024797, "fusion_lon": 0.0}, {"is_reserved": 0, "type": "electric_scooter", "fusion_lat": 0.0, "is_disabled": 0, "rental_uris": {"ios": "https://dc.lft.to/lastmile_qr_scan", "android": "https://dc.lft.to/lastmile_qr_scan"}, "bike_id": "8c6720ef741b5e70969a6725ad970057", "lat": 38.92169233333333, "name": "8c6720ef741b5e70969a6725ad970057", "lon": -77.04124483333334, "fusion_lon": 0.0}, {"is_reserved": 0, "type": "electric_scooter", "fusion_lat": 0.0, "is_disabled": 0, "rental_uris": {"ios": "https://dc.lft.to/lastmile_qr_scan", "android": "https://dc.lft.to/lastmile_qr_scan"}, "bike_id": "09ef74a20d9be995b28fd68ece4f1a27", "lat": 38.899836, "name": "09ef74a20d9be995b28fd68ece4f1a27", "lon": -77.04168716666666, "fusion_lon": 0.0}, {"is_reserved": 0, "type": "electric_scooter", "fusion_lat": 0.0, "is_disabled": 0, "rental_uris": {"ios": "https://dc.lft.to/lastmile_qr_scan", "android": "https://dc.lft.to/lastmile_qr_scan"}, "bike_id": "c460244688c615742d746e10b731880b", "lat": 38.9197045, "name": "c460244688c615742d746e10b731880b", "lon": -77.03956483333333, "fusion_lon": 0.0}, {"is_reserved": 0, "type": "electric_scooter", "fusion_lat": 0.0, "is_disabled": 0, "rental_uris": {"ios": "https://dc.lft.to/lastmile_qr_scan", "android": "https://dc.lft.to/lastmile_qr_scan"}, "bike_id": "9df1e74418f033c6b2d4df301bd50399", "lat": 38.92142483333333, "name": "9df1e74418f033c6b2d4df301bd50399", "lon": -77.04583483333333, "fusion_lon": 0.0}, {"is_reserved": 0, "type": "electric_scooter", "fusion_lat": 0.0, "is_disabled": 0, "rental_uris": {"ios": "https://dc.lft.to/lastmile_qr_scan", "android": "https://dc.lft.to/lastmile_qr_scan"}, "bike_id": "45c41eb460db3b37b69815419eeab034", "lat": 38.896697333333336, "name": "45c41eb460db3b37b69815419eeab034", "lon": -76.94907966666666, "fusion_lon": 0.0}, {"is_reserved": 0, "type": "electric_scooter", "fusion_lat": 0.0, "is_disabled": 0, "rental_uris": {"ios": "https://dc.lft.to/lastmile_qr_scan", "android": "https://dc.lft.to/lastmile_qr_scan"}, "bike_id": "074bfa4322b44b61b80d7115fc65257d", "lat": 38.886147, "name": "074bfa4322b44b61b80d7115fc65257d", "lon": -77.02205983333333, "fusion_lon": 0.0}, {"is_reserved": 0, "type": "electric_scooter", "fusion_lat": 0.0, "is_disabled": 0, "rental_uris": {"ios": "https://dc.lft.to/lastmile_qr_scan", "android": "https://dc.lft.to/lastmile_qr_scan"}, "bike_id": "9243fc8e4604322b86342038325e2bf3", "lat": 38.89455483333333, "name": "9243fc8e4604322b86342038325e2bf3", "lon": -77.02191783333333, "fusion_lon": 0.0}, {"is_reserved": 0, "type": "electric_scooter", "fusion_lat": 0.0, "is_disabled": 0, "rental_uris": {"ios": "https://dc.lft.to/lastmile_qr_scan", "android": "https://dc.lft.to/lastmile_qr_scan"}, "bike_id": "ad9422784263fe7906cbd279e5730c05", "lat": 38.903041333333334, "name": "ad9422784263fe7906cbd279e5730c05", "lon": -76.99838683333333, "fusion_lon": 0.0}, {"is_reserved": 0, "type": "electric_scooter", "fusion_lat": 0.0, "is_disabled": 0, "rental_uris": {"ios": "https://dc.lft.to/lastmile_qr_scan", "android": "https://dc.lft.to/lastmile_qr_scan"}, "bike_id": "2f9f6815a0428cdd36bc6a901172c958", "lat": 38.872921166666664, "name": "2f9f6815a0428cdd36bc6a901172c958", "lon": -77.00985033333333, "fusion_lon": 0.0}, {"is_reserved": 0, "type": "electric_scooter", "fusion_lat": 0.0, "is_disabled": 0, "rental_uris": {"ios": "https://dc.lft.to/lastmile_qr_scan", "android": "https://dc.lft.to/lastmile_qr_scan"}, "bike_id": "30cc097c71599a83e80e7a3772a10b27", "lat": 38.917359833333336, "name": "30cc097c71599a83e80e7a3772a10b27", "lon": -77.06896116666667, "fusion_lon": 0.0}, {"is_reserved": 0, "type": "electric_scooter", "fusion_lat": 0.0, "is_disabled": 0, "rental_uris": {"ios": "https://dc.lft.to/lastmile_qr_scan", "android": "https://dc.lft.to/lastmile_qr_scan"}, "bike_id": "cbe27bd21e19f99f80e33fbb79827ea3", "lat": 38.8985275, "name": "cbe27bd21e19f99f80e33fbb79827ea3", "lon": -76.99489516666667, "fusion_lon": 0.0}, {"is_reserved": 0, "type": "electric_scooter", "fusion_lat": 0.0, "is_disabled": 0, "rental_uris": {"ios": "https://dc.lft.to/lastmile_qr_scan", "android": "https://dc.lft.to/lastmile_qr_scan"}, "bike_id": "cbb11b88b2e73ff53006533088b599c1", "lat": 38.90569133333333, "name": "cbb11b88b2e73ff53006533088b599c1", "lon": -77.02764066666667, "fusion_lon": 0.0}, {"is_reserved": 0, "type": "electric_scooter", "fusion_lat": 0.0, "is_disabled": 0, "rental_uris": {"ios": "https://dc.lft.to/lastmile_qr_scan", "android": "https://dc.lft.to/lastmile_qr_scan"}, "bike_id": "f1cdeca8390a14b4fc3c0495e56d23ec", "lat": 38.898435, "name": "f1cdeca8390a14b4fc3c0495e56d23ec", "lon": -77.02875933333333, "fusion_lon": 0.0}, {"is_reserved": 0, "type": "electric_scooter", "fusion_lat": 0.0, "is_disabled": 0, "rental_uris": {"ios": "https://dc.lft.to/lastmile_qr_scan", "android": "https://dc.lft.to/lastmile_qr_scan"}, "bike_id": "dee5fb6a9d50f89e34f5ed3e23f06f27", "lat": 38.897333, "name": "dee5fb6a9d50f89e34f5ed3e23f06f27", "lon": -77.04590933333333, "fusion_lon": 0.0}, {"is_reserved": 0, "type": "electric_scooter", "fusion_lat": 0.0, "is_disabled": 0, "rental_uris": {"ios": "https://dc.lft.to/lastmile_qr_scan", "android": "https://dc.lft.to/lastmile_qr_scan"}, "bike_id": "f1a5e0c0935eb51fd5ae27382eefa034", "lat": 38.955582666666665, "name": "f1a5e0c0935eb51fd5ae27382eefa034", "lon": -77.0332595, "fusion_lon": 0.0}, {"is_reserved": 0, "type": "electric_scooter", "fusion_lat": 0.0, "is_disabled": 0, "rental_uris": {"ios": "https://dc.lft.to/lastmile_qr_scan", "android": "https://dc.lft.to/lastmile_qr_scan"}, "bike_id": "86eeb4abd0ab92d605a83b9b35723ad7", "lat": 38.9236765, "name": "86eeb4abd0ab92d605a83b9b35723ad7", "lon": -77.051277, "fusion_lon": 0.0}, {"is_reserved": 0, "type": "electric_scooter", "fusion_lat": 0.0, "is_disabled": 0, "rental_uris": {"ios": "https://dc.lft.to/lastmile_qr_scan", "android": "https://dc.lft.to/lastmile_qr_scan"}, "bike_id": "1ed7cd8672dcda85383135f128f2f0a4", "lat": 38.8554775, "name": "1ed7cd8672dcda85383135f128f2f0a4", "lon": -76.98667316666666, "fusion_lon": 0.0}, {"is_reserved": 0, "type": "electric_scooter", "fusion_lat": 0.0, "is_disabled": 0, "rental_uris": {"ios": "https://dc.lft.to/lastmile_qr_scan", "android": "https://dc.lft.to/lastmile_qr_scan"}, "bike_id": "a9e5568f05bdbd2c08d520e660d20751", "lat": 38.898898, "name": "a9e5568f05bdbd2c08d520e660d20751", "lon": -77.02181416666667, "fusion_lon": 0.0}, {"is_reserved": 0, "type": "electric_scooter", "fusion_lat": 0.0, "is_disabled": 0, "rental_uris": {"ios": "https://dc.lft.to/lastmile_qr_scan", "android": "https://dc.lft.to/lastmile_qr_scan"}, "bike_id": "cd42a28f312f3a9fd39eadab3549aaea", "lat": 38.9187885, "name": "cd42a28f312f3a9fd39eadab3549aaea", "lon": -77.03548666666667, "fusion_lon": 0.0}, {"is_reserved": 0, "type": "electric_scooter", "fusion_lat": 0.0, "is_disabled": 0, "rental_uris": {"ios": "https://dc.lft.to/lastmile_qr_scan", "android": "https://dc.lft.to/lastmile_qr_scan"}, "bike_id": "4f88786e77f04cc7f94fac1f688dc6dc", "lat": 38.93588066666667, "name": "4f88786e77f04cc7f94fac1f688dc6dc", "lon": -77.07434033333334, "fusion_lon": 0.0}, {"is_reserved": 0, "type": "electric_scooter", "fusion_lat": 0.0, "is_disabled": 0, "rental_uris": {"ios": "https://dc.lft.to/lastmile_qr_scan", "android": "https://dc.lft.to/lastmile_qr_scan"}, "bike_id": "a954a593ffdbde7e162bdd30e5a474fd", "lat": 38.893427833333334, "name": "a954a593ffdbde7e162bdd30e5a474fd", "lon": -76.985582, "fusion_lon": 0.0}, {"is_reserved": 0, "type": "electric_scooter", "fusion_lat": 0.0, "is_disabled": 0, "rental_uris": {"ios": "https://dc.lft.to/lastmile_qr_scan", "android": "https://dc.lft.to/lastmile_qr_scan"}, "bike_id": "97f9e79fd474384feed47e15f8a2c465", "lat": 38.87726033333333, "name": "97f9e79fd474384feed47e15f8a2c465", "lon": -77.00612416666667, "fusion_lon": 0.0}, {"is_reserved": 0, "type": "electric_scooter", "fusion_lat": 0.0, "is_disabled": 0, "rental_uris": {"ios": "https://dc.lft.to/lastmile_qr_scan", "android": "https://dc.lft.to/lastmile_qr_scan"}, "bike_id": "d1c8782cab9b51056300354783f39cf6", "lat": 38.928017, "name": "d1c8782cab9b51056300354783f39cf6", "lon": -77.037033, "fusion_lon": 0.0}, {"is_reserved": 0, "type": "electric_scooter", "fusion_lat": 0.0, "is_disabled": 0, "rental_uris": {"ios": "https://dc.lft.to/lastmile_qr_scan", "android": "https://dc.lft.to/lastmile_qr_scan"}, "bike_id": "d73a896cf83a67c776863230bb31d7cf", "lat": 38.9246895, "name": "d73a896cf83a67c776863230bb31d7cf", "lon": -77.02713033333333, "fusion_lon": 0.0}, {"is_reserved": 0, "type": "electric_scooter", "fusion_lat": 0.0, "is_disabled": 0, "rental_uris": {"ios": "https://dc.lft.to/lastmile_qr_scan", "android": "https://dc.lft.to/lastmile_qr_scan"}, "bike_id": "c255161bc5f9b8782834db3810eead61", "lat": 38.919309, "name": "c255161bc5f9b8782834db3810eead61", "lon": -77.03171283333333, "fusion_lon": 0.0}, {"is_reserved": 0, "type": "electric_scooter", "fusion_lat": 0.0, "is_disabled": 0, "rental_uris": {"ios": "https://dc.lft.to/lastmile_qr_scan", "android": "https://dc.lft.to/lastmile_qr_scan"}, "bike_id": "111ddf41f6c6c37c4b0c11316e12831e", "lat": 38.907371166666664, "name": "111ddf41f6c6c37c4b0c11316e12831e", "lon": -77.04162933333333, "fusion_lon": 0.0}, {"is_reserved": 0, "type": "electric_scooter", "fusion_lat": 0.0, "is_disabled": 0, "rental_uris": {"ios": "https://dc.lft.to/lastmile_qr_scan", "android": "https://dc.lft.to/lastmile_qr_scan"}, "bike_id": "49d9f694c34184355f75e4e8c6df3fba", "lat": 38.876419166666665, "name": "49d9f694c34184355f75e4e8c6df3fba", "lon": -76.99293383333334, "fusion_lon": 0.0}, {"is_reserved": 0, "type": "electric_scooter", "fusion_lat": 0.0, "is_disabled": 0, "rental_uris": {"ios": "https://dc.lft.to/lastmile_qr_scan", "android": "https://dc.lft.to/lastmile_qr_scan"}, "bike_id": "56e71b76ef0d34e39a004556d2eb9163", "lat": 38.932112833333335, "name": "56e71b76ef0d34e39a004556d2eb9163", "lon": -77.03260966666667, "fusion_lon": 0.0}, {"is_reserved": 0, "type": "electric_bike", "fusion_lat": 0.0, "is_disabled": 0, "rental_uris": {"ios": "https://dc.lft.to/lastmile_qr_scan", "android": "https://dc.lft.to/lastmile_qr_scan"}, "bike_id": "fcea0af6bd4f9db15d486ce42549be85", "lat": 38.831607166666664, "name": "fcea0af6bd4f9db15d486ce42549be85", "lon": -76.99589266666666, "fusion_lon": 0.0}, {"is_reserved": 0, "type": "electric_scooter", "fusion_lat": 0.0, "is_disabled": 0, "rental_uris": {"ios": "https://dc.lft.to/lastmile_qr_scan", "android": "https://dc.lft.to/lastmile_qr_scan"}, "bike_id": "432a986eae77ca37266fda58378b25e5", "lat": 38.9159935, "name": "432a986eae77ca37266fda58378b25e5", "lon": -76.9829365, "fusion_lon": 0.0}, {"is_reserved": 0, "type": "electric_scooter", "fusion_lat": 0.0, "is_disabled": 0, "rental_uris": {"ios": "https://dc.lft.to/lastmile_qr_scan", "android": "https://dc.lft.to/lastmile_qr_scan"}, "bike_id": "d63a2bacbdf698169f0b87531fba6d76", "lat": 38.91708, "name": "d63a2bacbdf698169f0b87531fba6d76", "lon": -77.02401083333334, "fusion_lon": 0.0}, {"is_reserved": 0, "type": "electric_scooter", "fusion_lat": 0.0, "is_disabled": 0, "rental_uris": {"ios": "https://dc.lft.to/lastmile_qr_scan", "android": "https://dc.lft.to/lastmile_qr_scan"}, "bike_id": "10484d93f9bed911c42c46a33697602c", "lat": 38.8747645, "name": "10484d93f9bed911c42c46a33697602c", "lon": -77.004864, "fusion_lon": 0.0}, {"is_reserved": 0, "type": "electric_scooter", "fusion_lat": 0.0, "is_disabled": 0, "rental_uris": {"ios": "https://dc.lft.to/lastmile_qr_scan", "android": "https://dc.lft.to/lastmile_qr_scan"}, "bike_id": "83fbe441a2feb673b38329aa9fa14dc2", "lat": 38.918159333333335, "name": "83fbe441a2feb673b38329aa9fa14dc2", "lon": -77.02477833333333, "fusion_lon": 0.0}, {"is_reserved": 0, "type": "electric_scooter", "fusion_lat": 0.0, "is_disabled": 0, "rental_uris": {"ios": "https://dc.lft.to/lastmile_qr_scan", "android": "https://dc.lft.to/lastmile_qr_scan"}, "bike_id": "deb686b6c0d37fe08df458420689f6fe", "lat": 38.899877833333335, "name": "deb686b6c0d37fe08df458420689f6fe", "lon": -77.0270025, "fusion_lon": 0.0}, {"is_reserved": 0, "type": "electric_scooter", "fusion_lat": 0.0, "is_disabled": 0, "rental_uris": {"ios": "https://dc.lft.to/lastmile_qr_scan", "android": "https://dc.lft.to/lastmile_qr_scan"}, "bike_id": "722715d32257965e799c3f9fd8fec394", "lat": 38.93514566666666, "name": "722715d32257965e799c3f9fd8fec394", "lon": -77.05694666666666, "fusion_lon": 0.0}, {"is_reserved": 0, "type": "electric_scooter", "fusion_lat": 0.0, "is_disabled": 0, "rental_uris": {"ios": "https://dc.lft.to/lastmile_qr_scan", "android": "https://dc.lft.to/lastmile_qr_scan"}, "bike_id": "9519c003a71ee032033b5e81347d4a93", "lat": 38.92167833333333, "name": "9519c003a71ee032033b5e81347d4a93", "lon": -77.04027233333333, "fusion_lon": 0.0}, {"is_reserved": 0, "type": "electric_scooter", "fusion_lat": 0.0, "is_disabled": 0, "rental_uris": {"ios": "https://dc.lft.to/lastmile_qr_scan", "android": "https://dc.lft.to/lastmile_qr_scan"}, "bike_id": "56b620ec68b29d5532775b253cd38c49", "lat": 38.920091166666666, "name": "56b620ec68b29d5532775b253cd38c49", "lon": -77.03208333333333, "fusion_lon": 0.0}, {"is_reserved": 0, "type": "electric_scooter", "fusion_lat": 0.0, "is_disabled": 0, "rental_uris": {"ios": "https://dc.lft.to/lastmile_qr_scan", "android": "https://dc.lft.to/lastmile_qr_scan"}, "bike_id": "0e7d85434b44db8933a4e8adf27aa9db", "lat": 38.90910216666666, "name": "0e7d85434b44db8933a4e8adf27aa9db", "lon": -77.03511283333333, "fusion_lon": 0.0}, {"is_reserved": 0, "type": "electric_scooter", "fusion_lat": 0.0, "is_disabled": 0, "rental_uris": {"ios": "https://dc.lft.to/lastmile_qr_scan", "android": "https://dc.lft.to/lastmile_qr_scan"}, "bike_id": "a51c81afddc9ea4a92dc7112a7b93048", "lat": 38.9234135, "name": "a51c81afddc9ea4a92dc7112a7b93048", "lon": -77.0578265, "fusion_lon": 0.0}, {"is_reserved": 0, "type": "electric_scooter", "fusion_lat": 0.0, "is_disabled": 0, "rental_uris": {"ios": "https://dc.lft.to/lastmile_qr_scan", "android": "https://dc.lft.to/lastmile_qr_scan"}, "bike_id": "85b43222e34cc22f079ef7ba1078a0cb", "lat": 38.9060495, "name": "85b43222e34cc22f079ef7ba1078a0cb", "lon": -77.06295433333334, "fusion_lon": 0.0}, {"is_reserved": 0, "type": "electric_scooter", "fusion_lat": 0.0, "is_disabled": 0, "rental_uris": {"ios": "https://dc.lft.to/lastmile_qr_scan", "android": "https://dc.lft.to/lastmile_qr_scan"}, "bike_id": "3d701d18327e200348662bcc180d3b50", "lat": 38.8997525, "name": "3d701d18327e200348662bcc180d3b50", "lon": -77.00924983333333, "fusion_lon": 0.0}, {"is_reserved": 0, "type": "electric_scooter", "fusion_lat": 0.0, "is_disabled": 0, "rental_uris": {"ios": "https://dc.lft.to/lastmile_qr_scan", "android": "https://dc.lft.to/lastmile_qr_scan"}, "bike_id": "0a7f31523bb82096d1f9eaf6593f1a4a", "lat": 38.901483666666664, "name": "0a7f31523bb82096d1f9eaf6593f1a4a", "lon": -77.01510133333333, "fusion_lon": 0.0}, {"is_reserved": 0, "type": "electric_scooter", "fusion_lat": 0.0, "is_disabled": 0, "rental_uris": {"ios": "https://dc.lft.to/lastmile_qr_scan", "android": "https://dc.lft.to/lastmile_qr_scan"}, "bike_id": "5066af1a98d1a181c46fb6709ef80be0", "lat": 38.9213355, "name": "5066af1a98d1a181c46fb6709ef80be0", "lon": -77.00400016666667, "fusion_lon": 0.0}, {"is_reserved": 0, "type": "electric_scooter", "fusion_lat": 0.0, "is_disabled": 0, "rental_uris": {"ios": "https://dc.lft.to/lastmile_qr_scan", "android": "https://dc.lft.to/lastmile_qr_scan"}, "bike_id": "60e64afdb23da9124487df580d465ec6", "lat": 38.90650216666667, "name": "60e64afdb23da9124487df580d465ec6", "lon": -77.02478716666667, "fusion_lon": 0.0}, {"is_reserved": 0, "type": "electric_scooter", "fusion_lat": 0.0, "is_disabled": 0, "rental_uris": {"ios": "https://dc.lft.to/lastmile_qr_scan", "android": "https://dc.lft.to/lastmile_qr_scan"}, "bike_id": "89c28d48bb4fc47083de38ab16e6fb8f", "lat": 38.9204315, "name": "89c28d48bb4fc47083de38ab16e6fb8f", "lon": -77.02607466666667, "fusion_lon": 0.0}, {"is_reserved": 0, "type": "electric_bike", "fusion_lat": 0.0, "is_disabled": 0, "rental_uris": {"ios": "https://dc.lft.to/lastmile_qr_scan", "android": "https://dc.lft.to/lastmile_qr_scan"}, "bike_id": "1cec08649a9cea056ec722cbd337fc24", "lat": 38.95247033333333, "name": "1cec08649a9cea056ec722cbd337fc24", "lon": -76.98244266666667, "fusion_lon": 0.0}, {"is_reserved": 0, "type": "electric_scooter", "fusion_lat": 0.0, "is_disabled": 0, "rental_uris": {"ios": "https://dc.lft.to/lastmile_qr_scan", "android": "https://dc.lft.to/lastmile_qr_scan"}, "bike_id": "c68df7f7b81ddb9d1c4e6f4488eb1290", "lat": 38.903911, "name": "c68df7f7b81ddb9d1c4e6f4488eb1290", "lon": -76.98999516666666, "fusion_lon": 0.0}, {"is_reserved": 0, "type": "electric_scooter", "fusion_lat": 0.0, "is_disabled": 0, "rental_uris": {"ios": "https://dc.lft.to/lastmile_qr_scan", "android": "https://dc.lft.to/lastmile_qr_scan"}, "bike_id": "e334eb4a04af9ad25e0d4141396779d2", "lat": 38.92053466666667, "name": "e334eb4a04af9ad25e0d4141396779d2", "lon": -77.023007, "fusion_lon": 0.0}, {"is_reserved": 0, "type": "electric_bike", "fusion_lat": 0.0, "is_disabled": 0, "rental_uris": {"ios": "https://dc.lft.to/lastmile_qr_scan", "android": "https://dc.lft.to/lastmile_qr_scan"}, "bike_id": "aafc3c38c287d272dd6858a7cfc2241b", "lat": 38.958811833333336, "name": "aafc3c38c287d272dd6858a7cfc2241b", "lon": -76.97057633333333, "fusion_lon": 0.0}, {"is_reserved": 0, "type": "electric_scooter", "fusion_lat": 0.0, "is_disabled": 0, "rental_uris": {"ios": "https://dc.lft.to/lastmile_qr_scan", "android": "https://dc.lft.to/lastmile_qr_scan"}, "bike_id": "15e45212622683fa235f6fb4fcd1111a", "lat": 38.92076766666667, "name": "15e45212622683fa235f6fb4fcd1111a", "lon": -77.02418216666666, "fusion_lon": 0.0}, {"is_reserved": 0, "type": "electric_scooter", "fusion_lat": 0.0, "is_disabled": 0, "rental_uris": {"ios": "https://dc.lft.to/lastmile_qr_scan", "android": "https://dc.lft.to/lastmile_qr_scan"}, "bike_id": "22db5701d485b87427176c4fdb896c25", "lat": 38.927960666666664, "name": "22db5701d485b87427176c4fdb896c25", "lon": -77.021314, "fusion_lon": 0.0}, {"is_reserved": 0, "type": "electric_scooter", "fusion_lat": 0.0, "is_disabled": 0, "rental_uris": {"ios": "https://dc.lft.to/lastmile_qr_scan", "android": "https://dc.lft.to/lastmile_qr_scan"}, "bike_id": "aa9e39cbf379789b99a255dce5261bd4", "lat": 38.89229566666667, "name": "aa9e39cbf379789b99a255dce5261bd4", "lon": -77.025796, "fusion_lon": 0.0}, {"is_reserved": 0, "type": "electric_scooter", "fusion_lat": 0.0, "is_disabled": 0, "rental_uris": {"ios": "https://dc.lft.to/lastmile_qr_scan", "android": "https://dc.lft.to/lastmile_qr_scan"}, "bike_id": "20395bcda74c62923001dafdfe0f260e", "lat": 38.920173166666665, "name": "20395bcda74c62923001dafdfe0f260e", "lon": -77.071441, "fusion_lon": 0.0}, {"is_reserved": 0, "type": "electric_scooter", "fusion_lat": 0.0, "is_disabled": 0, "rental_uris": {"ios": "https://dc.lft.to/lastmile_qr_scan", "android": "https://dc.lft.to/lastmile_qr_scan"}, "bike_id": "18bb400af5a172c201374db48f8d31ef", "lat": 38.920739, "name": "18bb400af5a172c201374db48f8d31ef", "lon": -77.0251, "fusion_lon": 0.0}, {"is_reserved": 0, "type": "electric_scooter", "fusion_lat": 0.0, "is_disabled": 0, "rental_uris": {"ios": "https://dc.lft.to/lastmile_qr_scan", "android": "https://dc.lft.to/lastmile_qr_scan"}, "bike_id": "4c58ef26055bee94555bb9f7a6ca5edd", "lat": 38.92106233333333, "name": "4c58ef26055bee94555bb9f7a6ca5edd", "lon": -77.04574616666666, "fusion_lon": 0.0}, {"is_reserved": 0, "type": "electric_scooter", "fusion_lat": 0.0, "is_disabled": 0, "rental_uris": {"ios": "https://dc.lft.to/lastmile_qr_scan", "android": "https://dc.lft.to/lastmile_qr_scan"}, "bike_id": "e60ac2be59d896d811f8b7415e6879b5", "lat": 38.8973055, "name": "e60ac2be59d896d811f8b7415e6879b5", "lon": -77.0415005, "fusion_lon": 0.0}, {"is_reserved": 0, "type": "electric_scooter", "fusion_lat": 0.0, "is_disabled": 0, "rental_uris": {"ios": "https://dc.lft.to/lastmile_qr_scan", "android": "https://dc.lft.to/lastmile_qr_scan"}, "bike_id": "7ab4ebd0d915e16887290683948408fd", "lat": 38.87828183333333, "name": "7ab4ebd0d915e16887290683948408fd", "lon": -77.00575833333333, "fusion_lon": 0.0}, {"is_reserved": 0, "type": "electric_scooter", "fusion_lat": 0.0, "is_disabled": 0, "rental_uris": {"ios": "https://dc.lft.to/lastmile_qr_scan", "android": "https://dc.lft.to/lastmile_qr_scan"}, "bike_id": "eb0744e216174ec8541c7dca2f2d88ce", "lat": 38.92061433333333, "name": "eb0744e216174ec8541c7dca2f2d88ce", "lon": -77.0439985, "fusion_lon": 0.0}, {"is_reserved": 0, "type": "electric_scooter", "fusion_lat": 0.0, "is_disabled": 0, "rental_uris": {"ios": "https://dc.lft.to/lastmile_qr_scan", "android": "https://dc.lft.to/lastmile_qr_scan"}, "bike_id": "042a137d0fc9ef5ab60d137dc1ab21b5", "lat": 38.923234, "name": "042a137d0fc9ef5ab60d137dc1ab21b5", "lon": -77.02431, "fusion_lon": 0.0}, {"is_reserved": 0, "type": "electric_scooter", "fusion_lat": 0.0, "is_disabled": 0, "rental_uris": {"ios": "https://dc.lft.to/lastmile_qr_scan", "android": "https://dc.lft.to/lastmile_qr_scan"}, "bike_id": "cb8baa72cfe6a15c32d4b00008df8fcd", "lat": 38.90685666666667, "name": "cb8baa72cfe6a15c32d4b00008df8fcd", "lon": -77.0271555, "fusion_lon": 0.0}, {"is_reserved": 0, "type": "electric_scooter", "fusion_lat": 0.0, "is_disabled": 0, "rental_uris": {"ios": "https://dc.lft.to/lastmile_qr_scan", "android": "https://dc.lft.to/lastmile_qr_scan"}, "bike_id": "c306ebe1338790d211412058d311cf8f", "lat": 38.900847166666665, "name": "c306ebe1338790d211412058d311cf8f", "lon": -77.05012983333333, "fusion_lon": 0.0}, {"is_reserved": 0, "type": "electric_scooter", "fusion_lat": 0.0, "is_disabled": 0, "rental_uris": {"ios": "https://dc.lft.to/lastmile_qr_scan", "android": "https://dc.lft.to/lastmile_qr_scan"}, "bike_id": "5f19f76744d3031005c507ecb2f711f0", "lat": 38.907231, "name": "5f19f76744d3031005c507ecb2f711f0", "lon": -77.02577916666667, "fusion_lon": 0.0}, {"is_reserved": 0, "type": "electric_scooter", "fusion_lat": 0.0, "is_disabled": 0, "rental_uris": {"ios": "https://dc.lft.to/lastmile_qr_scan", "android": "https://dc.lft.to/lastmile_qr_scan"}, "bike_id": "35bb095e2c8518da3af78049ef869392", "lat": 38.916930666666666, "name": "35bb095e2c8518da3af78049ef869392", "lon": -77.02723283333333, "fusion_lon": 0.0}, {"is_reserved": 0, "type": "electric_scooter", "fusion_lat": 0.0, "is_disabled": 0, "rental_uris": {"ios": "https://dc.lft.to/lastmile_qr_scan", "android": "https://dc.lft.to/lastmile_qr_scan"}, "bike_id": "0109890facda29fb99ce4aa097f44c9f", "lat": 38.967669666666666, "name": "0109890facda29fb99ce4aa097f44c9f", "lon": -77.03418383333333, "fusion_lon": 0.0}, {"is_reserved": 0, "type": "electric_scooter", "fusion_lat": 0.0, "is_disabled": 0, "rental_uris": {"ios": "https://dc.lft.to/lastmile_qr_scan", "android": "https://dc.lft.to/lastmile_qr_scan"}, "bike_id": "ea8de1e8277c9b5ffd3089fb50d4d9a2", "lat": 38.90413483333333, "name": "ea8de1e8277c9b5ffd3089fb50d4d9a2", "lon": -76.97326016666666, "fusion_lon": 0.0}, {"is_reserved": 0, "type": "electric_scooter", "fusion_lat": 0.0, "is_disabled": 0, "rental_uris": {"ios": "https://dc.lft.to/lastmile_qr_scan", "android": "https://dc.lft.to/lastmile_qr_scan"}, "bike_id": "7e7879a2b405ded63c09bed6b9fd9301", "lat": 38.927471833333335, "name": "7e7879a2b405ded63c09bed6b9fd9301", "lon": -77.02371016666666, "fusion_lon": 0.0}, {"is_reserved": 0, "type": "electric_scooter", "fusion_lat": 0.0, "is_disabled": 0, "rental_uris": {"ios": "https://dc.lft.to/lastmile_qr_scan", "android": "https://dc.lft.to/lastmile_qr_scan"}, "bike_id": "072fc3f63da3382fd88a1b6ef793b23c", "lat": 38.918487, "name": "072fc3f63da3382fd88a1b6ef793b23c", "lon": -76.965574, "fusion_lon": 0.0}, {"is_reserved": 0, "type": "electric_scooter", "fusion_lat": 0.0, "is_disabled": 0, "rental_uris": {"ios": "https://dc.lft.to/lastmile_qr_scan", "android": "https://dc.lft.to/lastmile_qr_scan"}, "bike_id": "7c325d6a89ea9fc61d781307e5439aa9", "lat": 38.9049185, "name": "7c325d6a89ea9fc61d781307e5439aa9", "lon": -77.028038, "fusion_lon": 0.0}, {"is_reserved": 0, "type": "electric_scooter", "fusion_lat": 0.0, "is_disabled": 0, "rental_uris": {"ios": "https://dc.lft.to/lastmile_qr_scan", "android": "https://dc.lft.to/lastmile_qr_scan"}, "bike_id": "767ac8163cc5d55c34923175c0cc52cc", "lat": 38.928368666666664, "name": "767ac8163cc5d55c34923175c0cc52cc", "lon": -77.03695833333333, "fusion_lon": 0.0}, {"is_reserved": 0, "type": "electric_scooter", "fusion_lat": 0.0, "is_disabled": 0, "rental_uris": {"ios": "https://dc.lft.to/lastmile_qr_scan", "android": "https://dc.lft.to/lastmile_qr_scan"}, "bike_id": "c656ff3ba397882ad4b30d53bf4550eb", "lat": 38.87631866666667, "name": "c656ff3ba397882ad4b30d53bf4550eb", "lon": -77.00961716666667, "fusion_lon": 0.0}, {"is_reserved": 0, "type": "electric_scooter", "fusion_lat": 0.0, "is_disabled": 0, "rental_uris": {"ios": "https://dc.lft.to/lastmile_qr_scan", "android": "https://dc.lft.to/lastmile_qr_scan"}, "bike_id": "b1fa6eccace4b8ba8e0830d24d01d76f", "lat": 38.88663366666667, "name": "b1fa6eccace4b8ba8e0830d24d01d76f", "lon": -76.98565983333333, "fusion_lon": 0.0}, {"is_reserved": 0, "type": "electric_scooter", "fusion_lat": 0.0, "is_disabled": 0, "rental_uris": {"ios": "https://dc.lft.to/lastmile_qr_scan", "android": "https://dc.lft.to/lastmile_qr_scan"}, "bike_id": "002dc443cf01d2e5531bfdcf94f88446", "lat": 38.90605033333333, "name": "002dc443cf01d2e5531bfdcf94f88446", "lon": -77.021099, "fusion_lon": 0.0}, {"is_reserved": 0, "type": "electric_scooter", "fusion_lat": 0.0, "is_disabled": 0, "rental_uris": {"ios": "https://dc.lft.to/lastmile_qr_scan", "android": "https://dc.lft.to/lastmile_qr_scan"}, "bike_id": "5cc0e14afb753e8bdecceb8f03ec61cd", "lat": 38.85520916666667, "name": "5cc0e14afb753e8bdecceb8f03ec61cd", "lon": -76.99138916666666, "fusion_lon": 0.0}, {"is_reserved": 0, "type": "electric_scooter", "fusion_lat": 0.0, "is_disabled": 0, "rental_uris": {"ios": "https://dc.lft.to/lastmile_qr_scan", "android": "https://dc.lft.to/lastmile_qr_scan"}, "bike_id": "ad65ebae72037cd17eb1cea52755b69d", "lat": 38.902022, "name": "ad65ebae72037cd17eb1cea52755b69d", "lon": -77.02371316666667, "fusion_lon": 0.0}, {"is_reserved": 0, "type": "electric_scooter", "fusion_lat": 0.0, "is_disabled": 0, "rental_uris": {"ios": "https://dc.lft.to/lastmile_qr_scan", "android": "https://dc.lft.to/lastmile_qr_scan"}, "bike_id": "98e29769a934bafced0aa2e00ec20223", "lat": 38.91716316666667, "name": "98e29769a934bafced0aa2e00ec20223", "lon": -77.03859133333333, "fusion_lon": 0.0}, {"is_reserved": 0, "type": "electric_scooter", "fusion_lat": 0.0, "is_disabled": 0, "rental_uris": {"ios": "https://dc.lft.to/lastmile_qr_scan", "android": "https://dc.lft.to/lastmile_qr_scan"}, "bike_id": "a32a43fc9096b3bdb819a57f2ececcc0", "lat": 38.934267166666665, "name": "a32a43fc9096b3bdb819a57f2ececcc0", "lon": -77.04407883333333, "fusion_lon": 0.0}, {"is_reserved": 0, "type": "electric_scooter", "fusion_lat": 0.0, "is_disabled": 0, "rental_uris": {"ios": "https://dc.lft.to/lastmile_qr_scan", "android": "https://dc.lft.to/lastmile_qr_scan"}, "bike_id": "667308c761aced5474fd6e76cdb97a56", "lat": 38.922146, "name": "667308c761aced5474fd6e76cdb97a56", "lon": -77.03295266666667, "fusion_lon": 0.0}, {"is_reserved": 0, "type": "electric_scooter", "fusion_lat": 0.0, "is_disabled": 0, "rental_uris": {"ios": "https://dc.lft.to/lastmile_qr_scan", "android": "https://dc.lft.to/lastmile_qr_scan"}, "bike_id": "45f9cdeefc9968abc5e83119994484ad", "lat": 38.89474966666667, "name": "45f9cdeefc9968abc5e83119994484ad", "lon": -76.99357533333334, "fusion_lon": 0.0}, {"is_reserved": 0, "type": "electric_scooter", "fusion_lat": 0.0, "is_disabled": 0, "rental_uris": {"ios": "https://dc.lft.to/lastmile_qr_scan", "android": "https://dc.lft.to/lastmile_qr_scan"}, "bike_id": "a2c28986ebad3450461f7ea62d837ca3", "lat": 38.89836233333333, "name": "a2c28986ebad3450461f7ea62d837ca3", "lon": -76.93842116666667, "fusion_lon": 0.0}, {"is_reserved": 0, "type": "electric_scooter", "fusion_lat": 0.0, "is_disabled": 0, "rental_uris": {"ios": "https://dc.lft.to/lastmile_qr_scan", "android": "https://dc.lft.to/lastmile_qr_scan"}, "bike_id": "402e35681fbe25f23cc6a5627868fae1", "lat": 38.89857333333333, "name": "402e35681fbe25f23cc6a5627868fae1", "lon": -77.03966783333334, "fusion_lon": 0.0}, {"is_reserved": 0, "type": "electric_scooter", "fusion_lat": 0.0, "is_disabled": 0, "rental_uris": {"ios": "https://dc.lft.to/lastmile_qr_scan", "android": "https://dc.lft.to/lastmile_qr_scan"}, "bike_id": "bb2b0557cdb0ec64bc5662d6f7b75da2", "lat": 38.90745233333333, "name": "bb2b0557cdb0ec64bc5662d6f7b75da2", "lon": -77.00303266666667, "fusion_lon": 0.0}, {"is_reserved": 0, "type": "electric_scooter", "fusion_lat": 0.0, "is_disabled": 0, "rental_uris": {"ios": "https://dc.lft.to/lastmile_qr_scan", "android": "https://dc.lft.to/lastmile_qr_scan"}, "bike_id": "e4926e66e9f47f549828882078ca399f", "lat": 38.922884333333336, "name": "e4926e66e9f47f549828882078ca399f", "lon": -77.01992883333334, "fusion_lon": 0.0}, {"is_reserved": 0, "type": "electric_bike", "fusion_lat": 0.0, "is_disabled": 0, "rental_uris": {"ios": "https://dc.lft.to/lastmile_qr_scan", "android": "https://dc.lft.to/lastmile_qr_scan"}, "bike_id": "41093ce0dadbd3ff5a494b845871db22", "lat": 38.91905916666666, "name": "41093ce0dadbd3ff5a494b845871db22", "lon": -77.00065333333333, "fusion_lon": 0.0}, {"is_reserved": 0, "type": "electric_scooter", "fusion_lat": 0.0, "is_disabled": 0, "rental_uris": {"ios": "https://dc.lft.to/lastmile_qr_scan", "android": "https://dc.lft.to/lastmile_qr_scan"}, "bike_id": "5715455f93f55cbf5ceb6fe9b5707ed0", "lat": 38.90277316666667, "name": "5715455f93f55cbf5ceb6fe9b5707ed0", "lon": -77.018055, "fusion_lon": 0.0}, {"is_reserved": 0, "type": "electric_bike", "fusion_lat": 0.0, "is_disabled": 0, "rental_uris": {"ios": "https://dc.lft.to/lastmile_qr_scan", "android": "https://dc.lft.to/lastmile_qr_scan"}, "bike_id": "7e78c27e9717ccb3688a9fbbcfa427da", "lat": 38.876673333333336, "name": "7e78c27e9717ccb3688a9fbbcfa427da", "lon": -77.02084683333334, "fusion_lon": 0.0}, {"is_reserved": 0, "type": "electric_scooter", "fusion_lat": 0.0, "is_disabled": 0, "rental_uris": {"ios": "https://dc.lft.to/lastmile_qr_scan", "android": "https://dc.lft.to/lastmile_qr_scan"}, "bike_id": "cfec5823e07df9336e30d19238d66b6a", "lat": 38.87072533333333, "name": "cfec5823e07df9336e30d19238d66b6a", "lon": -76.98129216666666, "fusion_lon": 0.0}, {"is_reserved": 0, "type": "electric_scooter", "fusion_lat": 0.0, "is_disabled": 0, "rental_uris": {"ios": "https://dc.lft.to/lastmile_qr_scan", "android": "https://dc.lft.to/lastmile_qr_scan"}, "bike_id": "79477afd72f919f1210cae0849b44bc8", "lat": 38.90261733333333, "name": "79477afd72f919f1210cae0849b44bc8", "lon": -77.017149, "fusion_lon": 0.0}, {"is_reserved": 0, "type": "electric_bike", "fusion_lat": 0.0, "is_disabled": 0, "rental_uris": {"ios": "https://dc.lft.to/lastmile_qr_scan", "android": "https://dc.lft.to/lastmile_qr_scan"}, "bike_id": "c09af259121349b168c06ac7012cb0ae", "lat": 38.87580716666667, "name": "c09af259121349b168c06ac7012cb0ae", "lon": -77.23411366666667, "fusion_lon": 0.0}, {"is_reserved": 0, "type": "electric_scooter", "fusion_lat": 0.0, "is_disabled": 0, "rental_uris": {"ios": "https://dc.lft.to/lastmile_qr_scan", "android": "https://dc.lft.to/lastmile_qr_scan"}, "bike_id": "1a79844a2f49572b8ac65a551d7feeef", "lat": 38.90847866666667, "name": "1a79844a2f49572b8ac65a551d7feeef", "lon": -77.02458366666667, "fusion_lon": 0.0}, {"is_reserved": 0, "type": "electric_scooter", "fusion_lat": 0.0, "is_disabled": 0, "rental_uris": {"ios": "https://dc.lft.to/lastmile_qr_scan", "android": "https://dc.lft.to/lastmile_qr_scan"}, "bike_id": "78ed43d3656ca3b67b53e6335403c16b", "lat": 38.89481933333333, "name": "78ed43d3656ca3b67b53e6335403c16b", "lon": -76.9486825, "fusion_lon": 0.0}, {"is_reserved": 0, "type": "electric_scooter", "fusion_lat": 0.0, "is_disabled": 0, "rental_uris": {"ios": "https://dc.lft.to/lastmile_qr_scan", "android": "https://dc.lft.to/lastmile_qr_scan"}, "bike_id": "80660d34eec49fed6e08a9e23d3d15dd", "lat": 38.917581166666665, "name": "80660d34eec49fed6e08a9e23d3d15dd", "lon": -77.00449916666666, "fusion_lon": 0.0}, {"is_reserved": 0, "type": "electric_scooter", "fusion_lat": 0.0, "is_disabled": 0, "rental_uris": {"ios": "https://dc.lft.to/lastmile_qr_scan", "android": "https://dc.lft.to/lastmile_qr_scan"}, "bike_id": "ff221eab5bf44793f0d39b70f79a3cb3", "lat": 38.924402, "name": "ff221eab5bf44793f0d39b70f79a3cb3", "lon": -77.04249383333334, "fusion_lon": 0.0}, {"is_reserved": 0, "type": "electric_scooter", "fusion_lat": 0.0, "is_disabled": 0, "rental_uris": {"ios": "https://dc.lft.to/lastmile_qr_scan", "android": "https://dc.lft.to/lastmile_qr_scan"}, "bike_id": "e59157bc72d72240531e1c2b22204512", "lat": 38.91596116666667, "name": "e59157bc72d72240531e1c2b22204512", "lon": -77.02300466666667, "fusion_lon": 0.0}, {"is_reserved": 0, "type": "electric_scooter", "fusion_lat": 0.0, "is_disabled": 0, "rental_uris": {"ios": "https://dc.lft.to/lastmile_qr_scan", "android": "https://dc.lft.to/lastmile_qr_scan"}, "bike_id": "37d0cf1cf8c32fcfe57e76cb51b0897d", "lat": 38.893306833333334, "name": "37d0cf1cf8c32fcfe57e76cb51b0897d", "lon": -76.93928183333334, "fusion_lon": 0.0}, {"is_reserved": 0, "type": "electric_scooter", "fusion_lat": 0.0, "is_disabled": 0, "rental_uris": {"ios": "https://dc.lft.to/lastmile_qr_scan", "android": "https://dc.lft.to/lastmile_qr_scan"}, "bike_id": "98098b59953d8e78cda6c1dbb24d8482", "lat": 38.91709566666667, "name": "98098b59953d8e78cda6c1dbb24d8482", "lon": -77.038508, "fusion_lon": 0.0}, {"is_reserved": 0, "type": "electric_scooter", "fusion_lat": 0.0, "is_disabled": 0, "rental_uris": {"ios": "https://dc.lft.to/lastmile_qr_scan", "android": "https://dc.lft.to/lastmile_qr_scan"}, "bike_id": "72c21083cbd4fa4fcaf123f77fe71382", "lat": 38.894749166666664, "name": "72c21083cbd4fa4fcaf123f77fe71382", "lon": -77.02167816666666, "fusion_lon": 0.0}, {"is_reserved": 0, "type": "electric_scooter", "fusion_lat": 0.0, "is_disabled": 0, "rental_uris": {"ios": "https://dc.lft.to/lastmile_qr_scan", "android": "https://dc.lft.to/lastmile_qr_scan"}, "bike_id": "255a3e412643cf01e1cbb23f5600e5cf", "lat": 38.883183833333334, "name": "255a3e412643cf01e1cbb23f5600e5cf", "lon": -76.93152583333334, "fusion_lon": 0.0}, {"is_reserved": 0, "type": "electric_bike", "fusion_lat": 0.0, "is_disabled": 0, "rental_uris": {"ios": "https://dc.lft.to/lastmile_qr_scan", "android": "https://dc.lft.to/lastmile_qr_scan"}, "bike_id": "ba1c6089f71d5f668e97ec6989b46c7c", "lat": 38.83037866666667, "name": "ba1c6089f71d5f668e97ec6989b46c7c", "lon": -77.00817033333334, "fusion_lon": 0.0}, {"is_reserved": 0, "type": "electric_scooter", "fusion_lat": 0.0, "is_disabled": 0, "rental_uris": {"ios": "https://dc.lft.to/lastmile_qr_scan", "android": "https://dc.lft.to/lastmile_qr_scan"}, "bike_id": "233b9b54cc79a7c0c1a8e2a7faf54f72", "lat": 38.8984275, "name": "233b9b54cc79a7c0c1a8e2a7faf54f72", "lon": -77.0285245, "fusion_lon": 0.0}, {"is_reserved": 0, "type": "electric_scooter", "fusion_lat": 0.0, "is_disabled": 0, "rental_uris": {"ios": "https://dc.lft.to/lastmile_qr_scan", "android": "https://dc.lft.to/lastmile_qr_scan"}, "bike_id": "a3c3029517413596c0b2e6a60d55da0c", "lat": 38.93535833333333, "name": "a3c3029517413596c0b2e6a60d55da0c", "lon": -77.02348333333333, "fusion_lon": 0.0}, {"is_reserved": 0, "type": "electric_scooter", "fusion_lat": 0.0, "is_disabled": 0, "rental_uris": {"ios": "https://dc.lft.to/lastmile_qr_scan", "android": "https://dc.lft.to/lastmile_qr_scan"}, "bike_id": "faf9254708db44e7d348876b6d04231e", "lat": 38.93272133333333, "name": "faf9254708db44e7d348876b6d04231e", "lon": -77.0307805, "fusion_lon": 0.0}, {"is_reserved": 0, "type": "electric_bike", "fusion_lat": 0.0, "is_disabled": 0, "rental_uris": {"ios": "https://dc.lft.to/lastmile_qr_scan", "android": "https://dc.lft.to/lastmile_qr_scan"}, "bike_id": "610e225ac565779941fd190a72728d26", "lat": 38.846277, "name": "610e225ac565779941fd190a72728d26", "lon": -77.06938733333334, "fusion_lon": 0.0}, {"is_reserved": 0, "type": "electric_scooter", "fusion_lat": 0.0, "is_disabled": 0, "rental_uris": {"ios": "https://dc.lft.to/lastmile_qr_scan", "android": "https://dc.lft.to/lastmile_qr_scan"}, "bike_id": "d31026be1a63786fdbe57ed2e274b846", "lat": 38.903453666666664, "name": "d31026be1a63786fdbe57ed2e274b846", "lon": -77.0110935, "fusion_lon": 0.0}, {"is_reserved": 0, "type": "electric_scooter", "fusion_lat": 0.0, "is_disabled": 0, "rental_uris": {"ios": "https://dc.lft.to/lastmile_qr_scan", "android": "https://dc.lft.to/lastmile_qr_scan"}, "bike_id": "86f3d72306ef76653dcef753595db3fb", "lat": 38.89197, "name": "86f3d72306ef76653dcef753595db3fb", "lon": -77.022208, "fusion_lon": 0.0}, {"is_reserved": 0, "type": "electric_scooter", "fusion_lat": 0.0, "is_disabled": 0, "rental_uris": {"ios": "https://dc.lft.to/lastmile_qr_scan", "android": "https://dc.lft.to/lastmile_qr_scan"}, "bike_id": "b40f1bdaaee7ff14e65cc7925284aeb2", "lat": 38.905272, "name": "b40f1bdaaee7ff14e65cc7925284aeb2", "lon": -77.06780683333334, "fusion_lon": 0.0}, {"is_reserved": 0, "type": "electric_scooter", "fusion_lat": 0.0, "is_disabled": 0, "rental_uris": {"ios": "https://dc.lft.to/lastmile_qr_scan", "android": "https://dc.lft.to/lastmile_qr_scan"}, "bike_id": "5206904090408c93a6557eb89957b417", "lat": 38.89964616666666, "name": "5206904090408c93a6557eb89957b417", "lon": -76.93761816666667, "fusion_lon": 0.0}, {"is_reserved": 0, "type": "electric_scooter", "fusion_lat": 0.0, "is_disabled": 0, "rental_uris": {"ios": "https://dc.lft.to/lastmile_qr_scan", "android": "https://dc.lft.to/lastmile_qr_scan"}, "bike_id": "2bd652033380ba9a77a592b14296ed49", "lat": 38.88646166666667, "name": "2bd652033380ba9a77a592b14296ed49", "lon": -77.0121995, "fusion_lon": 0.0},