{"data": {"bikes": [{"is_disabled": 0, "is_reserved": 0, "fusion_lat": 0.0, "lat": 38.92204066666667, "fusion_lon": 0.0, "rental_uris": {"ios": "https://dc.lft.to/lastmile_qr_scan", "android": "https://dc.lft.to/lastmile_qr_scan"}, "lon": -77.04252883333334, "bike_id": "75af7eef9b69e1cc724dffdb68b3068b", "type": "electric_scooter", "name": "75af7eef9b69e1cc724dffdb68b3068b"}, {"is_disabled": 0, "is_reserved": 0, "fusion_lat": 0.0, "lat": 38.887161, "fusion_lon": 0.0, "rental_uris": {"ios": "https://dc.lft.to/lastmile_qr_scan", "android": "https://dc.lft.to/lastmile_qr_scan"}, "lon": -76.99606483333334, "bike_id": "048165a01a98370acf670b349092a480", "type": "electric_scooter", "name": "048165a01a98370acf670b349092a480"}, {"is_disabled": 0, "is_reserved": 0, "fusion_lat": 0.0, "lat": 38.908674166666664, "fusion_lon": 0.0, "rental_uris": {"ios": "https://dc.lft.to/lastmile_qr_scan", "android": "https://dc.lft.to/lastmile_qr_scan"}, "lon": -77.04734266666667, "bike_id": "986aac56adf5f8ab857500adf5d3e941", "type": "electric_scooter", "name": "986aac56adf5f8ab857500adf5d3e941"}, {"is_disabled": 0, "is_reserved": 0, "fusion_lat": 0.0, "lat": 38.90864466666667, "fusion_lon": 0.0, "rental_uris": {"ios": "https://dc.lft.to/lastmile_qr_scan", "android": "https://dc.lft.to/lastmile_qr_scan"}, "lon": -77.04820533333333, "bike_id": "54f39dcffc2769119d6dd50dfa64a523", "type": "electric_scooter", "name": "54f39dcffc2769119d6dd50dfa64a523"}, {"is_disabled": 0, "is_reserved": 0, "fusion_lat": 0.0, "lat": 38.89823966666667, "fusion_lon": 0.0, "rental_uris": {"ios": "https://dc.lft.to/lastmile_qr_scan", "android": "https://dc.lft.to/lastmile_qr_scan"}, "lon": -77.02958233333334, "bike_id": "103cc55291a20de565589bc472a8dd36", "type": "electric_scooter", "name": "103cc55291a20de565589bc472a8dd36"}, {"is_disabled": 0, "is_reserved": 0, "fusion_lat": 0.0, "lat": 38.83491883333333, "fusion_lon": 0.0, "rental_uris": {"ios": "https://dc.lft.to/lastmile_qr_scan", "android": "https://dc.lft.to/lastmile_qr_scan"}, "lon": -77.00432066666667, "bike_id": "b0a052fdc7d66d60dbe739c0b263fc80", "type": "electric_bike", "name": "b0a052fdc7d66d60dbe739c0b263fc80"}, {"is_disabled": 0, "is_reserved": 0, "fusion_lat": 0.0, "lat": 38.974818166666665, "fusion_lon": 0.0, "rental_uris": {"ios": "https://dc.lft.to/lastmile_qr_scan", "android": "https://dc.lft.to/lastmile_qr_scan"}, "lon": -76.986603, "bike_id": "71d891fb3b8d29a683922033c83e74f0", "type": "electric_bike", "name": "71d891fb3b8d29a683922033c83e74f0"}, {"is_disabled": 0, "is_reserved": 0, "fusion_lat": 0.0, "lat": 38.905866, "fusion_lon": 0.0, "rental_uris": {"ios": "https://dc.lft.to/lastmile_qr_scan", "android": "https://dc.lft.to/lastmile_qr_scan"}, "lon": -76.9889295, "bike_id": "78d6091b6c3103484d5782c4927e6914", "type": "electric_scooter", "name": "78d6091b6c3103484d5782c4927e6914"}, {"is_disabled": 0, "is_reserved": 0, "fusion_lat": 0.0, "lat": 39.029269166666666, "fusion_lon": 0.0, "rental_uris": {"ios": "https://dc.lft.to/lastmile_qr_scan", "android": "https://dc.lft.to/lastmile_qr_scan"}, "lon": -77.01351066666666, "bike_id": "680fad0cf4db36b7ab93994338d44bbc", "type": "electric_bike", "name": "680fad0cf4db36b7ab93994338d44bbc"}, {"is_disabled": 0, "is_reserved": 0, "fusion_lat": 0.0, "lat": 38.874481, "fusion_lon": 0.0, "rental_uris": {"ios": "https://dc.lft.to/lastmile_qr_scan", "android": "https://dc.lft.to/lastmile_qr_scan"}, "lon": -77.00031916666667, "bike_id": "398ab6c8e60d02ba32537c7a8a3c8f1d", "type": "electric_scooter", "name": "398ab6c8e60d02ba32537c7a8a3c8f1d"}, {"is_disabled": 0, "is_reserved": 0, "fusion_lat": 0.0, "lat": 38.908482666666664, "fusion_lon": 0.0, "rental_uris": {"ios": "https://dc.lft.to/lastmile_qr_scan", "android": "https://dc.lft.to/lastmile_qr_scan"}, "lon": -76.9979595, "bike_id": "bf178a926e606b9edf6dca1d11e80151", "type": "electric_scooter", "name": "bf178a926e606b9edf6dca1d11e80151"}, {"is_disabled": 0, "is_reserved": 0, "fusion_lat": 0.0, "lat": 38.846258, "fusion_lon": 0.0, "rental_uris": {"ios": "https://dc.lft.to/lastmile_qr_scan", "android": "https://dc.lft.to/lastmile_qr_scan"}, "lon": -76.96904283333333, "bike_id": "e6794bdd99811374f29930fbc56e4e85", "type": "electric_bike", "name": "e6794bdd99811374f29930fbc56e4e85"}, {"is_disabled": 0, "is_reserved": 0, "fusion_lat": 0.0, "lat": 38.90891633333333, "fusion_lon": 0.0, "rental_uris": {"ios": "https://dc.lft.to/lastmile_qr_scan", "android": "https://dc.lft.to/lastmile_qr_scan"}, "lon": -77.04403833333333, "bike_id": "ea49ebb412a2aa4b150acb0ab9c44395", "type": "electric_scooter", "name": "ea49ebb412a2aa4b150acb0ab9c44395"}, {"is_disabled": 0, "is_reserved": 0, "fusion_lat": 0.0, "lat": 38.93083466666667, "fusion_lon": 0.0, "rental_uris": {"ios": "https://dc.lft.to/lastmile_qr_scan", "android": "https://dc.lft.to/lastmile_qr_scan"}, "lon": -77.02805116666667, "bike_id": "404854d708b982c4e2e586856dba2dc0", "type": "electric_scooter", "name": "404854d708b982c4e2e586856dba2dc0"}, {"is_disabled": 0, "is_reserved": 0, "fusion_lat": 0.0, "lat": 38.855383333333336, "fusion_lon": 0.0, "rental_uris": {"ios": "https://dc.lft.to/lastmile_qr_scan", "android": "https://dc.lft.to/lastmile_qr_scan"}, "lon": -76.9917045, "bike_id": "b2cc8078ef0a93b4b5d24af8081216ae", "type": "electric_scooter", "name": "b2cc8078ef0a93b4b5d24af8081216ae"}, {"is_disabled": 0, "is_reserved": 0, "fusion_lat": 0.0, "lat": 38.87517833333333, "fusion_lon": 0.0, "rental_uris": {"ios": "https://dc.lft.to/lastmile_qr_scan", "android": "https://dc.lft.to/lastmile_qr_scan"}, "lon": -77.11756733333333, "bike_id": "d8e5725c8d9cfd8dfffb7c0bc97dfee2", "type": "electric_bike", "name": "d8e5725c8d9cfd8dfffb7c0bc97dfee2"}, {"is_disabled": 0, "is_reserved": 0, "fusion_lat": 0.0, "lat": 38.892178666666666, "fusion_lon": 0.0, "rental_uris": {"ios": "https://dc.lft.to/lastmile_qr_scan", "android": "https://dc.lft.to/lastmile_qr_scan"}, "lon": -77.02777283333333, "bike_id": "5343ffd68869648c52c474a182fe1788", "type": "electric_scooter", "name": "5343ffd68869648c52c474a182fe1788"}, {"is_disabled": 0, "is_reserved": 0, "fusion_lat": 0.0, "lat": 38.920610333333336, "fusion_lon": 0.0, "rental_uris": {"ios": "https://dc.lft.to/lastmile_qr_scan", "android": "https://dc.lft.to/lastmile_qr_scan"}, "lon": -77.02418, "bike_id": "995a065661489dd1cf69ba886bb8da08", "type": "electric_scooter", "name": "995a065661489dd1cf69ba886bb8da08"}, {"is_disabled": 0, "is_reserved": 0, "fusion_lat": 0.0, "lat": 38.88486183333333, "fusion_lon": 0.0, "rental_uris": {"ios": "https://dc.lft.to/lastmile_qr_scan", "android": "https://dc.lft.to/lastmile_qr_scan"}, "lon": -77.03473333333334, "bike_id": "5c8284b4731b5013358ae7a97f453a8b", "type": "electric_scooter", "name": "5c8284b4731b5013358ae7a97f453a8b"}, {"is_disabled": 0, "is_reserved": 0, "fusion_lat": 0.0, "lat": 38.900097833333334, "fusion_lon": 0.0, "rental_uris": {"ios": "https://dc.lft.to/lastmile_qr_scan", "android": "https://dc.lft.to/lastmile_qr_scan"}, "lon": -77.012051, "bike_id": "ba4cf40b84a3c79f51a9c9695b252725", "type": "electric_scooter", "name": "ba4cf40b84a3c79f51a9c9695b252725"}, {"is_disabled": 0, "is_reserved": 0, "fusion_lat": 0.0, "lat": 38.90710133333333, "fusion_lon": 0.0, "rental_uris": {"ios": "https://dc.lft.to/lastmile_qr_scan", "android": "https://dc.lft.to/lastmile_qr_scan"}, "lon": -77.03205283333334, "bike_id": "7d230d555ab75bcbed4da31eea4adac6", "type": "electric_scooter", "name": "7d230d555ab75bcbed4da31eea4adac6"}, {"is_disabled": 0, "is_reserved": 0, "fusion_lat": 0.0, "lat": 38.919917833333336, "fusion_lon": 0.0, "rental_uris": {"ios": "https://dc.lft.to/lastmile_qr_scan", "android": "https://dc.lft.to/lastmile_qr_scan"}, "lon": -77.04174, "bike_id": "d3951122d37bd6b775134c0d62bcebf0", "type": "electric_scooter", "name": "d3951122d37bd6b775134c0d62bcebf0"}, {"is_disabled": 0, "is_reserved": 0, "fusion_lat": 0.0, "lat": 38.911281, "fusion_lon": 0.0, "rental_uris": {"ios": "https://dc.lft.to/lastmile_qr_scan", "android": "https://dc.lft.to/lastmile_qr_scan"}, "lon": -77.02074033333334, "bike_id": "95810d537351cde5bbdd656d57c15575", "type": "electric_scooter", "name": "95810d537351cde5bbdd656d57c15575"}, {"is_disabled": 0, "is_reserved": 0, "fusion_lat": 0.0, "lat": 38.90491166666666, "fusion_lon": 0.0, "rental_uris": {"ios": "https://dc.lft.to/lastmile_qr_scan", "android": "https://dc.lft.to/lastmile_qr_scan"}, "lon": -77.0485915, "bike_id": "6a411c7daf667e7ee7ba6224ae0be36e", "type": "electric_scooter", "name": "6a411c7daf667e7ee7ba6224ae0be36e"}, {"is_disabled": 0, "is_reserved": 0, "fusion_lat": 0.0, "lat": 38.9047165, "fusion_lon": 0.0, "rental_uris": {"ios": "https://dc.lft.to/lastmile_qr_scan", "android": "https://dc.lft.to/lastmile_qr_scan"}, "lon": -76.95045866666666, "bike_id": "0f1ecd0efd7caa0d6398023c408d9d76", "type": "electric_scooter", "name": "0f1ecd0efd7caa0d6398023c408d9d76"}, {"is_disabled": 0, "is_reserved": 0, "fusion_lat": 0.0, "lat": 38.95592366666666, "fusion_lon": 0.0, "rental_uris": {"ios": "https://dc.lft.to/lastmile_qr_scan", "android": "https://dc.lft.to/lastmile_qr_scan"}, "lon": -77.02807183333333, "bike_id": "7f412ad0b61f341e3626372bc063fa90", "type": "electric_scooter", "name": "7f412ad0b61f341e3626372bc063fa90"}, {"is_disabled": 0, "is_reserved": 0, "fusion_lat": 0.0, "lat": 38.907262, "fusion_lon": 0.0, "rental_uris": {"ios": "https://dc.lft.to/lastmile_qr_scan", "android": "https://dc.lft.to/lastmile_qr_scan"}, "lon": -77.027243, "bike_id": "c60781432a571d94790dfdc6a150d360", "type": "electric_scooter", "name": "c60781432a571d94790dfdc6a150d360"}, {"is_disabled": 0, "is_reserved": 0, "fusion_lat": 0.0, "lat": 38.95138333333333, "fusion_lon": 0.0, "rental_uris": {"ios": "https://dc.lft.to/lastmile_qr_scan", "android": "https://dc.lft.to/lastmile_qr_scan"}, "lon": -76.96617266666667, "bike_id": "1fce00e144ee4cea8816b1aa46c83ccc", "type": "electric_bike", "name": "1fce00e144ee4cea8816b1aa46c83ccc"}, {"is_disabled": 0, "is_reserved": 0, "fusion_lat": 0.0, "lat": 38.85788266666667, "fusion_lon": 0.0, "rental_uris": {"ios": "https://dc.lft.to/lastmile_qr_scan", "android": "https://dc.lft.to/lastmile_qr_scan"}, "lon": -77.0995505, "bike_id": "cb91c142e232b51f726352d41d1d76d9", "type": "electric_bike", "name": "cb91c142e232b51f726352d41d1d76d9"}, {"is_disabled": 0, "is_reserved": 0, "fusion_lat": 0.0, "lat": 38.90676166666667, "fusion_lon": 0.0, "rental_uris": {"ios": "https://dc.lft.to/lastmile_qr_scan", "android": "https://dc.lft.to/lastmile_qr_scan"}, "lon": -77.0270995, "bike_id": "b027892547d13963e6219536c2e421a3", "type": "electric_scooter", "name": "b027892547d13963e6219536c2e421a3"}, {"is_disabled": 0, "is_reserved": 0, "fusion_lat": 0.0, "lat": 38.89675416666667, "fusion_lon": 0.0, "rental_uris": {"ios": "https://dc.lft.to/lastmile_qr_scan", "android": "https://dc.lft.to/lastmile_qr_scan"}, "lon": -77.04321866666666, "bike_id": "95e892277324250e8d58aee901848344", "type": "electric_scooter", "name": "95e892277324250e8d58aee901848344"}, {"is_disabled": 0, "is_reserved": 0, "fusion_lat": 0.0, "lat": 38.920924, "fusion_lon": 0.0, "rental_uris": {"ios": "https://dc.lft.to/lastmile_qr_scan", "android": "https://dc.lft.to/lastmile_qr_scan"}, "lon": -77.02593333333333, "bike_id": "3ab5a017e5cd03455af8740be55dc0e0", "type": "electric_scooter", "name": "3ab5a017e5cd03455af8740be55dc0e0"}, {"is_disabled": 0, "is_reserved": 0, "fusion_lat": 0.0, "lat": 38.891336833333334, "fusion_lon": 0.0, "rental_uris": {"ios": "https://dc.lft.to/lastmile_qr_scan", "android": "https://dc.lft.to/lastmile_qr_scan"}, "lon": -76.99943833333333, "bike_id": "27404ae7a6887b99d49bb859d1f8a8c6", "type": "electric_scooter", "name": "27404ae7a6887b99d49bb859d1f8a8c6"}, {"is_disabled": 0, "is_reserved": 0, "fusion_lat": 0.0, "lat": 38.91265333333333, "fusion_lon": 0.0, "rental_uris": {"ios": "https://dc.lft.to/lastmile_qr_scan", "android": "https://dc.lft.to/lastmile_qr_scan"}, "lon": -77.04483216666667, "bike_id": "472125215005c72ba10ec9149e5692f7", "type": "electric_scooter", "name": "472125215005c72ba10ec9149e5692f7"}, {"is_disabled": 0, "is_reserved": 0, "fusion_lat": 0.0, "lat": 38.8764735, "fusion_lon": 0.0, "rental_uris": {"ios": "https://dc.lft.to/lastmile_qr_scan", "android": "https://dc.lft.to/lastmile_qr_scan"}, "lon": -76.992933, "bike_id": "5aecc369be5de123a6736e256b97f10c", "type": "electric_scooter", "name": "5aecc369be5de123a6736e256b97f10c"}, {"is_disabled": 0, "is_reserved": 0, "fusion_lat": 0.0, "lat": 38.90644316666667, "fusion_lon": 0.0, "rental_uris": {"ios": "https://dc.lft.to/lastmile_qr_scan", "android": "https://dc.lft.to/lastmile_qr_scan"}, "lon": -77.01411383333334, "bike_id": "23bbea3a9e600272362997bfa2744e65", "type": "electric_scooter", "name": "23bbea3a9e600272362997bfa2744e65"}, {"is_disabled": 0, "is_reserved": 0, "fusion_lat": 0.0, "lat": 38.900834833333334, "fusion_lon": 0.0, "rental_uris": {"ios": "https://dc.lft.to/lastmile_qr_scan", "android": "https://dc.lft.to/lastmile_qr_scan"}, "lon": -77.04779, "bike_id": "6c77d901027306ae4cde5e5adfd77221", "type": "electric_scooter", "name": "6c77d901027306ae4cde5e5adfd77221"}, {"is_disabled": 0, "is_reserved": 0, "fusion_lat": 0.0, "lat": 38.949261166666666, "fusion_lon": 0.0, "rental_uris": {"ios": "https://dc.lft.to/lastmile_qr_scan", "android": "https://dc.lft.to/lastmile_qr_scan"}, "lon": -77.00793416666667, "bike_id": "7d04a4165067b843d03d6ba995dc971f", "type": "electric_bike", "name": "7d04a4165067b843d03d6ba995dc971f"}, {"is_disabled": 0, "is_reserved": 0, "fusion_lat": 0.0, "lat": 38.96173783333333, "fusion_lon": 0.0, "rental_uris": {"ios": "https://dc.lft.to/lastmile_qr_scan", "android": "https://dc.lft.to/lastmile_qr_scan"}, "lon": -77.03223483333333, "bike_id": "8ca00f372ced0e7911829618e2793657", "type": "electric_bike", "name": "8ca00f372ced0e7911829618e2793657"}, {"is_disabled": 0, "is_reserved": 0, "fusion_lat": 0.0, "lat": 38.905965, "fusion_lon": 0.0, "rental_uris": {"ios": "https://dc.lft.to/lastmile_qr_scan", "android": "https://dc.lft.to/lastmile_qr_scan"}, "lon": -77.0653655, "bike_id": "b2ba59b94757e3d636ce8eea5c192a8b", "type": "electric_scooter", "name": "b2ba59b94757e3d636ce8eea5c192a8b"}, {"is_disabled": 0, "is_reserved": 0, "fusion_lat": 0.0, "lat": 38.914179, "fusion_lon": 0.0, "rental_uris": {"ios": "https://dc.lft.to/lastmile_qr_scan", "android": "https://dc.lft.to/lastmile_qr_scan"}, "lon": -77.031783, "bike_id": "6a5bbf95edc85eb30233717b3c2eebce", "type": "electric_scooter", "name": "6a5bbf95edc85eb30233717b3c2eebce"}, {"is_disabled": 0, "is_reserved": 0, "fusion_lat": 0.0, "lat": 38.91823766666667, "fusion_lon": 0.0, "rental_uris": {"ios": "https://dc.lft.to/lastmile_qr_scan", "android": "https://dc.lft.to/lastmile_qr_scan"}, "lon": -77.03449666666667, "bike_id": "78ce891510455c3e1353c966d49599a5", "type": "electric_scooter", "name": "78ce891510455c3e1353c966d49599a5"}, {"is_disabled": 0, "is_reserved": 0, "fusion_lat": 0.0, "lat": 38.898916166666666, "fusion_lon": 0.0, "rental_uris": {"ios": "https://dc.lft.to/lastmile_qr_scan", "android": "https://dc.lft.to/lastmile_qr_scan"}, "lon": -77.02806766666667, "bike_id": "90a0c3d73b5840e5ed83e75f7b85fdfe", "type": "electric_scooter", "name": "90a0c3d73b5840e5ed83e75f7b85fdfe"}, {"is_disabled": 0, "is_reserved": 0, "fusion_lat": 0.0, "lat": 38.882988166666664, "fusion_lon": 0.0, "rental_uris": {"ios": "https://dc.lft.to/lastmile_qr_scan", "android": "https://dc.lft.to/lastmile_qr_scan"}, "lon": -76.9349195, "bike_id": "3d7289387f54adb0e6899900f3f71ef4", "type": "electric_scooter", "name": "3d7289387f54adb0e6899900f3f71ef4"}, {"is_disabled": 0, "is_reserved": 0, "fusion_lat": 0.0, "lat": 38.892449, "fusion_lon": 0.0, "rental_uris": {"ios": "https://dc.lft.to/lastmile_qr_scan", "android": "https://dc.lft.to/lastmile_qr_scan"}, "lon": -77.0465205, "bike_id": "5140db916fdd7d31b21597502f887b9c", "type": "electric_scooter", "name": "5140db916fdd7d31b21597502f887b9c"}, {"is_disabled": 0, "is_reserved": 0, "fusion_lat": 0.0, "lat": 38.90169516666667, "fusion_lon": 0.0, "rental_uris": {"ios": "https://dc.lft.to/lastmile_qr_scan", "android": "https://dc.lft.to/lastmile_qr_scan"}, "lon": -76.98071216666666, "bike_id": "7b28d8d28753d0c6826bc4b0c18d283f", "type": "electric_scooter", "name": "7b28d8d28753d0c6826bc4b0c18d283f"}, {"is_disabled": 0, "is_reserved": 0, "fusion_lat": 0.0, "lat": 38.9135435, "fusion_lon": 0.0, "rental_uris": {"ios": "https://dc.lft.to/lastmile_qr_scan", "android": "https://dc.lft.to/lastmile_qr_scan"}, "lon": -77.0639735, "bike_id": "8cf376f1e51b101ea38c72c85e67b6bf", "type": "electric_scooter", "name": "8cf376f1e51b101ea38c72c85e67b6bf"}, {"is_disabled": 0, "is_reserved": 0, "fusion_lat": 0.0, "lat": 38.88607716666667, "fusion_lon": 0.0, "rental_uris": {"ios": "https://dc.lft.to/lastmile_qr_scan", "android": "https://dc.lft.to/lastmile_qr_scan"}, "lon": -77.000715, "bike_id": "93fcbd6030c68b47a2d8303154fd4e02", "type": "electric_bike", "name": "93fcbd6030c68b47a2d8303154fd4e02"}, {"is_disabled": 0, "is_reserved": 0, "fusion_lat": 0.0, "lat": 38.914555, "fusion_lon": 0.0, "rental_uris": {"ios": "https://dc.lft.to/lastmile_qr_scan", "android": "https://dc.lft.to/lastmile_qr_scan"}, "lon": -76.97282033333333, "bike_id": "c809eeb0980ac147b06c3a26e7ade17d", "type": "electric_bike", "name": "c809eeb0980ac147b06c3a26e7ade17d"}, {"is_disabled": 0, "is_reserved": 0, "fusion_lat": 0.0, "lat": 38.92428683333333, "fusion_lon": 0.0, "rental_uris": {"ios": "https://dc.lft.to/lastmile_qr_scan", "android": "https://dc.lft.to/lastmile_qr_scan"}, "lon": -77.0201785, "bike_id": "abd07f3e15ffed39f49e528fd515ff64", "type": "electric_scooter", "name": "abd07f3e15ffed39f49e528fd515ff64"}, {"is_disabled": 0, "is_reserved": 0, "fusion_lat": 0.0, "lat": 38.892120166666665, "fusion_lon": 0.0, "rental_uris": {"ios": "https://dc.lft.to/lastmile_qr_scan", "android": "https://dc.lft.to/lastmile_qr_scan"}, "lon": -76.9983525, "bike_id": "12447173aa852d67f2c9ac58de858210", "type": "electric_scooter", "name": "12447173aa852d67f2c9ac58de858210"}, {"is_disabled": 0, "is_reserved": 0, "fusion_lat": 0.0, "lat": 38.931187666666666, "fusion_lon": 0.0, "rental_uris": {"ios": "https://dc.lft.to/lastmile_qr_scan", "android": "https://dc.lft.to/lastmile_qr_scan"}, "lon": -77.02066833333333, "bike_id": "c26316f04d9f2b064418255437a6464e", "type": "electric_scooter", "name": "c26316f04d9f2b064418255437a6464e"}, {"is_disabled": 0, "is_reserved": 0, "fusion_lat": 0.0, "lat": 38.9185865, "fusion_lon": 0.0, "rental_uris": {"ios": "https://dc.lft.to/lastmile_qr_scan", "android": "https://dc.lft.to/lastmile_qr_scan"}, "lon": -77.04460133333333, "bike_id": "8deb12921a5f9fd9dcbbc9773769db10", "type": "electric_scooter", "name": "8deb12921a5f9fd9dcbbc9773769db10"}, {"is_disabled": 0, "is_reserved": 0, "fusion_lat": 0.0, "lat": 38.90801283333333, "fusion_lon": 0.0, "rental_uris": {"ios": "https://dc.lft.to/lastmile_qr_scan", "android": "https://dc.lft.to/lastmile_qr_scan"}, "lon": -77.0497695, "bike_id": "1ae11390a6f45e5437dd51b68b1af296", "type": "electric_scooter", "name": "1ae11390a6f45e5437dd51b68b1af296"}, {"is_disabled": 0, "is_reserved": 0, "fusion_lat": 0.0, "lat": 38.907332333333336, "fusion_lon": 0.0, "rental_uris": {"ios": "https://dc.lft.to/lastmile_qr_scan", "android": "https://dc.lft.to/lastmile_qr_scan"}, "lon": -77.027941, "bike_id": "5e9fc65fe9bcff6aaba358c44cb81c65", "type": "electric_scooter", "name": "5e9fc65fe9bcff6aaba358c44cb81c65"}, {"is_disabled": 0, "is_reserved": 0, "fusion_lat": 0.0, "lat": 38.93257916666666, "fusion_lon": 0.0, "rental_uris": {"ios": "https://dc.lft.to/lastmile_qr_scan", "android": "https://dc.lft.to/lastmile_qr_scan"}, "lon": -77.032695, "bike_id": "de226e43d6f79b43ee0f3cce3b808c28", "type": "electric_scooter", "name": "de226e43d6f79b43ee0f3cce3b808c28"}, {"is_disabled": 0, "is_reserved": 0, "fusion_lat": 0.0, "lat": 38.9198735, "fusion_lon": 0.0, "rental_uris": {"ios": "https://dc.lft.to/lastmile_qr_scan", "android": "https://dc.lft.to/lastmile_qr_scan"}, "lon": -77.041765, "bike_id": "a81ef7a3584d096f07495e36fef51bfb", "type": "electric_scooter", "name": "a81ef7a3584d096f07495e36fef51bfb"}, {"is_disabled": 0, "is_reserved": 0, "fusion_lat": 0.0, "lat": 38.89290416666667, "fusion_lon": 0.0, "rental_uris": {"ios": "https://dc.lft.to/lastmile_qr_scan", "android": "https://dc.lft.to/lastmile_qr_scan"}, "lon": -76.97613116666666, "bike_id": "b6fb18c63c7f6d4dd98f72639c90dd9b", "type": "electric_bike", "name": "b6fb18c63c7f6d4dd98f72639c90dd9b"}, {"is_disabled": 0, "is_reserved": 0, "fusion_lat": 0.0, "lat": 38.92652566666667, "fusion_lon": 0.0, "rental_uris": {"ios": "https://dc.lft.to/lastmile_qr_scan", "android": "https://dc.lft.to/lastmile_qr_scan"}, "lon": -77.02444666666666, "bike_id": "8d6c87450ca387f621a96da37580b333", "type": "electric_scooter", "name": "8d6c87450ca387f621a96da37580b333"}, {"is_disabled": 0, "is_reserved": 0, "fusion_lat": 0.0, "lat": 38.92352866666667, "fusion_lon": 0.0, "rental_uris": {"ios": "https://dc.lft.to/lastmile_qr_scan", "android": "https://dc.lft.to/lastmile_qr_scan"}, "lon": -77.0730595, "bike_id": "e4c4b11d525f907bb9ab53ad9ab76881", "type": "electric_scooter", "name": "e4c4b11d525f907bb9ab53ad9ab76881"}, {"is_disabled": 0, "is_reserved": 0, "fusion_lat": 0.0, "lat": 38.936986166666664, "fusion_lon": 0.0, "rental_uris": {"ios": "https://dc.lft.to/lastmile_qr_scan", "android": "https://dc.lft.to/lastmile_qr_scan"}, "lon": -77.055987, "bike_id": "9c91a86f9e462832087d310d42d5bbc4", "type": "electric_scooter", "name": "9c91a86f9e462832087d310d42d5bbc4"}, {"is_disabled": 0, "is_reserved": 0, "fusion_lat": 0.0, "lat": 38.923988333333334, "fusion_lon": 0.0, "rental_uris": {"ios": "https://dc.lft.to/lastmile_qr_scan", "android": "https://dc.lft.to/lastmile_qr_scan"}, "lon": -76.99369466666667, "bike_id": "e3e285c1aaf6c760efd6469f24f35020", "type": "electric_scooter", "name": "e3e285c1aaf6c760efd6469f24f35020"}, {"is_disabled": 0, "is_reserved": 0, "fusion_lat": 0.0, "lat": 38.903727333333336, "fusion_lon": 0.0, "rental_uris": {"ios": "https://dc.lft.to/lastmile_qr_scan", "android": "https://dc.lft.to/lastmile_qr_scan"}, "lon": -77.04835466666667, "bike_id": "647174e881814ec564006a4cc07a3ef0", "type": "electric_scooter", "name": "647174e881814ec564006a4cc07a3ef0"}, {"is_disabled": 0, "is_reserved": 0, "fusion_lat": 0.0, "lat": 38.99991083333333, "fusion_lon": 0.0, "rental_uris": {"ios": "https://dc.lft.to/lastmile_qr_scan", "android": "https://dc.lft.to/lastmile_qr_scan"}, "lon": -76.92487916666667, "bike_id": "f70920118b4665ba2ef594e73fb803a2", "type": "electric_bike", "name": "f70920118b4665ba2ef594e73fb803a2"}, {"is_disabled": 0, "is_reserved": 0, "fusion_lat": 0.0, "lat": 38.93251933333333, "fusion_lon": 0.0, "rental_uris": {"ios": "https://dc.lft.to/lastmile_qr_scan", "android": "https://dc.lft.to/lastmile_qr_scan"}, "lon": -77.02972616666666, "bike_id": "46664b47fc18215e7644aa3be12327fc", "type": "electric_scooter", "name": "46664b47fc18215e7644aa3be12327fc"}, {"is_disabled": 0, "is_reserved": 0, "fusion_lat": 0.0, "lat": 38.9247975, "fusion_lon": 0.0, "rental_uris": {"ios": "https://dc.lft.to/lastmile_qr_scan", "android": "https://dc.lft.to/lastmile_qr_scan"}, "lon": -77.02792583333333, "bike_id": "46856b122cff609110e1588bf57d7189", "type": "electric_scooter", "name": "46856b122cff609110e1588bf57d7189"}, {"is_disabled": 0, "is_reserved": 0, "fusion_lat": 0.0, "lat": 38.95317716666667, "fusion_lon": 0.0, "rental_uris": {"ios": "https://dc.lft.to/lastmile_qr_scan", "android": "https://dc.lft.to/lastmile_qr_scan"}, "lon": -76.994585, "bike_id": "91d45d77dbb0c80761021a08fd1dcc4f", "type": "electric_scooter", "name": "91d45d77dbb0c80761021a08fd1dcc4f"}, {"is_disabled": 0, "is_reserved": 0, "fusion_lat": 0.0, "lat": 38.924311833333334, "fusion_lon": 0.0, "rental_uris": {"ios": "https://dc.lft.to/lastmile_qr_scan", "android": "https://dc.lft.to/lastmile_qr_scan"}, "lon": -77.0270485, "bike_id": "7a8ee147d3bdaf44645dfe1d50ac0546", "type": "electric_scooter", "name": "7a8ee147d3bdaf44645dfe1d50ac0546"}, {"is_disabled": 0, "is_reserved": 0, "fusion_lat": 0.0, "lat": 38.9213235, "fusion_lon": 0.0, "rental_uris": {"ios": "https://dc.lft.to/lastmile_qr_scan", "android": "https://dc.lft.to/lastmile_qr_scan"}, "lon": -77.00186016666666, "bike_id": "7ba5ed1677269a4cd8040ecb9cefb1e0", "type": "electric_bike", "name": "7ba5ed1677269a4cd8040ecb9cefb1e0"}, {"is_disabled": 0, "is_reserved": 0, "fusion_lat": 0.0, "lat": 38.88523416666666, "fusion_lon": 0.0, "rental_uris": {"ios": "https://dc.lft.to/lastmile_qr_scan", "android": "https://dc.lft.to/lastmile_qr_scan"}, "lon": -76.97710816666667, "bike_id": "3d17770667db8acec9c95c1465cb62b6", "type": "electric_scooter", "name": "3d17770667db8acec9c95c1465cb62b6"}, {"is_disabled": 0, "is_reserved": 0, "fusion_lat": 0.0, "lat": 38.9180795, "fusion_lon": 0.0, "rental_uris": {"ios": "https://dc.lft.to/lastmile_qr_scan", "android": "https://dc.lft.to/lastmile_qr_scan"}, "lon": -77.011447, "bike_id": "82b4bc7bcfbb08f6e726b16338b7b251", "type": "electric_scooter", "name": "82b4bc7bcfbb08f6e726b16338b7b251"}, {"is_disabled": 0, "is_reserved": 0, "fusion_lat": 0.0, "lat": 38.90855483333333, "fusion_lon": 0.0, "rental_uris": {"ios": "https://dc.lft.to/lastmile_qr_scan", "android": "https://dc.lft.to/lastmile_qr_scan"}, "lon": -76.99971816666667, "bike_id": "ea7a057067a2937c3a5635ee4397e0b5", "type": "electric_scooter", "name": "ea7a057067a2937c3a5635ee4397e0b5"}, {"is_disabled": 0, "is_reserved": 0, "fusion_lat": 0.0, "lat": 38.9182035, "fusion_lon": 0.0, "rental_uris": {"ios": "https://dc.lft.to/lastmile_qr_scan", "android": "https://dc.lft.to/lastmile_qr_scan"}, "lon": -77.02711033333334, "bike_id": "d831717dbffd95eac5146ed82e0312f3", "type": "electric_scooter", "name": "d831717dbffd95eac5146ed82e0312f3"}, {"is_disabled": 0, "is_reserved": 0, "fusion_lat": 0.0, "lat": 38.885048, "fusion_lon": 0.0, "rental_uris": {"ios": "https://dc.lft.to/lastmile_qr_scan", "android": "https://dc.lft.to/lastmile_qr_scan"}, "lon": -76.94551616666666, "bike_id": "5a55acad3d9b57ca722aa2652adf9c3d", "type": "electric_scooter", "name": "5a55acad3d9b57ca722aa2652adf9c3d"}, {"is_disabled": 0, "is_reserved": 0, "fusion_lat": 0.0, "lat": 38.927442666666664, "fusion_lon": 0.0, "rental_uris": {"ios": "https://dc.lft.to/lastmile_qr_scan", "android": "https://dc.lft.to/lastmile_qr_scan"}, "lon": -77.032975, "bike_id": "e0368e04da53b2edf5137b66b3e20266", "type": "electric_scooter", "name": "e0368e04da53b2edf5137b66b3e20266"}, {"is_disabled": 0, "is_reserved": 0, "fusion_lat": 0.0, "lat": 38.9370085, "fusion_lon": 0.0, "rental_uris": {"ios": "https://dc.lft.to/lastmile_qr_scan", "android": "https://dc.lft.to/lastmile_qr_scan"}, "lon": -77.05594366666666, "bike_id": "b65aa0b756fd98bb309e9c1d188a4b7e", "type": "electric_scooter", "name": "b65aa0b756fd98bb309e9c1d188a4b7e"}, {"is_disabled": 0, "is_reserved": 0, "fusion_lat": 0.0, "lat": 38.8717465, "fusion_lon": 0.0, "rental_uris": {"ios": "https://dc.lft.to/lastmile_qr_scan", "android": "https://dc.lft.to/lastmile_qr_scan"}, "lon": -77.23390666666667, "bike_id": "72ac51662aa23ddae7e55c5e08a94288", "type": "electric_bike", "name": "72ac51662aa23ddae7e55c5e08a94288"}, {"is_disabled": 0, "is_reserved": 0, "fusion_lat": 0.0, "lat": 38.94180766666667, "fusion_lon": 0.0, "rental_uris": {"ios": "https://dc.lft.to/lastmile_qr_scan", "android": "https://dc.lft.to/lastmile_qr_scan"}, "lon": -77.0338735, "bike_id": "9d42d123fff5cda6133bbde14aedfebf", "type": "electric_scooter", "name": "9d42d123fff5cda6133bbde14aedfebf"}, {"is_disabled": 0, "is_reserved": 0, "fusion_lat": 0.0, "lat": 38.919128666666666, "fusion_lon": 0.0, "rental_uris": {"ios": "https://dc.lft.to/lastmile_qr_scan", "android": "https://dc.lft.to/lastmile_qr_scan"}, "lon": -77.00992983333333, "bike_id": "c031a74cb5fbe1ca9187c4c3fc31760f", "type": "electric_scooter", "name": "c031a74cb5fbe1ca9187c4c3fc31760f"}, {"is_disabled": 0, "is_reserved": 0, "fusion_lat": 0.0, "lat": 38.90433683333333, "fusion_lon": 0.0, "rental_uris": {"ios": "https://dc.lft.to/lastmile_qr_scan", "android": "https://dc.lft.to/lastmile_qr_scan"}, "lon": -77.0260005, "bike_id": "116f401197480cf0c681e92c7a6cd085", "type": "electric_scooter", "name": "116f401197480cf0c681e92c7a6cd085"}, {"is_disabled": 0, "is_reserved": 0, "fusion_lat": 0.0, "lat": 38.917997666666665, "fusion_lon": 0.0, "rental_uris": {"ios": "https://dc.lft.to/lastmile_qr_scan", "android": "https://dc.lft.to/lastmile_qr_scan"}, "lon": -77.03442, "bike_id": "1a000fe4eea098c26b42819cc2e9e8c4", "type": "electric_scooter", "name": "1a000fe4eea098c26b42819cc2e9e8c4"}, {"is_disabled": 0, "is_reserved": 0, "fusion_lat": 0.0, "lat": 38.936990333333334, "fusion_lon": 0.0, "rental_uris": {"ios": "https://dc.lft.to/lastmile_qr_scan", "android": "https://dc.lft.to/lastmile_qr_scan"}, "lon": -77.05680366666667, "bike_id": "d0c8fc8ff092c5892c1736405f4e6af5", "type": "electric_scooter", "name": "d0c8fc8ff092c5892c1736405f4e6af5"}, {"is_disabled": 0, "is_reserved": 0, "fusion_lat": 0.0, "lat": 38.9651055, "fusion_lon": 0.0, "rental_uris": {"ios": "https://dc.lft.to/lastmile_qr_scan", "android": "https://dc.lft.to/lastmile_qr_scan"}, "lon": -77.03363816666666, "bike_id": "0a75b442595711bce7e14804f0adf52a", "type": "electric_bike", "name": "0a75b442595711bce7e14804f0adf52a"}, {"is_disabled": 0, "is_reserved": 0, "fusion_lat": 0.0, "lat": 38.9230325, "fusion_lon": 0.0, "rental_uris": {"ios": "https://dc.lft.to/lastmile_qr_scan", "android": "https://dc.lft.to/lastmile_qr_scan"}, "lon": -77.04124566666667, "bike_id": "c1fd55b9ec02784a38619ee48f500781", "type": "electric_bike", "name": "c1fd55b9ec02784a38619ee48f500781"}, {"is_disabled": 0, "is_reserved": 0, "fusion_lat": 0.0, "lat": 38.89960033333333, "fusion_lon": 0.0, "rental_uris": {"ios": "https://dc.lft.to/lastmile_qr_scan", "android": "https://dc.lft.to/lastmile_qr_scan"}, "lon": -77.01602666666666, "bike_id": "ea8ea32250f5345d48d9d667051f2fdf", "type": "electric_scooter", "name": "ea8ea32250f5345d48d9d667051f2fdf"}, {"is_disabled": 0, "is_reserved": 0, "fusion_lat": 0.0, "lat": 38.92320866666667, "fusion_lon": 0.0, "rental_uris": {"ios": "https://dc.lft.to/lastmile_qr_scan", "android": "https://dc.lft.to/lastmile_qr_scan"}, "lon": -77.02969416666667, "bike_id": "a525df228e720299bd9390c9f25d5889", "type": "electric_scooter", "name": "a525df228e720299bd9390c9f25d5889"}, {"is_disabled": 0, "is_reserved": 0, "fusion_lat": 0.0, "lat": 38.9352445, "fusion_lon": 0.0, "rental_uris": {"ios": "https://dc.lft.to/lastmile_qr_scan", "android": "https://dc.lft.to/lastmile_qr_scan"}, "lon": -77.03811816666666, "bike_id": "96ba7c0011eea6caee8a5aaeade13f7a", "type": "electric_scooter", "name": "96ba7c0011eea6caee8a5aaeade13f7a"}, {"is_disabled": 0, "is_reserved": 0, "fusion_lat": 0.0, "lat": 38.9338965, "fusion_lon": 0.0, "rental_uris": {"ios": "https://dc.lft.to/lastmile_qr_scan", "android": "https://dc.lft.to/lastmile_qr_scan"}, "lon": -77.02076366666667, "bike_id": "4be19e6e0b2de42d159021d25ca6fd21", "type": "electric_scooter", "name": "4be19e6e0b2de42d159021d25ca6fd21"}, {"is_disabled": 0, "is_reserved": 0, "fusion_lat": 0.0, "lat": 38.921491333333336, "fusion_lon": 0.0, "rental_uris": {"ios": "https://dc.lft.to/lastmile_qr_scan", "android": "https://dc.lft.to/lastmile_qr_scan"}, "lon": -77.03868833333334, "bike_id": "ab03a34086d53a534fb067968604ddcc", "type": "electric_scooter", "name": "ab03a34086d53a534fb067968604ddcc"}, {"is_disabled": 0, "is_reserved": 0, "fusion_lat": 0.0, "lat": 38.88659416666667, "fusion_lon": 0.0, "rental_uris": {"ios": "https://dc.lft.to/lastmile_qr_scan", "android": "https://dc.lft.to/lastmile_qr_scan"}, "lon": -77.033876, "bike_id": "0a2d73d0c16056ec8c26203a6ed18a2b", "type": "electric_scooter", "name": "0a2d73d0c16056ec8c26203a6ed18a2b"}, {"is_disabled": 0, "is_reserved": 0, "fusion_lat": 0.0, "lat": 38.91572333333333, "fusion_lon": 0.0, "rental_uris": {"ios": "https://dc.lft.to/lastmile_qr_scan", "android": "https://dc.lft.to/lastmile_qr_scan"}, "lon": -77.032117, "bike_id": "17f24408c6fef9abe4574dab4ca68631", "type": "electric_scooter", "name": "17f24408c6fef9abe4574dab4ca68631"}, {"is_disabled": 0, "is_reserved": 0, "fusion_lat": 0.0, "lat": 38.961747333333335, "fusion_lon": 0.0, "rental_uris": {"ios": "https://dc.lft.to/lastmile_qr_scan", "android": "https://dc.lft.to/lastmile_qr_scan"}, "lon": -77.0322325, "bike_id": "be12b583015455a5787af9737782ca7c", "type": "electric_scooter", "name": "be12b583015455a5787af9737782ca7c"}, {"is_disabled": 0, "is_reserved": 0, "fusion_lat": 0.0, "lat": 38.93747616666667, "fusion_lon": 0.0, "rental_uris": {"ios": "https://dc.lft.to/lastmile_qr_scan", "android": "https://dc.lft.to/lastmile_qr_scan"}, "lon": -77.03579716666667, "bike_id": "1070f4269c33a3de0806220e7061d449", "type": "electric_scooter", "name": "1070f4269c33a3de0806220e7061d449"}, {"is_disabled": 0, "is_reserved": 0, "fusion_lat": 0.0, "lat": 38.895088333333334, "fusion_lon": 0.0, "rental_uris": {"ios": "https://dc.lft.to/lastmile_qr_scan", "android": "https://dc.lft.to/lastmile_qr_scan"}, "lon": -77.04133916666666, "bike_id": "6c0e4646a1e384a15f4b5fe66f23bad6", "type": "electric_scooter", "name": "6c0e4646a1e384a15f4b5fe66f23bad6"}, {"is_disabled": 0, "is_reserved": 0, "fusion_lat": 0.0, "lat": 38.89198416666667, "fusion_lon": 0.0, "rental_uris": {"ios": "https://dc.lft.to/lastmile_qr_scan", "android": "https://dc.lft.to/lastmile_qr_scan"}, "lon": -77.0438585, "bike_id": "bd2677cb0d3ec0c00d0581517c39654f", "type": "electric_scooter", "name": "bd2677cb0d3ec0c00d0581517c39654f"}, {"is_disabled": 0, "is_reserved": 0, "fusion_lat": 0.0, "lat": 38.88407683333333, "fusion_lon": 0.0, "rental_uris": {"ios": "https://dc.lft.to/lastmile_qr_scan", "android": "https://dc.lft.to/lastmile_qr_scan"}, "lon": -76.9858255, "bike_id": "0551717ec51b9ea39dbb403cb4efd5d5", "type": "electric_bike", "name": "0551717ec51b9ea39dbb403cb4efd5d5"}, {"is_disabled": 0, "is_reserved": 0, "fusion_lat": 0.0, "lat": 38.931697, "fusion_lon": 0.0, "rental_uris": {"ios": "https://dc.lft.to/lastmile_qr_scan", "android": "https://dc.lft.to/lastmile_qr_scan"}, "lon": -77.02816366666667, "bike_id": "aefcabf2be123f8c6c2e72ea27c96439", "type": "electric_scooter", "name": "aefcabf2be123f8c6c2e72ea27c96439"}, {"is_disabled": 0, "is_reserved": 0, "fusion_lat": 0.0, "lat": 38.900909666666664, "fusion_lon": 0.0, "rental_uris": {"ios": "https://dc.lft.to/lastmile_qr_scan", "android": "https://dc.lft.to/lastmile_qr_scan"}, "lon": -77.04789616666666, "bike_id": "606ef8e26f6f524143c8b02e801db342", "type": "electric_scooter", "name": "606ef8e26f6f524143c8b02e801db342"}, {"is_disabled": 0, "is_reserved": 0, "fusion_lat": 0.0, "lat": 38.903181333333336, "fusion_lon": 0.0, "rental_uris": {"ios": "https://dc.lft.to/lastmile_qr_scan", "android": "https://dc.lft.to/lastmile_qr_scan"}, "lon": -77.05016583333334, "bike_id": "aa627b97650646b4613a2af75d6b5613", "type": "electric_scooter", "name": "aa627b97650646b4613a2af75d6b5613"}, {"is_disabled": 0, "is_reserved": 0, "fusion_lat": 0.0, "lat": 38.91816216666667, "fusion_lon": 0.0, "rental_uris": {"ios": "https://dc.lft.to/lastmile_qr_scan", "android": "https://dc.lft.to/lastmile_qr_scan"}, "lon": -77.02475483333333, "bike_id": "54d8f090e583df8f75ebd0932f69fcb9", "type": "electric_scooter", "name": "54d8f090e583df8f75ebd0932f69fcb9"}, {"is_disabled": 0, "is_reserved": 0, "fusion_lat": 0.0, "lat": 38.911348, "fusion_lon": 0.0, "rental_uris": {"ios": "https://dc.lft.to/lastmile_qr_scan", "android": "https://dc.lft.to/lastmile_qr_scan"}, "lon": -77.04861716666667, "bike_id": "9bb1d92b60227f9cdd9618b21a10edf6", "type": "electric_scooter", "name": "9bb1d92b60227f9cdd9618b21a10edf6"}, {"is_disabled": 0, "is_reserved": 0, "fusion_lat": 0.0, "lat": 38.896353500000004, "fusion_lon": 0.0, "rental_uris": {"ios": "https://dc.lft.to/lastmile_qr_scan", "android": "https://dc.lft.to/lastmile_qr_scan"}, "lon": -77.04340783333333, "bike_id": "a8942e11a131ff8acc30de8e3c916967", "type": "electric_scooter", "name": "a8942e11a131ff8acc30de8e3c916967"}, {"is_disabled": 0, "is_reserved": 0, "fusion_lat": 0.0, "lat": 38.920790833333335, "fusion_lon": 0.0, "rental_uris": {"ios": "https://dc.lft.to/lastmile_qr_scan", "android": "https://dc.lft.to/lastmile_qr_scan"}, "lon": -77.02305233333334, "bike_id": "ec0077f2a67284035a04daa03a7da9ab", "type": "electric_scooter", "name": "ec0077f2a67284035a04daa03a7da9ab"}, {"is_disabled": 0, "is_reserved": 0, "fusion_lat": 0.0, "lat": 38.82762266666667, "fusion_lon": 0.0, "rental_uris": {"ios": "https://dc.lft.to/lastmile_qr_scan", "android": "https://dc.lft.to/lastmile_qr_scan"}, "lon": -77.05028566666667, "bike_id": "0ac9570486accd66d6f811144ebb615f", "type": "electric_bike", "name": "0ac9570486accd66d6f811144ebb615f"}, {"is_disabled": 0, "is_reserved": 0, "fusion_lat": 0.0, "lat": 38.930999666666665, "fusion_lon": 0.0, "rental_uris": {"ios": "https://dc.lft.to/lastmile_qr_scan", "android": "https://dc.lft.to/lastmile_qr_scan"}, "lon": -77.02481716666667, "bike_id": "01cfe327329874536fa01d72d4da84e3", "type": "electric_scooter", "name": "01cfe327329874536fa01d72d4da84e3"}, {"is_disabled": 0, "is_reserved": 0, "fusion_lat": 0.0, "lat": 38.92331, "fusion_lon": 0.0, "rental_uris": {"ios": "https://dc.lft.to/lastmile_qr_scan", "android": "https://dc.lft.to/lastmile_qr_scan"}, "lon": -77.05670133333334, "bike_id": "7cefbf0f22b4acf13b6706468f21c22d", "type": "electric_scooter", "name": "7cefbf0f22b4acf13b6706468f21c22d"}, {"is_disabled": 0, "is_reserved": 0, "fusion_lat": 0.0, "lat": 38.935542833333336, "fusion_lon": 0.0, "rental_uris": {"ios": "https://dc.lft.to/lastmile_qr_scan", "android": "https://dc.lft.to/lastmile_qr_scan"}, "lon": -77.07705483333334, "bike_id": "6a37c88faaeb29067b001d32ca5213b8", "type": "electric_scooter", "name": "6a37c88faaeb29067b001d32ca5213b8"}, {"is_disabled": 0, "is_reserved": 0, "fusion_lat": 0.0, "lat": 38.8917815, "fusion_lon": 0.0, "rental_uris": {"ios": "https://dc.lft.to/lastmile_qr_scan", "android": "https://dc.lft.to/lastmile_qr_scan"}, "lon": -77.031823, "bike_id": "3b15e27100d1708e3f1ef33625506ec1", "type": "electric_scooter", "name": "3b15e27100d1708e3f1ef33625506ec1"}, {"is_disabled": 0, "is_reserved": 0, "fusion_lat": 0.0, "lat": 38.92594533333333, "fusion_lon": 0.0, "rental_uris": {"ios": "https://dc.lft.to/lastmile_qr_scan", "android": "https://dc.lft.to/lastmile_qr_scan"}, "lon": -77.044099, "bike_id": "5965c4396ef0f6aab4ba43e5b85b9e74", "type": "electric_scooter", "name": "5965c4396ef0f6aab4ba43e5b85b9e74"}, {"is_disabled": 0, "is_reserved": 0, "fusion_lat": 0.0, "lat": 38.892352333333335, "fusion_lon": 0.0, "rental_uris": {"ios": "https://dc.lft.to/lastmile_qr_scan", "android": "https://dc.lft.to/lastmile_qr_scan"}, "lon": -77.031835, "bike_id": "3c8b3d3968887facb1e228e6072e563e", "type": "electric_scooter", "name": "3c8b3d3968887facb1e228e6072e563e"}, {"is_disabled": 0, "is_reserved": 0, "fusion_lat": 0.0, "lat": 38.91418783333334, "fusion_lon": 0.0, "rental_uris": {"ios": "https://dc.lft.to/lastmile_qr_scan", "android": "https://dc.lft.to/lastmile_qr_scan"}, "lon": -77.03172183333334, "bike_id": "c4bbf909a324e008cf2c49bd7ffb5f2e", "type": "electric_scooter", "name": "c4bbf909a324e008cf2c49bd7ffb5f2e"}, {"is_disabled": 0, "is_reserved": 0, "fusion_lat": 0.0, "lat": 38.9247945, "fusion_lon": 0.0, "rental_uris": {"ios": "https://dc.lft.to/lastmile_qr_scan", "android": "https://dc.lft.to/lastmile_qr_scan"}, "lon": -77.0284555, "bike_id": "22e8865a2308070fe797de38150a0b33", "type": "electric_scooter", "name": "22e8865a2308070fe797de38150a0b33"}, {"is_disabled": 0, "is_reserved": 0, "fusion_lat": 0.0, "lat": 38.8717205, "fusion_lon": 0.0, "rental_uris": {"ios": "https://dc.lft.to/lastmile_qr_scan", "android": "https://dc.lft.to/lastmile_qr_scan"}, "lon": -77.00622233333333, "bike_id": "e9f463095b89fde36f8f6049ce38692f", "type": "electric_scooter", "name": "e9f463095b89fde36f8f6049ce38692f"}, {"is_disabled": 0, "is_reserved": 0, "fusion_lat": 0.0, "lat": 38.91680733333333, "fusion_lon": 0.0, "rental_uris": {"ios": "https://dc.lft.to/lastmile_qr_scan", "android": "https://dc.lft.to/lastmile_qr_scan"}, "lon": -77.02967616666666, "bike_id": "bbd440588ae559201058d7ced342151c", "type": "electric_scooter", "name": "bbd440588ae559201058d7ced342151c"}, {"is_disabled": 0, "is_reserved": 0, "fusion_lat": 0.0, "lat": 38.938588333333335, "fusion_lon": 0.0, "rental_uris": {"ios": "https://dc.lft.to/lastmile_qr_scan", "android": "https://dc.lft.to/lastmile_qr_scan"}, "lon": -76.994307, "bike_id": "02daa1ec2c5a847c14c45c499d0faaa9", "type": "electric_scooter", "name": "02daa1ec2c5a847c14c45c499d0faaa9"}, {"is_disabled": 0, "is_reserved": 0, "fusion_lat": 0.0, "lat": 38.93864683333334, "fusion_lon": 0.0, "rental_uris": {"ios": "https://dc.lft.to/lastmile_qr_scan", "android": "https://dc.lft.to/lastmile_qr_scan"}, "lon": -77.0303725, "bike_id": "b69e87f152748770a650d9b2e291df83", "type": "electric_scooter", "name": "b69e87f152748770a650d9b2e291df83"}, {"is_disabled": 0, "is_reserved": 0, "fusion_lat": 0.0, "lat": 38.9068015, "fusion_lon": 0.0, "rental_uris": {"ios": "https://dc.lft.to/lastmile_qr_scan", "android": "https://dc.lft.to/lastmile_qr_scan"}, "lon": -77.0531865, "bike_id": "25b6789c0aaa9a2ea0be053522dc7aaf", "type": "electric_scooter", "name": "25b6789c0aaa9a2ea0be053522dc7aaf"}, {"is_disabled": 0, "is_reserved": 0, "fusion_lat": 0.0, "lat": 38.920073, "fusion_lon": 0.0, "rental_uris": {"ios": "https://dc.lft.to/lastmile_qr_scan", "android": "https://dc.lft.to/lastmile_qr_scan"}, "lon": -77.04165716666667, "bike_id": "bbf98dbb258ed7dcd64c84f5af071ec4", "type": "electric_scooter", "name": "bbf98dbb258ed7dcd64c84f5af071ec4"}, {"is_disabled": 0, "is_reserved": 0, "fusion_lat": 0.0, "lat": 38.905714333333336, "fusion_lon": 0.0, "rental_uris": {"ios": "https://dc.lft.to/lastmile_qr_scan", "android": "https://dc.lft.to/lastmile_qr_scan"}, "lon": -77.00695866666666, "bike_id": "dfe11ddbf96eb5e899117a9ed717f39c", "type": "electric_scooter", "name": "dfe11ddbf96eb5e899117a9ed717f39c"}, {"is_disabled": 0, "is_reserved": 0, "fusion_lat": 0.0, "lat": 38.902599333333335, "fusion_lon": 0.0, "rental_uris": {"ios": "https://dc.lft.to/lastmile_qr_scan", "android": "https://dc.lft.to/lastmile_qr_scan"}, "lon": -77.059135, "bike_id": "63fa893a1b143261648e5313c9c24dc2", "type": "electric_scooter", "name": "63fa893a1b143261648e5313c9c24dc2"}, {"is_disabled": 0, "is_reserved": 0, "fusion_lat": 0.0, "lat": 38.85217433333333, "fusion_lon": 0.0, "rental_uris": {"ios": "https://dc.lft.to/lastmile_qr_scan", "android": "https://dc.lft.to/lastmile_qr_scan"}, "lon": -76.9937125, "bike_id": "50db0ddeb6d5a54f5844369048b75997", "type": "electric_bike", "name": "50db0ddeb6d5a54f5844369048b75997"}, {"is_disabled": 0, "is_reserved": 0, "fusion_lat": 0.0, "lat": 38.882789, "fusion_lon": 0.0, "rental_uris": {"ios": "https://dc.lft.to/lastmile_qr_scan", "android": "https://dc.lft.to/lastmile_qr_scan"}, "lon": -76.93232183333333, "bike_id": "cb079ced2abe134a2e84b95a79b4e2c9", "type": "electric_bike", "name": "cb079ced2abe134a2e84b95a79b4e2c9"}, {"is_disabled": 0, "is_reserved": 0, "fusion_lat": 0.0, "lat": 38.924733833333335, "fusion_lon": 0.0, "rental_uris": {"ios": "https://dc.lft.to/lastmile_qr_scan", "android": "https://dc.lft.to/lastmile_qr_scan"}, "lon": -77.03536833333334, "bike_id": "10ae1790a2bbc04d2079672ad79d2aca", "type": "electric_scooter", "name": "10ae1790a2bbc04d2079672ad79d2aca"}, {"is_disabled": 0, "is_reserved": 0, "fusion_lat": 0.0, "lat": 38.92288666666666, "fusion_lon": 0.0, "rental_uris": {"ios": "https://dc.lft.to/lastmile_qr_scan", "android": "https://dc.lft.to/lastmile_qr_scan"}, "lon": -77.0422175, "bike_id": "8a347bf3b3fa98138c8570dd0b076c94", "type": "electric_scooter", "name": "8a347bf3b3fa98138c8570dd0b076c94"}, {"is_disabled": 0, "is_reserved": 0, "fusion_lat": 0.0, "lat": 38.90188583333333, "fusion_lon": 0.0, "rental_uris": {"ios": "https://dc.lft.to/lastmile_qr_scan", "android": "https://dc.lft.to/lastmile_qr_scan"}, "lon": -77.05015583333333, "bike_id": "34c6b26bf64edc99da43784eaa02a530", "type": "electric_scooter", "name": "34c6b26bf64edc99da43784eaa02a530"}, {"is_disabled": 0, "is_reserved": 0, "fusion_lat": 0.0, "lat": 38.948204, "fusion_lon": 0.0, "rental_uris": {"ios": "https://dc.lft.to/lastmile_qr_scan", "android": "https://dc.lft.to/lastmile_qr_scan"}, "lon": -77.02535633333333, "bike_id": "d8d3d96626cdab080132b89a33d4da92", "type": "electric_scooter", "name": "d8d3d96626cdab080132b89a33d4da92"}, {"is_disabled": 0, "is_reserved": 0, "fusion_lat": 0.0, "lat": 38.917635833333335, "fusion_lon": 0.0, "rental_uris": {"ios": "https://dc.lft.to/lastmile_qr_scan", "android": "https://dc.lft.to/lastmile_qr_scan"}, "lon": -77.02946366666667, "bike_id": "c55497f21d01066fd5d29aafb14650fe", "type": "electric_scooter", "name": "c55497f21d01066fd5d29aafb14650fe"}, {"is_disabled": 0, "is_reserved": 0, "fusion_lat": 0.0, "lat": 38.92306466666667, "fusion_lon": 0.0, "rental_uris": {"ios": "https://dc.lft.to/lastmile_qr_scan", "android": "https://dc.lft.to/lastmile_qr_scan"}, "lon": -77.03399583333334, "bike_id": "5ad65d3721e22bf4dd2d6a8cfa8fcc56", "type": "electric_scooter", "name": "5ad65d3721e22bf4dd2d6a8cfa8fcc56"}, {"is_disabled": 0, "is_reserved": 0, "fusion_lat": 0.0, "lat": 38.909719833333334, "fusion_lon": 0.0, "rental_uris": {"ios": "https://dc.lft.to/lastmile_qr_scan", "android": "https://dc.lft.to/lastmile_qr_scan"}, "lon": -77.03347533333333, "bike_id": "ffd853c36d1faa11938e9fdbd123f211", "type": "electric_scooter", "name": "ffd853c36d1faa11938e9fdbd123f211"}, {"is_disabled": 0, "is_reserved": 0, "fusion_lat": 0.0, "lat": 38.876487833333336, "fusion_lon": 0.0, "rental_uris": {"ios": "https://dc.lft.to/lastmile_qr_scan", "android": "https://dc.lft.to/lastmile_qr_scan"}, "lon": -77.00878966666667, "bike_id": "0d84cdbedb6011c226183d98f7f09ce6", "type": "electric_scooter", "name": "0d84cdbedb6011c226183d98f7f09ce6"}, {"is_disabled": 0, "is_reserved": 0, "fusion_lat": 0.0, "lat": 38.9221985, "fusion_lon": 0.0, "rental_uris": {"ios": "https://dc.lft.to/lastmile_qr_scan", "android": "https://dc.lft.to/lastmile_qr_scan"}, "lon": -77.0423975, "bike_id": "8db48db01600608a9ab7960272a0547a", "type": "electric_scooter", "name": "8db48db01600608a9ab7960272a0547a"}, {"is_disabled": 0, "is_reserved": 0, "fusion_lat": 0.0, "lat": 38.917780666666665, "fusion_lon": 0.0, "rental_uris": {"ios": "https://dc.lft.to/lastmile_qr_scan", "android": "https://dc.lft.to/lastmile_qr_scan"}, "lon": -77.0453385, "bike_id": "0a20a555e615f9d38631ea58adb98adf", "type": "electric_scooter", "name": "0a20a555e615f9d38631ea58adb98adf"}, {"is_disabled": 0, "is_reserved": 0, "fusion_lat": 0.0, "lat": 38.92845116666667, "fusion_lon": 0.0, "rental_uris": {"ios": "https://dc.lft.to/lastmile_qr_scan", "android": "https://dc.lft.to/lastmile_qr_scan"}, "lon": -77.0296155, "bike_id": "04cafea0940a0607669623d0f41213ad", "type": "electric_scooter", "name": "04cafea0940a0607669623d0f41213ad"}, {"is_disabled": 0, "is_reserved": 0, "fusion_lat": 0.0, "lat": 38.896706333333334, "fusion_lon": 0.0, "rental_uris": {"ios": "https://dc.lft.to/lastmile_qr_scan", "android": "https://dc.lft.to/lastmile_qr_scan"}, "lon": -76.93204883333334, "bike_id": "83dd5b16c2ae9f0713a59333256304c1", "type": "electric_bike", "name": "83dd5b16c2ae9f0713a59333256304c1"}, {"is_disabled": 0, "is_reserved": 0, "fusion_lat": 0.0, "lat": 38.934140166666666, "fusion_lon": 0.0, "rental_uris": {"ios": "https://dc.lft.to/lastmile_qr_scan", "android": "https://dc.lft.to/lastmile_qr_scan"}, "lon": -77.0723145, "bike_id": "31b215c2084b2eb483140fb657c99a7e", "type": "electric_scooter", "name": "31b215c2084b2eb483140fb657c99a7e"}, {"is_disabled": 0, "is_reserved": 0, "fusion_lat": 0.0, "lat": 38.974374833333336, "fusion_lon": 0.0, "rental_uris": {"ios": "https://dc.lft.to/lastmile_qr_scan", "android": "https://dc.lft.to/lastmile_qr_scan"}, "lon": -77.0957805, "bike_id": "fefbafe5f6253477dea9b631aabe1b6c", "type": "electric_bike", "name": "fefbafe5f6253477dea9b631aabe1b6c"}, {"is_disabled": 0, "is_reserved": 0, "fusion_lat": 0.0, "lat": 38.9248015, "fusion_lon": 0.0, "rental_uris": {"ios": "https://dc.lft.to/lastmile_qr_scan", "android": "https://dc.lft.to/lastmile_qr_scan"}, "lon": -77.02798, "bike_id": "a0b7b610175909b470dc7de96b0f86b3", "type": "electric_scooter", "name": "a0b7b610175909b470dc7de96b0f86b3"}, {"is_disabled": 0, "is_reserved": 0, "fusion_lat": 0.0, "lat": 38.92056, "fusion_lon": 0.0, "rental_uris": {"ios": "https://dc.lft.to/lastmile_qr_scan", "android": "https://dc.lft.to/lastmile_qr_scan"}, "lon": -77.02509416666666, "bike_id": "46479642c7fcdd409f4e6abd88c9ee02", "type": "electric_scooter", "name": "46479642c7fcdd409f4e6abd88c9ee02"}, {"is_disabled": 0, "is_reserved": 0, "fusion_lat": 0.0, "lat": 38.92778933333334, "fusion_lon": 0.0, "rental_uris": {"ios": "https://dc.lft.to/lastmile_qr_scan", "android": "https://dc.lft.to/lastmile_qr_scan"}, "lon": -77.03146566666666, "bike_id": "f954523c48b962cef5f55cc0f41afb44", "type": "electric_scooter", "name": "f954523c48b962cef5f55cc0f41afb44"}, {"is_disabled": 0, "is_reserved": 0, "fusion_lat": 0.0, "lat": 38.9345205, "fusion_lon": 0.0, "rental_uris": {"ios": "https://dc.lft.to/lastmile_qr_scan", "android": "https://dc.lft.to/lastmile_qr_scan"}, "lon": -77.02835133333333, "bike_id": "1e4f6816721d1b3b4c0ef3f718fc119d", "type": "electric_scooter", "name": "1e4f6816721d1b3b4c0ef3f718fc119d"}, {"is_disabled": 0, "is_reserved": 0, "fusion_lat": 0.0, "lat": 38.896898, "fusion_lon": 0.0, "rental_uris": {"ios": "https://dc.lft.to/lastmile_qr_scan", "android": "https://dc.lft.to/lastmile_qr_scan"}, "lon": -77.0239355, "bike_id": "ea4b9971fb48f39f76cac704882d5280", "type": "electric_scooter", "name": "ea4b9971fb48f39f76cac704882d5280"}, {"is_disabled": 0, "is_reserved": 0, "fusion_lat": 0.0, "lat": 38.91731466666667, "fusion_lon": 0.0, "rental_uris": {"ios": "https://dc.lft.to/lastmile_qr_scan", "android": "https://dc.lft.to/lastmile_qr_scan"}, "lon": -77.03316866666667, "bike_id": "df0d3e976a419c4204697fffdeac2c4b", "type": "electric_scooter", "name": "df0d3e976a419c4204697fffdeac2c4b"}, {"is_disabled": 0, "is_reserved": 0, "fusion_lat": 0.0, "lat": 38.905983666666664, "fusion_lon": 0.0, "rental_uris": {"ios": "https://dc.lft.to/lastmile_qr_scan", "android": "https://dc.lft.to/lastmile_qr_scan"}, "lon": -77.05141333333333, "bike_id": "429d4ccffd25b3b2cb04ad37d8277432", "type": "electric_scooter", "name": "429d4ccffd25b3b2cb04ad37d8277432"}, {"is_disabled": 0, "is_reserved": 0, "fusion_lat": 0.0, "lat": 38.90260683333333, "fusion_lon": 0.0, "rental_uris": {"ios": "https://dc.lft.to/lastmile_qr_scan", "android": "https://dc.lft.to/lastmile_qr_scan"}, "lon": -77.0016995, "bike_id": "9dca3219427b14a9ec247fb38eeb601b", "type": "electric_scooter", "name": "9dca3219427b14a9ec247fb38eeb601b"}, {"is_disabled": 0, "is_reserved": 0, "fusion_lat": 0.0, "lat": 38.908333666666664, "fusion_lon": 0.0, "rental_uris": {"ios": "https://dc.lft.to/lastmile_qr_scan", "android": "https://dc.lft.to/lastmile_qr_scan"}, "lon": -77.073099, "bike_id": "92735778ff6839e89179745dd7dc826b", "type": "electric_scooter", "name": "92735778ff6839e89179745dd7dc826b"}, {"is_disabled": 0, "is_reserved": 0, "fusion_lat": 0.0, "lat": 38.9399195, "fusion_lon": 0.0, "rental_uris": {"ios": "https://dc.lft.to/lastmile_qr_scan", "android": "https://dc.lft.to/lastmile_qr_scan"}, "lon": -77.028905, "bike_id": "a4a5e205681a8febdcc1c3da30a3e538", "type": "electric_scooter", "name": "a4a5e205681a8febdcc1c3da30a3e538"}, {"is_disabled": 0, "is_reserved": 0, "fusion_lat": 0.0, "lat": 38.873216, "fusion_lon": 0.0, "rental_uris": {"ios": "https://dc.lft.to/lastmile_qr_scan", "android": "https://dc.lft.to/lastmile_qr_scan"}, "lon": -77.00556916666666, "bike_id": "9ddb2fad9a6f344e4326bbc4faa40549", "type": "electric_scooter", "name": "9ddb2fad9a6f344e4326bbc4faa40549"}, {"is_disabled": 0, "is_reserved": 0, "fusion_lat": 0.0, "lat": 38.92389983333333, "fusion_lon": 0.0, "rental_uris": {"ios": "https://dc.lft.to/lastmile_qr_scan", "android": "https://dc.lft.to/lastmile_qr_scan"}, "lon": -77.040241, "bike_id": "4acf887b6d9c7c8e8333001252f0ce67", "type": "electric_scooter", "name": "4acf887b6d9c7c8e8333001252f0ce67"}, {"is_disabled": 0, "is_reserved": 0, "fusion_lat": 0.0, "lat": 38.918239166666666, "fusion_lon": 0.0, "rental_uris": {"ios": "https://dc.lft.to/lastmile_qr_scan", "android": "https://dc.lft.to/lastmile_qr_scan"}, "lon": -77.0271695, "bike_id": "3654b1705de378a29358d1355f969f7d", "type": "electric_scooter", "name": "3654b1705de378a29358d1355f969f7d"}, {"is_disabled": 0, "is_reserved": 0, "fusion_lat": 0.0, "lat": 38.9213945, "fusion_lon": 0.0, "rental_uris": {"ios": "https://dc.lft.to/lastmile_qr_scan", "android": "https://dc.lft.to/lastmile_qr_scan"}, "lon": -77.0516235, "bike_id": "612d8d918951582ac8a51dd7a73fade6", "type": "electric_scooter", "name": "612d8d918951582ac8a51dd7a73fade6"}, {"is_disabled": 0, "is_reserved": 0, "fusion_lat": 0.0, "lat": 38.905902166666664, "fusion_lon": 0.0, "rental_uris": {"ios": "https://dc.lft.to/lastmile_qr_scan", "android": "https://dc.lft.to/lastmile_qr_scan"}, "lon": -77.02174566666666, "bike_id": "5f6c6075e1517dee94bb8413626fbf4d", "type": "electric_scooter", "name": "5f6c6075e1517dee94bb8413626fbf4d"}, {"is_disabled": 0, "is_reserved": 0, "fusion_lat": 0.0, "lat": 38.904549, "fusion_lon": 0.0, "rental_uris": {"ios": "https://dc.lft.to/lastmile_qr_scan", "android": "https://dc.lft.to/lastmile_qr_scan"}, "lon": -76.93272633333333, "bike_id": "90505554ee225ea47c3cc40e464822fe", "type": "electric_scooter", "name": "90505554ee225ea47c3cc40e464822fe"}, {"is_disabled": 0, "is_reserved": 0, "fusion_lat": 0.0, "lat": 38.908798, "fusion_lon": 0.0, "rental_uris": {"ios": "https://dc.lft.to/lastmile_qr_scan", "android": "https://dc.lft.to/lastmile_qr_scan"}, "lon": -77.04384033333334, "bike_id": "c614532d5d84155d4244ef864201dee0", "type": "electric_scooter", "name": "c614532d5d84155d4244ef864201dee0"}, {"is_disabled": 0, "is_reserved": 0, "fusion_lat": 0.0, "lat": 38.922453833333336, "fusion_lon": 0.0, "rental_uris": {"ios": "https://dc.lft.to/lastmile_qr_scan", "android": "https://dc.lft.to/lastmile_qr_scan"}, "lon": -77.03070733333334, "bike_id": "52808689c9e7dfd62c3e45147d79ab9f", "type": "electric_scooter", "name": "52808689c9e7dfd62c3e45147d79ab9f"}, {"is_disabled": 0, "is_reserved": 0, "fusion_lat": 0.0, "lat": 38.907177833333336, "fusion_lon": 0.0, "rental_uris": {"ios": "https://dc.lft.to/lastmile_qr_scan", "android": "https://dc.lft.to/lastmile_qr_scan"}, "lon": -77.04655533333333, "bike_id": "cce4b4aa25a502d8ba066cc90faa6189", "type": "electric_scooter", "name": "cce4b4aa25a502d8ba066cc90faa6189"}, {"is_disabled": 0, "is_reserved": 0, "fusion_lat": 0.0, "lat": 38.915724, "fusion_lon": 0.0, "rental_uris": {"ios": "https://dc.lft.to/lastmile_qr_scan", "android": "https://dc.lft.to/lastmile_qr_scan"}, "lon": -77.03657133333333, "bike_id": "446970a29ce3b6dccba96c03d4eac302", "type": "electric_scooter", "name": "446970a29ce3b6dccba96c03d4eac302"}, {"is_disabled": 0, "is_reserved": 0, "fusion_lat": 0.0, "lat": 38.973697, "fusion_lon": 0.0, "rental_uris": {"ios": "https://dc.lft.to/lastmile_qr_scan", "android": "https://dc.lft.to/lastmile_qr_scan"}, "lon": -77.0186295, "bike_id": "836d0f5873b4dade31fb1c1a649d191a", "type": "electric_scooter", "name": "836d0f5873b4dade31fb1c1a649d191a"}, {"is_disabled": 0, "is_reserved": 0, "fusion_lat": 0.0, "lat": 38.965607, "fusion_lon": 0.0, "rental_uris": {"ios": "https://dc.lft.to/lastmile_qr_scan", "android": "https://dc.lft.to/lastmile_qr_scan"}, "lon": -77.02811666666666, "bike_id": "fdcf5d96d450455585dcc837a467176f", "type": "electric_bike", "name": "fdcf5d96d450455585dcc837a467176f"}, {"is_disabled": 0, "is_reserved": 0, "fusion_lat": 0.0, "lat": 38.8810475, "fusion_lon": 0.0, "rental_uris": {"ios": "https://dc.lft.to/lastmile_qr_scan", "android": "https://dc.lft.to/lastmile_qr_scan"}, "lon": -77.012317, "bike_id": "c98c3e1a6266f16ce2fda2b3681bdce1", "type": "electric_scooter", "name": "c98c3e1a6266f16ce2fda2b3681bdce1"}, {"is_disabled": 0, "is_reserved": 0, "fusion_lat": 0.0, "lat": 38.8853205, "fusion_lon": 0.0, "rental_uris": {"ios": "https://dc.lft.to/lastmile_qr_scan", "android": "https://dc.lft.to/lastmile_qr_scan"}, "lon": -76.9961285, "bike_id": "f743d9a4502c9c28f11dd55d96affa55", "type": "electric_scooter", "name": "f743d9a4502c9c28f11dd55d96affa55"}, {"is_disabled": 0, "is_reserved": 0, "fusion_lat": 0.0, "lat": 39.00534066666667, "fusion_lon": 0.0, "rental_uris": {"ios": "https://dc.lft.to/lastmile_qr_scan", "android": "https://dc.lft.to/lastmile_qr_scan"}, "lon": -77.10396016666667, "bike_id": "b188bc6faa4cd3277469d6cd58dbd573", "type": "electric_bike", "name": "b188bc6faa4cd3277469d6cd58dbd573"}, {"is_disabled": 0, "is_reserved": 0, "fusion_lat": 0.0, "lat": 38.89644633333333, "fusion_lon": 0.0, "rental_uris": {"ios": "https://dc.lft.to/lastmile_qr_scan", "android": "https://dc.lft.to/lastmile_qr_scan"}, "lon": -77.0318975, "bike_id": "353b01aded91636ad6d1925b3940042b", "type": "electric_scooter", "name": "353b01aded91636ad6d1925b3940042b"}, {"is_disabled": 0, "is_reserved": 0, "fusion_lat": 0.0, "lat": 38.875636, "fusion_lon": 0.0, "rental_uris": {"ios": "https://dc.lft.to/lastmile_qr_scan", "android": "https://dc.lft.to/lastmile_qr_scan"}, "lon": -77.00593066666667, "bike_id": "007cd719dae366b079aa18e943d7cf2a", "type": "electric_scooter", "name": "007cd719dae366b079aa18e943d7cf2a"}, {"is_disabled": 0, "is_reserved": 0, "fusion_lat": 0.0, "lat": 38.941405, "fusion_lon": 0.0, "rental_uris": {"ios": "https://dc.lft.to/lastmile_qr_scan", "android": "https://dc.lft.to/lastmile_qr_scan"}, "lon": -77.02319566666667, "bike_id": "f1c4cd7ece097a069d78cbd053130d24", "type": "electric_scooter", "name": "f1c4cd7ece097a069d78cbd053130d24"}, {"is_disabled": 0, "is_reserved": 0, "fusion_lat": 0.0, "lat": 38.92752566666667, "fusion_lon": 0.0, "rental_uris": {"ios": "https://dc.lft.to/lastmile_qr_scan", "android": "https://dc.lft.to/lastmile_qr_scan"}, "lon": -77.029648, "bike_id": "a085d7275a65b5da98e8b6b01e73040f", "type": "electric_scooter", "name": "a085d7275a65b5da98e8b6b01e73040f"}, {"is_disabled": 0, "is_reserved": 0, "fusion_lat": 0.0, "lat": 38.89522316666667, "fusion_lon": 0.0, "rental_uris": {"ios": "https://dc.lft.to/lastmile_qr_scan", "android": "https://dc.lft.to/lastmile_qr_scan"}, "lon": -77.02266233333333, "bike_id": "547e398cbe72c9f8c2087b9931003d3e", "type": "electric_scooter", "name": "547e398cbe72c9f8c2087b9931003d3e"}, {"is_disabled": 0, "is_reserved": 0, "fusion_lat": 0.0, "lat": 38.9050305, "fusion_lon": 0.0, "rental_uris": {"ios": "https://dc.lft.to/lastmile_qr_scan", "android": "https://dc.lft.to/lastmile_qr_scan"}, "lon": -77.06567983333333, "bike_id": "bf8bfb1f1c99055eea20353867c9807f", "type": "electric_scooter", "name": "bf8bfb1f1c99055eea20353867c9807f"}, {"is_disabled": 0, "is_reserved": 0, "fusion_lat": 0.0, "lat": 38.9085185, "fusion_lon": 0.0, "rental_uris": {"ios": "https://dc.lft.to/lastmile_qr_scan", "android": "https://dc.lft.to/lastmile_qr_scan"}, "lon": -77.02182216666667, "bike_id": "7a5aba92e99d4402f629198f1b741ffa", "type": "electric_scooter", "name": "7a5aba92e99d4402f629198f1b741ffa"}, {"is_disabled": 0, "is_reserved": 0, "fusion_lat": 0.0, "lat": 38.9024535, "fusion_lon": 0.0, "rental_uris": {"ios": "https://dc.lft.to/lastmile_qr_scan", "android": "https://dc.lft.to/lastmile_qr_scan"}, "lon": -77.05196133333334, "bike_id": "cb7f3a7045fee247d13981fe5bb5c9ce", "type": "electric_scooter", "name": "cb7f3a7045fee247d13981fe5bb5c9ce"}, {"is_disabled": 0, "is_reserved": 0, "fusion_lat": 0.0, "lat": 38.95095283333333, "fusion_lon": 0.0, "rental_uris": {"ios": "https://dc.lft.to/lastmile_qr_scan", "android": "https://dc.lft.to/lastmile_qr_scan"}, "lon": -77.02959916666667, "bike_id": "b695f56e9b955d4fc8aa32d75270c53f", "type": "electric_scooter", "name": "b695f56e9b955d4fc8aa32d75270c53f"}, {"is_disabled": 0, "is_reserved": 0, "fusion_lat": 0.0, "lat": 38.89751, "fusion_lon": 0.0, "rental_uris": {"ios": "https://dc.lft.to/lastmile_qr_scan", "android": "https://dc.lft.to/lastmile_qr_scan"}, "lon": -77.05480583333333, "bike_id": "393705792133420f7d16d6a248888370", "type": "electric_scooter", "name": "393705792133420f7d16d6a248888370"}, {"is_disabled": 0, "is_reserved": 0, "fusion_lat": 0.0, "lat": 38.91678066666667, "fusion_lon": 0.0, "rental_uris": {"ios": "https://dc.lft.to/lastmile_qr_scan", "android": "https://dc.lft.to/lastmile_qr_scan"}, "lon": -77.03636516666667, "bike_id": "54e4101fc1cbebacbd0f59ccfa7a0384", "type": "electric_scooter", "name": "54e4101fc1cbebacbd0f59ccfa7a0384"}, {"is_disabled": 0, "is_reserved": 0, "fusion_lat": 0.0, "lat": 38.85937066666666, "fusion_lon": 0.0, "rental_uris": {"ios": "https://dc.lft.to/lastmile_qr_scan", "android": "https://dc.lft.to/lastmile_qr_scan"}, "lon": -76.98675983333334, "bike_id": "36455a0615604c058bc30ec4057b7cab", "type": "electric_scooter", "name": "36455a0615604c058bc30ec4057b7cab"}, {"is_disabled": 0, "is_reserved": 0, "fusion_lat": 0.0, "lat": 38.89685516666667, "fusion_lon": 0.0, "rental_uris": {"ios": "https://dc.lft.to/lastmile_qr_scan", "android": "https://dc.lft.to/lastmile_qr_scan"}, "lon": -76.9390795, "bike_id": "4e1dfb90061f29d9e247cd1d1503a307", "type": "electric_scooter", "name": "4e1dfb90061f29d9e247cd1d1503a307"}, {"is_disabled": 0, "is_reserved": 0, "fusion_lat": 0.0, "lat": 38.918091, "fusion_lon": 0.0, "rental_uris": {"ios": "https://dc.lft.to/lastmile_qr_scan", "android": "https://dc.lft.to/lastmile_qr_scan"}, "lon": -77.0371665, "bike_id": "63ed9be939bcc8905a752285687ad265", "type": "electric_scooter", "name": "63ed9be939bcc8905a752285687ad265"}, {"is_disabled": 0, "is_reserved": 0, "fusion_lat": 0.0, "lat": 38.91826116666667, "fusion_lon": 0.0, "rental_uris": {"ios": "https://dc.lft.to/lastmile_qr_scan", "android": "https://dc.lft.to/lastmile_qr_scan"}, "lon": -77.03904733333333, "bike_id": "a521cb6b67e1164286845d2e371bc593", "type": "electric_scooter", "name": "a521cb6b67e1164286845d2e371bc593"}, {"is_disabled": 0, "is_reserved": 0, "fusion_lat": 0.0, "lat": 38.93043183333333, "fusion_lon": 0.0, "rental_uris": {"ios": "https://dc.lft.to/lastmile_qr_scan", "android": "https://dc.lft.to/lastmile_qr_scan"}, "lon": -77.03603983333333, "bike_id": "a444e960512ca9e373ff93d988699a96", "type": "electric_scooter", "name": "a444e960512ca9e373ff93d988699a96"}, {"is_disabled": 0, "is_reserved": 0, "fusion_lat": 0.0, "lat": 38.9533235, "fusion_lon": 0.0, "rental_uris": {"ios": "https://dc.lft.to/lastmile_qr_scan", "android": "https://dc.lft.to/lastmile_qr_scan"}, "lon": -76.9825115, "bike_id": "2ac17a077071ecd0bbc046a3f93c69e6", "type": "electric_bike", "name": "2ac17a077071ecd0bbc046a3f93c69e6"}, {"is_disabled": 0, "is_reserved": 0, "fusion_lat": 0.0, "lat": 38.92101816666667, "fusion_lon": 0.0, "rental_uris": {"ios": "https://dc.lft.to/lastmile_qr_scan", "android": "https://dc.lft.to/lastmile_qr_scan"}, "lon": -77.04114566666667, "bike_id": "18582adbba640b6df781797207f41808", "type": "electric_scooter", "name": "18582adbba640b6df781797207f41808"}, {"is_disabled": 0, "is_reserved": 0, "fusion_lat": 0.0, "lat": 38.9180375, "fusion_lon": 0.0, "rental_uris": {"ios": "https://dc.lft.to/lastmile_qr_scan", "android": "https://dc.lft.to/lastmile_qr_scan"}, "lon": -77.03438583333333, "bike_id": "a734141f340f0eaab84dc57029b399ff", "type": "electric_scooter", "name": "a734141f340f0eaab84dc57029b399ff"}, {"is_disabled": 0, "is_reserved": 0, "fusion_lat": 0.0, "lat": 38.88768666666667, "fusion_lon": 0.0, "rental_uris": {"ios": "https://dc.lft.to/lastmile_qr_scan", "android": "https://dc.lft.to/lastmile_qr_scan"}, "lon": -77.0146605, "bike_id": "30fddc5cbd4311ac8ba631e0b7825553", "type": "electric_scooter", "name": "30fddc5cbd4311ac8ba631e0b7825553"}, {"is_disabled": 0, "is_reserved": 0, "fusion_lat": 0.0, "lat": 38.86888183333333, "fusion_lon": 0.0, "rental_uris": {"ios": "https://dc.lft.to/lastmile_qr_scan", "android": "https://dc.lft.to/lastmile_qr_scan"}, "lon": -76.990016, "bike_id": "fe648dd2b107426f9dd2d792337d2841", "type": "electric_scooter", "name": "fe648dd2b107426f9dd2d792337d2841"}, {"is_disabled": 0, "is_reserved": 0, "fusion_lat": 0.0, "lat": 38.886599833333335, "fusion_lon": 0.0, "rental_uris": {"ios": "https://dc.lft.to/lastmile_qr_scan", "android": "https://dc.lft.to/lastmile_qr_scan"}, "lon": -77.02830366666667, "bike_id": "9e92cdd3298bba6c9639d9a59ea112ef", "type": "electric_scooter", "name": "9e92cdd3298bba6c9639d9a59ea112ef"}, {"is_disabled": 0, "is_reserved": 0, "fusion_lat": 0.0, "lat": 38.89596483333333, "fusion_lon": 0.0, "rental_uris": {"ios": "https://dc.lft.to/lastmile_qr_scan", "android": "https://dc.lft.to/lastmile_qr_scan"}, "lon": -76.9831995, "bike_id": "d359fcb7897a101e14ecdf8cfd167753", "type": "electric_scooter", "name": "d359fcb7897a101e14ecdf8cfd167753"}, {"is_disabled": 0, "is_reserved": 0, "fusion_lat": 0.0, "lat": 38.904532333333336, "fusion_lon": 0.0, "rental_uris": {"ios": "https://dc.lft.to/lastmile_qr_scan", "android": "https://dc.lft.to/lastmile_qr_scan"}, "lon": -77.026919, "bike_id": "84faf6083c8ed2b597bb4fec3248f4c7", "type": "electric_scooter", "name": "84faf6083c8ed2b597bb4fec3248f4c7"}, {"is_disabled": 0, "is_reserved": 0, "fusion_lat": 0.0, "lat": 38.875642, "fusion_lon": 0.0, "rental_uris": {"ios": "https://dc.lft.to/lastmile_qr_scan", "android": "https://dc.lft.to/lastmile_qr_scan"}, "lon": -77.006038, "bike_id": "6c6f532c92bf4759fb4e8ee28c977dd2", "type": "electric_scooter", "name": "6c6f532c92bf4759fb4e8ee28c977dd2"}, {"is_disabled": 0, "is_reserved": 0, "fusion_lat": 0.0, "lat": 38.915712666666664, "fusion_lon": 0.0, "rental_uris": {"ios": "https://dc.lft.to/lastmile_qr_scan", "android": "https://dc.lft.to/lastmile_qr_scan"}, "lon": -77.05032866666667, "bike_id": "6af63353aa0fe6b6b7cfe0386df04191", "type": "electric_scooter", "name": "6af63353aa0fe6b6b7cfe0386df04191"}, {"is_disabled": 0, "is_reserved": 0, "fusion_lat": 0.0, "lat": 38.921107, "fusion_lon": 0.0, "rental_uris": {"ios": "https://dc.lft.to/lastmile_qr_scan", "android": "https://dc.lft.to/lastmile_qr_scan"}, "lon": -77.031714, "bike_id": "222c46121d7c0fea8b2f96171564be57", "type": "electric_scooter", "name": "222c46121d7c0fea8b2f96171564be57"}, {"is_disabled": 0, "is_reserved": 0, "fusion_lat": 0.0, "lat": 38.911198666666664, "fusion_lon": 0.0, "rental_uris": {"ios": "https://dc.lft.to/lastmile_qr_scan", "android": "https://dc.lft.to/lastmile_qr_scan"}, "lon": -77.0383345, "bike_id": "6965f88662c417754b7e005cbbad42bf", "type": "electric_scooter", "name": "6965f88662c417754b7e005cbbad42bf"}, {"is_disabled": 0, "is_reserved": 0, "fusion_lat": 0.0, "lat": 38.813356166666665, "fusion_lon": 0.0, "rental_uris": {"ios": "https://dc.lft.to/lastmile_qr_scan", "android": "https://dc.lft.to/lastmile_qr_scan"}, "lon": -77.05090066666666, "bike_id": "3c3d3135af55b89d38a1e59d8ec20e9a", "type": "electric_bike", "name": "3c3d3135af55b89d38a1e59d8ec20e9a"}, {"is_disabled": 0, "is_reserved": 0, "fusion_lat": 0.0, "lat": 38.84294466666667, "fusion_lon": 0.0, "rental_uris": {"ios": "https://dc.lft.to/lastmile_qr_scan", "android": "https://dc.lft.to/lastmile_qr_scan"}, "lon": -77.0638125, "bike_id": "d65765337e6e60842d367c03861daaa9", "type": "electric_bike", "name": "d65765337e6e60842d367c03861daaa9"}, {"is_disabled": 0, "is_reserved": 0, "fusion_lat": 0.0, "lat": 38.98720733333333, "fusion_lon": 0.0, "rental_uris": {"ios": "https://dc.lft.to/lastmile_qr_scan", "android": "https://dc.lft.to/lastmile_qr_scan"}, "lon": -77.03752616666667, "bike_id": "26b6a866de8d9778e07ea7c31d8082f4", "type": "electric_bike", "name": "26b6a866de8d9778e07ea7c31d8082f4"}, {"is_disabled": 0, "is_reserved": 0, "fusion_lat": 0.0, "lat": 38.8983955, "fusion_lon": 0.0, "rental_uris": {"ios": "https://dc.lft.to/lastmile_qr_scan", "android": "https://dc.lft.to/lastmile_qr_scan"}, "lon": -77.021774, "bike_id": "7cfe5233183138b7d54b5e4c7e4235f7", "type": "electric_scooter", "name": "7cfe5233183138b7d54b5e4c7e4235f7"}, {"is_disabled": 0, "is_reserved": 0, "fusion_lat": 0.0, "lat": 38.93411666666667, "fusion_lon": 0.0, "rental_uris": {"ios": "https://dc.lft.to/lastmile_qr_scan", "android": "https://dc.lft.to/lastmile_qr_scan"}, "lon": -77.0251905, "bike_id": "4ca443ec20e607f4563763b86f8987d6", "type": "electric_bike", "name": "4ca443ec20e607f4563763b86f8987d6"}, {"is_disabled": 0, "is_reserved": 0, "fusion_lat": 0.0, "lat": 38.88886633333333, "fusion_lon": 0.0, "rental_uris": {"ios": "https://dc.lft.to/lastmile_qr_scan", "android": "https://dc.lft.to/lastmile_qr_scan"}, "lon": -77.03320833333333, "bike_id": "1c40ef150e7737e126b5e5f144afc007", "type": "electric_scooter", "name": "1c40ef150e7737e126b5e5f144afc007"}, {"is_disabled": 0, "is_reserved": 0, "fusion_lat": 0.0, "lat": 38.881284, "fusion_lon": 0.0, "rental_uris": {"ios": "https://dc.lft.to/lastmile_qr_scan", "android": "https://dc.lft.to/lastmile_qr_scan"}, "lon": -77.0271025, "bike_id": "ab328697d35446fb94df0ed39d903a77", "type": "electric_scooter", "name": "ab328697d35446fb94df0ed39d903a77"}, {"is_disabled": 0, "is_reserved": 0, "fusion_lat": 0.0, "lat": 38.975992, "fusion_lon": 0.0, "rental_uris": {"ios": "https://dc.lft.to/lastmile_qr_scan", "android": "https://dc.lft.to/lastmile_qr_scan"}, "lon": -77.0186995, "bike_id": "d1cb21aeb16406989c539f4fa6394bdb", "type": "electric_scooter", "name": "d1cb21aeb16406989c539f4fa6394bdb"}, {"is_disabled": 0, "is_reserved": 0, "fusion_lat": 0.0, "lat": 38.895420333333334, "fusion_lon": 0.0, "rental_uris": {"ios": "https://dc.lft.to/lastmile_qr_scan", "android": "https://dc.lft.to/lastmile_qr_scan"}, "lon": -76.98374183333334, "bike_id": "2ef40f9df75821161b00a7e9f6201bea", "type": "electric_scooter", "name": "2ef40f9df75821161b00a7e9f6201bea"}, {"is_disabled": 0, "is_reserved": 0, "fusion_lat": 0.0, "lat": 38.909302833333335, "fusion_lon": 0.0, "rental_uris": {"ios": "https://dc.lft.to/lastmile_qr_scan", "android": "https://dc.lft.to/lastmile_qr_scan"}, "lon": -77.02500566666667, "bike_id": "79b3f121618b07f1df4d8a92c39d298e", "type": "electric_scooter", "name": "79b3f121618b07f1df4d8a92c39d298e"}, {"is_disabled": 0, "is_reserved": 0, "fusion_lat": 0.0, "lat": 38.95698683333333, "fusion_lon": 0.0, "rental_uris": {"ios": "https://dc.lft.to/lastmile_qr_scan", "android": "https://dc.lft.to/lastmile_qr_scan"}, "lon": -77.0222485, "bike_id": "80704eb005895c8cc5e83b51cdc95a50", "type": "electric_bike", "name": "80704eb005895c8cc5e83b51cdc95a50"}, {"is_disabled": 0, "is_reserved": 0, "fusion_lat": 0.0, "lat": 38.89223766666667, "fusion_lon": 0.0, "rental_uris": {"ios": "https://dc.lft.to/lastmile_qr_scan", "android": "https://dc.lft.to/lastmile_qr_scan"}, "lon": -77.0332925, "bike_id": "f9d8bb4eadc1cecba450b66671c400e0", "type": "electric_scooter", "name": "f9d8bb4eadc1cecba450b66671c400e0"}, {"is_disabled": 0, "is_reserved": 0, "fusion_lat": 0.0, "lat": 38.9573005, "fusion_lon": 0.0, "rental_uris": {"ios": "https://dc.lft.to/lastmile_qr_scan", "android": "https://dc.lft.to/lastmile_qr_scan"}, "lon": -77.02397816666667, "bike_id": "ca20f035b65ea9d5a8a3cd46a0648d91", "type": "electric_scooter", "name": "ca20f035b65ea9d5a8a3cd46a0648d91"}, {"is_disabled": 0, "is_reserved": 0, "fusion_lat": 0.0, "lat": 38.9073425, "fusion_lon": 0.0, "rental_uris": {"ios": "https://dc.lft.to/lastmile_qr_scan", "android": "https://dc.lft.to/lastmile_qr_scan"}, "lon": -77.028015, "bike_id": "242740c0f7a2b3d1e488bef8a2f227b1", "type": "electric_scooter", "name": "242740c0f7a2b3d1e488bef8a2f227b1"}, {"is_disabled": 0, "is_reserved": 0, "fusion_lat": 0.0, "lat": 38.9496695, "fusion_lon": 0.0, "rental_uris": {"ios": "https://dc.lft.to/lastmile_qr_scan", "android": "https://dc.lft.to/lastmile_qr_scan"}, "lon": -77.06748666666667, "bike_id": "b5a212ace604fe22ecceba34cad51c15", "type": "electric_scooter", "name": "b5a212ace604fe22ecceba34cad51c15"}, {"is_disabled": 0, "is_reserved": 0, "fusion_lat": 0.0, "lat": 38.827756, "fusion_lon": 0.0, "rental_uris": {"ios": "https://dc.lft.to/lastmile_qr_scan", "android": "https://dc.lft.to/lastmile_qr_scan"}, "lon": -77.0601255, "bike_id": "95508bc3bc115b9256d88851aa0883cd", "type": "electric_bike", "name": "95508bc3bc115b9256d88851aa0883cd"}, {"is_disabled": 0, "is_reserved": 0, "fusion_lat": 0.0, "lat": 38.917128, "fusion_lon": 0.0, "rental_uris": {"ios": "https://dc.lft.to/lastmile_qr_scan", "android": "https://dc.lft.to/lastmile_qr_scan"}, "lon": -77.03851816666666, "bike_id": "bed171f3a419db18336a8f392e207748", "type": "electric_scooter", "name": "bed171f3a419db18336a8f392e207748"}, {"is_disabled": 0, "is_reserved": 0, "fusion_lat": 0.0, "lat": 38.951683833333334, "fusion_lon": 0.0, "rental_uris": {"ios": "https://dc.lft.to/lastmile_qr_scan", "android": "https://dc.lft.to/lastmile_qr_scan"}, "lon": -77.0184515, "bike_id": "2bd6103e7c1b89cd60b825b824fe714b", "type": "electric_scooter", "name": "2bd6103e7c1b89cd60b825b824fe714b"}, {"is_disabled": 0, "is_reserved": 0, "fusion_lat": 0.0, "lat": 38.90713233333334, "fusion_lon": 0.0, "rental_uris": {"ios": "https://dc.lft.to/lastmile_qr_scan", "android": "https://dc.lft.to/lastmile_qr_scan"}, "lon": -77.032065, "bike_id": "dfaeaaec6ae8600eb89f9dff696c5791", "type": "electric_scooter", "name": "dfaeaaec6ae8600eb89f9dff696c5791"}, {"is_disabled": 0, "is_reserved": 0, "fusion_lat": 0.0, "lat": 38.922363833333335, "fusion_lon": 0.0, "rental_uris": {"ios": "https://dc.lft.to/lastmile_qr_scan", "android": "https://dc.lft.to/lastmile_qr_scan"}, "lon": -77.03518733333334, "bike_id": "1a6f48e4e7e9659c66e7675cb02354cd", "type": "electric_scooter", "name": "1a6f48e4e7e9659c66e7675cb02354cd"}, {"is_disabled": 0, "is_reserved": 0, "fusion_lat": 0.0, "lat": 38.957353499999996, "fusion_lon": 0.0, "rental_uris": {"ios": "https://dc.lft.to/lastmile_qr_scan", "android": "https://dc.lft.to/lastmile_qr_scan"}, "lon": -77.0240455, "bike_id": "ce78edb4bb4b427889524451fb897e62", "type": "electric_scooter", "name": "ce78edb4bb4b427889524451fb897e62"}, {"is_disabled": 0, "is_reserved": 0, "fusion_lat": 0.0, "lat": 38.862148166666664, "fusion_lon": 0.0, "rental_uris": {"ios": "https://dc.lft.to/lastmile_qr_scan", "android": "https://dc.lft.to/lastmile_qr_scan"}, "lon": -76.99479266666667, "bike_id": "41a45e6ad23dfa111d5d1e5f19acd087", "type": "electric_scooter", "name": "41a45e6ad23dfa111d5d1e5f19acd087"}, {"is_disabled": 0, "is_reserved": 0, "fusion_lat": 0.0, "lat": 38.925669166666665, "fusion_lon": 0.0, "rental_uris": {"ios": "https://dc.lft.to/lastmile_qr_scan", "android": "https://dc.lft.to/lastmile_qr_scan"}, "lon": -77.0228305, "bike_id": "b2e92402fbf266ee2b62f6f8acf929db", "type": "electric_scooter", "name": "b2e92402fbf266ee2b62f6f8acf929db"}, {"is_disabled": 0, "is_reserved": 0, "fusion_lat": 0.0, "lat": 38.91257433333333, "fusion_lon": 0.0, "rental_uris": {"ios": "https://dc.lft.to/lastmile_qr_scan", "android": "https://dc.lft.to/lastmile_qr_scan"}, "lon": -77.019051, "bike_id": "effd961befbe872a558427a1a6c3c512", "type": "electric_scooter", "name": "effd961befbe872a558427a1a6c3c512"}, {"is_disabled": 0, "is_reserved": 0, "fusion_lat": 0.0, "lat": 38.92061566666667, "fusion_lon": 0.0, "rental_uris": {"ios": "https://dc.lft.to/lastmile_qr_scan", "android": "https://dc.lft.to/lastmile_qr_scan"}, "lon": -77.02842733333334, "bike_id": "646b7ba176d7b9a190a38c864685a521", "type": "electric_scooter", "name": "646b7ba176d7b9a190a38c864685a521"}, {"is_disabled": 0, "is_reserved": 0, "fusion_lat": 0.0, "lat": 38.9215935, "fusion_lon": 0.0, "rental_uris": {"ios": "https://dc.lft.to/lastmile_qr_scan", "android": "https://dc.lft.to/lastmile_qr_scan"}, "lon": -77.03876616666666, "bike_id": "17605987a1bd5f26a746c02c4f44fe88", "type": "electric_scooter", "name": "17605987a1bd5f26a746c02c4f44fe88"}, {"is_disabled": 0, "is_reserved": 0, "fusion_lat": 0.0, "lat": 38.91267466666667, "fusion_lon": 0.0, "rental_uris": {"ios": "https://dc.lft.to/lastmile_qr_scan", "android": "https://dc.lft.to/lastmile_qr_scan"}, "lon": -77.04869266666667, "bike_id": "571d47c1460ff5ea59bae342b478985e", "type": "electric_scooter", "name": "571d47c1460ff5ea59bae342b478985e"}, {"is_disabled": 0, "is_reserved": 0, "fusion_lat": 0.0, "lat": 38.8923315, "fusion_lon": 0.0, "rental_uris": {"ios": "https://dc.lft.to/lastmile_qr_scan", "android": "https://dc.lft.to/lastmile_qr_scan"}, "lon": -77.04356216666666, "bike_id": "a56fc162dcf9fc7ac4f630cacdb55df4", "type": "electric_scooter", "name": "a56fc162dcf9fc7ac4f630cacdb55df4"}, {"is_disabled": 0, "is_reserved": 0, "fusion_lat": 0.0, "lat": 38.902673166666666, "fusion_lon": 0.0, "rental_uris": {"ios": "https://dc.lft.to/lastmile_qr_scan", "android": "https://dc.lft.to/lastmile_qr_scan"}, "lon": -77.01759766666666, "bike_id": "b77902a6a4925aa715ffa4aaae3769c9", "type": "electric_scooter", "name": "b77902a6a4925aa715ffa4aaae3769c9"}, {"is_disabled": 0, "is_reserved": 0, "fusion_lat": 0.0, "lat": 38.910589, "fusion_lon": 0.0, "rental_uris": {"ios": "https://dc.lft.to/lastmile_qr_scan", "android": "https://dc.lft.to/lastmile_qr_scan"}, "lon": -77.0296075, "bike_id": "8de537f52adf489e542a916b95de457e", "type": "electric_scooter", "name": "8de537f52adf489e542a916b95de457e"}, {"is_disabled": 0, "is_reserved": 0, "fusion_lat": 0.0, "lat": 38.9099465, "fusion_lon": 0.0, "rental_uris": {"ios": "https://dc.lft.to/lastmile_qr_scan", "android": "https://dc.lft.to/lastmile_qr_scan"}, "lon": -77.03195816666667, "bike_id": "ff0a4b2ad6ce5c04150973c3d936f00b", "type": "electric_scooter", "name": "ff0a4b2ad6ce5c04150973c3d936f00b"}, {"is_disabled": 0, "is_reserved": 0, "fusion_lat": 0.0, "lat": 38.905524666666665, "fusion_lon": 0.0, "rental_uris": {"ios": "https://dc.lft.to/lastmile_qr_scan", "android": "https://dc.lft.to/lastmile_qr_scan"}, "lon": -77.00700816666667, "bike_id": "55c860900179a629092b9dddd5507292", "type": "electric_scooter", "name": "55c860900179a629092b9dddd5507292"}, {"is_disabled": 0, "is_reserved": 0, "fusion_lat": 0.0, "lat": 38.95650583333333, "fusion_lon": 0.0, "rental_uris": {"ios": "https://dc.lft.to/lastmile_qr_scan", "android": "https://dc.lft.to/lastmile_qr_scan"}, "lon": -77.01961166666666, "bike_id": "e56691b7a95174df8c5d2d8021810aa3", "type": "electric_scooter", "name": "e56691b7a95174df8c5d2d8021810aa3"}, {"is_disabled": 0, "is_reserved": 0, "fusion_lat": 0.0, "lat": 38.910293333333335, "fusion_lon": 0.0, "rental_uris": {"ios": "https://dc.lft.to/lastmile_qr_scan", "android": "https://dc.lft.to/lastmile_qr_scan"}, "lon": -77.00962133333333, "bike_id": "7c5aead1b4ed229ded57ba8c3951883b", "type": "electric_scooter", "name": "7c5aead1b4ed229ded57ba8c3951883b"}, {"is_disabled": 0, "is_reserved": 0, "fusion_lat": 0.0, "lat": 38.892376666666664, "fusion_lon": 0.0, "rental_uris": {"ios": "https://dc.lft.to/lastmile_qr_scan", "android": "https://dc.lft.to/lastmile_qr_scan"}, "lon": -77.04872566666667, "bike_id": "5cabd019eca42ffe74f4b5ad1689fae9", "type": "electric_scooter", "name": "5cabd019eca42ffe74f4b5ad1689fae9"}, {"is_disabled": 0, "is_reserved": 0, "fusion_lat": 0.0, "lat": 38.902687666666665, "fusion_lon": 0.0, "rental_uris": {"ios": "https://dc.lft.to/lastmile_qr_scan", "android": "https://dc.lft.to/lastmile_qr_scan"}, "lon": -77.0517575, "bike_id": "dcaf4cc11e5f6c1a58062a6011c8b216", "type": "electric_scooter", "name": "dcaf4cc11e5f6c1a58062a6011c8b216"}, {"is_disabled": 0, "is_reserved": 0, "fusion_lat": 0.0, "lat": 38.901944, "fusion_lon": 0.0, "rental_uris": {"ios": "https://dc.lft.to/lastmile_qr_scan", "android": "https://dc.lft.to/lastmile_qr_scan"}, "lon": -77.050962, "bike_id": "daf31873df558c4fb3664dbda48e1291", "type": "electric_scooter", "name": "daf31873df558c4fb3664dbda48e1291"}, {"is_disabled": 0, "is_reserved": 0, "fusion_lat": 0.0, "lat": 38.9135555, "fusion_lon": 0.0, "rental_uris": {"ios": "https://dc.lft.to/lastmile_qr_scan", "android": "https://dc.lft.to/lastmile_qr_scan"}, "lon": -77.03204533333333, "bike_id": "47a5694c93a5c89bfdd8fa31675b1c0f", "type": "electric_scooter", "name": "47a5694c93a5c89bfdd8fa31675b1c0f"}, {"is_disabled": 0, "is_reserved": 0, "fusion_lat": 0.0, "lat": 38.9087465, "fusion_lon": 0.0, "rental_uris": {"ios": "https://dc.lft.to/lastmile_qr_scan", "android": "https://dc.lft.to/lastmile_qr_scan"}, "lon": -77.08590766666667, "bike_id": "a23201cf4893e0956cb383e8ecbf5842", "type": "electric_scooter", "name": "a23201cf4893e0956cb383e8ecbf5842"}, {"is_disabled": 0, "is_reserved": 0, "fusion_lat": 0.0, "lat": 38.929716166666665, "fusion_lon": 0.0, "rental_uris": {"ios": "https://dc.lft.to/lastmile_qr_scan", "android": "https://dc.lft.to/lastmile_qr_scan"}, "lon": -77.04196416666667, "bike_id": "e82db3e7267401e22c2875fd0ee7fbdf", "type": "electric_scooter", "name": "e82db3e7267401e22c2875fd0ee7fbdf"}, {"is_disabled": 0, "is_reserved": 0, "fusion_lat": 0.0, "lat": 38.94722483333334, "fusion_lon": 0.0, "rental_uris": {"ios": "https://dc.lft.to/lastmile_qr_scan", "android": "https://dc.lft.to/lastmile_qr_scan"}, "lon": -77.02353683333334, "bike_id": "c9cee99dfb6a19a0f0a3f779e0d933e9", "type": "electric_scooter", "name": "c9cee99dfb6a19a0f0a3f779e0d933e9"}, {"is_disabled": 0, "is_reserved": 0, "fusion_lat": 0.0, "lat": 38.917830333333335, "fusion_lon": 0.0, "rental_uris": {"ios": "https://dc.lft.to/lastmile_qr_scan", "android": "https://dc.lft.to/lastmile_qr_scan"}, "lon": -77.02462316666667, "bike_id": "cdebb9a1f43278f09387609147233cfa", "type": "electric_scooter", "name": "cdebb9a1f43278f09387609147233cfa"}, {"is_disabled": 0, "is_reserved": 0, "fusion_lat": 0.0, "lat": 38.89577, "fusion_lon": 0.0, "rental_uris": {"ios": "https://dc.lft.to/lastmile_qr_scan", "android": "https://dc.lft.to/lastmile_qr_scan"}, "lon": -77.02508433333334, "bike_id": "58ba6510eec823b1fe754aecdc8cb86e", "type": "electric_scooter", "name": "58ba6510eec823b1fe754aecdc8cb86e"}, {"is_disabled": 0, "is_reserved": 0, "fusion_lat": 0.0, "lat": 38.908593833333335, "fusion_lon": 0.0, "rental_uris": {"ios": "https://dc.lft.to/lastmile_qr_scan", "android": "https://dc.lft.to/lastmile_qr_scan"}, "lon": -77.0482155, "bike_id": "de560e837f1590c6432cf908b91f86b0", "type": "electric_scooter", "name": "de560e837f1590c6432cf908b91f86b0"}, {"is_disabled": 0, "is_reserved": 0, "fusion_lat": 0.0, "lat": 38.920866333333336, "fusion_lon": 0.0, "rental_uris": {"ios": "https://dc.lft.to/lastmile_qr_scan", "android": "https://dc.lft.to/lastmile_qr_scan"}, "lon": -77.02252733333333, "bike_id": "d927cf8f6b32ffe4776d98b22ba3c21e", "type": "electric_scooter", "name": "d927cf8f6b32ffe4776d98b22ba3c21e"}, {"is_disabled": 0, "is_reserved": 0, "fusion_lat": 0.0, "lat": 38.909686, "fusion_lon": 0.0, "rental_uris": {"ios": "https://dc.lft.to/lastmile_qr_scan", "android": "https://dc.lft.to/lastmile_qr_scan"}, "lon": -77.017191, "bike_id": "2b3f19acc5800376f4e2ce8ef0f27bff", "type": "electric_scooter", "name": "2b3f19acc5800376f4e2ce8ef0f27bff"}, {"is_disabled": 0, "is_reserved": 0, "fusion_lat": 0.0, "lat": 38.87674033333333, "fusion_lon": 0.0, "rental_uris": {"ios": "https://dc.lft.to/lastmile_qr_scan", "android": "https://dc.lft.to/lastmile_qr_scan"}, "lon": -77.01759433333334, "bike_id": "4937fef1739370edcb21b13d81d8a76e", "type": "electric_scooter", "name": "4937fef1739370edcb21b13d81d8a76e"}, {"is_disabled": 0, "is_reserved": 0, "fusion_lat": 0.0, "lat": 38.920989166666665, "fusion_lon": 0.0, "rental_uris": {"ios": "https://dc.lft.to/lastmile_qr_scan", "android": "https://dc.lft.to/lastmile_qr_scan"}, "lon": -77.0416435, "bike_id": "c4487e0947775d0c9d73b342b7897e03", "type": "electric_scooter", "name": "c4487e0947775d0c9d73b342b7897e03"}, {"is_disabled": 0, "is_reserved": 0, "fusion_lat": 0.0, "lat": 38.89393316666666, "fusion_lon": 0.0, "rental_uris": {"ios": "https://dc.lft.to/lastmile_qr_scan", "android": "https://dc.lft.to/lastmile_qr_scan"}, "lon": -77.04651566666666, "bike_id": "4819b246e2d79dc71945d88dbc38c779", "type": "electric_scooter", "name": "4819b246e2d79dc71945d88dbc38c779"}, {"is_disabled": 0, "is_reserved": 0, "fusion_lat": 0.0, "lat": 38.905220166666666, "fusion_lon": 0.0, "rental_uris": {"ios": "https://dc.lft.to/lastmile_qr_scan", "android": "https://dc.lft.to/lastmile_qr_scan"}, "lon": -77.02949933333333, "bike_id": "316e5992a9401cf439e4bc2fba257887", "type": "electric_scooter", "name": "316e5992a9401cf439e4bc2fba257887"}, {"is_disabled": 0, "is_reserved": 0, "fusion_lat": 0.0, "lat": 38.912301166666666, "fusion_lon": 0.0, "rental_uris": {"ios": "https://dc.lft.to/lastmile_qr_scan", "android": "https://dc.lft.to/lastmile_qr_scan"}, "lon": -77.03192916666667, "bike_id": "c39aa9ea702b61c69d95903b400bbcee", "type": "electric_scooter", "name": "c39aa9ea702b61c69d95903b400bbcee"}, {"is_disabled": 0, "is_reserved": 0, "fusion_lat": 0.0, "lat": 38.914176, "fusion_lon": 0.0, "rental_uris": {"ios": "https://dc.lft.to/lastmile_qr_scan", "android": "https://dc.lft.to/lastmile_qr_scan"}, "lon": -77.0199645, "bike_id": "d2458baa82c6dad2d3bf42a871a41619", "type": "electric_bike", "name": "d2458baa82c6dad2d3bf42a871a41619"}, {"is_disabled": 0, "is_reserved": 0, "fusion_lat": 0.0, "lat": 38.916825, "fusion_lon": 0.0, "rental_uris": {"ios": "https://dc.lft.to/lastmile_qr_scan", "android": "https://dc.lft.to/lastmile_qr_scan"}, "lon": -77.03732733333334, "bike_id": "3868fd786930cece09299d14bf649dad", "type": "electric_scooter", "name": "3868fd786930cece09299d14bf649dad"}, {"is_disabled": 0, "is_reserved": 0, "fusion_lat": 0.0, "lat": 38.9105455, "fusion_lon": 0.0, "rental_uris": {"ios": "https://dc.lft.to/lastmile_qr_scan", "android": "https://dc.lft.to/lastmile_qr_scan"}, "lon": -77.02296866666667, "bike_id": "22f1144a93949f9376a03bc31c46e7e2", "type": "electric_scooter", "name": "22f1144a93949f9376a03bc31c46e7e2"}, {"is_disabled": 0, "is_reserved": 0, "fusion_lat": 0.0, "lat": 38.87634416666667, "fusion_lon": 0.0, "rental_uris": {"ios": "https://dc.lft.to/lastmile_qr_scan", "android": "https://dc.lft.to/lastmile_qr_scan"}, "lon": -77.009515, "bike_id": "c7b3949c459dfa6dcdd189347510faf0", "type": "electric_scooter", "name": "c7b3949c459dfa6dcdd189347510faf0"}, {"is_disabled": 0, "is_reserved": 0, "fusion_lat": 0.0, "lat": 38.864875, "fusion_lon": 0.0, "rental_uris": {"ios": "https://dc.lft.to/lastmile_qr_scan", "android": "https://dc.lft.to/lastmile_qr_scan"}, "lon": -76.97743966666667, "bike_id": "a854310ad918a91d7b87d97b96a9e9f7", "type": "electric_bike", "name": "a854310ad918a91d7b87d97b96a9e9f7"}, {"is_disabled": 0, "is_reserved": 0, "fusion_lat": 0.0, "lat": 38.89895933333333, "fusion_lon": 0.0, "rental_uris": {"ios": "https://dc.lft.to/lastmile_qr_scan", "android": "https://dc.lft.to/lastmile_qr_scan"}, "lon": -77.032104, "bike_id": "9f5c6c256d944c8e550c1e516eca3d81", "type": "electric_scooter", "name": "9f5c6c256d944c8e550c1e516eca3d81"}, {"is_disabled": 0, "is_reserved": 0, "fusion_lat": 0.0, "lat": 38.90624, "fusion_lon": 0.0, "rental_uris": {"ios": "https://dc.lft.to/lastmile_qr_scan", "android": "https://dc.lft.to/lastmile_qr_scan"}, "lon": -76.9866445, "bike_id": "d4d4f5e3bb95edea9e866c88ba617421", "type": "electric_scooter", "name": "d4d4f5e3bb95edea9e866c88ba617421"}, {"is_disabled": 0, "is_reserved": 0, "fusion_lat": 0.0, "lat": 38.871618166666664, "fusion_lon": 0.0, "rental_uris": {"ios": "https://dc.lft.to/lastmile_qr_scan", "android": "https://dc.lft.to/lastmile_qr_scan"}, "lon": -77.0135785, "bike_id": "08a7f3ba379521f8fb17defa36ed5542", "type": "electric_scooter", "name": "08a7f3ba379521f8fb17defa36ed5542"}, {"is_disabled": 0, "is_reserved": 0, "fusion_lat": 0.0, "lat": 38.884065166666666, "fusion_lon": 0.0, "rental_uris": {"ios": "https://dc.lft.to/lastmile_qr_scan", "android": "https://dc.lft.to/lastmile_qr_scan"}, "lon": -77.02914516666667, "bike_id": "7cc89cf08beaf9ef45d9f88bf79e9477", "type": "electric_scooter", "name": "7cc89cf08beaf9ef45d9f88bf79e9477"}, {"is_disabled": 0, "is_reserved": 0, "fusion_lat": 0.0, "lat": 38.92357533333333, "fusion_lon": 0.0, "rental_uris": {"ios": "https://dc.lft.to/lastmile_qr_scan", "android": "https://dc.lft.to/lastmile_qr_scan"}, "lon": -77.03367, "bike_id": "25c0144930970038fbf77d86837419aa", "type": "electric_scooter", "name": "25c0144930970038fbf77d86837419aa"}, {"is_disabled": 0, "is_reserved": 0, "fusion_lat": 0.0, "lat": 38.91415533333333, "fusion_lon": 0.0, "rental_uris": {"ios": "https://dc.lft.to/lastmile_qr_scan", "android": "https://dc.lft.to/lastmile_qr_scan"}, "lon": -77.02209216666667, "bike_id": "259b71a78edf56a3cd75bca85485653a", "type": "electric_scooter", "name": "259b71a78edf56a3cd75bca85485653a"}, {"is_disabled": 0, "is_reserved": 0, "fusion_lat": 0.0, "lat": 38.91916533333333, "fusion_lon": 0.0, "rental_uris": {"ios": "https://dc.lft.to/lastmile_qr_scan", "android": "https://dc.lft.to/lastmile_qr_scan"}, "lon": -77.04636016666667, "bike_id": "5a251e51baa141e1bd777f673af36214", "type": "electric_scooter", "name": "5a251e51baa141e1bd777f673af36214"}, {"is_disabled": 0, "is_reserved": 0, "fusion_lat": 0.0, "lat": 38.9172735, "fusion_lon": 0.0, "rental_uris": {"ios": "https://dc.lft.to/lastmile_qr_scan", "android": "https://dc.lft.to/lastmile_qr_scan"}, "lon": -77.03327583333333, "bike_id": "5920cdfeb1ba15ff9c32febd42ea0ab2", "type": "electric_scooter", "name": "5920cdfeb1ba15ff9c32febd42ea0ab2"}, {"is_disabled": 0, "is_reserved": 0, "fusion_lat": 0.0, "lat": 38.92346333333333, "fusion_lon": 0.0, "rental_uris": {"ios": "https://dc.lft.to/lastmile_qr_scan", "android": "https://dc.lft.to/lastmile_qr_scan"}, "lon": -77.03520783333333, "bike_id": "3d93fa14392db1bb94b4c315687087b9", "type": "electric_scooter", "name": "3d93fa14392db1bb94b4c315687087b9"}, {"is_disabled": 0, "is_reserved": 0, "fusion_lat": 0.0, "lat": 38.925261, "fusion_lon": 0.0, "rental_uris": {"ios": "https://dc.lft.to/lastmile_qr_scan", "android": "https://dc.lft.to/lastmile_qr_scan"}, "lon": -77.03847116666667, "bike_id": "6f5cbf6d9043ce753a67b095556f7385", "type": "electric_scooter", "name": "6f5cbf6d9043ce753a67b095556f7385"}, {"is_disabled": 0, "is_reserved": 0, "fusion_lat": 0.0, "lat": 38.937454333333335, "fusion_lon": 0.0, "rental_uris": {"ios": "https://dc.lft.to/lastmile_qr_scan", "android": "https://dc.lft.to/lastmile_qr_scan"}, "lon": -77.024274, "bike_id": "0948b45b0761182de3ecb7bc44a3860b", "type": "electric_scooter", "name": "0948b45b0761182de3ecb7bc44a3860b"}, {"is_disabled": 0, "is_reserved": 0, "fusion_lat": 0.0, "lat": 38.97477283333333, "fusion_lon": 0.0, "rental_uris": {"ios": "https://dc.lft.to/lastmile_qr_scan", "android": "https://dc.lft.to/lastmile_qr_scan"}, "lon": -77.01489616666667, "bike_id": "04bba060a1f13736c2e71573b7ff3543", "type": "electric_scooter", "name": "04bba060a1f13736c2e71573b7ff3543"}, {"is_disabled": 0, "is_reserved": 0, "fusion_lat": 0.0, "lat": 38.9162345, "fusion_lon": 0.0, "rental_uris": {"ios": "https://dc.lft.to/lastmile_qr_scan", "android": "https://dc.lft.to/lastmile_qr_scan"}, "lon": -77.05043333333333, "bike_id": "838855196d536e01cb1cd74e627d9e69", "type": "electric_scooter", "name": "838855196d536e01cb1cd74e627d9e69"}, {"is_disabled": 0, "is_reserved": 0, "fusion_lat": 0.0, "lat": 38.932081, "fusion_lon": 0.0, "rental_uris": {"ios": "https://dc.lft.to/lastmile_qr_scan", "android": "https://dc.lft.to/lastmile_qr_scan"}, "lon": -76.996982, "bike_id": "fdce0a8afc62b4f180fa0587bb7b513f", "type": "electric_scooter", "name": "fdce0a8afc62b4f180fa0587bb7b513f"}, {"is_disabled": 0, "is_reserved": 0, "fusion_lat": 0.0, "lat": 38.87374366666667, "fusion_lon": 0.0, "rental_uris": {"ios": "https://dc.lft.to/lastmile_qr_scan", "android": "https://dc.lft.to/lastmile_qr_scan"}, "lon": -77.00093866666667, "bike_id": "3bea7035cfb299b55d1e66d0360b396e", "type": "electric_scooter", "name": "3bea7035cfb299b55d1e66d0360b396e"}, {"is_disabled": 0, "is_reserved": 0, "fusion_lat": 0.0, "lat": 38.90680833333333, "fusion_lon": 0.0, "rental_uris": {"ios": "https://dc.lft.to/lastmile_qr_scan", "android": "https://dc.lft.to/lastmile_qr_scan"}, "lon": -77.02707166666667, "bike_id": "08c134257a901f9ea620fc869e472913", "type": "electric_scooter", "name": "08c134257a901f9ea620fc869e472913"}, {"is_disabled": 0, "is_reserved": 0, "fusion_lat": 0.0, "lat": 38.8948245, "fusion_lon": 0.0, "rental_uris": {"ios": "https://dc.lft.to/lastmile_qr_scan", "android": "https://dc.lft.to/lastmile_qr_scan"}, "lon": -76.97878516666667, "bike_id": "099e4695f8dd12b2c5f5f31d185356c7", "type": "electric_scooter", "name": "099e4695f8dd12b2c5f5f31d185356c7"}, {"is_disabled": 0, "is_reserved": 0, "fusion_lat": 0.0, "lat": 38.9056155, "fusion_lon": 0.0, "rental_uris": {"ios": "https://dc.lft.to/lastmile_qr_scan", "android": "https://dc.lft.to/lastmile_qr_scan"}, "lon": -77.004476, "bike_id": "94dbf7fa637d97d5295694e7d2c9fa99", "type": "electric_scooter", "name": "94dbf7fa637d97d5295694e7d2c9fa99"}, {"is_disabled": 0, "is_reserved": 0, "fusion_lat": 0.0, "lat": 38.9170905, "fusion_lon": 0.0, "rental_uris": {"ios": "https://dc.lft.to/lastmile_qr_scan", "android": "https://dc.lft.to/lastmile_qr_scan"}, "lon": -77.04123633333333, "bike_id": "1691de5b22fcf57be46648ccce14064e", "type": "electric_scooter", "name": "1691de5b22fcf57be46648ccce14064e"}, {"is_disabled": 0, "is_reserved": 0, "fusion_lat": 0.0, "lat": 38.93153916666667, "fusion_lon": 0.0, "rental_uris": {"ios": "https://dc.lft.to/lastmile_qr_scan", "android": "https://dc.lft.to/lastmile_qr_scan"}, "lon": -77.02364583333333, "bike_id": "f44e5bf9d7fea0eca4d361dd7c44fa4d", "type": "electric_scooter", "name": "f44e5bf9d7fea0eca4d361dd7c44fa4d"}, {"is_disabled": 0, "is_reserved": 0, "fusion_lat": 0.0, "lat": 38.87702183333333, "fusion_lon": 0.0, "rental_uris": {"ios": "https://dc.lft.to/lastmile_qr_scan", "android": "https://dc.lft.to/lastmile_qr_scan"}, "lon": -77.0066325, "bike_id": "a9d94049fbf8209948bc68c1723b073e", "type": "electric_scooter", "name": "a9d94049fbf8209948bc68c1723b073e"}, {"is_disabled": 0, "is_reserved": 0, "fusion_lat": 0.0, "lat": 38.934544, "fusion_lon": 0.0, "rental_uris": {"ios": "https://dc.lft.to/lastmile_qr_scan", "android": "https://dc.lft.to/lastmile_qr_scan"}, "lon": -77.02978283333333, "bike_id": "2966f7775b310ab0c63730c51e9246bc", "type": "electric_scooter", "name": "2966f7775b310ab0c63730c51e9246bc"}, {"is_disabled": 0, "is_reserved": 0, "fusion_lat": 0.0, "lat": 38.91706083333333, "fusion_lon": 0.0, "rental_uris": {"ios": "https://dc.lft.to/lastmile_qr_scan", "android": "https://dc.lft.to/lastmile_qr_scan"}, "lon": -77.03470533333333, "bike_id": "693b831e117b02fc202a4b62b55d6480", "type": "electric_scooter", "name": "693b831e117b02fc202a4b62b55d6480"}, {"is_disabled": 0, "is_reserved": 0, "fusion_lat": 0.0, "lat": 38.898210666666664, "fusion_lon": 0.0, "rental_uris": {"ios": "https://dc.lft.to/lastmile_qr_scan", "android": "https://dc.lft.to/lastmile_qr_scan"}, "lon": -77.02962183333334, "bike_id": "edc655923e4cdbde8fa3ca9b381394d2", "type": "electric_scooter", "name": "edc655923e4cdbde8fa3ca9b381394d2"}, {"is_disabled": 0, "is_reserved": 0, "fusion_lat": 0.0, "lat": 38.927922, "fusion_lon": 0.0, "rental_uris": {"ios": "https://dc.lft.to/lastmile_qr_scan", "android": "https://dc.lft.to/lastmile_qr_scan"}, "lon": -77.05585583333334, "bike_id": "c1934bbb1f8d898424158b86ff30e740", "type": "electric_scooter", "name": "c1934bbb1f8d898424158b86ff30e740"}, {"is_disabled": 0, "is_reserved": 0, "fusion_lat": 0.0, "lat": 38.92060933333333, "fusion_lon": 0.0, "rental_uris": {"ios": "https://dc.lft.to/lastmile_qr_scan", "android": "https://dc.lft.to/lastmile_qr_scan"}, "lon": -77.04358116666667, "bike_id": "e9605e05d68de9574ba5934054a4f512", "type": "electric_scooter", "name": "e9605e05d68de9574ba5934054a4f512"}, {"is_disabled": 0, "is_reserved": 0, "fusion_lat": 0.0, "lat": 38.915661166666666, "fusion_lon": 0.0, "rental_uris": {"ios": "https://dc.lft.to/lastmile_qr_scan", "android": "https://dc.lft.to/lastmile_qr_scan"}, "lon": -77.03941583333334, "bike_id": "a0da70f70a17f0cd1afbc731d08cda41", "type": "electric_scooter", "name": "a0da70f70a17f0cd1afbc731d08cda41"}, {"is_disabled": 0, "is_reserved": 0, "fusion_lat": 0.0, "lat": 38.91555616666667, "fusion_lon": 0.0, "rental_uris": {"ios": "https://dc.lft.to/lastmile_qr_scan", "android": "https://dc.lft.to/lastmile_qr_scan"}, "lon": -77.00357766666667, "bike_id": "a9865b00425c074e01038549b820db86", "type": "electric_scooter", "name": "a9865b00425c074e01038549b820db86"}, {"is_disabled": 0, "is_reserved": 0, "fusion_lat": 0.0, "lat": 38.90172483333333, "fusion_lon": 0.0, "rental_uris": {"ios": "https://dc.lft.to/lastmile_qr_scan", "android": "https://dc.lft.to/lastmile_qr_scan"}, "lon": -77.023876, "bike_id": "6bb9534645d41822d5dceb4ef0bad97b", "type": "electric_scooter", "name": "6bb9534645d41822d5dceb4ef0bad97b"}, {"is_disabled": 0, "is_reserved": 0, "fusion_lat": 0.0, "lat": 38.91622433333333, "fusion_lon": 0.0, "rental_uris": {"ios": "https://dc.lft.to/lastmile_qr_scan", "android": "https://dc.lft.to/lastmile_qr_scan"}, "lon": -77.02110583333334, "bike_id": "8397363f3a5619ae7ecc6ac3936f299b", "type": "electric_scooter", "name": "8397363f3a5619ae7ecc6ac3936f299b"}, {"is_disabled": 0, "is_reserved": 0, "fusion_lat": 0.0, "lat": 38.9252665, "fusion_lon": 0.0, "rental_uris": {"ios": "https://dc.lft.to/lastmile_qr_scan", "android": "https://dc.lft.to/lastmile_qr_scan"}, "lon": -77.038409, "bike_id": "535928179e54d5f49c8efd4b7d4194d3", "type": "electric_scooter", "name": "535928179e54d5f49c8efd4b7d4194d3"}, {"is_disabled": 0, "is_reserved": 0, "fusion_lat": 0.0, "lat": 38.918177666666665, "fusion_lon": 0.0, "rental_uris": {"ios": "https://dc.lft.to/lastmile_qr_scan", "android": "https://dc.lft.to/lastmile_qr_scan"}, "lon": -77.025275, "bike_id": "aa98d1f8914b119349831e0e9d1981e7", "type": "electric_scooter", "name": "aa98d1f8914b119349831e0e9d1981e7"}, {"is_disabled": 0, "is_reserved": 0, "fusion_lat": 0.0, "lat": 38.92704333333333, "fusion_lon": 0.0, "rental_uris": {"ios": "https://dc.lft.to/lastmile_qr_scan", "android": "https://dc.lft.to/lastmile_qr_scan"}, "lon": -76.960727, "bike_id": "7298bd36272b0cc5d00eb55643027fd9", "type": "electric_scooter", "name": "7298bd36272b0cc5d00eb55643027fd9"}, {"is_disabled": 0, "is_reserved": 0, "fusion_lat": 0.0, "lat": 38.88085383333333, "fusion_lon": 0.0, "rental_uris": {"ios": "https://dc.lft.to/lastmile_qr_scan", "android": "https://dc.lft.to/lastmile_qr_scan"}, "lon": -76.985295, "bike_id": "e2b8546964efba5895be74105671d494", "type": "electric_bike", "name": "e2b8546964efba5895be74105671d494"}, {"is_disabled": 0, "is_reserved": 0, "fusion_lat": 0.0, "lat": 38.87523316666667, "fusion_lon": 0.0, "rental_uris": {"ios": "https://dc.lft.to/lastmile_qr_scan", "android": "https://dc.lft.to/lastmile_qr_scan"}, "lon": -77.0122285, "bike_id": "9d04ca51c0e01ecae8c4059831c0047e", "type": "electric_scooter", "name": "9d04ca51c0e01ecae8c4059831c0047e"}, {"is_disabled": 0, "is_reserved": 0, "fusion_lat": 0.0, "lat": 38.9491495, "fusion_lon": 0.0, "rental_uris": {"ios": "https://dc.lft.to/lastmile_qr_scan", "android": "https://dc.lft.to/lastmile_qr_scan"}, "lon": -77.02078616666667, "bike_id": "3b2a660bd81636fb77f330dc139eee7c", "type": "electric_scooter", "name": "3b2a660bd81636fb77f330dc139eee7c"}, {"is_disabled": 0, "is_reserved": 0, "fusion_lat": 0.0, "lat": 38.880406666666666, "fusion_lon": 0.0, "rental_uris": {"ios": "https://dc.lft.to/lastmile_qr_scan", "android": "https://dc.lft.to/lastmile_qr_scan"}, "lon": -76.92722283333333, "bike_id": "3f202f9b2dcf405a004d7cd7c97fe6d1", "type": "electric_scooter", "name": "3f202f9b2dcf405a004d7cd7c97fe6d1"}, {"is_disabled": 0, "is_reserved": 0, "fusion_lat": 0.0, "lat": 38.930341166666665, "fusion_lon": 0.0, "rental_uris": {"ios": "https://dc.lft.to/lastmile_qr_scan", "android": "https://dc.lft.to/lastmile_qr_scan"},