{"data": {"bikes": [{"fusion_lat": 0.0, "name": "2a5c6de62f2cd900bfe5a22f31557705", "is_disabled": 0, "rental_uris": {"android": "https://dc.lft.to/lastmile_qr_scan", "ios": "https://dc.lft.to/lastmile_qr_scan"}, "fusion_lon": 0.0, "lat": 38.8876215, "bike_id": "2a5c6de62f2cd900bfe5a22f31557705", "type": "electric_scooter", "is_reserved": 0, "lon": -76.97754466666666}, {"fusion_lat": 0.0, "name": "97544ee1ca830f091896d028bb3a9b3b", "is_disabled": 0, "rental_uris": {"android": "https://dc.lft.to/lastmile_qr_scan", "ios": "https://dc.lft.to/lastmile_qr_scan"}, "fusion_lon": 0.0, "lat": 38.91927333333334, "bike_id": "97544ee1ca830f091896d028bb3a9b3b", "type": "electric_scooter", "is_reserved": 0, "lon": -77.03186866666667}, {"fusion_lat": 0.0, "name": "0b09541f9fa0e9e51e2c48426f9214b6", "is_disabled": 0, "rental_uris": {"android": "https://dc.lft.to/lastmile_qr_scan", "ios": "https://dc.lft.to/lastmile_qr_scan"}, "fusion_lon": 0.0, "lat": 38.87465133333333, "bike_id": "0b09541f9fa0e9e51e2c48426f9214b6", "type": "electric_scooter", "is_reserved": 0, "lon": -77.01908683333333}, {"fusion_lat": 0.0, "name": "6bf40563e03bc193b5ad252df75a25a6", "is_disabled": 0, "rental_uris": {"android": "https://dc.lft.to/lastmile_qr_scan", "ios": "https://dc.lft.to/lastmile_qr_scan"}, "fusion_lon": 0.0, "lat": 38.902558, "bike_id": "6bf40563e03bc193b5ad252df75a25a6", "type": "electric_scooter", "is_reserved": 0, "lon": -77.01866166666667}, {"fusion_lat": 0.0, "name": "68ed57f8856a1e0c8c419c6017c57b56", "is_disabled": 0, "rental_uris": {"android": "https://dc.lft.to/lastmile_qr_scan", "ios": "https://dc.lft.to/lastmile_qr_scan"}, "fusion_lon": 0.0, "lat": 38.824584, "bike_id": "68ed57f8856a1e0c8c419c6017c57b56", "type": "electric_bike", "is_reserved": 0, "lon": -77.00795333333333}, {"fusion_lat": 0.0, "name": "0e502a8a72d6e73989bd23bc89dfca14", "is_disabled": 0, "rental_uris": {"android": "https://dc.lft.to/lastmile_qr_scan", "ios": "https://dc.lft.to/lastmile_qr_scan"}, "fusion_lon": 0.0, "lat": 38.91621116666666, "bike_id": "0e502a8a72d6e73989bd23bc89dfca14", "type": "electric_scooter", "is_reserved": 0, "lon": -77.0385105}, {"fusion_lat": 0.0, "name": "6b980d77c0f84a42d017bc77c4a76006", "is_disabled": 0, "rental_uris": {"android": "https://dc.lft.to/lastmile_qr_scan", "ios": "https://dc.lft.to/lastmile_qr_scan"}, "fusion_lon": 0.0, "lat": 38.8991305, "bike_id": "6b980d77c0f84a42d017bc77c4a76006", "type": "electric_scooter", "is_reserved": 0, "lon": -76.945537}, {"fusion_lat": 0.0, "name": "d0ba829d088a452bc85f28d35d69ea5e", "is_disabled": 0, "rental_uris": {"android": "https://dc.lft.to/lastmile_qr_scan", "ios": "https://dc.lft.to/lastmile_qr_scan"}, "fusion_lon": 0.0, "lat": 38.92351583333333, "bike_id": "d0ba829d088a452bc85f28d35d69ea5e", "type": "electric_scooter", "is_reserved": 0, "lon": -77.043921}, {"fusion_lat": 0.0, "name": "5c7b3d255a5069b2ca62cb9d9a5670e6", "is_disabled": 0, "rental_uris": {"android": "https://dc.lft.to/lastmile_qr_scan", "ios": "https://dc.lft.to/lastmile_qr_scan"}, "fusion_lon": 0.0, "lat": 38.944636, "bike_id": "5c7b3d255a5069b2ca62cb9d9a5670e6", "type": "electric_scooter", "is_reserved": 0, "lon": -77.0065695}, {"fusion_lat": 0.0, "name": "7ec6a1bd3de32f8572dc5892c12952f7", "is_disabled": 0, "rental_uris": {"android": "https://dc.lft.to/lastmile_qr_scan", "ios": "https://dc.lft.to/lastmile_qr_scan"}, "fusion_lon": 0.0, "lat": 38.882167833333334, "bike_id": "7ec6a1bd3de32f8572dc5892c12952f7", "type": "electric_scooter", "is_reserved": 0, "lon": -77.02939733333334}, {"fusion_lat": 0.0, "name": "fa89dd6a1a7f937f2f199ddeaa7a435d", "is_disabled": 0, "rental_uris": {"android": "https://dc.lft.to/lastmile_qr_scan", "ios": "https://dc.lft.to/lastmile_qr_scan"}, "fusion_lon": 0.0, "lat": 38.9198695, "bike_id": "fa89dd6a1a7f937f2f199ddeaa7a435d", "type": "electric_scooter", "is_reserved": 0, "lon": -77.0719215}, {"fusion_lat": 0.0, "name": "c2988551b51c755c114dfd4b94429239", "is_disabled": 0, "rental_uris": {"android": "https://dc.lft.to/lastmile_qr_scan", "ios": "https://dc.lft.to/lastmile_qr_scan"}, "fusion_lon": 0.0, "lat": 38.948485166666664, "bike_id": "c2988551b51c755c114dfd4b94429239", "type": "electric_scooter", "is_reserved": 0, "lon": -77.02573333333333}, {"fusion_lat": 0.0, "name": "db9298caeb43fb5539760b7300a0428d", "is_disabled": 0, "rental_uris": {"android": "https://dc.lft.to/lastmile_qr_scan", "ios": "https://dc.lft.to/lastmile_qr_scan"}, "fusion_lon": 0.0, "lat": 38.8829935, "bike_id": "db9298caeb43fb5539760b7300a0428d", "type": "electric_scooter", "is_reserved": 0, "lon": -76.94854933333333}, {"fusion_lat": 0.0, "name": "16201c62ef5781b8f8e12f4d76115b5d", "is_disabled": 0, "rental_uris": {"android": "https://dc.lft.to/lastmile_qr_scan", "ios": "https://dc.lft.to/lastmile_qr_scan"}, "fusion_lon": 0.0, "lat": 38.9124515, "bike_id": "16201c62ef5781b8f8e12f4d76115b5d", "type": "electric_scooter", "is_reserved": 0, "lon": -77.00629333333333}, {"fusion_lat": 0.0, "name": "2baffd2fc1d36b086b68037110223d25", "is_disabled": 0, "rental_uris": {"android": "https://dc.lft.to/lastmile_qr_scan", "ios": "https://dc.lft.to/lastmile_qr_scan"}, "fusion_lon": 0.0, "lat": 38.924204333333336, "bike_id": "2baffd2fc1d36b086b68037110223d25", "type": "electric_scooter", "is_reserved": 0, "lon": -77.02553983333334}, {"fusion_lat": 0.0, "name": "d8e139d50e46b5c09657af604510de04", "is_disabled": 0, "rental_uris": {"android": "https://dc.lft.to/lastmile_qr_scan", "ios": "https://dc.lft.to/lastmile_qr_scan"}, "fusion_lon": 0.0, "lat": 38.854115, "bike_id": "d8e139d50e46b5c09657af604510de04", "type": "electric_bike", "is_reserved": 0, "lon": -77.1208035}, {"fusion_lat": 0.0, "name": "dc2980efb4ac6e54b8a6c4ee38ec870f", "is_disabled": 0, "rental_uris": {"android": "https://dc.lft.to/lastmile_qr_scan", "ios": "https://dc.lft.to/lastmile_qr_scan"}, "fusion_lon": 0.0, "lat": 38.935774333333335, "bike_id": "dc2980efb4ac6e54b8a6c4ee38ec870f", "type": "electric_scooter", "is_reserved": 0, "lon": -77.02847266666667}, {"fusion_lat": 0.0, "name": "549ae434e81cd986655f2040292e4b44", "is_disabled": 0, "rental_uris": {"android": "https://dc.lft.to/lastmile_qr_scan", "ios": "https://dc.lft.to/lastmile_qr_scan"}, "fusion_lon": 0.0, "lat": 38.952207333333334, "bike_id": "549ae434e81cd986655f2040292e4b44", "type": "electric_scooter", "is_reserved": 0, "lon": -77.08218683333334}, {"fusion_lat": 0.0, "name": "ec4bb923c9c9404508b7ce7b7b0483bf", "is_disabled": 0, "rental_uris": {"android": "https://dc.lft.to/lastmile_qr_scan", "ios": "https://dc.lft.to/lastmile_qr_scan"}, "fusion_lon": 0.0, "lat": 38.92079583333334, "bike_id": "ec4bb923c9c9404508b7ce7b7b0483bf", "type": "electric_scooter", "is_reserved": 0, "lon": -76.99449966666667}, {"fusion_lat": 0.0, "name": "df56e060063e31739b708dcc1db18616", "is_disabled": 0, "rental_uris": {"android": "https://dc.lft.to/lastmile_qr_scan", "ios": "https://dc.lft.to/lastmile_qr_scan"}, "fusion_lon": 0.0, "lat": 38.931469166666666, "bike_id": "df56e060063e31739b708dcc1db18616", "type": "electric_scooter", "is_reserved": 0, "lon": -77.03962033333333}, {"fusion_lat": 0.0, "name": "c5f2d271f620a1359b7ca9e7858b5893", "is_disabled": 0, "rental_uris": {"android": "https://dc.lft.to/lastmile_qr_scan", "ios": "https://dc.lft.to/lastmile_qr_scan"}, "fusion_lon": 0.0, "lat": 38.899823, "bike_id": "c5f2d271f620a1359b7ca9e7858b5893", "type": "electric_scooter", "is_reserved": 0, "lon": -77.04065966666667}, {"fusion_lat": 0.0, "name": "8dba047508aac13d5b5ca0cbcabc1752", "is_disabled": 0, "rental_uris": {"android": "https://dc.lft.to/lastmile_qr_scan", "ios": "https://dc.lft.to/lastmile_qr_scan"}, "fusion_lon": 0.0, "lat": 38.92077333333334, "bike_id": "8dba047508aac13d5b5ca0cbcabc1752", "type": "electric_scooter", "is_reserved": 0, "lon": -77.012216}, {"fusion_lat": 0.0, "name": "ee8d4f3b9aafa8413b66dccbacdd5fe4", "is_disabled": 0, "rental_uris": {"android": "https://dc.lft.to/lastmile_qr_scan", "ios": "https://dc.lft.to/lastmile_qr_scan"}, "fusion_lon": 0.0, "lat": 38.90971283333333, "bike_id": "ee8d4f3b9aafa8413b66dccbacdd5fe4", "type": "electric_scooter", "is_reserved": 0, "lon": -77.03433633333333}, {"fusion_lat": 0.0, "name": "67a3c0fb3bca3472d1f5367aee17d408", "is_disabled": 0, "rental_uris": {"android": "https://dc.lft.to/lastmile_qr_scan", "ios": "https://dc.lft.to/lastmile_qr_scan"}, "fusion_lon": 0.0, "lat": 38.8955285, "bike_id": "67a3c0fb3bca3472d1f5367aee17d408", "type": "electric_scooter", "is_reserved": 0, "lon": -76.99845966666666}, {"fusion_lat": 0.0, "name": "17e0d28b673d4c9608ed01e6f6255f36", "is_disabled": 0, "rental_uris": {"android": "https://dc.lft.to/lastmile_qr_scan", "ios": "https://dc.lft.to/lastmile_qr_scan"}, "fusion_lon": 0.0, "lat": 38.929378166666666, "bike_id": "17e0d28b673d4c9608ed01e6f6255f36", "type": "electric_scooter", "is_reserved": 0, "lon": -77.02337083333333}, {"fusion_lat": 0.0, "name": "752c640169f1f1bf7f23ecc7486ba1e4", "is_disabled": 0, "rental_uris": {"android": "https://dc.lft.to/lastmile_qr_scan", "ios": "https://dc.lft.to/lastmile_qr_scan"}, "fusion_lon": 0.0, "lat": 38.84504866666666, "bike_id": "752c640169f1f1bf7f23ecc7486ba1e4", "type": "electric_bike", "is_reserved": 0, "lon": -76.99352866666666}, {"fusion_lat": 0.0, "name": "8bf711237f2c2d80bd14006faae90cc8", "is_disabled": 0, "rental_uris": {"android": "https://dc.lft.to/lastmile_qr_scan", "ios": "https://dc.lft.to/lastmile_qr_scan"}, "fusion_lon": 0.0, "lat": 38.91905233333333, "bike_id": "8bf711237f2c2d80bd14006faae90cc8", "type": "electric_scooter", "is_reserved": 0, "lon": -77.014622}, {"fusion_lat": 0.0, "name": "4fc2a45427c6ff47b8877bd8c2250dcc", "is_disabled": 0, "rental_uris": {"android": "https://dc.lft.to/lastmile_qr_scan", "ios": "https://dc.lft.to/lastmile_qr_scan"}, "fusion_lon": 0.0, "lat": 38.9231265, "bike_id": "4fc2a45427c6ff47b8877bd8c2250dcc", "type": "electric_scooter", "is_reserved": 0, "lon": -77.04375733333333}, {"fusion_lat": 0.0, "name": "a040a752f5bbb58d0c71439b4927c970", "is_disabled": 0, "rental_uris": {"android": "https://dc.lft.to/lastmile_qr_scan", "ios": "https://dc.lft.to/lastmile_qr_scan"}, "fusion_lon": 0.0, "lat": 38.90955983333333, "bike_id": "a040a752f5bbb58d0c71439b4927c970", "type": "electric_scooter", "is_reserved": 0, "lon": -77.039506}, {"fusion_lat": 0.0, "name": "ca50e81be27fbc0c3ef8e2b28407bdf3", "is_disabled": 0, "rental_uris": {"android": "https://dc.lft.to/lastmile_qr_scan", "ios": "https://dc.lft.to/lastmile_qr_scan"}, "fusion_lon": 0.0, "lat": 38.90499166666667, "bike_id": "ca50e81be27fbc0c3ef8e2b28407bdf3", "type": "electric_scooter", "is_reserved": 0, "lon": -77.0258055}, {"fusion_lat": 0.0, "name": "d81624da34d5a0807c80c8d2abb7a035", "is_disabled": 0, "rental_uris": {"android": "https://dc.lft.to/lastmile_qr_scan", "ios": "https://dc.lft.to/lastmile_qr_scan"}, "fusion_lon": 0.0, "lat": 38.93218866666667, "bike_id": "d81624da34d5a0807c80c8d2abb7a035", "type": "electric_scooter", "is_reserved": 0, "lon": -77.04409883333334}, {"fusion_lat": 0.0, "name": "adb69c6d311b9007e4126274ab5cdc64", "is_disabled": 0, "rental_uris": {"android": "https://dc.lft.to/lastmile_qr_scan", "ios": "https://dc.lft.to/lastmile_qr_scan"}, "fusion_lon": 0.0, "lat": 38.9263685, "bike_id": "adb69c6d311b9007e4126274ab5cdc64", "type": "electric_scooter", "is_reserved": 0, "lon": -77.03237216666666}, {"fusion_lat": 0.0, "name": "24fd49f7843e01002cd2c2805604d98e", "is_disabled": 0, "rental_uris": {"android": "https://dc.lft.to/lastmile_qr_scan", "ios": "https://dc.lft.to/lastmile_qr_scan"}, "fusion_lon": 0.0, "lat": 38.924087, "bike_id": "24fd49f7843e01002cd2c2805604d98e", "type": "electric_scooter", "is_reserved": 0, "lon": -77.02108883333334}, {"fusion_lat": 0.0, "name": "bdafe57b08c5af7f1975e6bcee49370c", "is_disabled": 0, "rental_uris": {"android": "https://dc.lft.to/lastmile_qr_scan", "ios": "https://dc.lft.to/lastmile_qr_scan"}, "fusion_lon": 0.0, "lat": 38.9216525, "bike_id": "bdafe57b08c5af7f1975e6bcee49370c", "type": "electric_scooter", "is_reserved": 0, "lon": -77.04014366666667}, {"fusion_lat": 0.0, "name": "e7902f2ea01927c595ecad2bb04fab7c", "is_disabled": 0, "rental_uris": {"android": "https://dc.lft.to/lastmile_qr_scan", "ios": "https://dc.lft.to/lastmile_qr_scan"}, "fusion_lon": 0.0, "lat": 38.905745833333334, "bike_id": "e7902f2ea01927c595ecad2bb04fab7c", "type": "electric_scooter", "is_reserved": 0, "lon": -77.022077}, {"fusion_lat": 0.0, "name": "a33adcbdec9f0bcb9102f3bdbb621a80", "is_disabled": 0, "rental_uris": {"android": "https://dc.lft.to/lastmile_qr_scan", "ios": "https://dc.lft.to/lastmile_qr_scan"}, "fusion_lon": 0.0, "lat": 38.905637166666665, "bike_id": "a33adcbdec9f0bcb9102f3bdbb621a80", "type": "electric_scooter", "is_reserved": 0, "lon": -77.00587433333334}, {"fusion_lat": 0.0, "name": "2905e9d570956e65121b152b4e7bed24", "is_disabled": 0, "rental_uris": {"android": "https://dc.lft.to/lastmile_qr_scan", "ios": "https://dc.lft.to/lastmile_qr_scan"}, "fusion_lon": 0.0, "lat": 38.93111616666667, "bike_id": "2905e9d570956e65121b152b4e7bed24", "type": "electric_scooter", "is_reserved": 0, "lon": -77.02131866666667}, {"fusion_lat": 0.0, "name": "ab95d405868c75ac58528a127a0801ee", "is_disabled": 0, "rental_uris": {"android": "https://dc.lft.to/lastmile_qr_scan", "ios": "https://dc.lft.to/lastmile_qr_scan"}, "fusion_lon": 0.0, "lat": 38.94125783333333, "bike_id": "ab95d405868c75ac58528a127a0801ee", "type": "electric_scooter", "is_reserved": 0, "lon": -77.02655316666667}, {"fusion_lat": 0.0, "name": "14593b48509ad1c5bdd28d1da01243ad", "is_disabled": 0, "rental_uris": {"android": "https://dc.lft.to/lastmile_qr_scan", "ios": "https://dc.lft.to/lastmile_qr_scan"}, "fusion_lon": 0.0, "lat": 38.90513983333334, "bike_id": "14593b48509ad1c5bdd28d1da01243ad", "type": "electric_scooter", "is_reserved": 0, "lon": -77.06506166666667}, {"fusion_lat": 0.0, "name": "4567b5be1b0ded900f61a65ebb1346ef", "is_disabled": 0, "rental_uris": {"android": "https://dc.lft.to/lastmile_qr_scan", "ios": "https://dc.lft.to/lastmile_qr_scan"}, "fusion_lon": 0.0, "lat": 38.881095, "bike_id": "4567b5be1b0ded900f61a65ebb1346ef", "type": "electric_scooter", "is_reserved": 0, "lon": -77.01661116666666}, {"fusion_lat": 0.0, "name": "dfbdc03c7b52185572106a04791a47f9", "is_disabled": 0, "rental_uris": {"android": "https://dc.lft.to/lastmile_qr_scan", "ios": "https://dc.lft.to/lastmile_qr_scan"}, "fusion_lon": 0.0, "lat": 38.90290133333333, "bike_id": "dfbdc03c7b52185572106a04791a47f9", "type": "electric_scooter", "is_reserved": 0, "lon": -76.976337}, {"fusion_lat": 0.0, "name": "7e3f8470c4c32031f0bc7cd81ba751ad", "is_disabled": 0, "rental_uris": {"android": "https://dc.lft.to/lastmile_qr_scan", "ios": "https://dc.lft.to/lastmile_qr_scan"}, "fusion_lon": 0.0, "lat": 38.807565833333335, "bike_id": "7e3f8470c4c32031f0bc7cd81ba751ad", "type": "electric_bike", "is_reserved": 0, "lon": -77.09465516666667}, {"fusion_lat": 0.0, "name": "bb6559dfae6978c7ed7d93cbe1d128dc", "is_disabled": 0, "rental_uris": {"android": "https://dc.lft.to/lastmile_qr_scan", "ios": "https://dc.lft.to/lastmile_qr_scan"}, "fusion_lon": 0.0, "lat": 38.90139716666667, "bike_id": "bb6559dfae6978c7ed7d93cbe1d128dc", "type": "electric_scooter", "is_reserved": 0, "lon": -77.03053716666666}, {"fusion_lat": 0.0, "name": "34e023395d2658ed001c9e44ad453973", "is_disabled": 0, "rental_uris": {"android": "https://dc.lft.to/lastmile_qr_scan", "ios": "https://dc.lft.to/lastmile_qr_scan"}, "fusion_lon": 0.0, "lat": 38.99775233333333, "bike_id": "34e023395d2658ed001c9e44ad453973", "type": "electric_bike", "is_reserved": 0, "lon": -77.04717866666667}, {"fusion_lat": 0.0, "name": "badec5a0e23e06a2766152e27855a164", "is_disabled": 0, "rental_uris": {"android": "https://dc.lft.to/lastmile_qr_scan", "ios": "https://dc.lft.to/lastmile_qr_scan"}, "fusion_lon": 0.0, "lat": 38.916379, "bike_id": "badec5a0e23e06a2766152e27855a164", "type": "electric_scooter", "is_reserved": 0, "lon": -77.0316155}, {"fusion_lat": 0.0, "name": "795066d35e8b02896d1a17bd0f8eccfa", "is_disabled": 0, "rental_uris": {"android": "https://dc.lft.to/lastmile_qr_scan", "ios": "https://dc.lft.to/lastmile_qr_scan"}, "fusion_lon": 0.0, "lat": 38.940496833333334, "bike_id": "795066d35e8b02896d1a17bd0f8eccfa", "type": "electric_bike", "is_reserved": 0, "lon": -76.9041945}, {"fusion_lat": 0.0, "name": "8bf167d8516034b06cf654a5c509b68f", "is_disabled": 0, "rental_uris": {"android": "https://dc.lft.to/lastmile_qr_scan", "ios": "https://dc.lft.to/lastmile_qr_scan"}, "fusion_lon": 0.0, "lat": 38.931992666666666, "bike_id": "8bf167d8516034b06cf654a5c509b68f", "type": "electric_scooter", "is_reserved": 0, "lon": -77.03752433333334}, {"fusion_lat": 0.0, "name": "d1a07217c258b4c28e16a6328713d4d1", "is_disabled": 0, "rental_uris": {"android": "https://dc.lft.to/lastmile_qr_scan", "ios": "https://dc.lft.to/lastmile_qr_scan"}, "fusion_lon": 0.0, "lat": 38.90717016666667, "bike_id": "d1a07217c258b4c28e16a6328713d4d1", "type": "electric_scooter", "is_reserved": 0, "lon": -77.029467}, {"fusion_lat": 0.0, "name": "a1c5d2469b2449935c2d460a1d4d5f40", "is_disabled": 0, "rental_uris": {"android": "https://dc.lft.to/lastmile_qr_scan", "ios": "https://dc.lft.to/lastmile_qr_scan"}, "fusion_lon": 0.0, "lat": 38.915378, "bike_id": "a1c5d2469b2449935c2d460a1d4d5f40", "type": "electric_scooter", "is_reserved": 0, "lon": -77.01270316666667}, {"fusion_lat": 0.0, "name": "b280f8dafa9a6df26484300031efbcb3", "is_disabled": 0, "rental_uris": {"android": "https://dc.lft.to/lastmile_qr_scan", "ios": "https://dc.lft.to/lastmile_qr_scan"}, "fusion_lon": 0.0, "lat": 38.901687333333335, "bike_id": "b280f8dafa9a6df26484300031efbcb3", "type": "electric_scooter", "is_reserved": 0, "lon": -76.980623}, {"fusion_lat": 0.0, "name": "c8bde2f4e87b5be7d494380c37da30ad", "is_disabled": 0, "rental_uris": {"android": "https://dc.lft.to/lastmile_qr_scan", "ios": "https://dc.lft.to/lastmile_qr_scan"}, "fusion_lon": 0.0, "lat": 38.941748, "bike_id": "c8bde2f4e87b5be7d494380c37da30ad", "type": "electric_scooter", "is_reserved": 0, "lon": -77.03287216666666}, {"fusion_lat": 0.0, "name": "caa5b47f81dafbf1db5c3bf77b079ab5", "is_disabled": 0, "rental_uris": {"android": "https://dc.lft.to/lastmile_qr_scan", "ios": "https://dc.lft.to/lastmile_qr_scan"}, "fusion_lon": 0.0, "lat": 38.9866725, "bike_id": "caa5b47f81dafbf1db5c3bf77b079ab5", "type": "electric_bike", "is_reserved": 0, "lon": -76.999973}, {"fusion_lat": 0.0, "name": "f5b41e3d55ad898d42b713f48c01225b", "is_disabled": 0, "rental_uris": {"android": "https://dc.lft.to/lastmile_qr_scan", "ios": "https://dc.lft.to/lastmile_qr_scan"}, "fusion_lon": 0.0, "lat": 38.926803, "bike_id": "f5b41e3d55ad898d42b713f48c01225b", "type": "electric_scooter", "is_reserved": 0, "lon": -77.03252866666666}, {"fusion_lat": 0.0, "name": "1a27162343b3b14d4624bc0d9330b623", "is_disabled": 0, "rental_uris": {"android": "https://dc.lft.to/lastmile_qr_scan", "ios": "https://dc.lft.to/lastmile_qr_scan"}, "fusion_lon": 0.0, "lat": 38.99443683333333, "bike_id": "1a27162343b3b14d4624bc0d9330b623", "type": "electric_bike", "is_reserved": 0, "lon": -76.99588266666666}, {"fusion_lat": 0.0, "name": "dc8dc22970eb0c58c73c3d813a9ba704", "is_disabled": 0, "rental_uris": {"android": "https://dc.lft.to/lastmile_qr_scan", "ios": "https://dc.lft.to/lastmile_qr_scan"}, "fusion_lon": 0.0, "lat": 38.92339, "bike_id": "dc8dc22970eb0c58c73c3d813a9ba704", "type": "electric_scooter", "is_reserved": 0, "lon": -77.0353555}, {"fusion_lat": 0.0, "name": "7b767191e664eee686aff1b0d1323db6", "is_disabled": 0, "rental_uris": {"android": "https://dc.lft.to/lastmile_qr_scan", "ios": "https://dc.lft.to/lastmile_qr_scan"}, "fusion_lon": 0.0, "lat": 38.94381216666667, "bike_id": "7b767191e664eee686aff1b0d1323db6", "type": "electric_scooter", "is_reserved": 0, "lon": -77.02616033333334}, {"fusion_lat": 0.0, "name": "232135f209293079fe8dc460f96c47e7", "is_disabled": 0, "rental_uris": {"android": "https://dc.lft.to/lastmile_qr_scan", "ios": "https://dc.lft.to/lastmile_qr_scan"}, "fusion_lon": 0.0, "lat": 38.9030305, "bike_id": "232135f209293079fe8dc460f96c47e7", "type": "electric_scooter", "is_reserved": 0, "lon": -76.97650733333333}, {"fusion_lat": 0.0, "name": "7a72f28e4c68891f7445cec3c7152c02", "is_disabled": 0, "rental_uris": {"android": "https://dc.lft.to/lastmile_qr_scan", "ios": "https://dc.lft.to/lastmile_qr_scan"}, "fusion_lon": 0.0, "lat": 38.8866225, "bike_id": "7a72f28e4c68891f7445cec3c7152c02", "type": "electric_scooter", "is_reserved": 0, "lon": -77.0283715}, {"fusion_lat": 0.0, "name": "ef12a994ad934d4fea8bb983ba089617", "is_disabled": 0, "rental_uris": {"android": "https://dc.lft.to/lastmile_qr_scan", "ios": "https://dc.lft.to/lastmile_qr_scan"}, "fusion_lon": 0.0, "lat": 38.921075333333334, "bike_id": "ef12a994ad934d4fea8bb983ba089617", "type": "electric_scooter", "is_reserved": 0, "lon": -77.04698866666666}, {"fusion_lat": 0.0, "name": "6a8270b9e83e14dddbc5f86371828a2d", "is_disabled": 0, "rental_uris": {"android": "https://dc.lft.to/lastmile_qr_scan", "ios": "https://dc.lft.to/lastmile_qr_scan"}, "fusion_lon": 0.0, "lat": 38.847536166666664, "bike_id": "6a8270b9e83e14dddbc5f86371828a2d", "type": "electric_scooter", "is_reserved": 0, "lon": -76.9950245}, {"fusion_lat": 0.0, "name": "ad1f2cb3cfc0c0f7c7bb4b35630fc062", "is_disabled": 0, "rental_uris": {"android": "https://dc.lft.to/lastmile_qr_scan", "ios": "https://dc.lft.to/lastmile_qr_scan"}, "fusion_lon": 0.0, "lat": 38.91812133333333, "bike_id": "ad1f2cb3cfc0c0f7c7bb4b35630fc062", "type": "electric_scooter", "is_reserved": 0, "lon": -77.03719533333333}, {"fusion_lat": 0.0, "name": "0c9605456993263b2d6e576e23f6a9b9", "is_disabled": 0, "rental_uris": {"android": "https://dc.lft.to/lastmile_qr_scan", "ios": "https://dc.lft.to/lastmile_qr_scan"}, "fusion_lon": 0.0, "lat": 38.898731166666664, "bike_id": "0c9605456993263b2d6e576e23f6a9b9", "type": "electric_scooter", "is_reserved": 0, "lon": -76.93190333333334}, {"fusion_lat": 0.0, "name": "0002de0f36f4879100c578e8c18416d2", "is_disabled": 0, "rental_uris": {"android": "https://dc.lft.to/lastmile_qr_scan", "ios": "https://dc.lft.to/lastmile_qr_scan"}, "fusion_lon": 0.0, "lat": 38.902399, "bike_id": "0002de0f36f4879100c578e8c18416d2", "type": "electric_scooter", "is_reserved": 0, "lon": -77.00771466666667}, {"fusion_lat": 0.0, "name": "4a086d83789b975df9cfa85cef491c43", "is_disabled": 0, "rental_uris": {"android": "https://dc.lft.to/lastmile_qr_scan", "ios": "https://dc.lft.to/lastmile_qr_scan"}, "fusion_lon": 0.0, "lat": 38.90805733333333, "bike_id": "4a086d83789b975df9cfa85cef491c43", "type": "electric_scooter", "is_reserved": 0, "lon": -77.03444316666666}, {"fusion_lat": 0.0, "name": "01177c7d069cd44dc589a26520535868", "is_disabled": 0, "rental_uris": {"android": "https://dc.lft.to/lastmile_qr_scan", "ios": "https://dc.lft.to/lastmile_qr_scan"}, "fusion_lon": 0.0, "lat": 38.933386166666665, "bike_id": "01177c7d069cd44dc589a26520535868", "type": "electric_scooter", "is_reserved": 0, "lon": -77.0241165}, {"fusion_lat": 0.0, "name": "aed15a3e341812cded06f5e91ebee829", "is_disabled": 0, "rental_uris": {"android": "https://dc.lft.to/lastmile_qr_scan", "ios": "https://dc.lft.to/lastmile_qr_scan"}, "fusion_lon": 0.0, "lat": 38.8971795, "bike_id": "aed15a3e341812cded06f5e91ebee829", "type": "electric_scooter", "is_reserved": 0, "lon": -77.02719566666667}, {"fusion_lat": 0.0, "name": "e3de7f0217ccab3e42d4350266774882", "is_disabled": 0, "rental_uris": {"android": "https://dc.lft.to/lastmile_qr_scan", "ios": "https://dc.lft.to/lastmile_qr_scan"}, "fusion_lon": 0.0, "lat": 38.93511066666667, "bike_id": "e3de7f0217ccab3e42d4350266774882", "type": "electric_scooter", "is_reserved": 0, "lon": -77.0728045}, {"fusion_lat": 0.0, "name": "e4a27e9a87b13ce55734d0c10f8e9fb9", "is_disabled": 0, "rental_uris": {"android": "https://dc.lft.to/lastmile_qr_scan", "ios": "https://dc.lft.to/lastmile_qr_scan"}, "fusion_lon": 0.0, "lat": 38.8985055, "bike_id": "e4a27e9a87b13ce55734d0c10f8e9fb9", "type": "electric_scooter", "is_reserved": 0, "lon": -76.99038}, {"fusion_lat": 0.0, "name": "c5b6415a807040c6671347762bb9e361", "is_disabled": 0, "rental_uris": {"android": "https://dc.lft.to/lastmile_qr_scan", "ios": "https://dc.lft.to/lastmile_qr_scan"}, "fusion_lon": 0.0, "lat": 39.052497833333334, "bike_id": "c5b6415a807040c6671347762bb9e361", "type": "electric_bike", "is_reserved": 0, "lon": -77.08067033333333}, {"fusion_lat": 0.0, "name": "91d7e112065771d8e447b2c0291c07fa", "is_disabled": 0, "rental_uris": {"android": "https://dc.lft.to/lastmile_qr_scan", "ios": "https://dc.lft.to/lastmile_qr_scan"}, "fusion_lon": 0.0, "lat": 38.8943955, "bike_id": "91d7e112065771d8e447b2c0291c07fa", "type": "electric_scooter", "is_reserved": 0, "lon": -76.936771}, {"fusion_lat": 0.0, "name": "f95e95d747a600290cb9a37ddf5f841a", "is_disabled": 0, "rental_uris": {"android": "https://dc.lft.to/lastmile_qr_scan", "ios": "https://dc.lft.to/lastmile_qr_scan"}, "fusion_lon": 0.0, "lat": 38.91563583333333, "bike_id": "f95e95d747a600290cb9a37ddf5f841a", "type": "electric_scooter", "is_reserved": 0, "lon": -77.0385975}, {"fusion_lat": 0.0, "name": "d237b6ef607586c456bedd4650978337", "is_disabled": 0, "rental_uris": {"android": "https://dc.lft.to/lastmile_qr_scan", "ios": "https://dc.lft.to/lastmile_qr_scan"}, "fusion_lon": 0.0, "lat": 38.88312366666667, "bike_id": "d237b6ef607586c456bedd4650978337", "type": "electric_scooter", "is_reserved": 0, "lon": -77.01727516666666}, {"fusion_lat": 0.0, "name": "f9b0760c1eefefc3a175263b2e4117d5", "is_disabled": 0, "rental_uris": {"android": "https://dc.lft.to/lastmile_qr_scan", "ios": "https://dc.lft.to/lastmile_qr_scan"}, "fusion_lon": 0.0, "lat": 38.895589, "bike_id": "f9b0760c1eefefc3a175263b2e4117d5", "type": "electric_scooter", "is_reserved": 0, "lon": -76.99428216666666}, {"fusion_lat": 0.0, "name": "5c1b63fecb7a975b15368c328b564acb", "is_disabled": 0, "rental_uris": {"android": "https://dc.lft.to/lastmile_qr_scan", "ios": "https://dc.lft.to/lastmile_qr_scan"}, "fusion_lon": 0.0, "lat": 38.921575833333335, "bike_id": "5c1b63fecb7a975b15368c328b564acb", "type": "electric_scooter", "is_reserved": 0, "lon": -77.02086566666667}, {"fusion_lat": 0.0, "name": "86af3acbc517d7df26e4a24514a2fce6", "is_disabled": 0, "rental_uris": {"android": "https://dc.lft.to/lastmile_qr_scan", "ios": "https://dc.lft.to/lastmile_qr_scan"}, "fusion_lon": 0.0, "lat": 39.01418666666667, "bike_id": "86af3acbc517d7df26e4a24514a2fce6", "type": "electric_bike", "is_reserved": 0, "lon": -77.0450215}, {"fusion_lat": 0.0, "name": "e986afe2e4e205b594c545e5d0986c8f", "is_disabled": 0, "rental_uris": {"android": "https://dc.lft.to/lastmile_qr_scan", "ios": "https://dc.lft.to/lastmile_qr_scan"}, "fusion_lon": 0.0, "lat": 38.900537166666666, "bike_id": "e986afe2e4e205b594c545e5d0986c8f", "type": "electric_scooter", "is_reserved": 0, "lon": -76.98695466666666}, {"fusion_lat": 0.0, "name": "55ba08064946c3d82b3a5188c5543e3e", "is_disabled": 0, "rental_uris": {"android": "https://dc.lft.to/lastmile_qr_scan", "ios": "https://dc.lft.to/lastmile_qr_scan"}, "fusion_lon": 0.0, "lat": 38.88497866666667, "bike_id": "55ba08064946c3d82b3a5188c5543e3e", "type": "electric_scooter", "is_reserved": 0, "lon": -76.99758433333334}, {"fusion_lat": 0.0, "name": "60da89266a17bc201507672d5bfd2a43", "is_disabled": 0, "rental_uris": {"android": "https://dc.lft.to/lastmile_qr_scan", "ios": "https://dc.lft.to/lastmile_qr_scan"}, "fusion_lon": 0.0, "lat": 38.90213516666667, "bike_id": "60da89266a17bc201507672d5bfd2a43", "type": "electric_scooter", "is_reserved": 0, "lon": -77.023744}, {"fusion_lat": 0.0, "name": "5ff09cab74da3d29d1648b95488f432d", "is_disabled": 0, "rental_uris": {"android": "https://dc.lft.to/lastmile_qr_scan", "ios": "https://dc.lft.to/lastmile_qr_scan"}, "fusion_lon": 0.0, "lat": 38.908418833333336, "bike_id": "5ff09cab74da3d29d1648b95488f432d", "type": "electric_bike", "is_reserved": 0, "lon": -77.0022265}, {"fusion_lat": 0.0, "name": "40096dbfc1965e7e0991a8e64a3c6ee4", "is_disabled": 0, "rental_uris": {"android": "https://dc.lft.to/lastmile_qr_scan", "ios": "https://dc.lft.to/lastmile_qr_scan"}, "fusion_lon": 0.0, "lat": 38.90848833333333, "bike_id": "40096dbfc1965e7e0991a8e64a3c6ee4", "type": "electric_scooter", "is_reserved": 0, "lon": -77.0474145}, {"fusion_lat": 0.0, "name": "2acce66b45b3aed728d3a7f7559ad0c8", "is_disabled": 0, "rental_uris": {"android": "https://dc.lft.to/lastmile_qr_scan", "ios": "https://dc.lft.to/lastmile_qr_scan"}, "fusion_lon": 0.0, "lat": 38.91723233333333, "bike_id": "2acce66b45b3aed728d3a7f7559ad0c8", "type": "electric_scooter", "is_reserved": 0, "lon": -77.02790316666666}, {"fusion_lat": 0.0, "name": "489eab3bca31029c422d8a87e843f4e5", "is_disabled": 0, "rental_uris": {"android": "https://dc.lft.to/lastmile_qr_scan", "ios": "https://dc.lft.to/lastmile_qr_scan"}, "fusion_lon": 0.0, "lat": 38.915574666666664, "bike_id": "489eab3bca31029c422d8a87e843f4e5", "type": "electric_scooter", "is_reserved": 0, "lon": -77.030677}, {"fusion_lat": 0.0, "name": "67656150efb020358956bfcf9a69c4c4", "is_disabled": 0, "rental_uris": {"android": "https://dc.lft.to/lastmile_qr_scan", "ios": "https://dc.lft.to/lastmile_qr_scan"}, "fusion_lon": 0.0, "lat": 38.9078495, "bike_id": "67656150efb020358956bfcf9a69c4c4", "type": "electric_scooter", "is_reserved": 0, "lon": -77.0097295}, {"fusion_lat": 0.0, "name": "7ddec4eeb9de8cf30e503f0355bd84ea", "is_disabled": 0, "rental_uris": {"android": "https://dc.lft.to/lastmile_qr_scan", "ios": "https://dc.lft.to/lastmile_qr_scan"}, "fusion_lon": 0.0, "lat": 38.89897233333333, "bike_id": "7ddec4eeb9de8cf30e503f0355bd84ea", "type": "electric_scooter", "is_reserved": 0, "lon": -77.03297016666667}, {"fusion_lat": 0.0, "name": "ba0fcce3cafc2c1c6fdbc41135df6958", "is_disabled": 0, "rental_uris": {"android": "https://dc.lft.to/lastmile_qr_scan", "ios": "https://dc.lft.to/lastmile_qr_scan"}, "fusion_lon": 0.0, "lat": 38.9333575, "bike_id": "ba0fcce3cafc2c1c6fdbc41135df6958", "type": "electric_scooter", "is_reserved": 0, "lon": -77.03635233333334}, {"fusion_lat": 0.0, "name": "3d5b9e6721975322079d403990e77622", "is_disabled": 0, "rental_uris": {"android": "https://dc.lft.to/lastmile_qr_scan", "ios": "https://dc.lft.to/lastmile_qr_scan"}, "fusion_lon": 0.0, "lat": 38.920786, "bike_id": "3d5b9e6721975322079d403990e77622", "type": "electric_scooter", "is_reserved": 0, "lon": -77.01483183333333}, {"fusion_lat": 0.0, "name": "00ef54924714aa03dc07cf4a527ec809", "is_disabled": 0, "rental_uris": {"android": "https://dc.lft.to/lastmile_qr_scan", "ios": "https://dc.lft.to/lastmile_qr_scan"}, "fusion_lon": 0.0, "lat": 38.8845965, "bike_id": "00ef54924714aa03dc07cf4a527ec809", "type": "electric_scooter", "is_reserved": 0, "lon": -76.94978283333333}, {"fusion_lat": 0.0, "name": "3266e7f1873cb3b493a04588af12da37", "is_disabled": 0, "rental_uris": {"android": "https://dc.lft.to/lastmile_qr_scan", "ios": "https://dc.lft.to/lastmile_qr_scan"}, "fusion_lon": 0.0, "lat": 38.946307833333336, "bike_id": "3266e7f1873cb3b493a04588af12da37", "type": "electric_scooter", "is_reserved": 0, "lon": -77.09546366666666}, {"fusion_lat": 0.0, "name": "c81260d6beccc515485b7faee5153e67", "is_disabled": 0, "rental_uris": {"android": "https://dc.lft.to/lastmile_qr_scan", "ios": "https://dc.lft.to/lastmile_qr_scan"}, "fusion_lon": 0.0, "lat": 38.90163166666667, "bike_id": "c81260d6beccc515485b7faee5153e67", "type": "electric_scooter", "is_reserved": 0, "lon": -77.02009716666667}, {"fusion_lat": 0.0, "name": "e15a85e2a23b49121dc0dca4d65efb83", "is_disabled": 0, "rental_uris": {"android": "https://dc.lft.to/lastmile_qr_scan", "ios": "https://dc.lft.to/lastmile_qr_scan"}, "fusion_lon": 0.0, "lat": 38.961247166666666, "bike_id": "e15a85e2a23b49121dc0dca4d65efb83", "type": "electric_bike", "is_reserved": 0, "lon": -77.0327785}, {"fusion_lat": 0.0, "name": "b79aff486ee892e288b2025ead6baf3a", "is_disabled": 0, "rental_uris": {"android": "https://dc.lft.to/lastmile_qr_scan", "ios": "https://dc.lft.to/lastmile_qr_scan"}, "fusion_lon": 0.0, "lat": 38.96132166666666, "bike_id": "b79aff486ee892e288b2025ead6baf3a", "type": "electric_scooter", "is_reserved": 0, "lon": -77.02792616666666}, {"fusion_lat": 0.0, "name": "6fad799012ec632b947d2a74d11f2763", "is_disabled": 0, "rental_uris": {"android": "https://dc.lft.to/lastmile_qr_scan", "ios": "https://dc.lft.to/lastmile_qr_scan"}, "fusion_lon": 0.0, "lat": 38.913346833333335, "bike_id": "6fad799012ec632b947d2a74d11f2763", "type": "electric_scooter", "is_reserved": 0, "lon": -77.04272083333333}, {"fusion_lat": 0.0, "name": "9e7ca182115c2c6da6a471bcec662706", "is_disabled": 0, "rental_uris": {"android": "https://dc.lft.to/lastmile_qr_scan", "ios": "https://dc.lft.to/lastmile_qr_scan"}, "fusion_lon": 0.0, "lat": 38.90270533333333, "bike_id": "9e7ca182115c2c6da6a471bcec662706", "type": "electric_scooter", "is_reserved": 0, "lon": -77.0296555}, {"fusion_lat": 0.0, "name": "0dee06510ce2f311b8b1c969d715685e", "is_disabled": 0, "rental_uris": {"android": "https://dc.lft.to/lastmile_qr_scan", "ios": "https://dc.lft.to/lastmile_qr_scan"}, "fusion_lon": 0.0, "lat": 38.93515083333333, "bike_id": "0dee06510ce2f311b8b1c969d715685e", "type": "electric_scooter", "is_reserved": 0, "lon": -77.03349866666667}, {"fusion_lat": 0.0, "name": "50e6a0e6a0d3409c0f50ee2925a6ca15", "is_disabled": 0, "rental_uris": {"android": "https://dc.lft.to/lastmile_qr_scan", "ios": "https://dc.lft.to/lastmile_qr_scan"}, "fusion_lon": 0.0, "lat": 38.919704, "bike_id": "50e6a0e6a0d3409c0f50ee2925a6ca15", "type": "electric_scooter", "is_reserved": 0, "lon": -77.070995}, {"fusion_lat": 0.0, "name": "ff37e4a63354075c44aad66684207cd2", "is_disabled": 0, "rental_uris": {"android": "https://dc.lft.to/lastmile_qr_scan", "ios": "https://dc.lft.to/lastmile_qr_scan"}, "fusion_lon": 0.0, "lat": 38.9040415, "bike_id": "ff37e4a63354075c44aad66684207cd2", "type": "electric_scooter", "is_reserved": 0, "lon": -77.050225}, {"fusion_lat": 0.0, "name": "b243c038c95cb06480c2fd84b600c7c3", "is_disabled": 0, "rental_uris": {"android": "https://dc.lft.to/lastmile_qr_scan", "ios": "https://dc.lft.to/lastmile_qr_scan"}, "fusion_lon": 0.0, "lat": 38.9181865, "bike_id": "b243c038c95cb06480c2fd84b600c7c3", "type": "electric_scooter", "is_reserved": 0, "lon": -77.04524966666666}, {"fusion_lat": 0.0, "name": "ce8a3ec7e45ccefffec3d33c26de03b6", "is_disabled": 0, "rental_uris": {"android": "https://dc.lft.to/lastmile_qr_scan", "ios": "https://dc.lft.to/lastmile_qr_scan"}, "fusion_lon": 0.0, "lat": 38.93699133333333, "bike_id": "ce8a3ec7e45ccefffec3d33c26de03b6", "type": "electric_scooter", "is_reserved": 0, "lon": -77.06102166666666}, {"fusion_lat": 0.0, "name": "a1461060645179f655049598f9978f46", "is_disabled": 0, "rental_uris": {"android": "https://dc.lft.to/lastmile_qr_scan", "ios": "https://dc.lft.to/lastmile_qr_scan"}, "fusion_lon": 0.0, "lat": 38.92027616666667, "bike_id": "a1461060645179f655049598f9978f46", "type": "electric_scooter", "is_reserved": 0, "lon": -77.017624}, {"fusion_lat": 0.0, "name": "e4593347d0e27889750e9c3887b0253b", "is_disabled": 0, "rental_uris": {"android": "https://dc.lft.to/lastmile_qr_scan", "ios": "https://dc.lft.to/lastmile_qr_scan"}, "fusion_lon": 0.0, "lat": 38.920736833333336, "bike_id": "e4593347d0e27889750e9c3887b0253b", "type": "electric_scooter", "is_reserved": 0, "lon": -77.02392916666666}, {"fusion_lat": 0.0, "name": "7c6e356059ccbaf2aa60a815818a6930", "is_disabled": 0, "rental_uris": {"android": "https://dc.lft.to/lastmile_qr_scan", "ios": "https://dc.lft.to/lastmile_qr_scan"}, "fusion_lon": 0.0, "lat": 38.89724566666666, "bike_id": "7c6e356059ccbaf2aa60a815818a6930", "type": "electric_scooter", "is_reserved": 0, "lon": -76.9951475}, {"fusion_lat": 0.0, "name": "4068123a9cf930a166bf57c0ebad3b72", "is_disabled": 0, "rental_uris": {"android": "https://dc.lft.to/lastmile_qr_scan", "ios": "https://dc.lft.to/lastmile_qr_scan"}, "fusion_lon": 0.0, "lat": 38.925782166666664, "bike_id": "4068123a9cf930a166bf57c0ebad3b72", "type": "electric_scooter", "is_reserved": 0, "lon": -77.0276005}, {"fusion_lat": 0.0, "name": "e0d120c6a86e208146ad5378c8d1ac66", "is_disabled": 0, "rental_uris": {"android": "https://dc.lft.to/lastmile_qr_scan", "ios": "https://dc.lft.to/lastmile_qr_scan"}, "fusion_lon": 0.0, "lat": 38.8844235, "bike_id": "e0d120c6a86e208146ad5378c8d1ac66", "type": "electric_scooter", "is_reserved": 0, "lon": -76.98591383333333}, {"fusion_lat": 0.0, "name": "be0d7a51a343a8412e486c3d4aeb8e55", "is_disabled": 0, "rental_uris": {"android": "https://dc.lft.to/lastmile_qr_scan", "ios": "https://dc.lft.to/lastmile_qr_scan"}, "fusion_lon": 0.0, "lat": 38.89873683333333, "bike_id": "be0d7a51a343a8412e486c3d4aeb8e55", "type": "electric_scooter", "is_reserved": 0, "lon": -76.9318845}, {"fusion_lat": 0.0, "name": "c92d0613742a3fdf730234c55b1c6735", "is_disabled": 0, "rental_uris": {"android": "https://dc.lft.to/lastmile_qr_scan", "ios": "https://dc.lft.to/lastmile_qr_scan"}, "fusion_lon": 0.0, "lat": 38.922555833333334, "bike_id": "c92d0613742a3fdf730234c55b1c6735", "type": "electric_scooter", "is_reserved": 0, "lon": -77.03519466666667}, {"fusion_lat": 0.0, "name": "03b3e8e40b960756c3539e15a1399e7b", "is_disabled": 0, "rental_uris": {"android": "https://dc.lft.to/lastmile_qr_scan", "ios": "https://dc.lft.to/lastmile_qr_scan"}, "fusion_lon": 0.0, "lat": 38.96221366666666, "bike_id": "03b3e8e40b960756c3539e15a1399e7b", "type": "electric_bike", "is_reserved": 0, "lon": -77.02633}, {"fusion_lat": 0.0, "name": "b74e1d80d72a2c9288aa7cc16913acf0", "is_disabled": 0, "rental_uris": {"android": "https://dc.lft.to/lastmile_qr_scan", "ios": "https://dc.lft.to/lastmile_qr_scan"}, "fusion_lon": 0.0, "lat": 38.917066166666665, "bike_id": "b74e1d80d72a2c9288aa7cc16913acf0", "type": "electric_scooter", "is_reserved": 0, "lon": -77.038638}, {"fusion_lat": 0.0, "name": "2538077c3759cda3c3e649620723360b", "is_disabled": 0, "rental_uris": {"android": "https://dc.lft.to/lastmile_qr_scan", "ios": "https://dc.lft.to/lastmile_qr_scan"}, "fusion_lon": 0.0, "lat": 38.87813633333333, "bike_id": "2538077c3759cda3c3e649620723360b", "type": "electric_scooter", "is_reserved": 0, "lon": -77.013207}, {"fusion_lat": 0.0, "name": "51feaa6d0006db8d4f1a736321014d93", "is_disabled": 0, "rental_uris": {"android": "https://dc.lft.to/lastmile_qr_scan", "ios": "https://dc.lft.to/lastmile_qr_scan"}, "fusion_lon": 0.0, "lat": 38.932941666666665, "bike_id": "51feaa6d0006db8d4f1a736321014d93", "type": "electric_scooter", "is_reserved": 0, "lon": -77.02799516666667}, {"fusion_lat": 0.0, "name": "aa6bfd52bf7c22b34789ff0f2112a9c8", "is_disabled": 0, "rental_uris": {"android": "https://dc.lft.to/lastmile_qr_scan", "ios": "https://dc.lft.to/lastmile_qr_scan"}, "fusion_lon": 0.0, "lat": 38.933426, "bike_id": "aa6bfd52bf7c22b34789ff0f2112a9c8", "type": "electric_scooter", "is_reserved": 0, "lon": -77.02441816666666}, {"fusion_lat": 0.0, "name": "8cd0a30ff7ce3de34c720d4f8b4eccf7", "is_disabled": 0, "rental_uris": {"android": "https://dc.lft.to/lastmile_qr_scan", "ios": "https://dc.lft.to/lastmile_qr_scan"}, "fusion_lon": 0.0, "lat": 38.882314, "bike_id": "8cd0a30ff7ce3de34c720d4f8b4eccf7", "type": "electric_scooter", "is_reserved": 0, "lon": -77.0261515}, {"fusion_lat": 0.0, "name": "e545f467edae9def9d5e2be708e86264", "is_disabled": 0, "rental_uris": {"android": "https://dc.lft.to/lastmile_qr_scan", "ios": "https://dc.lft.to/lastmile_qr_scan"}, "fusion_lon": 0.0, "lat": 38.91421, "bike_id": "e545f467edae9def9d5e2be708e86264", "type": "electric_scooter", "is_reserved": 0, "lon": -77.064173}, {"fusion_lat": 0.0, "name": "a090de549a2c24f240cc4f9136bef542", "is_disabled": 0, "rental_uris": {"android": "https://dc.lft.to/lastmile_qr_scan", "ios": "https://dc.lft.to/lastmile_qr_scan"}, "fusion_lon": 0.0, "lat": 38.92914616666667, "bike_id": "a090de549a2c24f240cc4f9136bef542", "type": "electric_scooter", "is_reserved": 0, "lon": -77.03756}, {"fusion_lat": 0.0, "name": "9a741e0440153309411c34b83acd0181", "is_disabled": 0, "rental_uris": {"android": "https://dc.lft.to/lastmile_qr_scan", "ios": "https://dc.lft.to/lastmile_qr_scan"}, "fusion_lon": 0.0, "lat": 38.839274, "bike_id": "9a741e0440153309411c34b83acd0181", "type": "electric_bike", "is_reserved": 0, "lon": -77.07902183333333}, {"fusion_lat": 0.0, "name": "37046732eeb570878a001d6dae483423", "is_disabled": 0, "rental_uris": {"android": "https://dc.lft.to/lastmile_qr_scan", "ios": "https://dc.lft.to/lastmile_qr_scan"}, "fusion_lon": 0.0, "lat": 38.90577566666666, "bike_id": "37046732eeb570878a001d6dae483423", "type": "electric_scooter", "is_reserved": 0, "lon": -77.008907}, {"fusion_lat": 0.0, "name": "8ad84a5e5098cb30e0d396f3b2363b91", "is_disabled": 0, "rental_uris": {"android": "https://dc.lft.to/lastmile_qr_scan", "ios": "https://dc.lft.to/lastmile_qr_scan"}, "fusion_lon": 0.0, "lat": 38.9413055, "bike_id": "8ad84a5e5098cb30e0d396f3b2363b91", "type": "electric_scooter", "is_reserved": 0, "lon": -77.00611883333333}, {"fusion_lat": 0.0, "name": "f4c042bfa18af16ba37b05757d401936", "is_disabled": 0, "rental_uris": {"android": "https://dc.lft.to/lastmile_qr_scan", "ios": "https://dc.lft.to/lastmile_qr_scan"}, "fusion_lon": 0.0, "lat": 38.939640833333335, "bike_id": "f4c042bfa18af16ba37b05757d401936", "type": "electric_bike", "is_reserved": 0, "lon": -76.993828}, {"fusion_lat": 0.0, "name": "6e74ab5b4a9eeeb52e6205d332ba63c1", "is_disabled": 0, "rental_uris": {"android": "https://dc.lft.to/lastmile_qr_scan", "ios": "https://dc.lft.to/lastmile_qr_scan"}, "fusion_lon": 0.0, "lat": 38.90574516666667, "bike_id": "6e74ab5b4a9eeeb52e6205d332ba63c1", "type": "electric_scooter", "is_reserved": 0, "lon": -77.0220115}, {"fusion_lat": 0.0, "name": "f3b50e924840933a970ccac29a19af3b", "is_disabled": 0, "rental_uris": {"android": "https://dc.lft.to/lastmile_qr_scan", "ios": "https://dc.lft.to/lastmile_qr_scan"}, "fusion_lon": 0.0, "lat": 38.933605, "bike_id": "f3b50e924840933a970ccac29a19af3b", "type": "electric_scooter", "is_reserved": 0, "lon": -77.03887383333333}, {"fusion_lat": 0.0, "name": "47ce3aa000cecf9809f83c5756ebc83b", "is_disabled": 0, "rental_uris": {"android": "https://dc.lft.to/lastmile_qr_scan", "ios": "https://dc.lft.to/lastmile_qr_scan"}, "fusion_lon": 0.0, "lat": 38.91683783333333, "bike_id": "47ce3aa000cecf9809f83c5756ebc83b", "type": "electric_scooter", "is_reserved": 0, "lon": -77.03211233333333}, {"fusion_lat": 0.0, "name": "708c76441257827fa91880e84f748bbb", "is_disabled": 0, "rental_uris": {"android": "https://dc.lft.to/lastmile_qr_scan", "ios": "https://dc.lft.to/lastmile_qr_scan"}, "fusion_lon": 0.0, "lat": 38.89732, "bike_id": "708c76441257827fa91880e84f748bbb", "type": "electric_scooter", "is_reserved": 0, "lon": -77.03254016666666}, {"fusion_lat": 0.0, "name": "59cecfdd7f02baf30807c4800c54b84d", "is_disabled": 0, "rental_uris": {"android": "https://dc.lft.to/lastmile_qr_scan", "ios": "https://dc.lft.to/lastmile_qr_scan"}, "fusion_lon": 0.0, "lat": 38.926914333333336, "bike_id": "59cecfdd7f02baf30807c4800c54b84d", "type": "electric_scooter", "is_reserved": 0, "lon": -77.02783866666667}, {"fusion_lat": 0.0, "name": "5bbd412eaea092eac55bac4bb5a12a10", "is_disabled": 0, "rental_uris": {"android": "https://dc.lft.to/lastmile_qr_scan", "ios": "https://dc.lft.to/lastmile_qr_scan"}, "fusion_lon": 0.0, "lat": 38.90353783333333, "bike_id": "5bbd412eaea092eac55bac4bb5a12a10", "type": "electric_scooter", "is_reserved": 0, "lon": -76.97239933333333}, {"fusion_lat": 0.0, "name": "ac0d3aa8d983091274cae6bcfd27c388", "is_disabled": 0, "rental_uris": {"android": "https://dc.lft.to/lastmile_qr_scan", "ios": "https://dc.lft.to/lastmile_qr_scan"}, "fusion_lon": 0.0, "lat": 38.9096745, "bike_id": "ac0d3aa8d983091274cae6bcfd27c388", "type": "electric_scooter", "is_reserved": 0, "lon": -77.00907266666667}, {"fusion_lat": 0.0, "name": "f9a06fbf6d85b57c5bc7c1b78a0aeabf", "is_disabled": 0, "rental_uris": {"android": "https://dc.lft.to/lastmile_qr_scan", "ios": "https://dc.lft.to/lastmile_qr_scan"}, "fusion_lon": 0.0, "lat": 38.901075166666665, "bike_id": "f9a06fbf6d85b57c5bc7c1b78a0aeabf", "type": "electric_scooter", "is_reserved": 0, "lon": -77.05153783333333}, {"fusion_lat": 0.0, "name": "f9b3318e672ee7bf8b1bf79c6689af53", "is_disabled": 0, "rental_uris": {"android": "https://dc.lft.to/lastmile_qr_scan", "ios": "https://dc.lft.to/lastmile_qr_scan"}, "fusion_lon": 0.0, "lat": 38.92456833333333, "bike_id": "f9b3318e672ee7bf8b1bf79c6689af53", "type": "electric_scooter", "is_reserved": 0, "lon": -76.999154}, {"fusion_lat": 0.0, "name": "34456b9ae7bbd19ff13b2792a4b2ebf2", "is_disabled": 0, "rental_uris": {"android": "https://dc.lft.to/lastmile_qr_scan", "ios": "https://dc.lft.to/lastmile_qr_scan"}, "fusion_lon": 0.0, "lat": 38.892179, "bike_id": "34456b9ae7bbd19ff13b2792a4b2ebf2", "type": "electric_scooter", "is_reserved": 0, "lon": -77.02360716666666}, {"fusion_lat": 0.0, "name": "567675fca25d58d9b68c635dac5a2515", "is_disabled": 0, "rental_uris": {"android": "https://dc.lft.to/lastmile_qr_scan", "ios": "https://dc.lft.to/lastmile_qr_scan"}, "fusion_lon": 0.0, "lat": 38.91813883333333, "bike_id": "567675fca25d58d9b68c635dac5a2515", "type": "electric_scooter", "is_reserved": 0, "lon": -77.00378816666667}, {"fusion_lat": 0.0, "name": "1dc8408b213e5603cbb69c9168fa9be6", "is_disabled": 0, "rental_uris": {"android": "https://dc.lft.to/lastmile_qr_scan", "ios": "https://dc.lft.to/lastmile_qr_scan"}, "fusion_lon": 0.0, "lat": 38.9286335, "bike_id": "1dc8408b213e5603cbb69c9168fa9be6", "type": "electric_scooter", "is_reserved": 0, "lon": -77.05657666666667}, {"fusion_lat": 0.0, "name": "a521d9325e04769b2eeb708b2e68b78f", "is_disabled": 0, "rental_uris": {"android": "https://dc.lft.to/lastmile_qr_scan", "ios": "https://dc.lft.to/lastmile_qr_scan"}, "fusion_lon": 0.0, "lat": 38.914032666666664, "bike_id": "a521d9325e04769b2eeb708b2e68b78f", "type": "electric_scooter", "is_reserved": 0, "lon": -77.032177}, {"fusion_lat": 0.0, "name": "b295154f2ffa372af380ea9e8dbde5c0", "is_disabled": 0, "rental_uris": {"android": "https://dc.lft.to/lastmile_qr_scan", "ios": "https://dc.lft.to/lastmile_qr_scan"}, "fusion_lon": 0.0, "lat": 38.89738533333333, "bike_id": "b295154f2ffa372af380ea9e8dbde5c0", "type": "electric_scooter", "is_reserved": 0, "lon": -77.01968066666667}, {"fusion_lat": 0.0, "name": "e03014696311c9bca7eb0596a3eb2887", "is_disabled": 0, "rental_uris": {"android": "https://dc.lft.to/lastmile_qr_scan", "ios": "https://dc.lft.to/lastmile_qr_scan"}, "fusion_lon": 0.0, "lat": 38.8844985, "bike_id": "e03014696311c9bca7eb0596a3eb2887", "type": "electric_scooter", "is_reserved": 0, "lon": -76.99388683333333}, {"fusion_lat": 0.0, "name": "a5ea210d4ebc4174c097aa1d2abb62c8", "is_disabled": 0, "rental_uris": {"android": "https://dc.lft.to/lastmile_qr_scan", "ios": "https://dc.lft.to/lastmile_qr_scan"}, "fusion_lon": 0.0, "lat": 38.911129833333334, "bike_id": "a5ea210d4ebc4174c097aa1d2abb62c8", "type": "electric_scooter", "is_reserved": 0, "lon": -77.02082683333333}, {"fusion_lat": 0.0, "name": "1ad89df1233e1d009ea841eb3c8b8769", "is_disabled": 0, "rental_uris": {"android": "https://dc.lft.to/lastmile_qr_scan", "ios": "https://dc.lft.to/lastmile_qr_scan"}, "fusion_lon": 0.0, "lat": 38.8067235, "bike_id": "1ad89df1233e1d009ea841eb3c8b8769", "type": "electric_bike", "is_reserved": 0, "lon": -77.06913816666666}, {"fusion_lat": 0.0, "name": "7c1a8dcbb179318790ee53086e23ff8a", "is_disabled": 0, "rental_uris": {"android": "https://dc.lft.to/lastmile_qr_scan", "ios": "https://dc.lft.to/lastmile_qr_scan"}, "fusion_lon": 0.0, "lat": 38.89602716666667, "bike_id": "7c1a8dcbb179318790ee53086e23ff8a", "type": "electric_scooter", "is_reserved": 0, "lon": -77.009289}, {"fusion_lat": 0.0, "name": "244bcc35fb38b2c352d077673c38f4da", "is_disabled": 0, "rental_uris": {"android": "https://dc.lft.to/lastmile_qr_scan", "ios": "https://dc.lft.to/lastmile_qr_scan"}, "fusion_lon": 0.0, "lat": 38.9085725, "bike_id": "244bcc35fb38b2c352d077673c38f4da", "type": "electric_scooter", "is_reserved": 0, "lon": -77.04734966666666}, {"fusion_lat": 0.0, "name": "22cf8947ef91b78978373a4554b471a9", "is_disabled": 0, "rental_uris": {"android": "https://dc.lft.to/lastmile_qr_scan", "ios": "https://dc.lft.to/lastmile_qr_scan"}, "fusion_lon": 0.0, "lat": 38.907077, "bike_id": "22cf8947ef91b78978373a4554b471a9", "type": "electric_scooter", "is_reserved": 0, "lon": -77.05047883333333}, {"fusion_lat": 0.0, "name": "c0319c6befbda4439b881c9adc0d2601", "is_disabled": 0, "rental_uris": {"android": "https://dc.lft.to/lastmile_qr_scan", "ios": "https://dc.lft.to/lastmile_qr_scan"}, "fusion_lon": 0.0, "lat": 38.900084666666665, "bike_id": "c0319c6befbda4439b881c9adc0d2601", "type": "electric_scooter", "is_reserved": 0, "lon": -77.0125075}, {"fusion_lat": 0.0, "name": "ab334acd1a7ca61c03f2dde96e5f1bda", "is_disabled": 0, "rental_uris": {"android": "https://dc.lft.to/lastmile_qr_scan", "ios": "https://dc.lft.to/lastmile_qr_scan"}, "fusion_lon": 0.0, "lat": 38.93651083333334, "bike_id": "ab334acd1a7ca61c03f2dde96e5f1bda", "type": "electric_scooter", "is_reserved": 0, "lon": -77.030508}, {"fusion_lat": 0.0, "name": "6f44333737b5ef05daefdcccef0bc107", "is_disabled": 0, "rental_uris": {"android": "https://dc.lft.to/lastmile_qr_scan", "ios": "https://dc.lft.to/lastmile_qr_scan"}, "fusion_lon": 0.0, "lat": 38.942251666666664, "bike_id": "6f44333737b5ef05daefdcccef0bc107", "type": "electric_scooter", "is_reserved": 0, "lon": -77.01386416666666}, {"fusion_lat": 0.0, "name": "0c4535e679f1016924ebf056bd3c1d29", "is_disabled": 0, "rental_uris": {"android": "https://dc.lft.to/lastmile_qr_scan", "ios": "https://dc.lft.to/lastmile_qr_scan"}, "fusion_lon": 0.0, "lat": 38.91767683333333, "bike_id": "0c4535e679f1016924ebf056bd3c1d29", "type": "electric_scooter", "is_reserved": 0, "lon": -77.0149755}, {"fusion_lat": 0.0, "name": "4d24896885a0301747cb3ac7ad1f1ffa", "is_disabled": 0, "rental_uris": {"android": "https://dc.lft.to/lastmile_qr_scan", "ios": "https://dc.lft.to/lastmile_qr_scan"}, "fusion_lon": 0.0, "lat": 38.897419, "bike_id": "4d24896885a0301747cb3ac7ad1f1ffa", "type": "electric_scooter", "is_reserved": 0, "lon": -77.03340416666667}, {"fusion_lat": 0.0, "name": "4802b360eb3691e1393948aea38d0a59", "is_disabled": 0, "rental_uris": {"android": "https://dc.lft.to/lastmile_qr_scan", "ios": "https://dc.lft.to/lastmile_qr_scan"}, "fusion_lon": 0.0, "lat": 38.92079433333333, "bike_id": "4802b360eb3691e1393948aea38d0a59", "type": "electric_bike", "is_reserved": 0, "lon": -76.98943066666666}, {"fusion_lat": 0.0, "name": "e9035b183dea3b0d808c65718d913f3c", "is_disabled": 0, "rental_uris": {"android": "https://dc.lft.to/lastmile_qr_scan", "ios": "https://dc.lft.to/lastmile_qr_scan"}, "fusion_lon": 0.0, "lat": 38.916698, "bike_id": "e9035b183dea3b0d808c65718d913f3c", "type": "electric_scooter", "is_reserved": 0, "lon": -77.02955866666667}, {"fusion_lat": 0.0, "name": "f296d8b1cc6e2a7ebab052288f5754d3", "is_disabled": 0, "rental_uris": {"android": "https://dc.lft.to/lastmile_qr_scan", "ios": "https://dc.lft.to/lastmile_qr_scan"}, "fusion_lon": 0.0, "lat": 38.893307, "bike_id": "f296d8b1cc6e2a7ebab052288f5754d3", "type": "electric_scooter", "is_reserved": 0, "lon": -77.02226}, {"fusion_lat": 0.0, "name": "516e63760cce60f683eb6f6e090b9f5b", "is_disabled": 0, "rental_uris": {"android": "https://dc.lft.to/lastmile_qr_scan", "ios": "https://dc.lft.to/lastmile_qr_scan"}, "fusion_lon": 0.0, "lat": 38.885279833333335, "bike_id": "516e63760cce60f683eb6f6e090b9f5b", "type": "electric_scooter", "is_reserved": 0, "lon": -77.01539333333334}, {"fusion_lat": 0.0, "name": "53e1ef7eac3fcee009e0f508400078d8", "is_disabled": 0, "rental_uris": {"android": "https://dc.lft.to/lastmile_qr_scan", "ios": "https://dc.lft.to/lastmile_qr_scan"}, "fusion_lon": 0.0, "lat": 38.887245666666665, "bike_id": "53e1ef7eac3fcee009e0f508400078d8", "type": "electric_scooter", "is_reserved": 0, "lon": -76.98357466666667}, {"fusion_lat": 0.0, "name": "f1824f6e6dff8730b064e27064cc8e0a", "is_disabled": 0, "rental_uris": {"android": "https://dc.lft.to/lastmile_qr_scan", "ios": "https://dc.lft.to/lastmile_qr_scan"}, "fusion_lon": 0.0, "lat": 38.899609, "bike_id": "f1824f6e6dff8730b064e27064cc8e0a", "type": "electric_scooter", "is_reserved": 0, "lon": -76.9871745}, {"fusion_lat": 0.0, "name": "1051394c7a151e591f11bf5acb0a309f", "is_disabled": 0, "rental_uris": {"android": "https://dc.lft.to/lastmile_qr_scan", "ios": "https://dc.lft.to/lastmile_qr_scan"}, "fusion_lon": 0.0, "lat": 38.927897, "bike_id": "1051394c7a151e591f11bf5acb0a309f", "type": "electric_scooter", "is_reserved": 0, "lon": -77.02722216666666}, {"fusion_lat": 0.0, "name": "8e26cfbca2ae434370d0cabf5f4e006f", "is_disabled": 0, "rental_uris": {"android": "https://dc.lft.to/lastmile_qr_scan", "ios": "https://dc.lft.to/lastmile_qr_scan"}, "fusion_lon": 0.0, "lat": 38.89088016666667, "bike_id": "8e26cfbca2ae434370d0cabf5f4e006f", "type": "electric_scooter", "is_reserved": 0, "lon": -76.9193015}, {"fusion_lat": 0.0, "name": "71d5959b91b0cf0d8f42e70c1f5aba9a", "is_disabled": 0, "rental_uris": {"android": "https://dc.lft.to/lastmile_qr_scan", "ios": "https://dc.lft.to/lastmile_qr_scan"}, "fusion_lon": 0.0, "lat": 38.918383, "bike_id": "71d5959b91b0cf0d8f42e70c1f5aba9a", "type": "electric_scooter", "is_reserved": 0, "lon": -77.02428616666667}, {"fusion_lat": 0.0, "name": "85b4415d49a1d5c499d1addc2c219aab", "is_disabled": 0, "rental_uris": {"android": "https://dc.lft.to/lastmile_qr_scan", "ios": "https://dc.lft.to/lastmile_qr_scan"}, "fusion_lon": 0.0, "lat": 38.94431016666667, "bike_id": "85b4415d49a1d5c499d1addc2c219aab", "type": "electric_bike", "is_reserved": 0, "lon": -77.02603966666666}, {"fusion_lat": 0.0, "name": "64e3150d47a51a3c15ed58abe198c4ac", "is_disabled": 0, "rental_uris": {"android": "https://dc.lft.to/lastmile_qr_scan", "ios": "https://dc.lft.to/lastmile_qr_scan"}, "fusion_lon": 0.0, "lat": 38.93597, "bike_id": "64e3150d47a51a3c15ed58abe198c4ac", "type": "electric_scooter", "is_reserved": 0, "lon": -77.023055}, {"fusion_lat": 0.0, "name": "7b8dd624c14ee7e3d9f1be1e34e11fbd", "is_disabled": 0, "rental_uris": {"android": "https://dc.lft.to/lastmile_qr_scan", "ios": "https://dc.lft.to/lastmile_qr_scan"}, "fusion_lon": 0.0, "lat": 38.932399333333336, "bike_id": "7b8dd624c14ee7e3d9f1be1e34e11fbd", "type": "electric_scooter", "is_reserved": 0, "lon": -77.0343515}, {"fusion_lat": 0.0, "name": "387d9dc298e0174ee812d5661a05938a", "is_disabled": 0, "rental_uris": {"android": "https://dc.lft.to/lastmile_qr_scan", "ios": "https://dc.lft.to/lastmile_qr_scan"}, "fusion_lon": 0.0, "lat": 38.918052, "bike_id": "387d9dc298e0174ee812d5661a05938a", "type": "electric_scooter", "is_reserved": 0, "lon": -77.03302266666667}, {"fusion_lat": 0.0, "name": "5f8e40106d9198f13200dbfe6d578b31", "is_disabled": 0, "rental_uris": {"android": "https://dc.lft.to/lastmile_qr_scan", "ios": "https://dc.lft.to/lastmile_qr_scan"}, "fusion_lon": 0.0, "lat": 38.921159333333335, "bike_id": "5f8e40106d9198f13200dbfe6d578b31", "type": "electric_scooter", "is_reserved": 0, "lon": -77.0469985}, {"fusion_lat": 0.0, "name": "055c670f079203510f2519c9e65e14a6", "is_disabled": 0, "rental_uris": {"android": "https://dc.lft.to/lastmile_qr_scan", "ios": "https://dc.lft.to/lastmile_qr_scan"}, "fusion_lon": 0.0, "lat": 38.89463466666667, "bike_id": "055c670f079203510f2519c9e65e14a6", "type": "electric_scooter", "is_reserved": 0, "lon": -77.02172866666666}, {"fusion_lat": 0.0, "name": "5fb111d2a19c9657802d8f7c3e4695fe", "is_disabled": 0, "rental_uris": {"android": "https://dc.lft.to/lastmile_qr_scan", "ios": "https://dc.lft.to/lastmile_qr_scan"}, "fusion_lon": 0.0, "lat": 38.8857735, "bike_id": "5fb111d2a19c9657802d8f7c3e4695fe", "type": "electric_scooter", "is_reserved": 0, "lon": -77.0121095}, {"fusion_lat": 0.0, "name": "dbb1abb968d501b2ccba869b8a9a849c", "is_disabled": 0, "rental_uris": {"android": "https://dc.lft.to/lastmile_qr_scan", "ios": "https://dc.lft.to/lastmile_qr_scan"}, "fusion_lon": 0.0, "lat": 38.90131016666667, "bike_id": "dbb1abb968d501b2ccba869b8a9a849c", "type": "electric_scooter", "is_reserved": 0, "lon": -77.02186233333333}, {"fusion_lat": 0.0, "name": "57573eb6e54d18fe4e5ab59f46f93f3a", "is_disabled": 0, "rental_uris": {"android": "https://dc.lft.to/lastmile_qr_scan", "ios": "https://dc.lft.to/lastmile_qr_scan"}, "fusion_lon": 0.0, "lat": 38.9076355, "bike_id": "57573eb6e54d18fe4e5ab59f46f93f3a", "type": "electric_scooter", "is_reserved": 0, "lon": -77.0318885}, {"fusion_lat": 0.0, "name": "09afb55254792b0b0f36eb1ff186a88d", "is_disabled": 0, "rental_uris": {"android": "https://dc.lft.to/lastmile_qr_scan", "ios": "https://dc.lft.to/lastmile_qr_scan"}, "fusion_lon": 0.0, "lat": 38.90602883333333, "bike_id": "09afb55254792b0b0f36eb1ff186a88d", "type": "electric_scooter", "is_reserved": 0, "lon": -77.0648435}, {"fusion_lat": 0.0, "name": "5afd90b5559177576d77fc7d3a458030", "is_disabled": 0, "rental_uris": {"android": "https://dc.lft.to/lastmile_qr_scan", "ios": "https://dc.lft.to/lastmile_qr_scan"}, "fusion_lon": 0.0, "lat": 38.790213333333334, "bike_id": "5afd90b5559177576d77fc7d3a458030", "type": "electric_bike", "is_reserved": 0, "lon": -77.01545366666667}, {"fusion_lat": 0.0, "name": "c309bcb2eff6381b1ac276d9b4d9c220", "is_disabled": 0, "rental_uris": {"android": "https://dc.lft.to/lastmile_qr_scan", "ios": "https://dc.lft.to/lastmile_qr_scan"}, "fusion_lon": 0.0, "lat": 38.8851095, "bike_id": "c309bcb2eff6381b1ac276d9b4d9c220", "type": "electric_scooter", "is_reserved": 0, "lon": -77.02102783333333}, {"fusion_lat": 0.0, "name": "00d64c63643ada8b75bc2dbefb17c59a", "is_disabled": 0, "rental_uris": {"android": "https://dc.lft.to/lastmile_qr_scan", "ios": "https://dc.lft.to/lastmile_qr_scan"}, "fusion_lon": 0.0, "lat": 38.92664516666667, "bike_id": "00d64c63643ada8b75bc2dbefb17c59a", "type": "electric_scooter", "is_reserved": 0, "lon": -77.03050916666666}, {"fusion_lat": 0.0, "name": "c36177e951f397f77a90bbf124f68a19", "is_disabled": 0, "rental_uris": {"android": "https://dc.lft.to/lastmile_qr_scan", "ios": "https://dc.lft.to/lastmile_qr_scan"}, "fusion_lon": 0.0, "lat": 38.91316833333333, "bike_id": "c36177e951f397f77a90bbf124f68a19", "type": "electric_scooter", "is_reserved": 0, "lon": -77.0212505}, {"fusion_lat": 0.0, "name": "c55a49edbf6ca4916344432832bca543", "is_disabled": 0, "rental_uris": {"android": "https://dc.lft.to/lastmile_qr_scan", "ios": "https://dc.lft.to/lastmile_qr_scan"}, "fusion_lon": 0.0, "lat": 38.911207166666664, "bike_id": "c55a49edbf6ca4916344432832bca543", "type": "electric_scooter", "is_reserved": 0, "lon": -77.02203283333333}, {"fusion_lat": 0.0, "name": "7d815cbd99b4b0e3e0cd082591cf858b", "is_disabled": 0, "rental_uris": {"android": "https://dc.lft.to/lastmile_qr_scan", "ios": "https://dc.lft.to/lastmile_qr_scan"}, "fusion_lon": 0.0, "lat": 38.8972825, "bike_id": "7d815cbd99b4b0e3e0cd082591cf858b", "type": "electric_scooter", "is_reserved": 0, "lon": -77.02254}, {"fusion_lat": 0.0, "name": "00a928bb95cb08d65a8c5496dd0b2bbc", "is_disabled": 0, "rental_uris": {"android": "https://dc.lft.to/lastmile_qr_scan", "ios": "https://dc.lft.to/lastmile_qr_scan"}, "fusion_lon": 0.0, "lat": 38.911128833333336, "bike_id": "00a928bb95cb08d65a8c5496dd0b2bbc", "type": "electric_scooter", "is_reserved": 0, "lon": -76.99766233333334}, {"fusion_lat": 0.0, "name": "d2edd80676865833315ce16af7b62cfc", "is_disabled": 0, "rental_uris": {"android": "https://dc.lft.to/lastmile_qr_scan", "ios": "https://dc.lft.to/lastmile_qr_scan"}, "fusion_lon": 0.0, "lat": 38.905243666666664, "bike_id": "d2edd80676865833315ce16af7b62cfc", "type": "electric_scooter", "is_reserved": 0, "lon": -77.06777666666666}, {"fusion_lat": 0.0, "name": "c2158b5688f0f154c8c517847a6e719b", "is_disabled": 0, "rental_uris": {"android": "https://dc.lft.to/lastmile_qr_scan", "ios": "https://dc.lft.to/lastmile_qr_scan"}, "fusion_lon": 0.0, "lat": 38.92284766666667, "bike_id": "c2158b5688f0f154c8c517847a6e719b", "type": "electric_scooter", "is_reserved": 0, "lon": -77.03670383333333}, {"fusion_lat": 0.0, "name": "0d916c55fbb3e84ced96b3b3837f9da8", "is_disabled": 0, "rental_uris": {"android": "https://dc.lft.to/lastmile_qr_scan", "ios": "https://dc.lft.to/lastmile_qr_scan"}, "fusion_lon": 0.0, "lat": 38.88488783333333, "bike_id": "0d916c55fbb3e84ced96b3b3837f9da8", "type": "electric_scooter", "is_reserved": 0, "lon": -77.0108235}, {"fusion_lat": 0.0, "name": "577f9cae1985299d2e1a3839f6983336", "is_disabled": 0, "rental_uris": {"android": "https://dc.lft.to/lastmile_qr_scan", "ios": "https://dc.lft.to/lastmile_qr_scan"}, "fusion_lon": 0.0, "lat": 38.9159415, "bike_id": "577f9cae1985299d2e1a3839f6983336", "type": "electric_scooter", "is_reserved": 0, "lon": -77.01116516666667}, {"fusion_lat": 0.0, "name": "b9a6ca7e9e7999c2cd435dc8f858066d", "is_disabled": 0, "rental_uris": {"android": "https://dc.lft.to/lastmile_qr_scan", "ios": "https://dc.lft.to/lastmile_qr_scan"}, "fusion_lon": 0.0, "lat": 38.9212995, "bike_id": "b9a6ca7e9e7999c2cd435dc8f858066d", "type": "electric_scooter", "is_reserved": 0, "lon": -77.04590483333334}, {"fusion_lat": 0.0, "name": "a58e5522fad09aff4243af33028131d6", "is_disabled": 0, "rental_uris": {"android": "https://dc.lft.to/lastmile_qr_scan", "ios": "https://dc.lft.to/lastmile_qr_scan"}, "fusion_lon": 0.0, "lat": 38.8884445, "bike_id": "a58e5522fad09aff4243af33028131d6", "type": "electric_scooter", "is_reserved": 0, "lon": -76.92681766666666}, {"fusion_lat": 0.0, "name": "c2c8b24eb2e1e5d40c1ec404a498ac3b", "is_disabled": 0, "rental_uris": {"android": "https://dc.lft.to/lastmile_qr_scan", "ios": "https://dc.lft.to/lastmile_qr_scan"}, "fusion_lon": 0.0, "lat": 38.898912333333335, "bike_id": "c2c8b24eb2e1e5d40c1ec404a498ac3b", "type": "electric_scooter", "is_reserved": 0, "lon": -77.0150145}, {"fusion_lat": 0.0, "name": "ca7cabb97ac33de04c87c15982cdbbf8", "is_disabled": 0, "rental_uris": {"android": "https://dc.lft.to/lastmile_qr_scan", "ios": "https://dc.lft.to/lastmile_qr_scan"}, "fusion_lon": 0.0, "lat": 38.925324833333335, "bike_id": "ca7cabb97ac33de04c87c15982cdbbf8", "type": "electric_scooter", "is_reserved": 0, "lon": -77.03827216666667}, {"fusion_lat": 0.0, "name": "7a62d49c45596cf48c08007cd60148ee", "is_disabled": 0, "rental_uris": {"android": "https://dc.lft.to/lastmile_qr_scan", "ios": "https://dc.lft.to/lastmile_qr_scan"}, "fusion_lon": 0.0, "lat": 38.938671, "bike_id": "7a62d49c45596cf48c08007cd60148ee", "type": "electric_scooter", "is_reserved": 0, "lon": -77.0246895}, {"fusion_lat": 0.0, "name": "424b774b6d7bc7e640d13f2bc380efbf", "is_disabled": 0, "rental_uris": {"android": "https://dc.lft.to/lastmile_qr_scan", "ios": "https://dc.lft.to/lastmile_qr_scan"}, "fusion_lon": 0.0, "lat": 38.897938, "bike_id": "424b774b6d7bc7e640d13f2bc380efbf", "type": "electric_scooter", "is_reserved": 0, "lon": -77.0120235}, {"fusion_lat": 0.0, "name": "b5e6984a81b10f0311ae9854c16c908a", "is_disabled": 0, "rental_uris": {"android": "https://dc.lft.to/lastmile_qr_scan", "ios": "https://dc.lft.to/lastmile_qr_scan"}, "fusion_lon": 0.0, "lat": 38.9527635, "bike_id": "b5e6984a81b10f0311ae9854c16c908a", "type": "electric_scooter", "is_reserved": 0, "lon": -77.068485}, {"fusion_lat": 0.0, "name": "5fcd8c4c058759028224b4ac5c6a0b9d", "is_disabled": 0, "rental_uris": {"android": "https://dc.lft.to/lastmile_qr_scan", "ios": "https://dc.lft.to/lastmile_qr_scan"}, "fusion_lon": 0.0, "lat": 38.90082866666667, "bike_id": "5fcd8c4c058759028224b4ac5c6a0b9d", "type": "electric_scooter", "is_reserved": 0, "lon": -76.9833485}, {"fusion_lat": 0.0, "name": "32d73389702a17f0d01370a1f5e739cd", "is_disabled": 0, "rental_uris": {"android": "https://dc.lft.to/lastmile_qr_scan", "ios": "https://dc.lft.to/lastmile_qr_scan"}, "fusion_lon": 0.0, "lat": 38.910387666666665, "bike_id": "32d73389702a17f0d01370a1f5e739cd", "type": "electric_scooter", "is_reserved": 0, "lon": -77.00827733333334}, {"fusion_lat": 0.0, "name": "47fce2a0632854f4f41cd1e82566f0f3", "is_disabled": 0, "rental_uris": {"android": "https://dc.lft.to/lastmile_qr_scan", "ios": "https://dc.lft.to/lastmile_qr_scan"}, "fusion_lon": 0.0, "lat": 38.928930666666666, "bike_id": "47fce2a0632854f4f41cd1e82566f0f3", "type": "electric_bike", "is_reserved": 0, "lon": -77.23177983333333}, {"fusion_lat": 0.0, "name": "989ca442c9c30608977c78a3e07979f1", "is_disabled": 0, "rental_uris": {"android": "https://dc.lft.to/lastmile_qr_scan", "ios": "https://dc.lft.to/lastmile_qr_scan"}, "fusion_lon": 0.0, "lat": 38.915725, "bike_id": "989ca442c9c30608977c78a3e07979f1", "type": "electric_scooter", "is_reserved": 0, "lon": -77.0385895}, {"fusion_lat": 0.0, "name": "268fe68ff7903d5f32fcef266effd3c5", "is_disabled": 0, "rental_uris": {"android": "https://dc.lft.to/lastmile_qr_scan", "ios": "https://dc.lft.to/lastmile_qr_scan"}, "fusion_lon": 0.0, "lat": 38.8569785, "bike_id": "268fe68ff7903d5f32fcef266effd3c5", "type": "electric_scooter", "is_reserved": 0, "lon": -76.9959975}, {"fusion_lat": 0.0, "name": "ee3da5f3828cb38874ee7aed1de635bc", "is_disabled": 0, "rental_uris": {"android": "https://dc.lft.to/lastmile_qr_scan", "ios": "https://dc.lft.to/lastmile_qr_scan"}, "fusion_lon": 0.0, "lat": 38.836036166666666, "bike_id": "ee3da5f3828cb38874ee7aed1de635bc", "type": "electric_bike", "is_reserved": 0, "lon": -77.003801}, {"fusion_lat": 0.0, "name": "0a3134651da4c5ff5d82503bd4225b99", "is_disabled": 0, "rental_uris": {"android": "https://dc.lft.to/lastmile_qr_scan", "ios": "https://dc.lft.to/lastmile_qr_scan"}, "fusion_lon": 0.0, "lat": 38.902583166666666, "bike_id": "0a3134651da4c5ff5d82503bd4225b99", "type": "electric_scooter", "is_reserved": 0, "lon": -77.01676716666667}, {"fusion_lat": 0.0, "name": "1feb0353109c6eb6994b8045602f645c", "is_disabled": 0, "rental_uris": {"android": "https://dc.lft.to/lastmile_qr_scan", "ios": "https://dc.lft.to/lastmile_qr_scan"}, "fusion_lon": 0.0, "lat": 38.92506, "bike_id": "1feb0353109c6eb6994b8045602f645c", "type": "electric_scooter", "is_reserved": 0, "lon": -77.0238685}, {"fusion_lat": 0.0, "name": "f8d2915aec6243a40309e97e5aafc2e2", "is_disabled": 0, "rental_uris": {"android": "https://dc.lft.to/lastmile_qr_scan", "ios": "https://dc.lft.to/lastmile_qr_scan"}, "fusion_lon": 0.0, "lat": 38.913987166666665, "bike_id": "f8d2915aec6243a40309e97e5aafc2e2", "type": "electric_scooter", "is_reserved": 0, "lon": -77.03931283333333}, {"fusion_lat": 0.0, "name": "1f3a73eff5756dec0ecfabd96ef1934e", "is_disabled": 0, "rental_uris": {"android": "https://dc.lft.to/lastmile_qr_scan", "ios": "https://dc.lft.to/lastmile_qr_scan"}, "fusion_lon": 0.0, "lat": 38.90505433333333, "bike_id": "1f3a73eff5756dec0ecfabd96ef1934e", "type": "electric_scooter", "is_reserved": 0, "lon": -77.029542}, {"fusion_lat": 0.0, "name": "de589e3de1dcd626e82f0ea92defb653", "is_disabled": 0, "rental_uris": {"android": "https://dc.lft.to/lastmile_qr_scan", "ios": "https://dc.lft.to/lastmile_qr_scan"}, "fusion_lon": 0.0, "lat": 38.90787066666667, "bike_id": "de589e3de1dcd626e82f0ea92defb653", "type": "electric_scooter", "is_reserved": 0, "lon": -77.04330216666666}, {"fusion_lat": 0.0, "name": "92150c0068b31f1d2d957084ddf93a46", "is_disabled": 0, "rental_uris": {"android": "https://dc.lft.to/lastmile_qr_scan", "ios": "https://dc.lft.to/lastmile_qr_scan"}, "fusion_lon": 0.0, "lat": 38.91411083333333, "bike_id": "92150c0068b31f1d2d957084ddf93a46", "type": "electric_scooter", "is_reserved": 0, "lon": -77.02738466666666}, {"fusion_lat": 0.0, "name": "b4f3f5bb064ad067bbcf196a1bd07624", "is_disabled": 0, "rental_uris": {"android": "https://dc.lft.to/lastmile_qr_scan", "ios": "https://dc.lft.to/lastmile_qr_scan"}, "fusion_lon": 0.0, "lat": 38.887961833333335, "bike_id": "b4f3f5bb064ad067bbcf196a1bd07624", "type": "electric_bike", "is_reserved": 0, "lon": -76.929972}, {"fusion_lat": 0.0, "name": "7a428ebff6b82b044f0b182ed5a505b3", "is_disabled": 0, "rental_uris": {"android": "https://dc.lft.to/lastmile_qr_scan", "ios": "https://dc.lft.to/lastmile_qr_scan"}, "fusion_lon": 0.0, "lat": 38.895380333333335, "bike_id": "7a428ebff6b82b044f0b182ed5a505b3", "type": "electric_scooter", "is_reserved": 0, "lon": -77.01083433333334}, {"fusion_lat": 0.0, "name": "99e0eb4058a9344cbf7ac6325185d0c3", "is_disabled": 0, "rental_uris": {"android": "https://dc.lft.to/lastmile_qr_scan", "ios": "https://dc.lft.to/lastmile_qr_scan"}, "fusion_lon": 0.0, "lat": 38.88711283333333, "bike_id": "99e0eb4058a9344cbf7ac6325185d0c3", "type": "electric_scooter", "is_reserved": 0, "lon": -76.99677833333334}, {"fusion_lat": 0.0, "name": "93acbb1c1b8faddc6558c978fe9f7bc9", "is_disabled": 0, "rental_uris": {"android": "https://dc.lft.to/lastmile_qr_scan", "ios": "https://dc.lft.to/lastmile_qr_scan"}, "fusion_lon": 0.0, "lat": 38.9094865, "bike_id": "93acbb1c1b8faddc6558c978fe9f7bc9", "type": "electric_scooter", "is_reserved": 0, "lon": -77.02715633333334}, {"fusion_lat": 0.0, "name": "a682e384586e023775d24bfe515f3081", "is_disabled": 0, "rental_uris": {"android": "https://dc.lft.to/lastmile_qr_scan", "ios": "https://dc.lft.to/lastmile_qr_scan"}, "fusion_lon": 0.0, "lat": 38.90468883333333, "bike_id": "a682e384586e023775d24bfe515f3081", "type": "electric_scooter", "is_reserved": 0, "lon": -77.017012}, {"fusion_lat": 0.0, "name": "70a68354ec7dd26262f8975eb9017a32", "is_disabled": 0, "rental_uris": {"android": "https://dc.lft.to/lastmile_qr_scan", "ios": "https://dc.lft.to/lastmile_qr_scan"}, "fusion_lon": 0.0, "lat": 38.92233816666667, "bike_id": "70a68354ec7dd26262f8975eb9017a32", "type": "electric_scooter", "is_reserved": 0, "lon": -77.042591}, {"fusion_lat": 0.0, "name": "b0c618e148867bf30c351b760d6146b8", "is_disabled": 0, "rental_uris": {"android": "https://dc.lft.to/lastmile_qr_scan", "ios": "https://dc.lft.to/lastmile_qr_scan"}, "fusion_lon": 0.0, "lat": 38.892228833333334, "bike_id": "b0c618e148867bf30c351b760d6146b8", "type": "electric_scooter", "is_reserved": 0, "lon": -77.050362}, {"fusion_lat": 0.0, "name": "6db924ac9f44ee3ecec7ad6558b2ec87", "is_disabled": 0, "rental_uris": {"android": "https://dc.lft.to/lastmile_qr_scan", "ios": "https://dc.lft.to/lastmile_qr_scan"}, "fusion_lon": 0.0, "lat": 38.9497475, "bike_id": "6db924ac9f44ee3ecec7ad6558b2ec87", "type": "electric_scooter", "is_reserved": 0, "lon": -77.02452716666667}, {"fusion_lat": 0.0, "name": "12037b608e5c478e8c8b9e8c40ebcb5e", "is_disabled": 0, "rental_uris": {"android": "https://dc.lft.to/lastmile_qr_scan", "ios": "https://dc.lft.to/lastmile_qr_scan"}, "fusion_lon": 0.0, "lat": 38.925930666666666, "bike_id": "12037b608e5c478e8c8b9e8c40ebcb5e", "type": "electric_scooter", "is_reserved": 0, "lon": -77.073243}, {"fusion_lat": 0.0, "name": "3c429ce56fa48e2acfb9af45d252bb00", "is_disabled": 0, "rental_uris": {"android": "https://dc.lft.to/lastmile_qr_scan", "ios": "https://dc.lft.to/lastmile_qr_scan"}, "fusion_lon": 0.0, "lat": 38.92754933333333, "bike_id": "3c429ce56fa48e2acfb9af45d252bb00", "type": "electric_scooter", "is_reserved": 0, "lon": -77.03305166666667}, {"fusion_lat": 0.0, "name": "4bc778322a9f21495f5b31559992304b", "is_disabled": 0, "rental_uris": {"android": "https://dc.lft.to/lastmile_qr_scan", "ios": "https://dc.lft.to/lastmile_qr_scan"}, "fusion_lon": 0.0, "lat": 38.9309775, "bike_id": "4bc778322a9f21495f5b31559992304b", "type": "electric_scooter", "is_reserved": 0, "lon": -77.0248235}, {"fusion_lat": 0.0, "name": "e6cccac32a9e27ed27df17b4fe9900fd", "is_disabled": 0, "rental_uris": {"android": "https://dc.lft.to/lastmile_qr_scan", "ios": "https://dc.lft.to/lastmile_qr_scan"}, "fusion_lon": 0.0, "lat": 38.900290166666665, "bike_id": "e6cccac32a9e27ed27df17b4fe9900fd", "type": "electric_scooter", "is_reserved": 0, "lon": -76.98857516666666}, {"fusion_lat": 0.0, "name": "7945aec2f3f635590a3cd21b478ff7e0", "is_disabled": 0, "rental_uris": {"android": "https://dc.lft.to/lastmile_qr_scan", "ios": "https://dc.lft.to/lastmile_qr_scan"}, "fusion_lon": 0.0, "lat": 38.87630133333333, "bike_id": "7945aec2f3f635590a3cd21b478ff7e0", "type": "electric_scooter", "is_reserved": 0, "lon": -77.00776583333334}, {"fusion_lat": 0.0, "name": "34509fa0e5f815e351dc1cbfd21b3611", "is_disabled": 0, "rental_uris": {"android": "https://dc.lft.to/lastmile_qr_scan", "ios": "https://dc.lft.to/lastmile_qr_scan"}, "fusion_lon": 0.0, "lat": 38.90451816666667, "bike_id": "34509fa0e5f815e351dc1cbfd21b3611", "type": "electric_scooter", "is_reserved": 0, "lon": -77.03360783333333}, {"fusion_lat": 0.0, "name": "5701ab6c4ecad014c767f174fd683592", "is_disabled": 0, "rental_uris": {"android": "https://dc.lft.to/lastmile_qr_scan", "ios": "https://dc.lft.to/lastmile_qr_scan"}, "fusion_lon": 0.0, "lat": 38.923624333333336, "bike_id": "5701ab6c4ecad014c767f174fd683592", "type": "electric_scooter", "is_reserved": 0, "lon": -77.02053516666666}, {"fusion_lat": 0.0, "name": "772ab909f826ef360fc2606d6006b370", "is_disabled": 0, "rental_uris": {"android": "https://dc.lft.to/lastmile_qr_scan", "ios": "https://dc.lft.to/lastmile_qr_scan"}, "fusion_lon": 0.0, "lat": 38.902186, "bike_id": "772ab909f826ef360fc2606d6006b370", "type": "electric_scooter", "is_reserved": 0, "lon": -77.05118666666667}, {"fusion_lat": 0.0, "name": "039e7923cfc08511eb71b994e9e7fa3f", "is_disabled": 0, "rental_uris": {"android": "https://dc.lft.to/lastmile_qr_scan", "ios": "https://dc.lft.to/lastmile_qr_scan"}, "fusion_lon": 0.0, "lat": 38.93265433333333, "bike_id": "039e7923cfc08511eb71b994e9e7fa3f", "type": "electric_scooter", "is_reserved": 0, "lon": -77.03899583333333}, {"fusion_lat": 0.0, "name": "557f939ef6597ef2a3879e0954e10b11", "is_disabled": 0, "rental_uris": {"android": "https://dc.lft.to/lastmile_qr_scan", "ios": "https://dc.lft.to/lastmile_qr_scan"}, "fusion_lon": 0.0, "lat": 38.93108616666667, "bike_id": "557f939ef6597ef2a3879e0954e10b11", "type": "electric_scooter", "is_reserved": 0, "lon": -77.02139166666667}, {"fusion_lat": 0.0, "name": "83a9f52e84d5ccf3e57e9ece8e733225", "is_disabled": 0, "rental_uris": {"android": "https://dc.lft.to/lastmile_qr_scan", "ios": "https://dc.lft.to/lastmile_qr_scan"}, "fusion_lon": 0.0, "lat": 38.9058025, "bike_id": "83a9f52e84d5ccf3e57e9ece8e733225", "type": "electric_scooter", "is_reserved": 0, "lon": -77.02971033333333}, {"fusion_lat": 0.0, "name": "aa9402004a5edcc48d81fb49630cd49b", "is_disabled": 0, "rental_uris": {"android": "https://dc.lft.to/lastmile_qr_scan", "ios": "https://dc.lft.to/lastmile_qr_scan"}, "fusion_lon": 0.0, "lat": 38.91358566666667, "bike_id": "aa9402004a5edcc48d81fb49630cd49b", "type": "electric_scooter", "is_reserved": 0, "lon": -77.048722}, {"fusion_lat": 0.0, "name": "245ca8ce83981ad0e7ee4b3cc6265245", "is_disabled": 0, "rental_uris": {"android": "https://dc.lft.to/lastmile_qr_scan", "ios": "https://dc.lft.to/lastmile_qr_scan"}, "fusion_lon": 0.0, "lat": 38.912662166666664, "bike_id": "245ca8ce83981ad0e7ee4b3cc6265245", "type": "electric_scooter", "is_reserved": 0, "lon": -77.03399483333334}, {"fusion_lat": 0.0, "name": "40e2a0b7da6980c2ace357d45d179ad4", "is_disabled": 0, "rental_uris": {"android": "https://dc.lft.to/lastmile_qr_scan", "ios": "https://dc.lft.to/lastmile_qr_scan"}, "fusion_lon": 0.0, "lat": 38.912556, "bike_id": "40e2a0b7da6980c2ace357d45d179ad4", "type": "electric_scooter", "is_reserved": 0, "lon": -77.04932233333334}, {"fusion_lat": 0.0, "name": "99effa508c19cce712186b1ecf4fd50e", "is_disabled": 0, "rental_uris": {"android": "https://dc.lft.to/lastmile_qr_scan", "ios": "https://dc.lft.to/lastmile_qr_scan"}, "fusion_lon": 0.0, "lat": 38.899336, "bike_id": "99effa508c19cce712186b1ecf4fd50e", "type": "electric_scooter", "is_reserved": 0, "lon": -77.04848483333333}, {"fusion_lat": 0.0, "name": "c930509bbe63f52598cadec0a38c0433", "is_disabled": 0, "rental_uris": {"android": "https://dc.lft.to/lastmile_qr_scan", "ios": "https://dc.lft.to/lastmile_qr_scan"}, "fusion_lon": 0.0, "lat": 38.92306216666667, "bike_id": "c930509bbe63f52598cadec0a38c0433", "type": "electric_scooter", "is_reserved": 0, "lon": -77.04263416666667}, {"fusion_lat": 0.0, "name": "8af78125d9b40d4638f57f304ad7a424", "is_disabled": 0, "rental_uris": {"android": "https://dc.lft.to/lastmile_qr_scan", "ios": "https://dc.lft.to/lastmile_qr_scan"}, "fusion_lon": 0.0, "lat": 38.942036, "bike_id": "8af78125d9b40d4638f57f304ad7a424", "type": "electric_scooter", "is_reserved": 0, "lon": -77.02591366666667}, {"fusion_lat": 0.0, "name": "02f8169e3bb1a8035f3fe11f1a357b02", "is_disabled": 0, "rental_uris": {"android": "https://dc.lft.to/lastmile_qr_scan", "ios": "https://dc.lft.to/lastmile_qr_scan"}, "fusion_lon": 0.0, "lat": 38.95633266666667, "bike_id": "02f8169e3bb1a8035f3fe11f1a357b02", "type": "electric_scooter", "is_reserved": 0, "lon": -77.03307166666667}, {"fusion_lat": 0.0, "name": "05a00107d7ad92acbc5b66c0f1263baa", "is_disabled": 0, "rental_uris": {"android": "https://dc.lft.to/lastmile_qr_scan", "ios": "https://dc.lft.to/lastmile_qr_scan"}, "fusion_lon": 0.0, "lat": 38.8633125, "bike_id": "05a00107d7ad92acbc5b66c0f1263baa", "type": "electric_bike", "is_reserved": 0, "lon": -76.987198}, {"fusion_lat": 0.0, "name": "c48f46da5f6a27b33bd9b0a896bc3af7", "is_disabled": 0, "rental_uris": {"android": "https://dc.lft.to/lastmile_qr_scan", "ios": "https://dc.lft.to/lastmile_qr_scan"}, "fusion_lon": 0.0, "lat": 38.900190333333335, "bike_id": "c48f46da5f6a27b33bd9b0a896bc3af7", "type": "electric_scooter", "is_reserved": 0, "lon": -76.99568066666667}, {"fusion_lat": 0.0, "name": "c0c7d91da4de77cbb12caff3ffc9af68", "is_disabled": 0, "rental_uris": {"android": "https://dc.lft.to/lastmile_qr_scan", "ios": "https://dc.lft.to/lastmile_qr_scan"}, "fusion_lon": 0.0, "lat": 38.927602666666665, "bike_id": "c0c7d91da4de77cbb12caff3ffc9af68", "type": "electric_scooter", "is_reserved": 0, "lon": -77.0287625}, {"fusion_lat": 0.0, "name": "7d4339e40464c16bba8da0ff4d1efe1e", "is_disabled": 0, "rental_uris": {"android": "https://dc.lft.to/lastmile_qr_scan", "ios": "https://dc.lft.to/lastmile_qr_scan"}, "fusion_lon": 0.0, "lat": 38.8960475, "bike_id": "7d4339e40464c16bba8da0ff4d1efe1e", "type": "electric_scooter", "is_reserved": 0, "lon": -77.03171733333333}, {"fusion_lat": 0.0, "name": "904b55fbfff904bbe8f5b7a2b11d2d51", "is_disabled": 0, "rental_uris": {"android": "https://dc.lft.to/lastmile_qr_scan", "ios": "https://dc.lft.to/lastmile_qr_scan"}, "fusion_lon": 0.0, "lat": 38.845039166666666, "bike_id": "904b55fbfff904bbe8f5b7a2b11d2d51", "type": "electric_bike", "is_reserved": 0, "lon": -76.99350466666667}, {"fusion_lat": 0.0, "name": "6d3627c3b0184d923fa054b9c97e3c5b", "is_disabled": 0, "rental_uris": {"android": "https://dc.lft.to/lastmile_qr_scan", "ios": "https://dc.lft.to/lastmile_qr_scan"}, "fusion_lon": 0.0, "lat": 38.897395, "bike_id": "6d3627c3b0184d923fa054b9c97e3c5b", "type": "electric_scooter", "is_reserved": 0, "lon": -77.0272285}, {"fusion_lat": 0.0, "name": "0424ebf3fa9163a1b17c2a23627ad063", "is_disabled": 0, "rental_uris": {"android": "https://dc.lft.to/lastmile_qr_scan", "ios": "https://dc.lft.to/lastmile_qr_scan"}, "fusion_lon": 0.0, "lat": 38.9023205, "bike_id": "0424ebf3fa9163a1b17c2a23627ad063", "type": "electric_scooter", "is_reserved": 0, "lon": -77.04443716666667}, {"fusion_lat": 0.0, "name": "c1be28fddde32dd0e8d71f98530d0374", "is_disabled": 0, "rental_uris": {"android": "https://dc.lft.to/lastmile_qr_scan", "ios": "https://dc.lft.to/lastmile_qr_scan"}, "fusion_lon": 0.0, "lat": 38.9311275, "bike_id": "c1be28fddde32dd0e8d71f98530d0374", "type": "electric_scooter", "is_reserved": 0, "lon": -77.0298605}, {"fusion_lat": 0.0, "name": "62bd348d85f077f0b771379e7d610a3f", "is_disabled": 0, "rental_uris": {"android": "https://dc.lft.to/lastmile_qr_scan", "ios": "https://dc.lft.to/lastmile_qr_scan"}, "fusion_lon": 0.0, "lat": 38.91708216666667, "bike_id": "62bd348d85f077f0b771379e7d610a3f", "type": "electric_scooter", "is_reserved": 0, "lon": -77.03471166666667}, {"fusion_lat": 0.0, "name": "e32171b8099225ed41771341293a3c32", "is_disabled": 0, "rental_uris": {"android": "https://dc.lft.to/lastmile_qr_scan", "ios": "https://dc.lft.to/lastmile_qr_scan"}, "fusion_lon": 0.0, "lat": 38.926875, "bike_id": "e32171b8099225ed41771341293a3c32", "type": "electric_scooter", "is_reserved": 0, "lon": -77.0077495}, {"fusion_lat": 0.0, "name": "3e2fa56b9ab31262961dd0093e9ee929", "is_disabled": 0, "rental_uris": {"android": "https://dc.lft.to/lastmile_qr_scan", "ios": "https://dc.lft.to/lastmile_qr_scan"}, "fusion_lon": 0.0, "lat": 38.92945183333333, "bike_id": "3e2fa56b9ab31262961dd0093e9ee929", "type": "electric_scooter", "is_reserved": 0, "lon": -77.03474833333334}, {"fusion_lat": 0.0, "name": "30b83f1f31747cd94b8628bcee512848", "is_disabled": 0, "rental_uris": {"android": "https://dc.lft.to/lastmile_qr_scan", "ios": "https://dc.lft.to/lastmile_qr_scan"}, "fusion_lon": 0.0, "lat": 38.84284, "bike_id": "30b83f1f31747cd94b8628bcee512848", "type": "electric_bike", "is_reserved": 0, "lon": -77.04489466666666}, {"fusion_lat": 0.0, "name": "233b46cef3eb9eab0184b181b4751503", "is_disabled": 0, "rental_uris": {"android": "https://dc.lft.to/lastmile_qr_scan", "ios": "https://dc.lft.to/lastmile_qr_scan"}, "fusion_lon": 0.0, "lat": 38.895618999999996, "bike_id": "233b46cef3eb9eab0184b181b4751503", "type": "electric_bike", "is_reserved": 0, "lon": -77.12737533333333}, {"fusion_lat": 0.0, "name": "f036124cb8a1bb62d79e7a3fc2b51a11", "is_disabled": 0, "rental_uris": {"android": "https://dc.lft.to/lastmile_qr_scan", "ios": "https://dc.lft.to/lastmile_qr_scan"}, "fusion_lon": 0.0, "lat": 38.90276866666667, "bike_id": "f036124cb8a1bb62d79e7a3fc2b51a11", "type": "electric_scooter", "is_reserved": 0, "lon": -77.03379083333333}, {"fusion_lat": 0.0, "name": "7ab11aa90f46c9f24eb97d52b91e619e", "is_disabled": 0, "rental_uris": {"android": "https://dc.lft.to/lastmile_qr_scan", "ios": "https://dc.lft.to/lastmile_qr_scan"}, "fusion_lon": 0.0, "lat": 38.892942, "bike_id": "7ab11aa90f46c9f24eb97d52b91e619e", "type": "electric_scooter", "is_reserved": 0, "lon": -77.046626}, {"fusion_lat": 0.0, "name": "917c3c7ff949f0dfdb60f925aaa97853", "is_disabled": 0, "rental_uris": {"android": "https://dc.lft.to/lastmile_qr_scan", "ios": "https://dc.lft.to/lastmile_qr_scan"}, "fusion_lon": 0.0, "lat": 38.903652666666666, "bike_id": "917c3c7ff949f0dfdb60f925aaa97853", "type": "electric_scooter", "is_reserved": 0, "lon": -77.003429}, {"fusion_lat": 0.0, "name": "45696b4c71d5d718453fb6f35c3bfa41", "is_disabled": 0, "rental_uris": {"android": "https://dc.lft.to/lastmile_qr_scan", "ios": "https://dc.lft.to/lastmile_qr_scan"}, "fusion_lon": 0.0, "lat": 38.853078, "bike_id": "45696b4c71d5d718453fb6f35c3bfa41", "type": "electric_bike", "is_reserved": 0, "lon": -77.046}, {"fusion_lat": 0.0, "name": "55759c3fc8cceac4fc305fcc069eba13", "is_disabled": 0, "rental_uris": {"android": "https://dc.lft.to/lastmile_qr_scan", "ios": "https://dc.lft.to/lastmile_qr_scan"}, "fusion_lon": 0.0, "lat": 38.91128583333333, "bike_id": "55759c3fc8cceac4fc305fcc069eba13", "type": "electric_scooter", "is_reserved": 0, "lon": -77.0105035}, {"fusion_lat": 0.0, "name": "c83890f865c0bcf600896afb218b1377", "is_disabled": 0, "rental_uris": {"android": "https://dc.lft.to/lastmile_qr_scan", "ios": "https://dc.lft.to/lastmile_qr_scan"}, "fusion_lon": 0.0, "lat": 38.90702016666667, "bike_id": "c83890f865c0bcf600896afb218b1377", "type": "electric_scooter", "is_reserved": 0, "lon": -77.01025716666666}, {"fusion_lat": 0.0, "name": "11f96a0f638491eb7a200909ab978693", "is_disabled": 0, "rental_uris": {"android": "https://dc.lft.to/lastmile_qr_scan", "ios": "https://dc.lft.to/lastmile_qr_scan"}, "fusion_lon": 0.0, "lat": 38.91924083333333, "bike_id": "11f96a0f638491eb7a200909ab978693", "type": "electric_scooter", "is_reserved": 0, "lon": -77.03261766666667}, {"fusion_lat": 0.0, "name": "f19f38b3baa13d7190c4235e05c7482b", "is_disabled": 0, "rental_uris": {"android": "https://dc.lft.to/lastmile_qr_scan", "ios": "https://dc.lft.to/lastmile_qr_scan"}, "fusion_lon": 0.0, "lat": 38.90975066666667, "bike_id": "f19f38b3baa13d7190c4235e05c7482b", "type": "electric_scooter", "is_reserved": 0, "lon": -77.03435383333333}, {"fusion_lat": 0.0, "name": "e8aa81df4fb326d88ab104654267cf98", "is_disabled": 0, "rental_uris": {"android": "https://dc.lft.to/lastmile_qr_scan", "ios": "https://dc.lft.to/lastmile_qr_scan"}, "fusion_lon": 0.0, "lat": 38.9085475, "bike_id": "e8aa81df4fb326d88ab104654267cf98", "type": "electric_scooter", "is_reserved": 0, "lon": -77.02367733333334}, {"fusion_lat": 0.0, "name": "7a86019dee91c25445276cdb2a132aba", "is_disabled": 0, "rental_uris": {"android": "https://dc.lft.to/lastmile_qr_scan", "ios": "https://dc.lft.to/lastmile_qr_scan"}, "fusion_lon": 0.0, "lat": 38.92284216666667, "bike_id": "7a86019dee91c25445276cdb2a132aba", "type": "electric_scooter", "is_reserved": 0, "lon": -77.02526833333333}, {"fusion_lat": 0.0, "name": "b644efff0eaf97e0ee377ee96c53ea43", "is_disabled": 0, "rental_uris": {"android": "https://dc.lft.to/lastmile_qr_scan", "ios": "https://dc.lft.to/lastmile_qr_scan"}, "fusion_lon": 0.0, "lat": 38.912623333333336, "bike_id": "b644efff0eaf97e0ee377ee96c53ea43", "type": "electric_scooter", "is_reserved": 0, "lon": -77.02265466666667}, {"fusion_lat": 0.0, "name": "3cda9026e2e13c5e0a810a9dafae327d", "is_disabled": 0, "rental_uris": {"android": "https://dc.lft.to/lastmile_qr_scan", "ios": "https://dc.lft.to/lastmile_qr_scan"}, "fusion_lon": 0.0, "lat": 38.878946, "bike_id": "3cda9026e2e13c5e0a810a9dafae327d", "type": "electric_scooter", "is_reserved": 0, "lon": -77.01358716666667}, {"fusion_lat": 0.0, "name": "1d7cd672974429cc7476bdd0ade02d7f", "is_disabled": 0, "rental_uris": {"android": "https://dc.lft.to/lastmile_qr_scan", "ios": "https://dc.lft.to/lastmile_qr_scan"}, "fusion_lon": 0.0, "lat": 38.903625, "bike_id": "1d7cd672974429cc7476bdd0ade02d7f", "type": "electric_scooter", "is_reserved": 0, "lon": -77.04483433333333}, {"fusion_lat": 0.0, "name": "b388b4050c27c78cc786f0fa084b6b29", "is_disabled": 0, "rental_uris": {"android": "https://dc.lft.to/lastmile_qr_scan", "ios": "https://dc.lft.to/lastmile_qr_scan"}, "fusion_lon": 0.0, "lat": 38.919710333333335, "bike_id": "b388b4050c27c78cc786f0fa084b6b29", "type": "electric_scooter", "is_reserved": 0, "lon": -77.07105383333334}, {"fusion_lat": 0.0, "name": "d6d80fcc2b12031b6732b6838e07ceaf", "is_disabled": 0, "rental_uris": {"android": "https://dc.lft.to/lastmile_qr_scan", "ios": "https://dc.lft.to/lastmile_qr_scan"}, "fusion_lon": 0.0, "lat": 38.89524566666667, "bike_id": "d6d80fcc2b12031b6732b6838e07ceaf", "type": "electric_scooter", "is_reserved": 0, "lon": -76.934079}, {"fusion_lat": 0.0, "name": "d9e9c2ee29ab5cd3aee736244ecdbf47", "is_disabled": 0, "rental_uris": {"android": "https://dc.lft.to/lastmile_qr_scan", "ios": "https://dc.lft.to/lastmile_qr_scan"}, "fusion_lon": 0.0, "lat": 38.90650983333333, "bike_id": "d9e9c2ee29ab5cd3aee736244ecdbf47", "type": "electric_scooter", "is_reserved": 0, "lon": -77.05341066666666}, {"fusion_lat": 0.0, "name": "f58d10e0c1c214178ade1670b7ee4d51", "is_disabled": 0, "rental_uris": {"android": "https://dc.lft.to/lastmile_qr_scan", "ios": "https://dc.lft.to/lastmile_qr_scan"}, "fusion_lon": 0.0, "lat": 38.90713133333333, "bike_id": "f58d10e0c1c214178ade1670b7ee4d51", "type": "electric_scooter", "is_reserved": 0, "lon": -77.0473585}, {"fusion_lat": 0.0, "name": "ec3b264233c8946f318049e5f74f3c46", "is_disabled": 0, "rental_uris": {"android": "https://dc.lft.to/lastmile_qr_scan", "ios": "https://dc.lft.to/lastmile_qr_scan"}, "fusion_lon": 0.0, "lat": 38.9055155, "bike_id": "ec3b264233c8946f318049e5f74f3c46", "type": "electric_scooter", "is_reserved": 0, "lon": -77.06515816666666}, {"fusion_lat": 0.0, "name": "eac14096ee0d4b305d11e54f7f888020", "is_disabled": 0, "rental_uris": {"android": "https://dc.lft.to/lastmile_qr_scan", "ios": "https://dc.lft.to/lastmile_qr_scan"}, "fusion_lon": 0.0, "lat": 38.92251183333333, "bike_id": "eac14096ee0d4b305d11e54f7f888020", "type": "electric_scooter", "is_reserved": 0, "lon": -77.07452583333334}, {"fusion_lat": 0.0, "name": "c287a19d5e8ea20396e5f923b1ec0ada", "is_disabled": 0, "rental_uris": {"android": "https://dc.lft.to/lastmile_qr_scan", "ios": "https://dc.lft.to/lastmile_qr_scan"}, "fusion_lon": 0.0, "lat": 38.914971666666666, "bike_id": "c287a19d5e8ea20396e5f923b1ec0ada", "type": "electric_scooter", "is_reserved": 0, "lon": -76.98358666666667}, {"fusion_lat": 0.0, "name": "4b5cfab4e23b952126cf1416e729885b", "is_disabled": 0, "rental_uris": {"android": "https://dc.lft.to/lastmile_qr_scan", "ios": "https://dc.lft.to/lastmile_qr_scan"}, "fusion_lon": 0.0, "lat": 38.933965, "bike_id": "4b5cfab4e23b952126cf1416e729885b", "type": "electric_scooter", "is_reserved": 0, "lon": -77.057467}, {"fusion_lat": 0.0, "name": "4ab0068ccca366c4cb7bd6da51065c68", "is_disabled": 0, "rental_uris": {"android": "https://dc.lft.to/lastmile_qr_scan", "ios": "https://dc.lft.to/lastmile_qr_scan"}, "fusion_lon": 0.0, "lat": 38.90556466666666, "bike_id": "4ab0068ccca366c4cb7bd6da51065c68", "type": "electric_scooter", "is_reserved": 0, "lon": -76.99795983333334}, {"fusion_lat": 0.0, "name": "acaf7372f36189e83b55c317855d9a0a", "is_disabled": 0, "rental_uris": {"android": "https://dc.lft.to/lastmile_qr_scan", "ios": "https://dc.lft.to/lastmile_qr_scan"}, "fusion_lon": 0.0, "lat": 38.9078755, "bike_id": "acaf7372f36189e83b55c317855d9a0a", "type": "electric_scooter", "is_reserved": 0, "lon": -76.99424633333334}, {"fusion_lat": 0.0, "name": "9e4c81da504b1d97d42ba1d5e20f2cdb", "is_disabled": 0, "rental_uris": {"android": "https://dc.lft.to/lastmile_qr_scan", "ios": "https://dc.lft.to/lastmile_qr_scan"}, "fusion_lon": 0.0, "lat": 38.905597666666665, "bike_id": "9e4c81da504b1d97d42ba1d5e20f2cdb", "type": "electric_scooter", "is_reserved": 0, "lon": -76.9820105}, {"fusion_lat": 0.0, "name": "7ce6fa05fb464f797ec08c7413fb10af", "is_disabled": 0, "rental_uris": {"android": "https://dc.lft.to/lastmile_qr_scan", "ios": "https://dc.lft.to/lastmile_qr_scan"}, "fusion_lon": 0.0, "lat": 38.88821383333333, "bike_id": "7ce6fa05fb464f797ec08c7413fb10af", "type": "electric_scooter", "is_reserved": 0, "lon": -76.98664783333334}, {"fusion_lat": 0.0, "name": "d7f9ba8c9cc53f957731a2f0ba4bb03a", "is_disabled": 0, "rental_uris": {"android": "https://dc.lft.to/lastmile_qr_scan", "ios": "https://dc.lft.to/lastmile_qr_scan"}, "fusion_lon": 0.0, "lat": 38.90073916666667, "bike_id": "d7f9ba8c9cc53f957731a2f0ba4bb03a", "type": "electric_scooter", "is_reserved": 0, "lon": -77.0261075}, {"fusion_lat": 0.0, "name": "bd82479de5fabc08e9075c06b7cd1150", "is_disabled": 0, "rental_uris": {"android": "https://dc.lft.to/lastmile_qr_scan", "ios": "https://dc.lft.to/lastmile_qr_scan"}, "fusion_lon": 0.0, "lat": 38.892318, "bike_id": "bd82479de5fabc08e9075c06b7cd1150", "type": "electric_scooter", "is_reserved": 0, "lon": -77.017138}, {"fusion_lat": 0.0, "name": "4db30ba40bbcbc1ef81977195c507d17", "is_disabled": 0, "rental_uris": {"android": "https://dc.lft.to/lastmile_qr_scan", "ios": "https://dc.lft.to/lastmile_qr_scan"}, "fusion_lon": 0.0, "lat": 38.921574166666666, "bike_id": "4db30ba40bbcbc1ef81977195c507d17", "type": "electric_scooter", "is_reserved": 0, "lon": -77.03378383333333}, {"fusion_lat": 0.0, "name": "f191c95b87d0377c560beb71c86d7c90", "is_disabled": 0, "rental_uris": {"android": "https://dc.lft.to/lastmile_qr_scan", "ios": "https://dc.lft.to/lastmile_qr_scan"}, "fusion_lon": 0.0, "lat": 38.928500166666666, "bike_id": "f191c95b87d0377c560beb71c86d7c90", "type": "electric_scooter", "is_reserved": 0, "lon": -77.02442583333334}, {"fusion_lat": 0.0, "name": "5f44af0cbf4792f5e814f9b8a2876257", "is_disabled": 0, "rental_uris": {"android": "https://dc.lft.to/lastmile_qr_scan", "ios": "https://dc.lft.to/lastmile_qr_scan"}, "fusion_lon": 0.0, "lat": 38.92651166666667, "bike_id": "5f44af0cbf4792f5e814f9b8a2876257", "type": "electric_scooter", "is_reserved": 0, "lon": -77.02427183333333}, {"fusion_lat": 0.0, "name": "789e56091ae319c960c945e2d119bc88", "is_disabled": 0, "rental_uris": {"android": "https://dc.lft.to/lastmile_qr_scan", "ios": "https://dc.lft.to/lastmile_qr_scan"}, "fusion_lon": 0.0, "lat": 38.90704916666667, "bike_id": "789e56091ae319c960c945e2d119bc88", "type": "electric_scooter", "is_reserved": 0, "lon": -77.00060733333333}, {"fusion_lat": 0.0, "name": "c11f9fe517158b95a79fae4cee73e1bc", "is_disabled": 0, "rental_uris": {"android": "https://dc.lft.to/lastmile_qr_scan", "ios": "https://dc.lft.to/lastmile_qr_scan"}, "fusion_lon": 0.0, "lat": 38.90964066666667, "bike_id": "c11f9fe517158b95a79fae4cee73e1bc", "type": "electric_scooter", "is_reserved": 0, "lon": -77.00891266666666}, {"fusion_lat": 0.0, "name": "d448e67e155eea1b285824c996076154", "is_disabled": 0, "rental_uris": {"android": "https://dc.lft.to/lastmile_qr_scan", "ios": "https://dc.lft.to/lastmile_qr_scan"}, "fusion_lon": 0.0, "lat": 38.927495666666665, "bike_id": "d448e67e155eea1b285824c996076154", "type": "electric_scooter", "is_reserved": 0, "lon": -77.02537116666667}, {"fusion_lat": 0.0, "name": "58c7431cbf4fa815f67f6373b6786de0", "is_disabled": 0, "rental_uris": {"android": "https://dc.lft.to/lastmile_qr_scan", "ios": "https://dc.lft.to/lastmile_qr_scan"}, "fusion_lon": 0.0, "lat": 38.887688833333335, "bike_id": "58c7431cbf4fa815f67f6373b6786de0", "type": "electric_scooter", "is_reserved": 0, "lon": -76.977485}, {"fusion_lat": 0.0, "name": "c9360abfdbf7536bb002b5da90a114b2", "is_disabled": 0, "rental_uris": {"android": "https://dc.lft.to/lastmile_qr_scan", "ios": "https://dc.lft.to/lastmile_qr_scan"}, "fusion_lon": 0.0, "lat": 38.89243916666667, "bike_id": "c9360abfdbf7536bb002b5da90a114b2", "type": "electric_scooter", "is_reserved": 0, "lon": -77.033438}, {"fusion_lat": 0.0, "name": "d8c12dacd5922b7761e6281cbff5689d", "is_disabled": 0, "rental_uris": {"android": "https://dc.lft.to/lastmile_qr_scan", "ios": "https://dc.lft.to/lastmile_qr_scan"}, "fusion_lon": 0.0, "lat": 38.854557666666665, "bike_id": "d8c12dacd5922b7761e6281cbff5689d", "type": "electric_scooter", "is_reserved": 0, "lon": -76.97228833333334}, {"fusion_lat": 0.0, "name": "b834c5a1328703537a4e71370e4024b9", "is_disabled": 0, "rental_uris": {"android": "https://dc.lft.to/lastmile_qr_scan", "ios": "https://dc.lft.to/lastmile_qr_scan"}, "fusion_lon": 0.0, "lat": 38.905457, "bike_id": "b834c5a1328703537a4e71370e4024b9", "type": "electric_scooter", "is_reserved": 0, "lon": -77.03472583333334}, {"fusion_lat": 0.0, "name": "4ca8c774a4697fbdcc1a74e155cc910c", "is_disabled": 0, "rental_uris": {"android": "https://dc.lft.to/lastmile_qr_scan", "ios": "https://dc.lft.to/lastmile_qr_scan"}, "fusion_lon": 0.0, "lat": 38.93627583333333, "bike_id": "4ca8c774a4697fbdcc1a74e155cc910c", "type": "electric_scooter", "is_reserved": 0, "lon": -77.036607}, {"fusion_lat": 0.0, "name": "b606e179a0f64bfb09b51505c2884bf5", "is_disabled": 0, "rental_uris": {"android": "https://dc.lft.to/lastmile_qr_scan", "ios": "https://dc.lft.to/lastmile_qr_scan"}, "fusion_lon": 0.0, "lat": 38.917069, "bike_id": "b606e179a0f64bfb09b51505c2884bf5", "type": "electric_scooter", "is_reserved": 0, "lon": -77.03475233333333}, {"fusion_lat": 0.0, "name": "17a6eb0fe024ed230ab93a718a3c8508", "is_disabled": 0, "rental_uris": {"android": "https://dc.lft.to/lastmile_qr_scan", "ios": "https://dc.lft.to/lastmile_qr_scan"}, "fusion_lon": 0.0, "lat": 38.9272235, "bike_id": "17a6eb0fe024ed230ab93a718a3c8508", "type": "electric_scooter", "is_reserved": 0, "lon": -77.0231155}, {"fusion_lat": 0.0, "name": "8069741132594ce679f22ee33930324d", "is_disabled": 0, "rental_uris": {"android": "https://dc.lft.to/lastmile_qr_scan", "ios": "https://dc.lft.to/lastmile_qr_scan"}, "fusion_lon": 0.0, "lat": 38.879071, "bike_id": "8069741132594ce679f22ee33930324d", "type": "electric_scooter", "is_reserved": 0, "lon": -77.00815983333334}, {"fusion_lat": 0.0, "name": "908ab3658c5fca8d9b8337c0f4f0242d", "is_disabled": 0, "rental_uris": {"android": "https://dc.lft.to/lastmile_qr_scan", "ios": "https://dc.lft.to/lastmile_qr_scan"}, "fusion_lon": 0.0, "lat": 38.9375075, "bike_id": "908ab3658c5fca8d9b8337c0f4f0242d", "type": "electric_scooter", "is_reserved": 0, "lon": -77.02528583333333}, {"fusion_lat": 0.0, "name": "564c90f33c99128c19de83e5025dba88", "is_disabled": 0, "rental_uris": {"android": "https://dc.lft.to/lastmile_qr_scan", "ios": "https://dc.lft.to/lastmile_qr_scan"}, "fusion_lon": 0.0, "lat": 38.90390816666667, "bike_id": "564c90f33c99128c19de83e5025dba88", "type": "electric_scooter", "is_reserved": 0, "lon": -77.061385}, {"fusion_lat": 0.0, "name": "6b496d02eb3706a7bf18306de016bf4f", "is_disabled": 0, "rental_uris": {"android": "https://dc.lft.to/lastmile_qr_scan", "ios": "https://dc.lft.to/lastmile_qr_scan"}, "fusion_lon": 0.0, "lat": 38.900619166666665, "bike_id": "6b496d02eb3706a7bf18306de016bf4f", "type": "electric_scooter", "is_reserved": 0, "lon": -76.93389383333333}, {"fusion_lat": 0.0, "name": "fb2c0a6c2bc1d8dbc8f6a8d06de5d4e4", "is_disabled": 0, "rental_uris": {"android": "https://dc.lft.to/lastmile_qr_scan", "ios": "https://dc.lft.to/lastmile_qr_scan"}, "fusion_lon": 0.0, "lat": 38.90698416666667, "bike_id": "fb2c0a6c2bc1d8dbc8f6a8d06de5d4e4", "type": "electric_scooter", "is_reserved": 0, "lon": -77.03573416666667}, {"fusion_lat": 0.0, "name": "24f0e73e10dc624edc6975844b13cfb2", "is_disabled": 0, "rental_uris": {"android": "https://dc.lft.to/lastmile_qr_scan", "ios": "https://dc.lft.to/lastmile_qr_scan"}, "fusion_lon": 0.0, "lat": 38.902092, "bike_id": "24f0e73e10dc624edc6975844b13cfb2", "type": "electric_scooter", "is_reserved": 0, "lon": -77.02213116666667}, {"fusion_lat": 0.0, "name": "bad500e588d65067683da82bbe7713ae", "is_disabled": 0, "rental_uris": {"android": "https://dc.lft.to/lastmile_qr_scan", "ios": "https://dc.lft.to/lastmile_qr_scan"}, "fusion_lon": 0.0, "lat": 38.896057666666664, "bike_id": "bad500e588d65067683da82bbe7713ae", "type": "electric_scooter", "is_reserved": 0, "lon": -77.049754}, {"fusion_lat": 0.0, "name": "c0bdda69f7e7d8cf2d833ba803caff10", "is_disabled": 0, "rental_uris": {"android": "https://dc.lft.to/lastmile_qr_scan", "ios": "https://dc.lft.to/lastmile_qr_scan"}, "fusion_lon": 0.0, "lat": 38.96198483333333, "bike_id": "c0bdda69f7e7d8cf2d833ba803caff10", "type": "electric_scooter", "is_reserved": 0, "lon": -77.02242166666667}, {"fusion_lat": 0.0, "name": "5005e21da1ccb5619caa9b42d6bef511", "is_disabled": 0, "rental_uris": {"android": "https://dc.lft.to/lastmile_qr_scan", "ios": "https://dc.lft.to/lastmile_qr_scan"}, "fusion_lon": 0.0, "lat": 38.90956883333333, "bike_id": "5005e21da1ccb5619caa9b42d6bef511", "type": "electric_scooter", "is_reserved": 0, "lon": -77.02310566666667}, {"fusion_lat": 0.0, "name": "3ce9a0959fa16b7bcf12b6de063bc940", "is_disabled": 0, "rental_uris": {"android": "https://dc.lft.to/lastmile_qr_scan", "ios": "https://dc.lft.to/lastmile_qr_scan"}, "fusion_lon": 0.0, "lat": 38.84634066666667, "bike_id": "3ce9a0959fa16b7bcf12b6de063bc940", "type": "electric_scooter", "is_reserved": 0, "lon": -76.96917383333333}, {"fusion_lat": 0.0, "name": "cb9d7e182b9b9b5434f05e415782bc29", "is_disabled": 0, "rental_uris": {"android": "https://dc.lft.to/lastmile_qr_scan", "ios": "https://dc.lft.to/lastmile_qr_scan"}, "fusion_lon": 0.0, "lat": 38.89565483333333, "bike_id": "cb9d7e182b9b9b5434f05e415782bc29", "type": "electric_bike", "is_reserved": 0, "lon": -77.127411}, {"fusion_lat": 0.0, "name": "2b78b4e54f551de876f6efa14d7d48e6", "is_disabled": 0, "rental_uris": {"android": "https://dc.lft.to/lastmile_qr_scan", "ios": "https://dc.lft.to/lastmile_qr_scan"}, "fusion_lon": 0.0, "lat": 38.941829, "bike_id": "2b78b4e54f551de876f6efa14d7d48e6", "type": "electric_scooter", "is_reserved": 0, "lon": -77.02495733333333}, {"fusion_lat": 0.0, "name": "bc4434fc951f110daf31441c77bbfc70", "is_disabled": 0, "rental_uris": {"android": "https://dc.lft.to/lastmile_qr_scan", "ios": "https://dc.lft.to/lastmile_qr_scan"},