{"data": {"bikes": [{"fusion_lat": 0.0, "type": "electric_scooter", "name": "4119094e0d11c2d71051e5764ac61339", "fusion_lon": 0.0, "bike_id": "4119094e0d11c2d71051e5764ac61339", "is_reserved": 0, "rental_uris": {"android": "https://dc.lft.to/lastmile_qr_scan", "ios": "https://dc.lft.to/lastmile_qr_scan"}, "lat": 38.90223983333333, "is_disabled": 0, "lon": -77.045648}, {"fusion_lat": 0.0, "type": "electric_scooter", "name": "8623f7e9290de2fc58b797d6e466c7d8", "fusion_lon": 0.0, "bike_id": "8623f7e9290de2fc58b797d6e466c7d8", "is_reserved": 0, "rental_uris": {"android": "https://dc.lft.to/lastmile_qr_scan", "ios": "https://dc.lft.to/lastmile_qr_scan"}, "lat": 38.91211366666667, "is_disabled": 0, "lon": -77.03458733333333}, {"fusion_lat": 0.0, "type": "electric_scooter", "name": "7a1dd05c8269952cb2aad8199f3eb30f", "fusion_lon": 0.0, "bike_id": "7a1dd05c8269952cb2aad8199f3eb30f", "is_reserved": 0, "rental_uris": {"android": "https://dc.lft.to/lastmile_qr_scan", "ios": "https://dc.lft.to/lastmile_qr_scan"}, "lat": 38.905224833333335, "is_disabled": 0, "lon": -77.06379966666667}, {"fusion_lat": 0.0, "type": "electric_scooter", "name": "c3aefcc7aa82fa53a8102962afa6a2a0", "fusion_lon": 0.0, "bike_id": "c3aefcc7aa82fa53a8102962afa6a2a0", "is_reserved": 0, "rental_uris": {"android": "https://dc.lft.to/lastmile_qr_scan", "ios": "https://dc.lft.to/lastmile_qr_scan"}, "lat": 38.89887683333333, "is_disabled": 0, "lon": -77.025818}, {"fusion_lat": 0.0, "type": "electric_scooter", "name": "356ed297b30a0da68abe052b57e0d1a9", "fusion_lon": 0.0, "bike_id": "356ed297b30a0da68abe052b57e0d1a9", "is_reserved": 0, "rental_uris": {"android": "https://dc.lft.to/lastmile_qr_scan", "ios": "https://dc.lft.to/lastmile_qr_scan"}, "lat": 38.90106383333333, "is_disabled": 0, "lon": -77.02523766666667}, {"fusion_lat": 0.0, "type": "electric_scooter", "name": "1d2cc814ff4653c1e292e66ed31d62e2", "fusion_lon": 0.0, "bike_id": "1d2cc814ff4653c1e292e66ed31d62e2", "is_reserved": 0, "rental_uris": {"android": "https://dc.lft.to/lastmile_qr_scan", "ios": "https://dc.lft.to/lastmile_qr_scan"}, "lat": 38.9156125, "is_disabled": 0, "lon": -77.03371233333333}, {"fusion_lat": 0.0, "type": "electric_scooter", "name": "bba8a800bffb718db16ed0d9a4028d93", "fusion_lon": 0.0, "bike_id": "bba8a800bffb718db16ed0d9a4028d93", "is_reserved": 0, "rental_uris": {"android": "https://dc.lft.to/lastmile_qr_scan", "ios": "https://dc.lft.to/lastmile_qr_scan"}, "lat": 38.87466333333333, "is_disabled": 0, "lon": -77.0051555}, {"fusion_lat": 0.0, "type": "electric_bike", "name": "8d88a32d71890425f3a8cacdf58db42a", "fusion_lon": 0.0, "bike_id": "8d88a32d71890425f3a8cacdf58db42a", "is_reserved": 0, "rental_uris": {"android": "https://dc.lft.to/lastmile_qr_scan", "ios": "https://dc.lft.to/lastmile_qr_scan"}, "lat": 38.85513616666667, "is_disabled": 0, "lon": -76.9842915}, {"fusion_lat": 0.0, "type": "electric_scooter", "name": "b9ec7c0229696a69a0521496318e59b2", "fusion_lon": 0.0, "bike_id": "b9ec7c0229696a69a0521496318e59b2", "is_reserved": 0, "rental_uris": {"android": "https://dc.lft.to/lastmile_qr_scan", "ios": "https://dc.lft.to/lastmile_qr_scan"}, "lat": 38.921747833333335, "is_disabled": 0, "lon": -77.04225716666667}, {"fusion_lat": 0.0, "type": "electric_scooter", "name": "d46d8f5a916a05c6ac486dc3b1251753", "fusion_lon": 0.0, "bike_id": "d46d8f5a916a05c6ac486dc3b1251753", "is_reserved": 0, "rental_uris": {"android": "https://dc.lft.to/lastmile_qr_scan", "ios": "https://dc.lft.to/lastmile_qr_scan"}, "lat": 38.89222433333333, "is_disabled": 0, "lon": -77.022185}, {"fusion_lat": 0.0, "type": "electric_scooter", "name": "89f754ca47576f8addeec10985c25067", "fusion_lon": 0.0, "bike_id": "89f754ca47576f8addeec10985c25067", "is_reserved": 0, "rental_uris": {"android": "https://dc.lft.to/lastmile_qr_scan", "ios": "https://dc.lft.to/lastmile_qr_scan"}, "lat": 38.93100866666666, "is_disabled": 0, "lon": -77.03633366666666}, {"fusion_lat": 0.0, "type": "electric_scooter", "name": "6b506d238350ea010f29bca8a60a2a4e", "fusion_lon": 0.0, "bike_id": "6b506d238350ea010f29bca8a60a2a4e", "is_reserved": 0, "rental_uris": {"android": "https://dc.lft.to/lastmile_qr_scan", "ios": "https://dc.lft.to/lastmile_qr_scan"}, "lat": 38.863490166666665, "is_disabled": 0, "lon": -76.99059883333334}, {"fusion_lat": 0.0, "type": "electric_scooter", "name": "d053833897fe5b95eeb0f3f57445ec38", "fusion_lon": 0.0, "bike_id": "d053833897fe5b95eeb0f3f57445ec38", "is_reserved": 0, "rental_uris": {"android": "https://dc.lft.to/lastmile_qr_scan", "ios": "https://dc.lft.to/lastmile_qr_scan"}, "lat": 38.90547383333333, "is_disabled": 0, "lon": -77.045005}, {"fusion_lat": 0.0, "type": "electric_scooter", "name": "ad072bf5f0138460f1fd83d3796f4255", "fusion_lon": 0.0, "bike_id": "ad072bf5f0138460f1fd83d3796f4255", "is_reserved": 0, "rental_uris": {"android": "https://dc.lft.to/lastmile_qr_scan", "ios": "https://dc.lft.to/lastmile_qr_scan"}, "lat": 38.89672266666667, "is_disabled": 0, "lon": -77.0318525}, {"fusion_lat": 0.0, "type": "electric_scooter", "name": "38cd9c88ef9cbc80828dd9dca5c3300b", "fusion_lon": 0.0, "bike_id": "38cd9c88ef9cbc80828dd9dca5c3300b", "is_reserved": 0, "rental_uris": {"android": "https://dc.lft.to/lastmile_qr_scan", "ios": "https://dc.lft.to/lastmile_qr_scan"}, "lat": 38.89707033333333, "is_disabled": 0, "lon": -77.03243483333334}, {"fusion_lat": 0.0, "type": "electric_scooter", "name": "f29b869ef5a6c53c3bff2e7ab2968cce", "fusion_lon": 0.0, "bike_id": "f29b869ef5a6c53c3bff2e7ab2968cce", "is_reserved": 0, "rental_uris": {"android": "https://dc.lft.to/lastmile_qr_scan", "ios": "https://dc.lft.to/lastmile_qr_scan"}, "lat": 38.8998155, "is_disabled": 0, "lon": -77.04810783333333}, {"fusion_lat": 0.0, "type": "electric_scooter", "name": "f1d7060513d83fca362934924941a1bf", "fusion_lon": 0.0, "bike_id": "f1d7060513d83fca362934924941a1bf", "is_reserved": 0, "rental_uris": {"android": "https://dc.lft.to/lastmile_qr_scan", "ios": "https://dc.lft.to/lastmile_qr_scan"}, "lat": 38.9067205, "is_disabled": 0, "lon": -77.034798}, {"fusion_lat": 0.0, "type": "electric_scooter", "name": "8f2088befd702b61ebf68540f535691e", "fusion_lon": 0.0, "bike_id": "8f2088befd702b61ebf68540f535691e", "is_reserved": 0, "rental_uris": {"android": "https://dc.lft.to/lastmile_qr_scan", "ios": "https://dc.lft.to/lastmile_qr_scan"}, "lat": 38.90062866666667, "is_disabled": 0, "lon": -76.9274515}, {"fusion_lat": 0.0, "type": "electric_scooter", "name": "16afa05743450e908c423fa312ba1841", "fusion_lon": 0.0, "bike_id": "16afa05743450e908c423fa312ba1841", "is_reserved": 0, "rental_uris": {"android": "https://dc.lft.to/lastmile_qr_scan", "ios": "https://dc.lft.to/lastmile_qr_scan"}, "lat": 38.876240833333334, "is_disabled": 0, "lon": -77.00559116666666}, {"fusion_lat": 0.0, "type": "electric_scooter", "name": "690c6fc156ee646ccbebfcc2ba630707", "fusion_lon": 0.0, "bike_id": "690c6fc156ee646ccbebfcc2ba630707", "is_reserved": 0, "rental_uris": {"android": "https://dc.lft.to/lastmile_qr_scan", "ios": "https://dc.lft.to/lastmile_qr_scan"}, "lat": 38.900229833333334, "is_disabled": 0, "lon": -76.98840566666667}, {"fusion_lat": 0.0, "type": "electric_scooter", "name": "996fec1d8e2156aa83e368b0b673f059", "fusion_lon": 0.0, "bike_id": "996fec1d8e2156aa83e368b0b673f059", "is_reserved": 0, "rental_uris": {"android": "https://dc.lft.to/lastmile_qr_scan", "ios": "https://dc.lft.to/lastmile_qr_scan"}, "lat": 38.939160333333334, "is_disabled": 0, "lon": -77.03271866666667}, {"fusion_lat": 0.0, "type": "electric_scooter", "name": "6e6d6379183de5999e5e8f57fa8d5cd4", "fusion_lon": 0.0, "bike_id": "6e6d6379183de5999e5e8f57fa8d5cd4", "is_reserved": 0, "rental_uris": {"android": "https://dc.lft.to/lastmile_qr_scan", "ios": "https://dc.lft.to/lastmile_qr_scan"}, "lat": 38.8879145, "is_disabled": 0, "lon": -76.93358183333333}, {"fusion_lat": 0.0, "type": "electric_scooter", "name": "875e0c283d8b9257f1ed61ff20987b1f", "fusion_lon": 0.0, "bike_id": "875e0c283d8b9257f1ed61ff20987b1f", "is_reserved": 0, "rental_uris": {"android": "https://dc.lft.to/lastmile_qr_scan", "ios": "https://dc.lft.to/lastmile_qr_scan"}, "lat": 38.90633166666667, "is_disabled": 0, "lon": -77.0385665}, {"fusion_lat": 0.0, "type": "electric_scooter", "name": "ec889d068dc3611ce631dfa1ca9da21e", "fusion_lon": 0.0, "bike_id": "ec889d068dc3611ce631dfa1ca9da21e", "is_reserved": 0, "rental_uris": {"android": "https://dc.lft.to/lastmile_qr_scan", "ios": "https://dc.lft.to/lastmile_qr_scan"}, "lat": 38.915463, "is_disabled": 0, "lon": -77.02555366666667}, {"fusion_lat": 0.0, "type": "electric_scooter", "name": "1f6919302b16d3161f919ea1797a948b", "fusion_lon": 0.0, "bike_id": "1f6919302b16d3161f919ea1797a948b", "is_reserved": 0, "rental_uris": {"android": "https://dc.lft.to/lastmile_qr_scan", "ios": "https://dc.lft.to/lastmile_qr_scan"}, "lat": 38.92235683333333, "is_disabled": 0, "lon": -77.03087916666667}, {"fusion_lat": 0.0, "type": "electric_scooter", "name": "2ea7568767b2415e412973aa9d826551", "fusion_lon": 0.0, "bike_id": "2ea7568767b2415e412973aa9d826551", "is_reserved": 0, "rental_uris": {"android": "https://dc.lft.to/lastmile_qr_scan", "ios": "https://dc.lft.to/lastmile_qr_scan"}, "lat": 38.9167705, "is_disabled": 0, "lon": -77.03209466666667}, {"fusion_lat": 0.0, "type": "electric_scooter", "name": "5445c5eda7091221f4ce379e4f3c0923", "fusion_lon": 0.0, "bike_id": "5445c5eda7091221f4ce379e4f3c0923", "is_reserved": 0, "rental_uris": {"android": "https://dc.lft.to/lastmile_qr_scan", "ios": "https://dc.lft.to/lastmile_qr_scan"}, "lat": 38.8918535, "is_disabled": 0, "lon": -77.00332516666667}, {"fusion_lat": 0.0, "type": "electric_scooter", "name": "cb6367f5794c4731704751f440e9e7a2", "fusion_lon": 0.0, "bike_id": "cb6367f5794c4731704751f440e9e7a2", "is_reserved": 0, "rental_uris": {"android": "https://dc.lft.to/lastmile_qr_scan", "ios": "https://dc.lft.to/lastmile_qr_scan"}, "lat": 38.92115066666667, "is_disabled": 0, "lon": -77.0411165}, {"fusion_lat": 0.0, "type": "electric_scooter", "name": "884a1cb473330029ae426c6569910d80", "fusion_lon": 0.0, "bike_id": "884a1cb473330029ae426c6569910d80", "is_reserved": 0, "rental_uris": {"android": "https://dc.lft.to/lastmile_qr_scan", "ios": "https://dc.lft.to/lastmile_qr_scan"}, "lat": 38.8356275, "is_disabled": 0, "lon": -76.99498816666667}, {"fusion_lat": 0.0, "type": "electric_scooter", "name": "60e49a77829a073392930bb515e0fcce", "fusion_lon": 0.0, "bike_id": "60e49a77829a073392930bb515e0fcce", "is_reserved": 0, "rental_uris": {"android": "https://dc.lft.to/lastmile_qr_scan", "ios": "https://dc.lft.to/lastmile_qr_scan"}, "lat": 38.873139, "is_disabled": 0, "lon": -77.00583833333333}, {"fusion_lat": 0.0, "type": "electric_scooter", "name": "b73ee1b9a8eb51984f1c7b2414af56a7", "fusion_lon": 0.0, "bike_id": "b73ee1b9a8eb51984f1c7b2414af56a7", "is_reserved": 0, "rental_uris": {"android": "https://dc.lft.to/lastmile_qr_scan", "ios": "https://dc.lft.to/lastmile_qr_scan"}, "lat": 38.88810466666666, "is_disabled": 0, "lon": -76.93340466666666}, {"fusion_lat": 0.0, "type": "electric_scooter", "name": "cb40cd263f9a67f66e5e5790beaa6ada", "fusion_lon": 0.0, "bike_id": "cb40cd263f9a67f66e5e5790beaa6ada", "is_reserved": 0, "rental_uris": {"android": "https://dc.lft.to/lastmile_qr_scan", "ios": "https://dc.lft.to/lastmile_qr_scan"}, "lat": 38.89331116666666, "is_disabled": 0, "lon": -77.0120205}, {"fusion_lat": 0.0, "type": "electric_scooter", "name": "8d32a3b047f1b697831631e8d5a44b1f", "fusion_lon": 0.0, "bike_id": "8d32a3b047f1b697831631e8d5a44b1f", "is_reserved": 0, "rental_uris": {"android": "https://dc.lft.to/lastmile_qr_scan", "ios": "https://dc.lft.to/lastmile_qr_scan"}, "lat": 38.8626395, "is_disabled": 0, "lon": -76.994687}, {"fusion_lat": 0.0, "type": "electric_scooter", "name": "587530fb000748fa32145550168af5fe", "fusion_lon": 0.0, "bike_id": "587530fb000748fa32145550168af5fe", "is_reserved": 0, "rental_uris": {"android": "https://dc.lft.to/lastmile_qr_scan", "ios": "https://dc.lft.to/lastmile_qr_scan"}, "lat": 38.9235795, "is_disabled": 0, "lon": -77.02118266666666}, {"fusion_lat": 0.0, "type": "electric_scooter", "name": "1d618ab49da51bae312e59f6b7294efb", "fusion_lon": 0.0, "bike_id": "1d618ab49da51bae312e59f6b7294efb", "is_reserved": 0, "rental_uris": {"android": "https://dc.lft.to/lastmile_qr_scan", "ios": "https://dc.lft.to/lastmile_qr_scan"}, "lat": 38.892353666666665, "is_disabled": 0, "lon": -77.03182266666667}, {"fusion_lat": 0.0, "type": "electric_scooter", "name": "dfab3b3dde725aa4f49f1e93398098d3", "fusion_lon": 0.0, "bike_id": "dfab3b3dde725aa4f49f1e93398098d3", "is_reserved": 0, "rental_uris": {"android": "https://dc.lft.to/lastmile_qr_scan", "ios": "https://dc.lft.to/lastmile_qr_scan"}, "lat": 38.91030283333333, "is_disabled": 0, "lon": -77.04271283333334}, {"fusion_lat": 0.0, "type": "electric_scooter", "name": "c01b31ac510fc0cef2464d69e29337dd", "fusion_lon": 0.0, "bike_id": "c01b31ac510fc0cef2464d69e29337dd", "is_reserved": 0, "rental_uris": {"android": "https://dc.lft.to/lastmile_qr_scan", "ios": "https://dc.lft.to/lastmile_qr_scan"}, "lat": 38.917064, "is_disabled": 0, "lon": -77.03510933333334}, {"fusion_lat": 0.0, "type": "electric_scooter", "name": "996c79c6d543183bc764d7458affd9bb", "fusion_lon": 0.0, "bike_id": "996c79c6d543183bc764d7458affd9bb", "is_reserved": 0, "rental_uris": {"android": "https://dc.lft.to/lastmile_qr_scan", "ios": "https://dc.lft.to/lastmile_qr_scan"}, "lat": 38.89745533333333, "is_disabled": 0, "lon": -77.0265675}, {"fusion_lat": 0.0, "type": "electric_scooter", "name": "e1064c8ae994bac5299b352d2b8c3e14", "fusion_lon": 0.0, "bike_id": "e1064c8ae994bac5299b352d2b8c3e14", "is_reserved": 0, "rental_uris": {"android": "https://dc.lft.to/lastmile_qr_scan", "ios": "https://dc.lft.to/lastmile_qr_scan"}, "lat": 38.887293166666666, "is_disabled": 0, "lon": -77.02828983333333}, {"fusion_lat": 0.0, "type": "electric_scooter", "name": "444fa671e2e4efb917b392415a09ff2c", "fusion_lon": 0.0, "bike_id": "444fa671e2e4efb917b392415a09ff2c", "is_reserved": 0, "rental_uris": {"android": "https://dc.lft.to/lastmile_qr_scan", "ios": "https://dc.lft.to/lastmile_qr_scan"}, "lat": 38.90261183333333, "is_disabled": 0, "lon": -77.02811816666667}, {"fusion_lat": 0.0, "type": "electric_scooter", "name": "1ef44d17e93ec1a7d5c6f07c7d759f6b", "fusion_lon": 0.0, "bike_id": "1ef44d17e93ec1a7d5c6f07c7d759f6b", "is_reserved": 0, "rental_uris": {"android": "https://dc.lft.to/lastmile_qr_scan", "ios": "https://dc.lft.to/lastmile_qr_scan"}, "lat": 38.89879083333334, "is_disabled": 0, "lon": -77.0331495}, {"fusion_lat": 0.0, "type": "electric_scooter", "name": "394d2c7f6df4ba7f57d1308f39c242fd", "fusion_lon": 0.0, "bike_id": "394d2c7f6df4ba7f57d1308f39c242fd", "is_reserved": 0, "rental_uris": {"android": "https://dc.lft.to/lastmile_qr_scan", "ios": "https://dc.lft.to/lastmile_qr_scan"}, "lat": 38.909733833333334, "is_disabled": 0, "lon": -77.02424033333334}, {"fusion_lat": 0.0, "type": "electric_scooter", "name": "adf19b4cc1d684de36a47d6ebc0498a4", "fusion_lon": 0.0, "bike_id": "adf19b4cc1d684de36a47d6ebc0498a4", "is_reserved": 0, "rental_uris": {"android": "https://dc.lft.to/lastmile_qr_scan", "ios": "https://dc.lft.to/lastmile_qr_scan"}, "lat": 38.90549083333333, "is_disabled": 0, "lon": -77.00540383333333}, {"fusion_lat": 0.0, "type": "electric_scooter", "name": "fb0d8fce89ae36bba39d89b13df67f0a", "fusion_lon": 0.0, "bike_id": "fb0d8fce89ae36bba39d89b13df67f0a", "is_reserved": 0, "rental_uris": {"android": "https://dc.lft.to/lastmile_qr_scan", "ios": "https://dc.lft.to/lastmile_qr_scan"}, "lat": 38.9337125, "is_disabled": 0, "lon": -77.02355583333333}, {"fusion_lat": 0.0, "type": "electric_scooter", "name": "f43492ec6610a5cda5d8e9bc47e74bdb", "fusion_lon": 0.0, "bike_id": "f43492ec6610a5cda5d8e9bc47e74bdb", "is_reserved": 0, "rental_uris": {"android": "https://dc.lft.to/lastmile_qr_scan", "ios": "https://dc.lft.to/lastmile_qr_scan"}, "lat": 38.922749, "is_disabled": 0, "lon": -77.0424435}, {"fusion_lat": 0.0, "type": "electric_scooter", "name": "e540610c7df37bcf7823b581d6faabaa", "fusion_lon": 0.0, "bike_id": "e540610c7df37bcf7823b581d6faabaa", "is_reserved": 0, "rental_uris": {"android": "https://dc.lft.to/lastmile_qr_scan", "ios": "https://dc.lft.to/lastmile_qr_scan"}, "lat": 38.8871765, "is_disabled": 0, "lon": -77.01779183333333}, {"fusion_lat": 0.0, "type": "electric_scooter", "name": "edc7b8aac2d63de9e1589ded33eaffc4", "fusion_lon": 0.0, "bike_id": "edc7b8aac2d63de9e1589ded33eaffc4", "is_reserved": 0, "rental_uris": {"android": "https://dc.lft.to/lastmile_qr_scan", "ios": "https://dc.lft.to/lastmile_qr_scan"}, "lat": 38.894653166666664, "is_disabled": 0, "lon": -77.02195516666667}, {"fusion_lat": 0.0, "type": "electric_scooter", "name": "de19f9ffb29f4ead6628d3ecffc8cfec", "fusion_lon": 0.0, "bike_id": "de19f9ffb29f4ead6628d3ecffc8cfec", "is_reserved": 0, "rental_uris": {"android": "https://dc.lft.to/lastmile_qr_scan", "ios": "https://dc.lft.to/lastmile_qr_scan"}, "lat": 38.90717583333333, "is_disabled": 0, "lon": -77.043377}, {"fusion_lat": 0.0, "type": "electric_bike", "name": "2dd35103c8bcf44416b5014900599022", "fusion_lon": 0.0, "bike_id": "2dd35103c8bcf44416b5014900599022", "is_reserved": 0, "rental_uris": {"android": "https://dc.lft.to/lastmile_qr_scan", "ios": "https://dc.lft.to/lastmile_qr_scan"}, "lat": 38.85013083333333, "is_disabled": 0, "lon": -77.098177}, {"fusion_lat": 0.0, "type": "electric_scooter", "name": "6cf182e4ebbe6779d0600b094a0eb9e5", "fusion_lon": 0.0, "bike_id": "6cf182e4ebbe6779d0600b094a0eb9e5", "is_reserved": 0, "rental_uris": {"android": "https://dc.lft.to/lastmile_qr_scan", "ios": "https://dc.lft.to/lastmile_qr_scan"}, "lat": 38.90050816666667, "is_disabled": 0, "lon": -76.99024966666667}, {"fusion_lat": 0.0, "type": "electric_scooter", "name": "422d011d9f9c831d1c09f5a0f5f03eaf", "fusion_lon": 0.0, "bike_id": "422d011d9f9c831d1c09f5a0f5f03eaf", "is_reserved": 0, "rental_uris": {"android": "https://dc.lft.to/lastmile_qr_scan", "ios": "https://dc.lft.to/lastmile_qr_scan"}, "lat": 38.91704166666667, "is_disabled": 0, "lon": -77.0333595}, {"fusion_lat": 0.0, "type": "electric_scooter", "name": "87475022dbd223902efc56cddf8ecba8", "fusion_lon": 0.0, "bike_id": "87475022dbd223902efc56cddf8ecba8", "is_reserved": 0, "rental_uris": {"android": "https://dc.lft.to/lastmile_qr_scan", "ios": "https://dc.lft.to/lastmile_qr_scan"}, "lat": 38.881946666666664, "is_disabled": 0, "lon": -77.01747433333334}, {"fusion_lat": 0.0, "type": "electric_scooter", "name": "7d3c5bec910718f21c2ac174e15a9ece", "fusion_lon": 0.0, "bike_id": "7d3c5bec910718f21c2ac174e15a9ece", "is_reserved": 0, "rental_uris": {"android": "https://dc.lft.to/lastmile_qr_scan", "ios": "https://dc.lft.to/lastmile_qr_scan"}, "lat": 38.9185125, "is_disabled": 0, "lon": -77.02554366666666}, {"fusion_lat": 0.0, "type": "electric_scooter", "name": "fd6d3ed93e6bd09b634cf95e574b7f51", "fusion_lon": 0.0, "bike_id": "fd6d3ed93e6bd09b634cf95e574b7f51", "is_reserved": 0, "rental_uris": {"android": "https://dc.lft.to/lastmile_qr_scan", "ios": "https://dc.lft.to/lastmile_qr_scan"}, "lat": 38.88042683333333, "is_disabled": 0, "lon": -77.01984133333333}, {"fusion_lat": 0.0, "type": "electric_scooter", "name": "a1d8c5c739c2699aaf32d393054e853e", "fusion_lon": 0.0, "bike_id": "a1d8c5c739c2699aaf32d393054e853e", "is_reserved": 0, "rental_uris": {"android": "https://dc.lft.to/lastmile_qr_scan", "ios": "https://dc.lft.to/lastmile_qr_scan"}, "lat": 38.907688, "is_disabled": 0, "lon": -77.06328883333333}, {"fusion_lat": 0.0, "type": "electric_scooter", "name": "7629068f4359c203e3c8b07e64b9e974", "fusion_lon": 0.0, "bike_id": "7629068f4359c203e3c8b07e64b9e974", "is_reserved": 0, "rental_uris": {"android": "https://dc.lft.to/lastmile_qr_scan", "ios": "https://dc.lft.to/lastmile_qr_scan"}, "lat": 38.90522033333333, "is_disabled": 0, "lon": -77.06426816666666}, {"fusion_lat": 0.0, "type": "electric_scooter", "name": "ac6582d2436f58d660d53d5c950f0055", "fusion_lon": 0.0, "bike_id": "ac6582d2436f58d660d53d5c950f0055", "is_reserved": 0, "rental_uris": {"android": "https://dc.lft.to/lastmile_qr_scan", "ios": "https://dc.lft.to/lastmile_qr_scan"}, "lat": 38.89220783333333, "is_disabled": 0, "lon": -77.04679816666666}, {"fusion_lat": 0.0, "type": "electric_bike", "name": "987a1ad7530cd020dd0fdfe0fe7389c3", "fusion_lon": 0.0, "bike_id": "987a1ad7530cd020dd0fdfe0fe7389c3", "is_reserved": 0, "rental_uris": {"android": "https://dc.lft.to/lastmile_qr_scan", "ios": "https://dc.lft.to/lastmile_qr_scan"}, "lat": 38.877287, "is_disabled": 0, "lon": -76.981046}, {"fusion_lat": 0.0, "type": "electric_scooter", "name": "7006156c559db6436f3c907238da6733", "fusion_lon": 0.0, "bike_id": "7006156c559db6436f3c907238da6733", "is_reserved": 0, "rental_uris": {"android": "https://dc.lft.to/lastmile_qr_scan", "ios": "https://dc.lft.to/lastmile_qr_scan"}, "lat": 38.92323233333333, "is_disabled": 0, "lon": -77.01959733333334}, {"fusion_lat": 0.0, "type": "electric_scooter", "name": "272929ed8e3635100705f6d21b6ea7d3", "fusion_lon": 0.0, "bike_id": "272929ed8e3635100705f6d21b6ea7d3", "is_reserved": 0, "rental_uris": {"android": "https://dc.lft.to/lastmile_qr_scan", "ios": "https://dc.lft.to/lastmile_qr_scan"}, "lat": 38.92301916666667, "is_disabled": 0, "lon": -77.04462216666667}, {"fusion_lat": 0.0, "type": "electric_scooter", "name": "acf91e1983433b0de8b3265856aa6ecb", "fusion_lon": 0.0, "bike_id": "acf91e1983433b0de8b3265856aa6ecb", "is_reserved": 0, "rental_uris": {"android": "https://dc.lft.to/lastmile_qr_scan", "ios": "https://dc.lft.to/lastmile_qr_scan"}, "lat": 38.9194705, "is_disabled": 0, "lon": -77.01899133333333}, {"fusion_lat": 0.0, "type": "electric_scooter", "name": "5a223a09937fd2370a9e954026c7ef50", "fusion_lon": 0.0, "bike_id": "5a223a09937fd2370a9e954026c7ef50", "is_reserved": 0, "rental_uris": {"android": "https://dc.lft.to/lastmile_qr_scan", "ios": "https://dc.lft.to/lastmile_qr_scan"}, "lat": 38.9203445, "is_disabled": 0, "lon": -77.01215}, {"fusion_lat": 0.0, "type": "electric_scooter", "name": "38e372690d898f4b68bb66ecabcb84a3", "fusion_lon": 0.0, "bike_id": "38e372690d898f4b68bb66ecabcb84a3", "is_reserved": 0, "rental_uris": {"android": "https://dc.lft.to/lastmile_qr_scan", "ios": "https://dc.lft.to/lastmile_qr_scan"}, "lat": 38.9489905, "is_disabled": 0, "lon": -77.00646716666667}, {"fusion_lat": 0.0, "type": "electric_scooter", "name": "38c1401aefe8915b68eaa95f30016e53", "fusion_lon": 0.0, "bike_id": "38c1401aefe8915b68eaa95f30016e53", "is_reserved": 0, "rental_uris": {"android": "https://dc.lft.to/lastmile_qr_scan", "ios": "https://dc.lft.to/lastmile_qr_scan"}, "lat": 38.8746095, "is_disabled": 0, "lon": -77.00956416666666}, {"fusion_lat": 0.0, "type": "electric_scooter", "name": "1cadafc0e4e40da8703738d67a3a3cb7", "fusion_lon": 0.0, "bike_id": "1cadafc0e4e40da8703738d67a3a3cb7", "is_reserved": 0, "rental_uris": {"android": "https://dc.lft.to/lastmile_qr_scan", "ios": "https://dc.lft.to/lastmile_qr_scan"}, "lat": 38.860577166666666, "is_disabled": 0, "lon": -76.98421516666667}, {"fusion_lat": 0.0, "type": "electric_scooter", "name": "9f6337630a7d827def46a232f6744eea", "fusion_lon": 0.0, "bike_id": "9f6337630a7d827def46a232f6744eea", "is_reserved": 0, "rental_uris": {"android": "https://dc.lft.to/lastmile_qr_scan", "ios": "https://dc.lft.to/lastmile_qr_scan"}, "lat": 38.9345965, "is_disabled": 0, "lon": -77.0578135}, {"fusion_lat": 0.0, "type": "electric_scooter", "name": "1bdea4b0ed99f122ed4f8f7a237ee0ff", "fusion_lon": 0.0, "bike_id": "1bdea4b0ed99f122ed4f8f7a237ee0ff", "is_reserved": 0, "rental_uris": {"android": "https://dc.lft.to/lastmile_qr_scan", "ios": "https://dc.lft.to/lastmile_qr_scan"}, "lat": 38.904328666666665, "is_disabled": 0, "lon": -77.03206916666667}, {"fusion_lat": 0.0, "type": "electric_scooter", "name": "3a0e349205bb2707485c47254b3ea158", "fusion_lon": 0.0, "bike_id": "3a0e349205bb2707485c47254b3ea158", "is_reserved": 0, "rental_uris": {"android": "https://dc.lft.to/lastmile_qr_scan", "ios": "https://dc.lft.to/lastmile_qr_scan"}, "lat": 38.89842733333333, "is_disabled": 0, "lon": -76.94641233333333}, {"fusion_lat": 0.0, "type": "electric_scooter", "name": "0932ed109bd937309a2a7d821e093302", "fusion_lon": 0.0, "bike_id": "0932ed109bd937309a2a7d821e093302", "is_reserved": 0, "rental_uris": {"android": "https://dc.lft.to/lastmile_qr_scan", "ios": "https://dc.lft.to/lastmile_qr_scan"}, "lat": 38.884238333333336, "is_disabled": 0, "lon": -77.03044666666666}, {"fusion_lat": 0.0, "type": "electric_scooter", "name": "2fd3fee706944479a87b08ab7f4183fb", "fusion_lon": 0.0, "bike_id": "2fd3fee706944479a87b08ab7f4183fb", "is_reserved": 0, "rental_uris": {"android": "https://dc.lft.to/lastmile_qr_scan", "ios": "https://dc.lft.to/lastmile_qr_scan"}, "lat": 38.91980383333333, "is_disabled": 0, "lon": -76.973009}, {"fusion_lat": 0.0, "type": "electric_scooter", "name": "ffa2d59de42fb266c3cc7ba4b7eeb459", "fusion_lon": 0.0, "bike_id": "ffa2d59de42fb266c3cc7ba4b7eeb459", "is_reserved": 0, "rental_uris": {"android": "https://dc.lft.to/lastmile_qr_scan", "ios": "https://dc.lft.to/lastmile_qr_scan"}, "lat": 38.90826716666667, "is_disabled": 0, "lon": -77.04257733333333}, {"fusion_lat": 0.0, "type": "electric_scooter", "name": "85fa6b91b9296120ed0d6c209ec16a7e", "fusion_lon": 0.0, "bike_id": "85fa6b91b9296120ed0d6c209ec16a7e", "is_reserved": 0, "rental_uris": {"android": "https://dc.lft.to/lastmile_qr_scan", "ios": "https://dc.lft.to/lastmile_qr_scan"}, "lat": 38.889904666666666, "is_disabled": 0, "lon": -76.9311045}, {"fusion_lat": 0.0, "type": "electric_scooter", "name": "d7cf11fab11005b18970670549010f55", "fusion_lon": 0.0, "bike_id": "d7cf11fab11005b18970670549010f55", "is_reserved": 0, "rental_uris": {"android": "https://dc.lft.to/lastmile_qr_scan", "ios": "https://dc.lft.to/lastmile_qr_scan"}, "lat": 38.917554, "is_disabled": 0, "lon": -77.03139716666666}, {"fusion_lat": 0.0, "type": "electric_scooter", "name": "077b9c7f4223408b4ce451e0e547bf8a", "fusion_lon": 0.0, "bike_id": "077b9c7f4223408b4ce451e0e547bf8a", "is_reserved": 0, "rental_uris": {"android": "https://dc.lft.to/lastmile_qr_scan", "ios": "https://dc.lft.to/lastmile_qr_scan"}, "lat": 38.894148333333334, "is_disabled": 0, "lon": -77.0208235}, {"fusion_lat": 0.0, "type": "electric_scooter", "name": "4e22d83dad1fc3387d3b4ee392ff7c06", "fusion_lon": 0.0, "bike_id": "4e22d83dad1fc3387d3b4ee392ff7c06", "is_reserved": 0, "rental_uris": {"android": "https://dc.lft.to/lastmile_qr_scan", "ios": "https://dc.lft.to/lastmile_qr_scan"}, "lat": 38.892225, "is_disabled": 0, "lon": -77.04376283333333}, {"fusion_lat": 0.0, "type": "electric_scooter", "name": "cc0407bd20e0489a7518f61474dd4f1a", "fusion_lon": 0.0, "bike_id": "cc0407bd20e0489a7518f61474dd4f1a", "is_reserved": 0, "rental_uris": {"android": "https://dc.lft.to/lastmile_qr_scan", "ios": "https://dc.lft.to/lastmile_qr_scan"}, "lat": 38.89315033333333, "is_disabled": 0, "lon": -76.95116183333333}, {"fusion_lat": 0.0, "type": "electric_scooter", "name": "e7b64d36c4e07b26e8e88f705ac03d28", "fusion_lon": 0.0, "bike_id": "e7b64d36c4e07b26e8e88f705ac03d28", "is_reserved": 0, "rental_uris": {"android": "https://dc.lft.to/lastmile_qr_scan", "ios": "https://dc.lft.to/lastmile_qr_scan"}, "lat": 38.941799, "is_disabled": 0, "lon": -77.02530616666667}, {"fusion_lat": 0.0, "type": "electric_scooter", "name": "096752fcf7ff4e4338fefe3321e0325b", "fusion_lon": 0.0, "bike_id": "096752fcf7ff4e4338fefe3321e0325b", "is_reserved": 0, "rental_uris": {"android": "https://dc.lft.to/lastmile_qr_scan", "ios": "https://dc.lft.to/lastmile_qr_scan"}, "lat": 38.90313583333333, "is_disabled": 0, "lon": -77.03320783333334}, {"fusion_lat": 0.0, "type": "electric_scooter", "name": "e08dec1fb181953716b33514b8d344c3", "fusion_lon": 0.0, "bike_id": "e08dec1fb181953716b33514b8d344c3", "is_reserved": 0, "rental_uris": {"android": "https://dc.lft.to/lastmile_qr_scan", "ios": "https://dc.lft.to/lastmile_qr_scan"}, "lat": 38.901397833333334, "is_disabled": 0, "lon": -77.04895683333334}, {"fusion_lat": 0.0, "type": "electric_scooter", "name": "da44739baf4c070c5bfb6e7e53f2da1c", "fusion_lon": 0.0, "bike_id": "da44739baf4c070c5bfb6e7e53f2da1c", "is_reserved": 0, "rental_uris": {"android": "https://dc.lft.to/lastmile_qr_scan", "ios": "https://dc.lft.to/lastmile_qr_scan"}, "lat": 38.896887666666665, "is_disabled": 0, "lon": -77.02655883333334}, {"fusion_lat": 0.0, "type": "electric_scooter", "name": "dff45e12865a4ee825c846331db44d72", "fusion_lon": 0.0, "bike_id": "dff45e12865a4ee825c846331db44d72", "is_reserved": 0, "rental_uris": {"android": "https://dc.lft.to/lastmile_qr_scan", "ios": "https://dc.lft.to/lastmile_qr_scan"}, "lat": 38.913273333333336, "is_disabled": 0, "lon": -77.048151}, {"fusion_lat": 0.0, "type": "electric_scooter", "name": "95294add59a146b587d96076e93ffe36", "fusion_lon": 0.0, "bike_id": "95294add59a146b587d96076e93ffe36", "is_reserved": 0, "rental_uris": {"android": "https://dc.lft.to/lastmile_qr_scan", "ios": "https://dc.lft.to/lastmile_qr_scan"}, "lat": 38.9140345, "is_disabled": 0, "lon": -77.032254}, {"fusion_lat": 0.0, "type": "electric_scooter", "name": "7466ffa7344f674c1850393cf2c3018c", "fusion_lon": 0.0, "bike_id": "7466ffa7344f674c1850393cf2c3018c", "is_reserved": 0, "rental_uris": {"android": "https://dc.lft.to/lastmile_qr_scan", "ios": "https://dc.lft.to/lastmile_qr_scan"}, "lat": 38.8961595, "is_disabled": 0, "lon": -76.99298166666667}, {"fusion_lat": 0.0, "type": "electric_scooter", "name": "9cdc975aa615cc58b3071b9969c02da5", "fusion_lon": 0.0, "bike_id": "9cdc975aa615cc58b3071b9969c02da5", "is_reserved": 0, "rental_uris": {"android": "https://dc.lft.to/lastmile_qr_scan", "ios": "https://dc.lft.to/lastmile_qr_scan"}, "lat": 38.89219666666666, "is_disabled": 0, "lon": -77.03166716666667}, {"fusion_lat": 0.0, "type": "electric_scooter", "name": "c5c3cdcd28b1fac9b7231e65dbfe4366", "fusion_lon": 0.0, "bike_id": "c5c3cdcd28b1fac9b7231e65dbfe4366", "is_reserved": 0, "rental_uris": {"android": "https://dc.lft.to/lastmile_qr_scan", "ios": "https://dc.lft.to/lastmile_qr_scan"}, "lat": 38.9168455, "is_disabled": 0, "lon": -77.03212933333333}, {"fusion_lat": 0.0, "type": "electric_scooter", "name": "3f07a53e7473ce15c2078b8c451b25e9", "fusion_lon": 0.0, "bike_id": "3f07a53e7473ce15c2078b8c451b25e9", "is_reserved": 0, "rental_uris": {"android": "https://dc.lft.to/lastmile_qr_scan", "ios": "https://dc.lft.to/lastmile_qr_scan"}, "lat": 38.95243216666667, "is_disabled": 0, "lon": -77.00214366666667}, {"fusion_lat": 0.0, "type": "electric_scooter", "name": "024ce63e94a6a583361e522e34f5f7e8", "fusion_lon": 0.0, "bike_id": "024ce63e94a6a583361e522e34f5f7e8", "is_reserved": 0, "rental_uris": {"android": "https://dc.lft.to/lastmile_qr_scan", "ios": "https://dc.lft.to/lastmile_qr_scan"}, "lat": 38.89142566666666, "is_disabled": 0, "lon": -76.98383816666667}, {"fusion_lat": 0.0, "type": "electric_scooter", "name": "60af117e931f55cc7a0c0d1c94375e7c", "fusion_lon": 0.0, "bike_id": "60af117e931f55cc7a0c0d1c94375e7c", "is_reserved": 0, "rental_uris": {"android": "https://dc.lft.to/lastmile_qr_scan", "ios": "https://dc.lft.to/lastmile_qr_scan"}, "lat": 38.9235025, "is_disabled": 0, "lon": -77.0352645}, {"fusion_lat": 0.0, "type": "electric_scooter", "name": "e2e876b52c25045f9e0773d578412416", "fusion_lon": 0.0, "bike_id": "e2e876b52c25045f9e0773d578412416", "is_reserved": 0, "rental_uris": {"android": "https://dc.lft.to/lastmile_qr_scan", "ios": "https://dc.lft.to/lastmile_qr_scan"}, "lat": 38.907719166666666, "is_disabled": 0, "lon": -77.034988}, {"fusion_lat": 0.0, "type": "electric_scooter", "name": "46d991b16c9fb73c9ffd9a820a2c378d", "fusion_lon": 0.0, "bike_id": "46d991b16c9fb73c9ffd9a820a2c378d", "is_reserved": 0, "rental_uris": {"android": "https://dc.lft.to/lastmile_qr_scan", "ios": "https://dc.lft.to/lastmile_qr_scan"}, "lat": 38.920883, "is_disabled": 0, "lon": -77.02412316666667}, {"fusion_lat": 0.0, "type": "electric_scooter", "name": "c7547c218512172000b5cc7ce0c0a840", "fusion_lon": 0.0, "bike_id": "c7547c218512172000b5cc7ce0c0a840", "is_reserved": 0, "rental_uris": {"android": "https://dc.lft.to/lastmile_qr_scan", "ios": "https://dc.lft.to/lastmile_qr_scan"}, "lat": 38.9081385, "is_disabled": 0, "lon": -77.043494}, {"fusion_lat": 0.0, "type": "electric_scooter", "name": "9f4d9486223d17fd6b651c9a23bb189d", "fusion_lon": 0.0, "bike_id": "9f4d9486223d17fd6b651c9a23bb189d", "is_reserved": 0, "rental_uris": {"android": "https://dc.lft.to/lastmile_qr_scan", "ios": "https://dc.lft.to/lastmile_qr_scan"}, "lat": 38.89166816666667, "is_disabled": 0, "lon": -76.91194783333333}, {"fusion_lat": 0.0, "type": "electric_scooter", "name": "ad3e811a0c26c690c447cc82d468664c", "fusion_lon": 0.0, "bike_id": "ad3e811a0c26c690c447cc82d468664c", "is_reserved": 0, "rental_uris": {"android": "https://dc.lft.to/lastmile_qr_scan", "ios": "https://dc.lft.to/lastmile_qr_scan"}, "lat": 38.92334616666667, "is_disabled": 0, "lon": -77.0446115}, {"fusion_lat": 0.0, "type": "electric_scooter", "name": "2c3b31e5b91d6c721322774afcc0b878", "fusion_lon": 0.0, "bike_id": "2c3b31e5b91d6c721322774afcc0b878", "is_reserved": 0, "rental_uris": {"android": "https://dc.lft.to/lastmile_qr_scan", "ios": "https://dc.lft.to/lastmile_qr_scan"}, "lat": 38.92418083333333, "is_disabled": 0, "lon": -77.02274}, {"fusion_lat": 0.0, "type": "electric_scooter", "name": "775c95d094dbb4d1c805350bf1182834", "fusion_lon": 0.0, "bike_id": "775c95d094dbb4d1c805350bf1182834", "is_reserved": 0, "rental_uris": {"android": "https://dc.lft.to/lastmile_qr_scan", "ios": "https://dc.lft.to/lastmile_qr_scan"}, "lat": 38.900035333333335, "is_disabled": 0, "lon": -77.00653933333334}, {"fusion_lat": 0.0, "type": "electric_scooter", "name": "18349e2831c6ba050d3c69199efc09a5", "fusion_lon": 0.0, "bike_id": "18349e2831c6ba050d3c69199efc09a5", "is_reserved": 0, "rental_uris": {"android": "https://dc.lft.to/lastmile_qr_scan", "ios": "https://dc.lft.to/lastmile_qr_scan"}, "lat": 38.8922095, "is_disabled": 0, "lon": -77.03225233333333}, {"fusion_lat": 0.0, "type": "electric_scooter", "name": "63b81b9df5222698233d81006df3c6ef", "fusion_lon": 0.0, "bike_id": "63b81b9df5222698233d81006df3c6ef", "is_reserved": 0, "rental_uris": {"android": "https://dc.lft.to/lastmile_qr_scan", "ios": "https://dc.lft.to/lastmile_qr_scan"}, "lat": 38.864125, "is_disabled": 0, "lon": -76.97426083333333}, {"fusion_lat": 0.0, "type": "electric_scooter", "name": "edb8438bb5b0192d64fbc0c6d73c4ba8", "fusion_lon": 0.0, "bike_id": "edb8438bb5b0192d64fbc0c6d73c4ba8", "is_reserved": 0, "rental_uris": {"android": "https://dc.lft.to/lastmile_qr_scan", "ios": "https://dc.lft.to/lastmile_qr_scan"}, "lat": 38.903114, "is_disabled": 0, "lon": -77.03466183333333}, {"fusion_lat": 0.0, "type": "electric_scooter", "name": "f5bd912f3cb5bd3e6f7d00af128c07ea", "fusion_lon": 0.0, "bike_id": "f5bd912f3cb5bd3e6f7d00af128c07ea", "is_reserved": 0, "rental_uris": {"android": "https://dc.lft.to/lastmile_qr_scan", "ios": "https://dc.lft.to/lastmile_qr_scan"}, "lat": 38.892219833333336, "is_disabled": 0, "lon": -77.0262175}, {"fusion_lat": 0.0, "type": "electric_scooter", "name": "06882848294908e08092a887bf50536d", "fusion_lon": 0.0, "bike_id": "06882848294908e08092a887bf50536d", "is_reserved": 0, "rental_uris": {"android": "https://dc.lft.to/lastmile_qr_scan", "ios": "https://dc.lft.to/lastmile_qr_scan"}, "lat": 38.937627666666664, "is_disabled": 0, "lon": -77.02198866666667}, {"fusion_lat": 0.0, "type": "electric_scooter", "name": "0ee202993a97480e44dc9d6f0808cb04", "fusion_lon": 0.0, "bike_id": "0ee202993a97480e44dc9d6f0808cb04", "is_reserved": 0, "rental_uris": {"android": "https://dc.lft.to/lastmile_qr_scan", "ios": "https://dc.lft.to/lastmile_qr_scan"}, "lat": 38.8923305, "is_disabled": 0, "lon": -77.03184833333333}, {"fusion_lat": 0.0, "type": "electric_scooter", "name": "5fbf6d0305e50c9f7926009ec79c8cb4", "fusion_lon": 0.0, "bike_id": "5fbf6d0305e50c9f7926009ec79c8cb4", "is_reserved": 0, "rental_uris": {"android": "https://dc.lft.to/lastmile_qr_scan", "ios": "https://dc.lft.to/lastmile_qr_scan"}, "lat": 38.922485333333334, "is_disabled": 0, "lon": -77.0723095}, {"fusion_lat": 0.0, "type": "electric_scooter", "name": "8ca1a64791edeb5249c981d1879c7d94", "fusion_lon": 0.0, "bike_id": "8ca1a64791edeb5249c981d1879c7d94", "is_reserved": 0, "rental_uris": {"android": "https://dc.lft.to/lastmile_qr_scan", "ios": "https://dc.lft.to/lastmile_qr_scan"}, "lat": 38.92903366666667, "is_disabled": 0, "lon": -77.03755216666667}, {"fusion_lat": 0.0, "type": "electric_scooter", "name": "1121beb2acb2131965c098a1df09b918", "fusion_lon": 0.0, "bike_id": "1121beb2acb2131965c098a1df09b918", "is_reserved": 0, "rental_uris": {"android": "https://dc.lft.to/lastmile_qr_scan", "ios": "https://dc.lft.to/lastmile_qr_scan"}, "lat": 38.92332966666667, "is_disabled": 0, "lon": -77.02147516666666}, {"fusion_lat": 0.0, "type": "electric_bike", "name": "12d2e5a76eaaaf4917444fa382467ff4", "fusion_lon": 0.0, "bike_id": "12d2e5a76eaaaf4917444fa382467ff4", "is_reserved": 0, "rental_uris": {"android": "https://dc.lft.to/lastmile_qr_scan", "ios": "https://dc.lft.to/lastmile_qr_scan"}, "lat": 38.887137833333334, "is_disabled": 0, "lon": -77.13301583333333}, {"fusion_lat": 0.0, "type": "electric_scooter", "name": "26916642bcdc1064c5fd56f1a8f43358", "fusion_lon": 0.0, "bike_id": "26916642bcdc1064c5fd56f1a8f43358", "is_reserved": 0, "rental_uris": {"android": "https://dc.lft.to/lastmile_qr_scan", "ios": "https://dc.lft.to/lastmile_qr_scan"}, "lat": 38.923174833333334, "is_disabled": 0, "lon": -77.03410866666667}, {"fusion_lat": 0.0, "type": "electric_scooter", "name": "8faa83485815b0bd055ef887a3cdec44", "fusion_lon": 0.0, "bike_id": "8faa83485815b0bd055ef887a3cdec44", "is_reserved": 0, "rental_uris": {"android": "https://dc.lft.to/lastmile_qr_scan", "ios": "https://dc.lft.to/lastmile_qr_scan"}, "lat": 38.910286, "is_disabled": 0, "lon": -77.036774}, {"fusion_lat": 0.0, "type": "electric_scooter", "name": "64739f5fc6c8b51f84bccb479c83cdc7", "fusion_lon": 0.0, "bike_id": "64739f5fc6c8b51f84bccb479c83cdc7", "is_reserved": 0, "rental_uris": {"android": "https://dc.lft.to/lastmile_qr_scan", "ios": "https://dc.lft.to/lastmile_qr_scan"}, "lat": 38.90715133333333, "is_disabled": 0, "lon": -77.04339583333334}, {"fusion_lat": 0.0, "type": "electric_scooter", "name": "25b885f205832fd6646d8859de6d1418", "fusion_lon": 0.0, "bike_id": "25b885f205832fd6646d8859de6d1418", "is_reserved": 0, "rental_uris": {"android": "https://dc.lft.to/lastmile_qr_scan", "ios": "https://dc.lft.to/lastmile_qr_scan"}, "lat": 38.88022566666667, "is_disabled": 0, "lon": -77.02665183333333}, {"fusion_lat": 0.0, "type": "electric_scooter", "name": "46144f32d3a077d72e63cf1fee2db38f", "fusion_lon": 0.0, "bike_id": "46144f32d3a077d72e63cf1fee2db38f", "is_reserved": 0, "rental_uris": {"android": "https://dc.lft.to/lastmile_qr_scan", "ios": "https://dc.lft.to/lastmile_qr_scan"}, "lat": 38.9305515, "is_disabled": 0, "lon": -77.0379275}, {"fusion_lat": 0.0, "type": "electric_scooter", "name": "a943f2a35ffd370558e54dc3d1620786", "fusion_lon": 0.0, "bike_id": "a943f2a35ffd370558e54dc3d1620786", "is_reserved": 0, "rental_uris": {"android": "https://dc.lft.to/lastmile_qr_scan", "ios": "https://dc.lft.to/lastmile_qr_scan"}, "lat": 38.90133216666667, "is_disabled": 0, "lon": -77.0477855}, {"fusion_lat": 0.0, "type": "electric_scooter", "name": "05e6cb08c33efd6e02e5ef43ee1c63d1", "fusion_lon": 0.0, "bike_id": "05e6cb08c33efd6e02e5ef43ee1c63d1", "is_reserved": 0, "rental_uris": {"android": "https://dc.lft.to/lastmile_qr_scan", "ios": "https://dc.lft.to/lastmile_qr_scan"}, "lat": 38.924619, "is_disabled": 0, "lon": -77.05758316666666}, {"fusion_lat": 0.0, "type": "electric_scooter", "name": "b91d71b93e3fec76fb43a1a32677df8a", "fusion_lon": 0.0, "bike_id": "b91d71b93e3fec76fb43a1a32677df8a", "is_reserved": 0, "rental_uris": {"android": "https://dc.lft.to/lastmile_qr_scan", "ios": "https://dc.lft.to/lastmile_qr_scan"}, "lat": 38.9162705, "is_disabled": 0, "lon": -77.0414375}, {"fusion_lat": 0.0, "type": "electric_scooter", "name": "3ca49ae66ed89b44fd6c7265d925dbce", "fusion_lon": 0.0, "bike_id": "3ca49ae66ed89b44fd6c7265d925dbce", "is_reserved": 0, "rental_uris": {"android": "https://dc.lft.to/lastmile_qr_scan", "ios": "https://dc.lft.to/lastmile_qr_scan"}, "lat": 38.91849783333333, "is_disabled": 0, "lon": -77.0459075}, {"fusion_lat": 0.0, "type": "electric_scooter", "name": "5b3253aba4e8a75e4f8ce9b922837dfd", "fusion_lon": 0.0, "bike_id": "5b3253aba4e8a75e4f8ce9b922837dfd", "is_reserved": 0, "rental_uris": {"android": "https://dc.lft.to/lastmile_qr_scan", "ios": "https://dc.lft.to/lastmile_qr_scan"}, "lat": 38.9204455, "is_disabled": 0, "lon": -77.03657316666667}, {"fusion_lat": 0.0, "type": "electric_scooter", "name": "e0a8d1c70b0a2c1c412b25b54a9efdc1", "fusion_lon": 0.0, "bike_id": "e0a8d1c70b0a2c1c412b25b54a9efdc1", "is_reserved": 0, "rental_uris": {"android": "https://dc.lft.to/lastmile_qr_scan", "ios": "https://dc.lft.to/lastmile_qr_scan"}, "lat": 38.8942755, "is_disabled": 0, "lon": -76.94877416666667}, {"fusion_lat": 0.0, "type": "electric_scooter", "name": "ff5e3825b2b8e24e6a28d0a80b205a29", "fusion_lon": 0.0, "bike_id": "ff5e3825b2b8e24e6a28d0a80b205a29", "is_reserved": 0, "rental_uris": {"android": "https://dc.lft.to/lastmile_qr_scan", "ios": "https://dc.lft.to/lastmile_qr_scan"}, "lat": 38.904905166666666, "is_disabled": 0, "lon": -77.040649}, {"fusion_lat": 0.0, "type": "electric_scooter", "name": "26cf3288cb7afd70dfc922050de211a5", "fusion_lon": 0.0, "bike_id": "26cf3288cb7afd70dfc922050de211a5", "is_reserved": 0, "rental_uris": {"android": "https://dc.lft.to/lastmile_qr_scan", "ios": "https://dc.lft.to/lastmile_qr_scan"}, "lat": 38.921932, "is_disabled": 0, "lon": -77.04235683333333}, {"fusion_lat": 0.0, "type": "electric_scooter", "name": "dc2de635c0c13896371e160f98948dce", "fusion_lon": 0.0, "bike_id": "dc2de635c0c13896371e160f98948dce", "is_reserved": 0, "rental_uris": {"android": "https://dc.lft.to/lastmile_qr_scan", "ios": "https://dc.lft.to/lastmile_qr_scan"}, "lat": 38.91005633333333, "is_disabled": 0, "lon": -76.99388033333334}, {"fusion_lat": 0.0, "type": "electric_scooter", "name": "48b01b4fc04ee7dad34450a1946d7489", "fusion_lon": 0.0, "bike_id": "48b01b4fc04ee7dad34450a1946d7489", "is_reserved": 0, "rental_uris": {"android": "https://dc.lft.to/lastmile_qr_scan", "ios": "https://dc.lft.to/lastmile_qr_scan"}, "lat": 38.9245975, "is_disabled": 0, "lon": -77.0363285}, {"fusion_lat": 0.0, "type": "electric_scooter", "name": "c8f102706062df55ab9a5e917c2a4e77", "fusion_lon": 0.0, "bike_id": "c8f102706062df55ab9a5e917c2a4e77", "is_reserved": 0, "rental_uris": {"android": "https://dc.lft.to/lastmile_qr_scan", "ios": "https://dc.lft.to/lastmile_qr_scan"}, "lat": 38.863746166666665, "is_disabled": 0, "lon": -76.9905925}, {"fusion_lat": 0.0, "type": "electric_scooter", "name": "1ded212a1f9b05f62b5643804b0e1a07", "fusion_lon": 0.0, "bike_id": "1ded212a1f9b05f62b5643804b0e1a07", "is_reserved": 0, "rental_uris": {"android": "https://dc.lft.to/lastmile_qr_scan", "ios": "https://dc.lft.to/lastmile_qr_scan"}, "lat": 38.93161633333333, "is_disabled": 0, "lon": -77.05608016666666}, {"fusion_lat": 0.0, "type": "electric_bike", "name": "4d03a7f11398ea37bf03c207e4b79997", "fusion_lon": 0.0, "bike_id": "4d03a7f11398ea37bf03c207e4b79997", "is_reserved": 0, "rental_uris": {"android": "https://dc.lft.to/lastmile_qr_scan", "ios": "https://dc.lft.to/lastmile_qr_scan"}, "lat": 38.89562183333334, "is_disabled": 0, "lon": -77.1273185}, {"fusion_lat": 0.0, "type": "electric_scooter", "name": "01b11a5e9a9ff9fe1ac64bf1dda1764d", "fusion_lon": 0.0, "bike_id": "01b11a5e9a9ff9fe1ac64bf1dda1764d", "is_reserved": 0, "rental_uris": {"android": "https://dc.lft.to/lastmile_qr_scan", "ios": "https://dc.lft.to/lastmile_qr_scan"}, "lat": 38.89223, "is_disabled": 0, "lon": -77.0426265}, {"fusion_lat": 0.0, "type": "electric_scooter", "name": "6c017ef497a9f1d0dbafef13b430fc78", "fusion_lon": 0.0, "bike_id": "6c017ef497a9f1d0dbafef13b430fc78", "is_reserved": 0, "rental_uris": {"android": "https://dc.lft.to/lastmile_qr_scan", "ios": "https://dc.lft.to/lastmile_qr_scan"}, "lat": 38.9409815, "is_disabled": 0, "lon": -77.02112033333333}, {"fusion_lat": 0.0, "type": "electric_scooter", "name": "769461be4b923f0b5caa0d427f8a6a4f", "fusion_lon": 0.0, "bike_id": "769461be4b923f0b5caa0d427f8a6a4f", "is_reserved": 0, "rental_uris": {"android": "https://dc.lft.to/lastmile_qr_scan", "ios": "https://dc.lft.to/lastmile_qr_scan"}, "lat": 38.894526166666665, "is_disabled": 0, "lon": -76.99831766666667}, {"fusion_lat": 0.0, "type": "electric_scooter", "name": "91179c8555fe3b8852edea05b1e38121", "fusion_lon": 0.0, "bike_id": "91179c8555fe3b8852edea05b1e38121", "is_reserved": 0, "rental_uris": {"android": "https://dc.lft.to/lastmile_qr_scan", "ios": "https://dc.lft.to/lastmile_qr_scan"}, "lat": 38.890932, "is_disabled": 0, "lon": -77.002837}, {"fusion_lat": 0.0, "type": "electric_scooter", "name": "020e97277973b5cf50f828bd516ed059", "fusion_lon": 0.0, "bike_id": "020e97277973b5cf50f828bd516ed059", "is_reserved": 0, "rental_uris": {"android": "https://dc.lft.to/lastmile_qr_scan", "ios": "https://dc.lft.to/lastmile_qr_scan"}, "lat": 38.934024666666666, "is_disabled": 0, "lon": -77.041278}, {"fusion_lat": 0.0, "type": "electric_scooter", "name": "f426c4967833f2754d8f47ce9650f8e5", "fusion_lon": 0.0, "bike_id": "f426c4967833f2754d8f47ce9650f8e5", "is_reserved": 0, "rental_uris": {"android": "https://dc.lft.to/lastmile_qr_scan", "ios": "https://dc.lft.to/lastmile_qr_scan"}, "lat": 38.9081035, "is_disabled": 0, "lon": -77.03859533333333}, {"fusion_lat": 0.0, "type": "electric_scooter", "name": "7ea7906ef3ccc02c6c5ad0704704d784", "fusion_lon": 0.0, "bike_id": "7ea7906ef3ccc02c6c5ad0704704d784", "is_reserved": 0, "rental_uris": {"android": "https://dc.lft.to/lastmile_qr_scan", "ios": "https://dc.lft.to/lastmile_qr_scan"}, "lat": 38.89300766666667, "is_disabled": 0, "lon": -77.01241983333334}, {"fusion_lat": 0.0, "type": "electric_scooter", "name": "64f742e5ffa22c8cc5c1c3632471468b", "fusion_lon": 0.0, "bike_id": "64f742e5ffa22c8cc5c1c3632471468b", "is_reserved": 0, "rental_uris": {"android": "https://dc.lft.to/lastmile_qr_scan", "ios": "https://dc.lft.to/lastmile_qr_scan"}, "lat": 38.92487366666667, "is_disabled": 0, "lon": -77.05762483333334}, {"fusion_lat": 0.0, "type": "electric_scooter", "name": "09fef4cc9d5e5bf4fda44062d1d92b1f", "fusion_lon": 0.0, "bike_id": "09fef4cc9d5e5bf4fda44062d1d92b1f", "is_reserved": 0, "rental_uris": {"android": "https://dc.lft.to/lastmile_qr_scan", "ios": "https://dc.lft.to/lastmile_qr_scan"}, "lat": 38.86372883333333, "is_disabled": 0, "lon": -76.99057}, {"fusion_lat": 0.0, "type": "electric_scooter", "name": "edf17bbffad74f4c06bc5eee809b5467", "fusion_lon": 0.0, "bike_id": "edf17bbffad74f4c06bc5eee809b5467", "is_reserved": 0, "rental_uris": {"android": "https://dc.lft.to/lastmile_qr_scan", "ios": "https://dc.lft.to/lastmile_qr_scan"}, "lat": 38.92097583333333, "is_disabled": 0, "lon": -77.03321083333333}, {"fusion_lat": 0.0, "type": "electric_scooter", "name": "f864b42ae6a8f04b87c5546771d6c75e", "fusion_lon": 0.0, "bike_id": "f864b42ae6a8f04b87c5546771d6c75e", "is_reserved": 0, "rental_uris": {"android": "https://dc.lft.to/lastmile_qr_scan", "ios": "https://dc.lft.to/lastmile_qr_scan"}, "lat": 38.8922095, "is_disabled": 0, "lon": -77.04377183333334}, {"fusion_lat": 0.0, "type": "electric_scooter", "name": "258eabdca6c612abfc2065fa677016d1", "fusion_lon": 0.0, "bike_id": "258eabdca6c612abfc2065fa677016d1", "is_reserved": 0, "rental_uris": {"android": "https://dc.lft.to/lastmile_qr_scan", "ios": "https://dc.lft.to/lastmile_qr_scan"}, "lat": 38.86644883333334, "is_disabled": 0, "lon": -76.98514566666667}, {"fusion_lat": 0.0, "type": "electric_scooter", "name": "277bbbd7cfac60f24f2069b9b9b4b16c", "fusion_lon": 0.0, "bike_id": "277bbbd7cfac60f24f2069b9b9b4b16c", "is_reserved": 0, "rental_uris": {"android": "https://dc.lft.to/lastmile_qr_scan", "ios": "https://dc.lft.to/lastmile_qr_scan"}, "lat": 38.91909166666667, "is_disabled": 0, "lon": -77.03440316666666}, {"fusion_lat": 0.0, "type": "electric_scooter", "name": "a47bd22a246b278cb430d24121831c85", "fusion_lon": 0.0, "bike_id": "a47bd22a246b278cb430d24121831c85", "is_reserved": 0, "rental_uris": {"android": "https://dc.lft.to/lastmile_qr_scan", "ios": "https://dc.lft.to/lastmile_qr_scan"}, "lat": 38.95679583333333, "is_disabled": 0, "lon": -77.03259666666666}, {"fusion_lat": 0.0, "type": "electric_scooter", "name": "0c130f65e888859eba6a3694d0c953ad", "fusion_lon": 0.0, "bike_id": "0c130f65e888859eba6a3694d0c953ad", "is_reserved": 0, "rental_uris": {"android": "https://dc.lft.to/lastmile_qr_scan", "ios": "https://dc.lft.to/lastmile_qr_scan"}, "lat": 38.92999183333333, "is_disabled": 0, "lon": -77.01300766666667}, {"fusion_lat": 0.0, "type": "electric_scooter", "name": "5569f37666442b8586c4c58acab9eaed", "fusion_lon": 0.0, "bike_id": "5569f37666442b8586c4c58acab9eaed", "is_reserved": 0, "rental_uris": {"android": "https://dc.lft.to/lastmile_qr_scan", "ios": "https://dc.lft.to/lastmile_qr_scan"}, "lat": 38.90145316666667, "is_disabled": 0, "lon": -77.02803016666667}, {"fusion_lat": 0.0, "type": "electric_scooter", "name": "251dfc1cbf1e87827a611eb1ab1d76d9", "fusion_lon": 0.0, "bike_id": "251dfc1cbf1e87827a611eb1ab1d76d9", "is_reserved": 0, "rental_uris": {"android": "https://dc.lft.to/lastmile_qr_scan", "ios": "https://dc.lft.to/lastmile_qr_scan"}, "lat": 38.93393183333333, "is_disabled": 0, "lon": -77.0220915}, {"fusion_lat": 0.0, "type": "electric_scooter", "name": "5f136d9ae8ff342a3462b91f58135910", "fusion_lon": 0.0, "bike_id": "5f136d9ae8ff342a3462b91f58135910", "is_reserved": 0, "rental_uris": {"android": "https://dc.lft.to/lastmile_qr_scan", "ios": "https://dc.lft.to/lastmile_qr_scan"}, "lat": 38.87454316666667, "is_disabled": 0, "lon": -77.00542716666666}, {"fusion_lat": 0.0, "type": "electric_scooter", "name": "9447392ef247d29dba8c559376e9bec4", "fusion_lon": 0.0, "bike_id": "9447392ef247d29dba8c559376e9bec4", "is_reserved": 0, "rental_uris": {"android": "https://dc.lft.to/lastmile_qr_scan", "ios": "https://dc.lft.to/lastmile_qr_scan"}, "lat": 38.9188645, "is_disabled": 0, "lon": -77.02961283333333}, {"fusion_lat": 0.0, "type": "electric_scooter", "name": "244f3d939769fc0eb38a39eb7ffa305c", "fusion_lon": 0.0, "bike_id": "244f3d939769fc0eb38a39eb7ffa305c", "is_reserved": 0, "rental_uris": {"android": "https://dc.lft.to/lastmile_qr_scan", "ios": "https://dc.lft.to/lastmile_qr_scan"}, "lat": 38.9304195, "is_disabled": 0, "lon": -77.037892}, {"fusion_lat": 0.0, "type": "electric_scooter", "name": "4db257baff0a644fbaf22444a3d345b0", "fusion_lon": 0.0, "bike_id": "4db257baff0a644fbaf22444a3d345b0", "is_reserved": 0, "rental_uris": {"android": "https://dc.lft.to/lastmile_qr_scan", "ios": "https://dc.lft.to/lastmile_qr_scan"}, "lat": 38.90413616666667, "is_disabled": 0, "lon": -77.04247666666667}, {"fusion_lat": 0.0, "type": "electric_scooter", "name": "15dc309491b289fe3cf60af03c3a2dbc", "fusion_lon": 0.0, "bike_id": "15dc309491b289fe3cf60af03c3a2dbc", "is_reserved": 0, "rental_uris": {"android": "https://dc.lft.to/lastmile_qr_scan", "ios": "https://dc.lft.to/lastmile_qr_scan"}, "lat": 38.892235666666664, "is_disabled": 0, "lon": -77.02171283333334}, {"fusion_lat": 0.0, "type": "electric_scooter", "name": "c82e2f73862573984c8c71444d438f8b", "fusion_lon": 0.0, "bike_id": "c82e2f73862573984c8c71444d438f8b", "is_reserved": 0, "rental_uris": {"android": "https://dc.lft.to/lastmile_qr_scan", "ios": "https://dc.lft.to/lastmile_qr_scan"}, "lat": 38.901153666666666, "is_disabled": 0, "lon": -77.03176016666667}, {"fusion_lat": 0.0, "type": "electric_scooter", "name": "5d4a95dc5a5d19bb4e566bb8a67684a8", "fusion_lon": 0.0, "bike_id": "5d4a95dc5a5d19bb4e566bb8a67684a8", "is_reserved": 0, "rental_uris": {"android": "https://dc.lft.to/lastmile_qr_scan", "ios": "https://dc.lft.to/lastmile_qr_scan"}, "lat": 38.865519, "is_disabled": 0, "lon": -76.98874833333333}, {"fusion_lat": 0.0, "type": "electric_scooter", "name": "faea45d34a02452dd7ae3ea79b813dc8", "fusion_lon": 0.0, "bike_id": "faea45d34a02452dd7ae3ea79b813dc8", "is_reserved": 0, "rental_uris": {"android": "https://dc.lft.to/lastmile_qr_scan", "ios": "https://dc.lft.to/lastmile_qr_scan"}, "lat": 38.91977833333333, "is_disabled": 0, "lon": -77.033225}, {"fusion_lat": 0.0, "type": "electric_scooter", "name": "2acc2178860de7be8f419c2d8693d1ef", "fusion_lon": 0.0, "bike_id": "2acc2178860de7be8f419c2d8693d1ef", "is_reserved": 0, "rental_uris": {"android": "https://dc.lft.to/lastmile_qr_scan", "ios": "https://dc.lft.to/lastmile_qr_scan"}, "lat": 38.88505166666667, "is_disabled": 0, "lon": -77.02018816666667}, {"fusion_lat": 0.0, "type": "electric_scooter", "name": "ccef5d771492ee55dfba961407e02270", "fusion_lon": 0.0, "bike_id": "ccef5d771492ee55dfba961407e02270", "is_reserved": 0, "rental_uris": {"android": "https://dc.lft.to/lastmile_qr_scan", "ios": "https://dc.lft.to/lastmile_qr_scan"}, "lat": 38.94200983333333, "is_disabled": 0, "lon": -77.02516483333333}, {"fusion_lat": 0.0, "type": "electric_scooter", "name": "313d1374c3fa9de71dcd031f28ecdb1f", "fusion_lon": 0.0, "bike_id": "313d1374c3fa9de71dcd031f28ecdb1f", "is_reserved": 0, "rental_uris": {"android": "https://dc.lft.to/lastmile_qr_scan", "ios": "https://dc.lft.to/lastmile_qr_scan"}, "lat": 38.89241783333333, "is_disabled": 0, "lon": -77.03183383333334}, {"fusion_lat": 0.0, "type": "electric_scooter", "name": "a5d5f00d4b4e22359518e6da1c494fb1", "fusion_lon": 0.0, "bike_id": "a5d5f00d4b4e22359518e6da1c494fb1", "is_reserved": 0, "rental_uris": {"android": "https://dc.lft.to/lastmile_qr_scan", "ios": "https://dc.lft.to/lastmile_qr_scan"}, "lat": 38.90715016666667, "is_disabled": 0, "lon": -77.03462483333334}, {"fusion_lat": 0.0, "type": "electric_scooter", "name": "a0c4821d18794fa23bd50734ef0485d8", "fusion_lon": 0.0, "bike_id": "a0c4821d18794fa23bd50734ef0485d8", "is_reserved": 0, "rental_uris": {"android": "https://dc.lft.to/lastmile_qr_scan", "ios": "https://dc.lft.to/lastmile_qr_scan"}, "lat": 38.923208, "is_disabled": 0, "lon": -77.019604}, {"fusion_lat": 0.0, "type": "electric_scooter", "name": "88150dd548c4cf0300be31c525466811", "fusion_lon": 0.0, "bike_id": "88150dd548c4cf0300be31c525466811", "is_reserved": 0, "rental_uris": {"android": "https://dc.lft.to/lastmile_qr_scan", "ios": "https://dc.lft.to/lastmile_qr_scan"}, "lat": 38.91149716666666, "is_disabled": 0, "lon": -77.0434625}, {"fusion_lat": 0.0, "type": "electric_bike", "name": "4375971c1927f471d8257222b89267bc", "fusion_lon": 0.0, "bike_id": "4375971c1927f471d8257222b89267bc", "is_reserved": 0, "rental_uris": {"android": "https://dc.lft.to/lastmile_qr_scan", "ios": "https://dc.lft.to/lastmile_qr_scan"}, "lat": 38.872994166666665, "is_disabled": 0, "lon": -77.13928883333334}, {"fusion_lat": 0.0, "type": "electric_scooter", "name": "a3ef79dc7b41ecae6810bb4d5609b87e", "fusion_lon": 0.0, "bike_id": "a3ef79dc7b41ecae6810bb4d5609b87e", "is_reserved": 0, "rental_uris": {"android": "https://dc.lft.to/lastmile_qr_scan", "ios": "https://dc.lft.to/lastmile_qr_scan"}, "lat": 38.9008105, "is_disabled": 0, "lon": -77.023051}, {"fusion_lat": 0.0, "type": "electric_scooter", "name": "ad1027bbf94f382463a741770d4b054b", "fusion_lon": 0.0, "bike_id": "ad1027bbf94f382463a741770d4b054b", "is_reserved": 0, "rental_uris": {"android": "https://dc.lft.to/lastmile_qr_scan", "ios": "https://dc.lft.to/lastmile_qr_scan"}, "lat": 38.892335333333335, "is_disabled": 0, "lon": -77.04159466666667}, {"fusion_lat": 0.0, "type": "electric_scooter", "name": "843f5b76243ffb2ff8b7d3433493808f", "fusion_lon": 0.0, "bike_id": "843f5b76243ffb2ff8b7d3433493808f", "is_reserved": 0, "rental_uris": {"android": "https://dc.lft.to/lastmile_qr_scan", "ios": "https://dc.lft.to/lastmile_qr_scan"}, "lat": 38.897042, "is_disabled": 0, "lon": -77.0271835}, {"fusion_lat": 0.0, "type": "electric_scooter", "name": "f916ab6fed85aaf336632f16cab371fd", "fusion_lon": 0.0, "bike_id": "f916ab6fed85aaf336632f16cab371fd", "is_reserved": 0, "rental_uris": {"android": "https://dc.lft.to/lastmile_qr_scan", "ios": "https://dc.lft.to/lastmile_qr_scan"}, "lat": 38.89747916666666, "is_disabled": 0, "lon": -77.0269785}, {"fusion_lat": 0.0, "type": "electric_scooter", "name": "b32eaeaf8be998011cb6ae5fc9ef7e51", "fusion_lon": 0.0, "bike_id": "b32eaeaf8be998011cb6ae5fc9ef7e51", "is_reserved": 0, "rental_uris": {"android": "https://dc.lft.to/lastmile_qr_scan", "ios": "https://dc.lft.to/lastmile_qr_scan"}, "lat": 38.91933566666667, "is_disabled": 0, "lon": -77.03154616666667}, {"fusion_lat": 0.0, "type": "electric_scooter", "name": "f370453d25103997244e6455f7f1a6c9", "fusion_lon": 0.0, "bike_id": "f370453d25103997244e6455f7f1a6c9", "is_reserved": 0, "rental_uris": {"android": "https://dc.lft.to/lastmile_qr_scan", "ios": "https://dc.lft.to/lastmile_qr_scan"}, "lat": 38.924051166666665, "is_disabled": 0, "lon": -77.05173083333334}, {"fusion_lat": 0.0, "type": "electric_scooter", "name": "d92dedabbd0fca1d811190e9d38fdd56", "fusion_lon": 0.0, "bike_id": "d92dedabbd0fca1d811190e9d38fdd56", "is_reserved": 0, "rental_uris": {"android": "https://dc.lft.to/lastmile_qr_scan", "ios": "https://dc.lft.to/lastmile_qr_scan"}, "lat": 38.89229983333333, "is_disabled": 0, "lon": -77.04999516666666}, {"fusion_lat": 0.0, "type": "electric_scooter", "name": "18d05cf65f54bf9b0c09880df8a12a2a", "fusion_lon": 0.0, "bike_id": "18d05cf65f54bf9b0c09880df8a12a2a", "is_reserved": 0, "rental_uris": {"android": "https://dc.lft.to/lastmile_qr_scan", "ios": "https://dc.lft.to/lastmile_qr_scan"}, "lat": 38.921375833333336, "is_disabled": 0, "lon": -77.01806283333333}, {"fusion_lat": 0.0, "type": "electric_scooter", "name": "0bd42bb8ee34eb6e642e62a9484eb46e", "fusion_lon": 0.0, "bike_id": "0bd42bb8ee34eb6e642e62a9484eb46e", "is_reserved": 0, "rental_uris": {"android": "https://dc.lft.to/lastmile_qr_scan", "ios": "https://dc.lft.to/lastmile_qr_scan"}, "lat": 38.9064795, "is_disabled": 0, "lon": -77.03864466666667}, {"fusion_lat": 0.0, "type": "electric_scooter", "name": "a76f513b5ee0ce00941c340bcf9960eb", "fusion_lon": 0.0, "bike_id": "a76f513b5ee0ce00941c340bcf9960eb", "is_reserved": 0, "rental_uris": {"android": "https://dc.lft.to/lastmile_qr_scan", "ios": "https://dc.lft.to/lastmile_qr_scan"}, "lat": 38.90467116666667, "is_disabled": 0, "lon": -77.03555533333333}, {"fusion_lat": 0.0, "type": "electric_bike", "name": "2ee3b46015acbe3f5d4467c082dd35f2", "fusion_lon": 0.0, "bike_id": "2ee3b46015acbe3f5d4467c082dd35f2", "is_reserved": 0, "rental_uris": {"android": "https://dc.lft.to/lastmile_qr_scan", "ios": "https://dc.lft.to/lastmile_qr_scan"}, "lat": 38.8537355, "is_disabled": 0, "lon": -77.12463416666667}, {"fusion_lat": 0.0, "type": "electric_scooter", "name": "48c96e2fffebd727613f0b9b1aca790e", "fusion_lon": 0.0, "bike_id": "48c96e2fffebd727613f0b9b1aca790e", "is_reserved": 0, "rental_uris": {"android": "https://dc.lft.to/lastmile_qr_scan", "ios": "https://dc.lft.to/lastmile_qr_scan"}, "lat": 38.918098, "is_disabled": 0, "lon": -77.03436833333333}, {"fusion_lat": 0.0, "type": "electric_scooter", "name": "6609952fedb668d5468c4a3444087237", "fusion_lon": 0.0, "bike_id": "6609952fedb668d5468c4a3444087237", "is_reserved": 0, "rental_uris": {"android": "https://dc.lft.to/lastmile_qr_scan", "ios": "https://dc.lft.to/lastmile_qr_scan"}, "lat": 38.91800816666667, "is_disabled": 0, "lon": -77.030222}, {"fusion_lat": 0.0, "type": "electric_scooter", "name": "81b63280802de88f3cdfd06e52d7ee44", "fusion_lon": 0.0, "bike_id": "81b63280802de88f3cdfd06e52d7ee44", "is_reserved": 0, "rental_uris": {"android": "https://dc.lft.to/lastmile_qr_scan", "ios": "https://dc.lft.to/lastmile_qr_scan"}, "lat": 38.83696833333333, "is_disabled": 0, "lon": -77.00566033333334}, {"fusion_lat": 0.0, "type": "electric_bike", "name": "b8844957fc105921443921de6167892d", "fusion_lon": 0.0, "bike_id": "b8844957fc105921443921de6167892d", "is_reserved": 0, "rental_uris": {"android": "https://dc.lft.to/lastmile_qr_scan", "ios": "https://dc.lft.to/lastmile_qr_scan"}, "lat": 38.9043405, "is_disabled": 0, "lon": -77.03191466666667}, {"fusion_lat": 0.0, "type": "electric_scooter", "name": "d2b5eb630cceed65dd1beb86a8998ce5", "fusion_lon": 0.0, "bike_id": "d2b5eb630cceed65dd1beb86a8998ce5", "is_reserved": 0, "rental_uris": {"android": "https://dc.lft.to/lastmile_qr_scan", "ios": "https://dc.lft.to/lastmile_qr_scan"}, "lat": 38.844244, "is_disabled": 0, "lon": -76.99775916666667}, {"fusion_lat": 0.0, "type": "electric_scooter", "name": "6e79bf7f845de940e7076758bed1a7e2", "fusion_lon": 0.0, "bike_id": "6e79bf7f845de940e7076758bed1a7e2", "is_reserved": 0, "rental_uris": {"android": "https://dc.lft.to/lastmile_qr_scan", "ios": "https://dc.lft.to/lastmile_qr_scan"}, "lat": 38.905735, "is_disabled": 0, "lon": -77.0342665}, {"fusion_lat": 0.0, "type": "electric_scooter", "name": "cc60a326faf8bc5e8ad48277aae9be27", "fusion_lon": 0.0, "bike_id": "cc60a326faf8bc5e8ad48277aae9be27", "is_reserved": 0, "rental_uris": {"android": "https://dc.lft.to/lastmile_qr_scan", "ios": "https://dc.lft.to/lastmile_qr_scan"}, "lat": 38.92645183333333, "is_disabled": 0, "lon": -77.04133566666667}, {"fusion_lat": 0.0, "type": "electric_scooter", "name": "58bf8a5efee2dd61dd06b261eb8cb011", "fusion_lon": 0.0, "bike_id": "58bf8a5efee2dd61dd06b261eb8cb011", "is_reserved": 0, "rental_uris": {"android": "https://dc.lft.to/lastmile_qr_scan", "ios": "https://dc.lft.to/lastmile_qr_scan"}, "lat": 38.9236405, "is_disabled": 0, "lon": -77.02054883333334}, {"fusion_lat": 0.0, "type": "electric_scooter", "name": "35c96180bed68f67db80fa48846f2271", "fusion_lon": 0.0, "bike_id": "35c96180bed68f67db80fa48846f2271", "is_reserved": 0, "rental_uris": {"android": "https://dc.lft.to/lastmile_qr_scan", "ios": "https://dc.lft.to/lastmile_qr_scan"}, "lat": 38.922399166666665, "is_disabled": 0, "lon": -77.07312583333334}, {"fusion_lat": 0.0, "type": "electric_scooter", "name": "f86ebce6c68fd1a5e8e0806e5a25809a", "fusion_lon": 0.0, "bike_id": "f86ebce6c68fd1a5e8e0806e5a25809a", "is_reserved": 0, "rental_uris": {"android": "https://dc.lft.to/lastmile_qr_scan", "ios": "https://dc.lft.to/lastmile_qr_scan"}, "lat": 38.903418333333335, "is_disabled": 0, "lon": -77.0612195}, {"fusion_lat": 0.0, "type": "electric_scooter", "name": "d4050307b21cbf92359b49d50e98eaf9", "fusion_lon": 0.0, "bike_id": "d4050307b21cbf92359b49d50e98eaf9", "is_reserved": 0, "rental_uris": {"android": "https://dc.lft.to/lastmile_qr_scan", "ios": "https://dc.lft.to/lastmile_qr_scan"}, "lat": 38.93604783333333, "is_disabled": 0, "lon": -77.029172}, {"fusion_lat": 0.0, "type": "electric_scooter", "name": "28168b3e787fe21fc25c33d71860637c", "fusion_lon": 0.0, "bike_id": "28168b3e787fe21fc25c33d71860637c", "is_reserved": 0, "rental_uris": {"android": "https://dc.lft.to/lastmile_qr_scan", "ios": "https://dc.lft.to/lastmile_qr_scan"}, "lat": 38.9027325, "is_disabled": 0, "lon": -77.053384}, {"fusion_lat": 0.0, "type": "electric_scooter", "name": "c92cec94ccc785f55faee88a829d1ce9", "fusion_lon": 0.0, "bike_id": "c92cec94ccc785f55faee88a829d1ce9", "is_reserved": 0, "rental_uris": {"android": "https://dc.lft.to/lastmile_qr_scan", "ios": "https://dc.lft.to/lastmile_qr_scan"}, "lat": 38.90282966666667, "is_disabled": 0, "lon": -77.03366016666666}, {"fusion_lat": 0.0, "type": "electric_scooter", "name": "5d6052b2fea94b17ff50fafbaa52acbc", "fusion_lon": 0.0, "bike_id": "5d6052b2fea94b17ff50fafbaa52acbc", "is_reserved": 0, "rental_uris": {"android": "https://dc.lft.to/lastmile_qr_scan", "ios": "https://dc.lft.to/lastmile_qr_scan"}, "lat": 38.9015435, "is_disabled": 0, "lon": -77.02298466666667}, {"fusion_lat": 0.0, "type": "electric_scooter", "name": "e4a7d45a3b5c51d232ee5ef16931af2c", "fusion_lon": 0.0, "bike_id": "e4a7d45a3b5c51d232ee5ef16931af2c", "is_reserved": 0, "rental_uris": {"android": "https://dc.lft.to/lastmile_qr_scan", "ios": "https://dc.lft.to/lastmile_qr_scan"}, "lat": 38.94114233333333, "is_disabled": 0, "lon": -77.01533833333333}, {"fusion_lat": 0.0, "type": "electric_scooter", "name": "04c57037d9d55a00ac00fe49a9d67b92", "fusion_lon": 0.0, "bike_id": "04c57037d9d55a00ac00fe49a9d67b92", "is_reserved": 0, "rental_uris": {"android": "https://dc.lft.to/lastmile_qr_scan", "ios": "https://dc.lft.to/lastmile_qr_scan"}, "lat": 38.89193483333333, "is_disabled": 0, "lon": -77.02624483333334}, {"fusion_lat": 0.0, "type": "electric_scooter", "name": "d9a39f47a9edeee09d10be1019001336", "fusion_lon": 0.0, "bike_id": "d9a39f47a9edeee09d10be1019001336", "is_reserved": 0, "rental_uris": {"android": "https://dc.lft.to/lastmile_qr_scan", "ios": "https://dc.lft.to/lastmile_qr_scan"}, "lat": 38.90003033333333, "is_disabled": 0, "lon": -77.006576}, {"fusion_lat": 0.0, "type": "electric_scooter", "name": "500cc59a485fcd44edb319b26263da2f", "fusion_lon": 0.0, "bike_id": "500cc59a485fcd44edb319b26263da2f", "is_reserved": 0, "rental_uris": {"android": "https://dc.lft.to/lastmile_qr_scan", "ios": "https://dc.lft.to/lastmile_qr_scan"}, "lat": 38.90492583333333, "is_disabled": 0, "lon": -77.04654816666667}, {"fusion_lat": 0.0, "type": "electric_bike", "name": "389203deddb250753d6472564ff61743", "fusion_lon": 0.0, "bike_id": "389203deddb250753d6472564ff61743", "is_reserved": 0, "rental_uris": {"android": "https://dc.lft.to/lastmile_qr_scan", "ios": "https://dc.lft.to/lastmile_qr_scan"}, "lat": 38.969587, "is_disabled": 0, "lon": -76.95746416666667}, {"fusion_lat": 0.0, "type": "electric_scooter", "name": "b4a71a3c8852fd24e9487c590710118b", "fusion_lon": 0.0, "bike_id": "b4a71a3c8852fd24e9487c590710118b", "is_reserved": 0, "rental_uris": {"android": "https://dc.lft.to/lastmile_qr_scan", "ios": "https://dc.lft.to/lastmile_qr_scan"}, "lat": 38.904999333333336, "is_disabled": 0, "lon": -77.0481485}, {"fusion_lat": 0.0, "type": "electric_scooter", "name": "1cafa31f91ef3df6a8c09ece0ad7d4a1", "fusion_lon": 0.0, "bike_id": "1cafa31f91ef3df6a8c09ece0ad7d4a1", "is_reserved": 0, "rental_uris": {"android": "https://dc.lft.to/lastmile_qr_scan", "ios": "https://dc.lft.to/lastmile_qr_scan"}, "lat": 38.884071166666665, "is_disabled": 0, "lon": -77.01768616666666}, {"fusion_lat": 0.0, "type": "electric_scooter", "name": "9b274bb2c117c1ba85f05f57f54f996a", "fusion_lon": 0.0, "bike_id": "9b274bb2c117c1ba85f05f57f54f996a", "is_reserved": 0, "rental_uris": {"android": "https://dc.lft.to/lastmile_qr_scan", "ios": "https://dc.lft.to/lastmile_qr_scan"}, "lat": 38.90137766666667, "is_disabled": 0, "lon": -77.02933483333334}, {"fusion_lat": 0.0, "type": "electric_scooter", "name": "6508b195f03d5e08047807916a6ab6a0", "fusion_lon": 0.0, "bike_id": "6508b195f03d5e08047807916a6ab6a0", "is_reserved": 0, "rental_uris": {"android": "https://dc.lft.to/lastmile_qr_scan", "ios": "https://dc.lft.to/lastmile_qr_scan"}, "lat": 38.938841833333335, "is_disabled": 0, "lon": -77.02461166666667}, {"fusion_lat": 0.0, "type": "electric_scooter", "name": "16be77b5666476dd4953bcdc207a5137", "fusion_lon": 0.0, "bike_id": "16be77b5666476dd4953bcdc207a5137", "is_reserved": 0, "rental_uris": {"android": "https://dc.lft.to/lastmile_qr_scan", "ios": "https://dc.lft.to/lastmile_qr_scan"}, "lat": 38.89842383333333, "is_disabled": 0, "lon": -77.033484}, {"fusion_lat": 0.0, "type": "electric_scooter", "name": "1532ab88b2ff124007d50f577f9d9d71", "fusion_lon": 0.0, "bike_id": "1532ab88b2ff124007d50f577f9d9d71", "is_reserved": 0, "rental_uris": {"android": "https://dc.lft.to/lastmile_qr_scan", "ios": "https://dc.lft.to/lastmile_qr_scan"}, "lat": 38.860087, "is_disabled": 0, "lon": -76.9851035}, {"fusion_lat": 0.0, "type": "electric_scooter", "name": "63bc3f9677710fcadc8d70b80b0d8023", "fusion_lon": 0.0, "bike_id": "63bc3f9677710fcadc8d70b80b0d8023", "is_reserved": 0, "rental_uris": {"android": "https://dc.lft.to/lastmile_qr_scan", "ios": "https://dc.lft.to/lastmile_qr_scan"}, "lat": 38.90708683333333, "is_disabled": 0, "lon": -77.0238795}, {"fusion_lat": 0.0, "type": "electric_bike", "name": "2a733f232424f0749e5eba4fbfd64d92", "fusion_lon": 0.0, "bike_id": "2a733f232424f0749e5eba4fbfd64d92", "is_reserved": 0, "rental_uris": {"android": "https://dc.lft.to/lastmile_qr_scan", "ios": "https://dc.lft.to/lastmile_qr_scan"}, "lat": 38.883317, "is_disabled": 0, "lon": -77.06563766666666}, {"fusion_lat": 0.0, "type": "electric_bike", "name": "7c61a230bc3804407760338d47e6ae7c", "fusion_lon": 0.0, "bike_id": "7c61a230bc3804407760338d47e6ae7c", "is_reserved": 0, "rental_uris": {"android": "https://dc.lft.to/lastmile_qr_scan", "ios": "https://dc.lft.to/lastmile_qr_scan"}, "lat": 38.860424, "is_disabled": 0, "lon": -77.09556366666666}, {"fusion_lat": 0.0, "type": "electric_scooter", "name": "07da2f6ebe3f23a84802f8143112f09a", "fusion_lon": 0.0, "bike_id": "07da2f6ebe3f23a84802f8143112f09a", "is_reserved": 0, "rental_uris": {"android": "https://dc.lft.to/lastmile_qr_scan", "ios": "https://dc.lft.to/lastmile_qr_scan"}, "lat": 38.914421833333336, "is_disabled": 0, "lon": -77.01728483333333}, {"fusion_lat": 0.0, "type": "electric_bike", "name": "195e1cee0809d652ca4eefbb25bc4fc5", "fusion_lon": 0.0, "bike_id": "195e1cee0809d652ca4eefbb25bc4fc5", "is_reserved": 0, "rental_uris": {"android": "https://dc.lft.to/lastmile_qr_scan", "ios": "https://dc.lft.to/lastmile_qr_scan"}, "lat": 39.0342885, "is_disabled": 0, "lon": -77.04089133333333}, {"fusion_lat": 0.0, "type": "electric_scooter", "name": "27aaa46cccd1e5117431bae9c6563ea0", "fusion_lon": 0.0, "bike_id": "27aaa46cccd1e5117431bae9c6563ea0", "is_reserved": 0, "rental_uris": {"android": "https://dc.lft.to/lastmile_qr_scan", "ios": "https://dc.lft.to/lastmile_qr_scan"}, "lat": 38.907227666666664, "is_disabled": 0, "lon": -77.04174183333333}, {"fusion_lat": 0.0, "type": "electric_scooter", "name": "265426795d9a0d5cfdd31a7e7013957d", "fusion_lon": 0.0, "bike_id": "265426795d9a0d5cfdd31a7e7013957d", "is_reserved": 0, "rental_uris": {"android": "https://dc.lft.to/lastmile_qr_scan", "ios": "https://dc.lft.to/lastmile_qr_scan"}, "lat": 38.92153016666666, "is_disabled": 0, "lon": -77.03362716666666}, {"fusion_lat": 0.0, "type": "electric_bike", "name": "7bd766c788ad072acd00baaaa5c9b9cb", "fusion_lon": 0.0, "bike_id": "7bd766c788ad072acd00baaaa5c9b9cb", "is_reserved": 0, "rental_uris": {"android": "https://dc.lft.to/lastmile_qr_scan", "ios": "https://dc.lft.to/lastmile_qr_scan"}, "lat": 39.054967833333336, "is_disabled": 0, "lon": -77.11787166666667}, {"fusion_lat": 0.0, "type": "electric_scooter", "name": "c1b1943a55a14250d1ef0ab8f872f730", "fusion_lon": 0.0, "bike_id": "c1b1943a55a14250d1ef0ab8f872f730", "is_reserved": 0, "rental_uris": {"android": "https://dc.lft.to/lastmile_qr_scan", "ios": "https://dc.lft.to/lastmile_qr_scan"}, "lat": 38.9205435, "is_disabled": 0, "lon": -77.01681983333333}, {"fusion_lat": 0.0, "type": "electric_scooter", "name": "5f4b0eaca84f48bd02fb5863320cd890", "fusion_lon": 0.0, "bike_id": "5f4b0eaca84f48bd02fb5863320cd890", "is_reserved": 0, "rental_uris": {"android": "https://dc.lft.to/lastmile_qr_scan", "ios": "https://dc.lft.to/lastmile_qr_scan"}, "lat": 38.904745166666665, "is_disabled": 0, "lon": -77.00203133333333}, {"fusion_lat": 0.0, "type": "electric_scooter", "name": "faeb34ea62443b9a91f11fa300952988", "fusion_lon": 0.0, "bike_id": "faeb34ea62443b9a91f11fa300952988", "is_reserved": 0, "rental_uris": {"android": "https://dc.lft.to/lastmile_qr_scan", "ios": "https://dc.lft.to/lastmile_qr_scan"}, "lat": 38.92296666666667, "is_disabled": 0, "lon": -77.04265766666667}, {"fusion_lat": 0.0, "type": "electric_scooter", "name": "b6eaa4d939524d0d36a9038243a0e380", "fusion_lon": 0.0, "bike_id": "b6eaa4d939524d0d36a9038243a0e380", "is_reserved": 0, "rental_uris": {"android": "https://dc.lft.to/lastmile_qr_scan", "ios": "https://dc.lft.to/lastmile_qr_scan"}, "lat": 38.87963833333333, "is_disabled": 0, "lon": -76.98744066666667}, {"fusion_lat": 0.0, "type": "electric_bike", "name": "501129921e8b3ed8ae767379652654f8", "fusion_lon": 0.0, "bike_id": "501129921e8b3ed8ae767379652654f8", "is_reserved": 0, "rental_uris": {"android": "https://dc.lft.to/lastmile_qr_scan", "ios": "https://dc.lft.to/lastmile_qr_scan"}, "lat": 38.963040166666666, "is_disabled": 0, "lon": -77.01108483333333}, {"fusion_lat": 0.0, "type": "electric_scooter", "name": "860049a1dde6c5e9bce2eab3a6d1512d", "fusion_lon": 0.0, "bike_id": "860049a1dde6c5e9bce2eab3a6d1512d", "is_reserved": 0, "rental_uris": {"android": "https://dc.lft.to/lastmile_qr_scan", "ios": "https://dc.lft.to/lastmile_qr_scan"}, "lat": 38.934168666666665, "is_disabled": 0, "lon": -77.04406416666667}, {"fusion_lat": 0.0, "type": "electric_scooter", "name": "b993c04180c5dc935b2abe21ce99e590", "fusion_lon": 0.0, "bike_id": "b993c04180c5dc935b2abe21ce99e590", "is_reserved": 0, "rental_uris": {"android": "https://dc.lft.to/lastmile_qr_scan", "ios": "https://dc.lft.to/lastmile_qr_scan"}, "lat": 38.90623683333333, "is_disabled": 0, "lon": -77.05148266666667}, {"fusion_lat": 0.0, "type": "electric_scooter", "name": "48d5b194dbe921a13546e228bc41e6c6", "fusion_lon": 0.0, "bike_id": "48d5b194dbe921a13546e228bc41e6c6", "is_reserved": 0, "rental_uris": {"android": "https://dc.lft.to/lastmile_qr_scan", "ios": "https://dc.lft.to/lastmile_qr_scan"}, "lat": 38.94311866666666, "is_disabled": 0, "lon": -77.01725983333333}, {"fusion_lat": 0.0, "type": "electric_scooter", "name": "ef2cb2189cd2b135535af7acd71cccf5", "fusion_lon": 0.0, "bike_id": "ef2cb2189cd2b135535af7acd71cccf5", "is_reserved": 0, "rental_uris": {"android": "https://dc.lft.to/lastmile_qr_scan", "ios": "https://dc.lft.to/lastmile_qr_scan"}, "lat": 38.90059983333333, "is_disabled": 0, "lon": -77.045312}, {"fusion_lat": 0.0, "type": "electric_scooter", "name": "4db7cb6c06977588b778a513e07895ab", "fusion_lon": 0.0, "bike_id": "4db7cb6c06977588b778a513e07895ab", "is_reserved": 0, "rental_uris": {"android": "https://dc.lft.to/lastmile_qr_scan", "ios": "https://dc.lft.to/lastmile_qr_scan"}, "lat": 38.9043045, "is_disabled": 0, "lon": -77.0434425}, {"fusion_lat": 0.0, "type": "electric_scooter", "name": "dc8be30b3ff007d15015adbe99114b64", "fusion_lon": 0.0, "bike_id": "dc8be30b3ff007d15015adbe99114b64", "is_reserved": 0, "rental_uris": {"android": "https://dc.lft.to/lastmile_qr_scan", "ios": "https://dc.lft.to/lastmile_qr_scan"}, "lat": 38.920411666666666, "is_disabled": 0, "lon": -77.03637666666667}, {"fusion_lat": 0.0, "type": "electric_scooter", "name": "44d784491d8c468bee8941ac0e8b93b3", "fusion_lon": 0.0, "bike_id": "44d784491d8c468bee8941ac0e8b93b3", "is_reserved": 0, "rental_uris": {"android": "https://dc.lft.to/lastmile_qr_scan", "ios": "https://dc.lft.to/lastmile_qr_scan"}, "lat": 38.90633366666667, "is_disabled": 0, "lon": -77.06893466666666}, {"fusion_lat": 0.0, "type": "electric_scooter", "name": "6505fb2ea362c60fd012a5a157a5b933", "fusion_lon": 0.0, "bike_id": "6505fb2ea362c60fd012a5a157a5b933", "is_reserved": 0, "rental_uris": {"android": "https://dc.lft.to/lastmile_qr_scan", "ios": "https://dc.lft.to/lastmile_qr_scan"}, "lat": 38.899301666666666, "is_disabled": 0, "lon": -77.01449283333334}, {"fusion_lat": 0.0, "type": "electric_scooter", "name": "4773d018cbf9a7280b056dbfe2ff3134", "fusion_lon": 0.0, "bike_id": "4773d018cbf9a7280b056dbfe2ff3134", "is_reserved": 0, "rental_uris": {"android": "https://dc.lft.to/lastmile_qr_scan", "ios": "https://dc.lft.to/lastmile_qr_scan"}, "lat": 38.89848833333333, "is_disabled": 0, "lon": -76.99029716666666}, {"fusion_lat": 0.0, "type": "electric_scooter", "name": "9f528b391e751b2ee0e64edb47100df2", "fusion_lon": 0.0, "bike_id": "9f528b391e751b2ee0e64edb47100df2", "is_reserved": 0, "rental_uris": {"android": "https://dc.lft.to/lastmile_qr_scan", "ios": "https://dc.lft.to/lastmile_qr_scan"}, "lat": 38.9159205, "is_disabled": 0, "lon": -77.03511816666666}, {"fusion_lat": 0.0, "type": "electric_scooter", "name": "7c631a5165b27b04f969dda0f0601ec1", "fusion_lon": 0.0, "bike_id": "7c631a5165b27b04f969dda0f0601ec1", "is_reserved": 0, "rental_uris": {"android": "https://dc.lft.to/lastmile_qr_scan", "ios": "https://dc.lft.to/lastmile_qr_scan"}, "lat": 38.906761833333334, "is_disabled": 0, "lon": -77.0360085}, {"fusion_lat": 0.0, "type": "electric_scooter", "name": "a47cfa2c3ac20dd0f1f92de98bdc4812", "fusion_lon": 0.0, "bike_id": "a47cfa2c3ac20dd0f1f92de98bdc4812", "is_reserved": 0, "rental_uris": {"android": "https://dc.lft.to/lastmile_qr_scan", "ios": "https://dc.lft.to/lastmile_qr_scan"}, "lat": 38.922207666666665, "is_disabled": 0, "lon": -77.04237416666666}, {"fusion_lat": 0.0, "type": "electric_scooter", "name": "6b7c7c2f5cbe5d8654cd5a7efae660ae", "fusion_lon": 0.0, "bike_id": "6b7c7c2f5cbe5d8654cd5a7efae660ae", "is_reserved": 0, "rental_uris": {"android": "https://dc.lft.to/lastmile_qr_scan", "ios": "https://dc.lft.to/lastmile_qr_scan"}, "lat": 38.89607866666667, "is_disabled": 0, "lon": -77.05037916666667}, {"fusion_lat": 0.0, "type": "electric_bike", "name": "9d6d018f90a5a5ae14f570b1e40a6e8c", "fusion_lon": 0.0, "bike_id": "9d6d018f90a5a5ae14f570b1e40a6e8c", "is_reserved": 0, "rental_uris": {"android": "https://dc.lft.to/lastmile_qr_scan", "ios": "https://dc.lft.to/lastmile_qr_scan"}, "lat": 38.968119, "is_disabled": 0, "lon": -77.072233}, {"fusion_lat": 0.0, "type": "electric_scooter", "name": "c8a6cf38abd06b47debeb98238a2e17f", "fusion_lon": 0.0, "bike_id": "c8a6cf38abd06b47debeb98238a2e17f", "is_reserved": 0, "rental_uris": {"android": "https://dc.lft.to/lastmile_qr_scan", "ios": "https://dc.lft.to/lastmile_qr_scan"}, "lat": 38.91714316666667, "is_disabled": 0, "lon": -77.04157166666667}, {"fusion_lat": 0.0, "type": "electric_scooter", "name": "9cf63af9493289afff8ff432d9e63de5", "fusion_lon": 0.0, "bike_id": "9cf63af9493289afff8ff432d9e63de5", "is_reserved": 0, "rental_uris": {"android": "https://dc.lft.to/lastmile_qr_scan", "ios": "https://dc.lft.to/lastmile_qr_scan"}, "lat": 38.909393, "is_disabled": 0, "lon": -77.04678383333334}, {"fusion_lat": 0.0, "type": "electric_scooter", "name": "d4d79feb69fdd1087fd84c0935ba9575", "fusion_lon": 0.0, "bike_id": "d4d79feb69fdd1087fd84c0935ba9575", "is_reserved": 0, "rental_uris": {"android": "https://dc.lft.to/lastmile_qr_scan", "ios": "https://dc.lft.to/lastmile_qr_scan"}, "lat": 38.914567166666664, "is_disabled": 0, "lon": -77.018876}, {"fusion_lat": 0.0, "type": "electric_scooter", "name": "8e862107c3b1704b710fc1b66b773c7f", "fusion_lon": 0.0, "bike_id": "8e862107c3b1704b710fc1b66b773c7f", "is_reserved": 0, "rental_uris": {"android": "https://dc.lft.to/lastmile_qr_scan", "ios": "https://dc.lft.to/lastmile_qr_scan"}, "lat": 38.90438833333333, "is_disabled": 0, "lon": -76.98491033333333}, {"fusion_lat": 0.0, "type": "electric_scooter", "name": "21ef7b4ea3506bd76fc5f83f162ada38", "fusion_lon": 0.0, "bike_id": "21ef7b4ea3506bd76fc5f83f162ada38", "is_reserved": 0, "rental_uris": {"android": "https://dc.lft.to/lastmile_qr_scan", "ios": "https://dc.lft.to/lastmile_qr_scan"}, "lat": 38.90307933333333, "is_disabled": 0, "lon": -77.023684}, {"fusion_lat": 0.0, "type": "electric_bike", "name": "db75b6db1e7e48982ef3bc764d41aa78", "fusion_lon": 0.0, "bike_id": "db75b6db1e7e48982ef3bc764d41aa78", "is_reserved": 0, "rental_uris": {"android": "https://dc.lft.to/lastmile_qr_scan", "ios": "https://dc.lft.to/lastmile_qr_scan"}, "lat": 38.949188166666666, "is_disabled": 0, "lon": -77.00795166666667}, {"fusion_lat": 0.0, "type": "electric_bike", "name": "c767bd1311c089a2416fec53bcdb21a9", "fusion_lon": 0.0, "bike_id": "c767bd1311c089a2416fec53bcdb21a9", "is_reserved": 0, "rental_uris": {"android": "https://dc.lft.to/lastmile_qr_scan", "ios": "https://dc.lft.to/lastmile_qr_scan"}, "lat": 38.918516, "is_disabled": 0, "lon": -76.9609005}, {"fusion_lat": 0.0, "type": "electric_scooter", "name": "0424e511492e3f5ce284c1725af89843", "fusion_lon": 0.0, "bike_id": "0424e511492e3f5ce284c1725af89843", "is_reserved": 0, "rental_uris": {"android": "https://dc.lft.to/lastmile_qr_scan", "ios": "https://dc.lft.to/lastmile_qr_scan"}, "lat": 38.907697666666664, "is_disabled": 0, "lon": -77.03859483333333}, {"fusion_lat": 0.0, "type": "electric_scooter", "name": "7f87302ca09cd24ce037dc7a8a3bd520", "fusion_lon": 0.0, "bike_id": "7f87302ca09cd24ce037dc7a8a3bd520", "is_reserved": 0, "rental_uris": {"android": "https://dc.lft.to/lastmile_qr_scan", "ios": "https://dc.lft.to/lastmile_qr_scan"}, "lat": 38.90517333333333, "is_disabled": 0, "lon": -77.0504525}, {"fusion_lat": 0.0, "type": "electric_scooter", "name": "fff62f998dac64527100d55e5857d8cd", "fusion_lon": 0.0, "bike_id": "fff62f998dac64527100d55e5857d8cd", "is_reserved": 0, "rental_uris": {"android": "https://dc.lft.to/lastmile_qr_scan", "ios": "https://dc.lft.to/lastmile_qr_scan"}, "lat": 38.904684, "is_disabled": 0, "lon": -77.03902833333333}, {"fusion_lat": 0.0, "type": "electric_scooter", "name": "655d40f321b612519a2329791ecd1585", "fusion_lon": 0.0, "bike_id": "655d40f321b612519a2329791ecd1585", "is_reserved": 0, "rental_uris": {"android": "https://dc.lft.to/lastmile_qr_scan", "ios": "https://dc.lft.to/lastmile_qr_scan"}, "lat": 38.86696883333333, "is_disabled": 0, "lon": -76.98711116666666}, {"fusion_lat": 0.0, "type": "electric_scooter", "name": "a1de7d55d3f37962a28c14bad3e37715", "fusion_lon": 0.0, "bike_id": "a1de7d55d3f37962a28c14bad3e37715", "is_reserved": 0, "rental_uris": {"android": "https://dc.lft.to/lastmile_qr_scan", "ios": "https://dc.lft.to/lastmile_qr_scan"}, "lat": 38.823759333333335, "is_disabled": 0, "lon": -77.01180583333333}, {"fusion_lat": 0.0, "type": "electric_bike", "name": "3ce1b99557ef5a85e3e55465cbdcf24a", "fusion_lon": 0.0, "bike_id": "3ce1b99557ef5a85e3e55465cbdcf24a", "is_reserved": 0, "rental_uris": {"android": "https://dc.lft.to/lastmile_qr_scan", "ios": "https://dc.lft.to/lastmile_qr_scan"}, "lat": 38.88045116666667, "is_disabled": 0, "lon": -77.01126583333334}, {"fusion_lat": 0.0, "type": "electric_scooter", "name": "c0fd101fd80efe936849fa5dbce1e130", "fusion_lon": 0.0, "bike_id": "c0fd101fd80efe936849fa5dbce1e130", "is_reserved": 0, "rental_uris": {"android": "https://dc.lft.to/lastmile_qr_scan", "ios": "https://dc.lft.to/lastmile_qr_scan"}, "lat": 38.867323166666665, "is_disabled": 0, "lon": -76.98780616666667}, {"fusion_lat": 0.0, "type": "electric_scooter", "name": "2eb21ea18a6b75af9405901ed29c1069", "fusion_lon": 0.0, "bike_id": "2eb21ea18a6b75af9405901ed29c1069", "is_reserved": 0, "rental_uris": {"android": "https://dc.lft.to/lastmile_qr_scan", "ios": "https://dc.lft.to/lastmile_qr_scan"}, "lat": 38.9111105, "is_disabled": 0, "lon": -77.04501766666667}, {"fusion_lat": 0.0, "type": "electric_scooter", "name": "298892723d890dddf93c90da5ba6e316", "fusion_lon": 0.0, "bike_id": "298892723d890dddf93c90da5ba6e316", "is_reserved": 0, "rental_uris": {"android": "https://dc.lft.to/lastmile_qr_scan", "ios": "https://dc.lft.to/lastmile_qr_scan"}, "lat": 38.9317115, "is_disabled": 0, "lon": -77.038562}, {"fusion_lat": 0.0, "type": "electric_scooter", "name": "0e544ccd1f2c3f6fa9bd1408eca0e795", "fusion_lon": 0.0, "bike_id": "0e544ccd1f2c3f6fa9bd1408eca0e795", "is_reserved": 0, "rental_uris": {"android": "https://dc.lft.to/lastmile_qr_scan", "ios": "https://dc.lft.to/lastmile_qr_scan"}, "lat": 38.8932335, "is_disabled": 0, "lon": -76.9438275}, {"fusion_lat": 0.0, "type": "electric_scooter", "name": "146959e2aa8afcd9849cf484d2a06438", "fusion_lon": 0.0, "bike_id": "146959e2aa8afcd9849cf484d2a06438", "is_reserved": 0, "rental_uris": {"android": "https://dc.lft.to/lastmile_qr_scan", "ios": "https://dc.lft.to/lastmile_qr_scan"}, "lat": 38.923570833333336, "is_disabled": 0, "lon": -77.05044333333333}, {"fusion_lat": 0.0, "type": "electric_scooter", "name": "2ecb8481537d944a541269c1f9c939af", "fusion_lon": 0.0, "bike_id": "2ecb8481537d944a541269c1f9c939af", "is_reserved": 0, "rental_uris": {"android": "https://dc.lft.to/lastmile_qr_scan", "ios": "https://dc.lft.to/lastmile_qr_scan"}, "lat": 38.9036535, "is_disabled": 0, "lon": -77.03664566666667}, {"fusion_lat": 0.0, "type": "electric_scooter", "name": "5fbbce430133f197c64057f3449d39e7", "fusion_lon": 0.0, "bike_id": "5fbbce430133f197c64057f3449d39e7", "is_reserved": 0, "rental_uris": {"android": "https://dc.lft.to/lastmile_qr_scan", "ios": "https://dc.lft.to/lastmile_qr_scan"}, "lat": 38.898891666666664, "is_disabled": 0, "lon": -77.043359}, {"fusion_lat": 0.0, "type": "electric_scooter", "name": "963aca1fcdd8850ac5cca233bac8de7b", "fusion_lon": 0.0, "bike_id": "963aca1fcdd8850ac5cca233bac8de7b", "is_reserved": 0, "rental_uris": {"android": "https://dc.lft.to/lastmile_qr_scan", "ios": "https://dc.lft.to/lastmile_qr_scan"}, "lat": 38.89227266666666, "is_disabled": 0, "lon": -77.02802466666667}, {"fusion_lat": 0.0, "type": "electric_bike", "name": "2ce0b30a60e84344ae6abec3d99be907", "fusion_lon": 0.0, "bike_id": "2ce0b30a60e84344ae6abec3d99be907", "is_reserved": 0, "rental_uris": {"android": "https://dc.lft.to/lastmile_qr_scan", "ios": "https://dc.lft.to/lastmile_qr_scan"}, "lat": 38.85422066666667, "is_disabled": 0, "lon": -77.120784}, {"fusion_lat": 0.0, "type": "electric_scooter", "name": "e1d9f529a119725a1654193a6fde6ed4", "fusion_lon": 0.0, "bike_id": "e1d9f529a119725a1654193a6fde6ed4", "is_reserved": 0, "rental_uris": {"android": "https://dc.lft.to/lastmile_qr_scan", "ios": "https://dc.lft.to/lastmile_qr_scan"}, "lat": 38.89725883333333, "is_disabled": 0, "lon": -77.00331783333333}, {"fusion_lat": 0.0, "type": "electric_scooter", "name": "65eed386e38bdda7062279b4f57a3131", "fusion_lon": 0.0, "bike_id": "65eed386e38bdda7062279b4f57a3131", "is_reserved": 0, "rental_uris": {"android": "https://dc.lft.to/lastmile_qr_scan", "ios": "https://dc.lft.to/lastmile_qr_scan"}, "lat": 38.905083, "is_disabled": 0, "lon": -76.99427533333333}, {"fusion_lat": 0.0, "type": "electric_scooter", "name": "a9c9ef768c30a6b70def5c0221741f99", "fusion_lon": 0.0, "bike_id": "a9c9ef768c30a6b70def5c0221741f99", "is_reserved": 0, "rental_uris": {"android": "https://dc.lft.to/lastmile_qr_scan", "ios": "https://dc.lft.to/lastmile_qr_scan"}, "lat": 38.899156166666664, "is_disabled": 0, "lon": -76.93379966666667}, {"fusion_lat": 0.0, "type": "electric_scooter", "name": "e46d901c723f22b37d35a61a967d9cb1", "fusion_lon": 0.0, "bike_id": "e46d901c723f22b37d35a61a967d9cb1", "is_reserved": 0, "rental_uris": {"android": "https://dc.lft.to/lastmile_qr_scan", "ios": "https://dc.lft.to/lastmile_qr_scan"}, "lat": 38.92188083333333, "is_disabled": 0, "lon": -77.0731735}, {"fusion_lat": 0.0, "type": "electric_scooter", "name": "64dce232389342df8a67b81387318d10", "fusion_lon": 0.0, "bike_id": "64dce232389342df8a67b81387318d10", "is_reserved": 0, "rental_uris": {"android": "https://dc.lft.to/lastmile_qr_scan", "ios": "https://dc.lft.to/lastmile_qr_scan"}, "lat": 38.9023525, "is_disabled": 0, "lon": -77.026407}, {"fusion_lat": 0.0, "type": "electric_scooter", "name": "e7720c450b132b2ac5c14cdc83bffbeb", "fusion_lon": 0.0, "bike_id": "e7720c450b132b2ac5c14cdc83bffbeb", "is_reserved": 0, "rental_uris": {"android": "https://dc.lft.to/lastmile_qr_scan", "ios": "https://dc.lft.to/lastmile_qr_scan"}, "lat": 38.896043666666664, "is_disabled": 0, "lon": -77.05438283333334}, {"fusion_lat": 0.0, "type": "electric_scooter", "name": "1e3c3aa2b02d8dd21bb0b38817b2b301", "fusion_lon": 0.0, "bike_id": "1e3c3aa2b02d8dd21bb0b38817b2b301", "is_reserved": 0, "rental_uris": {"android": "https://dc.lft.to/lastmile_qr_scan", "ios": "https://dc.lft.to/lastmile_qr_scan"}, "lat": 38.9122585, "is_disabled": 0, "lon": -77.02273083333333}, {"fusion_lat": 0.0, "type": "electric_bike", "name": "4b7f129921a1553d01885cd55edbf2a4", "fusion_lon": 0.0, "bike_id": "4b7f129921a1553d01885cd55edbf2a4", "is_reserved": 0, "rental_uris": {"android": "https://dc.lft.to/lastmile_qr_scan", "ios": "https://dc.lft.to/lastmile_qr_scan"}, "lat": 38.893525333333336, "is_disabled": 0, "lon": -77.18738583333334}, {"fusion_lat": 0.0, "type": "electric_scooter", "name": "8037f431aaffabb5ee2ef8db08398e10", "fusion_lon": 0.0, "bike_id": "8037f431aaffabb5ee2ef8db08398e10", "is_reserved": 0, "rental_uris": {"android": "https://dc.lft.to/lastmile_qr_scan", "ios": "https://dc.lft.to/lastmile_qr_scan"}, "lat": 38.91174916666667, "is_disabled": 0, "lon": -77.049185}, {"fusion_lat": 0.0, "type": "electric_scooter", "name": "f444c8cb17a4d81984c1aae104aa3e39", "fusion_lon": 0.0, "bike_id": "f444c8cb17a4d81984c1aae104aa3e39", "is_reserved": 0, "rental_uris": {"android": "https://dc.lft.to/lastmile_qr_scan", "ios": "https://dc.lft.to/lastmile_qr_scan"}, "lat": 38.89219383333333, "is_disabled": 0, "lon": -77.04504216666666}, {"fusion_lat": 0.0, "type": "electric_scooter", "name": "4864fa6bbbabb6aac6c53959fc02ee9e", "fusion_lon": 0.0, "bike_id": "4864fa6bbbabb6aac6c53959fc02ee9e", "is_reserved": 0, "rental_uris": {"android": "https://dc.lft.to/lastmile_qr_scan", "ios": "https://dc.lft.to/lastmile_qr_scan"}, "lat": 38.90504633333333, "is_disabled": 0, "lon": -76.97924333333333}, {"fusion_lat": 0.0, "type": "electric_scooter", "name": "0429c3be5b01326be1a3978a227c16b5", "fusion_lon": 0.0, "bike_id": "0429c3be5b01326be1a3978a227c16b5", "is_reserved": 0, "rental_uris": {"android": "https://dc.lft.to/lastmile_qr_scan", "ios": "https://dc.lft.to/lastmile_qr_scan"}, "lat": 38.88743066666667, "is_disabled": 0, "lon": -77.00877766666666}, {"fusion_lat": 0.0, "type": "electric_scooter", "name": "9f025a4c1f9ee78a4b636192a37c1893", "fusion_lon": 0.0, "bike_id": "9f025a4c1f9ee78a4b636192a37c1893", "is_reserved": 0, "rental_uris": {"android": "https://dc.lft.to/lastmile_qr_scan", "ios": "https://dc.lft.to/lastmile_qr_scan"}, "lat": 38.9055735, "is_disabled": 0, "lon": -76.97394833333334}, {"fusion_lat": 0.0, "type": "electric_scooter", "name": "0524f8aec55cad0aa24925843abb39a1", "fusion_lon": 0.0, "bike_id": "0524f8aec55cad0aa24925843abb39a1", "is_reserved": 0, "rental_uris": {"android": "https://dc.lft.to/lastmile_qr_scan", "ios": "https://dc.lft.to/lastmile_qr_scan"}, "lat": 38.91041966666667, "is_disabled": 0, "lon": -77.03188933333334}, {"fusion_lat": 0.0, "type": "electric_scooter", "name": "83a4b2d4f71198e986eb3eb2cf2755d9", "fusion_lon": 0.0, "bike_id": "83a4b2d4f71198e986eb3eb2cf2755d9", "is_reserved": 0, "rental_uris": {"android": "https://dc.lft.to/lastmile_qr_scan", "ios": "https://dc.lft.to/lastmile_qr_scan"}, "lat": 38.887279666666664, "is_disabled": 0, "lon": -77.02580916666666}, {"fusion_lat": 0.0, "type": "electric_scooter", "name": "cfd275882c2f0f6426d5721f854ddfe0", "fusion_lon": 0.0, "bike_id": "cfd275882c2f0f6426d5721f854ddfe0", "is_reserved": 0, "rental_uris": {"android": "https://dc.lft.to/lastmile_qr_scan", "ios": "https://dc.lft.to/lastmile_qr_scan"}, "lat": 38.92866983333333, "is_disabled": 0, "lon": -77.0328495}, {"fusion_lat": 0.0, "type": "electric_scooter", "name": "ccdb065617cbe0461f888cd22194b1c2", "fusion_lon": 0.0, "bike_id": "ccdb065617cbe0461f888cd22194b1c2", "is_reserved": 0, "rental_uris": {"android": "https://dc.lft.to/lastmile_qr_scan", "ios": "https://dc.lft.to/lastmile_qr_scan"}, "lat": 38.924127166666665, "is_disabled": 0, "lon": -77.02294333333333}, {"fusion_lat": 0.0, "type": "electric_scooter", "name": "85609f2961c8b1c9046992febaa6dc2f", "fusion_lon": 0.0, "bike_id": "85609f2961c8b1c9046992febaa6dc2f", "is_reserved": 0, "rental_uris": {"android": "https://dc.lft.to/lastmile_qr_scan", "ios": "https://dc.lft.to/lastmile_qr_scan"}, "lat": 38.864182666666665, "is_disabled": 0, "lon": -76.99133116666667}, {"fusion_lat": 0.0, "type": "electric_scooter", "name": "e2ad5322ece22e557749d033cca0edfc", "fusion_lon": 0.0, "bike_id": "e2ad5322ece22e557749d033cca0edfc", "is_reserved": 0, "rental_uris": {"android": "https://dc.lft.to/lastmile_qr_scan", "ios": "https://dc.lft.to/lastmile_qr_scan"}, "lat": 38.921602166666666, "is_disabled": 0, "lon": -77.0350805}, {"fusion_lat": 0.0, "type": "electric_scooter", "name": "9579b178a4d6eb9d5b4b7cd1d103c719", "fusion_lon": 0.0, "bike_id": "9579b178a4d6eb9d5b4b7cd1d103c719", "is_reserved": 0, "rental_uris": {"android": "https://dc.lft.to/lastmile_qr_scan", "ios": "https://dc.lft.to/lastmile_qr_scan"}, "lat": 38.892231333333335, "is_disabled": 0, "lon": -77.03166916666666}, {"fusion_lat": 0.0, "type": "electric_scooter", "name": "ea6c6306da8035687e349059bc4d4b2d", "fusion_lon": 0.0, "bike_id": "ea6c6306da8035687e349059bc4d4b2d", "is_reserved": 0, "rental_uris": {"android": "https://dc.lft.to/lastmile_qr_scan", "ios": "https://dc.lft.to/lastmile_qr_scan"}, "lat": 38.93772033333333, "is_disabled": 0, "lon": -77.03259183333333}, {"fusion_lat": 0.0, "type": "electric_scooter", "name": "5fcb2771387541babb1515718f08d77e", "fusion_lon": 0.0, "bike_id": "5fcb2771387541babb1515718f08d77e", "is_reserved": 0, "rental_uris": {"android": "https://dc.lft.to/lastmile_qr_scan", "ios": "https://dc.lft.to/lastmile_qr_scan"}, "lat": 38.918370833333334, "is_disabled": 0, "lon": -77.05949533333333}, {"fusion_lat": 0.0, "type": "electric_scooter", "name": "fd794febfa57edaab7ccd65971e516cf", "fusion_lon": 0.0, "bike_id": "fd794febfa57edaab7ccd65971e516cf", "is_reserved": 0, "rental_uris": {"android": "https://dc.lft.to/lastmile_qr_scan", "ios": "https://dc.lft.to/lastmile_qr_scan"}, "lat": 38.951992833333335, "is_disabled": 0, "lon": -77.0273695}, {"fusion_lat": 0.0, "type": "electric_scooter", "name": "98f1f4460a112b84665b52c698859535", "fusion_lon": 0.0, "bike_id": "98f1f4460a112b84665b52c698859535", "is_reserved": 0, "rental_uris": {"android": "https://dc.lft.to/lastmile_qr_scan", "ios": "https://dc.lft.to/lastmile_qr_scan"}, "lat": 38.90890816666667, "is_disabled": 0, "lon": -77.00412066666667}, {"fusion_lat": 0.0, "type": "electric_scooter", "name": "234be760e01dcaa0e3961b749b73e41a", "fusion_lon": 0.0, "bike_id": "234be760e01dcaa0e3961b749b73e41a", "is_reserved": 0, "rental_uris": {"android": "https://dc.lft.to/lastmile_qr_scan", "ios": "https://dc.lft.to/lastmile_qr_scan"}, "lat": 38.87543566666667, "is_disabled": 0, "lon": -77.0060565}, {"fusion_lat": 0.0, "type": "electric_scooter", "name": "b0bf7cceca2a5a1f9e531df11147815d", "fusion_lon": 0.0, "bike_id": "b0bf7cceca2a5a1f9e531df11147815d", "is_reserved": 0, "rental_uris": {"android": "https://dc.lft.to/lastmile_qr_scan", "ios": "https://dc.lft.to/lastmile_qr_scan"}, "lat": 38.8849625, "is_disabled": 0, "lon": -77.01589533333333}, {"fusion_lat": 0.0, "type": "electric_scooter", "name": "c12db4bf82f2c138534928deb1bf2a71", "fusion_lon": 0.0, "bike_id": "c12db4bf82f2c138534928deb1bf2a71", "is_reserved": 0, "rental_uris": {"android": "https://dc.lft.to/lastmile_qr_scan", "ios": "https://dc.lft.to/lastmile_qr_scan"}, "lat": 38.952005166666666, "is_disabled": 0, "lon": -77.027377}, {"fusion_lat": 0.0, "type": "electric_scooter", "name": "d00ab2894fda174292132588a99e0746", "fusion_lon": 0.0, "bike_id": "d00ab2894fda174292132588a99e0746", "is_reserved": 0, "rental_uris": {"android": "https://dc.lft.to/lastmile_qr_scan", "ios": "https://dc.lft.to/lastmile_qr_scan"}, "lat": 38.933659166666665, "is_disabled": 0, "lon": -77.05725933333333}, {"fusion_lat": 0.0, "type": "electric_scooter", "name": "367db1d910a4a0b189bfcd5425903985", "fusion_lon": 0.0, "bike_id": "367db1d910a4a0b189bfcd5425903985", "is_reserved": 0, "rental_uris": {"android": "https://dc.lft.to/lastmile_qr_scan", "ios": "https://dc.lft.to/lastmile_qr_scan"}, "lat": 38.903957, "is_disabled": 0, "lon": -77.030693}, {"fusion_lat": 0.0, "type": "electric_scooter", "name": "2dbd0e56061b433860ac1ae8f715325f", "fusion_lon": 0.0, "bike_id": "2dbd0e56061b433860ac1ae8f715325f", "is_reserved": 0, "rental_uris": {"android": "https://dc.lft.to/lastmile_qr_scan", "ios": "https://dc.lft.to/lastmile_qr_scan"}, "lat": 38.89191016666667, "is_disabled": 0, "lon": -77.00294566666666}, {"fusion_lat": 0.0, "type": "electric_scooter", "name": "d8da0ec5c868920689482b492bec96d8", "fusion_lon": 0.0, "bike_id": "d8da0ec5c868920689482b492bec96d8", "is_reserved": 0, "rental_uris": {"android": "https://dc.lft.to/lastmile_qr_scan", "ios": "https://dc.lft.to/lastmile_qr_scan"}, "lat": 38.90569283333333, "is_disabled": 0, "lon": -76.976284}, {"fusion_lat": 0.0, "type": "electric_scooter", "name": "4cd8e797356d7b2766f7cfad49f69826", "fusion_lon": 0.0, "bike_id": "4cd8e797356d7b2766f7cfad49f69826", "is_reserved": 0, "rental_uris": {"android": "https://dc.lft.to/lastmile_qr_scan", "ios": "https://dc.lft.to/lastmile_qr_scan"}, "lat": 38.88665966666667, "is_disabled": 0, "lon": -76.93612533333334}, {"fusion_lat": 0.0, "type": "electric_scooter", "name": "663cf6b50a16e161a7e62eb1d8c0f1d9", "fusion_lon": 0.0, "bike_id": "663cf6b50a16e161a7e62eb1d8c0f1d9", "is_reserved": 0, "rental_uris": {"android": "https://dc.lft.to/lastmile_qr_scan", "ios": "https://dc.lft.to/lastmile_qr_scan"}, "lat": 38.920677833333336, "is_disabled": 0, "lon": -77.0345875}, {"fusion_lat": 0.0, "type": "electric_scooter", "name": "db6f41bd9c2f4e23542a291a33bf961b", "fusion_lon": 0.0, "bike_id": "db6f41bd9c2f4e23542a291a33bf961b", "is_reserved": 0, "rental_uris": {"android": "https://dc.lft.to/lastmile_qr_scan", "ios": "https://dc.lft.to/lastmile_qr_scan"}, "lat": 38.905593333333336, "is_disabled": 0, "lon": -77.04069233333334}, {"fusion_lat": 0.0, "type": "electric_scooter", "name": "04d857e10f19cc29a7e50f7131e8c0bc", "fusion_lon": 0.0, "bike_id": "04d857e10f19cc29a7e50f7131e8c0bc", "is_reserved": 0, "rental_uris": {"android": "https://dc.lft.to/lastmile_qr_scan", "ios": "https://dc.lft.to/lastmile_qr_scan"}, "lat": 38.897323166666666, "is_disabled": 0, "lon": -77.04671616666667}, {"fusion_lat": 0.0, "type": "electric_scooter", "name": "b5c887c05d5c1891e650eb2dcb097f9b", "fusion_lon": 0.0, "bike_id": "b5c887c05d5c1891e650eb2dcb097f9b", "is_reserved": 0, "rental_uris": {"android": "https://dc.lft.to/lastmile_qr_scan", "ios": "https://dc.lft.to/lastmile_qr_scan"}, "lat": 38.90556866666667, "is_disabled": 0, "lon": -77.04701433333334}, {"fusion_lat": 0.0, "type": "electric_scooter", "name": "e5388ad0813bffef77c82356db6bb411", "fusion_lon": 0.0, "bike_id": "e5388ad0813bffef77c82356db6bb411", "is_reserved": 0, "rental_uris": {"android": "https://dc.lft.to/lastmile_qr_scan", "ios": "https://dc.lft.to/lastmile_qr_scan"}, "lat": 38.916029, "is_disabled": 0, "lon": -77.04479483333333}, {"fusion_lat": 0.0, "type": "electric_scooter", "name": "3c8ae98cd6948ebf61f9f06aa0ed090a", "fusion_lon": 0.0, "bike_id": "3c8ae98cd6948ebf61f9f06aa0ed090a", "is_reserved": 0, "rental_uris": {"android": "https://dc.lft.to/lastmile_qr_scan", "ios": "https://dc.lft.to/lastmile_qr_scan"}, "lat": 38.90256466666666, "is_disabled": 0, "lon": -77.04608066666667}, {"fusion_lat": 0.0, "type": "electric_scooter", "name": "ce7536c586e4a5d02facfebe56902765", "fusion_lon": 0.0, "bike_id": "ce7536c586e4a5d02facfebe56902765", "is_reserved": 0, "rental_uris": {"android": "https://dc.lft.to/lastmile_qr_scan", "ios": "https://dc.lft.to/lastmile_qr_scan"}, "lat": 38.9023935, "is_disabled": 0, "lon": -77.043458}, {"fusion_lat": 0.0, "type": "electric_scooter", "name": "d20c74614555884803c81c6be769512b", "fusion_lon": 0.0, "bike_id": "d20c74614555884803c81c6be769512b", "is_reserved": 0, "rental_uris": {"android": "https://dc.lft.to/lastmile_qr_scan", "ios": "https://dc.lft.to/lastmile_qr_scan"}, "lat": 38.89913766666667, "is_disabled": 0, "lon": -76.93365566666667}, {"fusion_lat": 0.0, "type": "electric_bike", "name": "ec66160f04f6808c7c40418911bcf763", "fusion_lon": 0.0, "bike_id": "ec66160f04f6808c7c40418911bcf763", "is_reserved": 0, "rental_uris": {"android": "https://dc.lft.to/lastmile_qr_scan", "ios": "https://dc.lft.to/lastmile_qr_scan"}, "lat": 38.85207066666667, "is_disabled": 0, "lon": -77.10132483333334}, {"fusion_lat": 0.0, "type": "electric_scooter", "name": "2345f96e837d88404782887a3868de4a", "fusion_lon": 0.0, "bike_id": "2345f96e837d88404782887a3868de4a", "is_reserved": 0, "rental_uris": {"android": "https://dc.lft.to/lastmile_qr_scan", "ios": "https://dc.lft.to/lastmile_qr_scan"}, "lat": 38.89365016666667, "is_disabled": 0, "lon": -76.94987449999999},