{"data": {"bikes": [{"is_disabled": 0, "is_reserved": 0, "fusion_lat": 0.0, "lat": 38.917838833333334, "fusion_lon": 0.0, "rental_uris": {"ios": "https://dc.lft.to/lastmile_qr_scan", "android": "https://dc.lft.to/lastmile_qr_scan"}, "lon": -77.03218183333334, "bike_id": "fd54a044a69fb0180b636adad7ca2ad7", "type": "electric_scooter", "name": "fd54a044a69fb0180b636adad7ca2ad7"}, {"is_disabled": 0, "is_reserved": 0, "fusion_lat": 0.0, "lat": 38.8933735, "fusion_lon": 0.0, "rental_uris": {"ios": "https://dc.lft.to/lastmile_qr_scan", "android": "https://dc.lft.to/lastmile_qr_scan"}, "lon": -76.92891783333333, "bike_id": "b6289adcaf135cbc8b5a65666a25289d", "type": "electric_scooter", "name": "b6289adcaf135cbc8b5a65666a25289d"}, {"is_disabled": 0, "is_reserved": 0, "fusion_lat": 0.0, "lat": 38.93006333333334, "fusion_lon": 0.0, "rental_uris": {"ios": "https://dc.lft.to/lastmile_qr_scan", "android": "https://dc.lft.to/lastmile_qr_scan"}, "lon": -77.037988, "bike_id": "b854b18b9d8547e21fdba2f6f526edca", "type": "electric_scooter", "name": "b854b18b9d8547e21fdba2f6f526edca"}, {"is_disabled": 0, "is_reserved": 0, "fusion_lat": 0.0, "lat": 38.9068705, "fusion_lon": 0.0, "rental_uris": {"ios": "https://dc.lft.to/lastmile_qr_scan", "android": "https://dc.lft.to/lastmile_qr_scan"}, "lon": -77.02693883333333, "bike_id": "a70072460817d788213fc274c6b52028", "type": "electric_scooter", "name": "a70072460817d788213fc274c6b52028"}, {"is_disabled": 0, "is_reserved": 0, "fusion_lat": 0.0, "lat": 38.89362933333334, "fusion_lon": 0.0, "rental_uris": {"ios": "https://dc.lft.to/lastmile_qr_scan", "android": "https://dc.lft.to/lastmile_qr_scan"}, "lon": -77.01216366666667, "bike_id": "fefe62ec49bec198ae79593050afe44f", "type": "electric_bike", "name": "fefe62ec49bec198ae79593050afe44f"}, {"is_disabled": 0, "is_reserved": 0, "fusion_lat": 0.0, "lat": 38.8784445, "fusion_lon": 0.0, "rental_uris": {"ios": "https://dc.lft.to/lastmile_qr_scan", "android": "https://dc.lft.to/lastmile_qr_scan"}, "lon": -76.931312, "bike_id": "ecf6f4de5aa61fc40f9620211f81cdb4", "type": "electric_scooter", "name": "ecf6f4de5aa61fc40f9620211f81cdb4"}, {"is_disabled": 0, "is_reserved": 0, "fusion_lat": 0.0, "lat": 39.0107215, "fusion_lon": 0.0, "rental_uris": {"ios": "https://dc.lft.to/lastmile_qr_scan", "android": "https://dc.lft.to/lastmile_qr_scan"}, "lon": -76.92241016666667, "bike_id": "ef8e7f929035909e7b838614bff1f3d7", "type": "electric_bike", "name": "ef8e7f929035909e7b838614bff1f3d7"}, {"is_disabled": 0, "is_reserved": 0, "fusion_lat": 0.0, "lat": 38.920373833333336, "fusion_lon": 0.0, "rental_uris": {"ios": "https://dc.lft.to/lastmile_qr_scan", "android": "https://dc.lft.to/lastmile_qr_scan"}, "lon": -77.02607583333334, "bike_id": "6d77d733f8f11e9dc43d172902334765", "type": "electric_scooter", "name": "6d77d733f8f11e9dc43d172902334765"}, {"is_disabled": 0, "is_reserved": 0, "fusion_lat": 0.0, "lat": 38.9232175, "fusion_lon": 0.0, "rental_uris": {"ios": "https://dc.lft.to/lastmile_qr_scan", "android": "https://dc.lft.to/lastmile_qr_scan"}, "lon": -77.0391055, "bike_id": "54ac26908b3be95cf47d31ebd94dbe90", "type": "electric_scooter", "name": "54ac26908b3be95cf47d31ebd94dbe90"}, {"is_disabled": 0, "is_reserved": 0, "fusion_lat": 0.0, "lat": 38.9227145, "fusion_lon": 0.0, "rental_uris": {"ios": "https://dc.lft.to/lastmile_qr_scan", "android": "https://dc.lft.to/lastmile_qr_scan"}, "lon": -77.03635383333334, "bike_id": "04a3ab6f4de115b12c2faff6f9a061d9", "type": "electric_scooter", "name": "04a3ab6f4de115b12c2faff6f9a061d9"}, {"is_disabled": 0, "is_reserved": 0, "fusion_lat": 0.0, "lat": 38.93090383333333, "fusion_lon": 0.0, "rental_uris": {"ios": "https://dc.lft.to/lastmile_qr_scan", "android": "https://dc.lft.to/lastmile_qr_scan"}, "lon": -77.034399, "bike_id": "2a40dd57e4312d21281261219cdcc3ab", "type": "electric_scooter", "name": "2a40dd57e4312d21281261219cdcc3ab"}, {"is_disabled": 0, "is_reserved": 0, "fusion_lat": 0.0, "lat": 38.88302266666667, "fusion_lon": 0.0, "rental_uris": {"ios": "https://dc.lft.to/lastmile_qr_scan", "android": "https://dc.lft.to/lastmile_qr_scan"}, "lon": -77.0255625, "bike_id": "e6d58ceb9e7b45df27d15234ebf5d542", "type": "electric_scooter", "name": "e6d58ceb9e7b45df27d15234ebf5d542"}, {"is_disabled": 0, "is_reserved": 0, "fusion_lat": 0.0, "lat": 38.88275466666666, "fusion_lon": 0.0, "rental_uris": {"ios": "https://dc.lft.to/lastmile_qr_scan", "android": "https://dc.lft.to/lastmile_qr_scan"}, "lon": -77.006517, "bike_id": "4b49575335461bdc782a5267d9da15f7", "type": "electric_scooter", "name": "4b49575335461bdc782a5267d9da15f7"}, {"is_disabled": 0, "is_reserved": 0, "fusion_lat": 0.0, "lat": 38.9337665, "fusion_lon": 0.0, "rental_uris": {"ios": "https://dc.lft.to/lastmile_qr_scan", "android": "https://dc.lft.to/lastmile_qr_scan"}, "lon": -77.02717816666667, "bike_id": "28f0660b288a7ca5f8a3fd5673981c82", "type": "electric_scooter", "name": "28f0660b288a7ca5f8a3fd5673981c82"}, {"is_disabled": 0, "is_reserved": 0, "fusion_lat": 0.0, "lat": 38.90617233333333, "fusion_lon": 0.0, "rental_uris": {"ios": "https://dc.lft.to/lastmile_qr_scan", "android": "https://dc.lft.to/lastmile_qr_scan"}, "lon": -77.056451, "bike_id": "f5a60d16d869cfd4231da819c71f90d5", "type": "electric_scooter", "name": "f5a60d16d869cfd4231da819c71f90d5"}, {"is_disabled": 0, "is_reserved": 0, "fusion_lat": 0.0, "lat": 38.900415, "fusion_lon": 0.0, "rental_uris": {"ios": "https://dc.lft.to/lastmile_qr_scan", "android": "https://dc.lft.to/lastmile_qr_scan"}, "lon": -77.00377733333333, "bike_id": "5f84be42c0c5c2c5668f4a223199f517", "type": "electric_scooter", "name": "5f84be42c0c5c2c5668f4a223199f517"}, {"is_disabled": 0, "is_reserved": 0, "fusion_lat": 0.0, "lat": 38.89227983333333, "fusion_lon": 0.0, "rental_uris": {"ios": "https://dc.lft.to/lastmile_qr_scan", "android": "https://dc.lft.to/lastmile_qr_scan"}, "lon": -77.043361, "bike_id": "b0d4da2251cd3afffa9ac06e2cea475c", "type": "electric_scooter", "name": "b0d4da2251cd3afffa9ac06e2cea475c"}, {"is_disabled": 0, "is_reserved": 0, "fusion_lat": 0.0, "lat": 38.902725833333335, "fusion_lon": 0.0, "rental_uris": {"ios": "https://dc.lft.to/lastmile_qr_scan", "android": "https://dc.lft.to/lastmile_qr_scan"}, "lon": -77.01157466666666, "bike_id": "403ec504af38a464c452388dc8655d08", "type": "electric_scooter", "name": "403ec504af38a464c452388dc8655d08"}, {"is_disabled": 0, "is_reserved": 0, "fusion_lat": 0.0, "lat": 38.9197585, "fusion_lon": 0.0, "rental_uris": {"ios": "https://dc.lft.to/lastmile_qr_scan", "android": "https://dc.lft.to/lastmile_qr_scan"}, "lon": -77.0020945, "bike_id": "ef62d9d25e93187660951f0e3e902f3c", "type": "electric_scooter", "name": "ef62d9d25e93187660951f0e3e902f3c"}, {"is_disabled": 0, "is_reserved": 0, "fusion_lat": 0.0, "lat": 38.921134333333335, "fusion_lon": 0.0, "rental_uris": {"ios": "https://dc.lft.to/lastmile_qr_scan", "android": "https://dc.lft.to/lastmile_qr_scan"}, "lon": -77.046978, "bike_id": "75011b10c95b016f817b94acc047b7fe", "type": "electric_scooter", "name": "75011b10c95b016f817b94acc047b7fe"}, {"is_disabled": 0, "is_reserved": 0, "fusion_lat": 0.0, "lat": 38.93365933333333, "fusion_lon": 0.0, "rental_uris": {"ios": "https://dc.lft.to/lastmile_qr_scan", "android": "https://dc.lft.to/lastmile_qr_scan"}, "lon": -77.0264775, "bike_id": "5cf9f5d41e18a55748e9fb588abdcb2c", "type": "electric_scooter", "name": "5cf9f5d41e18a55748e9fb588abdcb2c"}, {"is_disabled": 0, "is_reserved": 0, "fusion_lat": 0.0, "lat": 38.911781500000004, "fusion_lon": 0.0, "rental_uris": {"ios": "https://dc.lft.to/lastmile_qr_scan", "android": "https://dc.lft.to/lastmile_qr_scan"}, "lon": -77.02828716666667, "bike_id": "25ea331af65d1491daeed2c499dd1d65", "type": "electric_scooter", "name": "25ea331af65d1491daeed2c499dd1d65"}, {"is_disabled": 0, "is_reserved": 0, "fusion_lat": 0.0, "lat": 38.906062, "fusion_lon": 0.0, "rental_uris": {"ios": "https://dc.lft.to/lastmile_qr_scan", "android": "https://dc.lft.to/lastmile_qr_scan"}, "lon": -77.1287145, "bike_id": "48bb01d188956989b5ced1a812ef031a", "type": "electric_bike", "name": "48bb01d188956989b5ced1a812ef031a"}, {"is_disabled": 0, "is_reserved": 0, "fusion_lat": 0.0, "lat": 38.934440333333335, "fusion_lon": 0.0, "rental_uris": {"ios": "https://dc.lft.to/lastmile_qr_scan", "android": "https://dc.lft.to/lastmile_qr_scan"}, "lon": -77.02987, "bike_id": "d919c46867a93ace48b3397bb25caae2", "type": "electric_scooter", "name": "d919c46867a93ace48b3397bb25caae2"}, {"is_disabled": 0, "is_reserved": 0, "fusion_lat": 0.0, "lat": 38.89286216666667, "fusion_lon": 0.0, "rental_uris": {"ios": "https://dc.lft.to/lastmile_qr_scan", "android": "https://dc.lft.to/lastmile_qr_scan"}, "lon": -77.04196766666666, "bike_id": "742fe785fac717795cc0430e9470e8bb", "type": "electric_scooter", "name": "742fe785fac717795cc0430e9470e8bb"}, {"is_disabled": 0, "is_reserved": 0, "fusion_lat": 0.0, "lat": 38.9156495, "fusion_lon": 0.0, "rental_uris": {"ios": "https://dc.lft.to/lastmile_qr_scan", "android": "https://dc.lft.to/lastmile_qr_scan"}, "lon": -77.05104783333333, "bike_id": "ca89bd122046836f0ab19a586150f548", "type": "electric_scooter", "name": "ca89bd122046836f0ab19a586150f548"}, {"is_disabled": 0, "is_reserved": 0, "fusion_lat": 0.0, "lat": 38.915868833333334, "fusion_lon": 0.0, "rental_uris": {"ios": "https://dc.lft.to/lastmile_qr_scan", "android": "https://dc.lft.to/lastmile_qr_scan"}, "lon": -77.043455, "bike_id": "37e958d517882ce877919078c0a7aede", "type": "electric_scooter", "name": "37e958d517882ce877919078c0a7aede"}, {"is_disabled": 0, "is_reserved": 0, "fusion_lat": 0.0, "lat": 38.84675766666667, "fusion_lon": 0.0, "rental_uris": {"ios": "https://dc.lft.to/lastmile_qr_scan", "android": "https://dc.lft.to/lastmile_qr_scan"}, "lon": -77.13933733333333, "bike_id": "12732a387f52ab42828edf51e3ef36f7", "type": "electric_bike", "name": "12732a387f52ab42828edf51e3ef36f7"}, {"is_disabled": 0, "is_reserved": 0, "fusion_lat": 0.0, "lat": 38.89741266666667, "fusion_lon": 0.0, "rental_uris": {"ios": "https://dc.lft.to/lastmile_qr_scan", "android": "https://dc.lft.to/lastmile_qr_scan"}, "lon": -77.02590666666667, "bike_id": "293f4d789c9a933790a7c312fca9910a", "type": "electric_scooter", "name": "293f4d789c9a933790a7c312fca9910a"}, {"is_disabled": 0, "is_reserved": 0, "fusion_lat": 0.0, "lat": 38.90270833333334, "fusion_lon": 0.0, "rental_uris": {"ios": "https://dc.lft.to/lastmile_qr_scan", "android": "https://dc.lft.to/lastmile_qr_scan"}, "lon": -77.002159, "bike_id": "88f942671e239e922bb25a7f8c5a0579", "type": "electric_scooter", "name": "88f942671e239e922bb25a7f8c5a0579"}, {"is_disabled": 0, "is_reserved": 0, "fusion_lat": 0.0, "lat": 38.87601983333333, "fusion_lon": 0.0, "rental_uris": {"ios": "https://dc.lft.to/lastmile_qr_scan", "android": "https://dc.lft.to/lastmile_qr_scan"}, "lon": -77.00870033333334, "bike_id": "9037046e078bf23c5dcf49270f2e4aee", "type": "electric_scooter", "name": "9037046e078bf23c5dcf49270f2e4aee"}, {"is_disabled": 0, "is_reserved": 0, "fusion_lat": 0.0, "lat": 38.91275533333334, "fusion_lon": 0.0, "rental_uris": {"ios": "https://dc.lft.to/lastmile_qr_scan", "android": "https://dc.lft.to/lastmile_qr_scan"}, "lon": -77.04172766666667, "bike_id": "1ef1025277fdca23de4dfb4a746b7012", "type": "electric_scooter", "name": "1ef1025277fdca23de4dfb4a746b7012"}, {"is_disabled": 0, "is_reserved": 0, "fusion_lat": 0.0, "lat": 38.92975833333333, "fusion_lon": 0.0, "rental_uris": {"ios": "https://dc.lft.to/lastmile_qr_scan", "android": "https://dc.lft.to/lastmile_qr_scan"}, "lon": -77.0308275, "bike_id": "bb7a5f548f586925097368e862802928", "type": "electric_scooter", "name": "bb7a5f548f586925097368e862802928"}, {"is_disabled": 0, "is_reserved": 0, "fusion_lat": 0.0, "lat": 38.89961266666667, "fusion_lon": 0.0, "rental_uris": {"ios": "https://dc.lft.to/lastmile_qr_scan", "android": "https://dc.lft.to/lastmile_qr_scan"}, "lon": -77.050585, "bike_id": "78506a6c70de15a58fb090fe4bf20561", "type": "electric_scooter", "name": "78506a6c70de15a58fb090fe4bf20561"}, {"is_disabled": 0, "is_reserved": 0, "fusion_lat": 0.0, "lat": 38.91696683333333, "fusion_lon": 0.0, "rental_uris": {"ios": "https://dc.lft.to/lastmile_qr_scan", "android": "https://dc.lft.to/lastmile_qr_scan"}, "lon": -77.028371, "bike_id": "81a71863e331f42953f358c969b24f53", "type": "electric_bike", "name": "81a71863e331f42953f358c969b24f53"}, {"is_disabled": 0, "is_reserved": 0, "fusion_lat": 0.0, "lat": 38.9084705, "fusion_lon": 0.0, "rental_uris": {"ios": "https://dc.lft.to/lastmile_qr_scan", "android": "https://dc.lft.to/lastmile_qr_scan"}, "lon": -76.93449283333334, "bike_id": "8fd419e8ed08f7d215d134bcdd9a2167", "type": "electric_scooter", "name": "8fd419e8ed08f7d215d134bcdd9a2167"}, {"is_disabled": 0, "is_reserved": 0, "fusion_lat": 0.0, "lat": 38.878898666666664, "fusion_lon": 0.0, "rental_uris": {"ios": "https://dc.lft.to/lastmile_qr_scan", "android": "https://dc.lft.to/lastmile_qr_scan"}, "lon": -77.00568666666666, "bike_id": "0bc37654084422b34103f3a57863d6e2", "type": "electric_scooter", "name": "0bc37654084422b34103f3a57863d6e2"}, {"is_disabled": 0, "is_reserved": 0, "fusion_lat": 0.0, "lat": 38.920506, "fusion_lon": 0.0, "rental_uris": {"ios": "https://dc.lft.to/lastmile_qr_scan", "android": "https://dc.lft.to/lastmile_qr_scan"}, "lon": -77.0257655, "bike_id": "9757f9138b8aa28ba6ddedc0218de4b3", "type": "electric_scooter", "name": "9757f9138b8aa28ba6ddedc0218de4b3"}, {"is_disabled": 0, "is_reserved": 0, "fusion_lat": 0.0, "lat": 38.96804216666666, "fusion_lon": 0.0, "rental_uris": {"ios": "https://dc.lft.to/lastmile_qr_scan", "android": "https://dc.lft.to/lastmile_qr_scan"}, "lon": -77.02432383333333, "bike_id": "13048a3c465541fe134208cc519f8444", "type": "electric_scooter", "name": "13048a3c465541fe134208cc519f8444"}, {"is_disabled": 0, "is_reserved": 0, "fusion_lat": 0.0, "lat": 38.90029033333333, "fusion_lon": 0.0, "rental_uris": {"ios": "https://dc.lft.to/lastmile_qr_scan", "android": "https://dc.lft.to/lastmile_qr_scan"}, "lon": -76.98808083333333, "bike_id": "e4223d397839483f3d7f4cc331b3f524", "type": "electric_scooter", "name": "e4223d397839483f3d7f4cc331b3f524"}, {"is_disabled": 0, "is_reserved": 0, "fusion_lat": 0.0, "lat": 38.90157516666667, "fusion_lon": 0.0, "rental_uris": {"ios": "https://dc.lft.to/lastmile_qr_scan", "android": "https://dc.lft.to/lastmile_qr_scan"}, "lon": -77.0248125, "bike_id": "05d81a50bda5fb5ee0408ab77f871d5b", "type": "electric_scooter", "name": "05d81a50bda5fb5ee0408ab77f871d5b"}, {"is_disabled": 0, "is_reserved": 0, "fusion_lat": 0.0, "lat": 38.94492266666666, "fusion_lon": 0.0, "rental_uris": {"ios": "https://dc.lft.to/lastmile_qr_scan", "android": "https://dc.lft.to/lastmile_qr_scan"}, "lon": -77.007372, "bike_id": "f8cb96a8ae9985e0b39f81aa5492d07c", "type": "electric_bike", "name": "f8cb96a8ae9985e0b39f81aa5492d07c"}, {"is_disabled": 0, "is_reserved": 0, "fusion_lat": 0.0, "lat": 38.805276166666665, "fusion_lon": 0.0, "rental_uris": {"ios": "https://dc.lft.to/lastmile_qr_scan", "android": "https://dc.lft.to/lastmile_qr_scan"}, "lon": -77.043337, "bike_id": "48288bbd145ba5a4da429ae0c3915d10", "type": "electric_bike", "name": "48288bbd145ba5a4da429ae0c3915d10"}, {"is_disabled": 0, "is_reserved": 0, "fusion_lat": 0.0, "lat": 38.93700483333333, "fusion_lon": 0.0, "rental_uris": {"ios": "https://dc.lft.to/lastmile_qr_scan", "android": "https://dc.lft.to/lastmile_qr_scan"}, "lon": -77.05597383333334, "bike_id": "27e81edb6801a1925cf2039c3307e49a", "type": "electric_scooter", "name": "27e81edb6801a1925cf2039c3307e49a"}, {"is_disabled": 0, "is_reserved": 0, "fusion_lat": 0.0, "lat": 38.903856166666664, "fusion_lon": 0.0, "rental_uris": {"ios": "https://dc.lft.to/lastmile_qr_scan", "android": "https://dc.lft.to/lastmile_qr_scan"}, "lon": -77.018454, "bike_id": "4412679ded9e667de20df2ce6faf296b", "type": "electric_scooter", "name": "4412679ded9e667de20df2ce6faf296b"}, {"is_disabled": 0, "is_reserved": 0, "fusion_lat": 0.0, "lat": 38.95308816666667, "fusion_lon": 0.0, "rental_uris": {"ios": "https://dc.lft.to/lastmile_qr_scan", "android": "https://dc.lft.to/lastmile_qr_scan"}, "lon": -77.0201515, "bike_id": "1e0d771dc784be29cbaf57ebc483b656", "type": "electric_scooter", "name": "1e0d771dc784be29cbaf57ebc483b656"}, {"is_disabled": 0, "is_reserved": 0, "fusion_lat": 0.0, "lat": 38.953671166666666, "fusion_lon": 0.0, "rental_uris": {"ios": "https://dc.lft.to/lastmile_qr_scan", "android": "https://dc.lft.to/lastmile_qr_scan"}, "lon": -76.99845083333334, "bike_id": "7f47aedadcbde4ae4ef15467d405a925", "type": "electric_scooter", "name": "7f47aedadcbde4ae4ef15467d405a925"}, {"is_disabled": 0, "is_reserved": 0, "fusion_lat": 0.0, "lat": 38.900358, "fusion_lon": 0.0, "rental_uris": {"ios": "https://dc.lft.to/lastmile_qr_scan", "android": "https://dc.lft.to/lastmile_qr_scan"}, "lon": -77.012053, "bike_id": "6563e01609f8059db4802cba649af529", "type": "electric_scooter", "name": "6563e01609f8059db4802cba649af529"}, {"is_disabled": 0, "is_reserved": 0, "fusion_lat": 0.0, "lat": 38.93463716666667, "fusion_lon": 0.0, "rental_uris": {"ios": "https://dc.lft.to/lastmile_qr_scan", "android": "https://dc.lft.to/lastmile_qr_scan"}, "lon": -77.0241695, "bike_id": "9b2e0b4d43366d60f191f95ccafa88a6", "type": "electric_scooter", "name": "9b2e0b4d43366d60f191f95ccafa88a6"}, {"is_disabled": 0, "is_reserved": 0, "fusion_lat": 0.0, "lat": 38.9460885, "fusion_lon": 0.0, "rental_uris": {"ios": "https://dc.lft.to/lastmile_qr_scan", "android": "https://dc.lft.to/lastmile_qr_scan"}, "lon": -77.0173675, "bike_id": "e20f047a977f53f78de44cd3390649f3", "type": "electric_bike", "name": "e20f047a977f53f78de44cd3390649f3"}, {"is_disabled": 0, "is_reserved": 0, "fusion_lat": 0.0, "lat": 38.885827, "fusion_lon": 0.0, "rental_uris": {"ios": "https://dc.lft.to/lastmile_qr_scan", "android": "https://dc.lft.to/lastmile_qr_scan"}, "lon": -77.01226633333333, "bike_id": "6fc654f8969915df27bd6290b87f911d", "type": "electric_scooter", "name": "6fc654f8969915df27bd6290b87f911d"}, {"is_disabled": 0, "is_reserved": 0, "fusion_lat": 0.0, "lat": 38.92080083333333, "fusion_lon": 0.0, "rental_uris": {"ios": "https://dc.lft.to/lastmile_qr_scan", "android": "https://dc.lft.to/lastmile_qr_scan"}, "lon": -77.0045375, "bike_id": "ecf6827e661c4eaac93e5eb8da79fe98", "type": "electric_scooter", "name": "ecf6827e661c4eaac93e5eb8da79fe98"}, {"is_disabled": 0, "is_reserved": 0, "fusion_lat": 0.0, "lat": 38.931954, "fusion_lon": 0.0, "rental_uris": {"ios": "https://dc.lft.to/lastmile_qr_scan", "android": "https://dc.lft.to/lastmile_qr_scan"}, "lon": -77.02450483333334, "bike_id": "b82712fe380df1c8ae3c99265b5f7852", "type": "electric_scooter", "name": "b82712fe380df1c8ae3c99265b5f7852"}, {"is_disabled": 0, "is_reserved": 0, "fusion_lat": 0.0, "lat": 38.919155333333336, "fusion_lon": 0.0, "rental_uris": {"ios": "https://dc.lft.to/lastmile_qr_scan", "android": "https://dc.lft.to/lastmile_qr_scan"}, "lon": -77.04467566666666, "bike_id": "529e0b2190e4416cb56f9dff13565998", "type": "electric_scooter", "name": "529e0b2190e4416cb56f9dff13565998"}, {"is_disabled": 0, "is_reserved": 0, "fusion_lat": 0.0, "lat": 38.906447666666665, "fusion_lon": 0.0, "rental_uris": {"ios": "https://dc.lft.to/lastmile_qr_scan", "android": "https://dc.lft.to/lastmile_qr_scan"}, "lon": -77.069109, "bike_id": "a4efcbb99883afa2a9ec8768e00e6179", "type": "electric_scooter", "name": "a4efcbb99883afa2a9ec8768e00e6179"}, {"is_disabled": 0, "is_reserved": 0, "fusion_lat": 0.0, "lat": 38.87643116666667, "fusion_lon": 0.0, "rental_uris": {"ios": "https://dc.lft.to/lastmile_qr_scan", "android": "https://dc.lft.to/lastmile_qr_scan"}, "lon": -76.99293133333333, "bike_id": "18698c89461cabdcc6be305bae15b2bb", "type": "electric_scooter", "name": "18698c89461cabdcc6be305bae15b2bb"}, {"is_disabled": 0, "is_reserved": 0, "fusion_lat": 0.0, "lat": 38.905862166666665, "fusion_lon": 0.0, "rental_uris": {"ios": "https://dc.lft.to/lastmile_qr_scan", "android": "https://dc.lft.to/lastmile_qr_scan"}, "lon": -77.03136933333333, "bike_id": "b29413e4ca87d5e8fceac536f783d839", "type": "electric_scooter", "name": "b29413e4ca87d5e8fceac536f783d839"}, {"is_disabled": 0, "is_reserved": 0, "fusion_lat": 0.0, "lat": 38.891313333333336, "fusion_lon": 0.0, "rental_uris": {"ios": "https://dc.lft.to/lastmile_qr_scan", "android": "https://dc.lft.to/lastmile_qr_scan"}, "lon": -76.99938366666666, "bike_id": "691b3578988fbf2b1965fda510ccacee", "type": "electric_scooter", "name": "691b3578988fbf2b1965fda510ccacee"}, {"is_disabled": 0, "is_reserved": 0, "fusion_lat": 0.0, "lat": 38.93148766666667, "fusion_lon": 0.0, "rental_uris": {"ios": "https://dc.lft.to/lastmile_qr_scan", "android": "https://dc.lft.to/lastmile_qr_scan"}, "lon": -77.05694133333333, "bike_id": "49bb5a2dfd489a411332dc4471f56561", "type": "electric_scooter", "name": "49bb5a2dfd489a411332dc4471f56561"}, {"is_disabled": 0, "is_reserved": 0, "fusion_lat": 0.0, "lat": 38.86470716666667, "fusion_lon": 0.0, "rental_uris": {"ios": "https://dc.lft.to/lastmile_qr_scan", "android": "https://dc.lft.to/lastmile_qr_scan"}, "lon": -76.97754666666667, "bike_id": "38cf4924f9b8610dc5661ff0ae4dff81", "type": "electric_scooter", "name": "38cf4924f9b8610dc5661ff0ae4dff81"}, {"is_disabled": 0, "is_reserved": 0, "fusion_lat": 0.0, "lat": 38.95430566666667, "fusion_lon": 0.0, "rental_uris": {"ios": "https://dc.lft.to/lastmile_qr_scan", "android": "https://dc.lft.to/lastmile_qr_scan"}, "lon": -76.98798483333333, "bike_id": "11ac74ba5e60916a5ede2e3ceeffd02e", "type": "electric_scooter", "name": "11ac74ba5e60916a5ede2e3ceeffd02e"}, {"is_disabled": 0, "is_reserved": 0, "fusion_lat": 0.0, "lat": 38.92888383333333, "fusion_lon": 0.0, "rental_uris": {"ios": "https://dc.lft.to/lastmile_qr_scan", "android": "https://dc.lft.to/lastmile_qr_scan"}, "lon": -77.0139905, "bike_id": "b5ff539bfc60b09481328741ff642d8e", "type": "electric_scooter", "name": "b5ff539bfc60b09481328741ff642d8e"}, {"is_disabled": 0, "is_reserved": 0, "fusion_lat": 0.0, "lat": 38.91566183333333, "fusion_lon": 0.0, "rental_uris": {"ios": "https://dc.lft.to/lastmile_qr_scan", "android": "https://dc.lft.to/lastmile_qr_scan"}, "lon": -77.03189366666666, "bike_id": "3e3743ae66f8cea07a427218912db577", "type": "electric_scooter", "name": "3e3743ae66f8cea07a427218912db577"}, {"is_disabled": 0, "is_reserved": 0, "fusion_lat": 0.0, "lat": 38.905396333333336, "fusion_lon": 0.0, "rental_uris": {"ios": "https://dc.lft.to/lastmile_qr_scan", "android": "https://dc.lft.to/lastmile_qr_scan"}, "lon": -77.05910666666666, "bike_id": "077e18d79d8a0be6d5812f672a137f2e", "type": "electric_bike", "name": "077e18d79d8a0be6d5812f672a137f2e"}, {"is_disabled": 0, "is_reserved": 0, "fusion_lat": 0.0, "lat": 38.91413166666667, "fusion_lon": 0.0, "rental_uris": {"ios": "https://dc.lft.to/lastmile_qr_scan", "android": "https://dc.lft.to/lastmile_qr_scan"}, "lon": -77.052145, "bike_id": "85af1196cabe0322a349423e606d566b", "type": "electric_scooter", "name": "85af1196cabe0322a349423e606d566b"}, {"is_disabled": 0, "is_reserved": 0, "fusion_lat": 0.0, "lat": 39.026458833333336, "fusion_lon": 0.0, "rental_uris": {"ios": "https://dc.lft.to/lastmile_qr_scan", "android": "https://dc.lft.to/lastmile_qr_scan"}, "lon": -77.03688166666667, "bike_id": "fb3d1f26b39b9918ef2f045f42a3584a", "type": "electric_bike", "name": "fb3d1f26b39b9918ef2f045f42a3584a"}, {"is_disabled": 0, "is_reserved": 0, "fusion_lat": 0.0, "lat": 38.94333666666667, "fusion_lon": 0.0, "rental_uris": {"ios": "https://dc.lft.to/lastmile_qr_scan", "android": "https://dc.lft.to/lastmile_qr_scan"}, "lon": -77.0269105, "bike_id": "9a9262ddf5be8c6954e9cccd78e240cb", "type": "electric_scooter", "name": "9a9262ddf5be8c6954e9cccd78e240cb"}, {"is_disabled": 0, "is_reserved": 0, "fusion_lat": 0.0, "lat": 38.9167635, "fusion_lon": 0.0, "rental_uris": {"ios": "https://dc.lft.to/lastmile_qr_scan", "android": "https://dc.lft.to/lastmile_qr_scan"}, "lon": -77.04693083333333, "bike_id": "7b9b20c5c94ee9755db49b4518126f4d", "type": "electric_bike", "name": "7b9b20c5c94ee9755db49b4518126f4d"}, {"is_disabled": 0, "is_reserved": 0, "fusion_lat": 0.0, "lat": 38.901448, "fusion_lon": 0.0, "rental_uris": {"ios": "https://dc.lft.to/lastmile_qr_scan", "android": "https://dc.lft.to/lastmile_qr_scan"}, "lon": -76.9739845, "bike_id": "64fb0e375fd7c5b29a88df1f4e288d5a", "type": "electric_scooter", "name": "64fb0e375fd7c5b29a88df1f4e288d5a"}, {"is_disabled": 0, "is_reserved": 0, "fusion_lat": 0.0, "lat": 38.9276465, "fusion_lon": 0.0, "rental_uris": {"ios": "https://dc.lft.to/lastmile_qr_scan", "android": "https://dc.lft.to/lastmile_qr_scan"}, "lon": -77.05271466666666, "bike_id": "29f6ed8885f6cf38ab3535ce27247064", "type": "electric_scooter", "name": "29f6ed8885f6cf38ab3535ce27247064"}, {"is_disabled": 0, "is_reserved": 0, "fusion_lat": 0.0, "lat": 38.90513266666667, "fusion_lon": 0.0, "rental_uris": {"ios": "https://dc.lft.to/lastmile_qr_scan", "android": "https://dc.lft.to/lastmile_qr_scan"}, "lon": -76.9521115, "bike_id": "9361ed8f3aab2ea819d5e55a92e2c126", "type": "electric_scooter", "name": "9361ed8f3aab2ea819d5e55a92e2c126"}, {"is_disabled": 0, "is_reserved": 0, "fusion_lat": 0.0, "lat": 38.8969085, "fusion_lon": 0.0, "rental_uris": {"ios": "https://dc.lft.to/lastmile_qr_scan", "android": "https://dc.lft.to/lastmile_qr_scan"}, "lon": -77.02417333333334, "bike_id": "2abfc38573d1ae05ff3efb7a039a3ff2", "type": "electric_bike", "name": "2abfc38573d1ae05ff3efb7a039a3ff2"}, {"is_disabled": 0, "is_reserved": 0, "fusion_lat": 0.0, "lat": 38.922634, "fusion_lon": 0.0, "rental_uris": {"ios": "https://dc.lft.to/lastmile_qr_scan", "android": "https://dc.lft.to/lastmile_qr_scan"}, "lon": -77.036651, "bike_id": "055bb95bc5e8ece3ebe4c1c08fea1ffb", "type": "electric_scooter", "name": "055bb95bc5e8ece3ebe4c1c08fea1ffb"}, {"is_disabled": 0, "is_reserved": 0, "fusion_lat": 0.0, "lat": 38.9219685, "fusion_lon": 0.0, "rental_uris": {"ios": "https://dc.lft.to/lastmile_qr_scan", "android": "https://dc.lft.to/lastmile_qr_scan"}, "lon": -77.02037733333333, "bike_id": "72471acd95c71df677d6a0ddc2b2ea19", "type": "electric_scooter", "name": "72471acd95c71df677d6a0ddc2b2ea19"}, {"is_disabled": 0, "is_reserved": 0, "fusion_lat": 0.0, "lat": 38.88622933333333, "fusion_lon": 0.0, "rental_uris": {"ios": "https://dc.lft.to/lastmile_qr_scan", "android": "https://dc.lft.to/lastmile_qr_scan"}, "lon": -76.9263685, "bike_id": "bb4f7186fe565449e589187c585812f3", "type": "electric_scooter", "name": "bb4f7186fe565449e589187c585812f3"}, {"is_disabled": 0, "is_reserved": 0, "fusion_lat": 0.0, "lat": 38.8952365, "fusion_lon": 0.0, "rental_uris": {"ios": "https://dc.lft.to/lastmile_qr_scan", "android": "https://dc.lft.to/lastmile_qr_scan"}, "lon": -76.98112016666667, "bike_id": "2c97c182aa62ef0885f537f05976bca7", "type": "electric_scooter", "name": "2c97c182aa62ef0885f537f05976bca7"}, {"is_disabled": 0, "is_reserved": 0, "fusion_lat": 0.0, "lat": 38.920488, "fusion_lon": 0.0, "rental_uris": {"ios": "https://dc.lft.to/lastmile_qr_scan", "android": "https://dc.lft.to/lastmile_qr_scan"}, "lon": -77.03127733333334, "bike_id": "7985fc858c142318fac777394e0d1db4", "type": "electric_scooter", "name": "7985fc858c142318fac777394e0d1db4"}, {"is_disabled": 0, "is_reserved": 0, "fusion_lat": 0.0, "lat": 38.8973985, "fusion_lon": 0.0, "rental_uris": {"ios": "https://dc.lft.to/lastmile_qr_scan", "android": "https://dc.lft.to/lastmile_qr_scan"}, "lon": -77.017553, "bike_id": "2a4208d6380763fb40bc626813be75c2", "type": "electric_scooter", "name": "2a4208d6380763fb40bc626813be75c2"}, {"is_disabled": 0, "is_reserved": 0, "fusion_lat": 0.0, "lat": 38.87897016666667, "fusion_lon": 0.0, "rental_uris": {"ios": "https://dc.lft.to/lastmile_qr_scan", "android": "https://dc.lft.to/lastmile_qr_scan"}, "lon": -76.93530083333333, "bike_id": "aaed41e22d6390697f7878d3a42404b8", "type": "electric_scooter", "name": "aaed41e22d6390697f7878d3a42404b8"}, {"is_disabled": 0, "is_reserved": 0, "fusion_lat": 0.0, "lat": 38.914714333333336, "fusion_lon": 0.0, "rental_uris": {"ios": "https://dc.lft.to/lastmile_qr_scan", "android": "https://dc.lft.to/lastmile_qr_scan"}, "lon": -77.031861, "bike_id": "34f451f181916d4193e2516b2905f9e4", "type": "electric_scooter", "name": "34f451f181916d4193e2516b2905f9e4"}, {"is_disabled": 0, "is_reserved": 0, "fusion_lat": 0.0, "lat": 38.92228383333333, "fusion_lon": 0.0, "rental_uris": {"ios": "https://dc.lft.to/lastmile_qr_scan", "android": "https://dc.lft.to/lastmile_qr_scan"}, "lon": -77.03899583333333, "bike_id": "c5b110f9d23cb382b9580c3433c6592e", "type": "electric_scooter", "name": "c5b110f9d23cb382b9580c3433c6592e"}, {"is_disabled": 0, "is_reserved": 0, "fusion_lat": 0.0, "lat": 38.919353666666666, "fusion_lon": 0.0, "rental_uris": {"ios": "https://dc.lft.to/lastmile_qr_scan", "android": "https://dc.lft.to/lastmile_qr_scan"}, "lon": -77.03426283333333, "bike_id": "49c535614793f8ac9a92c18794d919c8", "type": "electric_bike", "name": "49c535614793f8ac9a92c18794d919c8"}, {"is_disabled": 0, "is_reserved": 0, "fusion_lat": 0.0, "lat": 38.805257166666664, "fusion_lon": 0.0, "rental_uris": {"ios": "https://dc.lft.to/lastmile_qr_scan", "android": "https://dc.lft.to/lastmile_qr_scan"}, "lon": -77.04336233333333, "bike_id": "ad623031515dedc3755c0d832fb756cd", "type": "electric_bike", "name": "ad623031515dedc3755c0d832fb756cd"}, {"is_disabled": 0, "is_reserved": 0, "fusion_lat": 0.0, "lat": 38.8951545, "fusion_lon": 0.0, "rental_uris": {"ios": "https://dc.lft.to/lastmile_qr_scan", "android": "https://dc.lft.to/lastmile_qr_scan"}, "lon": -77.02277683333334, "bike_id": "3eacb88c02f77315482781d7bfddfab8", "type": "electric_scooter", "name": "3eacb88c02f77315482781d7bfddfab8"}, {"is_disabled": 0, "is_reserved": 0, "fusion_lat": 0.0, "lat": 38.915581833333334, "fusion_lon": 0.0, "rental_uris": {"ios": "https://dc.lft.to/lastmile_qr_scan", "android": "https://dc.lft.to/lastmile_qr_scan"}, "lon": -77.03815766666666, "bike_id": "1229afdacd9da7fac2e9e3f73d59cb3a", "type": "electric_scooter", "name": "1229afdacd9da7fac2e9e3f73d59cb3a"}, {"is_disabled": 0, "is_reserved": 0, "fusion_lat": 0.0, "lat": 38.86496183333333, "fusion_lon": 0.0, "rental_uris": {"ios": "https://dc.lft.to/lastmile_qr_scan", "android": "https://dc.lft.to/lastmile_qr_scan"}, "lon": -76.9698745, "bike_id": "da0886fe12da2192aa27d233136dfb8a", "type": "electric_bike", "name": "da0886fe12da2192aa27d233136dfb8a"}, {"is_disabled": 0, "is_reserved": 0, "fusion_lat": 0.0, "lat": 38.87637566666667, "fusion_lon": 0.0, "rental_uris": {"ios": "https://dc.lft.to/lastmile_qr_scan", "android": "https://dc.lft.to/lastmile_qr_scan"}, "lon": -77.00209, "bike_id": "f714a8dc2b9c7123bed67c6c4a18529f", "type": "electric_scooter", "name": "f714a8dc2b9c7123bed67c6c4a18529f"}, {"is_disabled": 0, "is_reserved": 0, "fusion_lat": 0.0, "lat": 38.928294333333334, "fusion_lon": 0.0, "rental_uris": {"ios": "https://dc.lft.to/lastmile_qr_scan", "android": "https://dc.lft.to/lastmile_qr_scan"}, "lon": -77.05970683333334, "bike_id": "f4e956089bc1a87f618df1bc8a0b61c7", "type": "electric_bike", "name": "f4e956089bc1a87f618df1bc8a0b61c7"}, {"is_disabled": 0, "is_reserved": 0, "fusion_lat": 0.0, "lat": 38.918102833333336, "fusion_lon": 0.0, "rental_uris": {"ios": "https://dc.lft.to/lastmile_qr_scan", "android": "https://dc.lft.to/lastmile_qr_scan"}, "lon": -77.000083, "bike_id": "4761ab054be4ca63f5009f7e818e3408", "type": "electric_scooter", "name": "4761ab054be4ca63f5009f7e818e3408"}, {"is_disabled": 0, "is_reserved": 0, "fusion_lat": 0.0, "lat": 38.911807833333334, "fusion_lon": 0.0, "rental_uris": {"ios": "https://dc.lft.to/lastmile_qr_scan", "android": "https://dc.lft.to/lastmile_qr_scan"}, "lon": -77.01209683333333, "bike_id": "8c6a27545258d5a714da7b356561969f", "type": "electric_scooter", "name": "8c6a27545258d5a714da7b356561969f"}, {"is_disabled": 0, "is_reserved": 0, "fusion_lat": 0.0, "lat": 38.88972033333334, "fusion_lon": 0.0, "rental_uris": {"ios": "https://dc.lft.to/lastmile_qr_scan", "android": "https://dc.lft.to/lastmile_qr_scan"}, "lon": -76.98179616666667, "bike_id": "fba38276a2ce0a161333a71f19dbc871", "type": "electric_scooter", "name": "fba38276a2ce0a161333a71f19dbc871"}, {"is_disabled": 0, "is_reserved": 0, "fusion_lat": 0.0, "lat": 38.924324, "fusion_lon": 0.0, "rental_uris": {"ios": "https://dc.lft.to/lastmile_qr_scan", "android": "https://dc.lft.to/lastmile_qr_scan"}, "lon": -77.01948866666666, "bike_id": "88eb4d17d0e3ac14361ecbe84796a6b6", "type": "electric_scooter", "name": "88eb4d17d0e3ac14361ecbe84796a6b6"}, {"is_disabled": 0, "is_reserved": 0, "fusion_lat": 0.0, "lat": 38.90500516666667, "fusion_lon": 0.0, "rental_uris": {"ios": "https://dc.lft.to/lastmile_qr_scan", "android": "https://dc.lft.to/lastmile_qr_scan"}, "lon": -77.02947816666666, "bike_id": "67ff41407378e4155efd0209754d1550", "type": "electric_scooter", "name": "67ff41407378e4155efd0209754d1550"}, {"is_disabled": 0, "is_reserved": 0, "fusion_lat": 0.0, "lat": 38.888689166666666, "fusion_lon": 0.0, "rental_uris": {"ios": "https://dc.lft.to/lastmile_qr_scan", "android": "https://dc.lft.to/lastmile_qr_scan"}, "lon": -77.00184333333333, "bike_id": "8d94d4bdee44f35b1f950ad3dfbbf97b", "type": "electric_scooter", "name": "8d94d4bdee44f35b1f950ad3dfbbf97b"}, {"is_disabled": 0, "is_reserved": 0, "fusion_lat": 0.0, "lat": 38.899447, "fusion_lon": 0.0, "rental_uris": {"ios": "https://dc.lft.to/lastmile_qr_scan", "android": "https://dc.lft.to/lastmile_qr_scan"}, "lon": -76.93757616666667, "bike_id": "c13c61c14f14560796553c9e3477100a", "type": "electric_scooter", "name": "c13c61c14f14560796553c9e3477100a"}, {"is_disabled": 0, "is_reserved": 0, "fusion_lat": 0.0, "lat": 38.917466, "fusion_lon": 0.0, "rental_uris": {"ios": "https://dc.lft.to/lastmile_qr_scan", "android": "https://dc.lft.to/lastmile_qr_scan"}, "lon": -77.0108325, "bike_id": "5c6b62d2d905c0e3b2ceb55a7b0b7782", "type": "electric_scooter", "name": "5c6b62d2d905c0e3b2ceb55a7b0b7782"}, {"is_disabled": 0, "is_reserved": 0, "fusion_lat": 0.0, "lat": 38.92217766666667, "fusion_lon": 0.0, "rental_uris": {"ios": "https://dc.lft.to/lastmile_qr_scan", "android": "https://dc.lft.to/lastmile_qr_scan"}, "lon": -77.07444783333334, "bike_id": "7383cc64269125933f4b858bb76b9a9b", "type": "electric_scooter", "name": "7383cc64269125933f4b858bb76b9a9b"}, {"is_disabled": 0, "is_reserved": 0, "fusion_lat": 0.0, "lat": 38.905897, "fusion_lon": 0.0, "rental_uris": {"ios": "https://dc.lft.to/lastmile_qr_scan", "android": "https://dc.lft.to/lastmile_qr_scan"}, "lon": -77.0160505, "bike_id": "0c2d805317fa91ab93ca1178c0277f7c", "type": "electric_scooter", "name": "0c2d805317fa91ab93ca1178c0277f7c"}, {"is_disabled": 0, "is_reserved": 0, "fusion_lat": 0.0, "lat": 38.88437233333333, "fusion_lon": 0.0, "rental_uris": {"ios": "https://dc.lft.to/lastmile_qr_scan", "android": "https://dc.lft.to/lastmile_qr_scan"}, "lon": -77.02471383333334, "bike_id": "051c97e83fe1faa10d0d58a05037741c", "type": "electric_scooter", "name": "051c97e83fe1faa10d0d58a05037741c"}, {"is_disabled": 0, "is_reserved": 0, "fusion_lat": 0.0, "lat": 38.921393333333334, "fusion_lon": 0.0, "rental_uris": {"ios": "https://dc.lft.to/lastmile_qr_scan", "android": "https://dc.lft.to/lastmile_qr_scan"}, "lon": -77.04561633333333, "bike_id": "55d17a6351d58fbe678b64eb67960905", "type": "electric_scooter", "name": "55d17a6351d58fbe678b64eb67960905"}, {"is_disabled": 0, "is_reserved": 0, "fusion_lat": 0.0, "lat": 38.90442433333333, "fusion_lon": 0.0, "rental_uris": {"ios": "https://dc.lft.to/lastmile_qr_scan", "android": "https://dc.lft.to/lastmile_qr_scan"}, "lon": -77.03121516666667, "bike_id": "b7c2909d6d07002fcced6198f340508e", "type": "electric_scooter", "name": "b7c2909d6d07002fcced6198f340508e"}, {"is_disabled": 0, "is_reserved": 0, "fusion_lat": 0.0, "lat": 38.90622583333333, "fusion_lon": 0.0, "rental_uris": {"ios": "https://dc.lft.to/lastmile_qr_scan", "android": "https://dc.lft.to/lastmile_qr_scan"}, "lon": -77.00699583333333, "bike_id": "dc245db9b9ac788a776b6a51d9f8732c", "type": "electric_scooter", "name": "dc245db9b9ac788a776b6a51d9f8732c"}, {"is_disabled": 0, "is_reserved": 0, "fusion_lat": 0.0, "lat": 38.919518, "fusion_lon": 0.0, "rental_uris": {"ios": "https://dc.lft.to/lastmile_qr_scan", "android": "https://dc.lft.to/lastmile_qr_scan"}, "lon": -77.01404133333334, "bike_id": "780b42e38f3d361952a0275939855213", "type": "electric_scooter", "name": "780b42e38f3d361952a0275939855213"}, {"is_disabled": 0, "is_reserved": 0, "fusion_lat": 0.0, "lat": 38.9134175, "fusion_lon": 0.0, "rental_uris": {"ios": "https://dc.lft.to/lastmile_qr_scan", "android": "https://dc.lft.to/lastmile_qr_scan"}, "lon": -77.031217, "bike_id": "388fea254f8a81482e65087686b589b5", "type": "electric_scooter", "name": "388fea254f8a81482e65087686b589b5"}, {"is_disabled": 0, "is_reserved": 0, "fusion_lat": 0.0, "lat": 38.947251666666666, "fusion_lon": 0.0, "rental_uris": {"ios": "https://dc.lft.to/lastmile_qr_scan", "android": "https://dc.lft.to/lastmile_qr_scan"}, "lon": -77.02355633333333, "bike_id": "0781a030b7a71244731a0bc8b0626a7e", "type": "electric_scooter", "name": "0781a030b7a71244731a0bc8b0626a7e"}, {"is_disabled": 0, "is_reserved": 0, "fusion_lat": 0.0, "lat": 38.91817366666667, "fusion_lon": 0.0, "rental_uris": {"ios": "https://dc.lft.to/lastmile_qr_scan", "android": "https://dc.lft.to/lastmile_qr_scan"}, "lon": -77.02524066666666, "bike_id": "d5f7a1954afe06e0d4b5b45e3aae4b9f", "type": "electric_scooter", "name": "d5f7a1954afe06e0d4b5b45e3aae4b9f"}, {"is_disabled": 0, "is_reserved": 0, "fusion_lat": 0.0, "lat": 38.91787816666667, "fusion_lon": 0.0, "rental_uris": {"ios": "https://dc.lft.to/lastmile_qr_scan", "android": "https://dc.lft.to/lastmile_qr_scan"}, "lon": -77.0246635, "bike_id": "b4790a4086f340800ace149a51d9bdbd", "type": "electric_scooter", "name": "b4790a4086f340800ace149a51d9bdbd"}, {"is_disabled": 0, "is_reserved": 0, "fusion_lat": 0.0, "lat": 38.9020315, "fusion_lon": 0.0, "rental_uris": {"ios": "https://dc.lft.to/lastmile_qr_scan", "android": "https://dc.lft.to/lastmile_qr_scan"}, "lon": -77.0509585, "bike_id": "542387959bb758fb1e27a47f9c43d2f1", "type": "electric_scooter", "name": "542387959bb758fb1e27a47f9c43d2f1"}, {"is_disabled": 0, "is_reserved": 0, "fusion_lat": 0.0, "lat": 38.931001333333334, "fusion_lon": 0.0, "rental_uris": {"ios": "https://dc.lft.to/lastmile_qr_scan", "android": "https://dc.lft.to/lastmile_qr_scan"}, "lon": -77.02471233333333, "bike_id": "555040d36931c44714ecd04daae7064c", "type": "electric_scooter", "name": "555040d36931c44714ecd04daae7064c"}, {"is_disabled": 0, "is_reserved": 0, "fusion_lat": 0.0, "lat": 38.92429516666667, "fusion_lon": 0.0, "rental_uris": {"ios": "https://dc.lft.to/lastmile_qr_scan", "android": "https://dc.lft.to/lastmile_qr_scan"}, "lon": -77.02296383333334, "bike_id": "d07dad09dbbc1c59a0740bc375864b68", "type": "electric_scooter", "name": "d07dad09dbbc1c59a0740bc375864b68"}, {"is_disabled": 0, "is_reserved": 0, "fusion_lat": 0.0, "lat": 38.92610166666667, "fusion_lon": 0.0, "rental_uris": {"ios": "https://dc.lft.to/lastmile_qr_scan", "android": "https://dc.lft.to/lastmile_qr_scan"}, "lon": -77.0249695, "bike_id": "a34a816f1494c6c57f8e4b92c6ce188f", "type": "electric_scooter", "name": "a34a816f1494c6c57f8e4b92c6ce188f"}, {"is_disabled": 0, "is_reserved": 0, "fusion_lat": 0.0, "lat": 38.926582, "fusion_lon": 0.0, "rental_uris": {"ios": "https://dc.lft.to/lastmile_qr_scan", "android": "https://dc.lft.to/lastmile_qr_scan"}, "lon": -77.024311, "bike_id": "6fa0e14ab0e821736709f79845b06c73", "type": "electric_scooter", "name": "6fa0e14ab0e821736709f79845b06c73"}, {"is_disabled": 0, "is_reserved": 0, "fusion_lat": 0.0, "lat": 39.02299716666667, "fusion_lon": 0.0, "rental_uris": {"ios": "https://dc.lft.to/lastmile_qr_scan", "android": "https://dc.lft.to/lastmile_qr_scan"}, "lon": -77.02103183333334, "bike_id": "6d3f675e475288c338db1599a3f6786f", "type": "electric_bike", "name": "6d3f675e475288c338db1599a3f6786f"}, {"is_disabled": 0, "is_reserved": 0, "fusion_lat": 0.0, "lat": 38.92065266666667, "fusion_lon": 0.0, "rental_uris": {"ios": "https://dc.lft.to/lastmile_qr_scan", "android": "https://dc.lft.to/lastmile_qr_scan"}, "lon": -77.045433, "bike_id": "ac5b52346697202aeca1df0aa148ad23", "type": "electric_scooter", "name": "ac5b52346697202aeca1df0aa148ad23"}, {"is_disabled": 0, "is_reserved": 0, "fusion_lat": 0.0, "lat": 38.90466283333333, "fusion_lon": 0.0, "rental_uris": {"ios": "https://dc.lft.to/lastmile_qr_scan", "android": "https://dc.lft.to/lastmile_qr_scan"}, "lon": -77.0294905, "bike_id": "9357d917514e3497b400d9c1d9a78ffc", "type": "electric_scooter", "name": "9357d917514e3497b400d9c1d9a78ffc"}, {"is_disabled": 0, "is_reserved": 0, "fusion_lat": 0.0, "lat": 38.91041466666667, "fusion_lon": 0.0, "rental_uris": {"ios": "https://dc.lft.to/lastmile_qr_scan", "android": "https://dc.lft.to/lastmile_qr_scan"}, "lon": -77.00961566666666, "bike_id": "96585f2dc20a5f643e8bacc9db0ef34e", "type": "electric_scooter", "name": "96585f2dc20a5f643e8bacc9db0ef34e"}, {"is_disabled": 0, "is_reserved": 0, "fusion_lat": 0.0, "lat": 38.90572383333333, "fusion_lon": 0.0, "rental_uris": {"ios": "https://dc.lft.to/lastmile_qr_scan", "android": "https://dc.lft.to/lastmile_qr_scan"}, "lon": -77.05712516666667, "bike_id": "fbc10c81ece35376df2835b02255d89c", "type": "electric_bike", "name": "fbc10c81ece35376df2835b02255d89c"}, {"is_disabled": 0, "is_reserved": 0, "fusion_lat": 0.0, "lat": 38.84632033333333, "fusion_lon": 0.0, "rental_uris": {"ios": "https://dc.lft.to/lastmile_qr_scan", "android": "https://dc.lft.to/lastmile_qr_scan"}, "lon": -76.96905533333333, "bike_id": "dbae54f285c173a0f802b9aba59224a0", "type": "electric_bike", "name": "dbae54f285c173a0f802b9aba59224a0"}, {"is_disabled": 0, "is_reserved": 0, "fusion_lat": 0.0, "lat": 38.834952333333334, "fusion_lon": 0.0, "rental_uris": {"ios": "https://dc.lft.to/lastmile_qr_scan", "android": "https://dc.lft.to/lastmile_qr_scan"}, "lon": -77.0043645, "bike_id": "9fd81e3af857e1f56a2671c5b9346677", "type": "electric_bike", "name": "9fd81e3af857e1f56a2671c5b9346677"}, {"is_disabled": 0, "is_reserved": 0, "fusion_lat": 0.0, "lat": 38.898525166666666, "fusion_lon": 0.0, "rental_uris": {"ios": "https://dc.lft.to/lastmile_qr_scan", "android": "https://dc.lft.to/lastmile_qr_scan"}, "lon": -77.00194416666666, "bike_id": "0dd9363a27ff30669a4247c1e2d14461", "type": "electric_scooter", "name": "0dd9363a27ff30669a4247c1e2d14461"}, {"is_disabled": 0, "is_reserved": 0, "fusion_lat": 0.0, "lat": 38.97479, "fusion_lon": 0.0, "rental_uris": {"ios": "https://dc.lft.to/lastmile_qr_scan", "android": "https://dc.lft.to/lastmile_qr_scan"}, "lon": -76.986708, "bike_id": "6ceeba4c1b52d7d2c5a0dc852789fd0e", "type": "electric_bike", "name": "6ceeba4c1b52d7d2c5a0dc852789fd0e"}, {"is_disabled": 0, "is_reserved": 0, "fusion_lat": 0.0, "lat": 38.90849766666667, "fusion_lon": 0.0, "rental_uris": {"ios": "https://dc.lft.to/lastmile_qr_scan", "android": "https://dc.lft.to/lastmile_qr_scan"}, "lon": -76.99797266666667, "bike_id": "7249c131bd1312c8edc17758cc58d1e8", "type": "electric_scooter", "name": "7249c131bd1312c8edc17758cc58d1e8"}, {"is_disabled": 0, "is_reserved": 0, "fusion_lat": 0.0, "lat": 38.91770616666667, "fusion_lon": 0.0, "rental_uris": {"ios": "https://dc.lft.to/lastmile_qr_scan", "android": "https://dc.lft.to/lastmile_qr_scan"}, "lon": -77.04060383333334, "bike_id": "b12c881bf2e5122b3b3956b0d76c3328", "type": "electric_scooter", "name": "b12c881bf2e5122b3b3956b0d76c3328"}, {"is_disabled": 0, "is_reserved": 0, "fusion_lat": 0.0, "lat": 38.8787325, "fusion_lon": 0.0, "rental_uris": {"ios": "https://dc.lft.to/lastmile_qr_scan", "android": "https://dc.lft.to/lastmile_qr_scan"}, "lon": -77.00616066666667, "bike_id": "0111807e7d107c001acd8fe9ac536db7", "type": "electric_bike", "name": "0111807e7d107c001acd8fe9ac536db7"}, {"is_disabled": 0, "is_reserved": 0, "fusion_lat": 0.0, "lat": 38.92455233333333, "fusion_lon": 0.0, "rental_uris": {"ios": "https://dc.lft.to/lastmile_qr_scan", "android": "https://dc.lft.to/lastmile_qr_scan"}, "lon": -77.05759266666666, "bike_id": "1ae43ed545f92c7a5a8e89f39cddd7d2", "type": "electric_scooter", "name": "1ae43ed545f92c7a5a8e89f39cddd7d2"}, {"is_disabled": 0, "is_reserved": 0, "fusion_lat": 0.0, "lat": 38.924207333333335, "fusion_lon": 0.0, "rental_uris": {"ios": "https://dc.lft.to/lastmile_qr_scan", "android": "https://dc.lft.to/lastmile_qr_scan"}, "lon": -77.02132416666667, "bike_id": "0fed29f23e96894e35755f54d747157e", "type": "electric_scooter", "name": "0fed29f23e96894e35755f54d747157e"}, {"is_disabled": 0, "is_reserved": 0, "fusion_lat": 0.0, "lat": 38.928612666666666, "fusion_lon": 0.0, "rental_uris": {"ios": "https://dc.lft.to/lastmile_qr_scan", "android": "https://dc.lft.to/lastmile_qr_scan"}, "lon": -77.03048033333333, "bike_id": "193ea5c00e1bd9faccc1244ac3f40979", "type": "electric_scooter", "name": "193ea5c00e1bd9faccc1244ac3f40979"}, {"is_disabled": 0, "is_reserved": 0, "fusion_lat": 0.0, "lat": 38.91995716666667, "fusion_lon": 0.0, "rental_uris": {"ios": "https://dc.lft.to/lastmile_qr_scan", "android": "https://dc.lft.to/lastmile_qr_scan"}, "lon": -77.03208466666666, "bike_id": "abde870511c71ac2e3eea35e97b50dde", "type": "electric_scooter", "name": "abde870511c71ac2e3eea35e97b50dde"}, {"is_disabled": 0, "is_reserved": 0, "fusion_lat": 0.0, "lat": 38.90061033333333, "fusion_lon": 0.0, "rental_uris": {"ios": "https://dc.lft.to/lastmile_qr_scan", "android": "https://dc.lft.to/lastmile_qr_scan"}, "lon": -76.99840083333333, "bike_id": "b93f3955dc96e7748228a9167a1bf19b", "type": "electric_scooter", "name": "b93f3955dc96e7748228a9167a1bf19b"}, {"is_disabled": 0, "is_reserved": 0, "fusion_lat": 0.0, "lat": 38.8799615, "fusion_lon": 0.0, "rental_uris": {"ios": "https://dc.lft.to/lastmile_qr_scan", "android": "https://dc.lft.to/lastmile_qr_scan"}, "lon": -77.03741966666666, "bike_id": "0319459d2a0b3e9bd6b1c7e7cf406787", "type": "electric_scooter", "name": "0319459d2a0b3e9bd6b1c7e7cf406787"}, {"is_disabled": 0, "is_reserved": 0, "fusion_lat": 0.0, "lat": 38.8980115, "fusion_lon": 0.0, "rental_uris": {"ios": "https://dc.lft.to/lastmile_qr_scan", "android": "https://dc.lft.to/lastmile_qr_scan"}, "lon": -76.9716225, "bike_id": "315cc7a81e5add2c07c817dd53d9410a", "type": "electric_scooter", "name": "315cc7a81e5add2c07c817dd53d9410a"}, {"is_disabled": 0, "is_reserved": 0, "fusion_lat": 0.0, "lat": 38.90224116666667, "fusion_lon": 0.0, "rental_uris": {"ios": "https://dc.lft.to/lastmile_qr_scan", "android": "https://dc.lft.to/lastmile_qr_scan"}, "lon": -76.93173866666666, "bike_id": "253389a242b9bc8978cc14717cb99de4", "type": "electric_bike", "name": "253389a242b9bc8978cc14717cb99de4"}, {"is_disabled": 0, "is_reserved": 0, "fusion_lat": 0.0, "lat": 38.8919795, "fusion_lon": 0.0, "rental_uris": {"ios": "https://dc.lft.to/lastmile_qr_scan", "android": "https://dc.lft.to/lastmile_qr_scan"}, "lon": -77.03177016666666, "bike_id": "2cffafebb7722794fcc71cbebfb81829", "type": "electric_scooter", "name": "2cffafebb7722794fcc71cbebfb81829"}, {"is_disabled": 0, "is_reserved": 0, "fusion_lat": 0.0, "lat": 38.928179, "fusion_lon": 0.0, "rental_uris": {"ios": "https://dc.lft.to/lastmile_qr_scan", "android": "https://dc.lft.to/lastmile_qr_scan"}, "lon": -77.0433805, "bike_id": "8206c4e0af76bc9dce489993b282aa4a", "type": "electric_scooter", "name": "8206c4e0af76bc9dce489993b282aa4a"}, {"is_disabled": 0, "is_reserved": 0, "fusion_lat": 0.0, "lat": 38.919085, "fusion_lon": 0.0, "rental_uris": {"ios": "https://dc.lft.to/lastmile_qr_scan", "android": "https://dc.lft.to/lastmile_qr_scan"}, "lon": -77.02586733333334, "bike_id": "299e1d42fa4d8057799f77e2a7cfd0e2", "type": "electric_scooter", "name": "299e1d42fa4d8057799f77e2a7cfd0e2"}, {"is_disabled": 0, "is_reserved": 0, "fusion_lat": 0.0, "lat": 38.92136383333333, "fusion_lon": 0.0, "rental_uris": {"ios": "https://dc.lft.to/lastmile_qr_scan", "android": "https://dc.lft.to/lastmile_qr_scan"}, "lon": -76.9939645, "bike_id": "4d12898b5c2d552f35d50a54d6025470", "type": "electric_scooter", "name": "4d12898b5c2d552f35d50a54d6025470"}, {"is_disabled": 0, "is_reserved": 0, "fusion_lat": 0.0, "lat": 38.8994595, "fusion_lon": 0.0, "rental_uris": {"ios": "https://dc.lft.to/lastmile_qr_scan", "android": "https://dc.lft.to/lastmile_qr_scan"}, "lon": -77.03220866666666, "bike_id": "be2a116a460057bbbe99a60c8c2ede30", "type": "electric_scooter", "name": "be2a116a460057bbbe99a60c8c2ede30"}, {"is_disabled": 0, "is_reserved": 0, "fusion_lat": 0.0, "lat": 38.900688, "fusion_lon": 0.0, "rental_uris": {"ios": "https://dc.lft.to/lastmile_qr_scan", "android": "https://dc.lft.to/lastmile_qr_scan"}, "lon": -76.9498385, "bike_id": "e2bf2a3facc48ec2155517505fde05b2", "type": "electric_scooter", "name": "e2bf2a3facc48ec2155517505fde05b2"}, {"is_disabled": 0, "is_reserved": 0, "fusion_lat": 0.0, "lat": 38.915647666666665, "fusion_lon": 0.0, "rental_uris": {"ios": "https://dc.lft.to/lastmile_qr_scan", "android": "https://dc.lft.to/lastmile_qr_scan"}, "lon": -77.031895, "bike_id": "ad00e31f59a7d162f54891da79c5b352", "type": "electric_scooter", "name": "ad00e31f59a7d162f54891da79c5b352"}, {"is_disabled": 0, "is_reserved": 0, "fusion_lat": 0.0, "lat": 38.90439816666667, "fusion_lon": 0.0, "rental_uris": {"ios": "https://dc.lft.to/lastmile_qr_scan", "android": "https://dc.lft.to/lastmile_qr_scan"}, "lon": -77.062888, "bike_id": "57c5ee0cb35ab1f619b0f9010239167f", "type": "electric_bike", "name": "57c5ee0cb35ab1f619b0f9010239167f"}, {"is_disabled": 0, "is_reserved": 0, "fusion_lat": 0.0, "lat": 38.92506483333333, "fusion_lon": 0.0, "rental_uris": {"ios": "https://dc.lft.to/lastmile_qr_scan", "android": "https://dc.lft.to/lastmile_qr_scan"}, "lon": -77.02443833333334, "bike_id": "4a09724d5377c9d916ae4eccfb874e77", "type": "electric_scooter", "name": "4a09724d5377c9d916ae4eccfb874e77"}, {"is_disabled": 0, "is_reserved": 0, "fusion_lat": 0.0, "lat": 38.95246, "fusion_lon": 0.0, "rental_uris": {"ios": "https://dc.lft.to/lastmile_qr_scan", "android": "https://dc.lft.to/lastmile_qr_scan"}, "lon": -76.98246283333333, "bike_id": "2fdba3a2e74cc67f6b65f9cfb15a098c", "type": "electric_bike", "name": "2fdba3a2e74cc67f6b65f9cfb15a098c"}, {"is_disabled": 0, "is_reserved": 0, "fusion_lat": 0.0, "lat": 38.927935, "fusion_lon": 0.0, "rental_uris": {"ios": "https://dc.lft.to/lastmile_qr_scan", "android": "https://dc.lft.to/lastmile_qr_scan"}, "lon": -77.02130516666666, "bike_id": "0407e2820a1bfd1987d28dcc00d97263", "type": "electric_scooter", "name": "0407e2820a1bfd1987d28dcc00d97263"}, {"is_disabled": 0, "is_reserved": 0, "fusion_lat": 0.0, "lat": 38.897460333333335, "fusion_lon": 0.0, "rental_uris": {"ios": "https://dc.lft.to/lastmile_qr_scan", "android": "https://dc.lft.to/lastmile_qr_scan"}, "lon": -77.0269685, "bike_id": "0b4b9e1d9db6995246ef89e96ad5603a", "type": "electric_scooter", "name": "0b4b9e1d9db6995246ef89e96ad5603a"}, {"is_disabled": 0, "is_reserved": 0, "fusion_lat": 0.0, "lat": 38.868915666666666, "fusion_lon": 0.0, "rental_uris": {"ios": "https://dc.lft.to/lastmile_qr_scan", "android": "https://dc.lft.to/lastmile_qr_scan"}, "lon": -76.9900815, "bike_id": "7bb77098007289b89a7d7637d0790e78", "type": "electric_scooter", "name": "7bb77098007289b89a7d7637d0790e78"}, {"is_disabled": 0, "is_reserved": 0, "fusion_lat": 0.0, "lat": 38.89616933333333, "fusion_lon": 0.0, "rental_uris": {"ios": "https://dc.lft.to/lastmile_qr_scan", "android": "https://dc.lft.to/lastmile_qr_scan"}, "lon": -76.98303316666667, "bike_id": "06d2f6e8611670b9b5a9caf6f5e5b724", "type": "electric_scooter", "name": "06d2f6e8611670b9b5a9caf6f5e5b724"}, {"is_disabled": 0, "is_reserved": 0, "fusion_lat": 0.0, "lat": 38.9008865, "fusion_lon": 0.0, "rental_uris": {"ios": "https://dc.lft.to/lastmile_qr_scan", "android": "https://dc.lft.to/lastmile_qr_scan"}, "lon": -77.05060933333333, "bike_id": "346939a0c147ec414e4718b52de238f8", "type": "electric_scooter", "name": "346939a0c147ec414e4718b52de238f8"}, {"is_disabled": 0, "is_reserved": 0, "fusion_lat": 0.0, "lat": 38.876664166666664, "fusion_lon": 0.0, "rental_uris": {"ios": "https://dc.lft.to/lastmile_qr_scan", "android": "https://dc.lft.to/lastmile_qr_scan"}, "lon": -77.015794, "bike_id": "11fc614bd4ba3ad266143c2465b36191", "type": "electric_scooter", "name": "11fc614bd4ba3ad266143c2465b36191"}, {"is_disabled": 0, "is_reserved": 0, "fusion_lat": 0.0, "lat": 38.91742033333333, "fusion_lon": 0.0, "rental_uris": {"ios": "https://dc.lft.to/lastmile_qr_scan", "android": "https://dc.lft.to/lastmile_qr_scan"}, "lon": -77.02609816666667, "bike_id": "7ea056a42ac4a65c88a6fb52e1f8a573", "type": "electric_scooter", "name": "7ea056a42ac4a65c88a6fb52e1f8a573"}, {"is_disabled": 0, "is_reserved": 0, "fusion_lat": 0.0, "lat": 38.92323233333333, "fusion_lon": 0.0, "rental_uris": {"ios": "https://dc.lft.to/lastmile_qr_scan", "android": "https://dc.lft.to/lastmile_qr_scan"}, "lon": -77.03809116666666, "bike_id": "db1a597ddc5b6189aa34ac35d0494e1a", "type": "electric_scooter", "name": "db1a597ddc5b6189aa34ac35d0494e1a"}, {"is_disabled": 0, "is_reserved": 0, "fusion_lat": 0.0, "lat": 38.912716, "fusion_lon": 0.0, "rental_uris": {"ios": "https://dc.lft.to/lastmile_qr_scan", "android": "https://dc.lft.to/lastmile_qr_scan"}, "lon": -77.047119, "bike_id": "fbc49962d2ecbdc5b201af489671631a", "type": "electric_scooter", "name": "fbc49962d2ecbdc5b201af489671631a"}, {"is_disabled": 0, "is_reserved": 0, "fusion_lat": 0.0, "lat": 38.943074833333334, "fusion_lon": 0.0, "rental_uris": {"ios": "https://dc.lft.to/lastmile_qr_scan", "android": "https://dc.lft.to/lastmile_qr_scan"}, "lon": -77.01843616666666, "bike_id": "1868baad69938bedf9b4174cf8f8e6cd", "type": "electric_scooter", "name": "1868baad69938bedf9b4174cf8f8e6cd"}, {"is_disabled": 0, "is_reserved": 0, "fusion_lat": 0.0, "lat": 38.89243166666667, "fusion_lon": 0.0, "rental_uris": {"ios": "https://dc.lft.to/lastmile_qr_scan", "android": "https://dc.lft.to/lastmile_qr_scan"}, "lon": -77.03960933333333, "bike_id": "7330d0e36f6d4447eb5e72080239d653", "type": "electric_scooter", "name": "7330d0e36f6d4447eb5e72080239d653"}, {"is_disabled": 0, "is_reserved": 0, "fusion_lat": 0.0, "lat": 38.89847483333333, "fusion_lon": 0.0, "rental_uris": {"ios": "https://dc.lft.to/lastmile_qr_scan", "android": "https://dc.lft.to/lastmile_qr_scan"}, "lon": -77.02854683333334, "bike_id": "b08d19a87549ea02fc361656efa26865", "type": "electric_scooter", "name": "b08d19a87549ea02fc361656efa26865"}, {"is_disabled": 0, "is_reserved": 0, "fusion_lat": 0.0, "lat": 38.93403033333333, "fusion_lon": 0.0, "rental_uris": {"ios": "https://dc.lft.to/lastmile_qr_scan", "android": "https://dc.lft.to/lastmile_qr_scan"}, "lon": -77.026191, "bike_id": "e5e0f9668061fde22efa7bbaf6861ac6", "type": "electric_scooter", "name": "e5e0f9668061fde22efa7bbaf6861ac6"}, {"is_disabled": 0, "is_reserved": 0, "fusion_lat": 0.0, "lat": 38.89674483333334, "fusion_lon": 0.0, "rental_uris": {"ios": "https://dc.lft.to/lastmile_qr_scan", "android": "https://dc.lft.to/lastmile_qr_scan"}, "lon": -76.94910966666667, "bike_id": "320cf4bf1bd1bcfb8bcde4c27cc31d6d", "type": "electric_scooter", "name": "320cf4bf1bd1bcfb8bcde4c27cc31d6d"}, {"is_disabled": 0, "is_reserved": 0, "fusion_lat": 0.0, "lat": 38.9034975, "fusion_lon": 0.0, "rental_uris": {"ios": "https://dc.lft.to/lastmile_qr_scan", "android": "https://dc.lft.to/lastmile_qr_scan"}, "lon": -77.01624666666666, "bike_id": "354e7907f9117da798891701cefef268", "type": "electric_scooter", "name": "354e7907f9117da798891701cefef268"}, {"is_disabled": 0, "is_reserved": 0, "fusion_lat": 0.0, "lat": 38.90364016666667, "fusion_lon": 0.0, "rental_uris": {"ios": "https://dc.lft.to/lastmile_qr_scan", "android": "https://dc.lft.to/lastmile_qr_scan"}, "lon": -77.0034505, "bike_id": "87afda4246d78f93820e8442e4f33d7d", "type": "electric_scooter", "name": "87afda4246d78f93820e8442e4f33d7d"}, {"is_disabled": 0, "is_reserved": 0, "fusion_lat": 0.0, "lat": 38.915694, "fusion_lon": 0.0, "rental_uris": {"ios": "https://dc.lft.to/lastmile_qr_scan", "android": "https://dc.lft.to/lastmile_qr_scan"}, "lon": -77.0363155, "bike_id": "695fbdb0cb997ffb1536ff0874a388ab", "type": "electric_scooter", "name": "695fbdb0cb997ffb1536ff0874a388ab"}, {"is_disabled": 0, "is_reserved": 0, "fusion_lat": 0.0, "lat": 38.9192365, "fusion_lon": 0.0, "rental_uris": {"ios": "https://dc.lft.to/lastmile_qr_scan", "android": "https://dc.lft.to/lastmile_qr_scan"}, "lon": -77.00976666666666, "bike_id": "dee18fff9a6f41ac4b0573576bb665ab", "type": "electric_scooter", "name": "dee18fff9a6f41ac4b0573576bb665ab"}, {"is_disabled": 0, "is_reserved": 0, "fusion_lat": 0.0, "lat": 38.930635, "fusion_lon": 0.0, "rental_uris": {"ios": "https://dc.lft.to/lastmile_qr_scan", "android": "https://dc.lft.to/lastmile_qr_scan"}, "lon": -77.04217866666667, "bike_id": "ac7db756efa6e0310e829689fcf43671", "type": "electric_scooter", "name": "ac7db756efa6e0310e829689fcf43671"}, {"is_disabled": 0, "is_reserved": 0, "fusion_lat": 0.0, "lat": 38.924888833333334, "fusion_lon": 0.0, "rental_uris": {"ios": "https://dc.lft.to/lastmile_qr_scan", "android": "https://dc.lft.to/lastmile_qr_scan"}, "lon": -77.02834683333333, "bike_id": "fcedb2c03184bf0a6a126522f46aee15", "type": "electric_scooter", "name": "fcedb2c03184bf0a6a126522f46aee15"}, {"is_disabled": 0, "is_reserved": 0, "fusion_lat": 0.0, "lat": 38.8974585, "fusion_lon": 0.0, "rental_uris": {"ios": "https://dc.lft.to/lastmile_qr_scan", "android": "https://dc.lft.to/lastmile_qr_scan"}, "lon": -77.04810116666667, "bike_id": "c07357f65a4f7fa22f7b14595eec6673", "type": "electric_scooter", "name": "c07357f65a4f7fa22f7b14595eec6673"}, {"is_disabled": 0, "is_reserved": 0, "fusion_lat": 0.0, "lat": 38.9324805, "fusion_lon": 0.0, "rental_uris": {"ios": "https://dc.lft.to/lastmile_qr_scan", "android": "https://dc.lft.to/lastmile_qr_scan"}, "lon": -77.03410566666666, "bike_id": "7281b133571b821cd3e1f176855ab465", "type": "electric_scooter", "name": "7281b133571b821cd3e1f176855ab465"}, {"is_disabled": 0, "is_reserved": 0, "fusion_lat": 0.0, "lat": 38.95105433333333, "fusion_lon": 0.0, "rental_uris": {"ios": "https://dc.lft.to/lastmile_qr_scan", "android": "https://dc.lft.to/lastmile_qr_scan"}, "lon": -77.0190975, "bike_id": "d493602c7789b0fac910144c86d34547", "type": "electric_scooter", "name": "d493602c7789b0fac910144c86d34547"}, {"is_disabled": 0, "is_reserved": 0, "fusion_lat": 0.0, "lat": 38.905459666666665, "fusion_lon": 0.0, "rental_uris": {"ios": "https://dc.lft.to/lastmile_qr_scan", "android": "https://dc.lft.to/lastmile_qr_scan"}, "lon": -77.05688933333333, "bike_id": "fe8606d4fc72e4b6d5553646f01fcabc", "type": "electric_scooter", "name": "fe8606d4fc72e4b6d5553646f01fcabc"}, {"is_disabled": 0, "is_reserved": 0, "fusion_lat": 0.0, "lat": 38.923810833333334, "fusion_lon": 0.0, "rental_uris": {"ios": "https://dc.lft.to/lastmile_qr_scan", "android": "https://dc.lft.to/lastmile_qr_scan"}, "lon": -77.02030333333333, "bike_id": "53c03d2c0e9071f4a8dd16be210dbac1", "type": "electric_scooter", "name": "53c03d2c0e9071f4a8dd16be210dbac1"}, {"is_disabled": 0, "is_reserved": 0, "fusion_lat": 0.0, "lat": 38.91352066666666, "fusion_lon": 0.0, "rental_uris": {"ios": "https://dc.lft.to/lastmile_qr_scan", "android": "https://dc.lft.to/lastmile_qr_scan"}, "lon": -77.04419783333333, "bike_id": "d2dcabe11ebe151f07f11454043dff52", "type": "electric_scooter", "name": "d2dcabe11ebe151f07f11454043dff52"}, {"is_disabled": 0, "is_reserved": 0, "fusion_lat": 0.0, "lat": 38.9403615, "fusion_lon": 0.0, "rental_uris": {"ios": "https://dc.lft.to/lastmile_qr_scan", "android": "https://dc.lft.to/lastmile_qr_scan"}, "lon": -77.02528583333333, "bike_id": "decdcf869dfd7e5f33a5eb419fd2b049", "type": "electric_scooter", "name": "decdcf869dfd7e5f33a5eb419fd2b049"}, {"is_disabled": 0, "is_reserved": 0, "fusion_lat": 0.0, "lat": 38.91673383333333, "fusion_lon": 0.0, "rental_uris": {"ios": "https://dc.lft.to/lastmile_qr_scan", "android": "https://dc.lft.to/lastmile_qr_scan"}, "lon": -77.03204366666667, "bike_id": "c4e71b9e30846cd76dbefb88b799bcd5", "type": "electric_scooter", "name": "c4e71b9e30846cd76dbefb88b799bcd5"}, {"is_disabled": 0, "is_reserved": 0, "fusion_lat": 0.0, "lat": 38.922610666666664, "fusion_lon": 0.0, "rental_uris": {"ios": "https://dc.lft.to/lastmile_qr_scan", "android": "https://dc.lft.to/lastmile_qr_scan"}, "lon": -77.07276083333333, "bike_id": "8cc9fa148632f006ebbc01d6832fc045", "type": "electric_scooter", "name": "8cc9fa148632f006ebbc01d6832fc045"}, {"is_disabled": 0, "is_reserved": 0, "fusion_lat": 0.0, "lat": 38.927631833333336, "fusion_lon": 0.0, "rental_uris": {"ios": "https://dc.lft.to/lastmile_qr_scan", "android": "https://dc.lft.to/lastmile_qr_scan"}, "lon": -77.02947183333333, "bike_id": "24d997003ca20d35c7b37343c6bc0168", "type": "electric_scooter", "name": "24d997003ca20d35c7b37343c6bc0168"}, {"is_disabled": 0, "is_reserved": 0, "fusion_lat": 0.0, "lat": 38.897549, "fusion_lon": 0.0, "rental_uris": {"ios": "https://dc.lft.to/lastmile_qr_scan", "android": "https://dc.lft.to/lastmile_qr_scan"}, "lon": -77.0215905, "bike_id": "8c85ecdfe1eb965e31aebeffb4986b2b", "type": "electric_scooter", "name": "8c85ecdfe1eb965e31aebeffb4986b2b"}, {"is_disabled": 0, "is_reserved": 0, "fusion_lat": 0.0, "lat": 38.89612866666667, "fusion_lon": 0.0, "rental_uris": {"ios": "https://dc.lft.to/lastmile_qr_scan", "android": "https://dc.lft.to/lastmile_qr_scan"}, "lon": -77.0033475, "bike_id": "725186882154cce1ae84bd05a2f4415b", "type": "electric_scooter", "name": "725186882154cce1ae84bd05a2f4415b"}, {"is_disabled": 0, "is_reserved": 0, "fusion_lat": 0.0, "lat": 38.92874033333333, "fusion_lon": 0.0, "rental_uris": {"ios": "https://dc.lft.to/lastmile_qr_scan", "android": "https://dc.lft.to/lastmile_qr_scan"}, "lon": -77.0565175, "bike_id": "858e834d7fc3e7fd92557dc0b008727b", "type": "electric_scooter", "name": "858e834d7fc3e7fd92557dc0b008727b"}, {"is_disabled": 0, "is_reserved": 0, "fusion_lat": 0.0, "lat": 38.92014316666667, "fusion_lon": 0.0, "rental_uris": {"ios": "https://dc.lft.to/lastmile_qr_scan", "android": "https://dc.lft.to/lastmile_qr_scan"}, "lon": -77.03166233333333, "bike_id": "10214e3da073d3ce712145f97c706ca8", "type": "electric_scooter", "name": "10214e3da073d3ce712145f97c706ca8"}, {"is_disabled": 0, "is_reserved": 0, "fusion_lat": 0.0, "lat": 38.829262, "fusion_lon": 0.0, "rental_uris": {"ios": "https://dc.lft.to/lastmile_qr_scan", "android": "https://dc.lft.to/lastmile_qr_scan"}, "lon": -77.06872366666667, "bike_id": "67432d781e044e8a66c806648bdf6207", "type": "electric_bike", "name": "67432d781e044e8a66c806648bdf6207"}, {"is_disabled": 0, "is_reserved": 0, "fusion_lat": 0.0, "lat": 38.89917916666667, "fusion_lon": 0.0, "rental_uris": {"ios": "https://dc.lft.to/lastmile_qr_scan", "android": "https://dc.lft.to/lastmile_qr_scan"}, "lon": -76.93375366666666, "bike_id": "56a92aec2b5fac4b94739a745ee5cafb", "type": "electric_scooter", "name": "56a92aec2b5fac4b94739a745ee5cafb"}, {"is_disabled": 0, "is_reserved": 0, "fusion_lat": 0.0, "lat": 38.89916616666667, "fusion_lon": 0.0, "rental_uris": {"ios": "https://dc.lft.to/lastmile_qr_scan", "android": "https://dc.lft.to/lastmile_qr_scan"}, "lon": -77.03974483333333, "bike_id": "c7306e012bdd3306b5b973e7c05dbcce", "type": "electric_scooter", "name": "c7306e012bdd3306b5b973e7c05dbcce"}, {"is_disabled": 0, "is_reserved": 0, "fusion_lat": 0.0, "lat": 38.912671, "fusion_lon": 0.0, "rental_uris": {"ios": "https://dc.lft.to/lastmile_qr_scan", "android": "https://dc.lft.to/lastmile_qr_scan"}, "lon": -77.01603, "bike_id": "70fa12924ba3d3ea844661be626d1d30", "type": "electric_scooter", "name": "70fa12924ba3d3ea844661be626d1d30"}, {"is_disabled": 0, "is_reserved": 0, "fusion_lat": 0.0, "lat": 38.88040216666667, "fusion_lon": 0.0, "rental_uris": {"ios": "https://dc.lft.to/lastmile_qr_scan", "android": "https://dc.lft.to/lastmile_qr_scan"}, "lon": -76.9272055, "bike_id": "5580f092ab6c660f1e5139ca66938bbf", "type": "electric_scooter", "name": "5580f092ab6c660f1e5139ca66938bbf"}, {"is_disabled": 0, "is_reserved": 0, "fusion_lat": 0.0, "lat": 38.91827816666667, "fusion_lon": 0.0, "rental_uris": {"ios": "https://dc.lft.to/lastmile_qr_scan", "android": "https://dc.lft.to/lastmile_qr_scan"}, "lon": -77.02418533333334, "bike_id": "81b3cadfdaabe767acf9c0e30e460d2f", "type": "electric_scooter", "name": "81b3cadfdaabe767acf9c0e30e460d2f"}, {"is_disabled": 0, "is_reserved": 0, "fusion_lat": 0.0, "lat": 38.928824, "fusion_lon": 0.0, "rental_uris": {"ios": "https://dc.lft.to/lastmile_qr_scan", "android": "https://dc.lft.to/lastmile_qr_scan"}, "lon": -77.03992416666667, "bike_id": "55d649af0977fbc20c7ec59617086816", "type": "electric_scooter", "name": "55d649af0977fbc20c7ec59617086816"}, {"is_disabled": 0, "is_reserved": 0, "fusion_lat": 0.0, "lat": 38.91956666666667, "fusion_lon": 0.0, "rental_uris": {"ios": "https://dc.lft.to/lastmile_qr_scan", "android": "https://dc.lft.to/lastmile_qr_scan"}, "lon": -77.023061, "bike_id": "f4706c35797fac5b69bd46bf017c1a28", "type": "electric_scooter", "name": "f4706c35797fac5b69bd46bf017c1a28"}, {"is_disabled": 0, "is_reserved": 0, "fusion_lat": 0.0, "lat": 38.94449483333333, "fusion_lon": 0.0, "rental_uris": {"ios": "https://dc.lft.to/lastmile_qr_scan", "android": "https://dc.lft.to/lastmile_qr_scan"}, "lon": -77.03280616666666, "bike_id": "2e980ec1a3b6e3f516566b908c7b107e", "type": "electric_scooter", "name": "2e980ec1a3b6e3f516566b908c7b107e"}, {"is_disabled": 0, "is_reserved": 0, "fusion_lat": 0.0, "lat": 38.90655366666667, "fusion_lon": 0.0, "rental_uris": {"ios": "https://dc.lft.to/lastmile_qr_scan", "android": "https://dc.lft.to/lastmile_qr_scan"}, "lon": -76.97942116666667, "bike_id": "48c4bbde8360a1689da1ff5719bb3574", "type": "electric_scooter", "name": "48c4bbde8360a1689da1ff5719bb3574"}, {"is_disabled": 0, "is_reserved": 0, "fusion_lat": 0.0, "lat": 38.897268333333336, "fusion_lon": 0.0, "rental_uris": {"ios": "https://dc.lft.to/lastmile_qr_scan", "android": "https://dc.lft.to/lastmile_qr_scan"}, "lon": -77.02403266666667, "bike_id": "a60d2870a7ad35b707521db6adcd8154", "type": "electric_scooter", "name": "a60d2870a7ad35b707521db6adcd8154"}, {"is_disabled": 0, "is_reserved": 0, "fusion_lat": 0.0, "lat": 38.9039765, "fusion_lon": 0.0, "rental_uris": {"ios": "https://dc.lft.to/lastmile_qr_scan", "android": "https://dc.lft.to/lastmile_qr_scan"}, "lon": -77.062977, "bike_id": "e81e99d24978a9e8c08307c8d854ed61", "type": "electric_scooter", "name": "e81e99d24978a9e8c08307c8d854ed61"}, {"is_disabled": 0, "is_reserved": 0, "fusion_lat": 0.0, "lat": 38.922381, "fusion_lon": 0.0, "rental_uris": {"ios": "https://dc.lft.to/lastmile_qr_scan", "android": "https://dc.lft.to/lastmile_qr_scan"}, "lon": -77.03518883333334, "bike_id": "c1e1c2a37b693377cb78760fd870fc27", "type": "electric_scooter", "name": "c1e1c2a37b693377cb78760fd870fc27"}, {"is_disabled": 0, "is_reserved": 0, "fusion_lat": 0.0, "lat": 38.899233333333335, "fusion_lon": 0.0, "rental_uris": {"ios": "https://dc.lft.to/lastmile_qr_scan", "android": "https://dc.lft.to/lastmile_qr_scan"}, "lon": -77.03975716666666, "bike_id": "ebe8ba2dd413986012d5bb94f9c017d3", "type": "electric_scooter", "name": "ebe8ba2dd413986012d5bb94f9c017d3"}, {"is_disabled": 0, "is_reserved": 0, "fusion_lat": 0.0, "lat": 38.905123833333334, "fusion_lon": 0.0, "rental_uris": {"ios": "https://dc.lft.to/lastmile_qr_scan", "android": "https://dc.lft.to/lastmile_qr_scan"}, "lon": -77.0091135, "bike_id": "6202aa16afac6b43416bba0fa6dcd339", "type": "electric_scooter", "name": "6202aa16afac6b43416bba0fa6dcd339"}, {"is_disabled": 0, "is_reserved": 0, "fusion_lat": 0.0, "lat": 38.904208, "fusion_lon": 0.0, "rental_uris": {"ios": "https://dc.lft.to/lastmile_qr_scan", "android": "https://dc.lft.to/lastmile_qr_scan"}, "lon": -77.02993266666667, "bike_id": "964bc7c147b5dbf85580ddaf58012795", "type": "electric_scooter", "name": "964bc7c147b5dbf85580ddaf58012795"}, {"is_disabled": 0, "is_reserved": 0, "fusion_lat": 0.0, "lat": 38.90436116666667, "fusion_lon": 0.0, "rental_uris": {"ios": "https://dc.lft.to/lastmile_qr_scan", "android": "https://dc.lft.to/lastmile_qr_scan"}, "lon": -77.0611365, "bike_id": "f792ec1d5c72ea9e5f28ea1da1b171b0", "type": "electric_scooter", "name": "f792ec1d5c72ea9e5f28ea1da1b171b0"}, {"is_disabled": 0, "is_reserved": 0, "fusion_lat": 0.0, "lat": 38.905740333333334, "fusion_lon": 0.0, "rental_uris": {"ios": "https://dc.lft.to/lastmile_qr_scan", "android": "https://dc.lft.to/lastmile_qr_scan"}, "lon": -77.02014483333333, "bike_id": "c9c179fb16e5837cfae14af3a6ce455e", "type": "electric_scooter", "name": "c9c179fb16e5837cfae14af3a6ce455e"}, {"is_disabled": 0, "is_reserved": 0, "fusion_lat": 0.0, "lat": 38.913627166666664, "fusion_lon": 0.0, "rental_uris": {"ios": "https://dc.lft.to/lastmile_qr_scan", "android": "https://dc.lft.to/lastmile_qr_scan"}, "lon": -77.046575, "bike_id": "fc12832a00401c1a27a590c41ad87887", "type": "electric_scooter", "name": "fc12832a00401c1a27a590c41ad87887"}, {"is_disabled": 0, "is_reserved": 0, "fusion_lat": 0.0, "lat": 38.90262966666667, "fusion_lon": 0.0, "rental_uris": {"ios": "https://dc.lft.to/lastmile_qr_scan", "android": "https://dc.lft.to/lastmile_qr_scan"}, "lon": -77.03846533333333, "bike_id": "9c83687baea6607d6b315de300c731a6", "type": "electric_scooter", "name": "9c83687baea6607d6b315de300c731a6"}, {"is_disabled": 0, "is_reserved": 0, "fusion_lat": 0.0, "lat": 38.91225083333333, "fusion_lon": 0.0, "rental_uris": {"ios": "https://dc.lft.to/lastmile_qr_scan", "android": "https://dc.lft.to/lastmile_qr_scan"}, "lon": -77.00663233333333, "bike_id": "8cb2b60ac4d8b43c54f08d1e9113dbd8", "type": "electric_scooter", "name": "8cb2b60ac4d8b43c54f08d1e9113dbd8"}, {"is_disabled": 0, "is_reserved": 0, "fusion_lat": 0.0, "lat": 38.8619405, "fusion_lon": 0.0, "rental_uris": {"ios": "https://dc.lft.to/lastmile_qr_scan", "android": "https://dc.lft.to/lastmile_qr_scan"}, "lon": -77.0879875, "bike_id": "cd5d8023fbd311eb46a5e7dffc3398c5", "type": "electric_bike", "name": "cd5d8023fbd311eb46a5e7dffc3398c5"}, {"is_disabled": 0, "is_reserved": 0, "fusion_lat": 0.0, "lat": 38.935402, "fusion_lon": 0.0, "rental_uris": {"ios": "https://dc.lft.to/lastmile_qr_scan", "android": "https://dc.lft.to/lastmile_qr_scan"}, "lon": -77.05438816666667, "bike_id": "09516604a779c2d588bf7720c937ec01", "type": "electric_scooter", "name": "09516604a779c2d588bf7720c937ec01"}, {"is_disabled": 0, "is_reserved": 0, "fusion_lat": 0.0, "lat": 38.901929333333335, "fusion_lon": 0.0, "rental_uris": {"ios": "https://dc.lft.to/lastmile_qr_scan", "android": "https://dc.lft.to/lastmile_qr_scan"}, "lon": -77.00205316666667, "bike_id": "946b834c9bb85a052b757a742aece60a", "type": "electric_scooter", "name": "946b834c9bb85a052b757a742aece60a"}, {"is_disabled": 0, "is_reserved": 0, "fusion_lat": 0.0, "lat": 38.91934116666667, "fusion_lon": 0.0, "rental_uris": {"ios": "https://dc.lft.to/lastmile_qr_scan", "android": "https://dc.lft.to/lastmile_qr_scan"}, "lon": -77.03112333333333, "bike_id": "6686518f7ae6ce8a3efa5869ad9c3e6b", "type": "electric_scooter", "name": "6686518f7ae6ce8a3efa5869ad9c3e6b"}, {"is_disabled": 0, "is_reserved": 0, "fusion_lat": 0.0, "lat": 38.902966666666664, "fusion_lon": 0.0, "rental_uris": {"ios": "https://dc.lft.to/lastmile_qr_scan", "android": "https://dc.lft.to/lastmile_qr_scan"}, "lon": -77.03985533333334, "bike_id": "5963de079fb7b4ffe920c4c7c7a0d47b", "type": "electric_scooter", "name": "5963de079fb7b4ffe920c4c7c7a0d47b"}, {"is_disabled": 0, "is_reserved": 0, "fusion_lat": 0.0, "lat": 38.89546833333333, "fusion_lon": 0.0, "rental_uris": {"ios": "https://dc.lft.to/lastmile_qr_scan", "android": "https://dc.lft.to/lastmile_qr_scan"}, "lon": -77.07397916666666, "bike_id": "e18bc281f6c9b06949099497d3d62e9e", "type": "electric_bike", "name": "e18bc281f6c9b06949099497d3d62e9e"}, {"is_disabled": 0, "is_reserved": 0, "fusion_lat": 0.0, "lat": 38.89940133333333, "fusion_lon": 0.0, "rental_uris": {"ios": "https://dc.lft.to/lastmile_qr_scan", "android": "https://dc.lft.to/lastmile_qr_scan"}, "lon": -77.03219933333334, "bike_id": "3974d41d4645d581d7ccdc97761fb7ed", "type": "electric_scooter", "name": "3974d41d4645d581d7ccdc97761fb7ed"}, {"is_disabled": 0, "is_reserved": 0, "fusion_lat": 0.0, "lat": 38.9027475, "fusion_lon": 0.0, "rental_uris": {"ios": "https://dc.lft.to/lastmile_qr_scan", "android": "https://dc.lft.to/lastmile_qr_scan"}, "lon": -77.00893033333334, "bike_id": "e9141d6962b9c6d9c706a16b80da29ba", "type": "electric_scooter", "name": "e9141d6962b9c6d9c706a16b80da29ba"}, {"is_disabled": 0, "is_reserved": 0, "fusion_lat": 0.0, "lat": 38.888762166666666, "fusion_lon": 0.0, "rental_uris": {"ios": "https://dc.lft.to/lastmile_qr_scan", "android": "https://dc.lft.to/lastmile_qr_scan"}, "lon": -76.95698916666667, "bike_id": "13b94449f3452208c6622664be6d0237", "type": "electric_bike", "name": "13b94449f3452208c6622664be6d0237"}, {"is_disabled": 0, "is_reserved": 0, "fusion_lat": 0.0, "lat": 38.90811516666667, "fusion_lon": 0.0, "rental_uris": {"ios": "https://dc.lft.to/lastmile_qr_scan", "android": "https://dc.lft.to/lastmile_qr_scan"}, "lon": -77.006093, "bike_id": "139f9faa1851b6f6a7813845aaf59d75", "type": "electric_scooter", "name": "139f9faa1851b6f6a7813845aaf59d75"}, {"is_disabled": 0, "is_reserved": 0, "fusion_lat": 0.0, "lat": 38.90571333333333, "fusion_lon": 0.0, "rental_uris": {"ios": "https://dc.lft.to/lastmile_qr_scan", "android": "https://dc.lft.to/lastmile_qr_scan"}, "lon": -77.04166333333333, "bike_id": "dc0663952a82c0d33bbba1d56fb718de", "type": "electric_scooter", "name": "dc0663952a82c0d33bbba1d56fb718de"}, {"is_disabled": 0, "is_reserved": 0, "fusion_lat": 0.0, "lat": 38.927044, "fusion_lon": 0.0, "rental_uris": {"ios": "https://dc.lft.to/lastmile_qr_scan", "android": "https://dc.lft.to/lastmile_qr_scan"}, "lon": -77.014535, "bike_id": "9af80d7c6c4f5c83f39d238a134b60fc", "type": "electric_scooter", "name": "9af80d7c6c4f5c83f39d238a134b60fc"}, {"is_disabled": 0, "is_reserved": 0, "fusion_lat": 0.0, "lat": 38.9638365, "fusion_lon": 0.0, "rental_uris": {"ios": "https://dc.lft.to/lastmile_qr_scan", "android": "https://dc.lft.to/lastmile_qr_scan"}, "lon": -77.0197785, "bike_id": "848763c17372962a72df164d9a20437a", "type": "electric_bike", "name": "848763c17372962a72df164d9a20437a"}, {"is_disabled": 0, "is_reserved": 0, "fusion_lat": 0.0, "lat": 38.879258666666665, "fusion_lon": 0.0, "rental_uris": {"ios": "https://dc.lft.to/lastmile_qr_scan", "android": "https://dc.lft.to/lastmile_qr_scan"}, "lon": -77.00403, "bike_id": "72ec85f1b2b8a9db3183ece127a5f027", "type": "electric_scooter", "name": "72ec85f1b2b8a9db3183ece127a5f027"}, {"is_disabled": 0, "is_reserved": 0, "fusion_lat": 0.0, "lat": 38.95099233333333, "fusion_lon": 0.0, "rental_uris": {"ios": "https://dc.lft.to/lastmile_qr_scan", "android": "https://dc.lft.to/lastmile_qr_scan"}, "lon": -77.021946, "bike_id": "2c03e43e0d3888ed2bbff0aa7855db95", "type": "electric_scooter", "name": "2c03e43e0d3888ed2bbff0aa7855db95"}, {"is_disabled": 0, "is_reserved": 0, "fusion_lat": 0.0, "lat": 38.884837, "fusion_lon": 0.0, "rental_uris": {"ios": "https://dc.lft.to/lastmile_qr_scan", "android": "https://dc.lft.to/lastmile_qr_scan"}, "lon": -77.03170516666667, "bike_id": "055cbb86d593e8093135533a0216d85c", "type": "electric_bike", "name": "055cbb86d593e8093135533a0216d85c"}, {"is_disabled": 0, "is_reserved": 0, "fusion_lat": 0.0, "lat": 38.94790883333334, "fusion_lon": 0.0, "rental_uris": {"ios": "https://dc.lft.to/lastmile_qr_scan", "android": "https://dc.lft.to/lastmile_qr_scan"}, "lon": -77.078997, "bike_id": "3936ce03fcaf1db422f33def29d50d5a", "type": "electric_scooter", "name": "3936ce03fcaf1db422f33def29d50d5a"}, {"is_disabled": 0, "is_reserved": 0, "fusion_lat": 0.0, "lat": 38.922835166666665, "fusion_lon": 0.0, "rental_uris": {"ios": "https://dc.lft.to/lastmile_qr_scan", "android": "https://dc.lft.to/lastmile_qr_scan"}, "lon": -77.02975733333334, "bike_id": "9ff1420bd2b898f0370dbe12a923ca67", "type": "electric_scooter", "name": "9ff1420bd2b898f0370dbe12a923ca67"}, {"is_disabled": 0, "is_reserved": 0, "fusion_lat": 0.0, "lat": 38.92783933333333, "fusion_lon": 0.0, "rental_uris": {"ios": "https://dc.lft.to/lastmile_qr_scan", "android": "https://dc.lft.to/lastmile_qr_scan"}, "lon": -77.0526175, "bike_id": "798b36cd3c57c8d573b180af69d320d7", "type": "electric_scooter", "name": "798b36cd3c57c8d573b180af69d320d7"}, {"is_disabled": 0, "is_reserved": 0, "fusion_lat": 0.0, "lat": 38.90776416666667, "fusion_lon": 0.0, "rental_uris": {"ios": "https://dc.lft.to/lastmile_qr_scan", "android": "https://dc.lft.to/lastmile_qr_scan"}, "lon": -77.0354325, "bike_id": "fc28c9f7aaffac18a0ef77b227738140", "type": "electric_scooter", "name": "fc28c9f7aaffac18a0ef77b227738140"}, {"is_disabled": 0, "is_reserved": 0, "fusion_lat": 0.0, "lat": 38.886631333333334, "fusion_lon": 0.0, "rental_uris": {"ios": "https://dc.lft.to/lastmile_qr_scan", "android": "https://dc.lft.to/lastmile_qr_scan"}, "lon": -77.1623085, "bike_id": "1c40465f57e7f069cae90cdff2a441de", "type": "electric_bike", "name": "1c40465f57e7f069cae90cdff2a441de"}, {"is_disabled": 0, "is_reserved": 0, "fusion_lat": 0.0, "lat": 38.90507616666667, "fusion_lon": 0.0, "rental_uris": {"ios": "https://dc.lft.to/lastmile_qr_scan", "android": "https://dc.lft.to/lastmile_qr_scan"}, "lon": -77.02502733333333, "bike_id": "78b9c46a08422ae78873fb4bb57131e9", "type": "electric_scooter", "name": "78b9c46a08422ae78873fb4bb57131e9"}, {"is_disabled": 0, "is_reserved": 0, "fusion_lat": 0.0, "lat": 38.9127165, "fusion_lon": 0.0, "rental_uris": {"ios": "https://dc.lft.to/lastmile_qr_scan", "android": "https://dc.lft.to/lastmile_qr_scan"}, "lon": -77.04551716666667, "bike_id": "86027459bdd52fa0809a57febf0239b8", "type": "electric_scooter", "name": "86027459bdd52fa0809a57febf0239b8"}, {"is_disabled": 0, "is_reserved": 0, "fusion_lat": 0.0, "lat": 38.9216615, "fusion_lon": 0.0, "rental_uris": {"ios": "https://dc.lft.to/lastmile_qr_scan", "android": "https://dc.lft.to/lastmile_qr_scan"}, "lon": -77.01833133333334, "bike_id": "9b5bc54653a879f1f073fd7da7d764f0", "type": "electric_scooter", "name": "9b5bc54653a879f1f073fd7da7d764f0"}, {"is_disabled": 0, "is_reserved": 0, "fusion_lat": 0.0, "lat": 38.9065765, "fusion_lon": 0.0, "rental_uris": {"ios": "https://dc.lft.to/lastmile_qr_scan", "android": "https://dc.lft.to/lastmile_qr_scan"}, "lon": -77.05324733333333, "bike_id": "266f7bdfeceda71f0ed113e4a6440829", "type": "electric_scooter", "name": "266f7bdfeceda71f0ed113e4a6440829"}, {"is_disabled": 0, "is_reserved": 0, "fusion_lat": 0.0, "lat": 38.941037, "fusion_lon": 0.0, "rental_uris": {"ios": "https://dc.lft.to/lastmile_qr_scan", "android": "https://dc.lft.to/lastmile_qr_scan"}, "lon": -76.95625316666667, "bike_id": "f1d94333cb68418d4231c182c51840ec", "type": "electric_bike", "name": "f1d94333cb68418d4231c182c51840ec"}, {"is_disabled": 0, "is_reserved": 0, "fusion_lat": 0.0, "lat": 38.96770133333333, "fusion_lon": 0.0, "rental_uris": {"ios": "https://dc.lft.to/lastmile_qr_scan", "android": "https://dc.lft.to/lastmile_qr_scan"}, "lon": -77.034201, "bike_id": "99033ae24ce8860e4bbce45431e4823f", "type": "electric_scooter", "name": "99033ae24ce8860e4bbce45431e4823f"}, {"is_disabled": 0, "is_reserved": 0, "fusion_lat": 0.0, "lat": 38.903462, "fusion_lon": 0.0, "rental_uris": {"ios": "https://dc.lft.to/lastmile_qr_scan", "android": "https://dc.lft.to/lastmile_qr_scan"}, "lon": -76.9749135, "bike_id": "686488d1770e9ac7ad363cbacc104ff4", "type": "electric_scooter", "name": "686488d1770e9ac7ad363cbacc104ff4"}, {"is_disabled": 0, "is_reserved": 0, "fusion_lat": 0.0, "lat": 38.90577233333333, "fusion_lon": 0.0, "rental_uris": {"ios": "https://dc.lft.to/lastmile_qr_scan", "android": "https://dc.lft.to/lastmile_qr_scan"}, "lon": -77.008704, "bike_id": "75efcd969e1901e474c986c78316dd99", "type": "electric_scooter", "name": "75efcd969e1901e474c986c78316dd99"}, {"is_disabled": 0, "is_reserved": 0, "fusion_lat": 0.0, "lat": 38.97156116666667, "fusion_lon": 0.0, "rental_uris": {"ios": "https://dc.lft.to/lastmile_qr_scan", "android": "https://dc.lft.to/lastmile_qr_scan"}, "lon": -76.9836235, "bike_id": "85311cc996ec51205098fd228ee5b1c0", "type": "electric_bike", "name": "85311cc996ec51205098fd228ee5b1c0"}, {"is_disabled": 0, "is_reserved": 0, "fusion_lat": 0.0, "lat": 38.9204, "fusion_lon": 0.0, "rental_uris": {"ios": "https://dc.lft.to/lastmile_qr_scan", "android": "https://dc.lft.to/lastmile_qr_scan"}, "lon": -77.02606983333334, "bike_id": "2c6c88baf32a18d29f831dbeed7938da", "type": "electric_scooter", "name": "2c6c88baf32a18d29f831dbeed7938da"}, {"is_disabled": 0, "is_reserved": 0, "fusion_lat": 0.0, "lat": 38.90561783333333, "fusion_lon": 0.0, "rental_uris": {"ios": "https://dc.lft.to/lastmile_qr_scan", "android": "https://dc.lft.to/lastmile_qr_scan"}, "lon": -77.04146016666667, "bike_id": "ee9a3cbafb16a963a51cf68371ca3179", "type": "electric_scooter", "name": "ee9a3cbafb16a963a51cf68371ca3179"}, {"is_disabled": 0, "is_reserved": 0, "fusion_lat": 0.0, "lat": 38.894898, "fusion_lon": 0.0, "rental_uris": {"ios": "https://dc.lft.to/lastmile_qr_scan", "android": "https://dc.lft.to/lastmile_qr_scan"}, "lon": -77.0097835, "bike_id": "bf3be1473738fc3e00c861b6701bf1f4", "type": "electric_scooter", "name": "bf3be1473738fc3e00c861b6701bf1f4"}, {"is_disabled": 0, "is_reserved": 0, "fusion_lat": 0.0, "lat": 38.916969333333334, "fusion_lon": 0.0, "rental_uris": {"ios": "https://dc.lft.to/lastmile_qr_scan", "android": "https://dc.lft.to/lastmile_qr_scan"}, "lon": -77.02572366666666, "bike_id": "ac46300eefec674fde89e7ff628fcc6d", "type": "electric_scooter", "name": "ac46300eefec674fde89e7ff628fcc6d"}, {"is_disabled": 0, "is_reserved": 0, "fusion_lat": 0.0, "lat": 38.92653216666667, "fusion_lon": 0.0, "rental_uris": {"ios": "https://dc.lft.to/lastmile_qr_scan", "android": "https://dc.lft.to/lastmile_qr_scan"}, "lon": -77.090168, "bike_id": "c38b1fb09bcd2e6fca886d571a5578a3", "type": "electric_bike", "name": "c38b1fb09bcd2e6fca886d571a5578a3"}, {"is_disabled": 0, "is_reserved": 0, "fusion_lat": 0.0, "lat": 38.91988516666667, "fusion_lon": 0.0, "rental_uris": {"ios": "https://dc.lft.to/lastmile_qr_scan", "android": "https://dc.lft.to/lastmile_qr_scan"}, "lon": -76.99256, "bike_id": "f680a283e0b3f1c05936d31e4c500cb7", "type": "electric_bike", "name": "f680a283e0b3f1c05936d31e4c500cb7"}, {"is_disabled": 0, "is_reserved": 0, "fusion_lat": 0.0, "lat": 38.9393435, "fusion_lon": 0.0, "rental_uris": {"ios": "https://dc.lft.to/lastmile_qr_scan", "android": "https://dc.lft.to/lastmile_qr_scan"}, "lon": -77.02585, "bike_id": "708abd2c5afc6063beb2b555aca6bec7", "type": "electric_scooter", "name": "708abd2c5afc6063beb2b555aca6bec7"}, {"is_disabled": 0, "is_reserved": 0, "fusion_lat": 0.0, "lat": 38.89566633333333, "fusion_lon": 0.0, "rental_uris": {"ios": "https://dc.lft.to/lastmile_qr_scan", "android": "https://dc.lft.to/lastmile_qr_scan"}, "lon": -77.12730066666667, "bike_id": "99a48cf1b2daa8193bf4cb74d8708695", "type": "electric_bike", "name": "99a48cf1b2daa8193bf4cb74d8708695"}, {"is_disabled": 0, "is_reserved": 0, "fusion_lat": 0.0, "lat": 38.886022833333335, "fusion_lon": 0.0, "rental_uris": {"ios": "https://dc.lft.to/lastmile_qr_scan", "android": "https://dc.lft.to/lastmile_qr_scan"}, "lon": -77.01961916666667, "bike_id": "36b85f0a78cdce1aa1692f1126cc9764", "type": "electric_scooter", "name": "36b85f0a78cdce1aa1692f1126cc9764"}, {"is_disabled": 0, "is_reserved": 0, "fusion_lat": 0.0, "lat": 38.93352866666667, "fusion_lon": 0.0, "rental_uris": {"ios": "https://dc.lft.to/lastmile_qr_scan", "android": "https://dc.lft.to/lastmile_qr_scan"}, "lon": -77.02395916666667, "bike_id": "caa0f1f694dacb0eb0c30801a033b1f6", "type": "electric_scooter", "name": "caa0f1f694dacb0eb0c30801a033b1f6"}, {"is_disabled": 0, "is_reserved": 0, "fusion_lat": 0.0, "lat": 38.95596483333333, "fusion_lon": 0.0, "rental_uris": {"ios": "https://dc.lft.to/lastmile_qr_scan", "android": "https://dc.lft.to/lastmile_qr_scan"}, "lon": -77.02810333333333, "bike_id": "1ff625374bd6770a79b5730b3d754bb3", "type": "electric_scooter", "name": "1ff625374bd6770a79b5730b3d754bb3"}, {"is_disabled": 0, "is_reserved": 0, "fusion_lat": 0.0, "lat": 38.8814415, "fusion_lon": 0.0, "rental_uris": {"ios": "https://dc.lft.to/lastmile_qr_scan", "android": "https://dc.lft.to/lastmile_qr_scan"}, "lon": -77.01308983333334, "bike_id": "c3c94decba282cf035799f54bbddf9b6", "type": "electric_scooter", "name": "c3c94decba282cf035799f54bbddf9b6"}, {"is_disabled": 0, "is_reserved": 0, "fusion_lat": 0.0, "lat": 38.91451933333333, "fusion_lon": 0.0, "rental_uris": {"ios": "https://dc.lft.to/lastmile_qr_scan", "android": "https://dc.lft.to/lastmile_qr_scan"}, "lon": -77.00886583333333, "bike_id": "4457cee15623e9995bdfb94ca44edd91", "type": "electric_scooter", "name": "4457cee15623e9995bdfb94ca44edd91"}, {"is_disabled": 0, "is_reserved": 0, "fusion_lat": 0.0, "lat": 38.90573166666667, "fusion_lon": 0.0, "rental_uris": {"ios": "https://dc.lft.to/lastmile_qr_scan", "android": "https://dc.lft.to/lastmile_qr_scan"}, "lon": -77.0276175, "bike_id": "fdbb7e2717f51d643ddf1617db3010ce", "type": "electric_scooter", "name": "fdbb7e2717f51d643ddf1617db3010ce"}, {"is_disabled": 0, "is_reserved": 0, "fusion_lat": 0.0, "lat": 38.922411333333336, "fusion_lon": 0.0, "rental_uris": {"ios": "https://dc.lft.to/lastmile_qr_scan", "android": "https://dc.lft.to/lastmile_qr_scan"}, "lon": -77.0389855, "bike_id": "e300d742f7fb3dee75bcc34ca880e7dc", "type": "electric_scooter", "name": "e300d742f7fb3dee75bcc34ca880e7dc"}, {"is_disabled": 0, "is_reserved": 0, "fusion_lat": 0.0, "lat": 38.8968895, "fusion_lon": 0.0, "rental_uris": {"ios": "https://dc.lft.to/lastmile_qr_scan", "android": "https://dc.lft.to/lastmile_qr_scan"}, "lon": -76.93908566666667, "bike_id": "5626cdfcc663cb2937177ade025c222f", "type": "electric_scooter", "name": "5626cdfcc663cb2937177ade025c222f"}, {"is_disabled": 0, "is_reserved": 0, "fusion_lat": 0.0, "lat": 38.921558, "fusion_lon": 0.0, "rental_uris": {"ios": "https://dc.lft.to/lastmile_qr_scan", "android": "https://dc.lft.to/lastmile_qr_scan"}, "lon": -77.035039, "bike_id": "fbc780d5203252c9bf7952e39fc43035", "type": "electric_scooter", "name": "fbc780d5203252c9bf7952e39fc43035"}, {"is_disabled": 0, "is_reserved": 0, "fusion_lat": 0.0, "lat": 38.898293833333334, "fusion_lon": 0.0, "rental_uris": {"ios": "https://dc.lft.to/lastmile_qr_scan", "android": "https://dc.lft.to/lastmile_qr_scan"}, "lon": -77.0465195, "bike_id": "188ee229442c1fef94f1c68abae707f2", "type": "electric_scooter", "name": "188ee229442c1fef94f1c68abae707f2"}, {"is_disabled": 0, "is_reserved": 0, "fusion_lat": 0.0, "lat": 38.89760533333333, "fusion_lon": 0.0, "rental_uris": {"ios": "https://dc.lft.to/lastmile_qr_scan", "android": "https://dc.lft.to/lastmile_qr_scan"}, "lon": -77.0548965, "bike_id": "581f9665b441958314d6da89ef021d57", "type": "electric_scooter", "name": "581f9665b441958314d6da89ef021d57"}, {"is_disabled": 0, "is_reserved": 0, "fusion_lat": 0.0, "lat": 38.958415333333335, "fusion_lon": 0.0, "rental_uris": {"ios": "https://dc.lft.to/lastmile_qr_scan", "android": "https://dc.lft.to/lastmile_qr_scan"}, "lon": -77.001729, "bike_id": "294b72a931278c34446e451b9c6f66d6", "type": "electric_bike", "name": "294b72a931278c34446e451b9c6f66d6"}, {"is_disabled": 0, "is_reserved": 0, "fusion_lat": 0.0, "lat": 38.918863333333334, "fusion_lon": 0.0, "rental_uris": {"ios": "https://dc.lft.to/lastmile_qr_scan", "android": "https://dc.lft.to/lastmile_qr_scan"}, "lon": -77.04177133333333, "bike_id": "9faed8b3ce06516f088b33c72a708a6c", "type": "electric_scooter", "name": "9faed8b3ce06516f088b33c72a708a6c"}, {"is_disabled": 0, "is_reserved": 0, "fusion_lat": 0.0, "lat": 38.95074283333334, "fusion_lon": 0.0, "rental_uris": {"ios": "https://dc.lft.to/lastmile_qr_scan", "android": "https://dc.lft.to/lastmile_qr_scan"}, "lon": -76.9960135, "bike_id": "fd0236dabe20b8030271d5ba7cda0543", "type": "electric_bike", "name": "fd0236dabe20b8030271d5ba7cda0543"}, {"is_disabled": 0, "is_reserved": 0, "fusion_lat": 0.0, "lat": 38.856410333333336, "fusion_lon": 0.0, "rental_uris": {"ios": "https://dc.lft.to/lastmile_qr_scan", "android": "https://dc.lft.to/lastmile_qr_scan"}, "lon": -77.0683035, "bike_id": "3f41f063077f22c490667e76d1ba6138", "type": "electric_bike", "name": "3f41f063077f22c490667e76d1ba6138"}, {"is_disabled": 0, "is_reserved": 0, "fusion_lat": 0.0, "lat": 38.89227316666667, "fusion_lon": 0.0, "rental_uris": {"ios": "https://dc.lft.to/lastmile_qr_scan", "android": "https://dc.lft.to/lastmile_qr_scan"}, "lon": -77.04333216666667, "bike_id": "6da809732f4684937d69308fb079b408", "type": "electric_scooter", "name": "6da809732f4684937d69308fb079b408"}, {"is_disabled": 0, "is_reserved": 0, "fusion_lat": 0.0, "lat": 38.920516, "fusion_lon": 0.0, "rental_uris": {"ios": "https://dc.lft.to/lastmile_qr_scan", "android": "https://dc.lft.to/lastmile_qr_scan"}, "lon": -77.02576333333333, "bike_id": "e39b88177000d5f50cfa7a9d667fb71c", "type": "electric_scooter", "name": "e39b88177000d5f50cfa7a9d667fb71c"}, {"is_disabled": 0, "is_reserved": 0, "fusion_lat": 0.0, "lat": 38.824303666666665, "fusion_lon": 0.0, "rental_uris": {"ios": "https://dc.lft.to/lastmile_qr_scan", "android": "https://dc.lft.to/lastmile_qr_scan"}, "lon": -77.120419, "bike_id": "e65645b0fab300b55d0628bed0d46051", "type": "electric_bike", "name": "e65645b0fab300b55d0628bed0d46051"}, {"is_disabled": 0, "is_reserved": 0, "fusion_lat": 0.0, "lat": 38.92948583333333, "fusion_lon": 0.0, "rental_uris": {"ios": "https://dc.lft.to/lastmile_qr_scan", "android": "https://dc.lft.to/lastmile_qr_scan"}, "lon": -77.05481316666666, "bike_id": "97a9e4bdb9559c2d0cde7e1319f58065", "type": "electric_scooter", "name": "97a9e4bdb9559c2d0cde7e1319f58065"}, {"is_disabled": 0, "is_reserved": 0, "fusion_lat": 0.0, "lat": 38.8655945, "fusion_lon": 0.0, "rental_uris": {"ios": "https://dc.lft.to/lastmile_qr_scan", "android": "https://dc.lft.to/lastmile_qr_scan"}, "lon": -76.97467383333333, "bike_id": "a6600f99f34de1aa52bbacf89d1d7550", "type": "electric_bike", "name": "a6600f99f34de1aa52bbacf89d1d7550"}, {"is_disabled": 0, "is_reserved": 0, "fusion_lat": 0.0, "lat": 38.88219433333333, "fusion_lon": 0.0, "rental_uris": {"ios": "https://dc.lft.to/lastmile_qr_scan", "android": "https://dc.lft.to/lastmile_qr_scan"}, "lon": -76.99735633333333, "bike_id": "a1206bfc25013c2da6e1ec9c90b191ca", "type": "electric_scooter", "name": "a1206bfc25013c2da6e1ec9c90b191ca"}, {"is_disabled": 0, "is_reserved": 0, "fusion_lat": 0.0, "lat": 38.873113833333335, "fusion_lon": 0.0, "rental_uris": {"ios": "https://dc.lft.to/lastmile_qr_scan", "android": "https://dc.lft.to/lastmile_qr_scan"}, "lon": -77.01073166666667, "bike_id": "3b814d0b05180349cbab76cedb7dfa58", "type": "electric_scooter", "name": "3b814d0b05180349cbab76cedb7dfa58"}, {"is_disabled": 0, "is_reserved": 0, "fusion_lat": 0.0, "lat": 38.946004333333335, "fusion_lon": 0.0, "rental_uris": {"ios": "https://dc.lft.to/lastmile_qr_scan", "android": "https://dc.lft.to/lastmile_qr_scan"}, "lon": -77.02672066666666, "bike_id": "a06e14023a8a2385f3916c6ac68fa3d4", "type": "electric_scooter", "name": "a06e14023a8a2385f3916c6ac68fa3d4"}, {"is_disabled": 0, "is_reserved": 0, "fusion_lat": 0.0, "lat": 38.842788666666664, "fusion_lon": 0.0, "rental_uris": {"ios": "https://dc.lft.to/lastmile_qr_scan", "android": "https://dc.lft.to/lastmile_qr_scan"}, "lon": -76.9883835, "bike_id": "d68ef7438a7a49aa64bc14d13a5ae6bb", "type": "electric_scooter", "name": "d68ef7438a7a49aa64bc14d13a5ae6bb"}, {"is_disabled": 0, "is_reserved": 0, "fusion_lat": 0.0, "lat": 38.895575, "fusion_lon": 0.0, "rental_uris": {"ios": "https://dc.lft.to/lastmile_qr_scan", "android": "https://dc.lft.to/lastmile_qr_scan"}, "lon": -77.04659933333333, "bike_id": "cad207987ea8a2cc94f5545d157cd118", "type": "electric_scooter", "name": "cad207987ea8a2cc94f5545d157cd118"}, {"is_disabled": 0, "is_reserved": 0, "fusion_lat": 0.0, "lat": 38.8774935, "fusion_lon": 0.0, "rental_uris": {"ios": "https://dc.lft.to/lastmile_qr_scan", "android": "https://dc.lft.to/lastmile_qr_scan"}, "lon": -77.00443383333334, "bike_id": "6f06efc367db15a2a3a8c1fed6a079ce", "type": "electric_scooter", "name": "6f06efc367db15a2a3a8c1fed6a079ce"}, {"is_disabled": 0, "is_reserved": 0, "fusion_lat": 0.0, "lat": 38.963579, "fusion_lon": 0.0, "rental_uris": {"ios": "https://dc.lft.to/lastmile_qr_scan", "android": "https://dc.lft.to/lastmile_qr_scan"}, "lon": -77.03443666666666, "bike_id": "c73fff1688f39125f28dfc72e902b7c8", "type": "electric_scooter", "name": "c73fff1688f39125f28dfc72e902b7c8"}, {"is_disabled": 0, "is_reserved": 0, "fusion_lat": 0.0, "lat": 38.89222483333333, "fusion_lon": 0.0, "rental_uris": {"ios": "https://dc.lft.to/lastmile_qr_scan", "android": "https://dc.lft.to/lastmile_qr_scan"}, "lon": -77.02775633333333, "bike_id": "48cb91d5ee79b814cd776251a4efc6d1", "type": "electric_scooter", "name": "48cb91d5ee79b814cd776251a4efc6d1"}, {"is_disabled": 0, "is_reserved": 0, "fusion_lat": 0.0, "lat": 38.90546333333333, "fusion_lon": 0.0, "rental_uris": {"ios": "https://dc.lft.to/lastmile_qr_scan", "android": "https://dc.lft.to/lastmile_qr_scan"}, "lon": -77.00291983333334, "bike_id": "d971a017ba882c31a6fa4fb20d9d83a1", "type": "electric_scooter", "name": "d971a017ba882c31a6fa4fb20d9d83a1"}, {"is_disabled": 0, "is_reserved": 0, "fusion_lat": 0.0, "lat": 38.90446583333333, "fusion_lon": 0.0, "rental_uris": {"ios": "https://dc.lft.to/lastmile_qr_scan", "android": "https://dc.lft.to/lastmile_qr_scan"}, "lon": -76.97305933333334, "bike_id": "aa19d1a4f5bb08f7547590a3961b9174", "type": "electric_scooter", "name": "aa19d1a4f5bb08f7547590a3961b9174"}, {"is_disabled": 0, "is_reserved": 0, "fusion_lat": 0.0, "lat": 38.9003835, "fusion_lon": 0.0, "rental_uris": {"ios": "https://dc.lft.to/lastmile_qr_scan", "android": "https://dc.lft.to/lastmile_qr_scan"}, "lon": -77.00369466666666, "bike_id": "29bc9cf229a31ca518e6308dc971f983", "type": "electric_scooter", "name": "29bc9cf229a31ca518e6308dc971f983"}, {"is_disabled": 0, "is_reserved": 0, "fusion_lat": 0.0, "lat": 38.87297266666667, "fusion_lon": 0.0, "rental_uris": {"ios": "https://dc.lft.to/lastmile_qr_scan", "android": "https://dc.lft.to/lastmile_qr_scan"}, "lon": -77.00984116666666, "bike_id": "e0fd3067040b93349ecda0b8ec2e8ea1", "type": "electric_scooter", "name": "e0fd3067040b93349ecda0b8ec2e8ea1"}, {"is_disabled": 0, "is_reserved": 0, "fusion_lat": 0.0, "lat": 38.92672966666667, "fusion_lon": 0.0, "rental_uris": {"ios": "https://dc.lft.to/lastmile_qr_scan", "android": "https://dc.lft.to/lastmile_qr_scan"}, "lon": -77.03020733333334, "bike_id": "b84e09349c49f9158cc270ed2bc69c71", "type": "electric_scooter", "name": "b84e09349c49f9158cc270ed2bc69c71"}, {"is_disabled": 0, "is_reserved": 0, "fusion_lat": 0.0, "lat": 38.93525733333333, "fusion_lon": 0.0, "rental_uris": {"ios": "https://dc.lft.to/lastmile_qr_scan", "android": "https://dc.lft.to/lastmile_qr_scan"}, "lon": -77.02839183333333, "bike_id": "9659248e818a8c47d769ecd9d2a5295d", "type": "electric_scooter", "name": "9659248e818a8c47d769ecd9d2a5295d"}, {"is_disabled": 0, "is_reserved": 0, "fusion_lat": 0.0, "lat": 38.919322666666666, "fusion_lon": 0.0, "rental_uris": {"ios": "https://dc.lft.to/lastmile_qr_scan", "android": "https://dc.lft.to/lastmile_qr_scan"}, "lon": -77.02316716666667, "bike_id": "41a4e93e8cf3e6361b1ac4c7b7fa9a40", "type": "electric_scooter", "name": "41a4e93e8cf3e6361b1ac4c7b7fa9a40"}, {"is_disabled": 0, "is_reserved": 0, "fusion_lat": 0.0, "lat": 39.0000185, "fusion_lon": 0.0, "rental_uris": {"ios": "https://dc.lft.to/lastmile_qr_scan", "android": "https://dc.lft.to/lastmile_qr_scan"}, "lon": -76.91798816666666, "bike_id": "02f5cf40bb50d1cee0db87fb3d4dbe36", "type": "electric_bike", "name": "02f5cf40bb50d1cee0db87fb3d4dbe36"}, {"is_disabled": 0, "is_reserved": 0, "fusion_lat": 0.0, "lat": 38.93704066666667, "fusion_lon": 0.0, "rental_uris": {"ios": "https://dc.lft.to/lastmile_qr_scan", "android": "https://dc.lft.to/lastmile_qr_scan"}, "lon": -77.05598866666666, "bike_id": "ad9d50e21600a89d78ef509cd93477bb", "type": "electric_scooter", "name": "ad9d50e21600a89d78ef509cd93477bb"}, {"is_disabled": 0, "is_reserved": 0, "fusion_lat": 0.0, "lat": 38.90268983333333, "fusion_lon": 0.0, "rental_uris": {"ios": "https://dc.lft.to/lastmile_qr_scan", "android": "https://dc.lft.to/lastmile_qr_scan"}, "lon": -77.03959083333334, "bike_id": "1fa38a28ddf82e80043c314eca3d3734", "type": "electric_scooter", "name": "1fa38a28ddf82e80043c314eca3d3734"}, {"is_disabled": 0, "is_reserved": 0, "fusion_lat": 0.0, "lat": 38.866671, "fusion_lon": 0.0, "rental_uris": {"ios": "https://dc.lft.to/lastmile_qr_scan", "android": "https://dc.lft.to/lastmile_qr_scan"}, "lon": -77.01076566666667, "bike_id": "cb021cb72defb15db55e89d7af432b67", "type": "electric_scooter", "name": "cb021cb72defb15db55e89d7af432b67"}, {"is_disabled": 0, "is_reserved": 0, "fusion_lat": 0.0, "lat": 38.89993583333333, "fusion_lon": 0.0, "rental_uris": {"ios": "https://dc.lft.to/lastmile_qr_scan", "android": "https://dc.lft.to/lastmile_qr_scan"}, "lon": -77.00886766666666, "bike_id": "14acc289a3d7a92ae6ca3744151396ec", "type": "electric_scooter", "name": "14acc289a3d7a92ae6ca3744151396ec"}, {"is_disabled": 0, "is_reserved": 0, "fusion_lat": 0.0, "lat": 38.88535683333333, "fusion_lon": 0.0, "rental_uris": {"ios": "https://dc.lft.to/lastmile_qr_scan", "android": "https://dc.lft.to/lastmile_qr_scan"}, "lon": -76.99796866666667, "bike_id": "a598cd90c5328e81706d3ba17c8b8a60", "type": "electric_scooter", "name": "a598cd90c5328e81706d3ba17c8b8a60"}, {"is_disabled": 0, "is_reserved": 0, "fusion_lat": 0.0, "lat": 38.91653633333333, "fusion_lon": 0.0, "rental_uris": {"ios": "https://dc.lft.to/lastmile_qr_scan", "android": "https://dc.lft.to/lastmile_qr_scan"}, "lon": -77.02392183333333, "bike_id": "b4b5e341a794dd42b6e0537222c70a87", "type": "electric_scooter", "name": "b4b5e341a794dd42b6e0537222c70a87"}, {"is_disabled": 0, "is_reserved": 0, "fusion_lat": 0.0, "lat": 38.902733833333336, "fusion_lon": 0.0, "rental_uris": {"ios": "https://dc.lft.to/lastmile_qr_scan", "android": "https://dc.lft.to/lastmile_qr_scan"}, "lon": -77.02629583333334, "bike_id": "2e31f86c3d966d57257b02a960de9f93", "type": "electric_scooter", "name": "2e31f86c3d966d57257b02a960de9f93"}, {"is_disabled": 0, "is_reserved": 0, "fusion_lat": 0.0, "lat": 38.96532166666667, "fusion_lon": 0.0, "rental_uris": {"ios": "https://dc.lft.to/lastmile_qr_scan", "android": "https://dc.lft.to/lastmile_qr_scan"}, "lon": -77.03412283333333, "bike_id": "8d351838b6c5a9562fc84d27e750e68d", "type": "electric_bike", "name": "8d351838b6c5a9562fc84d27e750e68d"}, {"is_disabled": 0, "is_reserved": 0, "fusion_lat": 0.0, "lat": 38.871781166666665, "fusion_lon": 0.0, "rental_uris": {"ios": "https://dc.lft.to/lastmile_qr_scan", "android": "https://dc.lft.to/lastmile_qr_scan"}, "lon": -77.23399, "bike_id": "e3e5b4fd6e4dadc2d95a45128407ebaa", "type": "electric_bike", "name": "e3e5b4fd6e4dadc2d95a45128407ebaa"}, {"is_disabled": 0, "is_reserved": 0, "fusion_lat": 0.0, "lat": 38.901880166666665, "fusion_lon": 0.0, "rental_uris": {"ios": "https://dc.lft.to/lastmile_qr_scan", "android": "https://dc.lft.to/lastmile_qr_scan"}, "lon": -77.048649, "bike_id": "7defc93b6512175e570e7dabc018f30d", "type": "electric_scooter", "name": "7defc93b6512175e570e7dabc018f30d"}, {"is_disabled": 0, "is_reserved": 0, "fusion_lat": 0.0, "lat": 38.89926583333333, "fusion_lon": 0.0, "rental_uris": {"ios": "https://dc.lft.to/lastmile_qr_scan", "android": "https://dc.lft.to/lastmile_qr_scan"}, "lon": -77.039796, "bike_id": "64787f5540ad339831e0b834e3564f52", "type": "electric_scooter", "name": "64787f5540ad339831e0b834e3564f52"}, {"is_disabled": 0, "is_reserved": 0, "fusion_lat": 0.0, "lat": 38.931033666666664, "fusion_lon": 0.0, "rental_uris": {"ios": "https://dc.lft.to/lastmile_qr_scan", "android": "https://dc.lft.to/lastmile_qr_scan"},