{"data": {"bikes": [{"is_reserved": 0, "type": "electric_scooter", "bike_id": "1b2b5c0d851eabc51e49ab1277d21165", "lat": 38.93075783333333, "lon": -77.02818716666667, "rental_uris": {"android": "https://dc.lft.to/lastmile_qr_scan", "ios": "https://dc.lft.to/lastmile_qr_scan"}, "is_disabled": 0, "fusion_lat": 0.0, "name": "1b2b5c0d851eabc51e49ab1277d21165", "fusion_lon": 0.0}, {"is_reserved": 0, "type": "electric_scooter", "bike_id": "34ad8814d060d7094f89210549348b69", "lat": 38.87578216666667, "lon": -77.00585733333334, "rental_uris": {"android": "https://dc.lft.to/lastmile_qr_scan", "ios": "https://dc.lft.to/lastmile_qr_scan"}, "is_disabled": 0, "fusion_lat": 0.0, "name": "34ad8814d060d7094f89210549348b69", "fusion_lon": 0.0}, {"is_reserved": 0, "type": "electric_scooter", "bike_id": "d83e905e209a3c4aa8f5f3cf40d1f9f4", "lat": 38.896209666666664, "lon": -76.9972955, "rental_uris": {"android": "https://dc.lft.to/lastmile_qr_scan", "ios": "https://dc.lft.to/lastmile_qr_scan"}, "is_disabled": 0, "fusion_lat": 0.0, "name": "d83e905e209a3c4aa8f5f3cf40d1f9f4", "fusion_lon": 0.0}, {"is_reserved": 0, "type": "electric_scooter", "bike_id": "00307448c54f9968ea058ecaf4298582", "lat": 38.9164665, "lon": -77.02181016666667, "rental_uris": {"android": "https://dc.lft.to/lastmile_qr_scan", "ios": "https://dc.lft.to/lastmile_qr_scan"}, "is_disabled": 0, "fusion_lat": 0.0, "name": "00307448c54f9968ea058ecaf4298582", "fusion_lon": 0.0}, {"is_reserved": 0, "type": "electric_scooter", "bike_id": "826d320405112d587dc029a0f5bd9dfa", "lat": 38.92396266666667, "lon": -77.05059516666667, "rental_uris": {"android": "https://dc.lft.to/lastmile_qr_scan", "ios": "https://dc.lft.to/lastmile_qr_scan"}, "is_disabled": 0, "fusion_lat": 0.0, "name": "826d320405112d587dc029a0f5bd9dfa", "fusion_lon": 0.0}, {"is_reserved": 0, "type": "electric_bike", "bike_id": "af40ba7f8fe123d5c4b74546b0f72999", "lat": 38.94566066666667, "lon": -76.95844733333334, "rental_uris": {"android": "https://dc.lft.to/lastmile_qr_scan", "ios": "https://dc.lft.to/lastmile_qr_scan"}, "is_disabled": 0, "fusion_lat": 0.0, "name": "af40ba7f8fe123d5c4b74546b0f72999", "fusion_lon": 0.0}, {"is_reserved": 0, "type": "electric_scooter", "bike_id": "33ca1db13f40927ba3be7fbc48c5de7f", "lat": 38.932278333333336, "lon": -76.997487, "rental_uris": {"android": "https://dc.lft.to/lastmile_qr_scan", "ios": "https://dc.lft.to/lastmile_qr_scan"}, "is_disabled": 0, "fusion_lat": 0.0, "name": "33ca1db13f40927ba3be7fbc48c5de7f", "fusion_lon": 0.0}, {"is_reserved": 0, "type": "electric_scooter", "bike_id": "00f9a14c24fd8cd352ca00eaa04353db", "lat": 38.89953466666667, "lon": -76.94636266666667, "rental_uris": {"android": "https://dc.lft.to/lastmile_qr_scan", "ios": "https://dc.lft.to/lastmile_qr_scan"}, "is_disabled": 0, "fusion_lat": 0.0, "name": "00f9a14c24fd8cd352ca00eaa04353db", "fusion_lon": 0.0}, {"is_reserved": 0, "type": "electric_scooter", "bike_id": "8d85ced33b2d81963df808cca0b50744", "lat": 38.903466, "lon": -77.00742533333333, "rental_uris": {"android": "https://dc.lft.to/lastmile_qr_scan", "ios": "https://dc.lft.to/lastmile_qr_scan"}, "is_disabled": 0, "fusion_lat": 0.0, "name": "8d85ced33b2d81963df808cca0b50744", "fusion_lon": 0.0}, {"is_reserved": 0, "type": "electric_scooter", "bike_id": "85a8ab06ce91e5d127df6e6616f78e1b", "lat": 38.92357633333334, "lon": -77.05118916666666, "rental_uris": {"android": "https://dc.lft.to/lastmile_qr_scan", "ios": "https://dc.lft.to/lastmile_qr_scan"}, "is_disabled": 0, "fusion_lat": 0.0, "name": "85a8ab06ce91e5d127df6e6616f78e1b", "fusion_lon": 0.0}, {"is_reserved": 0, "type": "electric_bike", "bike_id": "4ea1388c4c63f7e452fdbf8ac1ded922", "lat": 38.958762166666666, "lon": -76.97058116666666, "rental_uris": {"android": "https://dc.lft.to/lastmile_qr_scan", "ios": "https://dc.lft.to/lastmile_qr_scan"}, "is_disabled": 0, "fusion_lat": 0.0, "name": "4ea1388c4c63f7e452fdbf8ac1ded922", "fusion_lon": 0.0}, {"is_reserved": 0, "type": "electric_scooter", "bike_id": "f22fa420994662376156d666370e6a96", "lat": 38.905982, "lon": -77.0042985, "rental_uris": {"android": "https://dc.lft.to/lastmile_qr_scan", "ios": "https://dc.lft.to/lastmile_qr_scan"}, "is_disabled": 0, "fusion_lat": 0.0, "name": "f22fa420994662376156d666370e6a96", "fusion_lon": 0.0}, {"is_reserved": 0, "type": "electric_scooter", "bike_id": "1fb63c3264025d185aa0392ac4fe94cd", "lat": 38.92126533333333, "lon": -77.01900983333333, "rental_uris": {"android": "https://dc.lft.to/lastmile_qr_scan", "ios": "https://dc.lft.to/lastmile_qr_scan"}, "is_disabled": 0, "fusion_lat": 0.0, "name": "1fb63c3264025d185aa0392ac4fe94cd", "fusion_lon": 0.0}, {"is_reserved": 0, "type": "electric_scooter", "bike_id": "941dd44074190534c5cee442aa1bbd9f", "lat": 38.91687016666667, "lon": -77.02964416666667, "rental_uris": {"android": "https://dc.lft.to/lastmile_qr_scan", "ios": "https://dc.lft.to/lastmile_qr_scan"}, "is_disabled": 0, "fusion_lat": 0.0, "name": "941dd44074190534c5cee442aa1bbd9f", "fusion_lon": 0.0}, {"is_reserved": 0, "type": "electric_scooter", "bike_id": "ac0f1169da1fb7e20b975e99711db8c5", "lat": 38.90733866666667, "lon": -77.00804916666667, "rental_uris": {"android": "https://dc.lft.to/lastmile_qr_scan", "ios": "https://dc.lft.to/lastmile_qr_scan"}, "is_disabled": 0, "fusion_lat": 0.0, "name": "ac0f1169da1fb7e20b975e99711db8c5", "fusion_lon": 0.0}, {"is_reserved": 0, "type": "electric_scooter", "bike_id": "dd43ddb6ec770ca98bde4dd641aeb4dd", "lat": 38.8983255, "lon": -77.02797833333334, "rental_uris": {"android": "https://dc.lft.to/lastmile_qr_scan", "ios": "https://dc.lft.to/lastmile_qr_scan"}, "is_disabled": 0, "fusion_lat": 0.0, "name": "dd43ddb6ec770ca98bde4dd641aeb4dd", "fusion_lon": 0.0}, {"is_reserved": 0, "type": "electric_scooter", "bike_id": "3ad05459278fcb68b48f2c5ae30b6d7a", "lat": 38.8849495, "lon": -77.00716166666666, "rental_uris": {"android": "https://dc.lft.to/lastmile_qr_scan", "ios": "https://dc.lft.to/lastmile_qr_scan"}, "is_disabled": 0, "fusion_lat": 0.0, "name": "3ad05459278fcb68b48f2c5ae30b6d7a", "fusion_lon": 0.0}, {"is_reserved": 0, "type": "electric_scooter", "bike_id": "eaeb23cd8d67df4c30aa8e499c23201e", "lat": 38.92438083333333, "lon": -77.034018, "rental_uris": {"android": "https://dc.lft.to/lastmile_qr_scan", "ios": "https://dc.lft.to/lastmile_qr_scan"}, "is_disabled": 0, "fusion_lat": 0.0, "name": "eaeb23cd8d67df4c30aa8e499c23201e", "fusion_lon": 0.0}, {"is_reserved": 0, "type": "electric_scooter", "bike_id": "8f8db239277eafdf01ce5881ce8d6c65", "lat": 38.924469333333334, "lon": -77.03403283333333, "rental_uris": {"android": "https://dc.lft.to/lastmile_qr_scan", "ios": "https://dc.lft.to/lastmile_qr_scan"}, "is_disabled": 0, "fusion_lat": 0.0, "name": "8f8db239277eafdf01ce5881ce8d6c65", "fusion_lon": 0.0}, {"is_reserved": 0, "type": "electric_scooter", "bike_id": "7867f36cfc01ba43427a5875341f16fc", "lat": 38.903817833333335, "lon": -77.0161705, "rental_uris": {"android": "https://dc.lft.to/lastmile_qr_scan", "ios": "https://dc.lft.to/lastmile_qr_scan"}, "is_disabled": 0, "fusion_lat": 0.0, "name": "7867f36cfc01ba43427a5875341f16fc", "fusion_lon": 0.0}, {"is_reserved": 0, "type": "electric_scooter", "bike_id": "c72bfd5d6e102aaa9b0c4fe56b3a7bc5", "lat": 38.92227583333333, "lon": -77.01802066666667, "rental_uris": {"android": "https://dc.lft.to/lastmile_qr_scan", "ios": "https://dc.lft.to/lastmile_qr_scan"}, "is_disabled": 0, "fusion_lat": 0.0, "name": "c72bfd5d6e102aaa9b0c4fe56b3a7bc5", "fusion_lon": 0.0}, {"is_reserved": 0, "type": "electric_scooter", "bike_id": "f28330800ffc10fe949175ad971c3a88", "lat": 38.912717, "lon": -77.03166316666666, "rental_uris": {"android": "https://dc.lft.to/lastmile_qr_scan", "ios": "https://dc.lft.to/lastmile_qr_scan"}, "is_disabled": 0, "fusion_lat": 0.0, "name": "f28330800ffc10fe949175ad971c3a88", "fusion_lon": 0.0}, {"is_reserved": 0, "type": "electric_scooter", "bike_id": "fbf62c0f47eb5784315db7648ad72cf2", "lat": 38.916431, "lon": -77.032147, "rental_uris": {"android": "https://dc.lft.to/lastmile_qr_scan", "ios": "https://dc.lft.to/lastmile_qr_scan"}, "is_disabled": 0, "fusion_lat": 0.0, "name": "fbf62c0f47eb5784315db7648ad72cf2", "fusion_lon": 0.0}, {"is_reserved": 0, "type": "electric_scooter", "bike_id": "1cec6eeb54d9dada5a449a00b0656c50", "lat": 38.907446166666666, "lon": -77.00762816666666, "rental_uris": {"android": "https://dc.lft.to/lastmile_qr_scan", "ios": "https://dc.lft.to/lastmile_qr_scan"}, "is_disabled": 0, "fusion_lat": 0.0, "name": "1cec6eeb54d9dada5a449a00b0656c50", "fusion_lon": 0.0}, {"is_reserved": 0, "type": "electric_scooter", "bike_id": "1bfc37510aa6cfb2882cf9cad9c255ef", "lat": 38.90389416666667, "lon": -77.02179033333333, "rental_uris": {"android": "https://dc.lft.to/lastmile_qr_scan", "ios": "https://dc.lft.to/lastmile_qr_scan"}, "is_disabled": 0, "fusion_lat": 0.0, "name": "1bfc37510aa6cfb2882cf9cad9c255ef", "fusion_lon": 0.0}, {"is_reserved": 0, "type": "electric_scooter", "bike_id": "495428a87d01c53db3ff2804b3675624", "lat": 38.907305666666666, "lon": -77.04816666666666, "rental_uris": {"android": "https://dc.lft.to/lastmile_qr_scan", "ios": "https://dc.lft.to/lastmile_qr_scan"}, "is_disabled": 0, "fusion_lat": 0.0, "name": "495428a87d01c53db3ff2804b3675624", "fusion_lon": 0.0}, {"is_reserved": 0, "type": "electric_scooter", "bike_id": "ab66ad600c3df87fe852d7f24b511e32", "lat": 38.92576316666667, "lon": -76.99494283333334, "rental_uris": {"android": "https://dc.lft.to/lastmile_qr_scan", "ios": "https://dc.lft.to/lastmile_qr_scan"}, "is_disabled": 0, "fusion_lat": 0.0, "name": "ab66ad600c3df87fe852d7f24b511e32", "fusion_lon": 0.0}, {"is_reserved": 0, "type": "electric_scooter", "bike_id": "1eaf058e479cdeb9a6d2b78fb10ebc1d", "lat": 38.886149333333336, "lon": -76.99653833333333, "rental_uris": {"android": "https://dc.lft.to/lastmile_qr_scan", "ios": "https://dc.lft.to/lastmile_qr_scan"}, "is_disabled": 0, "fusion_lat": 0.0, "name": "1eaf058e479cdeb9a6d2b78fb10ebc1d", "fusion_lon": 0.0}, {"is_reserved": 0, "type": "electric_bike", "bike_id": "5184391e43d39387031c28d2e56581dc", "lat": 38.881476, "lon": -77.016781, "rental_uris": {"android": "https://dc.lft.to/lastmile_qr_scan", "ios": "https://dc.lft.to/lastmile_qr_scan"}, "is_disabled": 0, "fusion_lat": 0.0, "name": "5184391e43d39387031c28d2e56581dc", "fusion_lon": 0.0}, {"is_reserved": 0, "type": "electric_scooter", "bike_id": "3fa92ee3416e0549eeefb972379c63b6", "lat": 38.9176665, "lon": -77.0122195, "rental_uris": {"android": "https://dc.lft.to/lastmile_qr_scan", "ios": "https://dc.lft.to/lastmile_qr_scan"}, "is_disabled": 0, "fusion_lat": 0.0, "name": "3fa92ee3416e0549eeefb972379c63b6", "fusion_lon": 0.0}, {"is_reserved": 0, "type": "electric_scooter", "bike_id": "257aebe0caed29c0473f2c151f9961c4", "lat": 38.87609633333334, "lon": -76.96567516666667, "rental_uris": {"android": "https://dc.lft.to/lastmile_qr_scan", "ios": "https://dc.lft.to/lastmile_qr_scan"}, "is_disabled": 0, "fusion_lat": 0.0, "name": "257aebe0caed29c0473f2c151f9961c4", "fusion_lon": 0.0}, {"is_reserved": 0, "type": "electric_scooter", "bike_id": "b7bd8b9c1d14cc23aafabb228473abd3", "lat": 38.890415833333336, "lon": -76.9524855, "rental_uris": {"android": "https://dc.lft.to/lastmile_qr_scan", "ios": "https://dc.lft.to/lastmile_qr_scan"}, "is_disabled": 0, "fusion_lat": 0.0, "name": "b7bd8b9c1d14cc23aafabb228473abd3", "fusion_lon": 0.0}, {"is_reserved": 0, "type": "electric_scooter", "bike_id": "5dbe2b3a3b27abd1d7b4001c62acd022", "lat": 38.905134833333335, "lon": -77.06385516666667, "rental_uris": {"android": "https://dc.lft.to/lastmile_qr_scan", "ios": "https://dc.lft.to/lastmile_qr_scan"}, "is_disabled": 0, "fusion_lat": 0.0, "name": "5dbe2b3a3b27abd1d7b4001c62acd022", "fusion_lon": 0.0}, {"is_reserved": 0, "type": "electric_scooter", "bike_id": "77476e46f4ecb5ca72a9b7a903f65c69", "lat": 38.918276666666664, "lon": -77.031561, "rental_uris": {"android": "https://dc.lft.to/lastmile_qr_scan", "ios": "https://dc.lft.to/lastmile_qr_scan"}, "is_disabled": 0, "fusion_lat": 0.0, "name": "77476e46f4ecb5ca72a9b7a903f65c69", "fusion_lon": 0.0}, {"is_reserved": 0, "type": "electric_scooter", "bike_id": "06f1255a002138457e994402f3793205", "lat": 38.9256265, "lon": -77.07761933333333, "rental_uris": {"android": "https://dc.lft.to/lastmile_qr_scan", "ios": "https://dc.lft.to/lastmile_qr_scan"}, "is_disabled": 0, "fusion_lat": 0.0, "name": "06f1255a002138457e994402f3793205", "fusion_lon": 0.0}, {"is_reserved": 0, "type": "electric_scooter", "bike_id": "dea1a90ce07e85d1db58bcdf2124efdb", "lat": 38.92827416666667, "lon": -77.0544345, "rental_uris": {"android": "https://dc.lft.to/lastmile_qr_scan", "ios": "https://dc.lft.to/lastmile_qr_scan"}, "is_disabled": 0, "fusion_lat": 0.0, "name": "dea1a90ce07e85d1db58bcdf2124efdb", "fusion_lon": 0.0}, {"is_reserved": 0, "type": "electric_scooter", "bike_id": "51deb531076fd062e392421b0f2011df", "lat": 38.92484683333333, "lon": -77.03484283333333, "rental_uris": {"android": "https://dc.lft.to/lastmile_qr_scan", "ios": "https://dc.lft.to/lastmile_qr_scan"}, "is_disabled": 0, "fusion_lat": 0.0, "name": "51deb531076fd062e392421b0f2011df", "fusion_lon": 0.0}, {"is_reserved": 0, "type": "electric_scooter", "bike_id": "a61db4a43f096a1c2471700a98699536", "lat": 38.91989483333333, "lon": -77.04067766666667, "rental_uris": {"android": "https://dc.lft.to/lastmile_qr_scan", "ios": "https://dc.lft.to/lastmile_qr_scan"}, "is_disabled": 0, "fusion_lat": 0.0, "name": "a61db4a43f096a1c2471700a98699536", "fusion_lon": 0.0}, {"is_reserved": 0, "type": "electric_scooter", "bike_id": "8b2231a3af0309d463e5060da814794a", "lat": 38.873745166666666, "lon": -77.00012366666667, "rental_uris": {"android": "https://dc.lft.to/lastmile_qr_scan", "ios": "https://dc.lft.to/lastmile_qr_scan"}, "is_disabled": 0, "fusion_lat": 0.0, "name": "8b2231a3af0309d463e5060da814794a", "fusion_lon": 0.0}, {"is_reserved": 0, "type": "electric_scooter", "bike_id": "ddc14f2a1a4a1d889ba1fbbe274846dc", "lat": 38.9079935, "lon": -77.0489335, "rental_uris": {"android": "https://dc.lft.to/lastmile_qr_scan", "ios": "https://dc.lft.to/lastmile_qr_scan"}, "is_disabled": 0, "fusion_lat": 0.0, "name": "ddc14f2a1a4a1d889ba1fbbe274846dc", "fusion_lon": 0.0}, {"is_reserved": 0, "type": "electric_scooter", "bike_id": "ece09e7656d334cacd77593617c83ae4", "lat": 38.93742866666667, "lon": -77.03275716666667, "rental_uris": {"android": "https://dc.lft.to/lastmile_qr_scan", "ios": "https://dc.lft.to/lastmile_qr_scan"}, "is_disabled": 0, "fusion_lat": 0.0, "name": "ece09e7656d334cacd77593617c83ae4", "fusion_lon": 0.0}, {"is_reserved": 0, "type": "electric_scooter", "bike_id": "5708b46e7d13feed09bf18589824c97c", "lat": 38.943092666666665, "lon": -77.02181633333333, "rental_uris": {"android": "https://dc.lft.to/lastmile_qr_scan", "ios": "https://dc.lft.to/lastmile_qr_scan"}, "is_disabled": 0, "fusion_lat": 0.0, "name": "5708b46e7d13feed09bf18589824c97c", "fusion_lon": 0.0}, {"is_reserved": 0, "type": "electric_scooter", "bike_id": "a0945024e9ba3bff40ccda97c55cddce", "lat": 38.92028666666667, "lon": -77.01036983333333, "rental_uris": {"android": "https://dc.lft.to/lastmile_qr_scan", "ios": "https://dc.lft.to/lastmile_qr_scan"}, "is_disabled": 0, "fusion_lat": 0.0, "name": "a0945024e9ba3bff40ccda97c55cddce", "fusion_lon": 0.0}, {"is_reserved": 0, "type": "electric_scooter", "bike_id": "80a9c0d07bd2a5231fd1356aa03fb63a", "lat": 38.88813866666667, "lon": -77.00206316666667, "rental_uris": {"android": "https://dc.lft.to/lastmile_qr_scan", "ios": "https://dc.lft.to/lastmile_qr_scan"}, "is_disabled": 0, "fusion_lat": 0.0, "name": "80a9c0d07bd2a5231fd1356aa03fb63a", "fusion_lon": 0.0}, {"is_reserved": 0, "type": "electric_scooter", "bike_id": "688c9068c157e9525ed787b7c907d785", "lat": 38.899502166666664, "lon": -77.02702516666666, "rental_uris": {"android": "https://dc.lft.to/lastmile_qr_scan", "ios": "https://dc.lft.to/lastmile_qr_scan"}, "is_disabled": 0, "fusion_lat": 0.0, "name": "688c9068c157e9525ed787b7c907d785", "fusion_lon": 0.0}, {"is_reserved": 0, "type": "electric_scooter", "bike_id": "befce64d93083fb2826bb46abe8cc0b2", "lat": 38.87638166666667, "lon": -77.00727183333333, "rental_uris": {"android": "https://dc.lft.to/lastmile_qr_scan", "ios": "https://dc.lft.to/lastmile_qr_scan"}, "is_disabled": 0, "fusion_lat": 0.0, "name": "befce64d93083fb2826bb46abe8cc0b2", "fusion_lon": 0.0}, {"is_reserved": 0, "type": "electric_scooter", "bike_id": "d73aaabf6a8027f69d97408fbeef1c8c", "lat": 38.8995845, "lon": -77.031607, "rental_uris": {"android": "https://dc.lft.to/lastmile_qr_scan", "ios": "https://dc.lft.to/lastmile_qr_scan"}, "is_disabled": 0, "fusion_lat": 0.0, "name": "d73aaabf6a8027f69d97408fbeef1c8c", "fusion_lon": 0.0}, {"is_reserved": 0, "type": "electric_scooter", "bike_id": "8b7d4c7cd03a2edac4ea60971d534717", "lat": 38.917036333333336, "lon": -77.03162833333333, "rental_uris": {"android": "https://dc.lft.to/lastmile_qr_scan", "ios": "https://dc.lft.to/lastmile_qr_scan"}, "is_disabled": 0, "fusion_lat": 0.0, "name": "8b7d4c7cd03a2edac4ea60971d534717", "fusion_lon": 0.0}, {"is_reserved": 0, "type": "electric_scooter", "bike_id": "391ed77f7aae08a8dab5424d1b7529b9", "lat": 38.9246025, "lon": -77.00893016666667, "rental_uris": {"android": "https://dc.lft.to/lastmile_qr_scan", "ios": "https://dc.lft.to/lastmile_qr_scan"}, "is_disabled": 0, "fusion_lat": 0.0, "name": "391ed77f7aae08a8dab5424d1b7529b9", "fusion_lon": 0.0}, {"is_reserved": 0, "type": "electric_scooter", "bike_id": "0038b0b7c21c9c8d4fb30e40efe788ef", "lat": 38.9066915, "lon": -77.07512516666667, "rental_uris": {"android": "https://dc.lft.to/lastmile_qr_scan", "ios": "https://dc.lft.to/lastmile_qr_scan"}, "is_disabled": 0, "fusion_lat": 0.0, "name": "0038b0b7c21c9c8d4fb30e40efe788ef", "fusion_lon": 0.0}, {"is_reserved": 0, "type": "electric_scooter", "bike_id": "edc501ab74eb2a0e4f4a778a20e2d8d7", "lat": 38.91629566666667, "lon": -77.0226535, "rental_uris": {"android": "https://dc.lft.to/lastmile_qr_scan", "ios": "https://dc.lft.to/lastmile_qr_scan"}, "is_disabled": 0, "fusion_lat": 0.0, "name": "edc501ab74eb2a0e4f4a778a20e2d8d7", "fusion_lon": 0.0}, {"is_reserved": 0, "type": "electric_scooter", "bike_id": "9034dbeb571546b9925c76e99c00acde", "lat": 38.893517833333334, "lon": -77.01168066666666, "rental_uris": {"android": "https://dc.lft.to/lastmile_qr_scan", "ios": "https://dc.lft.to/lastmile_qr_scan"}, "is_disabled": 0, "fusion_lat": 0.0, "name": "9034dbeb571546b9925c76e99c00acde", "fusion_lon": 0.0}, {"is_reserved": 0, "type": "electric_scooter", "bike_id": "4d3518701a6c98c4baef9b23fb9b1bc0", "lat": 38.892264, "lon": -77.0416275, "rental_uris": {"android": "https://dc.lft.to/lastmile_qr_scan", "ios": "https://dc.lft.to/lastmile_qr_scan"}, "is_disabled": 0, "fusion_lat": 0.0, "name": "4d3518701a6c98c4baef9b23fb9b1bc0", "fusion_lon": 0.0}, {"is_reserved": 0, "type": "electric_scooter", "bike_id": "c220c123ee8971d0b3870d8fd09469a8", "lat": 38.941908, "lon": -77.02347383333333, "rental_uris": {"android": "https://dc.lft.to/lastmile_qr_scan", "ios": "https://dc.lft.to/lastmile_qr_scan"}, "is_disabled": 0, "fusion_lat": 0.0, "name": "c220c123ee8971d0b3870d8fd09469a8", "fusion_lon": 0.0}, {"is_reserved": 0, "type": "electric_scooter", "bike_id": "90606fefed3dca2fd2ff69a5bc2da441", "lat": 38.9235595, "lon": -76.99949466666666, "rental_uris": {"android": "https://dc.lft.to/lastmile_qr_scan", "ios": "https://dc.lft.to/lastmile_qr_scan"}, "is_disabled": 0, "fusion_lat": 0.0, "name": "90606fefed3dca2fd2ff69a5bc2da441", "fusion_lon": 0.0}, {"is_reserved": 0, "type": "electric_scooter", "bike_id": "dd1a86ada51c8710b7b8acf2b99ec3a5", "lat": 38.92550116666666, "lon": -77.04127633333333, "rental_uris": {"android": "https://dc.lft.to/lastmile_qr_scan", "ios": "https://dc.lft.to/lastmile_qr_scan"}, "is_disabled": 0, "fusion_lat": 0.0, "name": "dd1a86ada51c8710b7b8acf2b99ec3a5", "fusion_lon": 0.0}, {"is_reserved": 0, "type": "electric_scooter", "bike_id": "fb421aa0edd09a8f624120e9e878ce39", "lat": 38.91548733333333, "lon": -77.01417233333333, "rental_uris": {"android": "https://dc.lft.to/lastmile_qr_scan", "ios": "https://dc.lft.to/lastmile_qr_scan"}, "is_disabled": 0, "fusion_lat": 0.0, "name": "fb421aa0edd09a8f624120e9e878ce39", "fusion_lon": 0.0}, {"is_reserved": 0, "type": "electric_scooter", "bike_id": "7e1869594bd40b51467ac61fbba47457", "lat": 38.92642583333333, "lon": -77.02515483333333, "rental_uris": {"android": "https://dc.lft.to/lastmile_qr_scan", "ios": "https://dc.lft.to/lastmile_qr_scan"}, "is_disabled": 0, "fusion_lat": 0.0, "name": "7e1869594bd40b51467ac61fbba47457", "fusion_lon": 0.0}, {"is_reserved": 0, "type": "electric_bike", "bike_id": "15dba6dfa8db9fdbf7e256b9dea2931b", "lat": 39.08602066666667, "lon": -77.1228445, "rental_uris": {"android": "https://dc.lft.to/lastmile_qr_scan", "ios": "https://dc.lft.to/lastmile_qr_scan"}, "is_disabled": 0, "fusion_lat": 0.0, "name": "15dba6dfa8db9fdbf7e256b9dea2931b", "fusion_lon": 0.0}, {"is_reserved": 0, "type": "electric_scooter", "bike_id": "2db8773d940b5cead3721bfa9644fa74", "lat": 38.920499, "lon": -77.04187983333334, "rental_uris": {"android": "https://dc.lft.to/lastmile_qr_scan", "ios": "https://dc.lft.to/lastmile_qr_scan"}, "is_disabled": 0, "fusion_lat": 0.0, "name": "2db8773d940b5cead3721bfa9644fa74", "fusion_lon": 0.0}, {"is_reserved": 0, "type": "electric_scooter", "bike_id": "7860033371f937aef3621941fc5b5ab3", "lat": 38.9330555, "lon": -77.02143766666667, "rental_uris": {"android": "https://dc.lft.to/lastmile_qr_scan", "ios": "https://dc.lft.to/lastmile_qr_scan"}, "is_disabled": 0, "fusion_lat": 0.0, "name": "7860033371f937aef3621941fc5b5ab3", "fusion_lon": 0.0}, {"is_reserved": 0, "type": "electric_scooter", "bike_id": "34ff1762e562adddc6235fb0212643dd", "lat": 38.90769133333333, "lon": -77.04511733333334, "rental_uris": {"android": "https://dc.lft.to/lastmile_qr_scan", "ios": "https://dc.lft.to/lastmile_qr_scan"}, "is_disabled": 0, "fusion_lat": 0.0, "name": "34ff1762e562adddc6235fb0212643dd", "fusion_lon": 0.0}, {"is_reserved": 0, "type": "electric_scooter", "bike_id": "675a130002ce0f5f1bac5a55d3ce30e2", "lat": 38.9248265, "lon": -77.02723983333334, "rental_uris": {"android": "https://dc.lft.to/lastmile_qr_scan", "ios": "https://dc.lft.to/lastmile_qr_scan"}, "is_disabled": 0, "fusion_lat": 0.0, "name": "675a130002ce0f5f1bac5a55d3ce30e2", "fusion_lon": 0.0}, {"is_reserved": 0, "type": "electric_scooter", "bike_id": "ab77462749e9de2195dd7b97a6c8da02", "lat": 38.937595333333334, "lon": -77.028422, "rental_uris": {"android": "https://dc.lft.to/lastmile_qr_scan", "ios": "https://dc.lft.to/lastmile_qr_scan"}, "is_disabled": 0, "fusion_lat": 0.0, "name": "ab77462749e9de2195dd7b97a6c8da02", "fusion_lon": 0.0}, {"is_reserved": 0, "type": "electric_scooter", "bike_id": "1a98cf7230997bf934cb3d4af3b90304", "lat": 38.8998155, "lon": -76.9948235, "rental_uris": {"android": "https://dc.lft.to/lastmile_qr_scan", "ios": "https://dc.lft.to/lastmile_qr_scan"}, "is_disabled": 0, "fusion_lat": 0.0, "name": "1a98cf7230997bf934cb3d4af3b90304", "fusion_lon": 0.0}, {"is_reserved": 0, "type": "electric_scooter", "bike_id": "72fce13f7770a152fe9322c226c349c5", "lat": 38.8951995, "lon": -77.02144066666666, "rental_uris": {"android": "https://dc.lft.to/lastmile_qr_scan", "ios": "https://dc.lft.to/lastmile_qr_scan"}, "is_disabled": 0, "fusion_lat": 0.0, "name": "72fce13f7770a152fe9322c226c349c5", "fusion_lon": 0.0}, {"is_reserved": 0, "type": "electric_scooter", "bike_id": "1befd37b5273a1f99a2850afd015e5a0", "lat": 38.87754433333333, "lon": -77.01899516666667, "rental_uris": {"android": "https://dc.lft.to/lastmile_qr_scan", "ios": "https://dc.lft.to/lastmile_qr_scan"}, "is_disabled": 0, "fusion_lat": 0.0, "name": "1befd37b5273a1f99a2850afd015e5a0", "fusion_lon": 0.0}, {"is_reserved": 0, "type": "electric_scooter", "bike_id": "5c42c09c18c4ab04bdfd287058905ede", "lat": 38.90564533333333, "lon": -77.00786033333333, "rental_uris": {"android": "https://dc.lft.to/lastmile_qr_scan", "ios": "https://dc.lft.to/lastmile_qr_scan"}, "is_disabled": 0, "fusion_lat": 0.0, "name": "5c42c09c18c4ab04bdfd287058905ede", "fusion_lon": 0.0}, {"is_reserved": 0, "type": "electric_scooter", "bike_id": "6463bf60caded3f240060eea4614d8a4", "lat": 38.92652266666666, "lon": -77.03718566666667, "rental_uris": {"android": "https://dc.lft.to/lastmile_qr_scan", "ios": "https://dc.lft.to/lastmile_qr_scan"}, "is_disabled": 0, "fusion_lat": 0.0, "name": "6463bf60caded3f240060eea4614d8a4", "fusion_lon": 0.0}, {"is_reserved": 0, "type": "electric_scooter", "bike_id": "2b63f8cd6412b54222230c55f6727308", "lat": 38.892205833333335, "lon": -77.0468665, "rental_uris": {"android": "https://dc.lft.to/lastmile_qr_scan", "ios": "https://dc.lft.to/lastmile_qr_scan"}, "is_disabled": 0, "fusion_lat": 0.0, "name": "2b63f8cd6412b54222230c55f6727308", "fusion_lon": 0.0}, {"is_reserved": 0, "type": "electric_scooter", "bike_id": "6a67cb59d6883533edf7c7094b146b0a", "lat": 38.914788, "lon": -76.98439733333333, "rental_uris": {"android": "https://dc.lft.to/lastmile_qr_scan", "ios": "https://dc.lft.to/lastmile_qr_scan"}, "is_disabled": 0, "fusion_lat": 0.0, "name": "6a67cb59d6883533edf7c7094b146b0a", "fusion_lon": 0.0}, {"is_reserved": 0, "type": "electric_scooter", "bike_id": "40d9ee67969f82af12de0515a5d2e7a3", "lat": 38.91979933333333, "lon": -77.0331, "rental_uris": {"android": "https://dc.lft.to/lastmile_qr_scan", "ios": "https://dc.lft.to/lastmile_qr_scan"}, "is_disabled": 0, "fusion_lat": 0.0, "name": "40d9ee67969f82af12de0515a5d2e7a3", "fusion_lon": 0.0}, {"is_reserved": 0, "type": "electric_scooter", "bike_id": "cafcc170346ea2d26a66b538d96661d6", "lat": 38.90368766666667, "lon": -76.9849275, "rental_uris": {"android": "https://dc.lft.to/lastmile_qr_scan", "ios": "https://dc.lft.to/lastmile_qr_scan"}, "is_disabled": 0, "fusion_lat": 0.0, "name": "cafcc170346ea2d26a66b538d96661d6", "fusion_lon": 0.0}, {"is_reserved": 0, "type": "electric_scooter", "bike_id": "77dd6ebc93d82ea1c869d7f232dc303b", "lat": 38.93419433333333, "lon": -77.03380566666667, "rental_uris": {"android": "https://dc.lft.to/lastmile_qr_scan", "ios": "https://dc.lft.to/lastmile_qr_scan"}, "is_disabled": 0, "fusion_lat": 0.0, "name": "77dd6ebc93d82ea1c869d7f232dc303b", "fusion_lon": 0.0}, {"is_reserved": 0, "type": "electric_scooter", "bike_id": "66889d3bb7d0d22d259403fb59546b06", "lat": 38.872679833333336, "lon": -77.01711966666667, "rental_uris": {"android": "https://dc.lft.to/lastmile_qr_scan", "ios": "https://dc.lft.to/lastmile_qr_scan"}, "is_disabled": 0, "fusion_lat": 0.0, "name": "66889d3bb7d0d22d259403fb59546b06", "fusion_lon": 0.0}, {"is_reserved": 0, "type": "electric_scooter", "bike_id": "46c2c21b07e4216d7f09facff428b8a4", "lat": 38.8715885, "lon": -77.01319433333333, "rental_uris": {"android": "https://dc.lft.to/lastmile_qr_scan", "ios": "https://dc.lft.to/lastmile_qr_scan"}, "is_disabled": 0, "fusion_lat": 0.0, "name": "46c2c21b07e4216d7f09facff428b8a4", "fusion_lon": 0.0}, {"is_reserved": 0, "type": "electric_scooter", "bike_id": "e701df713c3f3d541c1d33d201b0bdeb", "lat": 38.9126715, "lon": -77.03033883333333, "rental_uris": {"android": "https://dc.lft.to/lastmile_qr_scan", "ios": "https://dc.lft.to/lastmile_qr_scan"}, "is_disabled": 0, "fusion_lat": 0.0, "name": "e701df713c3f3d541c1d33d201b0bdeb", "fusion_lon": 0.0}, {"is_reserved": 0, "type": "electric_scooter", "bike_id": "e78421a4056cfb5a12d1ce2fac11984c", "lat": 38.9309175, "lon": -77.023837, "rental_uris": {"android": "https://dc.lft.to/lastmile_qr_scan", "ios": "https://dc.lft.to/lastmile_qr_scan"}, "is_disabled": 0, "fusion_lat": 0.0, "name": "e78421a4056cfb5a12d1ce2fac11984c", "fusion_lon": 0.0}, {"is_reserved": 0, "type": "electric_scooter", "bike_id": "9e6011ad79877c01441fda0b840699f7", "lat": 38.92117483333333, "lon": -77.042278, "rental_uris": {"android": "https://dc.lft.to/lastmile_qr_scan", "ios": "https://dc.lft.to/lastmile_qr_scan"}, "is_disabled": 0, "fusion_lat": 0.0, "name": "9e6011ad79877c01441fda0b840699f7", "fusion_lon": 0.0}, {"is_reserved": 0, "type": "electric_scooter", "bike_id": "48e929b33d02ff691b2ce7bb5d565dfc", "lat": 38.91413033333333, "lon": -77.0221525, "rental_uris": {"android": "https://dc.lft.to/lastmile_qr_scan", "ios": "https://dc.lft.to/lastmile_qr_scan"}, "is_disabled": 0, "fusion_lat": 0.0, "name": "48e929b33d02ff691b2ce7bb5d565dfc", "fusion_lon": 0.0}, {"is_reserved": 0, "type": "electric_scooter", "bike_id": "c4dbb070b1996a7c1013fb95af5a8773", "lat": 38.89208, "lon": -76.92926833333334, "rental_uris": {"android": "https://dc.lft.to/lastmile_qr_scan", "ios": "https://dc.lft.to/lastmile_qr_scan"}, "is_disabled": 0, "fusion_lat": 0.0, "name": "c4dbb070b1996a7c1013fb95af5a8773", "fusion_lon": 0.0}, {"is_reserved": 0, "type": "electric_bike", "bike_id": "edf5a53e865f835c3d3c2d6fd37b8140", "lat": 38.957544666666664, "lon": -76.96762066666666, "rental_uris": {"android": "https://dc.lft.to/lastmile_qr_scan", "ios": "https://dc.lft.to/lastmile_qr_scan"}, "is_disabled": 0, "fusion_lat": 0.0, "name": "edf5a53e865f835c3d3c2d6fd37b8140", "fusion_lon": 0.0}, {"is_reserved": 0, "type": "electric_scooter", "bike_id": "696032ca018e2ea65ad59175b77b4f3c", "lat": 38.923347, "lon": -77.0466865, "rental_uris": {"android": "https://dc.lft.to/lastmile_qr_scan", "ios": "https://dc.lft.to/lastmile_qr_scan"}, "is_disabled": 0, "fusion_lat": 0.0, "name": "696032ca018e2ea65ad59175b77b4f3c", "fusion_lon": 0.0}, {"is_reserved": 0, "type": "electric_scooter", "bike_id": "f4714205d2d3ddf44279dadb9386c21e", "lat": 38.897305, "lon": -77.05522333333333, "rental_uris": {"android": "https://dc.lft.to/lastmile_qr_scan", "ios": "https://dc.lft.to/lastmile_qr_scan"}, "is_disabled": 0, "fusion_lat": 0.0, "name": "f4714205d2d3ddf44279dadb9386c21e", "fusion_lon": 0.0}, {"is_reserved": 0, "type": "electric_bike", "bike_id": "604ef8e49061c55a6711ee9884857bc7", "lat": 38.80869366666667, "lon": -77.1125745, "rental_uris": {"android": "https://dc.lft.to/lastmile_qr_scan", "ios": "https://dc.lft.to/lastmile_qr_scan"}, "is_disabled": 0, "fusion_lat": 0.0, "name": "604ef8e49061c55a6711ee9884857bc7", "fusion_lon": 0.0}, {"is_reserved": 0, "type": "electric_scooter", "bike_id": "4d15b6045aa2a5f4ee474b6b40a011d1", "lat": 38.89229733333333, "lon": -77.024161, "rental_uris": {"android": "https://dc.lft.to/lastmile_qr_scan", "ios": "https://dc.lft.to/lastmile_qr_scan"}, "is_disabled": 0, "fusion_lat": 0.0, "name": "4d15b6045aa2a5f4ee474b6b40a011d1", "fusion_lon": 0.0}, {"is_reserved": 0, "type": "electric_scooter", "bike_id": "c40aa6d7b331f1878fd8f087ccbfdf0c", "lat": 38.92557466666667, "lon": -77.036644, "rental_uris": {"android": "https://dc.lft.to/lastmile_qr_scan", "ios": "https://dc.lft.to/lastmile_qr_scan"}, "is_disabled": 0, "fusion_lat": 0.0, "name": "c40aa6d7b331f1878fd8f087ccbfdf0c", "fusion_lon": 0.0}, {"is_reserved": 0, "type": "electric_scooter", "bike_id": "e83045d1017662a06ea4bdfe81873fea", "lat": 38.92373666666667, "lon": -77.01915766666667, "rental_uris": {"android": "https://dc.lft.to/lastmile_qr_scan", "ios": "https://dc.lft.to/lastmile_qr_scan"}, "is_disabled": 0, "fusion_lat": 0.0, "name": "e83045d1017662a06ea4bdfe81873fea", "fusion_lon": 0.0}, {"is_reserved": 0, "type": "electric_scooter", "bike_id": "4be6ac50f249417925fe3a98a01cb936", "lat": 38.92522966666667, "lon": -77.02577616666666, "rental_uris": {"android": "https://dc.lft.to/lastmile_qr_scan", "ios": "https://dc.lft.to/lastmile_qr_scan"}, "is_disabled": 0, "fusion_lat": 0.0, "name": "4be6ac50f249417925fe3a98a01cb936", "fusion_lon": 0.0}, {"is_reserved": 0, "type": "electric_scooter", "bike_id": "932a31d24e8fa9be86a93b2200124643", "lat": 38.920074166666666, "lon": -77.038827, "rental_uris": {"android": "https://dc.lft.to/lastmile_qr_scan", "ios": "https://dc.lft.to/lastmile_qr_scan"}, "is_disabled": 0, "fusion_lat": 0.0, "name": "932a31d24e8fa9be86a93b2200124643", "fusion_lon": 0.0}, {"is_reserved": 0, "type": "electric_bike", "bike_id": "9f4ca2e1a57e211ee6e9b8c92661f4b2", "lat": 38.90047466666667, "lon": -76.97797883333334, "rental_uris": {"android": "https://dc.lft.to/lastmile_qr_scan", "ios": "https://dc.lft.to/lastmile_qr_scan"}, "is_disabled": 0, "fusion_lat": 0.0, "name": "9f4ca2e1a57e211ee6e9b8c92661f4b2", "fusion_lon": 0.0}, {"is_reserved": 0, "type": "electric_scooter", "bike_id": "51281d7c2914f99bf57b5551325bdc71", "lat": 38.93578, "lon": -77.05871516666667, "rental_uris": {"android": "https://dc.lft.to/lastmile_qr_scan", "ios": "https://dc.lft.to/lastmile_qr_scan"}, "is_disabled": 0, "fusion_lat": 0.0, "name": "51281d7c2914f99bf57b5551325bdc71", "fusion_lon": 0.0}, {"is_reserved": 0, "type": "electric_scooter", "bike_id": "45880a90e41e0e6c81a8ca7b9cb8ca9c", "lat": 38.93195583333333, "lon": -77.02377266666667, "rental_uris": {"android": "https://dc.lft.to/lastmile_qr_scan", "ios": "https://dc.lft.to/lastmile_qr_scan"}, "is_disabled": 0, "fusion_lat": 0.0, "name": "45880a90e41e0e6c81a8ca7b9cb8ca9c", "fusion_lon": 0.0}, {"is_reserved": 0, "type": "electric_scooter", "bike_id": "d83aa7c61143a37744f9d6c5676185fd", "lat": 38.8924735, "lon": -77.01345016666667, "rental_uris": {"android": "https://dc.lft.to/lastmile_qr_scan", "ios": "https://dc.lft.to/lastmile_qr_scan"}, "is_disabled": 0, "fusion_lat": 0.0, "name": "d83aa7c61143a37744f9d6c5676185fd", "fusion_lon": 0.0}, {"is_reserved": 0, "type": "electric_scooter", "bike_id": "48bf9f696ea38ed2bab743ce6d124e08", "lat": 38.919028, "lon": -77.048192, "rental_uris": {"android": "https://dc.lft.to/lastmile_qr_scan", "ios": "https://dc.lft.to/lastmile_qr_scan"}, "is_disabled": 0, "fusion_lat": 0.0, "name": "48bf9f696ea38ed2bab743ce6d124e08", "fusion_lon": 0.0}, {"is_reserved": 0, "type": "electric_scooter", "bike_id": "4349cf1e815e4eacb3abd79a191619eb", "lat": 38.92437833333334, "lon": -77.0007165, "rental_uris": {"android": "https://dc.lft.to/lastmile_qr_scan", "ios": "https://dc.lft.to/lastmile_qr_scan"}, "is_disabled": 0, "fusion_lat": 0.0, "name": "4349cf1e815e4eacb3abd79a191619eb", "fusion_lon": 0.0}, {"is_reserved": 0, "type": "electric_scooter", "bike_id": "a624efadcb845197cb5e7d632b5ddeca", "lat": 38.900213666666666, "lon": -76.99876783333333, "rental_uris": {"android": "https://dc.lft.to/lastmile_qr_scan", "ios": "https://dc.lft.to/lastmile_qr_scan"}, "is_disabled": 0, "fusion_lat": 0.0, "name": "a624efadcb845197cb5e7d632b5ddeca", "fusion_lon": 0.0}, {"is_reserved": 0, "type": "electric_scooter", "bike_id": "9c240cb4a9d8fcc0e5067526b786680e", "lat": 38.91607033333333, "lon": -77.03734733333333, "rental_uris": {"android": "https://dc.lft.to/lastmile_qr_scan", "ios": "https://dc.lft.to/lastmile_qr_scan"}, "is_disabled": 0, "fusion_lat": 0.0, "name": "9c240cb4a9d8fcc0e5067526b786680e", "fusion_lon": 0.0}, {"is_reserved": 0, "type": "electric_bike", "bike_id": "3d505fc8a12aa018c3907107a4cb5c2e", "lat": 38.94475816666667, "lon": -76.98692383333334, "rental_uris": {"android": "https://dc.lft.to/lastmile_qr_scan", "ios": "https://dc.lft.to/lastmile_qr_scan"}, "is_disabled": 0, "fusion_lat": 0.0, "name": "3d505fc8a12aa018c3907107a4cb5c2e", "fusion_lon": 0.0}, {"is_reserved": 0, "type": "electric_scooter", "bike_id": "e48d2c51234b78bbe64e3174b85d14d3", "lat": 38.877943333333334, "lon": -77.01767116666667, "rental_uris": {"android": "https://dc.lft.to/lastmile_qr_scan", "ios": "https://dc.lft.to/lastmile_qr_scan"}, "is_disabled": 0, "fusion_lat": 0.0, "name": "e48d2c51234b78bbe64e3174b85d14d3", "fusion_lon": 0.0}, {"is_reserved": 0, "type": "electric_scooter", "bike_id": "86886a01f20ee0168c7b670804276cae", "lat": 38.880261, "lon": -77.02462766666666, "rental_uris": {"android": "https://dc.lft.to/lastmile_qr_scan", "ios": "https://dc.lft.to/lastmile_qr_scan"}, "is_disabled": 0, "fusion_lat": 0.0, "name": "86886a01f20ee0168c7b670804276cae", "fusion_lon": 0.0}, {"is_reserved": 0, "type": "electric_scooter", "bike_id": "5be1740f3d3280ffb623ef7c702526b2", "lat": 38.95188983333333, "lon": -77.02931333333333, "rental_uris": {"android": "https://dc.lft.to/lastmile_qr_scan", "ios": "https://dc.lft.to/lastmile_qr_scan"}, "is_disabled": 0, "fusion_lat": 0.0, "name": "5be1740f3d3280ffb623ef7c702526b2", "fusion_lon": 0.0}, {"is_reserved": 0, "type": "electric_scooter", "bike_id": "f3874f6af1f6fb3d2e8489224a4a7642", "lat": 38.91416566666667, "lon": -77.018807, "rental_uris": {"android": "https://dc.lft.to/lastmile_qr_scan", "ios": "https://dc.lft.to/lastmile_qr_scan"}, "is_disabled": 0, "fusion_lat": 0.0, "name": "f3874f6af1f6fb3d2e8489224a4a7642", "fusion_lon": 0.0}, {"is_reserved": 0, "type": "electric_scooter", "bike_id": "c12b805df19fd83969a2abcbb557c777", "lat": 38.87620166666667, "lon": -77.00611566666667, "rental_uris": {"android": "https://dc.lft.to/lastmile_qr_scan", "ios": "https://dc.lft.to/lastmile_qr_scan"}, "is_disabled": 0, "fusion_lat": 0.0, "name": "c12b805df19fd83969a2abcbb557c777", "fusion_lon": 0.0}, {"is_reserved": 0, "type": "electric_scooter", "bike_id": "db5fc4839d1c234a386bd41821780741", "lat": 38.93020833333333, "lon": -77.0233205, "rental_uris": {"android": "https://dc.lft.to/lastmile_qr_scan", "ios": "https://dc.lft.to/lastmile_qr_scan"}, "is_disabled": 0, "fusion_lat": 0.0, "name": "db5fc4839d1c234a386bd41821780741", "fusion_lon": 0.0}, {"is_reserved": 0, "type": "electric_scooter", "bike_id": "a86ebe2091f656eedf7a9f19f87b05ca", "lat": 38.91189716666667, "lon": -77.02388283333333, "rental_uris": {"android": "https://dc.lft.to/lastmile_qr_scan", "ios": "https://dc.lft.to/lastmile_qr_scan"}, "is_disabled": 0, "fusion_lat": 0.0, "name": "a86ebe2091f656eedf7a9f19f87b05ca", "fusion_lon": 0.0}, {"is_reserved": 0, "type": "electric_scooter", "bike_id": "fb6ed3d28c4c4a73553d3ca429534aa0", "lat": 38.89561533333333, "lon": -77.0395845, "rental_uris": {"android": "https://dc.lft.to/lastmile_qr_scan", "ios": "https://dc.lft.to/lastmile_qr_scan"}, "is_disabled": 0, "fusion_lat": 0.0, "name": "fb6ed3d28c4c4a73553d3ca429534aa0", "fusion_lon": 0.0}, {"is_reserved": 0, "type": "electric_scooter", "bike_id": "a8a84518ae39cfbb6e98e8369b272bff", "lat": 38.91117116666667, "lon": -77.01903416666667, "rental_uris": {"android": "https://dc.lft.to/lastmile_qr_scan", "ios": "https://dc.lft.to/lastmile_qr_scan"}, "is_disabled": 0, "fusion_lat": 0.0, "name": "a8a84518ae39cfbb6e98e8369b272bff", "fusion_lon": 0.0}, {"is_reserved": 0, "type": "electric_scooter", "bike_id": "a24bbbe17389aa167a700c75ab75eaf8", "lat": 38.92572716666667, "lon": -77.0228535, "rental_uris": {"android": "https://dc.lft.to/lastmile_qr_scan", "ios": "https://dc.lft.to/lastmile_qr_scan"}, "is_disabled": 0, "fusion_lat": 0.0, "name": "a24bbbe17389aa167a700c75ab75eaf8", "fusion_lon": 0.0}, {"is_reserved": 0, "type": "electric_scooter", "bike_id": "a849784908ab64c45960296782a30b5b", "lat": 38.92608333333333, "lon": -77.02419633333334, "rental_uris": {"android": "https://dc.lft.to/lastmile_qr_scan", "ios": "https://dc.lft.to/lastmile_qr_scan"}, "is_disabled": 0, "fusion_lat": 0.0, "name": "a849784908ab64c45960296782a30b5b", "fusion_lon": 0.0}, {"is_reserved": 0, "type": "electric_scooter", "bike_id": "e0473a9ae9ad31dc625b047ec23fdaf9", "lat": 38.91679416666667, "lon": -77.02394083333333, "rental_uris": {"android": "https://dc.lft.to/lastmile_qr_scan", "ios": "https://dc.lft.to/lastmile_qr_scan"}, "is_disabled": 0, "fusion_lat": 0.0, "name": "e0473a9ae9ad31dc625b047ec23fdaf9", "fusion_lon": 0.0}, {"is_reserved": 0, "type": "electric_bike", "bike_id": "80fc6528a0fe74511b8ea1175386d80a", "lat": 38.9359785, "lon": -77.02126833333334, "rental_uris": {"android": "https://dc.lft.to/lastmile_qr_scan", "ios": "https://dc.lft.to/lastmile_qr_scan"}, "is_disabled": 0, "fusion_lat": 0.0, "name": "80fc6528a0fe74511b8ea1175386d80a", "fusion_lon": 0.0}, {"is_reserved": 0, "type": "electric_scooter", "bike_id": "e8cf32ad7dc0a2daf684ff21bf35c1af", "lat": 38.86095516666666, "lon": -76.98115083333333, "rental_uris": {"android": "https://dc.lft.to/lastmile_qr_scan", "ios": "https://dc.lft.to/lastmile_qr_scan"}, "is_disabled": 0, "fusion_lat": 0.0, "name": "e8cf32ad7dc0a2daf684ff21bf35c1af", "fusion_lon": 0.0}, {"is_reserved": 0, "type": "electric_scooter", "bike_id": "06c0ebb71d64abde359373d0e82f2abf", "lat": 38.907756166666665, "lon": -77.04513666666666, "rental_uris": {"android": "https://dc.lft.to/lastmile_qr_scan", "ios": "https://dc.lft.to/lastmile_qr_scan"}, "is_disabled": 0, "fusion_lat": 0.0, "name": "06c0ebb71d64abde359373d0e82f2abf", "fusion_lon": 0.0}, {"is_reserved": 0, "type": "electric_scooter", "bike_id": "5706a43c1438a23e82ac53eb33071766", "lat": 38.89811, "lon": -77.02962483333333, "rental_uris": {"android": "https://dc.lft.to/lastmile_qr_scan", "ios": "https://dc.lft.to/lastmile_qr_scan"}, "is_disabled": 0, "fusion_lat": 0.0, "name": "5706a43c1438a23e82ac53eb33071766", "fusion_lon": 0.0}, {"is_reserved": 0, "type": "electric_scooter", "bike_id": "2aaea3057bf71266351c777f9d3765cb", "lat": 38.9271545, "lon": -77.02099533333333, "rental_uris": {"android": "https://dc.lft.to/lastmile_qr_scan", "ios": "https://dc.lft.to/lastmile_qr_scan"}, "is_disabled": 0, "fusion_lat": 0.0, "name": "2aaea3057bf71266351c777f9d3765cb", "fusion_lon": 0.0}, {"is_reserved": 0, "type": "electric_bike", "bike_id": "3240f950a66f0b3edd644a4f3e0ea81b", "lat": 38.944949666666666, "lon": -77.0068545, "rental_uris": {"android": "https://dc.lft.to/lastmile_qr_scan", "ios": "https://dc.lft.to/lastmile_qr_scan"}, "is_disabled": 0, "fusion_lat": 0.0, "name": "3240f950a66f0b3edd644a4f3e0ea81b", "fusion_lon": 0.0}, {"is_reserved": 0, "type": "electric_bike", "bike_id": "350bc787a6d56acaef48a02f7c7489dd", "lat": 38.823392166666665, "lon": -77.0582265, "rental_uris": {"android": "https://dc.lft.to/lastmile_qr_scan", "ios": "https://dc.lft.to/lastmile_qr_scan"}, "is_disabled": 0, "fusion_lat": 0.0, "name": "350bc787a6d56acaef48a02f7c7489dd", "fusion_lon": 0.0}, {"is_reserved": 0, "type": "electric_scooter", "bike_id": "c0175d346e989d906345b414e007126d", "lat": 38.9111755, "lon": -77.021928, "rental_uris": {"android": "https://dc.lft.to/lastmile_qr_scan", "ios": "https://dc.lft.to/lastmile_qr_scan"}, "is_disabled": 0, "fusion_lat": 0.0, "name": "c0175d346e989d906345b414e007126d", "fusion_lon": 0.0}, {"is_reserved": 0, "type": "electric_bike", "bike_id": "cb81a2ecc3214504bdcbb90a69e2f7d3", "lat": 38.88392233333333, "lon": -76.95452383333334, "rental_uris": {"android": "https://dc.lft.to/lastmile_qr_scan", "ios": "https://dc.lft.to/lastmile_qr_scan"}, "is_disabled": 0, "fusion_lat": 0.0, "name": "cb81a2ecc3214504bdcbb90a69e2f7d3", "fusion_lon": 0.0}, {"is_reserved": 0, "type": "electric_scooter", "bike_id": "6329f45fa44ca2202d2d19a14c27fa9b", "lat": 38.9051365, "lon": -77.02614483333333, "rental_uris": {"android": "https://dc.lft.to/lastmile_qr_scan", "ios": "https://dc.lft.to/lastmile_qr_scan"}, "is_disabled": 0, "fusion_lat": 0.0, "name": "6329f45fa44ca2202d2d19a14c27fa9b", "fusion_lon": 0.0}, {"is_reserved": 0, "type": "electric_scooter", "bike_id": "bb130ae284b8d7051664cc5c4e8235dc", "lat": 38.898722166666666, "lon": -77.03947283333333, "rental_uris": {"android": "https://dc.lft.to/lastmile_qr_scan", "ios": "https://dc.lft.to/lastmile_qr_scan"}, "is_disabled": 0, "fusion_lat": 0.0, "name": "bb130ae284b8d7051664cc5c4e8235dc", "fusion_lon": 0.0}, {"is_reserved": 0, "type": "electric_scooter", "bike_id": "7d2dad08016fa64170af83a97d8604d4", "lat": 38.918225, "lon": -77.02298866666666, "rental_uris": {"android": "https://dc.lft.to/lastmile_qr_scan", "ios": "https://dc.lft.to/lastmile_qr_scan"}, "is_disabled": 0, "fusion_lat": 0.0, "name": "7d2dad08016fa64170af83a97d8604d4", "fusion_lon": 0.0}, {"is_reserved": 0, "type": "electric_scooter", "bike_id": "6457a63a3cfb233d881cf5efd7be2e6c", "lat": 38.944952666666666, "lon": -77.00740966666666, "rental_uris": {"android": "https://dc.lft.to/lastmile_qr_scan", "ios": "https://dc.lft.to/lastmile_qr_scan"}, "is_disabled": 0, "fusion_lat": 0.0, "name": "6457a63a3cfb233d881cf5efd7be2e6c", "fusion_lon": 0.0}, {"is_reserved": 0, "type": "electric_bike", "bike_id": "3e4fe53faed81a5abba3ef0b9305f56c", "lat": 38.83234066666667, "lon": -76.94623166666666, "rental_uris": {"android": "https://dc.lft.to/lastmile_qr_scan", "ios": "https://dc.lft.to/lastmile_qr_scan"}, "is_disabled": 0, "fusion_lat": 0.0, "name": "3e4fe53faed81a5abba3ef0b9305f56c", "fusion_lon": 0.0}, {"is_reserved": 0, "type": "electric_scooter", "bike_id": "6fbb9fc41f05fd88b7f88920a70b6c87", "lat": 38.9048625, "lon": -77.04185, "rental_uris": {"android": "https://dc.lft.to/lastmile_qr_scan", "ios": "https://dc.lft.to/lastmile_qr_scan"}, "is_disabled": 0, "fusion_lat": 0.0, "name": "6fbb9fc41f05fd88b7f88920a70b6c87", "fusion_lon": 0.0}, {"is_reserved": 0, "type": "electric_scooter", "bike_id": "de53d9465ca6490fe129b5e1e5cf964e", "lat": 38.933607, "lon": -77.024213, "rental_uris": {"android": "https://dc.lft.to/lastmile_qr_scan", "ios": "https://dc.lft.to/lastmile_qr_scan"}, "is_disabled": 0, "fusion_lat": 0.0, "name": "de53d9465ca6490fe129b5e1e5cf964e", "fusion_lon": 0.0}, {"is_reserved": 0, "type": "electric_scooter", "bike_id": "071963409dcc1547fefd44edb54c4224", "lat": 38.9562815, "lon": -77.027856, "rental_uris": {"android": "https://dc.lft.to/lastmile_qr_scan", "ios": "https://dc.lft.to/lastmile_qr_scan"}, "is_disabled": 0, "fusion_lat": 0.0, "name": "071963409dcc1547fefd44edb54c4224", "fusion_lon": 0.0}, {"is_reserved": 0, "type": "electric_scooter", "bike_id": "58d4e6f21d16dd23071b412a76537dab", "lat": 38.918048166666665, "lon": -77.0330245, "rental_uris": {"android": "https://dc.lft.to/lastmile_qr_scan", "ios": "https://dc.lft.to/lastmile_qr_scan"}, "is_disabled": 0, "fusion_lat": 0.0, "name": "58d4e6f21d16dd23071b412a76537dab", "fusion_lon": 0.0}, {"is_reserved": 0, "type": "electric_scooter", "bike_id": "568de222f48fe50e38856e53b3cc94da", "lat": 38.89199216666667, "lon": -77.032197, "rental_uris": {"android": "https://dc.lft.to/lastmile_qr_scan", "ios": "https://dc.lft.to/lastmile_qr_scan"}, "is_disabled": 0, "fusion_lat": 0.0, "name": "568de222f48fe50e38856e53b3cc94da", "fusion_lon": 0.0}, {"is_reserved": 0, "type": "electric_scooter", "bike_id": "a12ea3fc9ee230fd094c7b499f6abf93", "lat": 38.924549666666664, "lon": -77.04410283333333, "rental_uris": {"android": "https://dc.lft.to/lastmile_qr_scan", "ios": "https://dc.lft.to/lastmile_qr_scan"}, "is_disabled": 0, "fusion_lat": 0.0, "name": "a12ea3fc9ee230fd094c7b499f6abf93", "fusion_lon": 0.0}, {"is_reserved": 0, "type": "electric_scooter", "bike_id": "d481f906e432a99abdae3cd19a83ae30", "lat": 38.93557466666667, "lon": -77.02214466666666, "rental_uris": {"android": "https://dc.lft.to/lastmile_qr_scan", "ios": "https://dc.lft.to/lastmile_qr_scan"}, "is_disabled": 0, "fusion_lat": 0.0, "name": "d481f906e432a99abdae3cd19a83ae30", "fusion_lon": 0.0}, {"is_reserved": 0, "type": "electric_scooter", "bike_id": "8722d82e6a13cda76509fd77d2de9b2a", "lat": 38.9223775, "lon": -77.04143283333333, "rental_uris": {"android": "https://dc.lft.to/lastmile_qr_scan", "ios": "https://dc.lft.to/lastmile_qr_scan"}, "is_disabled": 0, "fusion_lat": 0.0, "name": "8722d82e6a13cda76509fd77d2de9b2a", "fusion_lon": 0.0}, {"is_reserved": 0, "type": "electric_scooter", "bike_id": "9c1acb387f0fdc66143e0d822523f9f8", "lat": 38.90854266666667, "lon": -77.02358883333333, "rental_uris": {"android": "https://dc.lft.to/lastmile_qr_scan", "ios": "https://dc.lft.to/lastmile_qr_scan"}, "is_disabled": 0, "fusion_lat": 0.0, "name": "9c1acb387f0fdc66143e0d822523f9f8", "fusion_lon": 0.0}, {"is_reserved": 0, "type": "electric_scooter", "bike_id": "19a199d7d80e0a177aef98671f657984", "lat": 38.91700266666667, "lon": -77.0289605, "rental_uris": {"android": "https://dc.lft.to/lastmile_qr_scan", "ios": "https://dc.lft.to/lastmile_qr_scan"}, "is_disabled": 0, "fusion_lat": 0.0, "name": "19a199d7d80e0a177aef98671f657984", "fusion_lon": 0.0}, {"is_reserved": 0, "type": "electric_scooter", "bike_id": "a97f22d6e7121d0d377cba679d87a16c", "lat": 38.8757395, "lon": -77.01999316666667, "rental_uris": {"android": "https://dc.lft.to/lastmile_qr_scan", "ios": "https://dc.lft.to/lastmile_qr_scan"}, "is_disabled": 0, "fusion_lat": 0.0, "name": "a97f22d6e7121d0d377cba679d87a16c", "fusion_lon": 0.0}, {"is_reserved": 0, "type": "electric_scooter", "bike_id": "76b8dce649aee6d5ad6bb520a0e56497", "lat": 38.93359266666667, "lon": -77.0572175, "rental_uris": {"android": "https://dc.lft.to/lastmile_qr_scan", "ios": "https://dc.lft.to/lastmile_qr_scan"}, "is_disabled": 0, "fusion_lat": 0.0, "name": "76b8dce649aee6d5ad6bb520a0e56497", "fusion_lon": 0.0}, {"is_reserved": 0, "type": "electric_scooter", "bike_id": "28c601abc5e953dd0ea46286d66afbb5", "lat": 38.911233, "lon": -77.02196183333334, "rental_uris": {"android": "https://dc.lft.to/lastmile_qr_scan", "ios": "https://dc.lft.to/lastmile_qr_scan"}, "is_disabled": 0, "fusion_lat": 0.0, "name": "28c601abc5e953dd0ea46286d66afbb5", "fusion_lon": 0.0}, {"is_reserved": 0, "type": "electric_scooter", "bike_id": "f67d37891be8515ecf58443573e97597", "lat": 38.924486, "lon": -77.021655, "rental_uris": {"android": "https://dc.lft.to/lastmile_qr_scan", "ios": "https://dc.lft.to/lastmile_qr_scan"}, "is_disabled": 0, "fusion_lat": 0.0, "name": "f67d37891be8515ecf58443573e97597", "fusion_lon": 0.0}, {"is_reserved": 0, "type": "electric_scooter", "bike_id": "96da11bfd12b68fe0e5588dac4bdf89b", "lat": 38.9395595, "lon": -77.02759533333334, "rental_uris": {"android": "https://dc.lft.to/lastmile_qr_scan", "ios": "https://dc.lft.to/lastmile_qr_scan"}, "is_disabled": 0, "fusion_lat": 0.0, "name": "96da11bfd12b68fe0e5588dac4bdf89b", "fusion_lon": 0.0}, {"is_reserved": 0, "type": "electric_scooter", "bike_id": "354c00cfe864c9707f6784c3c956d4ae", "lat": 38.924215833333335, "lon": -77.01973333333333, "rental_uris": {"android": "https://dc.lft.to/lastmile_qr_scan", "ios": "https://dc.lft.to/lastmile_qr_scan"}, "is_disabled": 0, "fusion_lat": 0.0, "name": "354c00cfe864c9707f6784c3c956d4ae", "fusion_lon": 0.0}, {"is_reserved": 0, "type": "electric_scooter", "bike_id": "961015602c0edea34660eb1cd432a5e5", "lat": 38.919639833333335, "lon": -77.022273, "rental_uris": {"android": "https://dc.lft.to/lastmile_qr_scan", "ios": "https://dc.lft.to/lastmile_qr_scan"}, "is_disabled": 0, "fusion_lat": 0.0, "name": "961015602c0edea34660eb1cd432a5e5", "fusion_lon": 0.0}, {"is_reserved": 0, "type": "electric_scooter", "bike_id": "3515488469973ca44180c1a236b54d1d", "lat": 38.9254895, "lon": -77.032356, "rental_uris": {"android": "https://dc.lft.to/lastmile_qr_scan", "ios": "https://dc.lft.to/lastmile_qr_scan"}, "is_disabled": 0, "fusion_lat": 0.0, "name": "3515488469973ca44180c1a236b54d1d", "fusion_lon": 0.0}, {"is_reserved": 0, "type": "electric_scooter", "bike_id": "d582406cc4772b8446bd9b490dde96cf", "lat": 38.90800933333333, "lon": -77.04231166666666, "rental_uris": {"android": "https://dc.lft.to/lastmile_qr_scan", "ios": "https://dc.lft.to/lastmile_qr_scan"}, "is_disabled": 0, "fusion_lat": 0.0, "name": "d582406cc4772b8446bd9b490dde96cf", "fusion_lon": 0.0}, {"is_reserved": 0, "type": "electric_scooter", "bike_id": "4545096db04984f1100c1bf59c223f20", "lat": 38.91493783333333, "lon": -77.02001066666666, "rental_uris": {"android": "https://dc.lft.to/lastmile_qr_scan", "ios": "https://dc.lft.to/lastmile_qr_scan"}, "is_disabled": 0, "fusion_lat": 0.0, "name": "4545096db04984f1100c1bf59c223f20", "fusion_lon": 0.0}, {"is_reserved": 0, "type": "electric_scooter", "bike_id": "80bc49a754748e0c166ca5b03fac58f6", "lat": 38.92325683333333, "lon": -77.0297375, "rental_uris": {"android": "https://dc.lft.to/lastmile_qr_scan", "ios": "https://dc.lft.to/lastmile_qr_scan"}, "is_disabled": 0, "fusion_lat": 0.0, "name": "80bc49a754748e0c166ca5b03fac58f6", "fusion_lon": 0.0}, {"is_reserved": 0, "type": "electric_scooter", "bike_id": "1a23576772bf7ff8df8f38271e6ea9c0", "lat": 38.91187816666667, "lon": -77.00551916666667, "rental_uris": {"android": "https://dc.lft.to/lastmile_qr_scan", "ios": "https://dc.lft.to/lastmile_qr_scan"}, "is_disabled": 0, "fusion_lat": 0.0, "name": "1a23576772bf7ff8df8f38271e6ea9c0", "fusion_lon": 0.0}, {"is_reserved": 0, "type": "electric_scooter", "bike_id": "24c3b1b2f2a183d2554af473c5d99a69", "lat": 38.89699433333333, "lon": -77.0502755, "rental_uris": {"android": "https://dc.lft.to/lastmile_qr_scan", "ios": "https://dc.lft.to/lastmile_qr_scan"}, "is_disabled": 0, "fusion_lat": 0.0, "name": "24c3b1b2f2a183d2554af473c5d99a69", "fusion_lon": 0.0}, {"is_reserved": 0, "type": "electric_bike", "bike_id": "5616412938c598c4402cf3d5ae091927", "lat": 38.91708916666666, "lon": -77.05722433333334, "rental_uris": {"android": "https://dc.lft.to/lastmile_qr_scan", "ios": "https://dc.lft.to/lastmile_qr_scan"}, "is_disabled": 0, "fusion_lat": 0.0, "name": "5616412938c598c4402cf3d5ae091927", "fusion_lon": 0.0}, {"is_reserved": 0, "type": "electric_scooter", "bike_id": "805423a2a55e76d2654687f0d7b2df97", "lat": 38.9167705, "lon": -77.03465083333333, "rental_uris": {"android": "https://dc.lft.to/lastmile_qr_scan", "ios": "https://dc.lft.to/lastmile_qr_scan"}, "is_disabled": 0, "fusion_lat": 0.0, "name": "805423a2a55e76d2654687f0d7b2df97", "fusion_lon": 0.0}, {"is_reserved": 0, "type": "electric_scooter", "bike_id": "7b629b8397e44f72f991759382c5fe0c", "lat": 38.89803033333333, "lon": -77.02209333333333, "rental_uris": {"android": "https://dc.lft.to/lastmile_qr_scan", "ios": "https://dc.lft.to/lastmile_qr_scan"}, "is_disabled": 0, "fusion_lat": 0.0, "name": "7b629b8397e44f72f991759382c5fe0c", "fusion_lon": 0.0}, {"is_reserved": 0, "type": "electric_scooter", "bike_id": "1436e096cfc9165f92f6a5ec2b2cbc9d", "lat": 38.8959875, "lon": -76.92990933333333, "rental_uris": {"android": "https://dc.lft.to/lastmile_qr_scan", "ios": "https://dc.lft.to/lastmile_qr_scan"}, "is_disabled": 0, "fusion_lat": 0.0, "name": "1436e096cfc9165f92f6a5ec2b2cbc9d", "fusion_lon": 0.0}, {"is_reserved": 0, "type": "electric_scooter", "bike_id": "369b5dc98220c4cf1a091e1e5484f916", "lat": 38.970019666666666, "lon": -77.0091005, "rental_uris": {"android": "https://dc.lft.to/lastmile_qr_scan", "ios": "https://dc.lft.to/lastmile_qr_scan"}, "is_disabled": 0, "fusion_lat": 0.0, "name": "369b5dc98220c4cf1a091e1e5484f916", "fusion_lon": 0.0}, {"is_reserved": 0, "type": "electric_scooter", "bike_id": "ef71ff48e3c0bbe81b26e232ed6b0dfc", "lat": 38.957571333333334, "lon": -77.02104216666666, "rental_uris": {"android": "https://dc.lft.to/lastmile_qr_scan", "ios": "https://dc.lft.to/lastmile_qr_scan"}, "is_disabled": 0, "fusion_lat": 0.0, "name": "ef71ff48e3c0bbe81b26e232ed6b0dfc", "fusion_lon": 0.0}, {"is_reserved": 0, "type": "electric_scooter", "bike_id": "a6a8979c2b354e7c4b37204df12efaf9", "lat": 38.905543333333334, "lon": -77.03253233333334, "rental_uris": {"android": "https://dc.lft.to/lastmile_qr_scan", "ios": "https://dc.lft.to/lastmile_qr_scan"}, "is_disabled": 0, "fusion_lat": 0.0, "name": "a6a8979c2b354e7c4b37204df12efaf9", "fusion_lon": 0.0}, {"is_reserved": 0, "type": "electric_scooter", "bike_id": "010a5358a09be640efa3ccd5528eef6e", "lat": 38.892199166666664, "lon": -77.0242035, "rental_uris": {"android": "https://dc.lft.to/lastmile_qr_scan", "ios": "https://dc.lft.to/lastmile_qr_scan"}, "is_disabled": 0, "fusion_lat": 0.0, "name": "010a5358a09be640efa3ccd5528eef6e", "fusion_lon": 0.0}, {"is_reserved": 0, "type": "electric_scooter", "bike_id": "bb1b33f91cc8d4a642a6335c78ecb281", "lat": 38.876604666666665, "lon": -77.00812833333333, "rental_uris": {"android": "https://dc.lft.to/lastmile_qr_scan", "ios": "https://dc.lft.to/lastmile_qr_scan"}, "is_disabled": 0, "fusion_lat": 0.0, "name": "bb1b33f91cc8d4a642a6335c78ecb281", "fusion_lon": 0.0}, {"is_reserved": 0, "type": "electric_scooter", "bike_id": "978ea8f61e5b5c0b7b3f924f1d850e85", "lat": 38.9096545, "lon": -77.0228225, "rental_uris": {"android": "https://dc.lft.to/lastmile_qr_scan", "ios": "https://dc.lft.to/lastmile_qr_scan"}, "is_disabled": 0, "fusion_lat": 0.0, "name": "978ea8f61e5b5c0b7b3f924f1d850e85", "fusion_lon": 0.0}, {"is_reserved": 0, "type": "electric_scooter", "bike_id": "cfff18d5f067bfe9908c6c8bf894a1d0", "lat": 38.89521716666667, "lon": -77.03960416666666, "rental_uris": {"android": "https://dc.lft.to/lastmile_qr_scan", "ios": "https://dc.lft.to/lastmile_qr_scan"}, "is_disabled": 0, "fusion_lat": 0.0, "name": "cfff18d5f067bfe9908c6c8bf894a1d0", "fusion_lon": 0.0}, {"is_reserved": 0, "type": "electric_scooter", "bike_id": "7497a09c9399a66f0b0640ec87bfe37b", "lat": 38.923911333333336, "lon": -77.044566, "rental_uris": {"android": "https://dc.lft.to/lastmile_qr_scan", "ios": "https://dc.lft.to/lastmile_qr_scan"}, "is_disabled": 0, "fusion_lat": 0.0, "name": "7497a09c9399a66f0b0640ec87bfe37b", "fusion_lon": 0.0}, {"is_reserved": 0, "type": "electric_scooter", "bike_id": "ca4c77aca811ab782440fd80b901ca9b", "lat": 38.89827666666667, "lon": -77.03049133333333, "rental_uris": {"android": "https://dc.lft.to/lastmile_qr_scan", "ios": "https://dc.lft.to/lastmile_qr_scan"}, "is_disabled": 0, "fusion_lat": 0.0, "name": "ca4c77aca811ab782440fd80b901ca9b", "fusion_lon": 0.0}, {"is_reserved": 0, "type": "electric_scooter", "bike_id": "270832cf14ea66cc324cc2bb217f03ba", "lat": 38.90857833333333, "lon": -77.01023166666667, "rental_uris": {"android": "https://dc.lft.to/lastmile_qr_scan", "ios": "https://dc.lft.to/lastmile_qr_scan"}, "is_disabled": 0, "fusion_lat": 0.0, "name": "270832cf14ea66cc324cc2bb217f03ba", "fusion_lon": 0.0}, {"is_reserved": 0, "type": "electric_scooter", "bike_id": "ef1915c316f75c51e31a9055081c3b99", "lat": 38.9105005, "lon": -77.0409515, "rental_uris": {"android": "https://dc.lft.to/lastmile_qr_scan", "ios": "https://dc.lft.to/lastmile_qr_scan"}, "is_disabled": 0, "fusion_lat": 0.0, "name": "ef1915c316f75c51e31a9055081c3b99", "fusion_lon": 0.0}, {"is_reserved": 0, "type": "electric_scooter", "bike_id": "0e7c59a66fe12b51a408fb90d428243f", "lat": 38.916287, "lon": -77.04496116666667, "rental_uris": {"android": "https://dc.lft.to/lastmile_qr_scan", "ios": "https://dc.lft.to/lastmile_qr_scan"}, "is_disabled": 0, "fusion_lat": 0.0, "name": "0e7c59a66fe12b51a408fb90d428243f", "fusion_lon": 0.0}, {"is_reserved": 0, "type": "electric_scooter", "bike_id": "e3566231b5353e3fe7f7f13de1926769", "lat": 38.90412, "lon": -76.973315, "rental_uris": {"android": "https://dc.lft.to/lastmile_qr_scan", "ios": "https://dc.lft.to/lastmile_qr_scan"}, "is_disabled": 0, "fusion_lat": 0.0, "name": "e3566231b5353e3fe7f7f13de1926769", "fusion_lon": 0.0}, {"is_reserved": 0, "type": "electric_scooter", "bike_id": "f06a12ad527640ae0c9497979c4967c3", "lat": 38.920466, "lon": -77.01735883333333, "rental_uris": {"android": "https://dc.lft.to/lastmile_qr_scan", "ios": "https://dc.lft.to/lastmile_qr_scan"}, "is_disabled": 0, "fusion_lat": 0.0, "name": "f06a12ad527640ae0c9497979c4967c3", "fusion_lon": 0.0}, {"is_reserved": 0, "type": "electric_scooter", "bike_id": "032fa5f180c0899051c8c500bdb840a3", "lat": 38.9068655, "lon": -77.01543416666667, "rental_uris": {"android": "https://dc.lft.to/lastmile_qr_scan", "ios": "https://dc.lft.to/lastmile_qr_scan"}, "is_disabled": 0, "fusion_lat": 0.0, "name": "032fa5f180c0899051c8c500bdb840a3", "fusion_lon": 0.0}, {"is_reserved": 0, "type": "electric_scooter", "bike_id": "967c956172fd7c4120391ca715485632", "lat": 38.89963233333334, "lon": -77.04482, "rental_uris": {"android": "https://dc.lft.to/lastmile_qr_scan", "ios": "https://dc.lft.to/lastmile_qr_scan"}, "is_disabled": 0, "fusion_lat": 0.0, "name": "967c956172fd7c4120391ca715485632", "fusion_lon": 0.0}, {"is_reserved": 0, "type": "electric_scooter", "bike_id": "459a0ec66760242e1a383acd4384ffab", "lat": 38.87657266666667, "lon": -76.99323633333333, "rental_uris": {"android": "https://dc.lft.to/lastmile_qr_scan", "ios": "https://dc.lft.to/lastmile_qr_scan"}, "is_disabled": 0, "fusion_lat": 0.0, "name": "459a0ec66760242e1a383acd4384ffab", "fusion_lon": 0.0}, {"is_reserved": 0, "type": "electric_scooter", "bike_id": "224612c3cc1986e867fd4533ff393b3f", "lat": 38.919519666666666, "lon": -77.0249155, "rental_uris": {"android": "https://dc.lft.to/lastmile_qr_scan", "ios": "https://dc.lft.to/lastmile_qr_scan"}, "is_disabled": 0, "fusion_lat": 0.0, "name": "224612c3cc1986e867fd4533ff393b3f", "fusion_lon": 0.0}, {"is_reserved": 0, "type": "electric_scooter", "bike_id": "fd7ba5c380c1266aeb576b7e97bc9da1", "lat": 38.90593283333333, "lon": -77.01613416666666, "rental_uris": {"android": "https://dc.lft.to/lastmile_qr_scan", "ios": "https://dc.lft.to/lastmile_qr_scan"}, "is_disabled": 0, "fusion_lat": 0.0, "name": "fd7ba5c380c1266aeb576b7e97bc9da1", "fusion_lon": 0.0}, {"is_reserved": 0, "type": "electric_scooter", "bike_id": "d215fab22f8b5c14ccda04733df342ca", "lat": 38.899724, "lon": -77.02715516666666, "rental_uris": {"android": "https://dc.lft.to/lastmile_qr_scan", "ios": "https://dc.lft.to/lastmile_qr_scan"}, "is_disabled": 0, "fusion_lat": 0.0, "name": "d215fab22f8b5c14ccda04733df342ca", "fusion_lon": 0.0}, {"is_reserved": 0, "type": "electric_bike", "bike_id": "56379ae761df14d4b2ca3ff7e7b9e5fd", "lat": 38.8820765, "lon": -77.11168333333333, "rental_uris": {"android": "https://dc.lft.to/lastmile_qr_scan", "ios": "https://dc.lft.to/lastmile_qr_scan"}, "is_disabled": 0, "fusion_lat": 0.0, "name": "56379ae761df14d4b2ca3ff7e7b9e5fd", "fusion_lon": 0.0}, {"is_reserved": 0, "type": "electric_scooter", "bike_id": "1a4dc20aedc992a60473ce3ff884e7d3", "lat": 38.8729745, "lon": -77.0155775, "rental_uris": {"android": "https://dc.lft.to/lastmile_qr_scan", "ios": "https://dc.lft.to/lastmile_qr_scan"}, "is_disabled": 0, "fusion_lat": 0.0, "name": "1a4dc20aedc992a60473ce3ff884e7d3", "fusion_lon": 0.0}, {"is_reserved": 0, "type": "electric_scooter", "bike_id": "33ebd6706c66c571fcc063845fee2ea2", "lat": 38.9367035, "lon": -77.03699633333333, "rental_uris": {"android": "https://dc.lft.to/lastmile_qr_scan", "ios": "https://dc.lft.to/lastmile_qr_scan"}, "is_disabled": 0, "fusion_lat": 0.0, "name": "33ebd6706c66c571fcc063845fee2ea2", "fusion_lon": 0.0}, {"is_reserved": 0, "type": "electric_scooter", "bike_id": "f7e49d6008d79aecc1779c6f70229f3c", "lat": 38.887834, "lon": -76.97714466666666, "rental_uris": {"android": "https://dc.lft.to/lastmile_qr_scan", "ios": "https://dc.lft.to/lastmile_qr_scan"}, "is_disabled": 0, "fusion_lat": 0.0, "name": "f7e49d6008d79aecc1779c6f70229f3c", "fusion_lon": 0.0}, {"is_reserved": 0, "type": "electric_scooter", "bike_id": "26e0e5d8c810965ffa934e7e67eb887d", "lat": 38.9214655, "lon": -77.03877166666666, "rental_uris": {"android": "https://dc.lft.to/lastmile_qr_scan", "ios": "https://dc.lft.to/lastmile_qr_scan"}, "is_disabled": 0, "fusion_lat": 0.0, "name": "26e0e5d8c810965ffa934e7e67eb887d", "fusion_lon": 0.0}, {"is_reserved": 0, "type": "electric_scooter", "bike_id": "5dd5761722171ed7ab30c4deab637d33", "lat": 38.91314216666667, "lon": -77.01438683333333, "rental_uris": {"android": "https://dc.lft.to/lastmile_qr_scan", "ios": "https://dc.lft.to/lastmile_qr_scan"}, "is_disabled": 0, "fusion_lat": 0.0, "name": "5dd5761722171ed7ab30c4deab637d33", "fusion_lon": 0.0}, {"is_reserved": 0, "type": "electric_scooter", "bike_id": "cb2a6908aeb3868db7be393803a27af3", "lat": 38.918524, "lon": -77.04606283333334, "rental_uris": {"android": "https://dc.lft.to/lastmile_qr_scan", "ios": "https://dc.lft.to/lastmile_qr_scan"}, "is_disabled": 0, "fusion_lat": 0.0, "name": "cb2a6908aeb3868db7be393803a27af3", "fusion_lon": 0.0}, {"is_reserved": 0, "type": "electric_scooter", "bike_id": "9ab5c0e103e1bfc7a659e1bbe92cdb73", "lat": 38.887317833333334, "lon": -77.02210133333334, "rental_uris": {"android": "https://dc.lft.to/lastmile_qr_scan", "ios": "https://dc.lft.to/lastmile_qr_scan"}, "is_disabled": 0, "fusion_lat": 0.0, "name": "9ab5c0e103e1bfc7a659e1bbe92cdb73", "fusion_lon": 0.0}, {"is_reserved": 0, "type": "electric_scooter", "bike_id": "0a362e481080a2a8c34b5259f70bb836", "lat": 38.92424466666667, "lon": -77.05751483333333, "rental_uris": {"android": "https://dc.lft.to/lastmile_qr_scan", "ios": "https://dc.lft.to/lastmile_qr_scan"}, "is_disabled": 0, "fusion_lat": 0.0, "name": "0a362e481080a2a8c34b5259f70bb836", "fusion_lon": 0.0}, {"is_reserved": 0, "type": "electric_scooter", "bike_id": "70c301d78042c6087aa39e6fecec3b1c", "lat": 38.897458, "lon": -77.00367533333333, "rental_uris": {"android": "https://dc.lft.to/lastmile_qr_scan", "ios": "https://dc.lft.to/lastmile_qr_scan"}, "is_disabled": 0, "fusion_lat": 0.0, "name": "70c301d78042c6087aa39e6fecec3b1c", "fusion_lon": 0.0}, {"is_reserved": 0, "type": "electric_scooter", "bike_id": "6cba092c60248620cbc8a0460830d365", "lat": 38.91348033333333, "lon": -77.06420916666667, "rental_uris": {"android": "https://dc.lft.to/lastmile_qr_scan", "ios": "https://dc.lft.to/lastmile_qr_scan"}, "is_disabled": 0, "fusion_lat": 0.0, "name": "6cba092c60248620cbc8a0460830d365", "fusion_lon": 0.0}, {"is_reserved": 0, "type": "electric_scooter", "bike_id": "233a73397ee538e839701ed2a9382b75", "lat": 38.90088216666667, "lon": -77.0475065, "rental_uris": {"android": "https://dc.lft.to/lastmile_qr_scan", "ios": "https://dc.lft.to/lastmile_qr_scan"}, "is_disabled": 0, "fusion_lat": 0.0, "name": "233a73397ee538e839701ed2a9382b75", "fusion_lon": 0.0}, {"is_reserved": 0, "type": "electric_scooter", "bike_id": "6d45f4c1ba18ca697ef19297c7fc4a2f", "lat": 38.92531266666667, "lon": -77.02976116666666, "rental_uris": {"android": "https://dc.lft.to/lastmile_qr_scan", "ios": "https://dc.lft.to/lastmile_qr_scan"}, "is_disabled": 0, "fusion_lat": 0.0, "name": "6d45f4c1ba18ca697ef19297c7fc4a2f", "fusion_lon": 0.0}, {"is_reserved": 0, "type": "electric_scooter", "bike_id": "cc001bed7ef4d6d3f38cfd4dbf39d683", "lat": 38.915642166666665, "lon": -77.02117083333333, "rental_uris": {"android": "https://dc.lft.to/lastmile_qr_scan", "ios": "https://dc.lft.to/lastmile_qr_scan"}, "is_disabled": 0, "fusion_lat": 0.0, "name": "cc001bed7ef4d6d3f38cfd4dbf39d683", "fusion_lon": 0.0}, {"is_reserved": 0, "type": "electric_scooter", "bike_id": "39a82b6aeb52a2092238a5bc7d68f89f", "lat": 38.932106166666664, "lon": -77.037483, "rental_uris": {"android": "https://dc.lft.to/lastmile_qr_scan", "ios": "https://dc.lft.to/lastmile_qr_scan"}, "is_disabled": 0, "fusion_lat": 0.0, "name": "39a82b6aeb52a2092238a5bc7d68f89f", "fusion_lon": 0.0}, {"is_reserved": 0, "type": "electric_bike", "bike_id": "db11d3bb64d873fb52efbe90c4db0f23", "lat": 38.97419433333334, "lon": -77.01255233333333, "rental_uris": {"android": "https://dc.lft.to/lastmile_qr_scan", "ios": "https://dc.lft.to/lastmile_qr_scan"}, "is_disabled": 0, "fusion_lat": 0.0, "name": "db11d3bb64d873fb52efbe90c4db0f23", "fusion_lon": 0.0}, {"is_reserved": 0, "type": "electric_scooter", "bike_id": "273c1bd194c0bdbe7f80ac80e92c8dd9", "lat": 38.923747, "lon": -77.04318616666667, "rental_uris": {"android": "https://dc.lft.to/lastmile_qr_scan", "ios": "https://dc.lft.to/lastmile_qr_scan"}, "is_disabled": 0, "fusion_lat": 0.0, "name": "273c1bd194c0bdbe7f80ac80e92c8dd9", "fusion_lon": 0.0}, {"is_reserved": 0, "type": "electric_scooter", "bike_id": "cea2feab1e83f6671a38e323b710dfd7", "lat": 38.91549216666667, "lon": -77.01224883333333, "rental_uris": {"android": "https://dc.lft.to/lastmile_qr_scan", "ios": "https://dc.lft.to/lastmile_qr_scan"}, "is_disabled": 0, "fusion_lat": 0.0, "name": "cea2feab1e83f6671a38e323b710dfd7", "fusion_lon": 0.0}, {"is_reserved": 0, "type": "electric_scooter", "bike_id": "178fd487786da6d4163ba8c81df2a3d7", "lat": 38.84629533333333, "lon": -76.981231, "rental_uris": {"android": "https://dc.lft.to/lastmile_qr_scan", "ios": "https://dc.lft.to/lastmile_qr_scan"}, "is_disabled": 0, "fusion_lat": 0.0, "name": "178fd487786da6d4163ba8c81df2a3d7", "fusion_lon": 0.0}, {"is_reserved": 0, "type": "electric_scooter", "bike_id": "f60d7d1478bd9f4e4c3e3e5134d8c765", "lat": 38.928261, "lon": -77.05443416666667, "rental_uris": {"android": "https://dc.lft.to/lastmile_qr_scan", "ios": "https://dc.lft.to/lastmile_qr_scan"}, "is_disabled": 0, "fusion_lat": 0.0, "name": "f60d7d1478bd9f4e4c3e3e5134d8c765", "fusion_lon": 0.0}, {"is_reserved": 0, "type": "electric_scooter", "bike_id": "e253f4afbddc41b92c90043d6131b668", "lat": 38.918374, "lon": -77.01472583333333, "rental_uris": {"android": "https://dc.lft.to/lastmile_qr_scan", "ios": "https://dc.lft.to/lastmile_qr_scan"}, "is_disabled": 0, "fusion_lat": 0.0, "name": "e253f4afbddc41b92c90043d6131b668", "fusion_lon": 0.0}, {"is_reserved": 0, "type": "electric_scooter", "bike_id": "ca8c1659d8f6cf074aa50af1c739fd7e", "lat": 38.8994155, "lon": -76.97707566666666, "rental_uris": {"android": "https://dc.lft.to/lastmile_qr_scan", "ios": "https://dc.lft.to/lastmile_qr_scan"}, "is_disabled": 0, "fusion_lat": 0.0, "name": "ca8c1659d8f6cf074aa50af1c739fd7e", "fusion_lon": 0.0}, {"is_reserved": 0, "type": "electric_scooter", "bike_id": "7d08ffc198779441a413889b5540d4e7", "lat": 38.892283166666665, "lon": -77.043621, "rental_uris": {"android": "https://dc.lft.to/lastmile_qr_scan", "ios": "https://dc.lft.to/lastmile_qr_scan"}, "is_disabled": 0, "fusion_lat": 0.0, "name": "7d08ffc198779441a413889b5540d4e7", "fusion_lon": 0.0}, {"is_reserved": 0, "type": "electric_scooter", "bike_id": "8edb9036ae6d2a956b60cb9fd06bacb0", "lat": 38.953774, "lon": -77.00191566666666, "rental_uris": {"android": "https://dc.lft.to/lastmile_qr_scan", "ios": "https://dc.lft.to/lastmile_qr_scan"}, "is_disabled": 0, "fusion_lat": 0.0, "name": "8edb9036ae6d2a956b60cb9fd06bacb0", "fusion_lon": 0.0}, {"is_reserved": 0, "type": "electric_scooter", "bike_id": "ec26c7f2b04d980aabe4deb7e42ee64f", "lat": 38.936229, "lon": -77.02478066666667, "rental_uris": {"android": "https://dc.lft.to/lastmile_qr_scan", "ios": "https://dc.lft.to/lastmile_qr_scan"}, "is_disabled": 0, "fusion_lat": 0.0, "name": "ec26c7f2b04d980aabe4deb7e42ee64f", "fusion_lon": 0.0}, {"is_reserved": 0, "type": "electric_scooter", "bike_id": "754b6e63e3becb30adba7ee4c6f48a00", "lat": 38.905575666666664, "lon": -77.00599933333334, "rental_uris": {"android": "https://dc.lft.to/lastmile_qr_scan", "ios": "https://dc.lft.to/lastmile_qr_scan"}, "is_disabled": 0, "fusion_lat": 0.0, "name": "754b6e63e3becb30adba7ee4c6f48a00", "fusion_lon": 0.0}, {"is_reserved": 0, "type": "electric_scooter", "bike_id": "79ca288e6e5edbe8347b6ae78750463e", "lat": 38.89954016666667, "lon": -77.04758766666667, "rental_uris": {"android": "https://dc.lft.to/lastmile_qr_scan", "ios": "https://dc.lft.to/lastmile_qr_scan"}, "is_disabled": 0, "fusion_lat": 0.0, "name": "79ca288e6e5edbe8347b6ae78750463e", "fusion_lon": 0.0}, {"is_reserved": 0, "type": "electric_scooter", "bike_id": "fa5ed3778a4b47f4c62d61aaa3fa5fed", "lat": 38.9245935, "lon": -77.052314, "rental_uris": {"android": "https://dc.lft.to/lastmile_qr_scan", "ios": "https://dc.lft.to/lastmile_qr_scan"}, "is_disabled": 0, "fusion_lat": 0.0, "name": "fa5ed3778a4b47f4c62d61aaa3fa5fed", "fusion_lon": 0.0}, {"is_reserved": 0, "type": "electric_scooter", "bike_id": "600cd1bc92c9d6f980c0b4c735fa8673", "lat": 38.863736833333334, "lon": -76.9906345, "rental_uris": {"android": "https://dc.lft.to/lastmile_qr_scan", "ios": "https://dc.lft.to/lastmile_qr_scan"}, "is_disabled": 0, "fusion_lat": 0.0, "name": "600cd1bc92c9d6f980c0b4c735fa8673", "fusion_lon": 0.0}, {"is_reserved": 0, "type": "electric_scooter", "bike_id": "8d4816109b1255fc1828eaa3c6828b1a", "lat": 38.928240333333335, "lon": -77.054424, "rental_uris": {"android": "https://dc.lft.to/lastmile_qr_scan", "ios": "https://dc.lft.to/lastmile_qr_scan"}, "is_disabled": 0, "fusion_lat": 0.0, "name": "8d4816109b1255fc1828eaa3c6828b1a", "fusion_lon": 0.0}, {"is_reserved": 0, "type": "electric_scooter", "bike_id": "de0d83b9de24af89b028d5a55b3ebf64", "lat": 38.92750316666667, "lon": -77.03303766666667, "rental_uris": {"android": "https://dc.lft.to/lastmile_qr_scan", "ios": "https://dc.lft.to/lastmile_qr_scan"}, "is_disabled": 0, "fusion_lat": 0.0, "name": "de0d83b9de24af89b028d5a55b3ebf64", "fusion_lon": 0.0}, {"is_reserved": 0, "type": "electric_bike", "bike_id": "f3f71c7e7f571001dfb96efe61fe2c0b", "lat": 39.000306333333334, "lon": -77.04743016666667, "rental_uris": {"android": "https://dc.lft.to/lastmile_qr_scan", "ios": "https://dc.lft.to/lastmile_qr_scan"}, "is_disabled": 0, "fusion_lat": 0.0, "name": "f3f71c7e7f571001dfb96efe61fe2c0b", "fusion_lon": 0.0}, {"is_reserved": 0, "type": "electric_scooter", "bike_id": "6e5958d6808404764da8dadc7fc482ed", "lat": 38.91407133333333, "lon": -77.03262116666667, "rental_uris": {"android": "https://dc.lft.to/lastmile_qr_scan", "ios": "https://dc.lft.to/lastmile_qr_scan"}, "is_disabled": 0, "fusion_lat": 0.0, "name": "6e5958d6808404764da8dadc7fc482ed", "fusion_lon": 0.0}, {"is_reserved": 0, "type": "electric_scooter", "bike_id": "8078ccdd8a632a5bf206d0c3b82ad863", "lat": 38.91385316666667, "lon": -77.026097, "rental_uris": {"android": "https://dc.lft.to/lastmile_qr_scan", "ios": "https://dc.lft.to/lastmile_qr_scan"}, "is_disabled": 0, "fusion_lat": 0.0, "name": "8078ccdd8a632a5bf206d0c3b82ad863", "fusion_lon": 0.0}, {"is_reserved": 0, "type": "electric_bike", "bike_id": "20fad40c75808d2bdc641e66b1ef8e0b", "lat": 38.870401, "lon": -77.22907766666667, "rental_uris": {"android": "https://dc.lft.to/lastmile_qr_scan", "ios": "https://dc.lft.to/lastmile_qr_scan"}, "is_disabled": 0, "fusion_lat": 0.0, "name": "20fad40c75808d2bdc641e66b1ef8e0b", "fusion_lon": 0.0}, {"is_reserved": 0, "type": "electric_bike", "bike_id": "553cbe588971980b1af10eed745c69d3", "lat": 38.998871, "lon": -76.90861433333333, "rental_uris": {"android": "https://dc.lft.to/lastmile_qr_scan", "ios": "https://dc.lft.to/lastmile_qr_scan"}, "is_disabled": 0, "fusion_lat": 0.0, "name": "553cbe588971980b1af10eed745c69d3", "fusion_lon": 0.0}, {"is_reserved": 0, "type": "electric_scooter", "bike_id": "a4576c0c960ceaf8cf4301aa1b4498f4", "lat": 38.8942315, "lon": -76.99829133333333, "rental_uris": {"android": "https://dc.lft.to/lastmile_qr_scan", "ios": "https://dc.lft.to/lastmile_qr_scan"}, "is_disabled": 0, "fusion_lat": 0.0, "name": "a4576c0c960ceaf8cf4301aa1b4498f4", "fusion_lon": 0.0}, {"is_reserved": 0, "type": "electric_scooter", "bike_id": "d431885fa16b7bf304adb74c49cba448", "lat": 38.942258833333334, "lon": -77.02963333333334, "rental_uris": {"android": "https://dc.lft.to/lastmile_qr_scan", "ios": "https://dc.lft.to/lastmile_qr_scan"}, "is_disabled": 0, "fusion_lat": 0.0, "name": "d431885fa16b7bf304adb74c49cba448", "fusion_lon": 0.0}, {"is_reserved": 0, "type": "electric_scooter", "bike_id": "10855e91c86dae40e098aa9f0c486e16", "lat": 38.924548333333334, "lon": -77.0203915, "rental_uris": {"android": "https://dc.lft.to/lastmile_qr_scan", "ios": "https://dc.lft.to/lastmile_qr_scan"}, "is_disabled": 0, "fusion_lat": 0.0, "name": "10855e91c86dae40e098aa9f0c486e16", "fusion_lon": 0.0}, {"is_reserved": 0, "type": "electric_bike", "bike_id": "06623f2dc59468a8f34ba6b86a13b6fd", "lat": 38.964434, "lon": -77.03164583333333, "rental_uris": {"android": "https://dc.lft.to/lastmile_qr_scan", "ios": "https://dc.lft.to/lastmile_qr_scan"}, "is_disabled": 0, "fusion_lat": 0.0, "name": "06623f2dc59468a8f34ba6b86a13b6fd", "fusion_lon": 0.0}, {"is_reserved": 0, "type": "electric_bike", "bike_id": "0e2cb25662e3b723ef3309b906c627dc", "lat": 38.854380166666665, "lon": -77.083215, "rental_uris": {"android": "https://dc.lft.to/lastmile_qr_scan", "ios": "https://dc.lft.to/lastmile_qr_scan"}, "is_disabled": 0, "fusion_lat": 0.0, "name": "0e2cb25662e3b723ef3309b906c627dc", "fusion_lon": 0.0}, {"is_reserved": 0, "type": "electric_scooter", "bike_id": "500dad491fdd120536021e0e3fa01e55", "lat": 38.93115916666667, "lon": -77.02098583333333, "rental_uris": {"android": "https://dc.lft.to/lastmile_qr_scan", "ios": "https://dc.lft.to/lastmile_qr_scan"}, "is_disabled": 0, "fusion_lat": 0.0, "name": "500dad491fdd120536021e0e3fa01e55", "fusion_lon": 0.0}, {"is_reserved": 0, "type": "electric_scooter", "bike_id": "30097f273c24bc1753ede29f4d874831", "lat": 38.92417916666667, "lon": -77.01944916666666, "rental_uris": {"android": "https://dc.lft.to/lastmile_qr_scan", "ios": "https://dc.lft.to/lastmile_qr_scan"}, "is_disabled": 0, "fusion_lat": 0.0, "name": "30097f273c24bc1753ede29f4d874831", "fusion_lon": 0.0}, {"is_reserved": 0, "type": "electric_scooter", "bike_id": "3dc79338f0bf70f31b4def122ebfcfc0", "lat": 38.9008485, "lon": -77.0273985, "rental_uris": {"android": "https://dc.lft.to/lastmile_qr_scan", "ios": "https://dc.lft.to/lastmile_qr_scan"}, "is_disabled": 0, "fusion_lat": 0.0, "name": "3dc79338f0bf70f31b4def122ebfcfc0", "fusion_lon": 0.0}, {"is_reserved": 0, "type": "electric_scooter", "bike_id": "8330823667dca713cbaf7f2aae238606", "lat": 38.9136515, "lon": -77.02000966666667, "rental_uris": {"android": "https://dc.lft.to/lastmile_qr_scan", "ios": "https://dc.lft.to/lastmile_qr_scan"}, "is_disabled": 0, "fusion_lat": 0.0, "name": "8330823667dca713cbaf7f2aae238606", "fusion_lon": 0.0}, {"is_reserved": 0, "type": "electric_scooter", "bike_id": "8f2203917f917eb5518dafacd326231b", "lat": 38.90773183333334, "lon": -77.04515733333334, "rental_uris": {"android": "https://dc.lft.to/lastmile_qr_scan", "ios": "https://dc.lft.to/lastmile_qr_scan"}, "is_disabled": 0, "fusion_lat": 0.0, "name": "8f2203917f917eb5518dafacd326231b", "fusion_lon": 0.0}, {"is_reserved": 0, "type": "electric_scooter", "bike_id": "c89812d3bc5d6327daaba86a6499a7ff", "lat": 38.9223635, "lon": -77.04391483333333, "rental_uris": {"android": "https://dc.lft.to/lastmile_qr_scan", "ios": "https://dc.lft.to/lastmile_qr_scan"}, "is_disabled": 0, "fusion_lat": 0.0, "name": "c89812d3bc5d6327daaba86a6499a7ff", "fusion_lon": 0.0}, {"is_reserved": 0, "type": "electric_scooter", "bike_id": "679ba166cc6edc593e0f4d9cbd8a8b40", "lat": 38.89225116666667, "lon": -77.02626966666666, "rental_uris": {"android": "https://dc.lft.to/lastmile_qr_scan", "ios": "https://dc.lft.to/lastmile_qr_scan"}, "is_disabled": 0, "fusion_lat": 0.0, "name": "679ba166cc6edc593e0f4d9cbd8a8b40", "fusion_lon": 0.0}, {"is_reserved": 0, "type": "electric_bike", "bike_id": "f9592320f9d335170240ebc2ee7b6914", "lat": 38.838139, "lon": -77.09525016666667, "rental_uris": {"android": "https://dc.lft.to/lastmile_qr_scan", "ios": "https://dc.lft.to/lastmile_qr_scan"}, "is_disabled": 0, "fusion_lat": 0.0, "name": "f9592320f9d335170240ebc2ee7b6914", "fusion_lon": 0.0}, {"is_reserved": 0, "type": "electric_scooter", "bike_id": "f9b803498f75ab3227a674299b485c00", "lat": 38.936679833333336, "lon": -77.05498766666666, "rental_uris": {"android": "https://dc.lft.to/lastmile_qr_scan", "ios": "https://dc.lft.to/lastmile_qr_scan"}, "is_disabled": 0, "fusion_lat": 0.0, "name": "f9b803498f75ab3227a674299b485c00", "fusion_lon": 0.0}, {"is_reserved": 0, "type": "electric_scooter", "bike_id": "461889c9cbcf9e49d16e14b54fab296d", "lat": 38.91922533333333, "lon": -77.034276, "rental_uris": {"android": "https://dc.lft.to/lastmile_qr_scan", "ios": "https://dc.lft.to/lastmile_qr_scan"}, "is_disabled": 0, "fusion_lat": 0.0, "name": "461889c9cbcf9e49d16e14b54fab296d", "fusion_lon": 0.0}, {"is_reserved": 0, "type": "electric_scooter", "bike_id": "27d6032367f048205cb335afc006ebe8", "lat": 38.93506166666667, "lon": -77.02005583333333, "rental_uris": {"android": "https://dc.lft.to/lastmile_qr_scan", "ios": "https://dc.lft.to/lastmile_qr_scan"}, "is_disabled": 0, "fusion_lat": 0.0, "name": "27d6032367f048205cb335afc006ebe8", "fusion_lon": 0.0}, {"is_reserved": 0, "type": "electric_scooter", "bike_id": "507c0991e9195e6c73f7b74739bcd008", "lat": 38.93195, "lon": -77.02816416666667, "rental_uris": {"android": "https://dc.lft.to/lastmile_qr_scan", "ios": "https://dc.lft.to/lastmile_qr_scan"}, "is_disabled": 0, "fusion_lat": 0.0, "name": "507c0991e9195e6c73f7b74739bcd008", "fusion_lon": 0.0}, {"is_reserved": 0, "type": "electric_scooter", "bike_id": "0f95d567c9a180e0afc1179368d11190", "lat": 38.90238133333333, "lon": -77.02875833333333, "rental_uris": {"android": "https://dc.lft.to/lastmile_qr_scan", "ios": "https://dc.lft.to/lastmile_qr_scan"}, "is_disabled": 0, "fusion_lat": 0.0, "name": "0f95d567c9a180e0afc1179368d11190", "fusion_lon": 0.0}, {"is_reserved": 0, "type": "electric_scooter", "bike_id": "aed276c3384e6d584f8ce9dc6499369e", "lat": 38.91247633333333, "lon": -77.0434185, "rental_uris": {"android": "https://dc.lft.to/lastmile_qr_scan", "ios": "https://dc.lft.to/lastmile_qr_scan"}, "is_disabled": 0, "fusion_lat": 0.0, "name": "aed276c3384e6d584f8ce9dc6499369e", "fusion_lon": 0.0}, {"is_reserved": 0, "type": "electric_scooter", "bike_id": "5a2ccefa9b4ecf1ec1af21b339b21d3f", "lat": 38.905259, "lon": -77.02213666666667, "rental_uris": {"android": "https://dc.lft.to/lastmile_qr_scan", "ios": "https://dc.lft.to/lastmile_qr_scan"}, "is_disabled": 0, "fusion_lat": 0.0, "name": "5a2ccefa9b4ecf1ec1af21b339b21d3f", "fusion_lon": 0.0}, {"is_reserved": 0, "type": "electric_bike", "bike_id": "c80b38fa21314d1be27dac7ab60b7f8b", "lat": 38.83019383333333, "lon": -76.99424783333333, "rental_uris": {"android": "https://dc.lft.to/lastmile_qr_scan", "ios": "https://dc.lft.to/lastmile_qr_scan"}, "is_disabled": 0, "fusion_lat": 0.0, "name": "c80b38fa21314d1be27dac7ab60b7f8b", "fusion_lon": 0.0}, {"is_reserved": 0, "type": "electric_scooter", "bike_id": "f1b34d33dca7feb8be1b31767e438fe9", "lat": 38.901785333333336, "lon": -77.001195, "rental_uris": {"android": "https://dc.lft.to/lastmile_qr_scan", "ios": "https://dc.lft.to/lastmile_qr_scan"}, "is_disabled": 0, "fusion_lat": 0.0, "name": "f1b34d33dca7feb8be1b31767e438fe9", "fusion_lon": 0.0}, {"is_reserved": 0, "type": "electric_scooter", "bike_id": "f0eed1e34ddd7409847cd16314dc5107", "lat": 38.9171245, "lon": -77.03728333333333, "rental_uris": {"android": "https://dc.lft.to/lastmile_qr_scan", "ios": "https://dc.lft.to/lastmile_qr_scan"}, "is_disabled": 0, "fusion_lat": 0.0, "name": "f0eed1e34ddd7409847cd16314dc5107", "fusion_lon": 0.0}, {"is_reserved": 0, "type": "electric_scooter", "bike_id": "00e602bb84a2c292d81d191a1220aefb", "lat": 38.92093583333333, "lon": -77.04367433333333, "rental_uris": {"android": "https://dc.lft.to/lastmile_qr_scan", "ios": "https://dc.lft.to/lastmile_qr_scan"}, "is_disabled": 0, "fusion_lat": 0.0, "name": "00e602bb84a2c292d81d191a1220aefb", "fusion_lon": 0.0}, {"is_reserved": 0, "type": "electric_scooter", "bike_id": "cbda517f75dfe5c4c2649c541bb1e931", "lat": 38.909544833333335, "lon": -77.04886583333334, "rental_uris": {"android": "https://dc.lft.to/lastmile_qr_scan", "ios": "https://dc.lft.to/lastmile_qr_scan"}, "is_disabled": 0, "fusion_lat": 0.0, "name": "cbda517f75dfe5c4c2649c541bb1e931", "fusion_lon": 0.0}, {"is_reserved": 0, "type": "electric_scooter", "bike_id": "60b5f3a10189f5d937ade8966d69d1f1", "lat": 38.88731833333333, "lon": -77.022102, "rental_uris": {"android": "https://dc.lft.to/lastmile_qr_scan", "ios": "https://dc.lft.to/lastmile_qr_scan"}, "is_disabled": 0, "fusion_lat": 0.0, "name": "60b5f3a10189f5d937ade8966d69d1f1", "fusion_lon": 0.0}, {"is_reserved": 0, "type": "electric_scooter", "bike_id": "d9dd6f6e12c587c916155bb9e54633ee", "lat": 38.9134735, "lon": -77.0320445, "rental_uris": {"android": "https://dc.lft.to/lastmile_qr_scan", "ios": "https://dc.lft.to/lastmile_qr_scan"}, "is_disabled": 0, "fusion_lat": 0.0, "name": "d9dd6f6e12c587c916155bb9e54633ee", "fusion_lon": 0.0}, {"is_reserved": 0, "type": "electric_scooter", "bike_id": "1d8b2478db063b0bffe0e4da59b2dc63", "lat": 38.90016716666667, "lon": -77.04653383333333, "rental_uris": {"android": "https://dc.lft.to/lastmile_qr_scan", "ios": "https://dc.lft.to/lastmile_qr_scan"}, "is_disabled": 0, "fusion_lat": 0.0, "name": "1d8b2478db063b0bffe0e4da59b2dc63", "fusion_lon": 0.0}, {"is_reserved": 0, "type": "electric_scooter", "bike_id": "6f230007cfb91862da1d3f03631d5438", "lat": 38.924150166666664, "lon": -77.036477, "rental_uris": {"android": "https://dc.lft.to/lastmile_qr_scan", "ios": "https://dc.lft.to/lastmile_qr_scan"}, "is_disabled": 0, "fusion_lat": 0.0, "name": "6f230007cfb91862da1d3f03631d5438", "fusion_lon": 0.0}, {"is_reserved": 0, "type": "electric_scooter", "bike_id": "d8b2c78bd20538fa3e1fbd7d447b02fe", "lat": 38.884397166666666, "lon": -77.02489333333334, "rental_uris": {"android": "https://dc.lft.to/lastmile_qr_scan", "ios": "https://dc.lft.to/lastmile_qr_scan"}, "is_disabled": 0, "fusion_lat": 0.0, "name": "d8b2c78bd20538fa3e1fbd7d447b02fe", "fusion_lon": 0.0}, {"is_reserved": 0, "type": "electric_scooter", "bike_id": "1dcbbb6aff8a286771ced83d9816c5b3", "lat": 38.92107983333333, "lon": -77.0366575, "rental_uris": {"android": "https://dc.lft.to/lastmile_qr_scan", "ios": "https://dc.lft.to/lastmile_qr_scan"}, "is_disabled": 0, "fusion_lat": 0.0, "name": "1dcbbb6aff8a286771ced83d9816c5b3", "fusion_lon": 0.0}, {"is_reserved": 0, "type": "electric_scooter", "bike_id": "39d0cdc5eaef2045e0603b84bb927231", "lat": 38.927248666666664, "lon": -77.0535755, "rental_uris": {"android": "https://dc.lft.to/lastmile_qr_scan", "ios": "https://dc.lft.to/lastmile_qr_scan"}, "is_disabled": 0, "fusion_lat": 0.0, "name": "39d0cdc5eaef2045e0603b84bb927231", "fusion_lon": 0.0}, {"is_reserved": 0, "type": "electric_scooter", "bike_id": "fd8f8658884905d291d138cdab984056", "lat": 38.89965766666667, "lon": -76.93853583333333, "rental_uris": {"android": "https://dc.lft.to/lastmile_qr_scan", "ios": "https://dc.lft.to/lastmile_qr_scan"}, "is_disabled": 0, "fusion_lat": 0.0, "name": "fd8f8658884905d291d138cdab984056", "fusion_lon": 0.0}, {"is_reserved": 0, "type": "electric_scooter", "bike_id": "c531c19fbd387a0b31cced77e4a9520e", "lat": 38.9174095, "lon": -77.01716633333334, "rental_uris": {"android": "https://dc.lft.to/lastmile_qr_scan", "ios": "https://dc.lft.to/lastmile_qr_scan"}, "is_disabled": 0, "fusion_lat": 0.0, "name": "c531c19fbd387a0b31cced77e4a9520e", "fusion_lon": 0.0}, {"is_reserved": 0, "type": "electric_scooter", "bike_id": "5c1ae019382c5ebd94955e5dcca9449d", "lat": 38.8922325, "lon": -77.04337016666666, "rental_uris": {"android": "https://dc.lft.to/lastmile_qr_scan", "ios": "https://dc.lft.to/lastmile_qr_scan"}, "is_disabled": 0, "fusion_lat": 0.0, "name": "5c1ae019382c5ebd94955e5dcca9449d", "fusion_lon": 0.0}, {"is_reserved": 0, "type": "electric_scooter", "bike_id": "c694f63a0ffe4d3d669ee22c70fffc6f", "lat": 38.92230283333333, "lon": -77.02240216666667, "rental_uris": {"android": "https://dc.lft.to/lastmile_qr_scan", "ios": "https://dc.lft.to/lastmile_qr_scan"}, "is_disabled": 0, "fusion_lat": 0.0, "name": "c694f63a0ffe4d3d669ee22c70fffc6f", "fusion_lon": 0.0}, {"is_reserved": 0, "type": "electric_scooter", "bike_id": "df949dc611dd135df8bbb49be5ba1116", "lat": 38.944375666666666, "lon": -77.06354966666666, "rental_uris": {"android": "https://dc.lft.to/lastmile_qr_scan", "ios": "https://dc.lft.to/lastmile_qr_scan"}, "is_disabled": 0, "fusion_lat": 0.0, "name": "df949dc611dd135df8bbb49be5ba1116", "fusion_lon": 0.0}, {"is_reserved": 0, "type": "electric_scooter", "bike_id": "5a862f550138dd3eb01bc1e68099b53c", "lat": 38.932323, "lon": -77.02963583333333, "rental_uris": {"android": "https://dc.lft.to/lastmile_qr_scan", "ios": "https://dc.lft.to/lastmile_qr_scan"}, "is_disabled": 0, "fusion_lat": 0.0, "name": "5a862f550138dd3eb01bc1e68099b53c", "fusion_lon": 0.0}, {"is_reserved": 0, "type": "electric_scooter", "bike_id": "c295abb7394f7baf0476dd11dfc5c6a4", "lat": 38.905889, "lon": -76.950551, "rental_uris": {"android": "https://dc.lft.to/lastmile_qr_scan", "ios": "https://dc.lft.to/lastmile_qr_scan"}, "is_disabled": 0, "fusion_lat": 0.0, "name": "c295abb7394f7baf0476dd11dfc5c6a4", "fusion_lon": 0.0}, {"is_reserved": 0, "type": "electric_bike", "bike_id": "8d71cd3a30e6e8d98dfa6397b1f74fde", "lat": 38.894616, "lon": -77.1913115, "rental_uris": {"android": "https://dc.lft.to/lastmile_qr_scan", "ios": "https://dc.lft.to/lastmile_qr_scan"}, "is_disabled": 0, "fusion_lat": 0.0, "name": "8d71cd3a30e6e8d98dfa6397b1f74fde", "fusion_lon": 0.0}, {"is_reserved": 0, "type": "electric_scooter", "bike_id": "2f8d454a87f87db1b957c4973ae4691b", "lat": 38.9064185, "lon": -77.04855933333333, "rental_uris": {"android": "https://dc.lft.to/lastmile_qr_scan", "ios": "https://dc.lft.to/lastmile_qr_scan"}, "is_disabled": 0, "fusion_lat": 0.0, "name": "2f8d454a87f87db1b957c4973ae4691b", "fusion_lon": 0.0}, {"is_reserved": 0, "type": "electric_scooter", "bike_id": "c1b98dce189d600b81bf222a322a37ba", "lat": 38.883952, "lon": -76.93043183333333, "rental_uris": {"android": "https://dc.lft.to/lastmile_qr_scan", "ios": "https://dc.lft.to/lastmile_qr_scan"}, "is_disabled": 0, "fusion_lat": 0.0, "name": "c1b98dce189d600b81bf222a322a37ba", "fusion_lon": 0.0}, {"is_reserved": 0, "type": "electric_scooter", "bike_id": "3122fb0a678adcb2cba45cd442be82d5", "lat": 38.923336166666665, "lon": -77.03674583333333, "rental_uris": {"android": "https://dc.lft.to/lastmile_qr_scan", "ios": "https://dc.lft.to/lastmile_qr_scan"}, "is_disabled": 0, "fusion_lat": 0.0, "name": "3122fb0a678adcb2cba45cd442be82d5", "fusion_lon": 0.0}, {"is_reserved": 0, "type": "electric_scooter", "bike_id": "d0f4e5d75353763f9c78b07011caf335", "lat": 38.90637183333333, "lon": -77.01138666666667, "rental_uris": {"android": "https://dc.lft.to/lastmile_qr_scan", "ios": "https://dc.lft.to/lastmile_qr_scan"}, "is_disabled": 0, "fusion_lat": 0.0, "name": "d0f4e5d75353763f9c78b07011caf335", "fusion_lon": 0.0}, {"is_reserved": 0, "type": "electric_scooter", "bike_id": "2122c88306cda659df4117140295a6dd", "lat": 38.9140975, "lon": -77.02610533333333, "rental_uris": {"android": "https://dc.lft.to/lastmile_qr_scan", "ios": "https://dc.lft.to/lastmile_qr_scan"}, "is_disabled": 0, "fusion_lat": 0.0, "name": "2122c88306cda659df4117140295a6dd", "fusion_lon": 0.0}, {"is_reserved": 0, "type": "electric_scooter", "bike_id": "4f09f97397770a37b2041b8ecde678d0", "lat": 38.904489166666664, "lon": -77.06270433333333, "rental_uris": {"android": "https://dc.lft.to/lastmile_qr_scan", "ios": "https://dc.lft.to/lastmile_qr_scan"}, "is_disabled": 0, "fusion_lat": 0.0, "name": "4f09f97397770a37b2041b8ecde678d0", "fusion_lon": 0.0}, {"is_reserved": 0, "type": "electric_scooter", "bike_id": "0d2d41db0db857a9a8e79c76e4cb0ee2", "lat": 38.904008166666664, "lon": -77.018449, "rental_uris": {"android": "https://dc.lft.to/lastmile_qr_scan", "ios": "https://dc.lft.to/lastmile_qr_scan"}, "is_disabled": 0, "fusion_lat": 0.0, "name": "0d2d41db0db857a9a8e79c76e4cb0ee2", "fusion_lon": 0.0}, {"is_reserved": 0, "type": "electric_scooter", "bike_id": "46c4eba370eecc8886a8dcffad4cc228", "lat": 38.92794516666667, "lon": -77.03084633333333, "rental_uris": {"android": "https://dc.lft.to/lastmile_qr_scan", "ios": "https://dc.lft.to/lastmile_qr_scan"}, "is_disabled": 0, "fusion_lat": 0.0, "name": "46c4eba370eecc8886a8dcffad4cc228", "fusion_lon": 0.0}, {"is_reserved": 0, "type": "electric_scooter", "bike_id": "72d2ccb841a3eceeb35bb67490fca374", "lat": 38.89229516666666, "lon": -77.050048, "rental_uris": {"android": "https://dc.lft.to/lastmile_qr_scan", "ios": "https://dc.lft.to/lastmile_qr_scan"}, "is_disabled": 0, "fusion_lat": 0.0, "name": "72d2ccb841a3eceeb35bb67490fca374", "fusion_lon": 0.0}, {"is_reserved": 0, "type": "electric_scooter", "bike_id": "d82227df7f4b35168f4927a5a9c5829f", "lat": 38.920685166666665, "lon": -77.0249735, "rental_uris": {"android": "https://dc.lft.to/lastmile_qr_scan", "ios": "https://dc.lft.to/lastmile_qr_scan"}, "is_disabled": 0, "fusion_lat": 0.0, "name": "d82227df7f4b35168f4927a5a9c5829f", "fusion_lon": 0.0}, {"is_reserved": 0, "type": "electric_scooter", "bike_id": "97ca0f1e6ec50159d2690fad4b69a962", "lat": 38.91184666666667, "lon": -77.00255666666666, "rental_uris": {"android": "https://dc.lft.to/lastmile_qr_scan", "ios": "https://dc.lft.to/lastmile_qr_scan"}, "is_disabled": 0, "fusion_lat": 0.0, "name": "97ca0f1e6ec50159d2690fad4b69a962", "fusion_lon": 0.0}, {"is_reserved": 0, "type": "electric_scooter", "bike_id": "24110f82125dd6457c3feb44e2239d62", "lat": 38.925523, "lon": -76.9814925, "rental_uris": {"android": "https://dc.lft.to/lastmile_qr_scan", "ios": "https://dc.lft.to/lastmile_qr_scan"}, "is_disabled": 0, "fusion_lat": 0.0, "name": "24110f82125dd6457c3feb44e2239d62", "fusion_lon": 0.0}, {"is_reserved": 0, "type": "electric_scooter", "bike_id": "61f2caac0284e08b6b32a9fcc494fac0", "lat": 38.9432915, "lon": -77.06531583333333, "rental_uris": {"android": "https://dc.lft.to/lastmile_qr_scan", "ios": "https://dc.lft.to/lastmile_qr_scan"}, "is_disabled": 0, "fusion_lat": 0.0, "name": "61f2caac0284e08b6b32a9fcc494fac0", "fusion_lon": 0.0}, {"is_reserved": 0, "type": "electric_scooter", "bike_id": "3ce7be50384e07fef39f09f26d4eeb11", "lat": 38.933760666666664, "lon": -77.02033666666667, "rental_uris": {"android": "https://dc.lft.to/lastmile_qr_scan", "ios": "https://dc.lft.to/lastmile_qr_scan"}, "is_disabled": 0, "fusion_lat": 0.0, "name": "3ce7be50384e07fef39f09f26d4eeb11", "fusion_lon": 0.0}, {"is_reserved": 0, "type": "electric_scooter", "bike_id": "4a7cb037a59d34d269f6f17944380ec5", "lat": 38.872912, "lon": -77.00986, "rental_uris": {"android": "https://dc.lft.to/lastmile_qr_scan", "ios": "https://dc.lft.to/lastmile_qr_scan"}, "is_disabled": 0, "fusion_lat": 0.0, "name": "4a7cb037a59d34d269f6f17944380ec5", "fusion_lon": 0.0}, {"is_reserved": 0, "type": "electric_bike", "bike_id": "89e283e91eef08204daf8639ae9dcd7f", "lat": 38.896178166666665, "lon": -76.90736866666667, "rental_uris": {"android": "https://dc.lft.to/lastmile_qr_scan", "ios": "https://dc.lft.to/lastmile_qr_scan"}, "is_disabled": 0, "fusion_lat": 0.0, "name": "89e283e91eef08204daf8639ae9dcd7f", "fusion_lon": 0.0}, {"is_reserved": 0, "type": "electric_scooter", "bike_id": "b83065bd1f536f418e4bb26558478aab", "lat": 38.893514333333336, "lon": -77.01747316666666, "rental_uris": {"android": "https://dc.lft.to/lastmile_qr_scan", "ios": "https://dc.lft.to/lastmile_qr_scan"}, "is_disabled": 0, "fusion_lat": 0.0, "name": "b83065bd1f536f418e4bb26558478aab", "fusion_lon": 0.0}, {"is_reserved": 0, "type": "electric_scooter", "bike_id": "4f30d07b3969fba88666536d548e309d", "lat": 38.9125355, "lon": -77.02721816666667, "rental_uris": {"android": "https://dc.lft.to/lastmile_qr_scan", "ios": "https://dc.lft.to/lastmile_qr_scan"}, "is_disabled": 0, "fusion_lat": 0.0, "name": "4f30d07b3969fba88666536d548e309d", "fusion_lon": 0.0}, {"is_reserved": 0, "type": "electric_scooter", "bike_id": "a3f4ddaab84473c2e04bede26f2fed8f", "lat": 38.90376666666667, "lon": -77.0320055, "rental_uris": {"android": "https://dc.lft.to/lastmile_qr_scan", "ios": "https://dc.lft.to/lastmile_qr_scan"}, "is_disabled": 0, "fusion_lat": 0.0, "name": "a3f4ddaab84473c2e04bede26f2fed8f", "fusion_lon": 0.0}, {"is_reserved": 0, "type": "electric_scooter", "bike_id": "abc57d2cb7f9d6fc5d68fad8fb38b769", "lat": 38.92681066666667, "lon": -77.02625783333333, "rental_uris": {"android": "https://dc.lft.to/lastmile_qr_scan", "ios": "https://dc.lft.to/lastmile_qr_scan"}, "is_disabled": 0, "fusion_lat": 0.0, "name": "abc57d2cb7f9d6fc5d68fad8fb38b769", "fusion_lon": 0.0}, {"is_reserved": 0, "type": "electric_scooter", "bike_id": "d40d7ae5a385a6fd67ad766f0c2bc2df", "lat": 38.8943105, "lon": -77.05584033333334, "rental_uris": {"android": "https://dc.lft.to/lastmile_qr_scan", "ios": "https://dc.lft.to/lastmile_qr_scan"}, "is_disabled": 0, "fusion_lat": 0.0, "name": "d40d7ae5a385a6fd67ad766f0c2bc2df", "fusion_lon": 0.0}, {"is_reserved": 0, "type": "electric_scooter", "bike_id": "45cb31cb6e15d7df1b76d5c466e818aa", "lat": 38.88871, "lon": -76.99037766666666, "rental_uris": {"android": "https://dc.lft.to/lastmile_qr_scan", "ios": "https://dc.lft.to/lastmile_qr_scan"}, "is_disabled": 0, "fusion_lat": 0.0, "name": "45cb31cb6e15d7df1b76d5c466e818aa", "fusion_lon": 0.0}, {"is_reserved": 0, "type": "electric_scooter", "bike_id": "d1b124f584a5a94578f833f23db259d1", "lat": 38.86489366666667, "lon": -76.97751783333334, "rental_uris": {"android": "https://dc.lft.to/lastmile_qr_scan", "ios": "https://dc.lft.to/lastmile_qr_scan"}, "is_disabled": 0, "fusion_lat": 0.0, "name": "d1b124f584a5a94578f833f23db259d1", "fusion_lon": 0.0}, {"is_reserved": 0, "type": "electric_scooter", "bike_id": "407bd9fb1a7e1417627503277ffe25a1", "lat": 38.894824666666665, "lon": -76.9958255, "rental_uris": {"android": "https://dc.lft.to/lastmile_qr_scan", "ios": "https://dc.lft.to/lastmile_qr_scan"}, "is_disabled": 0, "fusion_lat": 0.0, "name": "407bd9fb1a7e1417627503277ffe25a1", "fusion_lon": 0.0}, {"is_reserved": 0, "type": "electric_bike", "bike_id": "4eb6aa68aaf8a7f9b486f10fa1fcf4dc", "lat": 38.93582933333333, "lon": -77.02744316666667, "rental_uris": {"android": "https://dc.lft.to/lastmile_qr_scan", "ios": "https://dc.lft.to/lastmile_qr_scan"}, "is_disabled": 0, "fusion_lat": 0.0, "name": "4eb6aa68aaf8a7f9b486f10fa1fcf4dc", "fusion_lon": 0.0}, {"is_reserved": 0, "type": "electric_scooter", "bike_id": "a778697a95e0e4b02f75aeac86188b8b", "lat": 38.908664, "lon": -77.00228266666667, "rental_uris": {"android": "https://dc.lft.to/lastmile_qr_scan", "ios": "https://dc.lft.to/lastmile_qr_scan"}, "is_disabled": 0, "fusion_lat": 0.0, "name": "a778697a95e0e4b02f75aeac86188b8b", "fusion_lon": 0.0}, {"is_reserved": 0, "type": "electric_scooter", "bike_id": "c4d5bbac6d20e7aa272167424b49554a", "lat": 38.923793833333335, "lon": -77.03055833333333, "rental_uris": {"android": "https://dc.lft.to/lastmile_qr_scan", "ios": "https://dc.lft.to/lastmile_qr_scan"}, "is_disabled": 0, "fusion_lat": 0.0, "name": "c4d5bbac6d20e7aa272167424b49554a", "fusion_lon": 0.0}, {"is_reserved": 0, "type": "electric_scooter", "bike_id": "ab8322c391e5c9708290c197914ac314", "lat": 38.905408, "lon": -77.0021455, "rental_uris": {"android": "https://dc.lft.to/lastmile_qr_scan", "ios": "https://dc.lft.to/lastmile_qr_scan"}, "is_disabled": 0, "fusion_lat": 0.0, "name": "ab8322c391e5c9708290c197914ac314", "fusion_lon": 0.0}, {"is_reserved": 0, "type": "electric_scooter", "bike_id": "fabc26c0b529c1d982448bd5755c4bda", "lat": 38.898850833333334, "lon": -76.9317975, "rental_uris": {"android": "https://dc.lft.to/lastmile_qr_scan", "ios": "https://dc.lft.to/lastmile_qr_scan"}, "is_disabled": 0, "fusion_lat": 0.0, "name": "fabc26c0b529c1d982448bd5755c4bda", "fusion_lon": 0.0}, {"is_reserved": 0, "type": "electric_scooter", "bike_id": "09e60bf79aec5b5756c8b953eaf53f7b", "lat": 38.896148833333335, "lon": -77.04411983333334, "rental_uris": {"android": "https://dc.lft.to/lastmile_qr_scan", "ios": "https://dc.lft.to/lastmile_qr_scan"}, "is_disabled": 0, "fusion_lat": 0.0, "name": "09e60bf79aec5b5756c8b953eaf53f7b", "fusion_lon": 0.0}, {"is_reserved": 0, "type": "electric_scooter", "bike_id": "7326cd843324b6201a0d03aa5bda3c37", "lat": 38.90637816666667, "lon": -77.0467315, "rental_uris": {"android": "https://dc.lft.to/lastmile_qr_scan", "ios": "https://dc.lft.to/lastmile_qr_scan"}, "is_disabled": 0, "fusion_lat": 0.0, "name": "7326cd843324b6201a0d03aa5bda3c37", "fusion_lon": 0.0}, {"is_reserved": 0, "type": "electric_scooter", "bike_id": "5317ec3148d65d2fd0a22e70f298891a", "lat": 38.93096766666667, "lon": -77.02407466666666, "rental_uris": {"android": "https://dc.lft.to/lastmile_qr_scan", "ios": "https://dc.lft.to/lastmile_qr_scan"}, "is_disabled": 0, "fusion_lat": 0.0, "name": "5317ec3148d65d2fd0a22e70f298891a", "fusion_lon": 0.0}, {"is_reserved": 0, "type": "electric_scooter", "bike_id": "a49e82ffa97e42342ea58e9c37418322", "lat": 38.929507666666666, "lon": -77.00415533333333, "rental_uris": {"android": "https://dc.lft.to/lastmile_qr_scan", "ios": "https://dc.lft.to/lastmile_qr_scan"}, "is_disabled": 0, "fusion_lat": 0.0, "name": "a49e82ffa97e42342ea58e9c37418322", "fusion_lon": 0.0}, {"is_reserved": 0, "type": "electric_scooter", "bike_id": "795d74e8f68f5e0246120e8c5021a011", "lat": 38.91816766666667, "lon": -77.03025116666667, "rental_uris": {"android": "https://dc.lft.to/lastmile_qr_scan", "ios": "https://dc.lft.to/lastmile_qr_scan"}, "is_disabled": 0, "fusion_lat": 0.0, "name": "795d74e8f68f5e0246120e8c5021a011", "fusion_lon": 0.0},