{"data": {"bikes": [{"lat": 38.885352166666664, "is_disabled": 0, "type": "electric_scooter", "lon": -76.99827083333334, "bike_id": "b053b1a1b2c7966ce0bcabf7eb2732c8", "fusion_lat": 0.0, "name": "b053b1a1b2c7966ce0bcabf7eb2732c8", "is_reserved": 0, "rental_uris": {"android": "https://dc.lft.to/lastmile_qr_scan", "ios": "https://dc.lft.to/lastmile_qr_scan"}, "fusion_lon": 0.0}, {"lat": 38.906855166666666, "is_disabled": 0, "type": "electric_scooter", "lon": -77.03845733333333, "bike_id": "807994c4aa58d4216bb7ba48180d7694", "fusion_lat": 0.0, "name": "807994c4aa58d4216bb7ba48180d7694", "is_reserved": 0, "rental_uris": {"android": "https://dc.lft.to/lastmile_qr_scan", "ios": "https://dc.lft.to/lastmile_qr_scan"}, "fusion_lon": 0.0}, {"lat": 38.868914333333336, "is_disabled": 0, "type": "electric_scooter", "lon": -76.98311366666667, "bike_id": "32bad8bec117368bf0a26665f9c4929b", "fusion_lat": 0.0, "name": "32bad8bec117368bf0a26665f9c4929b", "is_reserved": 0, "rental_uris": {"android": "https://dc.lft.to/lastmile_qr_scan", "ios": "https://dc.lft.to/lastmile_qr_scan"}, "fusion_lon": 0.0}, {"lat": 38.89896533333334, "is_disabled": 0, "type": "electric_scooter", "lon": -76.997255, "bike_id": "b3fdaa1642e1d954adbaad9e8889b79e", "fusion_lat": 0.0, "name": "b3fdaa1642e1d954adbaad9e8889b79e", "is_reserved": 0, "rental_uris": {"android": "https://dc.lft.to/lastmile_qr_scan", "ios": "https://dc.lft.to/lastmile_qr_scan"}, "fusion_lon": 0.0}, {"lat": 38.9028945, "is_disabled": 0, "type": "electric_scooter", "lon": -77.00215233333333, "bike_id": "02ac2455b2b85cc59e57081be2bcdaaa", "fusion_lat": 0.0, "name": "02ac2455b2b85cc59e57081be2bcdaaa", "is_reserved": 0, "rental_uris": {"android": "https://dc.lft.to/lastmile_qr_scan", "ios": "https://dc.lft.to/lastmile_qr_scan"}, "fusion_lon": 0.0}, {"lat": 38.90237466666667, "is_disabled": 0, "type": "electric_scooter", "lon": -77.000624, "bike_id": "98d2f0ac5f9aac77112ccfeb75ff09ec", "fusion_lat": 0.0, "name": "98d2f0ac5f9aac77112ccfeb75ff09ec", "is_reserved": 0, "rental_uris": {"android": "https://dc.lft.to/lastmile_qr_scan", "ios": "https://dc.lft.to/lastmile_qr_scan"}, "fusion_lon": 0.0}, {"lat": 38.90775683333333, "is_disabled": 0, "type": "electric_scooter", "lon": -77.0385675, "bike_id": "43f4ef392aab4109d2eafa842de247e5", "fusion_lat": 0.0, "name": "43f4ef392aab4109d2eafa842de247e5", "is_reserved": 0, "rental_uris": {"android": "https://dc.lft.to/lastmile_qr_scan", "ios": "https://dc.lft.to/lastmile_qr_scan"}, "fusion_lon": 0.0}, {"lat": 38.90581666666667, "is_disabled": 0, "type": "electric_scooter", "lon": -77.00879616666667, "bike_id": "f280315ccd969ffd9f5ab774454cc0d7", "fusion_lat": 0.0, "name": "f280315ccd969ffd9f5ab774454cc0d7", "is_reserved": 0, "rental_uris": {"android": "https://dc.lft.to/lastmile_qr_scan", "ios": "https://dc.lft.to/lastmile_qr_scan"}, "fusion_lon": 0.0}, {"lat": 38.906492166666666, "is_disabled": 0, "type": "electric_scooter", "lon": -77.05319833333333, "bike_id": "b6ff53df4cc3c38171ee2bf28129431d", "fusion_lat": 0.0, "name": "b6ff53df4cc3c38171ee2bf28129431d", "is_reserved": 0, "rental_uris": {"android": "https://dc.lft.to/lastmile_qr_scan", "ios": "https://dc.lft.to/lastmile_qr_scan"}, "fusion_lon": 0.0}, {"lat": 38.9195265, "is_disabled": 0, "type": "electric_scooter", "lon": -76.9807605, "bike_id": "8d4fb13ff57499ab7bca928ddbef47f2", "fusion_lat": 0.0, "name": "8d4fb13ff57499ab7bca928ddbef47f2", "is_reserved": 0, "rental_uris": {"android": "https://dc.lft.to/lastmile_qr_scan", "ios": "https://dc.lft.to/lastmile_qr_scan"}, "fusion_lon": 0.0}, {"lat": 38.855698333333336, "is_disabled": 0, "type": "electric_bike", "lon": -77.11133366666667, "bike_id": "26e13e1e40bc3428847bd12e92671c93", "fusion_lat": 0.0, "name": "26e13e1e40bc3428847bd12e92671c93", "is_reserved": 0, "rental_uris": {"android": "https://dc.lft.to/lastmile_qr_scan", "ios": "https://dc.lft.to/lastmile_qr_scan"}, "fusion_lon": 0.0}, {"lat": 38.887303333333335, "is_disabled": 0, "type": "electric_scooter", "lon": -77.03166233333333, "bike_id": "22f6fefd960cab135d7fec7c2952e8b1", "fusion_lat": 0.0, "name": "22f6fefd960cab135d7fec7c2952e8b1", "is_reserved": 0, "rental_uris": {"android": "https://dc.lft.to/lastmile_qr_scan", "ios": "https://dc.lft.to/lastmile_qr_scan"}, "fusion_lon": 0.0}, {"lat": 38.897339, "is_disabled": 0, "type": "electric_scooter", "lon": -77.0077275, "bike_id": "6baf61b5e6c3942f296392ab05f75227", "fusion_lat": 0.0, "name": "6baf61b5e6c3942f296392ab05f75227", "is_reserved": 0, "rental_uris": {"android": "https://dc.lft.to/lastmile_qr_scan", "ios": "https://dc.lft.to/lastmile_qr_scan"}, "fusion_lon": 0.0}, {"lat": 38.905273, "is_disabled": 0, "type": "electric_scooter", "lon": -77.0623825, "bike_id": "c57e807c77034fdf6eb2787125cbda36", "fusion_lat": 0.0, "name": "c57e807c77034fdf6eb2787125cbda36", "is_reserved": 0, "rental_uris": {"android": "https://dc.lft.to/lastmile_qr_scan", "ios": "https://dc.lft.to/lastmile_qr_scan"}, "fusion_lon": 0.0}, {"lat": 38.93325816666667, "is_disabled": 0, "type": "electric_scooter", "lon": -77.04367666666667, "bike_id": "78907957391421128a91782a29dcf146", "fusion_lat": 0.0, "name": "78907957391421128a91782a29dcf146", "is_reserved": 0, "rental_uris": {"android": "https://dc.lft.to/lastmile_qr_scan", "ios": "https://dc.lft.to/lastmile_qr_scan"}, "fusion_lon": 0.0}, {"lat": 38.908454666666664, "is_disabled": 0, "type": "electric_scooter", "lon": -77.02054216666667, "bike_id": "16d0e14f61d21d2f6bfdee83d100f547", "fusion_lat": 0.0, "name": "16d0e14f61d21d2f6bfdee83d100f547", "is_reserved": 0, "rental_uris": {"android": "https://dc.lft.to/lastmile_qr_scan", "ios": "https://dc.lft.to/lastmile_qr_scan"}, "fusion_lon": 0.0}, {"lat": 38.9207295, "is_disabled": 0, "type": "electric_scooter", "lon": -77.025366, "bike_id": "3e3e70cffcefab72be2c0e22146e9282", "fusion_lat": 0.0, "name": "3e3e70cffcefab72be2c0e22146e9282", "is_reserved": 0, "rental_uris": {"android": "https://dc.lft.to/lastmile_qr_scan", "ios": "https://dc.lft.to/lastmile_qr_scan"}, "fusion_lon": 0.0}, {"lat": 38.95631183333333, "is_disabled": 0, "type": "electric_bike", "lon": -77.0229285, "bike_id": "2a3024d39a221a3f44fcbdc65cd7baef", "fusion_lat": 0.0, "name": "2a3024d39a221a3f44fcbdc65cd7baef", "is_reserved": 0, "rental_uris": {"android": "https://dc.lft.to/lastmile_qr_scan", "ios": "https://dc.lft.to/lastmile_qr_scan"}, "fusion_lon": 0.0}, {"lat": 38.86652483333334, "is_disabled": 0, "type": "electric_scooter", "lon": -76.98880266666667, "bike_id": "e7d48fcdf66d8ee3fc177599846ad015", "fusion_lat": 0.0, "name": "e7d48fcdf66d8ee3fc177599846ad015", "is_reserved": 0, "rental_uris": {"android": "https://dc.lft.to/lastmile_qr_scan", "ios": "https://dc.lft.to/lastmile_qr_scan"}, "fusion_lon": 0.0}, {"lat": 38.884934666666666, "is_disabled": 0, "type": "electric_scooter", "lon": -77.006994, "bike_id": "00d5ce48e2423f4f3cb52c5077a0056c", "fusion_lat": 0.0, "name": "00d5ce48e2423f4f3cb52c5077a0056c", "is_reserved": 0, "rental_uris": {"android": "https://dc.lft.to/lastmile_qr_scan", "ios": "https://dc.lft.to/lastmile_qr_scan"}, "fusion_lon": 0.0}, {"lat": 38.90550483333333, "is_disabled": 0, "type": "electric_scooter", "lon": -77.03243983333333, "bike_id": "4e4a3a8de7cb92cdda51a2ddb92ccc08", "fusion_lat": 0.0, "name": "4e4a3a8de7cb92cdda51a2ddb92ccc08", "is_reserved": 0, "rental_uris": {"android": "https://dc.lft.to/lastmile_qr_scan", "ios": "https://dc.lft.to/lastmile_qr_scan"}, "fusion_lon": 0.0}, {"lat": 38.94041133333333, "is_disabled": 0, "type": "electric_bike", "lon": -76.9881775, "bike_id": "11ff89af2b757d3b26b368b484c955c7", "fusion_lat": 0.0, "name": "11ff89af2b757d3b26b368b484c955c7", "is_reserved": 0, "rental_uris": {"android": "https://dc.lft.to/lastmile_qr_scan", "ios": "https://dc.lft.to/lastmile_qr_scan"}, "fusion_lon": 0.0}, {"lat": 38.800566, "is_disabled": 0, "type": "electric_bike", "lon": -77.0710605, "bike_id": "b5f0aef8839d610782ed5c8be5cb7e08", "fusion_lat": 0.0, "name": "b5f0aef8839d610782ed5c8be5cb7e08", "is_reserved": 0, "rental_uris": {"android": "https://dc.lft.to/lastmile_qr_scan", "ios": "https://dc.lft.to/lastmile_qr_scan"}, "fusion_lon": 0.0}, {"lat": 38.890899166666664, "is_disabled": 0, "type": "electric_scooter", "lon": -76.95266716666667, "bike_id": "6777e37f0fd0e650acf71bedc070c2dd", "fusion_lat": 0.0, "name": "6777e37f0fd0e650acf71bedc070c2dd", "is_reserved": 0, "rental_uris": {"android": "https://dc.lft.to/lastmile_qr_scan", "ios": "https://dc.lft.to/lastmile_qr_scan"}, "fusion_lon": 0.0}, {"lat": 38.91111383333333, "is_disabled": 0, "type": "electric_scooter", "lon": -77.03716733333333, "bike_id": "66c910fdd3aa45cf5bbd8bbccf557383", "fusion_lat": 0.0, "name": "66c910fdd3aa45cf5bbd8bbccf557383", "is_reserved": 0, "rental_uris": {"android": "https://dc.lft.to/lastmile_qr_scan", "ios": "https://dc.lft.to/lastmile_qr_scan"}, "fusion_lon": 0.0}, {"lat": 38.9521765, "is_disabled": 0, "type": "electric_scooter", "lon": -77.08598783333333, "bike_id": "22aeb1b3fb630e35eb26c0c832902bd2", "fusion_lat": 0.0, "name": "22aeb1b3fb630e35eb26c0c832902bd2", "is_reserved": 0, "rental_uris": {"android": "https://dc.lft.to/lastmile_qr_scan", "ios": "https://dc.lft.to/lastmile_qr_scan"}, "fusion_lon": 0.0}, {"lat": 38.9154135, "is_disabled": 0, "type": "electric_scooter", "lon": -77.032024, "bike_id": "293afd4b62562ed8171008612d45c3fc", "fusion_lat": 0.0, "name": "293afd4b62562ed8171008612d45c3fc", "is_reserved": 0, "rental_uris": {"android": "https://dc.lft.to/lastmile_qr_scan", "ios": "https://dc.lft.to/lastmile_qr_scan"}, "fusion_lon": 0.0}, {"lat": 38.93085683333334, "is_disabled": 0, "type": "electric_scooter", "lon": -77.03121216666666, "bike_id": "79e04a0fb9576f9647ca755b67141c02", "fusion_lat": 0.0, "name": "79e04a0fb9576f9647ca755b67141c02", "is_reserved": 0, "rental_uris": {"android": "https://dc.lft.to/lastmile_qr_scan", "ios": "https://dc.lft.to/lastmile_qr_scan"}, "fusion_lon": 0.0}, {"lat": 38.913194833333336, "is_disabled": 0, "type": "electric_scooter", "lon": -77.03189333333333, "bike_id": "9906ef671ab1f8fb77cff60ff736808e", "fusion_lat": 0.0, "name": "9906ef671ab1f8fb77cff60ff736808e", "is_reserved": 0, "rental_uris": {"android": "https://dc.lft.to/lastmile_qr_scan", "ios": "https://dc.lft.to/lastmile_qr_scan"}, "fusion_lon": 0.0}, {"lat": 38.9999495, "is_disabled": 0, "type": "electric_bike", "lon": -76.92493666666667, "bike_id": "af46cbda2938d4ee977b830ad2a4d431", "fusion_lat": 0.0, "name": "af46cbda2938d4ee977b830ad2a4d431", "is_reserved": 0, "rental_uris": {"android": "https://dc.lft.to/lastmile_qr_scan", "ios": "https://dc.lft.to/lastmile_qr_scan"}, "fusion_lon": 0.0}, {"lat": 38.916449166666666, "is_disabled": 0, "type": "electric_scooter", "lon": -77.02234566666667, "bike_id": "4e5702f118ef6f2bee67fd6e03b3fb0b", "fusion_lat": 0.0, "name": "4e5702f118ef6f2bee67fd6e03b3fb0b", "is_reserved": 0, "rental_uris": {"android": "https://dc.lft.to/lastmile_qr_scan", "ios": "https://dc.lft.to/lastmile_qr_scan"}, "fusion_lon": 0.0}, {"lat": 38.925743833333335, "is_disabled": 0, "type": "electric_scooter", "lon": -76.9860535, "bike_id": "840e08700fb05a8d53ccda3772dcb1e1", "fusion_lat": 0.0, "name": "840e08700fb05a8d53ccda3772dcb1e1", "is_reserved": 0, "rental_uris": {"android": "https://dc.lft.to/lastmile_qr_scan", "ios": "https://dc.lft.to/lastmile_qr_scan"}, "fusion_lon": 0.0}, {"lat": 38.923689333333336, "is_disabled": 0, "type": "electric_scooter", "lon": -77.02917783333334, "bike_id": "6cedb43d57d614c7f6ba3f7dffa98dfd", "fusion_lat": 0.0, "name": "6cedb43d57d614c7f6ba3f7dffa98dfd", "is_reserved": 0, "rental_uris": {"android": "https://dc.lft.to/lastmile_qr_scan", "ios": "https://dc.lft.to/lastmile_qr_scan"}, "fusion_lon": 0.0}, {"lat": 38.842965, "is_disabled": 0, "type": "electric_scooter", "lon": -76.99943366666666, "bike_id": "e2b1eeaae7d9cd114a4bf2873af39b05", "fusion_lat": 0.0, "name": "e2b1eeaae7d9cd114a4bf2873af39b05", "is_reserved": 0, "rental_uris": {"android": "https://dc.lft.to/lastmile_qr_scan", "ios": "https://dc.lft.to/lastmile_qr_scan"}, "fusion_lon": 0.0}, {"lat": 38.921445166666665, "is_disabled": 0, "type": "electric_scooter", "lon": -77.035035, "bike_id": "54c0e748a4d04028d71ebd8c8d6546a8", "fusion_lat": 0.0, "name": "54c0e748a4d04028d71ebd8c8d6546a8", "is_reserved": 0, "rental_uris": {"android": "https://dc.lft.to/lastmile_qr_scan", "ios": "https://dc.lft.to/lastmile_qr_scan"}, "fusion_lon": 0.0}, {"lat": 38.90265816666667, "is_disabled": 0, "type": "electric_scooter", "lon": -77.05408116666666, "bike_id": "dbea13fb39d91c523dbdddc79eda96e2", "fusion_lat": 0.0, "name": "dbea13fb39d91c523dbdddc79eda96e2", "is_reserved": 0, "rental_uris": {"android": "https://dc.lft.to/lastmile_qr_scan", "ios": "https://dc.lft.to/lastmile_qr_scan"}, "fusion_lon": 0.0}, {"lat": 38.87997383333333, "is_disabled": 0, "type": "electric_scooter", "lon": -77.037382, "bike_id": "4ca92e17dfb0a71adce7922c199d7a25", "fusion_lat": 0.0, "name": "4ca92e17dfb0a71adce7922c199d7a25", "is_reserved": 0, "rental_uris": {"android": "https://dc.lft.to/lastmile_qr_scan", "ios": "https://dc.lft.to/lastmile_qr_scan"}, "fusion_lon": 0.0}, {"lat": 38.920987333333336, "is_disabled": 0, "type": "electric_scooter", "lon": -77.017619, "bike_id": "86fffc16d6d0b8fefe1c47eb66ea9320", "fusion_lat": 0.0, "name": "86fffc16d6d0b8fefe1c47eb66ea9320", "is_reserved": 0, "rental_uris": {"android": "https://dc.lft.to/lastmile_qr_scan", "ios": "https://dc.lft.to/lastmile_qr_scan"}, "fusion_lon": 0.0}, {"lat": 38.88488866666667, "is_disabled": 0, "type": "electric_scooter", "lon": -77.00708716666666, "bike_id": "0e4a9738c99060c32560ae14bdddde49", "fusion_lat": 0.0, "name": "0e4a9738c99060c32560ae14bdddde49", "is_reserved": 0, "rental_uris": {"android": "https://dc.lft.to/lastmile_qr_scan", "ios": "https://dc.lft.to/lastmile_qr_scan"}, "fusion_lon": 0.0}, {"lat": 38.87960183333333, "is_disabled": 0, "type": "electric_scooter", "lon": -76.98738933333334, "bike_id": "edfddd13afa516edcb3425837ad0f9ce", "fusion_lat": 0.0, "name": "edfddd13afa516edcb3425837ad0f9ce", "is_reserved": 0, "rental_uris": {"android": "https://dc.lft.to/lastmile_qr_scan", "ios": "https://dc.lft.to/lastmile_qr_scan"}, "fusion_lon": 0.0}, {"lat": 38.994123, "is_disabled": 0, "type": "electric_bike", "lon": -77.03193566666667, "bike_id": "a53aa6844218700fb88a79287ae81c6d", "fusion_lat": 0.0, "name": "a53aa6844218700fb88a79287ae81c6d", "is_reserved": 0, "rental_uris": {"android": "https://dc.lft.to/lastmile_qr_scan", "ios": "https://dc.lft.to/lastmile_qr_scan"}, "fusion_lon": 0.0}, {"lat": 38.916752333333335, "is_disabled": 0, "type": "electric_scooter", "lon": -77.0258995, "bike_id": "cf6345ae189e0181063b706c3263b272", "fusion_lat": 0.0, "name": "cf6345ae189e0181063b706c3263b272", "is_reserved": 0, "rental_uris": {"android": "https://dc.lft.to/lastmile_qr_scan", "ios": "https://dc.lft.to/lastmile_qr_scan"}, "fusion_lon": 0.0}, {"lat": 38.90017566666667, "is_disabled": 0, "type": "electric_scooter", "lon": -77.01199416666667, "bike_id": "201bd1eb4df792874ee0407cec3dfe6f", "fusion_lat": 0.0, "name": "201bd1eb4df792874ee0407cec3dfe6f", "is_reserved": 0, "rental_uris": {"android": "https://dc.lft.to/lastmile_qr_scan", "ios": "https://dc.lft.to/lastmile_qr_scan"}, "fusion_lon": 0.0}, {"lat": 38.878884, "is_disabled": 0, "type": "electric_scooter", "lon": -77.0075025, "bike_id": "4bbe086a9120bef548dc92d31a2ed989", "fusion_lat": 0.0, "name": "4bbe086a9120bef548dc92d31a2ed989", "is_reserved": 0, "rental_uris": {"android": "https://dc.lft.to/lastmile_qr_scan", "ios": "https://dc.lft.to/lastmile_qr_scan"}, "fusion_lon": 0.0}, {"lat": 38.86677183333333, "is_disabled": 0, "type": "electric_scooter", "lon": -76.98538833333333, "bike_id": "699d7631e801147b74a5f641530d84b4", "fusion_lat": 0.0, "name": "699d7631e801147b74a5f641530d84b4", "is_reserved": 0, "rental_uris": {"android": "https://dc.lft.to/lastmile_qr_scan", "ios": "https://dc.lft.to/lastmile_qr_scan"}, "fusion_lon": 0.0}, {"lat": 38.87730833333333, "is_disabled": 0, "type": "electric_bike", "lon": -76.9810525, "bike_id": "ec66d2e54d8199ae637865450667d76f", "fusion_lat": 0.0, "name": "ec66d2e54d8199ae637865450667d76f", "is_reserved": 0, "rental_uris": {"android": "https://dc.lft.to/lastmile_qr_scan", "ios": "https://dc.lft.to/lastmile_qr_scan"}, "fusion_lon": 0.0}, {"lat": 38.897416166666666, "is_disabled": 0, "type": "electric_scooter", "lon": -77.00071766666667, "bike_id": "1f6a47674ddaa14a0f61157efd269e7f", "fusion_lat": 0.0, "name": "1f6a47674ddaa14a0f61157efd269e7f", "is_reserved": 0, "rental_uris": {"android": "https://dc.lft.to/lastmile_qr_scan", "ios": "https://dc.lft.to/lastmile_qr_scan"}, "fusion_lon": 0.0}, {"lat": 38.91173366666666, "is_disabled": 0, "type": "electric_scooter", "lon": -77.03182, "bike_id": "3f7088b21ec784253312cb7cac8cb99c", "fusion_lat": 0.0, "name": "3f7088b21ec784253312cb7cac8cb99c", "is_reserved": 0, "rental_uris": {"android": "https://dc.lft.to/lastmile_qr_scan", "ios": "https://dc.lft.to/lastmile_qr_scan"}, "fusion_lon": 0.0}, {"lat": 38.9287105, "is_disabled": 0, "type": "electric_scooter", "lon": -77.03441616666667, "bike_id": "c8fe7b94336019daa868b7b3d55281f8", "fusion_lat": 0.0, "name": "c8fe7b94336019daa868b7b3d55281f8", "is_reserved": 0, "rental_uris": {"android": "https://dc.lft.to/lastmile_qr_scan", "ios": "https://dc.lft.to/lastmile_qr_scan"}, "fusion_lon": 0.0}, {"lat": 38.91409866666667, "is_disabled": 0, "type": "electric_scooter", "lon": -77.03861383333333, "bike_id": "66dee5dddfd465ba5b2e02d12843b276", "fusion_lat": 0.0, "name": "66dee5dddfd465ba5b2e02d12843b276", "is_reserved": 0, "rental_uris": {"android": "https://dc.lft.to/lastmile_qr_scan", "ios": "https://dc.lft.to/lastmile_qr_scan"}, "fusion_lon": 0.0}, {"lat": 38.90531816666667, "is_disabled": 0, "type": "electric_scooter", "lon": -77.05711666666667, "bike_id": "4719a417316933fe592ea8fa5d3bed25", "fusion_lat": 0.0, "name": "4719a417316933fe592ea8fa5d3bed25", "is_reserved": 0, "rental_uris": {"android": "https://dc.lft.to/lastmile_qr_scan", "ios": "https://dc.lft.to/lastmile_qr_scan"}, "fusion_lon": 0.0}, {"lat": 38.90014583333333, "is_disabled": 0, "type": "electric_scooter", "lon": -77.011965, "bike_id": "4e58ca27eea52aaddf6a25069ff1b958", "fusion_lat": 0.0, "name": "4e58ca27eea52aaddf6a25069ff1b958", "is_reserved": 0, "rental_uris": {"android": "https://dc.lft.to/lastmile_qr_scan", "ios": "https://dc.lft.to/lastmile_qr_scan"}, "fusion_lon": 0.0}, {"lat": 38.91693583333333, "is_disabled": 0, "type": "electric_scooter", "lon": -77.03769216666667, "bike_id": "b45c6c08f1dea715a2e4cf76d1c91dd5", "fusion_lat": 0.0, "name": "b45c6c08f1dea715a2e4cf76d1c91dd5", "is_reserved": 0, "rental_uris": {"android": "https://dc.lft.to/lastmile_qr_scan", "ios": "https://dc.lft.to/lastmile_qr_scan"}, "fusion_lon": 0.0}, {"lat": 38.93315333333334, "is_disabled": 0, "type": "electric_scooter", "lon": -77.04521066666666, "bike_id": "05f017a9672bd02eda7853b36699981c", "fusion_lat": 0.0, "name": "05f017a9672bd02eda7853b36699981c", "is_reserved": 0, "rental_uris": {"android": "https://dc.lft.to/lastmile_qr_scan", "ios": "https://dc.lft.to/lastmile_qr_scan"}, "fusion_lon": 0.0}, {"lat": 38.8923575, "is_disabled": 0, "type": "electric_scooter", "lon": -77.0260165, "bike_id": "ee3f1fc63f18d0c800b0cb3d82dd9c99", "fusion_lat": 0.0, "name": "ee3f1fc63f18d0c800b0cb3d82dd9c99", "is_reserved": 0, "rental_uris": {"android": "https://dc.lft.to/lastmile_qr_scan", "ios": "https://dc.lft.to/lastmile_qr_scan"}, "fusion_lon": 0.0}, {"lat": 38.8987145, "is_disabled": 0, "type": "electric_scooter", "lon": -77.02026616666667, "bike_id": "2e61c1f17194902105d266abb6aacbb4", "fusion_lat": 0.0, "name": "2e61c1f17194902105d266abb6aacbb4", "is_reserved": 0, "rental_uris": {"android": "https://dc.lft.to/lastmile_qr_scan", "ios": "https://dc.lft.to/lastmile_qr_scan"}, "fusion_lon": 0.0}, {"lat": 38.9148095, "is_disabled": 0, "type": "electric_scooter", "lon": -77.03210966666667, "bike_id": "011086578e47b7cd79b8e7722bb53a7d", "fusion_lat": 0.0, "name": "011086578e47b7cd79b8e7722bb53a7d", "is_reserved": 0, "rental_uris": {"android": "https://dc.lft.to/lastmile_qr_scan", "ios": "https://dc.lft.to/lastmile_qr_scan"}, "fusion_lon": 0.0}, {"lat": 38.90063166666667, "is_disabled": 0, "type": "electric_scooter", "lon": -77.04535366666667, "bike_id": "26e4db0c7d09f8a5d34c7f9a13b16425", "fusion_lat": 0.0, "name": "26e4db0c7d09f8a5d34c7f9a13b16425", "is_reserved": 0, "rental_uris": {"android": "https://dc.lft.to/lastmile_qr_scan", "ios": "https://dc.lft.to/lastmile_qr_scan"}, "fusion_lon": 0.0}, {"lat": 38.873440333333335, "is_disabled": 0, "type": "electric_scooter", "lon": -76.99165783333333, "bike_id": "363b378fa755d4eb80cffd66f68d9e06", "fusion_lat": 0.0, "name": "363b378fa755d4eb80cffd66f68d9e06", "is_reserved": 0, "rental_uris": {"android": "https://dc.lft.to/lastmile_qr_scan", "ios": "https://dc.lft.to/lastmile_qr_scan"}, "fusion_lon": 0.0}, {"lat": 38.917126833333334, "is_disabled": 0, "type": "electric_scooter", "lon": -77.04679516666667, "bike_id": "c12358543f16340be312018fc271fd09", "fusion_lat": 0.0, "name": "c12358543f16340be312018fc271fd09", "is_reserved": 0, "rental_uris": {"android": "https://dc.lft.to/lastmile_qr_scan", "ios": "https://dc.lft.to/lastmile_qr_scan"}, "fusion_lon": 0.0}, {"lat": 38.886611, "is_disabled": 0, "type": "electric_bike", "lon": -77.0338555, "bike_id": "b415f334ef3727004937f0c8e0fde37c", "fusion_lat": 0.0, "name": "b415f334ef3727004937f0c8e0fde37c", "is_reserved": 0, "rental_uris": {"android": "https://dc.lft.to/lastmile_qr_scan", "ios": "https://dc.lft.to/lastmile_qr_scan"}, "fusion_lon": 0.0}, {"lat": 38.92116933333333, "is_disabled": 0, "type": "electric_scooter", "lon": -77.03165383333334, "bike_id": "9e6c762cac6741a671bd9e8123110bdb", "fusion_lat": 0.0, "name": "9e6c762cac6741a671bd9e8123110bdb", "is_reserved": 0, "rental_uris": {"android": "https://dc.lft.to/lastmile_qr_scan", "ios": "https://dc.lft.to/lastmile_qr_scan"}, "fusion_lon": 0.0}, {"lat": 38.8874785, "is_disabled": 0, "type": "electric_scooter", "lon": -77.01734583333334, "bike_id": "55a18a8ff777995ddce9cdecd7d4f171", "fusion_lat": 0.0, "name": "55a18a8ff777995ddce9cdecd7d4f171", "is_reserved": 0, "rental_uris": {"android": "https://dc.lft.to/lastmile_qr_scan", "ios": "https://dc.lft.to/lastmile_qr_scan"}, "fusion_lon": 0.0}, {"lat": 38.895505666666665, "is_disabled": 0, "type": "electric_scooter", "lon": -76.93364966666667, "bike_id": "9056962354173856a8ecc4b41f019ef1", "fusion_lat": 0.0, "name": "9056962354173856a8ecc4b41f019ef1", "is_reserved": 0, "rental_uris": {"android": "https://dc.lft.to/lastmile_qr_scan", "ios": "https://dc.lft.to/lastmile_qr_scan"}, "fusion_lon": 0.0}, {"lat": 38.93880166666667, "is_disabled": 0, "type": "electric_scooter", "lon": -77.03257533333333, "bike_id": "edd5cccb3a527229ef6a0a59cfb9be10", "fusion_lat": 0.0, "name": "edd5cccb3a527229ef6a0a59cfb9be10", "is_reserved": 0, "rental_uris": {"android": "https://dc.lft.to/lastmile_qr_scan", "ios": "https://dc.lft.to/lastmile_qr_scan"}, "fusion_lon": 0.0}, {"lat": 38.92659116666667, "is_disabled": 0, "type": "electric_scooter", "lon": -77.05587683333333, "bike_id": "2d045ebd49d0bd654d8e689b44887739", "fusion_lat": 0.0, "name": "2d045ebd49d0bd654d8e689b44887739", "is_reserved": 0, "rental_uris": {"android": "https://dc.lft.to/lastmile_qr_scan", "ios": "https://dc.lft.to/lastmile_qr_scan"}, "fusion_lon": 0.0}, {"lat": 38.92013683333333, "is_disabled": 0, "type": "electric_scooter", "lon": -77.03168316666667, "bike_id": "6df80685b7bac4161ab0bbe7e28f71cf", "fusion_lat": 0.0, "name": "6df80685b7bac4161ab0bbe7e28f71cf", "is_reserved": 0, "rental_uris": {"android": "https://dc.lft.to/lastmile_qr_scan", "ios": "https://dc.lft.to/lastmile_qr_scan"}, "fusion_lon": 0.0}, {"lat": 38.917612, "is_disabled": 0, "type": "electric_scooter", "lon": -77.0294655, "bike_id": "cf5ea38f10860dc02a8b156bd33bc794", "fusion_lat": 0.0, "name": "cf5ea38f10860dc02a8b156bd33bc794", "is_reserved": 0, "rental_uris": {"android": "https://dc.lft.to/lastmile_qr_scan", "ios": "https://dc.lft.to/lastmile_qr_scan"}, "fusion_lon": 0.0}, {"lat": 38.90361566666667, "is_disabled": 0, "type": "electric_scooter", "lon": -76.97653733333334, "bike_id": "dae567ccc70834cfabdeca42b45637de", "fusion_lat": 0.0, "name": "dae567ccc70834cfabdeca42b45637de", "is_reserved": 0, "rental_uris": {"android": "https://dc.lft.to/lastmile_qr_scan", "ios": "https://dc.lft.to/lastmile_qr_scan"}, "fusion_lon": 0.0}, {"lat": 38.902603, "is_disabled": 0, "type": "electric_bike", "lon": -77.00772966666666, "bike_id": "5898b44c798f67de367d61e237077538", "fusion_lat": 0.0, "name": "5898b44c798f67de367d61e237077538", "is_reserved": 0, "rental_uris": {"android": "https://dc.lft.to/lastmile_qr_scan", "ios": "https://dc.lft.to/lastmile_qr_scan"}, "fusion_lon": 0.0}, {"lat": 38.92121983333333, "is_disabled": 0, "type": "electric_scooter", "lon": -77.04357033333334, "bike_id": "51436215909e851c8c38518644a5e723", "fusion_lat": 0.0, "name": "51436215909e851c8c38518644a5e723", "is_reserved": 0, "rental_uris": {"android": "https://dc.lft.to/lastmile_qr_scan", "ios": "https://dc.lft.to/lastmile_qr_scan"}, "fusion_lon": 0.0}, {"lat": 38.901356, "is_disabled": 0, "type": "electric_scooter", "lon": -77.000627, "bike_id": "92dea0d2103fe0ff98be14e1754ae61d", "fusion_lat": 0.0, "name": "92dea0d2103fe0ff98be14e1754ae61d", "is_reserved": 0, "rental_uris": {"android": "https://dc.lft.to/lastmile_qr_scan", "ios": "https://dc.lft.to/lastmile_qr_scan"}, "fusion_lon": 0.0}, {"lat": 38.96091533333333, "is_disabled": 0, "type": "electric_scooter", "lon": -77.0828475, "bike_id": "6b0de7a466c741ede7ccc837e4b3738f", "fusion_lat": 0.0, "name": "6b0de7a466c741ede7ccc837e4b3738f", "is_reserved": 0, "rental_uris": {"android": "https://dc.lft.to/lastmile_qr_scan", "ios": "https://dc.lft.to/lastmile_qr_scan"}, "fusion_lon": 0.0}, {"lat": 38.9234495, "is_disabled": 0, "type": "electric_bike", "lon": -76.992442, "bike_id": "6e5f4c07b850de599cd7c4fa5fb71c19", "fusion_lat": 0.0, "name": "6e5f4c07b850de599cd7c4fa5fb71c19", "is_reserved": 0, "rental_uris": {"android": "https://dc.lft.to/lastmile_qr_scan", "ios": "https://dc.lft.to/lastmile_qr_scan"}, "fusion_lon": 0.0}, {"lat": 38.92211283333334, "is_disabled": 0, "type": "electric_scooter", "lon": -77.03292366666666, "bike_id": "3c97d0429e9ba886dca0cce47201c079", "fusion_lat": 0.0, "name": "3c97d0429e9ba886dca0cce47201c079", "is_reserved": 0, "rental_uris": {"android": "https://dc.lft.to/lastmile_qr_scan", "ios": "https://dc.lft.to/lastmile_qr_scan"}, "fusion_lon": 0.0}, {"lat": 38.91550516666667, "is_disabled": 0, "type": "electric_scooter", "lon": -77.0123345, "bike_id": "6535425ededc131b7ba9783758923673", "fusion_lat": 0.0, "name": "6535425ededc131b7ba9783758923673", "is_reserved": 0, "rental_uris": {"android": "https://dc.lft.to/lastmile_qr_scan", "ios": "https://dc.lft.to/lastmile_qr_scan"}, "fusion_lon": 0.0}, {"lat": 38.90432366666667, "is_disabled": 0, "type": "electric_scooter", "lon": -77.0261645, "bike_id": "fb6f85081dbac84a4ee4aa261472cf48", "fusion_lat": 0.0, "name": "fb6f85081dbac84a4ee4aa261472cf48", "is_reserved": 0, "rental_uris": {"android": "https://dc.lft.to/lastmile_qr_scan", "ios": "https://dc.lft.to/lastmile_qr_scan"}, "fusion_lon": 0.0}, {"lat": 38.94605116666666, "is_disabled": 0, "type": "electric_scooter", "lon": -77.070406, "bike_id": "a369b8869afc5def01a74a2d18a9ebbf", "fusion_lat": 0.0, "name": "a369b8869afc5def01a74a2d18a9ebbf", "is_reserved": 0, "rental_uris": {"android": "https://dc.lft.to/lastmile_qr_scan", "ios": "https://dc.lft.to/lastmile_qr_scan"}, "fusion_lon": 0.0}, {"lat": 38.85412766666666, "is_disabled": 0, "type": "electric_bike", "lon": -76.9096175, "bike_id": "eaf7dc5921664f2d3357e6e828b7b7c0", "fusion_lat": 0.0, "name": "eaf7dc5921664f2d3357e6e828b7b7c0", "is_reserved": 0, "rental_uris": {"android": "https://dc.lft.to/lastmile_qr_scan", "ios": "https://dc.lft.to/lastmile_qr_scan"}, "fusion_lon": 0.0}, {"lat": 38.81051583333333, "is_disabled": 0, "type": "electric_bike", "lon": -77.085029, "bike_id": "014f0b352ac37c56aa539af71999a2d8", "fusion_lat": 0.0, "name": "014f0b352ac37c56aa539af71999a2d8", "is_reserved": 0, "rental_uris": {"android": "https://dc.lft.to/lastmile_qr_scan", "ios": "https://dc.lft.to/lastmile_qr_scan"}, "fusion_lon": 0.0}, {"lat": 38.9181645, "is_disabled": 0, "type": "electric_scooter", "lon": -77.02954683333333, "bike_id": "b0d006b95a393b719adc1a4f980e713a", "fusion_lat": 0.0, "name": "b0d006b95a393b719adc1a4f980e713a", "is_reserved": 0, "rental_uris": {"android": "https://dc.lft.to/lastmile_qr_scan", "ios": "https://dc.lft.to/lastmile_qr_scan"}, "fusion_lon": 0.0}, {"lat": 38.9386305, "is_disabled": 0, "type": "electric_scooter", "lon": -77.025914, "bike_id": "607a55b9b6b4b8277755c184a6a0d0a6", "fusion_lat": 0.0, "name": "607a55b9b6b4b8277755c184a6a0d0a6", "is_reserved": 0, "rental_uris": {"android": "https://dc.lft.to/lastmile_qr_scan", "ios": "https://dc.lft.to/lastmile_qr_scan"}, "fusion_lon": 0.0}, {"lat": 38.9111135, "is_disabled": 0, "type": "electric_scooter", "lon": -77.0241385, "bike_id": "ea2ac402a6fcc2da56b57da4ae628957", "fusion_lat": 0.0, "name": "ea2ac402a6fcc2da56b57da4ae628957", "is_reserved": 0, "rental_uris": {"android": "https://dc.lft.to/lastmile_qr_scan", "ios": "https://dc.lft.to/lastmile_qr_scan"}, "fusion_lon": 0.0}, {"lat": 38.9056405, "is_disabled": 0, "type": "electric_scooter", "lon": -76.9813945, "bike_id": "4546d7e99fc5be9535797083ea5451cd", "fusion_lat": 0.0, "name": "4546d7e99fc5be9535797083ea5451cd", "is_reserved": 0, "rental_uris": {"android": "https://dc.lft.to/lastmile_qr_scan", "ios": "https://dc.lft.to/lastmile_qr_scan"}, "fusion_lon": 0.0}, {"lat": 38.923150166666666, "is_disabled": 0, "type": "electric_scooter", "lon": -77.0464525, "bike_id": "ab55afff4559736ea82bbdac9295bb2e", "fusion_lat": 0.0, "name": "ab55afff4559736ea82bbdac9295bb2e", "is_reserved": 0, "rental_uris": {"android": "https://dc.lft.to/lastmile_qr_scan", "ios": "https://dc.lft.to/lastmile_qr_scan"}, "fusion_lon": 0.0}, {"lat": 38.936021833333335, "is_disabled": 0, "type": "electric_scooter", "lon": -77.05861633333333, "bike_id": "ae2923f5f231763bf320dfa6e36e7d52", "fusion_lat": 0.0, "name": "ae2923f5f231763bf320dfa6e36e7d52", "is_reserved": 0, "rental_uris": {"android": "https://dc.lft.to/lastmile_qr_scan", "ios": "https://dc.lft.to/lastmile_qr_scan"}, "fusion_lon": 0.0}, {"lat": 38.90887033333333, "is_disabled": 0, "type": "electric_scooter", "lon": -77.03202483333334, "bike_id": "66eced10a630ebb401a98a0c571ae7b8", "fusion_lat": 0.0, "name": "66eced10a630ebb401a98a0c571ae7b8", "is_reserved": 0, "rental_uris": {"android": "https://dc.lft.to/lastmile_qr_scan", "ios": "https://dc.lft.to/lastmile_qr_scan"}, "fusion_lon": 0.0}, {"lat": 38.844304, "is_disabled": 0, "type": "electric_scooter", "lon": -76.99810266666667, "bike_id": "30b3d98a74234313d71027bb228f3930", "fusion_lat": 0.0, "name": "30b3d98a74234313d71027bb228f3930", "is_reserved": 0, "rental_uris": {"android": "https://dc.lft.to/lastmile_qr_scan", "ios": "https://dc.lft.to/lastmile_qr_scan"}, "fusion_lon": 0.0}, {"lat": 38.911173166666664, "is_disabled": 0, "type": "electric_scooter", "lon": -77.04357433333334, "bike_id": "15d1f4cb8212e050877d6cc3a8abcca8", "fusion_lat": 0.0, "name": "15d1f4cb8212e050877d6cc3a8abcca8", "is_reserved": 0, "rental_uris": {"android": "https://dc.lft.to/lastmile_qr_scan", "ios": "https://dc.lft.to/lastmile_qr_scan"}, "fusion_lon": 0.0}, {"lat": 38.9006395, "is_disabled": 0, "type": "electric_scooter", "lon": -77.04913766666667, "bike_id": "c1c9f059cbb527ce120b6d77ef0fe4cd", "fusion_lat": 0.0, "name": "c1c9f059cbb527ce120b6d77ef0fe4cd", "is_reserved": 0, "rental_uris": {"android": "https://dc.lft.to/lastmile_qr_scan", "ios": "https://dc.lft.to/lastmile_qr_scan"}, "fusion_lon": 0.0}, {"lat": 38.90604366666667, "is_disabled": 0, "type": "electric_scooter", "lon": -77.0634685, "bike_id": "21e2f1631e9c5036f1549043262ff765", "fusion_lat": 0.0, "name": "21e2f1631e9c5036f1549043262ff765", "is_reserved": 0, "rental_uris": {"android": "https://dc.lft.to/lastmile_qr_scan", "ios": "https://dc.lft.to/lastmile_qr_scan"}, "fusion_lon": 0.0}, {"lat": 38.99259983333334, "is_disabled": 0, "type": "electric_scooter", "lon": -77.03652483333333, "bike_id": "a1b6fbe5ef4c6232a6041dbfdeb64935", "fusion_lat": 0.0, "name": "a1b6fbe5ef4c6232a6041dbfdeb64935", "is_reserved": 0, "rental_uris": {"android": "https://dc.lft.to/lastmile_qr_scan", "ios": "https://dc.lft.to/lastmile_qr_scan"}, "fusion_lon": 0.0}, {"lat": 38.857133833333336, "is_disabled": 0, "type": "electric_scooter", "lon": -76.9867055, "bike_id": "971bd2eb5ce721229e753abd38fb405a", "fusion_lat": 0.0, "name": "971bd2eb5ce721229e753abd38fb405a", "is_reserved": 0, "rental_uris": {"android": "https://dc.lft.to/lastmile_qr_scan", "ios": "https://dc.lft.to/lastmile_qr_scan"}, "fusion_lon": 0.0}, {"lat": 38.92590033333333, "is_disabled": 0, "type": "electric_scooter", "lon": -77.0440795, "bike_id": "801380a319f331c030f3bf79c021bd06", "fusion_lat": 0.0, "name": "801380a319f331c030f3bf79c021bd06", "is_reserved": 0, "rental_uris": {"android": "https://dc.lft.to/lastmile_qr_scan", "ios": "https://dc.lft.to/lastmile_qr_scan"}, "fusion_lon": 0.0}, {"lat": 38.893558666666664, "is_disabled": 0, "type": "electric_scooter", "lon": -77.0413915, "bike_id": "8502de6f44dd4a21ce2a3b50de671175", "fusion_lat": 0.0, "name": "8502de6f44dd4a21ce2a3b50de671175", "is_reserved": 0, "rental_uris": {"android": "https://dc.lft.to/lastmile_qr_scan", "ios": "https://dc.lft.to/lastmile_qr_scan"}, "fusion_lon": 0.0}, {"lat": 38.890727166666665, "is_disabled": 0, "type": "electric_scooter", "lon": -76.9883445, "bike_id": "340eabea793a19043c35425dce974f21", "fusion_lat": 0.0, "name": "340eabea793a19043c35425dce974f21", "is_reserved": 0, "rental_uris": {"android": "https://dc.lft.to/lastmile_qr_scan", "ios": "https://dc.lft.to/lastmile_qr_scan"}, "fusion_lon": 0.0}, {"lat": 38.9373895, "is_disabled": 0, "type": "electric_scooter", "lon": -77.0361855, "bike_id": "4356cfd738500fd867c6fa0e24c52e97", "fusion_lat": 0.0, "name": "4356cfd738500fd867c6fa0e24c52e97", "is_reserved": 0, "rental_uris": {"android": "https://dc.lft.to/lastmile_qr_scan", "ios": "https://dc.lft.to/lastmile_qr_scan"}, "fusion_lon": 0.0}, {"lat": 38.8518705, "is_disabled": 0, "type": "electric_scooter", "lon": -76.9761995, "bike_id": "19f37fe85030f1ff5f579894db7518cf", "fusion_lat": 0.0, "name": "19f37fe85030f1ff5f579894db7518cf", "is_reserved": 0, "rental_uris": {"android": "https://dc.lft.to/lastmile_qr_scan", "ios": "https://dc.lft.to/lastmile_qr_scan"}, "fusion_lon": 0.0}, {"lat": 38.91727733333333, "is_disabled": 0, "type": "electric_scooter", "lon": -77.02302166666666, "bike_id": "dfe777fbf4988c25a86d8e0f065bd26f", "fusion_lat": 0.0, "name": "dfe777fbf4988c25a86d8e0f065bd26f", "is_reserved": 0, "rental_uris": {"android": "https://dc.lft.to/lastmile_qr_scan", "ios": "https://dc.lft.to/lastmile_qr_scan"}, "fusion_lon": 0.0}, {"lat": 38.9455435, "is_disabled": 0, "type": "electric_bike", "lon": -76.89537316666667, "bike_id": "3776c660a2a69e889610d44a04b9895a", "fusion_lat": 0.0, "name": "3776c660a2a69e889610d44a04b9895a", "is_reserved": 0, "rental_uris": {"android": "https://dc.lft.to/lastmile_qr_scan", "ios": "https://dc.lft.to/lastmile_qr_scan"}, "fusion_lon": 0.0}, {"lat": 38.844319666666664, "is_disabled": 0, "type": "electric_scooter", "lon": -76.99656566666667, "bike_id": "0621453ac8dbb9f197624a4c3adb178e", "fusion_lat": 0.0, "name": "0621453ac8dbb9f197624a4c3adb178e", "is_reserved": 0, "rental_uris": {"android": "https://dc.lft.to/lastmile_qr_scan", "ios": "https://dc.lft.to/lastmile_qr_scan"}, "fusion_lon": 0.0}, {"lat": 38.905349, "is_disabled": 0, "type": "electric_scooter", "lon": -77.05713883333334, "bike_id": "fda59fce5b775ba9d309f0d4be9e3333", "fusion_lat": 0.0, "name": "fda59fce5b775ba9d309f0d4be9e3333", "is_reserved": 0, "rental_uris": {"android": "https://dc.lft.to/lastmile_qr_scan", "ios": "https://dc.lft.to/lastmile_qr_scan"}, "fusion_lon": 0.0}, {"lat": 39.034271833333335, "is_disabled": 0, "type": "electric_bike", "lon": -77.043091, "bike_id": "10b1e42f6a3619b7fda361a028ef6058", "fusion_lat": 0.0, "name": "10b1e42f6a3619b7fda361a028ef6058", "is_reserved": 0, "rental_uris": {"android": "https://dc.lft.to/lastmile_qr_scan", "ios": "https://dc.lft.to/lastmile_qr_scan"}, "fusion_lon": 0.0}, {"lat": 38.936539, "is_disabled": 0, "type": "electric_bike", "lon": -76.95218583333333, "bike_id": "a383cff80872589c6fe16ff2c36e9bde", "fusion_lat": 0.0, "name": "a383cff80872589c6fe16ff2c36e9bde", "is_reserved": 0, "rental_uris": {"android": "https://dc.lft.to/lastmile_qr_scan", "ios": "https://dc.lft.to/lastmile_qr_scan"}, "fusion_lon": 0.0}, {"lat": 38.901325166666666, "is_disabled": 0, "type": "electric_scooter", "lon": -77.0436255, "bike_id": "cd315ab3f9617e872c23c1c2df416723", "fusion_lat": 0.0, "name": "cd315ab3f9617e872c23c1c2df416723", "is_reserved": 0, "rental_uris": {"android": "https://dc.lft.to/lastmile_qr_scan", "ios": "https://dc.lft.to/lastmile_qr_scan"}, "fusion_lon": 0.0}, {"lat": 38.909904833333336, "is_disabled": 0, "type": "electric_scooter", "lon": -76.9973675, "bike_id": "2cf3a10cd1ce1f574c860bf98bfa67b9", "fusion_lat": 0.0, "name": "2cf3a10cd1ce1f574c860bf98bfa67b9", "is_reserved": 0, "rental_uris": {"android": "https://dc.lft.to/lastmile_qr_scan", "ios": "https://dc.lft.to/lastmile_qr_scan"}, "fusion_lon": 0.0}, {"lat": 38.8939795, "is_disabled": 0, "type": "electric_scooter", "lon": -77.04997983333334, "bike_id": "c7cbcb85a9e0f3315631d994e87fd645", "fusion_lat": 0.0, "name": "c7cbcb85a9e0f3315631d994e87fd645", "is_reserved": 0, "rental_uris": {"android": "https://dc.lft.to/lastmile_qr_scan", "ios": "https://dc.lft.to/lastmile_qr_scan"}, "fusion_lon": 0.0}, {"lat": 38.9007305, "is_disabled": 0, "type": "electric_scooter", "lon": -77.00196216666667, "bike_id": "7d1314be7bbab14856048eefb12e8a0f", "fusion_lat": 0.0, "name": "7d1314be7bbab14856048eefb12e8a0f", "is_reserved": 0, "rental_uris": {"android": "https://dc.lft.to/lastmile_qr_scan", "ios": "https://dc.lft.to/lastmile_qr_scan"}, "fusion_lon": 0.0}, {"lat": 39.004782, "is_disabled": 0, "type": "electric_bike", "lon": -76.90128366666667, "bike_id": "dfd5ae27b03c245ef17ad258e059068e", "fusion_lat": 0.0, "name": "dfd5ae27b03c245ef17ad258e059068e", "is_reserved": 0, "rental_uris": {"android": "https://dc.lft.to/lastmile_qr_scan", "ios": "https://dc.lft.to/lastmile_qr_scan"}, "fusion_lon": 0.0}, {"lat": 38.90954266666667, "is_disabled": 0, "type": "electric_scooter", "lon": -77.03361816666667, "bike_id": "a8c55dd5499f378fb47123ecdd49b6d0", "fusion_lat": 0.0, "name": "a8c55dd5499f378fb47123ecdd49b6d0", "is_reserved": 0, "rental_uris": {"android": "https://dc.lft.to/lastmile_qr_scan", "ios": "https://dc.lft.to/lastmile_qr_scan"}, "fusion_lon": 0.0}, {"lat": 38.91545466666667, "is_disabled": 0, "type": "electric_scooter", "lon": -77.034399, "bike_id": "08d930edd3a4232722040a6d1e3a1c4e", "fusion_lat": 0.0, "name": "08d930edd3a4232722040a6d1e3a1c4e", "is_reserved": 0, "rental_uris": {"android": "https://dc.lft.to/lastmile_qr_scan", "ios": "https://dc.lft.to/lastmile_qr_scan"}, "fusion_lon": 0.0}, {"lat": 38.91033816666667, "is_disabled": 0, "type": "electric_scooter", "lon": -77.03531433333333, "bike_id": "1fdf6c903195a950c33088094dc36389", "fusion_lat": 0.0, "name": "1fdf6c903195a950c33088094dc36389", "is_reserved": 0, "rental_uris": {"android": "https://dc.lft.to/lastmile_qr_scan", "ios": "https://dc.lft.to/lastmile_qr_scan"}, "fusion_lon": 0.0}, {"lat": 38.93283066666667, "is_disabled": 0, "type": "electric_scooter", "lon": -77.03264016666667, "bike_id": "0ac41c7b3d93844ec6e1b656686848a4", "fusion_lat": 0.0, "name": "0ac41c7b3d93844ec6e1b656686848a4", "is_reserved": 0, "rental_uris": {"android": "https://dc.lft.to/lastmile_qr_scan", "ios": "https://dc.lft.to/lastmile_qr_scan"}, "fusion_lon": 0.0}, {"lat": 38.930167833333336, "is_disabled": 0, "type": "electric_scooter", "lon": -77.04453166666667, "bike_id": "b41edfaa2ad9688e6642004865f38ca4", "fusion_lat": 0.0, "name": "b41edfaa2ad9688e6642004865f38ca4", "is_reserved": 0, "rental_uris": {"android": "https://dc.lft.to/lastmile_qr_scan", "ios": "https://dc.lft.to/lastmile_qr_scan"}, "fusion_lon": 0.0}, {"lat": 38.9231895, "is_disabled": 0, "type": "electric_scooter", "lon": -77.02801933333333, "bike_id": "56e728133df70f885626e0949039b8da", "fusion_lat": 0.0, "name": "56e728133df70f885626e0949039b8da", "is_reserved": 0, "rental_uris": {"android": "https://dc.lft.to/lastmile_qr_scan", "ios": "https://dc.lft.to/lastmile_qr_scan"}, "fusion_lon": 0.0}, {"lat": 38.828722666666664, "is_disabled": 0, "type": "electric_bike", "lon": -77.112197, "bike_id": "fe9bd133d9f829b0278dc8de56c6b921", "fusion_lat": 0.0, "name": "fe9bd133d9f829b0278dc8de56c6b921", "is_reserved": 0, "rental_uris": {"android": "https://dc.lft.to/lastmile_qr_scan", "ios": "https://dc.lft.to/lastmile_qr_scan"}, "fusion_lon": 0.0}, {"lat": 38.90839016666666, "is_disabled": 0, "type": "electric_scooter", "lon": -76.9969185, "bike_id": "b6abba129a578eaf319ff033d8f8bbcc", "fusion_lat": 0.0, "name": "b6abba129a578eaf319ff033d8f8bbcc", "is_reserved": 0, "rental_uris": {"android": "https://dc.lft.to/lastmile_qr_scan", "ios": "https://dc.lft.to/lastmile_qr_scan"}, "fusion_lon": 0.0}, {"lat": 38.933190833333335, "is_disabled": 0, "type": "electric_scooter", "lon": -77.0451835, "bike_id": "c51bd124d7a1ae27e281cc8902311b0c", "fusion_lat": 0.0, "name": "c51bd124d7a1ae27e281cc8902311b0c", "is_reserved": 0, "rental_uris": {"android": "https://dc.lft.to/lastmile_qr_scan", "ios": "https://dc.lft.to/lastmile_qr_scan"}, "fusion_lon": 0.0}, {"lat": 38.94891833333333, "is_disabled": 0, "type": "electric_scooter", "lon": -77.0304515, "bike_id": "ccc271b84e4dae48bd22d5efbf251429", "fusion_lat": 0.0, "name": "ccc271b84e4dae48bd22d5efbf251429", "is_reserved": 0, "rental_uris": {"android": "https://dc.lft.to/lastmile_qr_scan", "ios": "https://dc.lft.to/lastmile_qr_scan"}, "fusion_lon": 0.0}, {"lat": 38.97229733333333, "is_disabled": 0, "type": "electric_bike", "lon": -76.99337883333334, "bike_id": "63a50639f4a4a110ff823e02b882cb94", "fusion_lat": 0.0, "name": "63a50639f4a4a110ff823e02b882cb94", "is_reserved": 0, "rental_uris": {"android": "https://dc.lft.to/lastmile_qr_scan", "ios": "https://dc.lft.to/lastmile_qr_scan"}, "fusion_lon": 0.0}, {"lat": 38.90340616666667, "is_disabled": 0, "type": "electric_scooter", "lon": -77.03760783333334, "bike_id": "86e93fe50c23c24f3ff71d36ee055e3b", "fusion_lat": 0.0, "name": "86e93fe50c23c24f3ff71d36ee055e3b", "is_reserved": 0, "rental_uris": {"android": "https://dc.lft.to/lastmile_qr_scan", "ios": "https://dc.lft.to/lastmile_qr_scan"}, "fusion_lon": 0.0}, {"lat": 38.922410166666666, "is_disabled": 0, "type": "electric_scooter", "lon": -77.04566516666667, "bike_id": "a9686c67e2fb7ced3b4a577c584b89de", "fusion_lat": 0.0, "name": "a9686c67e2fb7ced3b4a577c584b89de", "is_reserved": 0, "rental_uris": {"android": "https://dc.lft.to/lastmile_qr_scan", "ios": "https://dc.lft.to/lastmile_qr_scan"}, "fusion_lon": 0.0}, {"lat": 38.9207245, "is_disabled": 0, "type": "electric_scooter", "lon": -77.0318785, "bike_id": "b8000bad1e4462c54f6ba7c2035462be", "fusion_lat": 0.0, "name": "b8000bad1e4462c54f6ba7c2035462be", "is_reserved": 0, "rental_uris": {"android": "https://dc.lft.to/lastmile_qr_scan", "ios": "https://dc.lft.to/lastmile_qr_scan"}, "fusion_lon": 0.0}, {"lat": 38.85938083333333, "is_disabled": 0, "type": "electric_scooter", "lon": -76.9897905, "bike_id": "4124ed02a66436be8a66d47526caa91d", "fusion_lat": 0.0, "name": "4124ed02a66436be8a66d47526caa91d", "is_reserved": 0, "rental_uris": {"android": "https://dc.lft.to/lastmile_qr_scan", "ios": "https://dc.lft.to/lastmile_qr_scan"}, "fusion_lon": 0.0}, {"lat": 38.930609833333335, "is_disabled": 0, "type": "electric_scooter", "lon": -77.04030833333333, "bike_id": "a11d3d607c7253e2775550070ec9f11a", "fusion_lat": 0.0, "name": "a11d3d607c7253e2775550070ec9f11a", "is_reserved": 0, "rental_uris": {"android": "https://dc.lft.to/lastmile_qr_scan", "ios": "https://dc.lft.to/lastmile_qr_scan"}, "fusion_lon": 0.0}, {"lat": 38.923143, "is_disabled": 0, "type": "electric_scooter", "lon": -77.03962516666667, "bike_id": "3d17ae6c55b69412cc52f6679e510038", "fusion_lat": 0.0, "name": "3d17ae6c55b69412cc52f6679e510038", "is_reserved": 0, "rental_uris": {"android": "https://dc.lft.to/lastmile_qr_scan", "ios": "https://dc.lft.to/lastmile_qr_scan"}, "fusion_lon": 0.0}, {"lat": 38.90533933333333, "is_disabled": 0, "type": "electric_scooter", "lon": -77.05712516666667, "bike_id": "4ba9f6625ae887ee7f7ecb32988d938c", "fusion_lat": 0.0, "name": "4ba9f6625ae887ee7f7ecb32988d938c", "is_reserved": 0, "rental_uris": {"android": "https://dc.lft.to/lastmile_qr_scan", "ios": "https://dc.lft.to/lastmile_qr_scan"}, "fusion_lon": 0.0}, {"lat": 38.922567666666666, "is_disabled": 0, "type": "electric_scooter", "lon": -77.02341683333333, "bike_id": "ab50ee5f89501230b5bf04816ac7fcd3", "fusion_lat": 0.0, "name": "ab50ee5f89501230b5bf04816ac7fcd3", "is_reserved": 0, "rental_uris": {"android": "https://dc.lft.to/lastmile_qr_scan", "ios": "https://dc.lft.to/lastmile_qr_scan"}, "fusion_lon": 0.0}, {"lat": 38.9029215, "is_disabled": 0, "type": "electric_scooter", "lon": -77.0439025, "bike_id": "08daffd75a62e185cac8ba6677421b02", "fusion_lat": 0.0, "name": "08daffd75a62e185cac8ba6677421b02", "is_reserved": 0, "rental_uris": {"android": "https://dc.lft.to/lastmile_qr_scan", "ios": "https://dc.lft.to/lastmile_qr_scan"}, "fusion_lon": 0.0}, {"lat": 38.9117425, "is_disabled": 0, "type": "electric_scooter", "lon": -77.03184616666667, "bike_id": "335aab3e8a2ecd0b7794fb7995e5bdb5", "fusion_lat": 0.0, "name": "335aab3e8a2ecd0b7794fb7995e5bdb5", "is_reserved": 0, "rental_uris": {"android": "https://dc.lft.to/lastmile_qr_scan", "ios": "https://dc.lft.to/lastmile_qr_scan"}, "fusion_lon": 0.0}, {"lat": 38.933809, "is_disabled": 0, "type": "electric_scooter", "lon": -77.03250683333333, "bike_id": "a3a7316a7b5908d7dfb61990030e5ad9", "fusion_lat": 0.0, "name": "a3a7316a7b5908d7dfb61990030e5ad9", "is_reserved": 0, "rental_uris": {"android": "https://dc.lft.to/lastmile_qr_scan", "ios": "https://dc.lft.to/lastmile_qr_scan"}, "fusion_lon": 0.0}, {"lat": 38.905380666666666, "is_disabled": 0, "type": "electric_bike", "lon": -77.00211966666667, "bike_id": "3597bb7d9c5ae28e2832fbb77bff6a7d", "fusion_lat": 0.0, "name": "3597bb7d9c5ae28e2832fbb77bff6a7d", "is_reserved": 0, "rental_uris": {"android": "https://dc.lft.to/lastmile_qr_scan", "ios": "https://dc.lft.to/lastmile_qr_scan"}, "fusion_lon": 0.0}, {"lat": 38.91316616666667, "is_disabled": 0, "type": "electric_scooter", "lon": -77.04468916666667, "bike_id": "18386be78fdd82b6ff7da9abd2887500", "fusion_lat": 0.0, "name": "18386be78fdd82b6ff7da9abd2887500", "is_reserved": 0, "rental_uris": {"android": "https://dc.lft.to/lastmile_qr_scan", "ios": "https://dc.lft.to/lastmile_qr_scan"}, "fusion_lon": 0.0}, {"lat": 38.927288, "is_disabled": 0, "type": "electric_scooter", "lon": -77.02244683333333, "bike_id": "f899f0f720f521fd585f5e146811a3c8", "fusion_lat": 0.0, "name": "f899f0f720f521fd585f5e146811a3c8", "is_reserved": 0, "rental_uris": {"android": "https://dc.lft.to/lastmile_qr_scan", "ios": "https://dc.lft.to/lastmile_qr_scan"}, "fusion_lon": 0.0}, {"lat": 38.92311216666667, "is_disabled": 0, "type": "electric_scooter", "lon": -77.03636833333333, "bike_id": "3609f81d5ced25c2226e8bda4048243b", "fusion_lat": 0.0, "name": "3609f81d5ced25c2226e8bda4048243b", "is_reserved": 0, "rental_uris": {"android": "https://dc.lft.to/lastmile_qr_scan", "ios": "https://dc.lft.to/lastmile_qr_scan"}, "fusion_lon": 0.0}, {"lat": 38.88597083333333, "is_disabled": 0, "type": "electric_scooter", "lon": -77.02198483333333, "bike_id": "c5796d33434fdf2d49d0145b84444383", "fusion_lat": 0.0, "name": "c5796d33434fdf2d49d0145b84444383", "is_reserved": 0, "rental_uris": {"android": "https://dc.lft.to/lastmile_qr_scan", "ios": "https://dc.lft.to/lastmile_qr_scan"}, "fusion_lon": 0.0}, {"lat": 38.91693083333333, "is_disabled": 0, "type": "electric_scooter", "lon": -77.0374355, "bike_id": "e5fceafb782a19d5df3e7e062384a6dd", "fusion_lat": 0.0, "name": "e5fceafb782a19d5df3e7e062384a6dd", "is_reserved": 0, "rental_uris": {"android": "https://dc.lft.to/lastmile_qr_scan", "ios": "https://dc.lft.to/lastmile_qr_scan"}, "fusion_lon": 0.0}, {"lat": 38.907245333333336, "is_disabled": 0, "type": "electric_scooter", "lon": -77.0450045, "bike_id": "09df8bba3598b82b73d531d19311d65f", "fusion_lat": 0.0, "name": "09df8bba3598b82b73d531d19311d65f", "is_reserved": 0, "rental_uris": {"android": "https://dc.lft.to/lastmile_qr_scan", "ios": "https://dc.lft.to/lastmile_qr_scan"}, "fusion_lon": 0.0}, {"lat": 38.9267215, "is_disabled": 0, "type": "electric_scooter", "lon": -77.01525983333333, "bike_id": "2a36d8c3cd34ccbca6368318e946b972", "fusion_lat": 0.0, "name": "2a36d8c3cd34ccbca6368318e946b972", "is_reserved": 0, "rental_uris": {"android": "https://dc.lft.to/lastmile_qr_scan", "ios": "https://dc.lft.to/lastmile_qr_scan"}, "fusion_lon": 0.0}, {"lat": 38.90268366666667, "is_disabled": 0, "type": "electric_scooter", "lon": -77.0363325, "bike_id": "01b140bb43f1867a269a9217c6b26677", "fusion_lat": 0.0, "name": "01b140bb43f1867a269a9217c6b26677", "is_reserved": 0, "rental_uris": {"android": "https://dc.lft.to/lastmile_qr_scan", "ios": "https://dc.lft.to/lastmile_qr_scan"}, "fusion_lon": 0.0}, {"lat": 38.91417383333334, "is_disabled": 0, "type": "electric_scooter", "lon": -77.02939733333334, "bike_id": "5195358695ada5f2b21deb082d03c9ea", "fusion_lat": 0.0, "name": "5195358695ada5f2b21deb082d03c9ea", "is_reserved": 0, "rental_uris": {"android": "https://dc.lft.to/lastmile_qr_scan", "ios": "https://dc.lft.to/lastmile_qr_scan"}, "fusion_lon": 0.0}, {"lat": 38.902477166666664, "is_disabled": 0, "type": "electric_scooter", "lon": -77.01830983333333, "bike_id": "44179a7e68fd629ff6103341323d4101", "fusion_lat": 0.0, "name": "44179a7e68fd629ff6103341323d4101", "is_reserved": 0, "rental_uris": {"android": "https://dc.lft.to/lastmile_qr_scan", "ios": "https://dc.lft.to/lastmile_qr_scan"}, "fusion_lon": 0.0}, {"lat": 38.932077666666665, "is_disabled": 0, "type": "electric_scooter", "lon": -77.084919, "bike_id": "c0115ee6d08dc65148cc70f9ce3f16e4", "fusion_lat": 0.0, "name": "c0115ee6d08dc65148cc70f9ce3f16e4", "is_reserved": 0, "rental_uris": {"android": "https://dc.lft.to/lastmile_qr_scan", "ios": "https://dc.lft.to/lastmile_qr_scan"}, "fusion_lon": 0.0}, {"lat": 38.877312333333336, "is_disabled": 0, "type": "electric_bike", "lon": -77.118495, "bike_id": "040dee0ea94b18df6a1176d761996832", "fusion_lat": 0.0, "name": "040dee0ea94b18df6a1176d761996832", "is_reserved": 0, "rental_uris": {"android": "https://dc.lft.to/lastmile_qr_scan", "ios": "https://dc.lft.to/lastmile_qr_scan"}, "fusion_lon": 0.0}, {"lat": 38.946335166666664, "is_disabled": 0, "type": "electric_scooter", "lon": -77.01844733333333, "bike_id": "ec02aaffa21559fbb3e982d892c8775a", "fusion_lat": 0.0, "name": "ec02aaffa21559fbb3e982d892c8775a", "is_reserved": 0, "rental_uris": {"android": "https://dc.lft.to/lastmile_qr_scan", "ios": "https://dc.lft.to/lastmile_qr_scan"}, "fusion_lon": 0.0}, {"lat": 38.862557, "is_disabled": 0, "type": "electric_scooter", "lon": -76.986934, "bike_id": "f496d260bfcc4f996b19416a8e4910c8", "fusion_lat": 0.0, "name": "f496d260bfcc4f996b19416a8e4910c8", "is_reserved": 0, "rental_uris": {"android": "https://dc.lft.to/lastmile_qr_scan", "ios": "https://dc.lft.to/lastmile_qr_scan"}, "fusion_lon": 0.0}, {"lat": 38.867476, "is_disabled": 0, "type": "electric_scooter", "lon": -76.97660566666667, "bike_id": "d31cab2740312e1c3a16a00d83a3cae3", "fusion_lat": 0.0, "name": "d31cab2740312e1c3a16a00d83a3cae3", "is_reserved": 0, "rental_uris": {"android": "https://dc.lft.to/lastmile_qr_scan", "ios": "https://dc.lft.to/lastmile_qr_scan"}, "fusion_lon": 0.0}, {"lat": 38.951839166666666, "is_disabled": 0, "type": "electric_bike", "lon": -76.93543816666667, "bike_id": "687a71a8e5689958cb48e45974654f24", "fusion_lat": 0.0, "name": "687a71a8e5689958cb48e45974654f24", "is_reserved": 0, "rental_uris": {"android": "https://dc.lft.to/lastmile_qr_scan", "ios": "https://dc.lft.to/lastmile_qr_scan"}, "fusion_lon": 0.0}, {"lat": 38.919203833333334, "is_disabled": 0, "type": "electric_scooter", "lon": -77.0246915, "bike_id": "35d64a71f4d93c301a690336196d70c6", "fusion_lat": 0.0, "name": "35d64a71f4d93c301a690336196d70c6", "is_reserved": 0, "rental_uris": {"android": "https://dc.lft.to/lastmile_qr_scan", "ios": "https://dc.lft.to/lastmile_qr_scan"}, "fusion_lon": 0.0}, {"lat": 38.90622116666667, "is_disabled": 0, "type": "electric_scooter", "lon": -77.021839, "bike_id": "72802015edf4907ee60f0d49547b273f", "fusion_lat": 0.0, "name": "72802015edf4907ee60f0d49547b273f", "is_reserved": 0, "rental_uris": {"android": "https://dc.lft.to/lastmile_qr_scan", "ios": "https://dc.lft.to/lastmile_qr_scan"}, "fusion_lon": 0.0}, {"lat": 38.900725333333334, "is_disabled": 0, "type": "electric_scooter", "lon": -77.04396966666667, "bike_id": "0c60f3f146cbc45242517b5e9bd15d0f", "fusion_lat": 0.0, "name": "0c60f3f146cbc45242517b5e9bd15d0f", "is_reserved": 0, "rental_uris": {"android": "https://dc.lft.to/lastmile_qr_scan", "ios": "https://dc.lft.to/lastmile_qr_scan"}, "fusion_lon": 0.0}, {"lat": 38.915677, "is_disabled": 0, "type": "electric_scooter", "lon": -77.019985, "bike_id": "8e2e2442bb0b7c4802157d753fb7f0a0", "fusion_lat": 0.0, "name": "8e2e2442bb0b7c4802157d753fb7f0a0", "is_reserved": 0, "rental_uris": {"android": "https://dc.lft.to/lastmile_qr_scan", "ios": "https://dc.lft.to/lastmile_qr_scan"}, "fusion_lon": 0.0}, {"lat": 38.954138666666665, "is_disabled": 0, "type": "electric_bike", "lon": -76.980577, "bike_id": "602396b03d0ff3aa1579b5e659a1a682", "fusion_lat": 0.0, "name": "602396b03d0ff3aa1579b5e659a1a682", "is_reserved": 0, "rental_uris": {"android": "https://dc.lft.to/lastmile_qr_scan", "ios": "https://dc.lft.to/lastmile_qr_scan"}, "fusion_lon": 0.0}, {"lat": 38.90121116666667, "is_disabled": 0, "type": "electric_scooter", "lon": -77.033125, "bike_id": "cd00caa6f9ea416226a1619fe773e6dc", "fusion_lat": 0.0, "name": "cd00caa6f9ea416226a1619fe773e6dc", "is_reserved": 0, "rental_uris": {"android": "https://dc.lft.to/lastmile_qr_scan", "ios": "https://dc.lft.to/lastmile_qr_scan"}, "fusion_lon": 0.0}, {"lat": 38.873460333333334, "is_disabled": 0, "type": "electric_scooter", "lon": -76.991642, "bike_id": "38ec739b16dfef18e579971786527626", "fusion_lat": 0.0, "name": "38ec739b16dfef18e579971786527626", "is_reserved": 0, "rental_uris": {"android": "https://dc.lft.to/lastmile_qr_scan", "ios": "https://dc.lft.to/lastmile_qr_scan"}, "fusion_lon": 0.0}, {"lat": 38.8762965, "is_disabled": 0, "type": "electric_scooter", "lon": -76.965203, "bike_id": "373f8b556ebbbd577339b206224edef3", "fusion_lat": 0.0, "name": "373f8b556ebbbd577339b206224edef3", "is_reserved": 0, "rental_uris": {"android": "https://dc.lft.to/lastmile_qr_scan", "ios": "https://dc.lft.to/lastmile_qr_scan"}, "fusion_lon": 0.0}, {"lat": 38.9071845, "is_disabled": 0, "type": "electric_scooter", "lon": -77.0274685, "bike_id": "661f59922f4acab4326c61d44ded6b9b", "fusion_lat": 0.0, "name": "661f59922f4acab4326c61d44ded6b9b", "is_reserved": 0, "rental_uris": {"android": "https://dc.lft.to/lastmile_qr_scan", "ios": "https://dc.lft.to/lastmile_qr_scan"}, "fusion_lon": 0.0}, {"lat": 38.90833216666667, "is_disabled": 0, "type": "electric_scooter", "lon": -76.9970505, "bike_id": "316c77a3433f3c027b1bd8713228ddf0", "fusion_lat": 0.0, "name": "316c77a3433f3c027b1bd8713228ddf0", "is_reserved": 0, "rental_uris": {"android": "https://dc.lft.to/lastmile_qr_scan", "ios": "https://dc.lft.to/lastmile_qr_scan"}, "fusion_lon": 0.0}, {"lat": 38.911229166666665, "is_disabled": 0, "type": "electric_scooter", "lon": -77.0032875, "bike_id": "ad631d71a9bf73de2087c92c92369f51", "fusion_lat": 0.0, "name": "ad631d71a9bf73de2087c92c92369f51", "is_reserved": 0, "rental_uris": {"android": "https://dc.lft.to/lastmile_qr_scan", "ios": "https://dc.lft.to/lastmile_qr_scan"}, "fusion_lon": 0.0}, {"lat": 38.92467583333333, "is_disabled": 0, "type": "electric_bike", "lon": -77.208323, "bike_id": "282cf3973d8a15d66266f89a9c5d8b5c", "fusion_lat": 0.0, "name": "282cf3973d8a15d66266f89a9c5d8b5c", "is_reserved": 0, "rental_uris": {"android": "https://dc.lft.to/lastmile_qr_scan", "ios": "https://dc.lft.to/lastmile_qr_scan"}, "fusion_lon": 0.0}, {"lat": 38.91695933333333, "is_disabled": 0, "type": "electric_scooter", "lon": -77.037572, "bike_id": "6e61b8581b676492a91a5934a26f019c", "fusion_lat": 0.0, "name": "6e61b8581b676492a91a5934a26f019c", "is_reserved": 0, "rental_uris": {"android": "https://dc.lft.to/lastmile_qr_scan", "ios": "https://dc.lft.to/lastmile_qr_scan"}, "fusion_lon": 0.0}, {"lat": 38.842539333333335, "is_disabled": 0, "type": "electric_bike", "lon": -77.05832766666667, "bike_id": "e905da9e3d8744d4337581b3cfc63b58", "fusion_lat": 0.0, "name": "e905da9e3d8744d4337581b3cfc63b58", "is_reserved": 0, "rental_uris": {"android": "https://dc.lft.to/lastmile_qr_scan", "ios": "https://dc.lft.to/lastmile_qr_scan"}, "fusion_lon": 0.0}, {"lat": 38.9360535, "is_disabled": 0, "type": "electric_scooter", "lon": -77.0352295, "bike_id": "e283b56f15a454ee5f595dcba611f477", "fusion_lat": 0.0, "name": "e283b56f15a454ee5f595dcba611f477", "is_reserved": 0, "rental_uris": {"android": "https://dc.lft.to/lastmile_qr_scan", "ios": "https://dc.lft.to/lastmile_qr_scan"}, "fusion_lon": 0.0}, {"lat": 38.91698866666667, "is_disabled": 0, "type": "electric_scooter", "lon": -77.042721, "bike_id": "73acf9f789d7f98d4735616ac8ab002c", "fusion_lat": 0.0, "name": "73acf9f789d7f98d4735616ac8ab002c", "is_reserved": 0, "rental_uris": {"android": "https://dc.lft.to/lastmile_qr_scan", "ios": "https://dc.lft.to/lastmile_qr_scan"}, "fusion_lon": 0.0}, {"lat": 38.900355166666664, "is_disabled": 0, "type": "electric_scooter", "lon": -77.0058775, "bike_id": "99700064b7058c554b2350c44e4d45c6", "fusion_lat": 0.0, "name": "99700064b7058c554b2350c44e4d45c6", "is_reserved": 0, "rental_uris": {"android": "https://dc.lft.to/lastmile_qr_scan", "ios": "https://dc.lft.to/lastmile_qr_scan"}, "fusion_lon": 0.0}, {"lat": 38.91110333333334, "is_disabled": 0, "type": "electric_scooter", "lon": -77.038292, "bike_id": "15030b0eb476ddc6ec34095ad03fdc67", "fusion_lat": 0.0, "name": "15030b0eb476ddc6ec34095ad03fdc67", "is_reserved": 0, "rental_uris": {"android": "https://dc.lft.to/lastmile_qr_scan", "ios": "https://dc.lft.to/lastmile_qr_scan"}, "fusion_lon": 0.0}, {"lat": 38.90718483333333, "is_disabled": 0, "type": "electric_scooter", "lon": -77.0060105, "bike_id": "0326d04b991a7b76d706b682f00f21dd", "fusion_lat": 0.0, "name": "0326d04b991a7b76d706b682f00f21dd", "is_reserved": 0, "rental_uris": {"android": "https://dc.lft.to/lastmile_qr_scan", "ios": "https://dc.lft.to/lastmile_qr_scan"}, "fusion_lon": 0.0}, {"lat": 38.937428, "is_disabled": 0, "type": "electric_scooter", "lon": -77.0347055, "bike_id": "104c284c6565dfcf02294197c0567db1", "fusion_lat": 0.0, "name": "104c284c6565dfcf02294197c0567db1", "is_reserved": 0, "rental_uris": {"android": "https://dc.lft.to/lastmile_qr_scan", "ios": "https://dc.lft.to/lastmile_qr_scan"}, "fusion_lon": 0.0}, {"lat": 38.9164985, "is_disabled": 0, "type": "electric_scooter", "lon": -77.02181633333333, "bike_id": "e45695821d843b7fbbce7cc0ee99d3b7", "fusion_lat": 0.0, "name": "e45695821d843b7fbbce7cc0ee99d3b7", "is_reserved": 0, "rental_uris": {"android": "https://dc.lft.to/lastmile_qr_scan", "ios": "https://dc.lft.to/lastmile_qr_scan"}, "fusion_lon": 0.0}, {"lat": 38.901144333333335, "is_disabled": 0, "type": "electric_scooter", "lon": -76.99615516666667, "bike_id": "95d495203ba411870c52df966648f5e9", "fusion_lat": 0.0, "name": "95d495203ba411870c52df966648f5e9", "is_reserved": 0, "rental_uris": {"android": "https://dc.lft.to/lastmile_qr_scan", "ios": "https://dc.lft.to/lastmile_qr_scan"}, "fusion_lon": 0.0}, {"lat": 38.92746983333333, "is_disabled": 0, "type": "electric_scooter", "lon": -77.02416466666666, "bike_id": "9539aac00a8b6b65a64f1f84794765d0", "fusion_lat": 0.0, "name": "9539aac00a8b6b65a64f1f84794765d0", "is_reserved": 0, "rental_uris": {"android": "https://dc.lft.to/lastmile_qr_scan", "ios": "https://dc.lft.to/lastmile_qr_scan"}, "fusion_lon": 0.0}, {"lat": 38.8857845, "is_disabled": 0, "type": "electric_scooter", "lon": -76.9190925, "bike_id": "4fb18f64f49918bbb4e1cd9b2c445f9c", "fusion_lat": 0.0, "name": "4fb18f64f49918bbb4e1cd9b2c445f9c", "is_reserved": 0, "rental_uris": {"android": "https://dc.lft.to/lastmile_qr_scan", "ios": "https://dc.lft.to/lastmile_qr_scan"}, "fusion_lon": 0.0}, {"lat": 38.89729083333334, "is_disabled": 0, "type": "electric_scooter", "lon": -77.04908266666666, "bike_id": "c6d684643cf81d9e3d270839bf630d02", "fusion_lat": 0.0, "name": "c6d684643cf81d9e3d270839bf630d02", "is_reserved": 0, "rental_uris": {"android": "https://dc.lft.to/lastmile_qr_scan", "ios": "https://dc.lft.to/lastmile_qr_scan"}, "fusion_lon": 0.0}, {"lat": 38.921815, "is_disabled": 0, "type": "electric_scooter", "lon": -77.04706266666666, "bike_id": "4a70e8c3f345c03f58620ae2fc469a01", "fusion_lat": 0.0, "name": "4a70e8c3f345c03f58620ae2fc469a01", "is_reserved": 0, "rental_uris": {"android": "https://dc.lft.to/lastmile_qr_scan", "ios": "https://dc.lft.to/lastmile_qr_scan"}, "fusion_lon": 0.0}, {"lat": 38.914134, "is_disabled": 0, "type": "electric_scooter", "lon": -77.01323566666667, "bike_id": "3351c150e4aadb857da5cea3ab6c8889", "fusion_lat": 0.0, "name": "3351c150e4aadb857da5cea3ab6c8889", "is_reserved": 0, "rental_uris": {"android": "https://dc.lft.to/lastmile_qr_scan", "ios": "https://dc.lft.to/lastmile_qr_scan"}, "fusion_lon": 0.0}, {"lat": 38.947925833333336, "is_disabled": 0, "type": "electric_scooter", "lon": -77.02170733333334, "bike_id": "819651855e462d9bf6186534c4a1db27", "fusion_lat": 0.0, "name": "819651855e462d9bf6186534c4a1db27", "is_reserved": 0, "rental_uris": {"android": "https://dc.lft.to/lastmile_qr_scan", "ios": "https://dc.lft.to/lastmile_qr_scan"}, "fusion_lon": 0.0}, {"lat": 38.9260455, "is_disabled": 0, "type": "electric_scooter", "lon": -77.056918, "bike_id": "24e03ab298e0590dfd1f2e711659a38a", "fusion_lat": 0.0, "name": "24e03ab298e0590dfd1f2e711659a38a", "is_reserved": 0, "rental_uris": {"android": "https://dc.lft.to/lastmile_qr_scan", "ios": "https://dc.lft.to/lastmile_qr_scan"}, "fusion_lon": 0.0}, {"lat": 38.88885833333333, "is_disabled": 0, "type": "electric_scooter", "lon": -76.93152516666666, "bike_id": "405c0139aac2ce9c4982e8cc481a7f0f", "fusion_lat": 0.0, "name": "405c0139aac2ce9c4982e8cc481a7f0f", "is_reserved": 0, "rental_uris": {"android": "https://dc.lft.to/lastmile_qr_scan", "ios": "https://dc.lft.to/lastmile_qr_scan"}, "fusion_lon": 0.0}, {"lat": 38.911195, "is_disabled": 0, "type": "electric_scooter", "lon": -77.03840733333334, "bike_id": "800fc019d9a5f15d4409c33144ab37e7", "fusion_lat": 0.0, "name": "800fc019d9a5f15d4409c33144ab37e7", "is_reserved": 0, "rental_uris": {"android": "https://dc.lft.to/lastmile_qr_scan", "ios": "https://dc.lft.to/lastmile_qr_scan"}, "fusion_lon": 0.0}, {"lat": 38.8873765, "is_disabled": 0, "type": "electric_scooter", "lon": -77.01528866666666, "bike_id": "fe6272ddafe13f91076a1b543d03c2ee", "fusion_lat": 0.0, "name": "fe6272ddafe13f91076a1b543d03c2ee", "is_reserved": 0, "rental_uris": {"android": "https://dc.lft.to/lastmile_qr_scan", "ios": "https://dc.lft.to/lastmile_qr_scan"}, "fusion_lon": 0.0}, {"lat": 38.88403383333333, "is_disabled": 0, "type": "electric_bike", "lon": -76.95417133333333, "bike_id": "c60b911ba014f8a61c5bc72a5be67fa7", "fusion_lat": 0.0, "name": "c60b911ba014f8a61c5bc72a5be67fa7", "is_reserved": 0, "rental_uris": {"android": "https://dc.lft.to/lastmile_qr_scan", "ios": "https://dc.lft.to/lastmile_qr_scan"}, "fusion_lon": 0.0}, {"lat": 38.91190433333333, "is_disabled": 0, "type": "electric_scooter", "lon": -77.04292716666667, "bike_id": "67d24551a5e237cbdb98ea4299067007", "fusion_lat": 0.0, "name": "67d24551a5e237cbdb98ea4299067007", "is_reserved": 0, "rental_uris": {"android": "https://dc.lft.to/lastmile_qr_scan", "ios": "https://dc.lft.to/lastmile_qr_scan"}, "fusion_lon": 0.0}, {"lat": 38.91976566666666, "is_disabled": 0, "type": "electric_scooter", "lon": -77.01209983333334, "bike_id": "b30bcb5b0a0bc872fac6ddd2136a90c9", "fusion_lat": 0.0, "name": "b30bcb5b0a0bc872fac6ddd2136a90c9", "is_reserved": 0, "rental_uris": {"android": "https://dc.lft.to/lastmile_qr_scan", "ios": "https://dc.lft.to/lastmile_qr_scan"}, "fusion_lon": 0.0}, {"lat": 38.911659, "is_disabled": 0, "type": "electric_scooter", "lon": -77.04663816666667, "bike_id": "e10e4bdc3c74cf30b03b5292c92979dc", "fusion_lat": 0.0, "name": "e10e4bdc3c74cf30b03b5292c92979dc", "is_reserved": 0, "rental_uris": {"android": "https://dc.lft.to/lastmile_qr_scan", "ios": "https://dc.lft.to/lastmile_qr_scan"}, "fusion_lon": 0.0}, {"lat": 38.89809316666667, "is_disabled": 0, "type": "electric_scooter", "lon": -77.0310395, "bike_id": "504815ad1251bf30cc6980a0914fa3bf", "fusion_lat": 0.0, "name": "504815ad1251bf30cc6980a0914fa3bf", "is_reserved": 0, "rental_uris": {"android": "https://dc.lft.to/lastmile_qr_scan", "ios": "https://dc.lft.to/lastmile_qr_scan"}, "fusion_lon": 0.0}, {"lat": 38.95561466666667, "is_disabled": 0, "type": "electric_scooter", "lon": -77.0222435, "bike_id": "ba784faeebb03647038fdd81a861a910", "fusion_lat": 0.0, "name": "ba784faeebb03647038fdd81a861a910", "is_reserved": 0, "rental_uris": {"android": "https://dc.lft.to/lastmile_qr_scan", "ios": "https://dc.lft.to/lastmile_qr_scan"}, "fusion_lon": 0.0}, {"lat": 39.056344, "is_disabled": 0, "type": "electric_bike", "lon": -77.12523266666666, "bike_id": "e5a4c1e31d4b15fba885dc212276f1a8", "fusion_lat": 0.0, "name": "e5a4c1e31d4b15fba885dc212276f1a8", "is_reserved": 0, "rental_uris": {"android": "https://dc.lft.to/lastmile_qr_scan", "ios": "https://dc.lft.to/lastmile_qr_scan"}, "fusion_lon": 0.0}, {"lat": 38.932120166666664, "is_disabled": 0, "type": "electric_scooter", "lon": -77.02243166666666, "bike_id": "86defbcded9d830b8a1c19ccc5f89600", "fusion_lat": 0.0, "name": "86defbcded9d830b8a1c19ccc5f89600", "is_reserved": 0, "rental_uris": {"android": "https://dc.lft.to/lastmile_qr_scan", "ios": "https://dc.lft.to/lastmile_qr_scan"}, "fusion_lon": 0.0}, {"lat": 38.89039966666667, "is_disabled": 0, "type": "electric_scooter", "lon": -76.95245883333334, "bike_id": "f0266e3ae53241ccf7830e20b10a73dd", "fusion_lat": 0.0, "name": "f0266e3ae53241ccf7830e20b10a73dd", "is_reserved": 0, "rental_uris": {"android": "https://dc.lft.to/lastmile_qr_scan", "ios": "https://dc.lft.to/lastmile_qr_scan"}, "fusion_lon": 0.0}, {"lat": 38.90280116666667, "is_disabled": 0, "type": "electric_scooter", "lon": -77.0438665, "bike_id": "e2197a7b74eb5adae32ad65d33349df4", "fusion_lat": 0.0, "name": "e2197a7b74eb5adae32ad65d33349df4", "is_reserved": 0, "rental_uris": {"android": "https://dc.lft.to/lastmile_qr_scan", "ios": "https://dc.lft.to/lastmile_qr_scan"}, "fusion_lon": 0.0}, {"lat": 38.96927683333333, "is_disabled": 0, "type": "electric_bike", "lon": -77.026161, "bike_id": "7dac42bc52be8f02a6bdb79dc48ec343", "fusion_lat": 0.0, "name": "7dac42bc52be8f02a6bdb79dc48ec343", "is_reserved": 0, "rental_uris": {"android": "https://dc.lft.to/lastmile_qr_scan", "ios": "https://dc.lft.to/lastmile_qr_scan"}, "fusion_lon": 0.0}, {"lat": 38.90381416666666, "is_disabled": 0, "type": "electric_scooter", "lon": -77.0363265, "bike_id": "6987e2c0122bd697476e293856fb0cc0", "fusion_lat": 0.0, "name": "6987e2c0122bd697476e293856fb0cc0", "is_reserved": 0, "rental_uris": {"android": "https://dc.lft.to/lastmile_qr_scan", "ios": "https://dc.lft.to/lastmile_qr_scan"}, "fusion_lon": 0.0}, {"lat": 38.904552833333334, "is_disabled": 0, "type": "electric_scooter", "lon": -76.99456833333333, "bike_id": "5f754c792626251e3ac8d4c577f42c21", "fusion_lat": 0.0, "name": "5f754c792626251e3ac8d4c577f42c21", "is_reserved": 0, "rental_uris": {"android": "https://dc.lft.to/lastmile_qr_scan", "ios": "https://dc.lft.to/lastmile_qr_scan"}, "fusion_lon": 0.0}, {"lat": 38.906076, "is_disabled": 0, "type": "electric_scooter", "lon": -77.06354216666666, "bike_id": "b40d6d0ff80a5e33cda4762e00b31c28", "fusion_lat": 0.0, "name": "b40d6d0ff80a5e33cda4762e00b31c28", "is_reserved": 0, "rental_uris": {"android": "https://dc.lft.to/lastmile_qr_scan", "ios": "https://dc.lft.to/lastmile_qr_scan"}, "fusion_lon": 0.0}, {"lat": 38.892553666666664, "is_disabled": 0, "type": "electric_scooter", "lon": -77.04895183333333, "bike_id": "f5396576a4faad3c7ef2c02d16c351e2", "fusion_lat": 0.0, "name": "f5396576a4faad3c7ef2c02d16c351e2", "is_reserved": 0, "rental_uris": {"android": "https://dc.lft.to/lastmile_qr_scan", "ios": "https://dc.lft.to/lastmile_qr_scan"}, "fusion_lon": 0.0}, {"lat": 38.933628666666664, "is_disabled": 0, "type": "electric_scooter", "lon": -77.057506, "bike_id": "5096231296c8b7383dbb1e0d4e806f91", "fusion_lat": 0.0, "name": "5096231296c8b7383dbb1e0d4e806f91", "is_reserved": 0, "rental_uris": {"android": "https://dc.lft.to/lastmile_qr_scan", "ios": "https://dc.lft.to/lastmile_qr_scan"}, "fusion_lon": 0.0}, {"lat": 38.930884166666665, "is_disabled": 0, "type": "electric_scooter", "lon": -77.02558416666666, "bike_id": "e8c567fc06549793f45ba354e93b693f", "fusion_lat": 0.0, "name": "e8c567fc06549793f45ba354e93b693f", "is_reserved": 0, "rental_uris": {"android": "https://dc.lft.to/lastmile_qr_scan", "ios": "https://dc.lft.to/lastmile_qr_scan"}, "fusion_lon": 0.0}, {"lat": 38.9057145, "is_disabled": 0, "type": "electric_scooter", "lon": -77.0249175, "bike_id": "cbfd2200023dcae935be7c9fae306fdc", "fusion_lat": 0.0, "name": "cbfd2200023dcae935be7c9fae306fdc", "is_reserved": 0, "rental_uris": {"android": "https://dc.lft.to/lastmile_qr_scan", "ios": "https://dc.lft.to/lastmile_qr_scan"}, "fusion_lon": 0.0}, {"lat": 38.8982745, "is_disabled": 0, "type": "electric_scooter", "lon": -76.93103083333334, "bike_id": "cbd26da8fbf185b4bacea5468a87db1e", "fusion_lat": 0.0, "name": "cbd26da8fbf185b4bacea5468a87db1e", "is_reserved": 0, "rental_uris": {"android": "https://dc.lft.to/lastmile_qr_scan", "ios": "https://dc.lft.to/lastmile_qr_scan"}, "fusion_lon": 0.0}, {"lat": 38.925038666666666, "is_disabled": 0, "type": "electric_bike", "lon": -76.982238, "bike_id": "0167870342404285e7a82d70c613c9df", "fusion_lat": 0.0, "name": "0167870342404285e7a82d70c613c9df", "is_reserved": 0, "rental_uris": {"android": "https://dc.lft.to/lastmile_qr_scan", "ios": "https://dc.lft.to/lastmile_qr_scan"}, "fusion_lon": 0.0}, {"lat": 38.911819333333334, "is_disabled": 0, "type": "electric_scooter", "lon": -77.006501, "bike_id": "34d81579ec6bc65ff83468d7ffa8ded8", "fusion_lat": 0.0, "name": "34d81579ec6bc65ff83468d7ffa8ded8", "is_reserved": 0, "rental_uris": {"android": "https://dc.lft.to/lastmile_qr_scan", "ios": "https://dc.lft.to/lastmile_qr_scan"}, "fusion_lon": 0.0}, {"lat": 38.908669, "is_disabled": 0, "type": "electric_bike", "lon": -76.93159066666666, "bike_id": "940e1b9fa52a52bb85348b601be09387", "fusion_lat": 0.0, "name": "940e1b9fa52a52bb85348b601be09387", "is_reserved": 0, "rental_uris": {"android": "https://dc.lft.to/lastmile_qr_scan", "ios": "https://dc.lft.to/lastmile_qr_scan"}, "fusion_lon": 0.0}, {"lat": 38.914247, "is_disabled": 0, "type": "electric_scooter", "lon": -77.00502366666667, "bike_id": "cfbd11c25e4320724298b77b2421b785", "fusion_lat": 0.0, "name": "cfbd11c25e4320724298b77b2421b785", "is_reserved": 0, "rental_uris": {"android": "https://dc.lft.to/lastmile_qr_scan", "ios": "https://dc.lft.to/lastmile_qr_scan"}, "fusion_lon": 0.0}, {"lat": 38.92851683333333, "is_disabled": 0, "type": "electric_scooter", "lon": -77.03729766666666, "bike_id": "fd55a97c9b5a13f8e931e50a50c7ddc8", "fusion_lat": 0.0, "name": "fd55a97c9b5a13f8e931e50a50c7ddc8", "is_reserved": 0, "rental_uris": {"android": "https://dc.lft.to/lastmile_qr_scan", "ios": "https://dc.lft.to/lastmile_qr_scan"}, "fusion_lon": 0.0}, {"lat": 38.902161666666665, "is_disabled": 0, "type": "electric_scooter", "lon": -76.9458935, "bike_id": "27cc348aa3236c403badde6f26f4b849", "fusion_lat": 0.0, "name": "27cc348aa3236c403badde6f26f4b849", "is_reserved": 0, "rental_uris": {"android": "https://dc.lft.to/lastmile_qr_scan", "ios": "https://dc.lft.to/lastmile_qr_scan"}, "fusion_lon": 0.0}, {"lat": 38.90140733333333, "is_disabled": 0, "type": "electric_scooter", "lon": -77.03986233333333, "bike_id": "f0205cb893cc35d49333f9c13c5fd078", "fusion_lat": 0.0, "name": "f0205cb893cc35d49333f9c13c5fd078", "is_reserved": 0, "rental_uris": {"android": "https://dc.lft.to/lastmile_qr_scan", "ios": "https://dc.lft.to/lastmile_qr_scan"}, "fusion_lon": 0.0}, {"lat": 38.9236995, "is_disabled": 0, "type": "electric_scooter", "lon": -77.05174533333333, "bike_id": "e38b6e49e534ab283c5ef52cf1691934", "fusion_lat": 0.0, "name": "e38b6e49e534ab283c5ef52cf1691934", "is_reserved": 0, "rental_uris": {"android": "https://dc.lft.to/lastmile_qr_scan", "ios": "https://dc.lft.to/lastmile_qr_scan"}, "fusion_lon": 0.0}, {"lat": 38.9471875, "is_disabled": 0, "type": "electric_scooter", "lon": -77.022609, "bike_id": "4c734a7504cc338488ac061b3d40019e", "fusion_lat": 0.0, "name": "4c734a7504cc338488ac061b3d40019e", "is_reserved": 0, "rental_uris": {"android": "https://dc.lft.to/lastmile_qr_scan", "ios": "https://dc.lft.to/lastmile_qr_scan"}, "fusion_lon": 0.0}, {"lat": 38.91960616666667, "is_disabled": 0, "type": "electric_bike", "lon": -76.97263133333334, "bike_id": "55e5116726abfa744d79c2c08baaac82", "fusion_lat": 0.0, "name": "55e5116726abfa744d79c2c08baaac82", "is_reserved": 0, "rental_uris": {"android": "https://dc.lft.to/lastmile_qr_scan", "ios": "https://dc.lft.to/lastmile_qr_scan"}, "fusion_lon": 0.0}, {"lat": 38.93012383333333, "is_disabled": 0, "type": "electric_bike", "lon": -77.21646916666667, "bike_id": "d812a39ef5e035ef2ff4b8bd8cab37e9", "fusion_lat": 0.0, "name": "d812a39ef5e035ef2ff4b8bd8cab37e9", "is_reserved": 0, "rental_uris": {"android": "https://dc.lft.to/lastmile_qr_scan", "ios": "https://dc.lft.to/lastmile_qr_scan"}, "fusion_lon": 0.0}, {"lat": 38.879210666666665, "is_disabled": 0, "type": "electric_scooter", "lon": -77.03090566666667, "bike_id": "41efbdc5e680b66a5630dea04f8f8adf", "fusion_lat": 0.0, "name": "41efbdc5e680b66a5630dea04f8f8adf", "is_reserved": 0, "rental_uris": {"android": "https://dc.lft.to/lastmile_qr_scan", "ios": "https://dc.lft.to/lastmile_qr_scan"}, "fusion_lon": 0.0}, {"lat": 38.9028415, "is_disabled": 0, "type": "electric_scooter", "lon": -77.038632, "bike_id": "92bd7b32afbe8e74160fc3d64df87e97", "fusion_lat": 0.0, "name": "92bd7b32afbe8e74160fc3d64df87e97", "is_reserved": 0, "rental_uris": {"android": "https://dc.lft.to/lastmile_qr_scan", "ios": "https://dc.lft.to/lastmile_qr_scan"}, "fusion_lon": 0.0}, {"lat": 38.85205416666667, "is_disabled": 0, "type": "electric_bike", "lon": -77.10126116666666, "bike_id": "37f7ca17bc27d38e33b532c5842253fe", "fusion_lat": 0.0, "name": "37f7ca17bc27d38e33b532c5842253fe", "is_reserved": 0, "rental_uris": {"android": "https://dc.lft.to/lastmile_qr_scan", "ios": "https://dc.lft.to/lastmile_qr_scan"}, "fusion_lon": 0.0}, {"lat": 38.97090516666667, "is_disabled": 0, "type": "electric_bike", "lon": -77.06968333333333, "bike_id": "22bfc92f26631c1927ba6b8ff21d07a4", "fusion_lat": 0.0, "name": "22bfc92f26631c1927ba6b8ff21d07a4", "is_reserved": 0, "rental_uris": {"android": "https://dc.lft.to/lastmile_qr_scan", "ios": "https://dc.lft.to/lastmile_qr_scan"}, "fusion_lon": 0.0}, {"lat": 38.893496666666664, "is_disabled": 0, "type": "electric_bike", "lon": -76.94804433333333, "bike_id": "90fbe524961f9d3f0d319d35ed29079d", "fusion_lat": 0.0, "name": "90fbe524961f9d3f0d319d35ed29079d", "is_reserved": 0, "rental_uris": {"android": "https://dc.lft.to/lastmile_qr_scan", "ios": "https://dc.lft.to/lastmile_qr_scan"}, "fusion_lon": 0.0}, {"lat": 38.921225666666665, "is_disabled": 0, "type": "electric_scooter", "lon": -77.018022, "bike_id": "fbba34a51f025312e0ad18df4ea8cff6", "fusion_lat": 0.0, "name": "fbba34a51f025312e0ad18df4ea8cff6", "is_reserved": 0, "rental_uris": {"android": "https://dc.lft.to/lastmile_qr_scan", "ios": "https://dc.lft.to/lastmile_qr_scan"}, "fusion_lon": 0.0}, {"lat": 38.91862866666666, "is_disabled": 0, "type": "electric_scooter", "lon": -77.04149416666667, "bike_id": "65625516dcfe69a32f8a79de24ceb733", "fusion_lat": 0.0, "name": "65625516dcfe69a32f8a79de24ceb733", "is_reserved": 0, "rental_uris": {"android": "https://dc.lft.to/lastmile_qr_scan", "ios": "https://dc.lft.to/lastmile_qr_scan"}, "fusion_lon": 0.0}, {"lat": 38.9156755, "is_disabled": 0, "type": "electric_scooter", "lon": -77.01998983333333, "bike_id": "b640c1516d3cc1cb31ede4b5602c0e6a", "fusion_lat": 0.0, "name": "b640c1516d3cc1cb31ede4b5602c0e6a", "is_reserved": 0, "rental_uris": {"android": "https://dc.lft.to/lastmile_qr_scan", "ios": "https://dc.lft.to/lastmile_qr_scan"}, "fusion_lon": 0.0}, {"lat": 38.867012, "is_disabled": 0, "type": "electric_scooter", "lon": -76.987031, "bike_id": "5f779276a20778d5c2ce4346836fbcab", "fusion_lat": 0.0, "name": "5f779276a20778d5c2ce4346836fbcab", "is_reserved": 0, "rental_uris": {"android": "https://dc.lft.to/lastmile_qr_scan", "ios": "https://dc.lft.to/lastmile_qr_scan"}, "fusion_lon": 0.0}, {"lat": 38.89224333333333, "is_disabled": 0, "type": "electric_scooter", "lon": -77.019722, "bike_id": "c5d977bf6f73cc07600723ccc069812b", "fusion_lat": 0.0, "name": "c5d977bf6f73cc07600723ccc069812b", "is_reserved": 0, "rental_uris": {"android": "https://dc.lft.to/lastmile_qr_scan", "ios": "https://dc.lft.to/lastmile_qr_scan"}, "fusion_lon": 0.0}, {"lat": 38.8844505, "is_disabled": 0, "type": "electric_scooter", "lon": -77.0005685, "bike_id": "ce85d4dee022565d1adc29fe44fd6b2b", "fusion_lat": 0.0, "name": "ce85d4dee022565d1adc29fe44fd6b2b", "is_reserved": 0, "rental_uris": {"android": "https://dc.lft.to/lastmile_qr_scan", "ios": "https://dc.lft.to/lastmile_qr_scan"}, "fusion_lon": 0.0}, {"lat": 38.914978, "is_disabled": 0, "type": "electric_scooter", "lon": -77.06785183333334, "bike_id": "367a1294a59c5ca0a32d5ad2c9f9a28f", "fusion_lat": 0.0, "name": "367a1294a59c5ca0a32d5ad2c9f9a28f", "is_reserved": 0, "rental_uris": {"android": "https://dc.lft.to/lastmile_qr_scan", "ios": "https://dc.lft.to/lastmile_qr_scan"}, "fusion_lon": 0.0}, {"lat": 38.916127333333336, "is_disabled": 0, "type": "electric_scooter", "lon": -77.02301983333334, "bike_id": "a8b1e6f3fa9bb54501d75d2c79d96be9", "fusion_lat": 0.0, "name": "a8b1e6f3fa9bb54501d75d2c79d96be9", "is_reserved": 0, "rental_uris": {"android": "https://dc.lft.to/lastmile_qr_scan", "ios": "https://dc.lft.to/lastmile_qr_scan"}, "fusion_lon": 0.0}, {"lat": 38.9170275, "is_disabled": 0, "type": "electric_scooter", "lon": -77.03347216666667, "bike_id": "bb155d47ae6b3cbb36cf10e5c56173fa", "fusion_lat": 0.0, "name": "bb155d47ae6b3cbb36cf10e5c56173fa", "is_reserved": 0, "rental_uris": {"android": "https://dc.lft.to/lastmile_qr_scan", "ios": "https://dc.lft.to/lastmile_qr_scan"}, "fusion_lon": 0.0}, {"lat": 38.912691333333335, "is_disabled": 0, "type": "electric_scooter", "lon": -77.02252066666667, "bike_id": "45b1ad1bc261276ddac89cb6c58b73d0", "fusion_lat": 0.0, "name": "45b1ad1bc261276ddac89cb6c58b73d0", "is_reserved": 0, "rental_uris": {"android": "https://dc.lft.to/lastmile_qr_scan", "ios": "https://dc.lft.to/lastmile_qr_scan"}, "fusion_lon": 0.0}, {"lat": 38.905883333333335, "is_disabled": 0, "type": "electric_scooter", "lon": -76.98617733333333, "bike_id": "002cdaa9d61093536940bfe8efc9968f", "fusion_lat": 0.0, "name": "002cdaa9d61093536940bfe8efc9968f", "is_reserved": 0, "rental_uris": {"android": "https://dc.lft.to/lastmile_qr_scan", "ios": "https://dc.lft.to/lastmile_qr_scan"}, "fusion_lon": 0.0}, {"lat": 38.896543, "is_disabled": 0, "type": "electric_scooter", "lon": -77.00518066666666, "bike_id": "d6ec4bca6c653ae04dfeff280ac69f7e", "fusion_lat": 0.0, "name": "d6ec4bca6c653ae04dfeff280ac69f7e", "is_reserved": 0, "rental_uris": {"android": "https://dc.lft.to/lastmile_qr_scan", "ios": "https://dc.lft.to/lastmile_qr_scan"}, "fusion_lon": 0.0}, {"lat": 38.91261983333333, "is_disabled": 0, "type": "electric_scooter", "lon": -77.05136533333334, "bike_id": "d3316ec58b0728aad7e116f2407d2015", "fusion_lat": 0.0, "name": "d3316ec58b0728aad7e116f2407d2015", "is_reserved": 0, "rental_uris": {"android": "https://dc.lft.to/lastmile_qr_scan", "ios": "https://dc.lft.to/lastmile_qr_scan"}, "fusion_lon": 0.0}, {"lat": 38.8670955, "is_disabled": 0, "type": "electric_scooter", "lon": -76.98725633333333, "bike_id": "81636f7bc68e52f7dba5925cbdcfc44a", "fusion_lat": 0.0, "name": "81636f7bc68e52f7dba5925cbdcfc44a", "is_reserved": 0, "rental_uris": {"android": "https://dc.lft.to/lastmile_qr_scan", "ios": "https://dc.lft.to/lastmile_qr_scan"}, "fusion_lon": 0.0}, {"lat": 38.9086105, "is_disabled": 0, "type": "electric_bike", "lon": -76.94005066666666, "bike_id": "86008f5a14977d53149a0842b0cf9bf1", "fusion_lat": 0.0, "name": "86008f5a14977d53149a0842b0cf9bf1", "is_reserved": 0, "rental_uris": {"android": "https://dc.lft.to/lastmile_qr_scan", "ios": "https://dc.lft.to/lastmile_qr_scan"}, "fusion_lon": 0.0}, {"lat": 38.845103, "is_disabled": 0, "type": "electric_bike", "lon": -76.993516, "bike_id": "8ef681ffa896d0ae847b420ff028993d", "fusion_lat": 0.0, "name": "8ef681ffa896d0ae847b420ff028993d", "is_reserved": 0, "rental_uris": {"android": "https://dc.lft.to/lastmile_qr_scan", "ios": "https://dc.lft.to/lastmile_qr_scan"}, "fusion_lon": 0.0}, {"lat": 38.90444183333334, "is_disabled": 0, "type": "electric_scooter", "lon": -77.0611845, "bike_id": "d4cafb66fcd70aafb79767dc71003067", "fusion_lat": 0.0, "name": "d4cafb66fcd70aafb79767dc71003067", "is_reserved": 0, "rental_uris": {"android": "https://dc.lft.to/lastmile_qr_scan", "ios": "https://dc.lft.to/lastmile_qr_scan"}, "fusion_lon": 0.0}, {"lat": 38.918766, "is_disabled": 0, "type": "electric_scooter", "lon": -77.03494133333334, "bike_id": "8d86bdb52b35096b7e94bab96f98fcc5", "fusion_lat": 0.0, "name": "8d86bdb52b35096b7e94bab96f98fcc5", "is_reserved": 0, "rental_uris": {"android": "https://dc.lft.to/lastmile_qr_scan", "ios": "https://dc.lft.to/lastmile_qr_scan"}, "fusion_lon": 0.0}, {"lat": 38.92118466666667, "is_disabled": 0, "type": "electric_scooter", "lon": -77.03654483333334, "bike_id": "711d6afe019ad06c2449455639b6fa41", "fusion_lat": 0.0, "name": "711d6afe019ad06c2449455639b6fa41", "is_reserved": 0, "rental_uris": {"android": "https://dc.lft.to/lastmile_qr_scan", "ios": "https://dc.lft.to/lastmile_qr_scan"}, "fusion_lon": 0.0}, {"lat": 38.857177166666666, "is_disabled": 0, "type": "electric_bike", "lon": -76.97105966666666, "bike_id": "45cafa57d667f40a2ae4acf750e576aa", "fusion_lat": 0.0, "name": "45cafa57d667f40a2ae4acf750e576aa", "is_reserved": 0, "rental_uris": {"android": "https://dc.lft.to/lastmile_qr_scan", "ios": "https://dc.lft.to/lastmile_qr_scan"}, "fusion_lon": 0.0}, {"lat": 38.91771133333334, "is_disabled": 0, "type": "electric_scooter", "lon": -77.014929, "bike_id": "c59b98deaaa1d9253c4e2f92a538db1d", "fusion_lat": 0.0, "name": "c59b98deaaa1d9253c4e2f92a538db1d", "is_reserved": 0, "rental_uris": {"android": "https://dc.lft.to/lastmile_qr_scan", "ios": "https://dc.lft.to/lastmile_qr_scan"}, "fusion_lon": 0.0}, {"lat": 38.8714265, "is_disabled": 0, "type": "electric_bike", "lon": -76.93701183333333, "bike_id": "e5f597382a402ad268d313bc5c743cd4", "fusion_lat": 0.0, "name": "e5f597382a402ad268d313bc5c743cd4", "is_reserved": 0, "rental_uris": {"android": "https://dc.lft.to/lastmile_qr_scan", "ios": "https://dc.lft.to/lastmile_qr_scan"}, "fusion_lon": 0.0}, {"lat": 38.91625533333333, "is_disabled": 0, "type": "electric_scooter", "lon": -77.02309233333334, "bike_id": "bf40e7d936d9a0d608b9bbde30026f95", "fusion_lat": 0.0, "name": "bf40e7d936d9a0d608b9bbde30026f95", "is_reserved": 0, "rental_uris": {"android": "https://dc.lft.to/lastmile_qr_scan", "ios": "https://dc.lft.to/lastmile_qr_scan"}, "fusion_lon": 0.0}, {"lat": 38.961352, "is_disabled": 0, "type": "electric_scooter", "lon": -77.02231983333333, "bike_id": "17e2630853bf2ba163ea91d1a4c63741", "fusion_lat": 0.0, "name": "17e2630853bf2ba163ea91d1a4c63741", "is_reserved": 0, "rental_uris": {"android": "https://dc.lft.to/lastmile_qr_scan", "ios": "https://dc.lft.to/lastmile_qr_scan"}, "fusion_lon": 0.0}, {"lat": 38.929746333333334, "is_disabled": 0, "type": "electric_scooter", "lon": -77.01301166666667, "bike_id": "78ed72a3c56bb131d61496c092736892", "fusion_lat": 0.0, "name": "78ed72a3c56bb131d61496c092736892", "is_reserved": 0, "rental_uris": {"android": "https://dc.lft.to/lastmile_qr_scan", "ios": "https://dc.lft.to/lastmile_qr_scan"}, "fusion_lon": 0.0}, {"lat": 38.92996516666667, "is_disabled": 0, "type": "electric_bike", "lon": -77.03276183333334, "bike_id": "e459c6d6231ed605c3cedf36cf24bcc1", "fusion_lat": 0.0, "name": "e459c6d6231ed605c3cedf36cf24bcc1", "is_reserved": 0, "rental_uris": {"android": "https://dc.lft.to/lastmile_qr_scan", "ios": "https://dc.lft.to/lastmile_qr_scan"}, "fusion_lon": 0.0}, {"lat": 38.90663983333334, "is_disabled": 0, "type": "electric_scooter", "lon": -77.03865716666667, "bike_id": "49505e2b41c75f6355eaacbd4aed34f8", "fusion_lat": 0.0, "name": "49505e2b41c75f6355eaacbd4aed34f8", "is_reserved": 0, "rental_uris": {"android": "https://dc.lft.to/lastmile_qr_scan", "ios": "https://dc.lft.to/lastmile_qr_scan"}, "fusion_lon": 0.0}, {"lat": 38.90263366666667, "is_disabled": 0, "type": "electric_scooter", "lon": -77.05253466666667, "bike_id": "18a9662ab622274784d00e9f1f69e59b", "fusion_lat": 0.0, "name": "18a9662ab622274784d00e9f1f69e59b", "is_reserved": 0, "rental_uris": {"android": "https://dc.lft.to/lastmile_qr_scan", "ios": "https://dc.lft.to/lastmile_qr_scan"}, "fusion_lon": 0.0}, {"lat": 38.9224225, "is_disabled": 0, "type": "electric_scooter", "lon": -77.0457045, "bike_id": "d60c257ca03be2c4c074fac6d5b94241", "fusion_lat": 0.0, "name": "d60c257ca03be2c4c074fac6d5b94241", "is_reserved": 0, "rental_uris": {"android": "https://dc.lft.to/lastmile_qr_scan", "ios": "https://dc.lft.to/lastmile_qr_scan"}, "fusion_lon": 0.0}, {"lat": 38.90831283333333, "is_disabled": 0, "type": "electric_scooter", "lon": -77.06373566666667, "bike_id": "1941bd15c392e7ce5d3e8e5f83200d84", "fusion_lat": 0.0, "name": "1941bd15c392e7ce5d3e8e5f83200d84", "is_reserved": 0, "rental_uris": {"android": "https://dc.lft.to/lastmile_qr_scan", "ios": "https://dc.lft.to/lastmile_qr_scan"}, "fusion_lon": 0.0}, {"lat": 38.91933566666667, "is_disabled": 0, "type": "electric_scooter", "lon": -77.0229955, "bike_id": "f78c858d375fbc8e8e1d3d4106ada6bc", "fusion_lat": 0.0, "name": "f78c858d375fbc8e8e1d3d4106ada6bc", "is_reserved": 0, "rental_uris": {"android": "https://dc.lft.to/lastmile_qr_scan", "ios": "https://dc.lft.to/lastmile_qr_scan"}, "fusion_lon": 0.0}, {"lat": 38.903451833333335, "is_disabled": 0, "type": "electric_scooter", "lon": -77.05322333333334, "bike_id": "7e89119c60be15b7ad419754ea149637", "fusion_lat": 0.0, "name": "7e89119c60be15b7ad419754ea149637", "is_reserved": 0, "rental_uris": {"android": "https://dc.lft.to/lastmile_qr_scan", "ios": "https://dc.lft.to/lastmile_qr_scan"}, "fusion_lon": 0.0}, {"lat": 38.930693833333336, "is_disabled": 0, "type": "electric_scooter", "lon": -76.990751, "bike_id": "58127dcf670661b829201f2ef6f5da58", "fusion_lat": 0.0, "name": "58127dcf670661b829201f2ef6f5da58", "is_reserved": 0, "rental_uris": {"android": "https://dc.lft.to/lastmile_qr_scan", "ios": "https://dc.lft.to/lastmile_qr_scan"}, "fusion_lon": 0.0}, {"lat": 38.89050866666667, "is_disabled": 0, "type": "electric_scooter", "lon": -76.93749166666667, "bike_id": "e788b78a352e73f03f561f173d04d0f5", "fusion_lat": 0.0, "name": "e788b78a352e73f03f561f173d04d0f5", "is_reserved": 0, "rental_uris": {"android": "https://dc.lft.to/lastmile_qr_scan", "ios": "https://dc.lft.to/lastmile_qr_scan"}, "fusion_lon": 0.0}, {"lat": 38.89719066666667, "is_disabled": 0, "type": "electric_scooter", "lon": -77.0079615, "bike_id": "7bdcfa639d9bd3166972a7f8d392ec55", "fusion_lat": 0.0, "name": "7bdcfa639d9bd3166972a7f8d392ec55", "is_reserved": 0, "rental_uris": {"android": "https://dc.lft.to/lastmile_qr_scan", "ios": "https://dc.lft.to/lastmile_qr_scan"}, "fusion_lon": 0.0}, {"lat": 38.88743133333333, "is_disabled": 0, "type": "electric_scooter", "lon": -77.02572016666667, "bike_id": "cfabe01cb162cd1ada7eb2bea09475ed", "fusion_lat": 0.0, "name": "cfabe01cb162cd1ada7eb2bea09475ed", "is_reserved": 0, "rental_uris": {"android": "https://dc.lft.to/lastmile_qr_scan", "ios": "https://dc.lft.to/lastmile_qr_scan"}, "fusion_lon": 0.0}, {"lat": 38.85032966666667, "is_disabled": 0, "type": "electric_bike", "lon": -76.97289466666666, "bike_id": "f4ecc01d3cb9c40c515258881415ef21", "fusion_lat": 0.0, "name": "f4ecc01d3cb9c40c515258881415ef21", "is_reserved": 0, "rental_uris": {"android": "https://dc.lft.to/lastmile_qr_scan", "ios": "https://dc.lft.to/lastmile_qr_scan"}, "fusion_lon": 0.0}, {"lat": 38.89741933333333, "is_disabled": 0, "type": "electric_scooter", "lon": -77.047594, "bike_id": "473f240bcf2340ee2d0c2693b53507de", "fusion_lat": 0.0, "name": "473f240bcf2340ee2d0c2693b53507de", "is_reserved": 0, "rental_uris": {"android": "https://dc.lft.to/lastmile_qr_scan", "ios": "https://dc.lft.to/lastmile_qr_scan"}, "fusion_lon": 0.0}, {"lat": 38.9031965, "is_disabled": 0, "type": "electric_bike", "lon": -77.01637783333334, "bike_id": "2d1e5f24996657cef8a3fccc903a9a81", "fusion_lat": 0.0, "name": "2d1e5f24996657cef8a3fccc903a9a81", "is_reserved": 0, "rental_uris": {"android": "https://dc.lft.to/lastmile_qr_scan", "ios": "https://dc.lft.to/lastmile_qr_scan"}, "fusion_lon": 0.0}, {"lat": 38.8665125, "is_disabled": 0, "type": "electric_scooter", "lon": -76.98881316666666, "bike_id": "56831597fda000f9a5f5e1889c3bb67a", "fusion_lat": 0.0, "name": "56831597fda000f9a5f5e1889c3bb67a", "is_reserved": 0, "rental_uris": {"android": "https://dc.lft.to/lastmile_qr_scan", "ios": "https://dc.lft.to/lastmile_qr_scan"}, "fusion_lon": 0.0}, {"lat": 38.91690833333333, "is_disabled": 0, "type": "electric_scooter", "lon": -77.037424, "bike_id": "792d10718e9a5788ba085a016a0d4cce", "fusion_lat": 0.0, "name": "792d10718e9a5788ba085a016a0d4cce", "is_reserved": 0, "rental_uris": {"android": "https://dc.lft.to/lastmile_qr_scan", "ios": "https://dc.lft.to/lastmile_qr_scan"}, "fusion_lon": 0.0}, {"lat": 38.9387345, "is_disabled": 0, "type": "electric_scooter", "lon": -77.0312165, "bike_id": "7dd79f695c91df79e49342dcaf4b1c3f", "fusion_lat": 0.0, "name": "7dd79f695c91df79e49342dcaf4b1c3f", "is_reserved": 0, "rental_uris": {"android": "https://dc.lft.to/lastmile_qr_scan", "ios": "https://dc.lft.to/lastmile_qr_scan"}, "fusion_lon": 0.0}, {"lat": 38.8802015, "is_disabled": 0, "type": "electric_scooter", "lon": -76.96011633333333, "bike_id": "7922e07c02654e888662f2e9d01e3685", "fusion_lat": 0.0, "name": "7922e07c02654e888662f2e9d01e3685", "is_reserved": 0, "rental_uris": {"android": "https://dc.lft.to/lastmile_qr_scan", "ios": "https://dc.lft.to/lastmile_qr_scan"}, "fusion_lon": 0.0}, {"lat": 38.920627, "is_disabled": 0, "type": "electric_scooter", "lon": -77.04373033333333, "bike_id": "f0b92ee5f30ec03b3b3c48128451c022", "fusion_lat": 0.0, "name": "f0b92ee5f30ec03b3b3c48128451c022", "is_reserved": 0, "rental_uris": {"android": "https://dc.lft.to/lastmile_qr_scan", "ios": "https://dc.lft.to/lastmile_qr_scan"}, "fusion_lon": 0.0}, {"lat": 38.938593833333336, "is_disabled": 0, "type": "electric_scooter", "lon": -77.03085233333333, "bike_id": "f5a9d860ca8abe08ddf0204f67a34c19", "fusion_lat": 0.0, "name": "f5a9d860ca8abe08ddf0204f67a34c19", "is_reserved": 0, "rental_uris": {"android": "https://dc.lft.to/lastmile_qr_scan", "ios": "https://dc.lft.to/lastmile_qr_scan"}, "fusion_lon": 0.0}, {"lat": 38.9211065, "is_disabled": 0, "type": "electric_scooter", "lon": -77.04574333333333, "bike_id": "59bb496631d61c2c5f078a76e2e1659b", "fusion_lat": 0.0, "name": "59bb496631d61c2c5f078a76e2e1659b", "is_reserved": 0, "rental_uris": {"android": "https://dc.lft.to/lastmile_qr_scan", "ios": "https://dc.lft.to/lastmile_qr_scan"}, "fusion_lon": 0.0}, {"lat": 38.911019, "is_disabled": 0, "type": "electric_scooter", "lon": -77.03857483333333, "bike_id": "875eb500114e940ea5528e3a63213be6", "fusion_lat": 0.0, "name": "875eb500114e940ea5528e3a63213be6", "is_reserved": 0, "rental_uris": {"android": "https://dc.lft.to/lastmile_qr_scan", "ios": "https://dc.lft.to/lastmile_qr_scan"}, "fusion_lon": 0.0}, {"lat": 38.912664666666664, "is_disabled": 0, "type": "electric_scooter", "lon": -77.02249883333333, "bike_id": "9bebb9b6e543210da1ff22a44376b139", "fusion_lat": 0.0, "name": "9bebb9b6e543210da1ff22a44376b139", "is_reserved": 0, "rental_uris": {"android": "https://dc.lft.to/lastmile_qr_scan", "ios": "https://dc.lft.to/lastmile_qr_scan"}, "fusion_lon": 0.0}, {"lat": 38.88673383333333, "is_disabled": 0, "type": "electric_scooter", "lon": -76.99031883333333, "bike_id": "b46e4b24b22542a50c8078fe4aefd990", "fusion_lat": 0.0, "name": "b46e4b24b22542a50c8078fe4aefd990", "is_reserved": 0, "rental_uris": {"android": "https://dc.lft.to/lastmile_qr_scan", "ios": "https://dc.lft.to/lastmile_qr_scan"}, "fusion_lon": 0.0}, {"lat": 38.909607666666666, "is_disabled": 0, "type": "electric_scooter", "lon": -77.04824833333333, "bike_id": "72546f709e8dcb5632d7c3bb79be21fa", "fusion_lat": 0.0, "name": "72546f709e8dcb5632d7c3bb79be21fa", "is_reserved": 0, "rental_uris": {"android": "https://dc.lft.to/lastmile_qr_scan", "ios": "https://dc.lft.to/lastmile_qr_scan"}, "fusion_lon": 0.0}, {"lat": 38.9001475, "is_disabled": 0, "type": "electric_bike", "lon": -77.05131583333333, "bike_id": "e49b3eb35710e61a2fbb8529f37f9140", "fusion_lat": 0.0, "name": "e49b3eb35710e61a2fbb8529f37f9140", "is_reserved": 0, "rental_uris": {"android": "https://dc.lft.to/lastmile_qr_scan", "ios": "https://dc.lft.to/lastmile_qr_scan"}, "fusion_lon": 0.0}, {"lat": 39.075053, "is_disabled": 0, "type": "electric_bike", "lon": -77.118946, "bike_id": "ee32acb6c1331d45d2a7b9fb2f25a545", "fusion_lat": 0.0, "name": "ee32acb6c1331d45d2a7b9fb2f25a545", "is_reserved": 0, "rental_uris": {"android": "https://dc.lft.to/lastmile_qr_scan", "ios": "https://dc.lft.to/lastmile_qr_scan"}, "fusion_lon": 0.0}, {"lat": 38.90674083333333, "is_disabled": 0, "type": "electric_scooter", "lon": -77.0238515, "bike_id": "37aae65ba85e3b3c422865f165b371ad", "fusion_lat": 0.0, "name": "37aae65ba85e3b3c422865f165b371ad", "is_reserved": 0, "rental_uris": {"android": "https://dc.lft.to/lastmile_qr_scan", "ios": "https://dc.lft.to/lastmile_qr_scan"}, "fusion_lon": 0.0}, {"lat": 38.8652005, "is_disabled": 0, "type": "electric_scooter", "lon": -76.99026783333333, "bike_id": "a5566b3b17d28377ff110f8fdd0784fd", "fusion_lat": 0.0, "name": "a5566b3b17d28377ff110f8fdd0784fd", "is_reserved": 0, "rental_uris": {"android": "https://dc.lft.to/lastmile_qr_scan", "ios": "https://dc.lft.to/lastmile_qr_scan"}, "fusion_lon": 0.0}, {"lat": 38.934475, "is_disabled": 0, "type": "electric_scooter", "lon": -77.030773, "bike_id": "1f47f8cd4c4791e3607c0b42742ad750", "fusion_lat": 0.0, "name": "1f47f8cd4c4791e3607c0b42742ad750", "is_reserved": 0, "rental_uris": {"android": "https://dc.lft.to/lastmile_qr_scan", "ios": "https://dc.lft.to/lastmile_qr_scan"}, "fusion_lon": 0.0}, {"lat": 38.909635, "is_disabled": 0, "type": "electric_scooter", "lon": -77.04824383333333, "bike_id": "1a0b98821aa377ae1790ec82a98d804d", "fusion_lat": 0.0, "name": "1a0b98821aa377ae1790ec82a98d804d", "is_reserved": 0, "rental_uris": {"android": "https://dc.lft.to/lastmile_qr_scan", "ios": "https://dc.lft.to/lastmile_qr_scan"}, "fusion_lon": 0.0}, {"lat": 38.90367083333334, "is_disabled": 0, "type": "electric_scooter", "lon": -77.04248283333334, "bike_id": "715ce99b98e935152f71f170a83e9484", "fusion_lat": 0.0, "name": "715ce99b98e935152f71f170a83e9484", "is_reserved": 0, "rental_uris": {"android": "https://dc.lft.to/lastmile_qr_scan", "ios": "https://dc.lft.to/lastmile_qr_scan"}, "fusion_lon": 0.0}, {"lat": 38.924110166666665, "is_disabled": 0, "type": "electric_scooter", "lon": -77.02740216666666, "bike_id": "35068cfd5c27d7853b58fdfcc61e8343", "fusion_lat": 0.0, "name": "35068cfd5c27d7853b58fdfcc61e8343", "is_reserved": 0, "rental_uris": {"android": "https://dc.lft.to/lastmile_qr_scan", "ios": "https://dc.lft.to/lastmile_qr_scan"}, "fusion_lon": 0.0}, {"lat": 38.89399083333333, "is_disabled": 0, "type": "electric_scooter", "lon": -76.98663033333334, "bike_id": "f7f951e94a3a736b3e3d55df9c206b2a", "fusion_lat": 0.0, "name": "f7f951e94a3a736b3e3d55df9c206b2a", "is_reserved": 0, "rental_uris": {"android": "https://dc.lft.to/lastmile_qr_scan", "ios": "https://dc.lft.to/lastmile_qr_scan"}, "fusion_lon": 0.0}, {"lat": 38.869957666666664, "is_disabled": 0, "type": "electric_bike", "lon": -77.0656585, "bike_id": "5832462bb9c9b5a45710044b2d4e61e3", "fusion_lat": 0.0, "name": "5832462bb9c9b5a45710044b2d4e61e3", "is_reserved": 0, "rental_uris": {"android": "https://dc.lft.to/lastmile_qr_scan", "ios": "https://dc.lft.to/lastmile_qr_scan"}, "fusion_lon": 0.0}, {"lat": 38.876256166666664, "is_disabled": 0, "type": "electric_scooter", "lon": -76.96524466666666, "bike_id": "979b4aa4f348da22f3d0a52d80054c46", "fusion_lat": 0.0, "name": "979b4aa4f348da22f3d0a52d80054c46", "is_reserved": 0, "rental_uris": {"android": "https://dc.lft.to/lastmile_qr_scan", "ios": "https://dc.lft.to/lastmile_qr_scan"}, "fusion_lon": 0.0}, {"lat": 38.901360333333336, "is_disabled": 0, "type": "electric_scooter", "lon": -77.03177166666667, "bike_id": "493960ddcb2da3b48359513cc0e94203", "fusion_lat": 0.0, "name": "493960ddcb2da3b48359513cc0e94203", "is_reserved": 0, "rental_uris": {"android": "https://dc.lft.to/lastmile_qr_scan", "ios": "https://dc.lft.to/lastmile_qr_scan"}, "fusion_lon": 0.0}, {"lat": 38.90528316666666, "is_disabled": 0, "type": "electric_scooter", "lon": -77.06242383333333, "bike_id": "411c6e489197e2dede0678cffb2bcbe5", "fusion_lat": 0.0, "name": "411c6e489197e2dede0678cffb2bcbe5", "is_reserved": 0, "rental_uris": {"android": "https://dc.lft.to/lastmile_qr_scan", "ios": "https://dc.lft.to/lastmile_qr_scan"}, "fusion_lon": 0.0}, {"lat": 38.92056066666667, "is_disabled": 0, "type": "electric_scooter", "lon": -77.02435766666666, "bike_id": "1a26567183affc36aa469f959ac0b5b9", "fusion_lat": 0.0, "name": "1a26567183affc36aa469f959ac0b5b9", "is_reserved": 0, "rental_uris": {"android": "https://dc.lft.to/lastmile_qr_scan", "ios": "https://dc.lft.to/lastmile_qr_scan"}, "fusion_lon": 0.0}, {"lat": 38.906062166666665, "is_disabled": 0, "type": "electric_scooter", "lon": -76.98977333333333, "bike_id": "51e3bedf89a093692e69a8c665a1579f", "fusion_lat": 0.0, "name": "51e3bedf89a093692e69a8c665a1579f", "is_reserved": 0, "rental_uris": {"android": "https://dc.lft.to/lastmile_qr_scan", "ios": "https://dc.lft.to/lastmile_qr_scan"}, "fusion_lon": 0.0}, {"lat": 38.859296, "is_disabled": 0, "type": "electric_scooter", "lon": -76.99716133333334, "bike_id": "1f6653cf26c2dd11790eba52867cf342", "fusion_lat": 0.0, "name": "1f6653cf26c2dd11790eba52867cf342", "is_reserved": 0, "rental_uris": {"android": "https://dc.lft.to/lastmile_qr_scan", "ios": "https://dc.lft.to/lastmile_qr_scan"}, "fusion_lon": 0.0}, {"lat": 38.9141985, "is_disabled": 0, "type": "electric_scooter", "lon": -77.0318445, "bike_id": "372fd38db4d4f4d276f3d9e5a1a354d6", "fusion_lat": 0.0, "name": "372fd38db4d4f4d276f3d9e5a1a354d6", "is_reserved": 0, "rental_uris": {"android": "https://dc.lft.to/lastmile_qr_scan", "ios": "https://dc.lft.to/lastmile_qr_scan"}, "fusion_lon": 0.0},