{"data": {"bikes": [{"fusion_lon": 0.0, "bike_id": "6e0126cb1f1d2446165906e09a54b352", "name": "6e0126cb1f1d2446165906e09a54b352", "type": "electric_scooter", "lon": -77.0089085, "rental_uris": {"android": "https://dc.lft.to/lastmile_qr_scan", "ios": "https://dc.lft.to/lastmile_qr_scan"}, "lat": 38.905755166666665, "is_reserved": 0, "is_disabled": 0, "fusion_lat": 0.0}, {"fusion_lon": 0.0, "bike_id": "8b90968e1ce7795db1e0a13ed7254f04", "name": "8b90968e1ce7795db1e0a13ed7254f04", "type": "electric_bike", "lon": -77.08436566666667, "rental_uris": {"android": "https://dc.lft.to/lastmile_qr_scan", "ios": "https://dc.lft.to/lastmile_qr_scan"}, "lat": 38.810288, "is_reserved": 0, "is_disabled": 0, "fusion_lat": 0.0}, {"fusion_lon": 0.0, "bike_id": "35a205686be1eed40813b63d51a88e8b", "name": "35a205686be1eed40813b63d51a88e8b", "type": "electric_scooter", "lon": -76.94942, "rental_uris": {"android": "https://dc.lft.to/lastmile_qr_scan", "ios": "https://dc.lft.to/lastmile_qr_scan"}, "lat": 38.89352183333333, "is_reserved": 0, "is_disabled": 0, "fusion_lat": 0.0}, {"fusion_lon": 0.0, "bike_id": "f05aa27492fff21ab8bbba14645f70b3", "name": "f05aa27492fff21ab8bbba14645f70b3", "type": "electric_scooter", "lon": -77.02695083333333, "rental_uris": {"android": "https://dc.lft.to/lastmile_qr_scan", "ios": "https://dc.lft.to/lastmile_qr_scan"}, "lat": 38.908384, "is_reserved": 0, "is_disabled": 0, "fusion_lat": 0.0}, {"fusion_lon": 0.0, "bike_id": "b1bf627ac404b4a281f93830178f6308", "name": "b1bf627ac404b4a281f93830178f6308", "type": "electric_bike", "lon": -76.975067, "rental_uris": {"android": "https://dc.lft.to/lastmile_qr_scan", "ios": "https://dc.lft.to/lastmile_qr_scan"}, "lat": 38.9193745, "is_reserved": 0, "is_disabled": 0, "fusion_lat": 0.0}, {"fusion_lon": 0.0, "bike_id": "1c366efa74b035d8b5749c51ba039a70", "name": "1c366efa74b035d8b5749c51ba039a70", "type": "electric_scooter", "lon": -76.99149833333334, "rental_uris": {"android": "https://dc.lft.to/lastmile_qr_scan", "ios": "https://dc.lft.to/lastmile_qr_scan"}, "lat": 38.886773, "is_reserved": 0, "is_disabled": 0, "fusion_lat": 0.0}, {"fusion_lon": 0.0, "bike_id": "585057306ac45561b80250b6841fda7f", "name": "585057306ac45561b80250b6841fda7f", "type": "electric_scooter", "lon": -76.9845705, "rental_uris": {"android": "https://dc.lft.to/lastmile_qr_scan", "ios": "https://dc.lft.to/lastmile_qr_scan"}, "lat": 38.88013016666667, "is_reserved": 0, "is_disabled": 0, "fusion_lat": 0.0}, {"fusion_lon": 0.0, "bike_id": "a4f1e6f56a2d864d818bc0b08e602e73", "name": "a4f1e6f56a2d864d818bc0b08e602e73", "type": "electric_scooter", "lon": -77.025962, "rental_uris": {"android": "https://dc.lft.to/lastmile_qr_scan", "ios": "https://dc.lft.to/lastmile_qr_scan"}, "lat": 38.918499, "is_reserved": 0, "is_disabled": 0, "fusion_lat": 0.0}, {"fusion_lon": 0.0, "bike_id": "a84d818e8e5d8f45aa222944099de0c9", "name": "a84d818e8e5d8f45aa222944099de0c9", "type": "electric_scooter", "lon": -77.04301533333333, "rental_uris": {"android": "https://dc.lft.to/lastmile_qr_scan", "ios": "https://dc.lft.to/lastmile_qr_scan"}, "lat": 38.919715333333336, "is_reserved": 0, "is_disabled": 0, "fusion_lat": 0.0}, {"fusion_lon": 0.0, "bike_id": "226b352a257dec071cc15a12c9b73736", "name": "226b352a257dec071cc15a12c9b73736", "type": "electric_scooter", "lon": -77.04478233333333, "rental_uris": {"android": "https://dc.lft.to/lastmile_qr_scan", "ios": "https://dc.lft.to/lastmile_qr_scan"}, "lat": 38.9108355, "is_reserved": 0, "is_disabled": 0, "fusion_lat": 0.0}, {"fusion_lon": 0.0, "bike_id": "be9c89d9d27abc380ddc8f489fb95984", "name": "be9c89d9d27abc380ddc8f489fb95984", "type": "electric_scooter", "lon": -77.02409616666667, "rental_uris": {"android": "https://dc.lft.to/lastmile_qr_scan", "ios": "https://dc.lft.to/lastmile_qr_scan"}, "lat": 38.95731883333333, "is_reserved": 0, "is_disabled": 0, "fusion_lat": 0.0}, {"fusion_lon": 0.0, "bike_id": "b786b14256d0e8ed3a1dfae26f30a51c", "name": "b786b14256d0e8ed3a1dfae26f30a51c", "type": "electric_scooter", "lon": -76.97925816666667, "rental_uris": {"android": "https://dc.lft.to/lastmile_qr_scan", "ios": "https://dc.lft.to/lastmile_qr_scan"}, "lat": 38.90247333333333, "is_reserved": 0, "is_disabled": 0, "fusion_lat": 0.0}, {"fusion_lon": 0.0, "bike_id": "915d7e6673aef6c8377cce3f38af45ca", "name": "915d7e6673aef6c8377cce3f38af45ca", "type": "electric_scooter", "lon": -77.026305, "rental_uris": {"android": "https://dc.lft.to/lastmile_qr_scan", "ios": "https://dc.lft.to/lastmile_qr_scan"}, "lat": 38.98054333333333, "is_reserved": 0, "is_disabled": 0, "fusion_lat": 0.0}, {"fusion_lon": 0.0, "bike_id": "0773d670958efa3e63fbb15395679e3f", "name": "0773d670958efa3e63fbb15395679e3f", "type": "electric_scooter", "lon": -77.06890416666667, "rental_uris": {"android": "https://dc.lft.to/lastmile_qr_scan", "ios": "https://dc.lft.to/lastmile_qr_scan"}, "lat": 38.90513283333333, "is_reserved": 0, "is_disabled": 0, "fusion_lat": 0.0}, {"fusion_lon": 0.0, "bike_id": "fcd02017f17bd6fd84904ed6098af479", "name": "fcd02017f17bd6fd84904ed6098af479", "type": "electric_scooter", "lon": -77.03833633333333, "rental_uris": {"android": "https://dc.lft.to/lastmile_qr_scan", "ios": "https://dc.lft.to/lastmile_qr_scan"}, "lat": 38.91563083333333, "is_reserved": 0, "is_disabled": 0, "fusion_lat": 0.0}, {"fusion_lon": 0.0, "bike_id": "bc3cdb65a707429d5de3b9c32c0027e0", "name": "bc3cdb65a707429d5de3b9c32c0027e0", "type": "electric_scooter", "lon": -77.01767383333333, "rental_uris": {"android": "https://dc.lft.to/lastmile_qr_scan", "ios": "https://dc.lft.to/lastmile_qr_scan"}, "lat": 38.87710916666666, "is_reserved": 0, "is_disabled": 0, "fusion_lat": 0.0}, {"fusion_lon": 0.0, "bike_id": "a250937403e444b3bbcd98b8c6825925", "name": "a250937403e444b3bbcd98b8c6825925", "type": "electric_scooter", "lon": -77.06205833333334, "rental_uris": {"android": "https://dc.lft.to/lastmile_qr_scan", "ios": "https://dc.lft.to/lastmile_qr_scan"}, "lat": 38.90524683333334, "is_reserved": 0, "is_disabled": 0, "fusion_lat": 0.0}, {"fusion_lon": 0.0, "bike_id": "355e2d45998ad29938bd87c3fd7e79bd", "name": "355e2d45998ad29938bd87c3fd7e79bd", "type": "electric_scooter", "lon": -77.02605866666667, "rental_uris": {"android": "https://dc.lft.to/lastmile_qr_scan", "ios": "https://dc.lft.to/lastmile_qr_scan"}, "lat": 38.924431166666665, "is_reserved": 0, "is_disabled": 0, "fusion_lat": 0.0}, {"fusion_lon": 0.0, "bike_id": "a763a40ef3dc27135571f016183a157c", "name": "a763a40ef3dc27135571f016183a157c", "type": "electric_scooter", "lon": -76.99678916666667, "rental_uris": {"android": "https://dc.lft.to/lastmile_qr_scan", "ios": "https://dc.lft.to/lastmile_qr_scan"}, "lat": 38.887000666666665, "is_reserved": 0, "is_disabled": 0, "fusion_lat": 0.0}, {"fusion_lon": 0.0, "bike_id": "7be736c568ad97768fe65d8eaa0a0b53", "name": "7be736c568ad97768fe65d8eaa0a0b53", "type": "electric_scooter", "lon": -77.03103616666667, "rental_uris": {"android": "https://dc.lft.to/lastmile_qr_scan", "ios": "https://dc.lft.to/lastmile_qr_scan"}, "lat": 38.929758166666666, "is_reserved": 0, "is_disabled": 0, "fusion_lat": 0.0}, {"fusion_lon": 0.0, "bike_id": "ab6f1a65fe74a90431017c51e457745c", "name": "ab6f1a65fe74a90431017c51e457745c", "type": "electric_scooter", "lon": -77.00052266666667, "rental_uris": {"android": "https://dc.lft.to/lastmile_qr_scan", "ios": "https://dc.lft.to/lastmile_qr_scan"}, "lat": 38.88903116666667, "is_reserved": 0, "is_disabled": 0, "fusion_lat": 0.0}, {"fusion_lon": 0.0, "bike_id": "89d0662ae197a180caf79d2d374bfff6", "name": "89d0662ae197a180caf79d2d374bfff6", "type": "electric_scooter", "lon": -77.0309805, "rental_uris": {"android": "https://dc.lft.to/lastmile_qr_scan", "ios": "https://dc.lft.to/lastmile_qr_scan"}, "lat": 38.9185835, "is_reserved": 0, "is_disabled": 0, "fusion_lat": 0.0}, {"fusion_lon": 0.0, "bike_id": "79c49c5f49b572e39bfbfed6f2b87753", "name": "79c49c5f49b572e39bfbfed6f2b87753", "type": "electric_bike", "lon": -76.94571083333334, "rental_uris": {"android": "https://dc.lft.to/lastmile_qr_scan", "ios": "https://dc.lft.to/lastmile_qr_scan"}, "lat": 38.86622766666667, "is_reserved": 0, "is_disabled": 0, "fusion_lat": 0.0}, {"fusion_lon": 0.0, "bike_id": "a13abd2708b6edf12f2d35cf86b4096e", "name": "a13abd2708b6edf12f2d35cf86b4096e", "type": "electric_scooter", "lon": -76.96525166666666, "rental_uris": {"android": "https://dc.lft.to/lastmile_qr_scan", "ios": "https://dc.lft.to/lastmile_qr_scan"}, "lat": 38.87629733333333, "is_reserved": 0, "is_disabled": 0, "fusion_lat": 0.0}, {"fusion_lon": 0.0, "bike_id": "3fcd5722f5febe2b4b8aa9de79692c78", "name": "3fcd5722f5febe2b4b8aa9de79692c78", "type": "electric_scooter", "lon": -77.02099716666666, "rental_uris": {"android": "https://dc.lft.to/lastmile_qr_scan", "ios": "https://dc.lft.to/lastmile_qr_scan"}, "lat": 38.89760366666667, "is_reserved": 0, "is_disabled": 0, "fusion_lat": 0.0}, {"fusion_lon": 0.0, "bike_id": "b53ee3da7e99ef1f1a588d6f22844072", "name": "b53ee3da7e99ef1f1a588d6f22844072", "type": "electric_scooter", "lon": -77.010881, "rental_uris": {"android": "https://dc.lft.to/lastmile_qr_scan", "ios": "https://dc.lft.to/lastmile_qr_scan"}, "lat": 38.89614783333333, "is_reserved": 0, "is_disabled": 0, "fusion_lat": 0.0}, {"fusion_lon": 0.0, "bike_id": "86cd1443e063332d0b3127a2f898ece6", "name": "86cd1443e063332d0b3127a2f898ece6", "type": "electric_scooter", "lon": -77.041555, "rental_uris": {"android": "https://dc.lft.to/lastmile_qr_scan", "ios": "https://dc.lft.to/lastmile_qr_scan"}, "lat": 38.9147785, "is_reserved": 0, "is_disabled": 0, "fusion_lat": 0.0}, {"fusion_lon": 0.0, "bike_id": "eeeac614caae5440989c515ae051de48", "name": "eeeac614caae5440989c515ae051de48", "type": "electric_scooter", "lon": -77.042387, "rental_uris": {"android": "https://dc.lft.to/lastmile_qr_scan", "ios": "https://dc.lft.to/lastmile_qr_scan"}, "lat": 38.9192515, "is_reserved": 0, "is_disabled": 0, "fusion_lat": 0.0}, {"fusion_lon": 0.0, "bike_id": "3f003f2ef3b11a0c2ab12ff9b6405037", "name": "3f003f2ef3b11a0c2ab12ff9b6405037", "type": "electric_scooter", "lon": -77.04876366666667, "rental_uris": {"android": "https://dc.lft.to/lastmile_qr_scan", "ios": "https://dc.lft.to/lastmile_qr_scan"}, "lat": 38.901808, "is_reserved": 0, "is_disabled": 0, "fusion_lat": 0.0}, {"fusion_lon": 0.0, "bike_id": "8973189165266b01b4543527dfec0dd3", "name": "8973189165266b01b4543527dfec0dd3", "type": "electric_scooter", "lon": -77.0317485, "rental_uris": {"android": "https://dc.lft.to/lastmile_qr_scan", "ios": "https://dc.lft.to/lastmile_qr_scan"}, "lat": 38.91405683333333, "is_reserved": 0, "is_disabled": 0, "fusion_lat": 0.0}, {"fusion_lon": 0.0, "bike_id": "3c1e50291660a408ecbdf7b4ded26ee4", "name": "3c1e50291660a408ecbdf7b4ded26ee4", "type": "electric_bike", "lon": -76.98654583333334, "rental_uris": {"android": "https://dc.lft.to/lastmile_qr_scan", "ios": "https://dc.lft.to/lastmile_qr_scan"}, "lat": 38.939725333333335, "is_reserved": 0, "is_disabled": 0, "fusion_lat": 0.0}, {"fusion_lon": 0.0, "bike_id": "f89b35bc53c33451b0e4ca9586da2ca2", "name": "f89b35bc53c33451b0e4ca9586da2ca2", "type": "electric_scooter", "lon": -76.99644016666667, "rental_uris": {"android": "https://dc.lft.to/lastmile_qr_scan", "ios": "https://dc.lft.to/lastmile_qr_scan"}, "lat": 38.8872105, "is_reserved": 0, "is_disabled": 0, "fusion_lat": 0.0}, {"fusion_lon": 0.0, "bike_id": "822ae1573f0d0768e305539850e8cc20", "name": "822ae1573f0d0768e305539850e8cc20", "type": "electric_scooter", "lon": -77.0405485, "rental_uris": {"android": "https://dc.lft.to/lastmile_qr_scan", "ios": "https://dc.lft.to/lastmile_qr_scan"}, "lat": 38.90598133333334, "is_reserved": 0, "is_disabled": 0, "fusion_lat": 0.0}, {"fusion_lon": 0.0, "bike_id": "9923a2b8fa59e4b43445f7f858d00fa2", "name": "9923a2b8fa59e4b43445f7f858d00fa2", "type": "electric_scooter", "lon": -77.042954, "rental_uris": {"android": "https://dc.lft.to/lastmile_qr_scan", "ios": "https://dc.lft.to/lastmile_qr_scan"}, "lat": 38.9133165, "is_reserved": 0, "is_disabled": 0, "fusion_lat": 0.0}, {"fusion_lon": 0.0, "bike_id": "be8191cd16617646e43fd08cf14045af", "name": "be8191cd16617646e43fd08cf14045af", "type": "electric_scooter", "lon": -77.01762616666667, "rental_uris": {"android": "https://dc.lft.to/lastmile_qr_scan", "ios": "https://dc.lft.to/lastmile_qr_scan"}, "lat": 38.877163, "is_reserved": 0, "is_disabled": 0, "fusion_lat": 0.0}, {"fusion_lon": 0.0, "bike_id": "a7acf34f23f4058b1bce0169e059ee80", "name": "a7acf34f23f4058b1bce0169e059ee80", "type": "electric_scooter", "lon": -77.04353083333334, "rental_uris": {"android": "https://dc.lft.to/lastmile_qr_scan", "ios": "https://dc.lft.to/lastmile_qr_scan"}, "lat": 38.918735166666664, "is_reserved": 0, "is_disabled": 0, "fusion_lat": 0.0}, {"fusion_lon": 0.0, "bike_id": "1841ba99ef547db7b251b25bf9cfc582", "name": "1841ba99ef547db7b251b25bf9cfc582", "type": "electric_scooter", "lon": -77.0093585, "rental_uris": {"android": "https://dc.lft.to/lastmile_qr_scan", "ios": "https://dc.lft.to/lastmile_qr_scan"}, "lat": 38.876587666666666, "is_reserved": 0, "is_disabled": 0, "fusion_lat": 0.0}, {"fusion_lon": 0.0, "bike_id": "071974c397fd06e7c95e4c498c6bdfd6", "name": "071974c397fd06e7c95e4c498c6bdfd6", "type": "electric_scooter", "lon": -77.00821783333333, "rental_uris": {"android": "https://dc.lft.to/lastmile_qr_scan", "ios": "https://dc.lft.to/lastmile_qr_scan"}, "lat": 38.876423, "is_reserved": 0, "is_disabled": 0, "fusion_lat": 0.0}, {"fusion_lon": 0.0, "bike_id": "5ecae81ac126bb5cb05da21b71078b41", "name": "5ecae81ac126bb5cb05da21b71078b41", "type": "electric_scooter", "lon": -77.07703266666667, "rental_uris": {"android": "https://dc.lft.to/lastmile_qr_scan", "ios": "https://dc.lft.to/lastmile_qr_scan"}, "lat": 38.94293316666667, "is_reserved": 0, "is_disabled": 0, "fusion_lat": 0.0}, {"fusion_lon": 0.0, "bike_id": "7757c1aa12368927fcd90fab66f455a9", "name": "7757c1aa12368927fcd90fab66f455a9", "type": "electric_scooter", "lon": -77.0326695, "rental_uris": {"android": "https://dc.lft.to/lastmile_qr_scan", "ios": "https://dc.lft.to/lastmile_qr_scan"}, "lat": 38.918258333333334, "is_reserved": 0, "is_disabled": 0, "fusion_lat": 0.0}, {"fusion_lon": 0.0, "bike_id": "275d025aec4ea349d17c34c23dc1a7ec", "name": "275d025aec4ea349d17c34c23dc1a7ec", "type": "electric_scooter", "lon": -77.03040733333333, "rental_uris": {"android": "https://dc.lft.to/lastmile_qr_scan", "ios": "https://dc.lft.to/lastmile_qr_scan"}, "lat": 38.8839635, "is_reserved": 0, "is_disabled": 0, "fusion_lat": 0.0}, {"fusion_lon": 0.0, "bike_id": "de322dd43f4ce17d107631beadf199d2", "name": "de322dd43f4ce17d107631beadf199d2", "type": "electric_scooter", "lon": -77.02026533333333, "rental_uris": {"android": "https://dc.lft.to/lastmile_qr_scan", "ios": "https://dc.lft.to/lastmile_qr_scan"}, "lat": 38.92432516666667, "is_reserved": 0, "is_disabled": 0, "fusion_lat": 0.0}, {"fusion_lon": 0.0, "bike_id": "b128f189d69f8447678f699d469a7416", "name": "b128f189d69f8447678f699d469a7416", "type": "electric_scooter", "lon": -77.00816616666667, "rental_uris": {"android": "https://dc.lft.to/lastmile_qr_scan", "ios": "https://dc.lft.to/lastmile_qr_scan"}, "lat": 38.91564983333333, "is_reserved": 0, "is_disabled": 0, "fusion_lat": 0.0}, {"fusion_lon": 0.0, "bike_id": "b7f703a3259817de2d9c36ba4b5d055c", "name": "b7f703a3259817de2d9c36ba4b5d055c", "type": "electric_scooter", "lon": -77.0200215, "rental_uris": {"android": "https://dc.lft.to/lastmile_qr_scan", "ios": "https://dc.lft.to/lastmile_qr_scan"}, "lat": 38.91564416666667, "is_reserved": 0, "is_disabled": 0, "fusion_lat": 0.0}, {"fusion_lon": 0.0, "bike_id": "fda7f5f3c2ae526116031c2ff6c42ca9", "name": "fda7f5f3c2ae526116031c2ff6c42ca9", "type": "electric_scooter", "lon": -76.99787183333333, "rental_uris": {"android": "https://dc.lft.to/lastmile_qr_scan", "ios": "https://dc.lft.to/lastmile_qr_scan"}, "lat": 38.948277, "is_reserved": 0, "is_disabled": 0, "fusion_lat": 0.0}, {"fusion_lon": 0.0, "bike_id": "d39de5be380bda50add00d995afe82c1", "name": "d39de5be380bda50add00d995afe82c1", "type": "electric_scooter", "lon": -77.0467365, "rental_uris": {"android": "https://dc.lft.to/lastmile_qr_scan", "ios": "https://dc.lft.to/lastmile_qr_scan"}, "lat": 38.907400333333335, "is_reserved": 0, "is_disabled": 0, "fusion_lat": 0.0}, {"fusion_lon": 0.0, "bike_id": "12318b1855a6785d359c0d4cdb02bb60", "name": "12318b1855a6785d359c0d4cdb02bb60", "type": "electric_scooter", "lon": -77.00485766666667, "rental_uris": {"android": "https://dc.lft.to/lastmile_qr_scan", "ios": "https://dc.lft.to/lastmile_qr_scan"}, "lat": 38.880463, "is_reserved": 0, "is_disabled": 0, "fusion_lat": 0.0}, {"fusion_lon": 0.0, "bike_id": "8c137d0e53d91eb58421d9831722367c", "name": "8c137d0e53d91eb58421d9831722367c", "type": "electric_scooter", "lon": -77.01810683333333, "rental_uris": {"android": "https://dc.lft.to/lastmile_qr_scan", "ios": "https://dc.lft.to/lastmile_qr_scan"}, "lat": 38.9027475, "is_reserved": 0, "is_disabled": 0, "fusion_lat": 0.0}, {"fusion_lon": 0.0, "bike_id": "ea79a7e3d9ea9d70b2e641b0f18be3b4", "name": "ea79a7e3d9ea9d70b2e641b0f18be3b4", "type": "electric_scooter", "lon": -77.06094783333333, "rental_uris": {"android": "https://dc.lft.to/lastmile_qr_scan", "ios": "https://dc.lft.to/lastmile_qr_scan"}, "lat": 38.94373733333333, "is_reserved": 0, "is_disabled": 0, "fusion_lat": 0.0}, {"fusion_lon": 0.0, "bike_id": "a27d32932e0960ca71c50e26aa351760", "name": "a27d32932e0960ca71c50e26aa351760", "type": "electric_scooter", "lon": -77.0416045, "rental_uris": {"android": "https://dc.lft.to/lastmile_qr_scan", "ios": "https://dc.lft.to/lastmile_qr_scan"}, "lat": 38.91351433333333, "is_reserved": 0, "is_disabled": 0, "fusion_lat": 0.0}, {"fusion_lon": 0.0, "bike_id": "bec08c2e03baae071a4c5a63368acf48", "name": "bec08c2e03baae071a4c5a63368acf48", "type": "electric_scooter", "lon": -77.03483583333333, "rental_uris": {"android": "https://dc.lft.to/lastmile_qr_scan", "ios": "https://dc.lft.to/lastmile_qr_scan"}, "lat": 38.921485, "is_reserved": 0, "is_disabled": 0, "fusion_lat": 0.0}, {"fusion_lon": 0.0, "bike_id": "3fc9c1d91db5c48af38a37c16dafd3c0", "name": "3fc9c1d91db5c48af38a37c16dafd3c0", "type": "electric_scooter", "lon": -77.00590933333334, "rental_uris": {"android": "https://dc.lft.to/lastmile_qr_scan", "ios": "https://dc.lft.to/lastmile_qr_scan"}, "lat": 38.905568, "is_reserved": 0, "is_disabled": 0, "fusion_lat": 0.0}, {"fusion_lon": 0.0, "bike_id": "e335c0cec43ba28d7657421c6ac75156", "name": "e335c0cec43ba28d7657421c6ac75156", "type": "electric_scooter", "lon": -77.00329666666667, "rental_uris": {"android": "https://dc.lft.to/lastmile_qr_scan", "ios": "https://dc.lft.to/lastmile_qr_scan"}, "lat": 38.893542333333336, "is_reserved": 0, "is_disabled": 0, "fusion_lat": 0.0}, {"fusion_lon": 0.0, "bike_id": "304aa248600ab52020ac1cdcf7006033", "name": "304aa248600ab52020ac1cdcf7006033", "type": "electric_scooter", "lon": -77.00830216666667, "rental_uris": {"android": "https://dc.lft.to/lastmile_qr_scan", "ios": "https://dc.lft.to/lastmile_qr_scan"}, "lat": 38.912615333333335, "is_reserved": 0, "is_disabled": 0, "fusion_lat": 0.0}, {"fusion_lon": 0.0, "bike_id": "0b1a8ccc8323955d622f18ffd024a546", "name": "0b1a8ccc8323955d622f18ffd024a546", "type": "electric_scooter", "lon": -77.05411383333333, "rental_uris": {"android": "https://dc.lft.to/lastmile_qr_scan", "ios": "https://dc.lft.to/lastmile_qr_scan"}, "lat": 38.89919066666667, "is_reserved": 0, "is_disabled": 0, "fusion_lat": 0.0}, {"fusion_lon": 0.0, "bike_id": "3ed61c9b2b704ea01e415c258194e143", "name": "3ed61c9b2b704ea01e415c258194e143", "type": "electric_bike", "lon": -76.95219416666667, "rental_uris": {"android": "https://dc.lft.to/lastmile_qr_scan", "ios": "https://dc.lft.to/lastmile_qr_scan"}, "lat": 38.89233983333333, "is_reserved": 0, "is_disabled": 0, "fusion_lat": 0.0}, {"fusion_lon": 0.0, "bike_id": "3202bb6661ea5734711b43ca85bf7ed6", "name": "3202bb6661ea5734711b43ca85bf7ed6", "type": "electric_bike", "lon": -76.889022, "rental_uris": {"android": "https://dc.lft.to/lastmile_qr_scan", "ios": "https://dc.lft.to/lastmile_qr_scan"}, "lat": 38.92591266666667, "is_reserved": 0, "is_disabled": 0, "fusion_lat": 0.0}, {"fusion_lon": 0.0, "bike_id": "c1aed786025faf370b960a7ebfb20232", "name": "c1aed786025faf370b960a7ebfb20232", "type": "electric_scooter", "lon": -77.043183, "rental_uris": {"android": "https://dc.lft.to/lastmile_qr_scan", "ios": "https://dc.lft.to/lastmile_qr_scan"}, "lat": 38.89656133333333, "is_reserved": 0, "is_disabled": 0, "fusion_lat": 0.0}, {"fusion_lon": 0.0, "bike_id": "1da04900ccb2f01157cb737a9f221e73", "name": "1da04900ccb2f01157cb737a9f221e73", "type": "electric_scooter", "lon": -77.0296975, "rental_uris": {"android": "https://dc.lft.to/lastmile_qr_scan", "ios": "https://dc.lft.to/lastmile_qr_scan"}, "lat": 38.92746616666667, "is_reserved": 0, "is_disabled": 0, "fusion_lat": 0.0}, {"fusion_lon": 0.0, "bike_id": "04dfbe7e438f0a2869db7443c07a1352", "name": "04dfbe7e438f0a2869db7443c07a1352", "type": "electric_scooter", "lon": -77.04873433333333, "rental_uris": {"android": "https://dc.lft.to/lastmile_qr_scan", "ios": "https://dc.lft.to/lastmile_qr_scan"}, "lat": 38.9098535, "is_reserved": 0, "is_disabled": 0, "fusion_lat": 0.0}, {"fusion_lon": 0.0, "bike_id": "d278994326bda29044588cc791db7b8b", "name": "d278994326bda29044588cc791db7b8b", "type": "electric_scooter", "lon": -77.04277583333334, "rental_uris": {"android": "https://dc.lft.to/lastmile_qr_scan", "ios": "https://dc.lft.to/lastmile_qr_scan"}, "lat": 38.914207166666664, "is_reserved": 0, "is_disabled": 0, "fusion_lat": 0.0}, {"fusion_lon": 0.0, "bike_id": "71b116dc3793a6225a223e12c336aaaa", "name": "71b116dc3793a6225a223e12c336aaaa", "type": "electric_scooter", "lon": -77.01190483333333, "rental_uris": {"android": "https://dc.lft.to/lastmile_qr_scan", "ios": "https://dc.lft.to/lastmile_qr_scan"}, "lat": 38.90030516666667, "is_reserved": 0, "is_disabled": 0, "fusion_lat": 0.0}, {"fusion_lon": 0.0, "bike_id": "91936b43476f64f1780fd3fdccca3d80", "name": "91936b43476f64f1780fd3fdccca3d80", "type": "electric_scooter", "lon": -77.01094833333333, "rental_uris": {"android": "https://dc.lft.to/lastmile_qr_scan", "ios": "https://dc.lft.to/lastmile_qr_scan"}, "lat": 38.905565333333335, "is_reserved": 0, "is_disabled": 0, "fusion_lat": 0.0}, {"fusion_lon": 0.0, "bike_id": "37478c27dee2d35f1253598501e59aa9", "name": "37478c27dee2d35f1253598501e59aa9", "type": "electric_bike", "lon": -76.93544933333334, "rental_uris": {"android": "https://dc.lft.to/lastmile_qr_scan", "ios": "https://dc.lft.to/lastmile_qr_scan"}, "lat": 38.9556, "is_reserved": 0, "is_disabled": 0, "fusion_lat": 0.0}, {"fusion_lon": 0.0, "bike_id": "90eb7a8962137a0f2f6800bc3bb7974f", "name": "90eb7a8962137a0f2f6800bc3bb7974f", "type": "electric_scooter", "lon": -77.04119133333333, "rental_uris": {"android": "https://dc.lft.to/lastmile_qr_scan", "ios": "https://dc.lft.to/lastmile_qr_scan"}, "lat": 38.9340055, "is_reserved": 0, "is_disabled": 0, "fusion_lat": 0.0}, {"fusion_lon": 0.0, "bike_id": "816aad506e5a983821e64dc80fca2193", "name": "816aad506e5a983821e64dc80fca2193", "type": "electric_scooter", "lon": -77.04775083333334, "rental_uris": {"android": "https://dc.lft.to/lastmile_qr_scan", "ios": "https://dc.lft.to/lastmile_qr_scan"}, "lat": 38.902226166666665, "is_reserved": 0, "is_disabled": 0, "fusion_lat": 0.0}, {"fusion_lon": 0.0, "bike_id": "3f30eef22092af11cc08d4ec08fd82d8", "name": "3f30eef22092af11cc08d4ec08fd82d8", "type": "electric_scooter", "lon": -77.030271, "rental_uris": {"android": "https://dc.lft.to/lastmile_qr_scan", "ios": "https://dc.lft.to/lastmile_qr_scan"}, "lat": 38.926643166666665, "is_reserved": 0, "is_disabled": 0, "fusion_lat": 0.0}, {"fusion_lon": 0.0, "bike_id": "4b6f32e4b8625dac7e32122eafe520a4", "name": "4b6f32e4b8625dac7e32122eafe520a4", "type": "electric_scooter", "lon": -77.0331495, "rental_uris": {"android": "https://dc.lft.to/lastmile_qr_scan", "ios": "https://dc.lft.to/lastmile_qr_scan"}, "lat": 38.915580166666665, "is_reserved": 0, "is_disabled": 0, "fusion_lat": 0.0}, {"fusion_lon": 0.0, "bike_id": "ff821342e6a1ec2863cdbf3a049fa3d9", "name": "ff821342e6a1ec2863cdbf3a049fa3d9", "type": "electric_bike", "lon": -77.1225755, "rental_uris": {"android": "https://dc.lft.to/lastmile_qr_scan", "ios": "https://dc.lft.to/lastmile_qr_scan"}, "lat": 38.8876955, "is_reserved": 0, "is_disabled": 0, "fusion_lat": 0.0}, {"fusion_lon": 0.0, "bike_id": "414d4fd19e570bc5b4473319f931c1b6", "name": "414d4fd19e570bc5b4473319f931c1b6", "type": "electric_scooter", "lon": -77.04763866666667, "rental_uris": {"android": "https://dc.lft.to/lastmile_qr_scan", "ios": "https://dc.lft.to/lastmile_qr_scan"}, "lat": 38.902382833333334, "is_reserved": 0, "is_disabled": 0, "fusion_lat": 0.0}, {"fusion_lon": 0.0, "bike_id": "07df33446e260be8c87056dcd3b95e8e", "name": "07df33446e260be8c87056dcd3b95e8e", "type": "electric_scooter", "lon": -76.99160466666666, "rental_uris": {"android": "https://dc.lft.to/lastmile_qr_scan", "ios": "https://dc.lft.to/lastmile_qr_scan"}, "lat": 38.87916116666667, "is_reserved": 0, "is_disabled": 0, "fusion_lat": 0.0}, {"fusion_lon": 0.0, "bike_id": "ced872a3a0d0ca145b904c96d93d3eee", "name": "ced872a3a0d0ca145b904c96d93d3eee", "type": "electric_scooter", "lon": -76.99823416666666, "rental_uris": {"android": "https://dc.lft.to/lastmile_qr_scan", "ios": "https://dc.lft.to/lastmile_qr_scan"}, "lat": 38.9071975, "is_reserved": 0, "is_disabled": 0, "fusion_lat": 0.0}, {"fusion_lon": 0.0, "bike_id": "f1fe3f8b1b93834679b5079ac81f4ff4", "name": "f1fe3f8b1b93834679b5079ac81f4ff4", "type": "electric_scooter", "lon": -77.0414815, "rental_uris": {"android": "https://dc.lft.to/lastmile_qr_scan", "ios": "https://dc.lft.to/lastmile_qr_scan"}, "lat": 38.917084333333335, "is_reserved": 0, "is_disabled": 0, "fusion_lat": 0.0}, {"fusion_lon": 0.0, "bike_id": "8a105542169352c33cc534e4ca2474e5", "name": "8a105542169352c33cc534e4ca2474e5", "type": "electric_bike", "lon": -77.076797, "rental_uris": {"android": "https://dc.lft.to/lastmile_qr_scan", "ios": "https://dc.lft.to/lastmile_qr_scan"}, "lat": 38.83194566666667, "is_reserved": 0, "is_disabled": 0, "fusion_lat": 0.0}, {"fusion_lon": 0.0, "bike_id": "5ba79e820a7548346d19104079d9de5d", "name": "5ba79e820a7548346d19104079d9de5d", "type": "electric_scooter", "lon": -77.0450245, "rental_uris": {"android": "https://dc.lft.to/lastmile_qr_scan", "ios": "https://dc.lft.to/lastmile_qr_scan"}, "lat": 38.912775, "is_reserved": 0, "is_disabled": 0, "fusion_lat": 0.0}, {"fusion_lon": 0.0, "bike_id": "8c84a39335407036ad51b8fff853afc0", "name": "8c84a39335407036ad51b8fff853afc0", "type": "electric_scooter", "lon": -77.07863116666667, "rental_uris": {"android": "https://dc.lft.to/lastmile_qr_scan", "ios": "https://dc.lft.to/lastmile_qr_scan"}, "lat": 38.92463883333333, "is_reserved": 0, "is_disabled": 0, "fusion_lat": 0.0}, {"fusion_lon": 0.0, "bike_id": "6c045e6eed31f7dfb89ad0dfff7e0aab", "name": "6c045e6eed31f7dfb89ad0dfff7e0aab", "type": "electric_bike", "lon": -77.1122, "rental_uris": {"android": "https://dc.lft.to/lastmile_qr_scan", "ios": "https://dc.lft.to/lastmile_qr_scan"}, "lat": 38.82877416666667, "is_reserved": 0, "is_disabled": 0, "fusion_lat": 0.0}, {"fusion_lon": 0.0, "bike_id": "5b76714f884a34a14611c2d1691d3546", "name": "5b76714f884a34a14611c2d1691d3546", "type": "electric_scooter", "lon": -77.00592016666667, "rental_uris": {"android": "https://dc.lft.to/lastmile_qr_scan", "ios": "https://dc.lft.to/lastmile_qr_scan"}, "lat": 38.8764545, "is_reserved": 0, "is_disabled": 0, "fusion_lat": 0.0}, {"fusion_lon": 0.0, "bike_id": "e99c4658b82dfdafadbf9cbd7d6297ad", "name": "e99c4658b82dfdafadbf9cbd7d6297ad", "type": "electric_scooter", "lon": -77.00440716666667, "rental_uris": {"android": "https://dc.lft.to/lastmile_qr_scan", "ios": "https://dc.lft.to/lastmile_qr_scan"}, "lat": 38.87658166666667, "is_reserved": 0, "is_disabled": 0, "fusion_lat": 0.0}, {"fusion_lon": 0.0, "bike_id": "ce373fa74290b634723041bfd29007cc", "name": "ce373fa74290b634723041bfd29007cc", "type": "electric_scooter", "lon": -77.02851483333333, "rental_uris": {"android": "https://dc.lft.to/lastmile_qr_scan", "ios": "https://dc.lft.to/lastmile_qr_scan"}, "lat": 38.900436, "is_reserved": 0, "is_disabled": 0, "fusion_lat": 0.0}, {"fusion_lon": 0.0, "bike_id": "cfcc29b4fbcd6c1f08db401ab0d49a9b", "name": "cfcc29b4fbcd6c1f08db401ab0d49a9b", "type": "electric_scooter", "lon": -77.041787, "rental_uris": {"android": "https://dc.lft.to/lastmile_qr_scan", "ios": "https://dc.lft.to/lastmile_qr_scan"}, "lat": 38.912567, "is_reserved": 0, "is_disabled": 0, "fusion_lat": 0.0}, {"fusion_lon": 0.0, "bike_id": "72bf93a8d3a01677ce6eb1952f928d86", "name": "72bf93a8d3a01677ce6eb1952f928d86", "type": "electric_scooter", "lon": -77.02408083333333, "rental_uris": {"android": "https://dc.lft.to/lastmile_qr_scan", "ios": "https://dc.lft.to/lastmile_qr_scan"}, "lat": 38.9056715, "is_reserved": 0, "is_disabled": 0, "fusion_lat": 0.0}, {"fusion_lon": 0.0, "bike_id": "803f52944839da5d5062ee66f204b87e", "name": "803f52944839da5d5062ee66f204b87e", "type": "electric_scooter", "lon": -77.03459466666666, "rental_uris": {"android": "https://dc.lft.to/lastmile_qr_scan", "ios": "https://dc.lft.to/lastmile_qr_scan"}, "lat": 38.905746, "is_reserved": 0, "is_disabled": 0, "fusion_lat": 0.0}, {"fusion_lon": 0.0, "bike_id": "740841fcf64c4cf821ead2ad4790a099", "name": "740841fcf64c4cf821ead2ad4790a099", "type": "electric_bike", "lon": -77.09154616666666, "rental_uris": {"android": "https://dc.lft.to/lastmile_qr_scan", "ios": "https://dc.lft.to/lastmile_qr_scan"}, "lat": 38.96760583333333, "is_reserved": 0, "is_disabled": 0, "fusion_lat": 0.0}, {"fusion_lon": 0.0, "bike_id": "4963d0fd6c4c53a2d6b0d0a611454bb1", "name": "4963d0fd6c4c53a2d6b0d0a611454bb1", "type": "electric_scooter", "lon": -76.97227633333333, "rental_uris": {"android": "https://dc.lft.to/lastmile_qr_scan", "ios": "https://dc.lft.to/lastmile_qr_scan"}, "lat": 38.85455683333333, "is_reserved": 0, "is_disabled": 0, "fusion_lat": 0.0}, {"fusion_lon": 0.0, "bike_id": "3bb2033c44b31bf613a8a347c72302ce", "name": "3bb2033c44b31bf613a8a347c72302ce", "type": "electric_scooter", "lon": -77.04651016666666, "rental_uris": {"android": "https://dc.lft.to/lastmile_qr_scan", "ios": "https://dc.lft.to/lastmile_qr_scan"}, "lat": 38.9148865, "is_reserved": 0, "is_disabled": 0, "fusion_lat": 0.0}, {"fusion_lon": 0.0, "bike_id": "1e1c5cb73f25da1daeaa6e3258595d41", "name": "1e1c5cb73f25da1daeaa6e3258595d41", "type": "electric_scooter", "lon": -77.04651133333333, "rental_uris": {"android": "https://dc.lft.to/lastmile_qr_scan", "ios": "https://dc.lft.to/lastmile_qr_scan"}, "lat": 38.89298216666667, "is_reserved": 0, "is_disabled": 0, "fusion_lat": 0.0}, {"fusion_lon": 0.0, "bike_id": "268e73c49fdd74519388a4088c067ee7", "name": "268e73c49fdd74519388a4088c067ee7", "type": "electric_scooter", "lon": -77.0051685, "rental_uris": {"android": "https://dc.lft.to/lastmile_qr_scan", "ios": "https://dc.lft.to/lastmile_qr_scan"}, "lat": 38.87468783333333, "is_reserved": 0, "is_disabled": 0, "fusion_lat": 0.0}, {"fusion_lon": 0.0, "bike_id": "aa6ba3b06d62288d65bab830a33b4fd0", "name": "aa6ba3b06d62288d65bab830a33b4fd0", "type": "electric_scooter", "lon": -77.0235045, "rental_uris": {"android": "https://dc.lft.to/lastmile_qr_scan", "ios": "https://dc.lft.to/lastmile_qr_scan"}, "lat": 38.91948633333333, "is_reserved": 0, "is_disabled": 0, "fusion_lat": 0.0}, {"fusion_lon": 0.0, "bike_id": "2b7de0d36002259e2d23508fbc7f23d5", "name": "2b7de0d36002259e2d23508fbc7f23d5", "type": "electric_scooter", "lon": -77.03725183333333, "rental_uris": {"android": "https://dc.lft.to/lastmile_qr_scan", "ios": "https://dc.lft.to/lastmile_qr_scan"}, "lat": 38.918190333333335, "is_reserved": 0, "is_disabled": 0, "fusion_lat": 0.0}, {"fusion_lon": 0.0, "bike_id": "f8e12b4dc1fe3a41432c7bd7cba26da6", "name": "f8e12b4dc1fe3a41432c7bd7cba26da6", "type": "electric_scooter", "lon": -77.0365265, "rental_uris": {"android": "https://dc.lft.to/lastmile_qr_scan", "ios": "https://dc.lft.to/lastmile_qr_scan"}, "lat": 38.94180333333333, "is_reserved": 0, "is_disabled": 0, "fusion_lat": 0.0}, {"fusion_lon": 0.0, "bike_id": "a5aa281d0565e1421a5665eef423c5a1", "name": "a5aa281d0565e1421a5665eef423c5a1", "type": "electric_scooter", "lon": -77.0486885, "rental_uris": {"android": "https://dc.lft.to/lastmile_qr_scan", "ios": "https://dc.lft.to/lastmile_qr_scan"}, "lat": 38.905821333333336, "is_reserved": 0, "is_disabled": 0, "fusion_lat": 0.0}, {"fusion_lon": 0.0, "bike_id": "378d3a0624ccbf99b2db49ddd13df1f3", "name": "378d3a0624ccbf99b2db49ddd13df1f3", "type": "electric_scooter", "lon": -77.04384033333334, "rental_uris": {"android": "https://dc.lft.to/lastmile_qr_scan", "ios": "https://dc.lft.to/lastmile_qr_scan"}, "lat": 38.87441583333333, "is_reserved": 0, "is_disabled": 0, "fusion_lat": 0.0}, {"fusion_lon": 0.0, "bike_id": "c445d63df7af2cefdfb684f009fb9b4e", "name": "c445d63df7af2cefdfb684f009fb9b4e", "type": "electric_scooter", "lon": -77.02069683333333, "rental_uris": {"android": "https://dc.lft.to/lastmile_qr_scan", "ios": "https://dc.lft.to/lastmile_qr_scan"}, "lat": 38.949001333333335, "is_reserved": 0, "is_disabled": 0, "fusion_lat": 0.0}, {"fusion_lon": 0.0, "bike_id": "2f9ee040943d60f0628a66ec74cf6ca4", "name": "2f9ee040943d60f0628a66ec74cf6ca4", "type": "electric_scooter", "lon": -76.99704233333334, "rental_uris": {"android": "https://dc.lft.to/lastmile_qr_scan", "ios": "https://dc.lft.to/lastmile_qr_scan"}, "lat": 38.838711, "is_reserved": 0, "is_disabled": 0, "fusion_lat": 0.0}, {"fusion_lon": 0.0, "bike_id": "9e3e1f7a434443e407f5e36f37833580", "name": "9e3e1f7a434443e407f5e36f37833580", "type": "electric_scooter", "lon": -76.99608533333334, "rental_uris": {"android": "https://dc.lft.to/lastmile_qr_scan", "ios": "https://dc.lft.to/lastmile_qr_scan"}, "lat": 38.9261755, "is_reserved": 0, "is_disabled": 0, "fusion_lat": 0.0}, {"fusion_lon": 0.0, "bike_id": "2bc5c483c0cd5fec9018702674bf3a0b", "name": "2bc5c483c0cd5fec9018702674bf3a0b", "type": "electric_scooter", "lon": -77.0246415, "rental_uris": {"android": "https://dc.lft.to/lastmile_qr_scan", "ios": "https://dc.lft.to/lastmile_qr_scan"}, "lat": 38.908500833333335, "is_reserved": 0, "is_disabled": 0, "fusion_lat": 0.0}, {"fusion_lon": 0.0, "bike_id": "b79bc712885f76a30fab8c050a1128f3", "name": "b79bc712885f76a30fab8c050a1128f3", "type": "electric_scooter", "lon": -76.9855985, "rental_uris": {"android": "https://dc.lft.to/lastmile_qr_scan", "ios": "https://dc.lft.to/lastmile_qr_scan"}, "lat": 38.89885016666667, "is_reserved": 0, "is_disabled": 0, "fusion_lat": 0.0}, {"fusion_lon": 0.0, "bike_id": "6f14a6807a8b1deead1735b31ecd32d6", "name": "6f14a6807a8b1deead1735b31ecd32d6", "type": "electric_scooter", "lon": -77.01055233333334, "rental_uris": {"android": "https://dc.lft.to/lastmile_qr_scan", "ios": "https://dc.lft.to/lastmile_qr_scan"}, "lat": 38.929893666666665, "is_reserved": 0, "is_disabled": 0, "fusion_lat": 0.0}, {"fusion_lon": 0.0, "bike_id": "22d82c1ef84d3e382ce0bd7b6d92534b", "name": "22d82c1ef84d3e382ce0bd7b6d92534b", "type": "electric_scooter", "lon": -77.01071, "rental_uris": {"android": "https://dc.lft.to/lastmile_qr_scan", "ios": "https://dc.lft.to/lastmile_qr_scan"}, "lat": 38.87139633333334, "is_reserved": 0, "is_disabled": 0, "fusion_lat": 0.0}, {"fusion_lon": 0.0, "bike_id": "5962118a5c8334b51c0a797f10ad2deb", "name": "5962118a5c8334b51c0a797f10ad2deb", "type": "electric_scooter", "lon": -77.03641766666667, "rental_uris": {"android": "https://dc.lft.to/lastmile_qr_scan", "ios": "https://dc.lft.to/lastmile_qr_scan"}, "lat": 38.91275133333333, "is_reserved": 0, "is_disabled": 0, "fusion_lat": 0.0}, {"fusion_lon": 0.0, "bike_id": "af640de44b84fa12d94f37f3eb6e4c70", "name": "af640de44b84fa12d94f37f3eb6e4c70", "type": "electric_scooter", "lon": -77.04117283333333, "rental_uris": {"android": "https://dc.lft.to/lastmile_qr_scan", "ios": "https://dc.lft.to/lastmile_qr_scan"}, "lat": 38.91554, "is_reserved": 0, "is_disabled": 0, "fusion_lat": 0.0}, {"fusion_lon": 0.0, "bike_id": "4944118b61d161894d7eb05ad3e245ba", "name": "4944118b61d161894d7eb05ad3e245ba", "type": "electric_scooter", "lon": -77.0390875, "rental_uris": {"android": "https://dc.lft.to/lastmile_qr_scan", "ios": "https://dc.lft.to/lastmile_qr_scan"}, "lat": 38.91418866666667, "is_reserved": 0, "is_disabled": 0, "fusion_lat": 0.0}, {"fusion_lon": 0.0, "bike_id": "ac2c903daac466814c2e171d80ff8ecf", "name": "ac2c903daac466814c2e171d80ff8ecf", "type": "electric_scooter", "lon": -77.01658333333333, "rental_uris": {"android": "https://dc.lft.to/lastmile_qr_scan", "ios": "https://dc.lft.to/lastmile_qr_scan"}, "lat": 38.887500833333334, "is_reserved": 0, "is_disabled": 0, "fusion_lat": 0.0}, {"fusion_lon": 0.0, "bike_id": "17d662eab7158be2e0bb0cb7847bdaba", "name": "17d662eab7158be2e0bb0cb7847bdaba", "type": "electric_bike", "lon": -77.00630766666667, "rental_uris": {"android": "https://dc.lft.to/lastmile_qr_scan", "ios": "https://dc.lft.to/lastmile_qr_scan"}, "lat": 38.983652666666664, "is_reserved": 0, "is_disabled": 0, "fusion_lat": 0.0}, {"fusion_lon": 0.0, "bike_id": "ff108d2939070fad31521e64b7af1941", "name": "ff108d2939070fad31521e64b7af1941", "type": "electric_scooter", "lon": -76.99053133333334, "rental_uris": {"android": "https://dc.lft.to/lastmile_qr_scan", "ios": "https://dc.lft.to/lastmile_qr_scan"}, "lat": 38.863606, "is_reserved": 0, "is_disabled": 0, "fusion_lat": 0.0}, {"fusion_lon": 0.0, "bike_id": "6aed5786563197b634c8b3ff340e9cdc", "name": "6aed5786563197b634c8b3ff340e9cdc", "type": "electric_scooter", "lon": -77.00581833333334, "rental_uris": {"android": "https://dc.lft.to/lastmile_qr_scan", "ios": "https://dc.lft.to/lastmile_qr_scan"}, "lat": 38.9055205, "is_reserved": 0, "is_disabled": 0, "fusion_lat": 0.0}, {"fusion_lon": 0.0, "bike_id": "9c1cfa51cb1cf5f48b6d32995fbf036d", "name": "9c1cfa51cb1cf5f48b6d32995fbf036d", "type": "electric_bike", "lon": -76.87493383333333, "rental_uris": {"android": "https://dc.lft.to/lastmile_qr_scan", "ios": "https://dc.lft.to/lastmile_qr_scan"}, "lat": 38.99089216666667, "is_reserved": 0, "is_disabled": 0, "fusion_lat": 0.0}, {"fusion_lon": 0.0, "bike_id": "85d122e25d3406c23149837cfde20554", "name": "85d122e25d3406c23149837cfde20554", "type": "electric_scooter", "lon": -77.03051933333333, "rental_uris": {"android": "https://dc.lft.to/lastmile_qr_scan", "ios": "https://dc.lft.to/lastmile_qr_scan"}, "lat": 38.884073666666666, "is_reserved": 0, "is_disabled": 0, "fusion_lat": 0.0}, {"fusion_lon": 0.0, "bike_id": "2fd33b1c27e39fa36eabd1133637c633", "name": "2fd33b1c27e39fa36eabd1133637c633", "type": "electric_scooter", "lon": -77.02796616666667, "rental_uris": {"android": "https://dc.lft.to/lastmile_qr_scan", "ios": "https://dc.lft.to/lastmile_qr_scan"}, "lat": 38.950936666666664, "is_reserved": 0, "is_disabled": 0, "fusion_lat": 0.0}, {"fusion_lon": 0.0, "bike_id": "4208f29b7a029d091fa1da14b13dc680", "name": "4208f29b7a029d091fa1da14b13dc680", "type": "electric_scooter", "lon": -77.03386883333333, "rental_uris": {"android": "https://dc.lft.to/lastmile_qr_scan", "ios": "https://dc.lft.to/lastmile_qr_scan"}, "lat": 38.96829966666667, "is_reserved": 0, "is_disabled": 0, "fusion_lat": 0.0}, {"fusion_lon": 0.0, "bike_id": "670534bc3ccd97a647b33e5bed13c8e4", "name": "670534bc3ccd97a647b33e5bed13c8e4", "type": "electric_scooter", "lon": -77.02197266666667, "rental_uris": {"android": "https://dc.lft.to/lastmile_qr_scan", "ios": "https://dc.lft.to/lastmile_qr_scan"}, "lat": 38.911266833333336, "is_reserved": 0, "is_disabled": 0, "fusion_lat": 0.0}, {"fusion_lon": 0.0, "bike_id": "768f053063c2d2061b42d548ef000377", "name": "768f053063c2d2061b42d548ef000377", "type": "electric_bike", "lon": -77.04898783333333, "rental_uris": {"android": "https://dc.lft.to/lastmile_qr_scan", "ios": "https://dc.lft.to/lastmile_qr_scan"}, "lat": 38.874931, "is_reserved": 0, "is_disabled": 0, "fusion_lat": 0.0}, {"fusion_lon": 0.0, "bike_id": "a15742a82a6d0ca82385e05f6e9252b7", "name": "a15742a82a6d0ca82385e05f6e9252b7", "type": "electric_scooter", "lon": -77.02217383333333, "rental_uris": {"android": "https://dc.lft.to/lastmile_qr_scan", "ios": "https://dc.lft.to/lastmile_qr_scan"}, "lat": 38.91266383333333, "is_reserved": 0, "is_disabled": 0, "fusion_lat": 0.0}, {"fusion_lon": 0.0, "bike_id": "66b30a26a57c8854181f80774cd2c5bd", "name": "66b30a26a57c8854181f80774cd2c5bd", "type": "electric_scooter", "lon": -77.0019785, "rental_uris": {"android": "https://dc.lft.to/lastmile_qr_scan", "ios": "https://dc.lft.to/lastmile_qr_scan"}, "lat": 38.90229083333333, "is_reserved": 0, "is_disabled": 0, "fusion_lat": 0.0}, {"fusion_lon": 0.0, "bike_id": "c361c8e5d7f97b908cdf7ab240b30f74", "name": "c361c8e5d7f97b908cdf7ab240b30f74", "type": "electric_scooter", "lon": -77.02954233333334, "rental_uris": {"android": "https://dc.lft.to/lastmile_qr_scan", "ios": "https://dc.lft.to/lastmile_qr_scan"}, "lat": 38.91179866666667, "is_reserved": 0, "is_disabled": 0, "fusion_lat": 0.0}, {"fusion_lon": 0.0, "bike_id": "b6e8f63c05219b0b12b176aa5c916e11", "name": "b6e8f63c05219b0b12b176aa5c916e11", "type": "electric_scooter", "lon": -77.01788583333334, "rental_uris": {"android": "https://dc.lft.to/lastmile_qr_scan", "ios": "https://dc.lft.to/lastmile_qr_scan"}, "lat": 38.94117966666666, "is_reserved": 0, "is_disabled": 0, "fusion_lat": 0.0}, {"fusion_lon": 0.0, "bike_id": "3c98a75c540fda87465ab5bde1d142e0", "name": "3c98a75c540fda87465ab5bde1d142e0", "type": "electric_scooter", "lon": -77.00334233333334, "rental_uris": {"android": "https://dc.lft.to/lastmile_qr_scan", "ios": "https://dc.lft.to/lastmile_qr_scan"}, "lat": 38.90711816666666, "is_reserved": 0, "is_disabled": 0, "fusion_lat": 0.0}, {"fusion_lon": 0.0, "bike_id": "8c34a5f89bc4ad5e73990988f171d3a8", "name": "8c34a5f89bc4ad5e73990988f171d3a8", "type": "electric_scooter", "lon": -77.02488033333333, "rental_uris": {"android": "https://dc.lft.to/lastmile_qr_scan", "ios": "https://dc.lft.to/lastmile_qr_scan"}, "lat": 38.904188833333336, "is_reserved": 0, "is_disabled": 0, "fusion_lat": 0.0}, {"fusion_lon": 0.0, "bike_id": "3de5e4b7f36460f042a5f55e1d3649d6", "name": "3de5e4b7f36460f042a5f55e1d3649d6", "type": "electric_scooter", "lon": -77.037332, "rental_uris": {"android": "https://dc.lft.to/lastmile_qr_scan", "ios": "https://dc.lft.to/lastmile_qr_scan"}, "lat": 38.9357085, "is_reserved": 0, "is_disabled": 0, "fusion_lat": 0.0}, {"fusion_lon": 0.0, "bike_id": "d51b5a8b434f8a8d34c967bbc17d8140", "name": "d51b5a8b434f8a8d34c967bbc17d8140", "type": "electric_scooter", "lon": -77.04016683333333, "rental_uris": {"android": "https://dc.lft.to/lastmile_qr_scan", "ios": "https://dc.lft.to/lastmile_qr_scan"}, "lat": 38.91295316666667, "is_reserved": 0, "is_disabled": 0, "fusion_lat": 0.0}, {"fusion_lon": 0.0, "bike_id": "b11629f7168bb09b65c2b4251b16d877", "name": "b11629f7168bb09b65c2b4251b16d877", "type": "electric_scooter", "lon": -77.03149783333333, "rental_uris": {"android": "https://dc.lft.to/lastmile_qr_scan", "ios": "https://dc.lft.to/lastmile_qr_scan"}, "lat": 38.927881166666666, "is_reserved": 0, "is_disabled": 0, "fusion_lat": 0.0}, {"fusion_lon": 0.0, "bike_id": "f349247c7d0fd5515e1559c01a86e01d", "name": "f349247c7d0fd5515e1559c01a86e01d", "type": "electric_scooter", "lon": -77.0293255, "rental_uris": {"android": "https://dc.lft.to/lastmile_qr_scan", "ios": "https://dc.lft.to/lastmile_qr_scan"}, "lat": 38.914166, "is_reserved": 0, "is_disabled": 0, "fusion_lat": 0.0}, {"fusion_lon": 0.0, "bike_id": "c932b8d6299ba0ee50697cfe51b4900f", "name": "c932b8d6299ba0ee50697cfe51b4900f", "type": "electric_bike", "lon": -77.10027183333334, "rental_uris": {"android": "https://dc.lft.to/lastmile_qr_scan", "ios": "https://dc.lft.to/lastmile_qr_scan"}, "lat": 38.99063683333333, "is_reserved": 0, "is_disabled": 0, "fusion_lat": 0.0}, {"fusion_lon": 0.0, "bike_id": "a090e9b58b1cdec61d752846c25f98dd", "name": "a090e9b58b1cdec61d752846c25f98dd", "type": "electric_scooter", "lon": -77.05918116666666, "rental_uris": {"android": "https://dc.lft.to/lastmile_qr_scan", "ios": "https://dc.lft.to/lastmile_qr_scan"}, "lat": 38.9099775, "is_reserved": 0, "is_disabled": 0, "fusion_lat": 0.0}, {"fusion_lon": 0.0, "bike_id": "e28fc148df1dcab41f580cfad033dc3e", "name": "e28fc148df1dcab41f580cfad033dc3e", "type": "electric_scooter", "lon": -77.0551255, "rental_uris": {"android": "https://dc.lft.to/lastmile_qr_scan", "ios": "https://dc.lft.to/lastmile_qr_scan"}, "lat": 38.944136666666665, "is_reserved": 0, "is_disabled": 0, "fusion_lat": 0.0}, {"fusion_lon": 0.0, "bike_id": "5d637fee50b1e6702c7517da347ddcb7", "name": "5d637fee50b1e6702c7517da347ddcb7", "type": "electric_scooter", "lon": -77.029576, "rental_uris": {"android": "https://dc.lft.to/lastmile_qr_scan", "ios": "https://dc.lft.to/lastmile_qr_scan"}, "lat": 38.90496483333333, "is_reserved": 0, "is_disabled": 0, "fusion_lat": 0.0}, {"fusion_lon": 0.0, "bike_id": "77825ec854a4bc408366e28c1623d112", "name": "77825ec854a4bc408366e28c1623d112", "type": "electric_scooter", "lon": -77.011878, "rental_uris": {"android": "https://dc.lft.to/lastmile_qr_scan", "ios": "https://dc.lft.to/lastmile_qr_scan"}, "lat": 38.887662166666665, "is_reserved": 0, "is_disabled": 0, "fusion_lat": 0.0}, {"fusion_lon": 0.0, "bike_id": "e46ed7800405b71508631459b70ad6b4", "name": "e46ed7800405b71508631459b70ad6b4", "type": "electric_scooter", "lon": -77.031798, "rental_uris": {"android": "https://dc.lft.to/lastmile_qr_scan", "ios": "https://dc.lft.to/lastmile_qr_scan"}, "lat": 38.9051805, "is_reserved": 0, "is_disabled": 0, "fusion_lat": 0.0}, {"fusion_lon": 0.0, "bike_id": "977d563925680ed5dfb96a48e51472d6", "name": "977d563925680ed5dfb96a48e51472d6", "type": "electric_scooter", "lon": -76.98925566666666, "rental_uris": {"android": "https://dc.lft.to/lastmile_qr_scan", "ios": "https://dc.lft.to/lastmile_qr_scan"}, "lat": 38.9023045, "is_reserved": 0, "is_disabled": 0, "fusion_lat": 0.0}, {"fusion_lon": 0.0, "bike_id": "2a11913ac85cf5c2705621edf44e4d81", "name": "2a11913ac85cf5c2705621edf44e4d81", "type": "electric_scooter", "lon": -77.001997, "rental_uris": {"android": "https://dc.lft.to/lastmile_qr_scan", "ios": "https://dc.lft.to/lastmile_qr_scan"}, "lat": 38.90002766666667, "is_reserved": 0, "is_disabled": 0, "fusion_lat": 0.0}, {"fusion_lon": 0.0, "bike_id": "5cb5d1cfa1788cf129a05df7a24ecd7f", "name": "5cb5d1cfa1788cf129a05df7a24ecd7f", "type": "electric_scooter", "lon": -77.04185233333334, "rental_uris": {"android": "https://dc.lft.to/lastmile_qr_scan", "ios": "https://dc.lft.to/lastmile_qr_scan"}, "lat": 38.905230333333336, "is_reserved": 0, "is_disabled": 0, "fusion_lat": 0.0}, {"fusion_lon": 0.0, "bike_id": "bca74e44cd0e3f5630bf8dcdd8cca83c", "name": "bca74e44cd0e3f5630bf8dcdd8cca83c", "type": "electric_bike", "lon": -76.9837205, "rental_uris": {"android": "https://dc.lft.to/lastmile_qr_scan", "ios": "https://dc.lft.to/lastmile_qr_scan"}, "lat": 38.9146605, "is_reserved": 0, "is_disabled": 0, "fusion_lat": 0.0}, {"fusion_lon": 0.0, "bike_id": "4bdc2207f1a020e9ee9b7fca4b65321b", "name": "4bdc2207f1a020e9ee9b7fca4b65321b", "type": "electric_scooter", "lon": -77.03145266666667, "rental_uris": {"android": "https://dc.lft.to/lastmile_qr_scan", "ios": "https://dc.lft.to/lastmile_qr_scan"}, "lat": 38.887468166666665, "is_reserved": 0, "is_disabled": 0, "fusion_lat": 0.0}, {"fusion_lon": 0.0, "bike_id": "f4c3a6474f62d57aec881ce2a1c81e9b", "name": "f4c3a6474f62d57aec881ce2a1c81e9b", "type": "electric_scooter", "lon": -77.04226283333334, "rental_uris": {"android": "https://dc.lft.to/lastmile_qr_scan", "ios": "https://dc.lft.to/lastmile_qr_scan"}, "lat": 38.91704266666667, "is_reserved": 0, "is_disabled": 0, "fusion_lat": 0.0}, {"fusion_lon": 0.0, "bike_id": "02a1f187aec93f56d759f2f583d2a99a", "name": "02a1f187aec93f56d759f2f583d2a99a", "type": "electric_scooter", "lon": -77.02451, "rental_uris": {"android": "https://dc.lft.to/lastmile_qr_scan", "ios": "https://dc.lft.to/lastmile_qr_scan"}, "lat": 38.92891733333333, "is_reserved": 0, "is_disabled": 0, "fusion_lat": 0.0}, {"fusion_lon": 0.0, "bike_id": "8d812860e9f625c1766750cc6d21a152", "name": "8d812860e9f625c1766750cc6d21a152", "type": "electric_scooter", "lon": -77.038347, "rental_uris": {"android": "https://dc.lft.to/lastmile_qr_scan", "ios": "https://dc.lft.to/lastmile_qr_scan"}, "lat": 38.915624333333334, "is_reserved": 0, "is_disabled": 0, "fusion_lat": 0.0}, {"fusion_lon": 0.0, "bike_id": "733707dc4afa5c375a3694f1ad1466c0", "name": "733707dc4afa5c375a3694f1ad1466c0", "type": "electric_scooter", "lon": -77.03282116666666, "rental_uris": {"android": "https://dc.lft.to/lastmile_qr_scan", "ios": "https://dc.lft.to/lastmile_qr_scan"}, "lat": 38.937457333333334, "is_reserved": 0, "is_disabled": 0, "fusion_lat": 0.0}, {"fusion_lon": 0.0, "bike_id": "084b4ab9b1705f429b0031857294e9ef", "name": "084b4ab9b1705f429b0031857294e9ef", "type": "electric_scooter", "lon": -77.00756316666667, "rental_uris": {"android": "https://dc.lft.to/lastmile_qr_scan", "ios": "https://dc.lft.to/lastmile_qr_scan"}, "lat": 38.903902, "is_reserved": 0, "is_disabled": 0, "fusion_lat": 0.0}, {"fusion_lon": 0.0, "bike_id": "f0fa797bba12dcfc7043cad8b2afa20c", "name": "f0fa797bba12dcfc7043cad8b2afa20c", "type": "electric_scooter", "lon": -77.04183066666667, "rental_uris": {"android": "https://dc.lft.to/lastmile_qr_scan", "ios": "https://dc.lft.to/lastmile_qr_scan"}, "lat": 38.923337333333336, "is_reserved": 0, "is_disabled": 0, "fusion_lat": 0.0}, {"fusion_lon": 0.0, "bike_id": "f558ce71ef2a4e16cb74407a339d0e8c", "name": "f558ce71ef2a4e16cb74407a339d0e8c", "type": "electric_scooter", "lon": -77.03644683333333, "rental_uris": {"android": "https://dc.lft.to/lastmile_qr_scan", "ios": "https://dc.lft.to/lastmile_qr_scan"}, "lat": 38.9176895, "is_reserved": 0, "is_disabled": 0, "fusion_lat": 0.0}, {"fusion_lon": 0.0, "bike_id": "2e2223f8ff968d1a640e3738ea81db9f", "name": "2e2223f8ff968d1a640e3738ea81db9f", "type": "electric_scooter", "lon": -77.00267033333333, "rental_uris": {"android": "https://dc.lft.to/lastmile_qr_scan", "ios": "https://dc.lft.to/lastmile_qr_scan"}, "lat": 38.91089633333333, "is_reserved": 0, "is_disabled": 0, "fusion_lat": 0.0}, {"fusion_lon": 0.0, "bike_id": "98b3e2d2e232bcb2605d141a2b6bb42b", "name": "98b3e2d2e232bcb2605d141a2b6bb42b", "type": "electric_scooter", "lon": -77.06918483333334, "rental_uris": {"android": "https://dc.lft.to/lastmile_qr_scan", "ios": "https://dc.lft.to/lastmile_qr_scan"}, "lat": 38.913351166666665, "is_reserved": 0, "is_disabled": 0, "fusion_lat": 0.0}, {"fusion_lon": 0.0, "bike_id": "3935c470d3c266dfba634c14bb0aee4d", "name": "3935c470d3c266dfba634c14bb0aee4d", "type": "electric_scooter", "lon": -77.0137405, "rental_uris": {"android": "https://dc.lft.to/lastmile_qr_scan", "ios": "https://dc.lft.to/lastmile_qr_scan"}, "lat": 38.892231333333335, "is_reserved": 0, "is_disabled": 0, "fusion_lat": 0.0}, {"fusion_lon": 0.0, "bike_id": "617586f34fe667a8981976704ac1741d", "name": "617586f34fe667a8981976704ac1741d", "type": "electric_scooter", "lon": -77.03842116666667, "rental_uris": {"android": "https://dc.lft.to/lastmile_qr_scan", "ios": "https://dc.lft.to/lastmile_qr_scan"}, "lat": 38.9121275, "is_reserved": 0, "is_disabled": 0, "fusion_lat": 0.0}, {"fusion_lon": 0.0, "bike_id": "4841375fcd456a069c7a3fe14770108f", "name": "4841375fcd456a069c7a3fe14770108f", "type": "electric_scooter", "lon": -77.01871166666666, "rental_uris": {"android": "https://dc.lft.to/lastmile_qr_scan", "ios": "https://dc.lft.to/lastmile_qr_scan"}, "lat": 38.90041866666667, "is_reserved": 0, "is_disabled": 0, "fusion_lat": 0.0}, {"fusion_lon": 0.0, "bike_id": "95b138e1ba9fff972f74d1259a73463f", "name": "95b138e1ba9fff972f74d1259a73463f", "type": "electric_scooter", "lon": -77.038446, "rental_uris": {"android": "https://dc.lft.to/lastmile_qr_scan", "ios": "https://dc.lft.to/lastmile_qr_scan"}, "lat": 38.90979316666667, "is_reserved": 0, "is_disabled": 0, "fusion_lat": 0.0}, {"fusion_lon": 0.0, "bike_id": "772ebaf7ce2f6954499b8061dda0eb7e", "name": "772ebaf7ce2f6954499b8061dda0eb7e", "type": "electric_scooter", "lon": -77.03446133333334, "rental_uris": {"android": "https://dc.lft.to/lastmile_qr_scan", "ios": "https://dc.lft.to/lastmile_qr_scan"}, "lat": 38.9180005, "is_reserved": 0, "is_disabled": 0, "fusion_lat": 0.0}, {"fusion_lon": 0.0, "bike_id": "c9c778715b06ff59973e257db0321cea", "name": "c9c778715b06ff59973e257db0321cea", "type": "electric_scooter", "lon": -77.0136595, "rental_uris": {"android": "https://dc.lft.to/lastmile_qr_scan", "ios": "https://dc.lft.to/lastmile_qr_scan"}, "lat": 38.886387666666664, "is_reserved": 0, "is_disabled": 0, "fusion_lat": 0.0}, {"fusion_lon": 0.0, "bike_id": "203d7874a7a1ead2a235a68919accaf9", "name": "203d7874a7a1ead2a235a68919accaf9", "type": "electric_scooter", "lon": -77.01493116666667, "rental_uris": {"android": "https://dc.lft.to/lastmile_qr_scan", "ios": "https://dc.lft.to/lastmile_qr_scan"}, "lat": 38.90140816666667, "is_reserved": 0, "is_disabled": 0, "fusion_lat": 0.0}, {"fusion_lon": 0.0, "bike_id": "ad1be32e890327c7b21b099959df95ed", "name": "ad1be32e890327c7b21b099959df95ed", "type": "electric_bike", "lon": -77.01557416666667, "rental_uris": {"android": "https://dc.lft.to/lastmile_qr_scan", "ios": "https://dc.lft.to/lastmile_qr_scan"}, "lat": 38.950127, "is_reserved": 0, "is_disabled": 0, "fusion_lat": 0.0}, {"fusion_lon": 0.0, "bike_id": "91240397a06610c387a4620d4ca084e8", "name": "91240397a06610c387a4620d4ca084e8", "type": "electric_scooter", "lon": -77.01650133333334, "rental_uris": {"android": "https://dc.lft.to/lastmile_qr_scan", "ios": "https://dc.lft.to/lastmile_qr_scan"}, "lat": 38.90139966666667, "is_reserved": 0, "is_disabled": 0, "fusion_lat": 0.0}, {"fusion_lon": 0.0, "bike_id": "0f03f27baae05b450f68244e626c9df8", "name": "0f03f27baae05b450f68244e626c9df8", "type": "electric_scooter", "lon": -77.0136805, "rental_uris": {"android": "https://dc.lft.to/lastmile_qr_scan", "ios": "https://dc.lft.to/lastmile_qr_scan"}, "lat": 38.928724, "is_reserved": 0, "is_disabled": 0, "fusion_lat": 0.0}, {"fusion_lon": 0.0, "bike_id": "ccc51abecf590f6427e78f0d325df479", "name": "ccc51abecf590f6427e78f0d325df479", "type": "electric_scooter", "lon": -77.03178433333333, "rental_uris": {"android": "https://dc.lft.to/lastmile_qr_scan", "ios": "https://dc.lft.to/lastmile_qr_scan"}, "lat": 38.9134775, "is_reserved": 0, "is_disabled": 0, "fusion_lat": 0.0}, {"fusion_lon": 0.0, "bike_id": "519eb8a7a5ed690b3e64bf3939e84e8e", "name": "519eb8a7a5ed690b3e64bf3939e84e8e", "type": "electric_scooter", "lon": -77.05799983333333, "rental_uris": {"android": "https://dc.lft.to/lastmile_qr_scan", "ios": "https://dc.lft.to/lastmile_qr_scan"}, "lat": 38.9349925, "is_reserved": 0, "is_disabled": 0, "fusion_lat": 0.0}, {"fusion_lon": 0.0, "bike_id": "04b7897b30d7152f86698517ad883df3", "name": "04b7897b30d7152f86698517ad883df3", "type": "electric_scooter", "lon": -77.028546, "rental_uris": {"android": "https://dc.lft.to/lastmile_qr_scan", "ios": "https://dc.lft.to/lastmile_qr_scan"}, "lat": 38.932655, "is_reserved": 0, "is_disabled": 0, "fusion_lat": 0.0}, {"fusion_lon": 0.0, "bike_id": "acbfd6671b1495e638a250fe40c5fa7b", "name": "acbfd6671b1495e638a250fe40c5fa7b", "type": "electric_scooter", "lon": -77.048708, "rental_uris": {"android": "https://dc.lft.to/lastmile_qr_scan", "ios": "https://dc.lft.to/lastmile_qr_scan"}, "lat": 38.909093666666664, "is_reserved": 0, "is_disabled": 0, "fusion_lat": 0.0}, {"fusion_lon": 0.0, "bike_id": "30acb360893d2343239a89f812eefe87", "name": "30acb360893d2343239a89f812eefe87", "type": "electric_scooter", "lon": -77.05753733333333, "rental_uris": {"android": "https://dc.lft.to/lastmile_qr_scan", "ios": "https://dc.lft.to/lastmile_qr_scan"}, "lat": 38.92500233333333, "is_reserved": 0, "is_disabled": 0, "fusion_lat": 0.0}, {"fusion_lon": 0.0, "bike_id": "df26b057d871c8dad7f159987b2a50f1", "name": "df26b057d871c8dad7f159987b2a50f1", "type": "electric_bike", "lon": -76.90532416666667, "rental_uris": {"android": "https://dc.lft.to/lastmile_qr_scan", "ios": "https://dc.lft.to/lastmile_qr_scan"}, "lat": 38.897347333333336, "is_reserved": 0, "is_disabled": 0, "fusion_lat": 0.0}, {"fusion_lon": 0.0, "bike_id": "22cd963095fd96e75900e9c821908389", "name": "22cd963095fd96e75900e9c821908389", "type": "electric_scooter", "lon": -77.03264333333334, "rental_uris": {"android": "https://dc.lft.to/lastmile_qr_scan", "ios": "https://dc.lft.to/lastmile_qr_scan"}, "lat": 38.9191775, "is_reserved": 0, "is_disabled": 0, "fusion_lat": 0.0}, {"fusion_lon": 0.0, "bike_id": "54544125adcdfffa016399d2dc1a404c", "name": "54544125adcdfffa016399d2dc1a404c", "type": "electric_bike", "lon": -76.93025716666666, "rental_uris": {"android": "https://dc.lft.to/lastmile_qr_scan", "ios": "https://dc.lft.to/lastmile_qr_scan"}, "lat": 38.966489333333335, "is_reserved": 0, "is_disabled": 0, "fusion_lat": 0.0}, {"fusion_lon": 0.0, "bike_id": "aca79d023a76a171ace23fe3235e80e2", "name": "aca79d023a76a171ace23fe3235e80e2", "type": "electric_bike", "lon": -77.01797816666667, "rental_uris": {"android": "https://dc.lft.to/lastmile_qr_scan", "ios": "https://dc.lft.to/lastmile_qr_scan"}, "lat": 38.989898833333335, "is_reserved": 0, "is_disabled": 0, "fusion_lat": 0.0}, {"fusion_lon": 0.0, "bike_id": "8930869fbc573f47a6ddb89555f069ec", "name": "8930869fbc573f47a6ddb89555f069ec", "type": "electric_scooter", "lon": -77.0417625, "rental_uris": {"android": "https://dc.lft.to/lastmile_qr_scan", "ios": "https://dc.lft.to/lastmile_qr_scan"}, "lat": 38.91649266666667, "is_reserved": 0, "is_disabled": 0, "fusion_lat": 0.0}, {"fusion_lon": 0.0, "bike_id": "26198cc01d644234aee5e212cda17498", "name": "26198cc01d644234aee5e212cda17498", "type": "electric_scooter", "lon": -77.0385035, "rental_uris": {"android": "https://dc.lft.to/lastmile_qr_scan", "ios": "https://dc.lft.to/lastmile_qr_scan"}, "lat": 38.907894166666665, "is_reserved": 0, "is_disabled": 0, "fusion_lat": 0.0}, {"fusion_lon": 0.0, "bike_id": "6028be4497071422961250d9bb018b10", "name": "6028be4497071422961250d9bb018b10", "type": "electric_scooter", "lon": -77.048874, "rental_uris": {"android": "https://dc.lft.to/lastmile_qr_scan", "ios": "https://dc.lft.to/lastmile_qr_scan"}, "lat": 38.898120666666664, "is_reserved": 0, "is_disabled": 0, "fusion_lat": 0.0}, {"fusion_lon": 0.0, "bike_id": "ffb84febcc2a4effc38c22d9a535731e", "name": "ffb84febcc2a4effc38c22d9a535731e", "type": "electric_scooter", "lon": -76.91875466666667, "rental_uris": {"android": "https://dc.lft.to/lastmile_qr_scan", "ios": "https://dc.lft.to/lastmile_qr_scan"}, "lat": 38.89078383333333, "is_reserved": 0, "is_disabled": 0, "fusion_lat": 0.0}, {"fusion_lon": 0.0, "bike_id": "1922ab6f4e1b2dffd5ceb92caf665569", "name": "1922ab6f4e1b2dffd5ceb92caf665569", "type": "electric_scooter", "lon": -77.0043435, "rental_uris": {"android": "https://dc.lft.to/lastmile_qr_scan", "ios": "https://dc.lft.to/lastmile_qr_scan"}, "lat": 38.91198933333333, "is_reserved": 0, "is_disabled": 0, "fusion_lat": 0.0}, {"fusion_lon": 0.0, "bike_id": "fe276112706d52674717bdd2f991a41c", "name": "fe276112706d52674717bdd2f991a41c", "type": "electric_scooter", "lon": -76.99847933333334, "rental_uris": {"android": "https://dc.lft.to/lastmile_qr_scan", "ios": "https://dc.lft.to/lastmile_qr_scan"}, "lat": 38.900335, "is_reserved": 0, "is_disabled": 0, "fusion_lat": 0.0}, {"fusion_lon": 0.0, "bike_id": "c4bb31dd2a58d58f92f7f5b04a950c3d", "name": "c4bb31dd2a58d58f92f7f5b04a950c3d", "type": "electric_scooter", "lon": -77.04056583333333, "rental_uris": {"android": "https://dc.lft.to/lastmile_qr_scan", "ios": "https://dc.lft.to/lastmile_qr_scan"}, "lat": 38.901501833333334, "is_reserved": 0, "is_disabled": 0, "fusion_lat": 0.0}, {"fusion_lon": 0.0, "bike_id": "8eb8f81033966dce4a1c6eb961ee4fd6", "name": "8eb8f81033966dce4a1c6eb961ee4fd6", "type": "electric_scooter", "lon": -77.04160183333333, "rental_uris": {"android": "https://dc.lft.to/lastmile_qr_scan", "ios": "https://dc.lft.to/lastmile_qr_scan"}, "lat": 38.916027666666665, "is_reserved": 0, "is_disabled": 0, "fusion_lat": 0.0}, {"fusion_lon": 0.0, "bike_id": "6eb27e4c69d526d0ea9554aa107f5ae5", "name": "6eb27e4c69d526d0ea9554aa107f5ae5", "type": "electric_scooter", "lon": -77.01267, "rental_uris": {"android": "https://dc.lft.to/lastmile_qr_scan", "ios": "https://dc.lft.to/lastmile_qr_scan"}, "lat": 38.90053483333333, "is_reserved": 0, "is_disabled": 0, "fusion_lat": 0.0}, {"fusion_lon": 0.0, "bike_id": "c13d6bb384976d0a49e3483b43b1bb3b", "name": "c13d6bb384976d0a49e3483b43b1bb3b", "type": "electric_scooter", "lon": -77.03940383333334, "rental_uris": {"android": "https://dc.lft.to/lastmile_qr_scan", "ios": "https://dc.lft.to/lastmile_qr_scan"}, "lat": 38.918147166666664, "is_reserved": 0, "is_disabled": 0, "fusion_lat": 0.0}, {"fusion_lon": 0.0, "bike_id": "5c4853c6fce4e46d92b723dbcd5971be", "name": "5c4853c6fce4e46d92b723dbcd5971be", "type": "electric_scooter", "lon": -77.02316616666667, "rental_uris": {"android": "https://dc.lft.to/lastmile_qr_scan", "ios": "https://dc.lft.to/lastmile_qr_scan"}, "lat": 38.907318833333335, "is_reserved": 0, "is_disabled": 0, "fusion_lat": 0.0}, {"fusion_lon": 0.0, "bike_id": "eb5d88a5f0e7d636ae08505e433c057c", "name": "eb5d88a5f0e7d636ae08505e433c057c", "type": "electric_scooter", "lon": -77.0598665, "rental_uris": {"android": "https://dc.lft.to/lastmile_qr_scan", "ios": "https://dc.lft.to/lastmile_qr_scan"}, "lat": 38.9119325, "is_reserved": 0, "is_disabled": 0, "fusion_lat": 0.0}, {"fusion_lon": 0.0, "bike_id": "8a0a88d8881b43c5b5b86d631c7e8d5a", "name": "8a0a88d8881b43c5b5b86d631c7e8d5a", "type": "electric_scooter", "lon": -76.98223066666667, "rental_uris": {"android": "https://dc.lft.to/lastmile_qr_scan", "ios": "https://dc.lft.to/lastmile_qr_scan"}, "lat": 38.902074999999996, "is_reserved": 0, "is_disabled": 0, "fusion_lat": 0.0}, {"fusion_lon": 0.0, "bike_id": "94c6ff7ef3ed45941b96cfd5a0ba9c0e", "name": "94c6ff7ef3ed45941b96cfd5a0ba9c0e", "type": "electric_scooter", "lon": -77.03403516666667, "rental_uris": {"android": "https://dc.lft.to/lastmile_qr_scan", "ios": "https://dc.lft.to/lastmile_qr_scan"}, "lat": 38.92156416666667, "is_reserved": 0, "is_disabled": 0, "fusion_lat": 0.0}, {"fusion_lon": 0.0, "bike_id": "3d528a246f2f1e7a62e231d776a136bb", "name": "3d528a246f2f1e7a62e231d776a136bb", "type": "electric_scooter", "lon": -77.07744733333334, "rental_uris": {"android": "https://dc.lft.to/lastmile_qr_scan", "ios": "https://dc.lft.to/lastmile_qr_scan"}, "lat": 38.94374333333333, "is_reserved": 0, "is_disabled": 0, "fusion_lat": 0.0}, {"fusion_lon": 0.0, "bike_id": "715556cb67a9feb43cd767671b06dd7b", "name": "715556cb67a9feb43cd767671b06dd7b", "type": "electric_scooter", "lon": -76.9982815, "rental_uris": {"android": "https://dc.lft.to/lastmile_qr_scan", "ios": "https://dc.lft.to/lastmile_qr_scan"}, "lat": 38.908714333333336, "is_reserved": 0, "is_disabled": 0, "fusion_lat": 0.0}, {"fusion_lon": 0.0, "bike_id": "293f9fbfd07bbf8ecbcdc0a3149da5fe", "name": "293f9fbfd07bbf8ecbcdc0a3149da5fe", "type": "electric_scooter", "lon": -76.9961005, "rental_uris": {"android": "https://dc.lft.to/lastmile_qr_scan", "ios": "https://dc.lft.to/lastmile_qr_scan"}, "lat": 38.884915, "is_reserved": 0, "is_disabled": 0, "fusion_lat": 0.0}, {"fusion_lon": 0.0, "bike_id": "0afc8547439c5545b2d1e860ba96442e", "name": "0afc8547439c5545b2d1e860ba96442e", "type": "electric_scooter", "lon": -77.0722885, "rental_uris": {"android": "https://dc.lft.to/lastmile_qr_scan", "ios": "https://dc.lft.to/lastmile_qr_scan"}, "lat": 38.9345875, "is_reserved": 0, "is_disabled": 0, "fusion_lat": 0.0}, {"fusion_lon": 0.0, "bike_id": "9cbd9c1ab5a8fdbb8baf79213aafc678", "name": "9cbd9c1ab5a8fdbb8baf79213aafc678", "type": "electric_scooter", "lon": -77.01998633333334, "rental_uris": {"android": "https://dc.lft.to/lastmile_qr_scan", "ios": "https://dc.lft.to/lastmile_qr_scan"}, "lat": 38.878874, "is_reserved": 0, "is_disabled": 0, "fusion_lat": 0.0}, {"fusion_lon": 0.0, "bike_id": "946e1c929367eab9bed14707551d6a40", "name": "946e1c929367eab9bed14707551d6a40", "type": "electric_scooter", "lon": -77.03203183333333, "rental_uris": {"android": "https://dc.lft.to/lastmile_qr_scan", "ios": "https://dc.lft.to/lastmile_qr_scan"}, "lat": 38.919212333333334, "is_reserved": 0, "is_disabled": 0, "fusion_lat": 0.0}, {"fusion_lon": 0.0, "bike_id": "45fef1b3f77c753b7386248fbbf222ef", "name": "45fef1b3f77c753b7386248fbbf222ef", "type": "electric_scooter", "lon": -77.02345266666667, "rental_uris": {"android": "https://dc.lft.to/lastmile_qr_scan", "ios": "https://dc.lft.to/lastmile_qr_scan"}, "lat": 38.92266866666667, "is_reserved": 0, "is_disabled": 0, "fusion_lat": 0.0}, {"fusion_lon": 0.0, "bike_id": "f2f4256d862d82ee7003821f51922e99", "name": "f2f4256d862d82ee7003821f51922e99", "type": "electric_scooter", "lon": -77.02496516666666, "rental_uris": {"android": "https://dc.lft.to/lastmile_qr_scan", "ios": "https://dc.lft.to/lastmile_qr_scan"}, "lat": 38.920676, "is_reserved": 0, "is_disabled": 0, "fusion_lat": 0.0}, {"fusion_lon": 0.0, "bike_id": "60bfcf51d149a002333744bb50bd10fa", "name": "60bfcf51d149a002333744bb50bd10fa", "type": "electric_scooter", "lon": -77.03196566666666, "rental_uris": {"android": "https://dc.lft.to/lastmile_qr_scan", "ios": "https://dc.lft.to/lastmile_qr_scan"}, "lat": 38.92059783333333, "is_reserved": 0, "is_disabled": 0, "fusion_lat": 0.0}, {"fusion_lon": 0.0, "bike_id": "2e64269e68439938f4935a78594629a7", "name": "2e64269e68439938f4935a78594629a7", "type": "electric_bike", "lon": -77.08802383333334, "rental_uris": {"android": "https://dc.lft.to/lastmile_qr_scan", "ios": "https://dc.lft.to/lastmile_qr_scan"}, "lat": 38.83178633333333, "is_reserved": 0, "is_disabled": 0, "fusion_lat": 0.0}, {"fusion_lon": 0.0, "bike_id": "151324df9cb26411ba6826918fad478b", "name": "151324df9cb26411ba6826918fad478b", "type": "electric_scooter", "lon": -77.01017916666666, "rental_uris": {"android": "https://dc.lft.to/lastmile_qr_scan", "ios": "https://dc.lft.to/lastmile_qr_scan"}, "lat": 38.90627383333333, "is_reserved": 0, "is_disabled": 0, "fusion_lat": 0.0}, {"fusion_lon": 0.0, "bike_id": "41becc738d89fc94e031bed63f912c8e", "name": "41becc738d89fc94e031bed63f912c8e", "type": "electric_scooter", "lon": -77.02960333333333, "rental_uris": {"android": "https://dc.lft.to/lastmile_qr_scan", "ios": "https://dc.lft.to/lastmile_qr_scan"}, "lat": 38.928451833333334, "is_reserved": 0, "is_disabled": 0, "fusion_lat": 0.0}, {"fusion_lon": 0.0, "bike_id": "9295b8b3a4d0579e28920c6494846d5d", "name": "9295b8b3a4d0579e28920c6494846d5d", "type": "electric_scooter", "lon": -77.04331316666666, "rental_uris": {"android": "https://dc.lft.to/lastmile_qr_scan", "ios": "https://dc.lft.to/lastmile_qr_scan"}, "lat": 38.898289166666665, "is_reserved": 0, "is_disabled": 0, "fusion_lat": 0.0}, {"fusion_lon": 0.0, "bike_id": "ccd978144eee5e3c62f05feb1ed6bfd9", "name": "ccd978144eee5e3c62f05feb1ed6bfd9", "type": "electric_scooter", "lon": -77.02478766666667, "rental_uris": {"android": "https://dc.lft.to/lastmile_qr_scan", "ios": "https://dc.lft.to/lastmile_qr_scan"}, "lat": 38.9383795, "is_reserved": 0, "is_disabled": 0, "fusion_lat": 0.0}, {"fusion_lon": 0.0, "bike_id": "1f7b4946413247716eb73576ddce5d01", "name": "1f7b4946413247716eb73576ddce5d01", "type": "electric_scooter", "lon": -77.04480683333334, "rental_uris": {"android": "https://dc.lft.to/lastmile_qr_scan", "ios": "https://dc.lft.to/lastmile_qr_scan"}, "lat": 38.91867283333333, "is_reserved": 0, "is_disabled": 0, "fusion_lat": 0.0}, {"fusion_lon": 0.0, "bike_id": "9dbc495665544389e2c05584ade65cb0", "name": "9dbc495665544389e2c05584ade65cb0", "type": "electric_bike", "lon": -76.952045, "rental_uris": {"android": "https://dc.lft.to/lastmile_qr_scan", "ios": "https://dc.lft.to/lastmile_qr_scan"}, "lat": 38.936662166666665, "is_reserved": 0, "is_disabled": 0, "fusion_lat": 0.0}, {"fusion_lon": 0.0, "bike_id": "849bc9e00c0ed2c7aeb4adeaef9554bf", "name": "849bc9e00c0ed2c7aeb4adeaef9554bf", "type": "electric_scooter", "lon": -77.046767, "rental_uris": {"android": "https://dc.lft.to/lastmile_qr_scan", "ios": "https://dc.lft.to/lastmile_qr_scan"}, "lat": 38.903183166666665, "is_reserved": 0, "is_disabled": 0, "fusion_lat": 0.0}, {"fusion_lon": 0.0, "bike_id": "7e9da7d816cda4db58553621af39889f", "name": "7e9da7d816cda4db58553621af39889f", "type": "electric_scooter", "lon": -77.02402416666666, "rental_uris": {"android": "https://dc.lft.to/lastmile_qr_scan", "ios": "https://dc.lft.to/lastmile_qr_scan"}, "lat": 38.9348925, "is_reserved": 0, "is_disabled": 0, "fusion_lat": 0.0}, {"fusion_lon": 0.0, "bike_id": "6d235aac4f1dee3f67700c25606d8e76", "name": "6d235aac4f1dee3f67700c25606d8e76", "type": "electric_scooter", "lon": -77.04629916666667, "rental_uris": {"android": "https://dc.lft.to/lastmile_qr_scan", "ios": "https://dc.lft.to/lastmile_qr_scan"}, "lat": 38.91808916666667, "is_reserved": 0, "is_disabled": 0, "fusion_lat": 0.0}, {"fusion_lon": 0.0, "bike_id": "ef5f047f1c88d6167917468fe0d3b788", "name": "ef5f047f1c88d6167917468fe0d3b788", "type": "electric_scooter", "lon": -76.98721716666667, "rental_uris": {"android": "https://dc.lft.to/lastmile_qr_scan", "ios": "https://dc.lft.to/lastmile_qr_scan"}, "lat": 38.8671585, "is_reserved": 0, "is_disabled": 0, "fusion_lat": 0.0}, {"fusion_lon": 0.0, "bike_id": "7ba95a68c888752602f41c2e265dfbcf", "name": "7ba95a68c888752602f41c2e265dfbcf", "type": "electric_bike", "lon": -77.01447216666666, "rental_uris": {"android": "https://dc.lft.to/lastmile_qr_scan", "ios": "https://dc.lft.to/lastmile_qr_scan"}, "lat": 38.876746833333335, "is_reserved": 0, "is_disabled": 0, "fusion_lat": 0.0}, {"fusion_lon": 0.0, "bike_id": "96dca65b68df65349afd326e71e3788b", "name": "96dca65b68df65349afd326e71e3788b", "type": "electric_scooter", "lon": -76.9877425, "rental_uris": {"android": "https://dc.lft.to/lastmile_qr_scan", "ios": "https://dc.lft.to/lastmile_qr_scan"}, "lat": 38.89823616666666, "is_reserved": 0, "is_disabled": 0, "fusion_lat": 0.0}, {"fusion_lon": 0.0, "bike_id": "20bbdbcd2fa034c8257ced4c82c17455", "name": "20bbdbcd2fa034c8257ced4c82c17455", "type": "electric_scooter", "lon": -77.04152466666666, "rental_uris": {"android": "https://dc.lft.to/lastmile_qr_scan", "ios": "https://dc.lft.to/lastmile_qr_scan"}, "lat": 38.9172105, "is_reserved": 0, "is_disabled": 0, "fusion_lat": 0.0}, {"fusion_lon": 0.0, "bike_id": "f29414b9602de41cd42f9dd586781bbc", "name": "f29414b9602de41cd42f9dd586781bbc", "type": "electric_scooter", "lon": -77.03393133333333, "rental_uris": {"android": "https://dc.lft.to/lastmile_qr_scan", "ios": "https://dc.lft.to/lastmile_qr_scan"}, "lat": 38.919213666666664, "is_reserved": 0, "is_disabled": 0, "fusion_lat": 0.0}, {"fusion_lon": 0.0, "bike_id": "503c7b7e22b0393a081e9d1b2efb7718", "name": "503c7b7e22b0393a081e9d1b2efb7718", "type": "electric_scooter", "lon": -77.02092916666666, "rental_uris": {"android": "https://dc.lft.to/lastmile_qr_scan", "ios": "https://dc.lft.to/lastmile_qr_scan"}, "lat": 38.93450566666667, "is_reserved": 0, "is_disabled": 0, "fusion_lat": 0.0}, {"fusion_lon": 0.0, "bike_id": "14c37bc2007d5dadbd7521cd98bb2d31", "name": "14c37bc2007d5dadbd7521cd98bb2d31", "type": "electric_scooter", "lon": -77.001946, "rental_uris": {"android": "https://dc.lft.to/lastmile_qr_scan", "ios": "https://dc.lft.to/lastmile_qr_scan"}, "lat": 38.914782, "is_reserved": 0, "is_disabled": 0, "fusion_lat": 0.0}, {"fusion_lon": 0.0, "bike_id": "b8201eecd7d13d6f3a746b12616ca12e", "name": "b8201eecd7d13d6f3a746b12616ca12e", "type": "electric_scooter", "lon": -77.05699466666667, "rental_uris": {"android": "https://dc.lft.to/lastmile_qr_scan", "ios": "https://dc.lft.to/lastmile_qr_scan"}, "lat": 38.9105755, "is_reserved": 0, "is_disabled": 0, "fusion_lat": 0.0}, {"fusion_lon": 0.0, "bike_id": "895ad87dc08bd23e0bbe35361c6017d2", "name": "895ad87dc08bd23e0bbe35361c6017d2", "type": "electric_scooter", "lon": -77.028115, "rental_uris": {"android": "https://dc.lft.to/lastmile_qr_scan", "ios": "https://dc.lft.to/lastmile_qr_scan"}, "lat": 38.89832666666667, "is_reserved": 0, "is_disabled": 0, "fusion_lat": 0.0}, {"fusion_lon": 0.0, "bike_id": "64e0d9032e617f42d50a4e0a90ee6c0c", "name": "64e0d9032e617f42d50a4e0a90ee6c0c", "type": "electric_scooter", "lon": -76.99600766666667, "rental_uris": {"android": "https://dc.lft.to/lastmile_qr_scan", "ios": "https://dc.lft.to/lastmile_qr_scan"}, "lat": 38.880378, "is_reserved": 0, "is_disabled": 0, "fusion_lat": 0.0}, {"fusion_lon": 0.0, "bike_id": "5ab49040dd79d9861bcbe6e76389ddfb", "name": "5ab49040dd79d9861bcbe6e76389ddfb", "type": "electric_scooter", "lon": -77.00045433333334, "rental_uris": {"android": "https://dc.lft.to/lastmile_qr_scan", "ios": "https://dc.lft.to/lastmile_qr_scan"}, "lat": 38.91899266666667, "is_reserved": 0, "is_disabled": 0, "fusion_lat": 0.0}, {"fusion_lon": 0.0, "bike_id": "cb6dd2635a30d079fd27cc27c56c127f", "name": "cb6dd2635a30d079fd27cc27c56c127f", "type": "electric_scooter", "lon": -77.03855116666666, "rental_uris": {"android": "https://dc.lft.to/lastmile_qr_scan", "ios": "https://dc.lft.to/lastmile_qr_scan"}, "lat": 38.918369166666665, "is_reserved": 0, "is_disabled": 0, "fusion_lat": 0.0}, {"fusion_lon": 0.0, "bike_id": "9985cb8b770463ec8df7205c87b4fc34", "name": "9985cb8b770463ec8df7205c87b4fc34", "type": "electric_scooter", "lon": -77.03618616666667, "rental_uris": {"android": "https://dc.lft.to/lastmile_qr_scan", "ios": "https://dc.lft.to/lastmile_qr_scan"}, "lat": 38.9245645, "is_reserved": 0, "is_disabled": 0, "fusion_lat": 0.0}, {"fusion_lon": 0.0, "bike_id": "681b8ae6e36d748f23d77506fd56ab88", "name": "681b8ae6e36d748f23d77506fd56ab88", "type": "electric_scooter", "lon": -77.08192966666667, "rental_uris": {"android": "https://dc.lft.to/lastmile_qr_scan", "ios": "https://dc.lft.to/lastmile_qr_scan"}, "lat": 38.935609166666666, "is_reserved": 0, "is_disabled": 0, "fusion_lat": 0.0}, {"fusion_lon": 0.0, "bike_id": "541c458600eeb044e85d7b40ad474c57", "name": "541c458600eeb044e85d7b40ad474c57", "type": "electric_scooter", "lon": -77.02160283333333, "rental_uris": {"android": "https://dc.lft.to/lastmile_qr_scan", "ios": "https://dc.lft.to/lastmile_qr_scan"}, "lat": 38.89419866666667, "is_reserved": 0, "is_disabled": 0, "fusion_lat": 0.0}, {"fusion_lon": 0.0, "bike_id": "9671892a697c7d78cf6493047e4fc947", "name": "9671892a697c7d78cf6493047e4fc947", "type": "electric_scooter", "lon": -77.00329166666667, "rental_uris": {"android": "https://dc.lft.to/lastmile_qr_scan", "ios": "https://dc.lft.to/lastmile_qr_scan"}, "lat": 38.874937333333335, "is_reserved": 0, "is_disabled": 0, "fusion_lat": 0.0}, {"fusion_lon": 0.0, "bike_id": "6a4b467a2ba58e33c3de09fb6b353870", "name": "6a4b467a2ba58e33c3de09fb6b353870", "type": "electric_scooter", "lon": -77.03208033333334, "rental_uris": {"android": "https://dc.lft.to/lastmile_qr_scan", "ios": "https://dc.lft.to/lastmile_qr_scan"}, "lat": 38.9179425, "is_reserved": 0, "is_disabled": 0, "fusion_lat": 0.0}, {"fusion_lon": 0.0, "bike_id": "1c92f935eda5fda06eaa832dc067c893", "name": "1c92f935eda5fda06eaa832dc067c893", "type": "electric_scooter", "lon": -77.07693616666667, "rental_uris": {"android": "https://dc.lft.to/lastmile_qr_scan", "ios": "https://dc.lft.to/lastmile_qr_scan"}, "lat": 38.92169083333334, "is_reserved": 0, "is_disabled": 0, "fusion_lat": 0.0}, {"fusion_lon": 0.0, "bike_id": "6be4a1c651c570154e9ed4aae7a86f22", "name": "6be4a1c651c570154e9ed4aae7a86f22", "type": "electric_scooter", "lon": -77.034513, "rental_uris": {"android": "https://dc.lft.to/lastmile_qr_scan", "ios": "https://dc.lft.to/lastmile_qr_scan"}, "lat": 38.91802666666667, "is_reserved": 0, "is_disabled": 0, "fusion_lat": 0.0}, {"fusion_lon": 0.0, "bike_id": "be2a0ae4c7ed60bcba41348488323f18", "name": "be2a0ae4c7ed60bcba41348488323f18", "type": "electric_scooter", "lon": -77.04152666666667, "rental_uris": {"android": "https://dc.lft.to/lastmile_qr_scan", "ios": "https://dc.lft.to/lastmile_qr_scan"}, "lat": 38.914445, "is_reserved": 0, "is_disabled": 0, "fusion_lat": 0.0}, {"fusion_lon": 0.0, "bike_id": "2477030c29bbd6064943af4ad5570033", "name": "2477030c29bbd6064943af4ad5570033", "type": "electric_scooter", "lon": -77.02776666666666, "rental_uris": {"android": "https://dc.lft.to/lastmile_qr_scan", "ios": "https://dc.lft.to/lastmile_qr_scan"}, "lat": 38.892176166666665, "is_reserved": 0, "is_disabled": 0, "fusion_lat": 0.0}, {"fusion_lon": 0.0, "bike_id": "85b8599a5308ad33fe2a64221d196d1f", "name": "85b8599a5308ad33fe2a64221d196d1f", "type": "electric_scooter", "lon": -77.0034495, "rental_uris": {"android": "https://dc.lft.to/lastmile_qr_scan", "ios": "https://dc.lft.to/lastmile_qr_scan"}, "lat": 38.913477, "is_reserved": 0, "is_disabled": 0, "fusion_lat": 0.0}, {"fusion_lon": 0.0, "bike_id": "a6980f897b729ca25e4b606d40b68e4b", "name": "a6980f897b729ca25e4b606d40b68e4b", "type": "electric_scooter", "lon": -77.0434045, "rental_uris": {"android": "https://dc.lft.to/lastmile_qr_scan", "ios": "https://dc.lft.to/lastmile_qr_scan"}, "lat": 38.922063, "is_reserved": 0, "is_disabled": 0, "fusion_lat": 0.0}, {"fusion_lon": 0.0, "bike_id": "658e3aa326e2d399ea276605a0e4aaba", "name": "658e3aa326e2d399ea276605a0e4aaba", "type": "electric_scooter", "lon": -77.02013983333333, "rental_uris": {"android": "https://dc.lft.to/lastmile_qr_scan", "ios": "https://dc.lft.to/lastmile_qr_scan"}, "lat": 38.924165333333335, "is_reserved": 0, "is_disabled": 0, "fusion_lat": 0.0}, {"fusion_lon": 0.0, "bike_id": "4bdb447182c426e87c97ce72a39e35b5", "name": "4bdb447182c426e87c97ce72a39e35b5", "type": "electric_scooter", "lon": -76.98101433333333, "rental_uris": {"android": "https://dc.lft.to/lastmile_qr_scan", "ios": "https://dc.lft.to/lastmile_qr_scan"}, "lat": 38.90569716666667, "is_reserved": 0, "is_disabled": 0, "fusion_lat": 0.0}, {"fusion_lon": 0.0, "bike_id": "e14c75c5fcc2ddfec22ed8836681f6f1", "name": "e14c75c5fcc2ddfec22ed8836681f6f1", "type": "electric_scooter", "lon": -77.03860466666667, "rental_uris": {"android": "https://dc.lft.to/lastmile_qr_scan", "ios": "https://dc.lft.to/lastmile_qr_scan"}, "lat": 38.918093166666665, "is_reserved": 0, "is_disabled": 0, "fusion_lat": 0.0}, {"fusion_lon": 0.0, "bike_id": "2d786271d4f1cdf7957042d2518a9d9f", "name": "2d786271d4f1cdf7957042d2518a9d9f", "type": "electric_scooter", "lon": -77.0074165, "rental_uris": {"android": "https://dc.lft.to/lastmile_qr_scan", "ios": "https://dc.lft.to/lastmile_qr_scan"}, "lat": 38.876468833333334, "is_reserved": 0, "is_disabled": 0, "fusion_lat": 0.0}, {"fusion_lon": 0.0, "bike_id": "446dc6289ad1fa27d075456851753141", "name": "446dc6289ad1fa27d075456851753141", "type": "electric_scooter", "lon": -77.026876, "rental_uris": {"android": "https://dc.lft.to/lastmile_qr_scan", "ios": "https://dc.lft.to/lastmile_qr_scan"}, "lat": 38.907355833333334, "is_reserved": 0, "is_disabled": 0, "fusion_lat": 0.0}, {"fusion_lon": 0.0, "bike_id": "4387abf7c8a03e0357f5d1b0a67d32fd", "name": "4387abf7c8a03e0357f5d1b0a67d32fd", "type": "electric_scooter", "lon": -77.03261233333333, "rental_uris": {"android": "https://dc.lft.to/lastmile_qr_scan", "ios": "https://dc.lft.to/lastmile_qr_scan"}, "lat": 38.93206633333333, "is_reserved": 0, "is_disabled": 0, "fusion_lat": 0.0}, {"fusion_lon": 0.0, "bike_id": "a850153426b16127903787a951b76f7a", "name": "a850153426b16127903787a951b76f7a", "type": "electric_scooter", "lon": -77.05421816666667, "rental_uris": {"android": "https://dc.lft.to/lastmile_qr_scan", "ios": "https://dc.lft.to/lastmile_qr_scan"}, "lat": 38.92804483333333, "is_reserved": 0, "is_disabled": 0, "fusion_lat": 0.0}, {"fusion_lon": 0.0, "bike_id": "e954a91a6f58eb9e01ce7c8f82fb8e65", "name": "e954a91a6f58eb9e01ce7c8f82fb8e65", "type": "electric_scooter", "lon": -77.0064475, "rental_uris": {"android": "https://dc.lft.to/lastmile_qr_scan", "ios": "https://dc.lft.to/lastmile_qr_scan"}, "lat": 38.911763666666666, "is_reserved": 0, "is_disabled": 0, "fusion_lat": 0.0}, {"fusion_lon": 0.0, "bike_id": "d70d2a6ef8ebabdb5834e0d65c910561", "name": "d70d2a6ef8ebabdb5834e0d65c910561", "type": "electric_scooter", "lon": -77.04391683333333, "rental_uris": {"android": "https://dc.lft.to/lastmile_qr_scan", "ios": "https://dc.lft.to/lastmile_qr_scan"}, "lat": 38.91087383333333, "is_reserved": 0, "is_disabled": 0, "fusion_lat": 0.0}, {"fusion_lon": 0.0, "bike_id": "868535fa84497f792434a248e7450d2a", "name": "868535fa84497f792434a248e7450d2a", "type": "electric_bike", "lon": -76.9819585, "rental_uris": {"android": "https://dc.lft.to/lastmile_qr_scan", "ios": "https://dc.lft.to/lastmile_qr_scan"}, "lat": 38.9849495, "is_reserved": 0, "is_disabled": 0, "fusion_lat": 0.0}, {"fusion_lon": 0.0, "bike_id": "cac8e7ac4facb073315d584f6e3ccc2f", "name": "cac8e7ac4facb073315d584f6e3ccc2f", "type": "electric_scooter", "lon": -77.02582116666666, "rental_uris": {"android": "https://dc.lft.to/lastmile_qr_scan", "ios": "https://dc.lft.to/lastmile_qr_scan"}, "lat": 38.942116166666665, "is_reserved": 0, "is_disabled": 0, "fusion_lat": 0.0}, {"fusion_lon": 0.0, "bike_id": "2c4e65928e13fd73e64cf5b6e7505c5c", "name": "2c4e65928e13fd73e64cf5b6e7505c5c", "type": "electric_scooter", "lon": -77.0314825, "rental_uris": {"android": "https://dc.lft.to/lastmile_qr_scan", "ios": "https://dc.lft.to/lastmile_qr_scan"}, "lat": 38.927226166666664, "is_reserved": 0, "is_disabled": 0, "fusion_lat": 0.0}, {"fusion_lon": 0.0, "bike_id": "abf54dac75a997ca2fb43058f1a8bc80", "name": "abf54dac75a997ca2fb43058f1a8bc80", "type": "electric_scooter", "lon": -76.96485716666666, "rental_uris": {"android": "https://dc.lft.to/lastmile_qr_scan", "ios": "https://dc.lft.to/lastmile_qr_scan"}, "lat": 38.87549166666667, "is_reserved": 0, "is_disabled": 0, "fusion_lat": 0.0}, {"fusion_lon": 0.0, "bike_id": "3502a196618d0ffe90f653e0ed0ae0c2", "name": "3502a196618d0ffe90f653e0ed0ae0c2", "type": "electric_bike", "lon": -76.96838933333333, "rental_uris": {"android": "https://dc.lft.to/lastmile_qr_scan", "ios": "https://dc.lft.to/lastmile_qr_scan"}, "lat": 38.924437166666664, "is_reserved": 0, "is_disabled": 0, "fusion_lat": 0.0}, {"fusion_lon": 0.0, "bike_id": "0cffbfbbe80d4e940f5030b94dd0ee2d", "name": "0cffbfbbe80d4e940f5030b94dd0ee2d", "type": "electric_scooter", "lon": -77.04727416666667, "rental_uris": {"android": "https://dc.lft.to/lastmile_qr_scan", "ios": "https://dc.lft.to/lastmile_qr_scan"}, "lat": 38.8996405, "is_reserved": 0, "is_disabled": 0, "fusion_lat": 0.0}, {"fusion_lon": 0.0, "bike_id": "663c7af598e19e170cb74078f1057891", "name": "663c7af598e19e170cb74078f1057891", "type": "electric_bike", "lon": -77.1526815, "rental_uris": {"android": "https://dc.lft.to/lastmile_qr_scan", "ios": "https://dc.lft.to/lastmile_qr_scan"}, "lat": 39.105667333333336, "is_reserved": 0, "is_disabled": 0, "fusion_lat": 0.0}, {"fusion_lon": 0.0, "bike_id": "36cb2e6ae4671061c329241c37ff814f", "name": "36cb2e6ae4671061c329241c37ff814f", "type": "electric_scooter", "lon": -77.0466105, "rental_uris": {"android": "https://dc.lft.to/lastmile_qr_scan", "ios": "https://dc.lft.to/lastmile_qr_scan"}, "lat": 38.920625333333334, "is_reserved": 0, "is_disabled": 0, "fusion_lat": 0.0}, {"fusion_lon": 0.0, "bike_id": "c12684430d19b6238b90b17624fef017", "name": "c12684430d19b6238b90b17624fef017", "type": "electric_scooter", "lon": -77.03442083333333, "rental_uris": {"android": "https://dc.lft.to/lastmile_qr_scan", "ios": "https://dc.lft.to/lastmile_qr_scan"}, "lat": 38.96425933333333, "is_reserved": 0, "is_disabled": 0, "fusion_lat": 0.0}, {"fusion_lon": 0.0, "bike_id": "7f517c110c39ca8fec6d28cbd3f40121", "name": "7f517c110c39ca8fec6d28cbd3f40121", "type": "electric_scooter", "lon": -77.04010833333334, "rental_uris": {"android": "https://dc.lft.to/lastmile_qr_scan", "ios": "https://dc.lft.to/lastmile_qr_scan"}, "lat": 38.917062, "is_reserved": 0, "is_disabled": 0, "fusion_lat": 0.0}, {"fusion_lon": 0.0, "bike_id": "924dd8eb49a6b2aa47ebe11c9f31db9c", "name": "924dd8eb49a6b2aa47ebe11c9f31db9c", "type": "electric_scooter", "lon": -77.01965866666667, "rental_uris": {"android": "https://dc.lft.to/lastmile_qr_scan", "ios": "https://dc.lft.to/lastmile_qr_scan"}, "lat": 38.878429, "is_reserved": 0, "is_disabled": 0, "fusion_lat": 0.0}, {"fusion_lon": 0.0, "bike_id": "64dbcc8390ec6c3e3ef0c142d6cf7d78", "name": "64dbcc8390ec6c3e3ef0c142d6cf7d78", "type": "electric_scooter", "lon": -77.04169416666667, "rental_uris": {"android": "https://dc.lft.to/lastmile_qr_scan", "ios": "https://dc.lft.to/lastmile_qr_scan"}, "lat": 38.9126045, "is_reserved": 0, "is_disabled": 0, "fusion_lat": 0.0}, {"fusion_lon": 0.0, "bike_id": "f87753437c779266e2207344ba125836", "name": "f87753437c779266e2207344ba125836", "type": "electric_bike", "lon": -76.9160045, "rental_uris": {"android": "https://dc.lft.to/lastmile_qr_scan", "ios": "https://dc.lft.to/lastmile_qr_scan"}, "lat": 38.87972116666667, "is_reserved": 0, "is_disabled": 0, "fusion_lat": 0.0}, {"fusion_lon": 0.0, "bike_id": "0542608a4308e25cd3cef2fed932470c", "name": "0542608a4308e25cd3cef2fed932470c", "type": "electric_scooter", "lon": -76.98327133333333, "rental_uris": {"android": "https://dc.lft.to/lastmile_qr_scan", "ios": "https://dc.lft.to/lastmile_qr_scan"}, "lat": 38.861725666666665, "is_reserved": 0, "is_disabled": 0, "fusion_lat": 0.0}, {"fusion_lon": 0.0, "bike_id": "5cac0bd2a4953dad9d4e364fdcb6253e", "name": "5cac0bd2a4953dad9d4e364fdcb6253e", "type": "electric_bike", "lon": -77.13177866666666, "rental_uris": {"android": "https://dc.lft.to/lastmile_qr_scan", "ios": "https://dc.lft.to/lastmile_qr_scan"}, "lat": 38.8690735, "is_reserved": 0, "is_disabled": 0, "fusion_lat": 0.0}, {"fusion_lon": 0.0, "bike_id": "19b686ed8f700d66d54b00429546dbe9", "name": "19b686ed8f700d66d54b00429546dbe9", "type": "electric_scooter", "lon": -77.02780766666666, "rental_uris": {"android": "https://dc.lft.to/lastmile_qr_scan", "ios": "https://dc.lft.to/lastmile_qr_scan"}, "lat": 38.881573333333336, "is_reserved": 0, "is_disabled": 0, "fusion_lat": 0.0}, {"fusion_lon": 0.0, "bike_id": "6fecb57b3e5c172883365dd3653f6d1b", "name": "6fecb57b3e5c172883365dd3653f6d1b", "type": "electric_scooter", "lon": -77.03290583333333, "rental_uris": {"android": "https://dc.lft.to/lastmile_qr_scan", "ios": "https://dc.lft.to/lastmile_qr_scan"}, "lat": 38.938807, "is_reserved": 0, "is_disabled": 0, "fusion_lat": 0.0}, {"fusion_lon": 0.0, "bike_id": "141fc2ee30a0c15629099a74939531f8", "name": "141fc2ee30a0c15629099a74939531f8", "type": "electric_scooter", "lon": -77.03934216666667, "rental_uris": {"android": "https://dc.lft.to/lastmile_qr_scan", "ios": "https://dc.lft.to/lastmile_qr_scan"}, "lat": 38.92493916666667, "is_reserved": 0, "is_disabled": 0, "fusion_lat": 0.0}, {"fusion_lon": 0.0, "bike_id": "f24ac9e24019e79f2a0f814433bd529e", "name": "f24ac9e24019e79f2a0f814433bd529e", "type": "electric_scooter", "lon": -77.037587, "rental_uris": {"android": "https://dc.lft.to/lastmile_qr_scan", "ios": "https://dc.lft.to/lastmile_qr_scan"}, "lat": 38.92482783333333, "is_reserved": 0, "is_disabled": 0, "fusion_lat": 0.0}, {"fusion_lon": 0.0, "bike_id": "6a81f56065ab4b09249e76b5078b6cb9", "name": "6a81f56065ab4b09249e76b5078b6cb9", "type": "electric_bike", "lon": -77.01947483333333, "rental_uris": {"android": "https://dc.lft.to/lastmile_qr_scan", "ios": "https://dc.lft.to/lastmile_qr_scan"}, "lat": 38.88323716666667, "is_reserved": 0, "is_disabled": 0, "fusion_lat": 0.0}, {"fusion_lon": 0.0, "bike_id": "d4b18426a918f1843543e17ea374327f", "name": "d4b18426a918f1843543e17ea374327f", "type": "electric_scooter", "lon": -77.028063, "rental_uris": {"android": "https://dc.lft.to/lastmile_qr_scan", "ios": "https://dc.lft.to/lastmile_qr_scan"}, "lat": 38.906232833333334, "is_reserved": 0, "is_disabled": 0, "fusion_lat": 0.0}, {"fusion_lon": 0.0, "bike_id": "ad4d21cc4e144332292392c44814a70c", "name": "ad4d21cc4e144332292392c44814a70c", "type": "electric_scooter", "lon": -77.016016, "rental_uris": {"android": "https://dc.lft.to/lastmile_qr_scan", "ios": "https://dc.lft.to/lastmile_qr_scan"}, "lat": 38.9013105, "is_reserved": 0, "is_disabled": 0, "fusion_lat": 0.0}, {"fusion_lon": 0.0, "bike_id": "4a0f08756771b573457ff5f49250d5de", "name": "4a0f08756771b573457ff5f49250d5de", "type": "electric_scooter", "lon": -77.033817, "rental_uris": {"android": "https://dc.lft.to/lastmile_qr_scan", "ios": "https://dc.lft.to/lastmile_qr_scan"}, "lat": 38.92540983333333, "is_reserved": 0, "is_disabled": 0, "fusion_lat": 0.0}, {"fusion_lon": 0.0, "bike_id": "58533147df2cc2eb23f7848d4494f276", "name": "58533147df2cc2eb23f7848d4494f276", "type": "electric_scooter", "lon": -76.984748, "rental_uris": {"android": "https://dc.lft.to/lastmile_qr_scan", "ios": "https://dc.lft.to/lastmile_qr_scan"}, "lat": 38.928972, "is_reserved": 0, "is_disabled": 0, "fusion_lat": 0.0}, {"fusion_lon": 0.0, "bike_id": "4e6641a928435a03f6785e923a9fa45e", "name": "4e6641a928435a03f6785e923a9fa45e", "type": "electric_scooter", "lon": -77.030657, "rental_uris": {"android": "https://dc.lft.to/lastmile_qr_scan", "ios": "https://dc.lft.to/lastmile_qr_scan"}, "lat": 38.88045, "is_reserved": 0, "is_disabled": 0, "fusion_lat": 0.0}, {"fusion_lon": 0.0, "bike_id": "6ed33b030b7ccf3d66d1129d7e93d56e", "name": "6ed33b030b7ccf3d66d1129d7e93d56e", "type": "electric_scooter", "lon": -77.01765933333333, "rental_uris": {"android": "https://dc.lft.to/lastmile_qr_scan", "ios": "https://dc.lft.to/lastmile_qr_scan"}, "lat": 38.902534333333335, "is_reserved": 0, "is_disabled": 0, "fusion_lat": 0.0}, {"fusion_lon": 0.0, "bike_id": "dcecf3a11478b0e9645d49204edd5b97", "name": "dcecf3a11478b0e9645d49204edd5b97", "type": "electric_scooter", "lon": -77.04690666666667, "rental_uris": {"android": "https://dc.lft.to/lastmile_qr_scan", "ios": "https://dc.lft.to/lastmile_qr_scan"}, "lat": 38.9027825, "is_reserved": 0, "is_disabled": 0, "fusion_lat": 0.0}, {"fusion_lon": 0.0, "bike_id": "1c6e151f9b2250f603e11178d1a2af54", "name": "1c6e151f9b2250f603e11178d1a2af54", "type": "electric_scooter", "lon": -77.01189683333334, "rental_uris": {"android": "https://dc.lft.to/lastmile_qr_scan", "ios": "https://dc.lft.to/lastmile_qr_scan"}, "lat": 38.8715845, "is_reserved": 0, "is_disabled": 0, "fusion_lat": 0.0}, {"fusion_lon": 0.0, "bike_id": "d440dd3f60b0db94f0aa28df334682ec", "name": "d440dd3f60b0db94f0aa28df334682ec", "type": "electric_scooter", "lon": -76.929547, "rental_uris": {"android": "https://dc.lft.to/lastmile_qr_scan", "ios": "https://dc.lft.to/lastmile_qr_scan"}, "lat": 38.89881716666667, "is_reserved": 0, "is_disabled": 0, "fusion_lat": 0.0}, {"fusion_lon": 0.0, "bike_id": "1cc0ca66d51c5ff2637e2f4e4ddbc331", "name": "1cc0ca66d51c5ff2637e2f4e4ddbc331", "type": "electric_scooter", "lon": -77.02490633333333, "rental_uris": {"android": "https://dc.lft.to/lastmile_qr_scan", "ios": "https://dc.lft.to/lastmile_qr_scan"}, "lat": 38.90416966666667, "is_reserved": 0, "is_disabled": 0, "fusion_lat": 0.0}, {"fusion_lon": 0.0, "bike_id": "b9f3082d514dd5dc35fad769c15522c5", "name": "b9f3082d514dd5dc35fad769c15522c5", "type": "electric_scooter", "lon": -77.02959533333333, "rental_uris": {"android": "https://dc.lft.to/lastmile_qr_scan", "ios": "https://dc.lft.to/lastmile_qr_scan"}, "lat": 38.922686666666664, "is_reserved": 0, "is_disabled": 0, "fusion_lat": 0.0}, {"fusion_lon": 0.0, "bike_id": "306aa3f8341880dd831d603a9dbe39a3", "name": "306aa3f8341880dd831d603a9dbe39a3", "type": "electric_scooter", "lon": -77.03863533333333, "rental_uris": {"android": "https://dc.lft.to/lastmile_qr_scan", "ios": "https://dc.lft.to/lastmile_qr_scan"}, "lat": 38.919779166666665, "is_reserved": 0, "is_disabled": 0, "fusion_lat": 0.0}, {"fusion_lon": 0.0, "bike_id": "d79a4eaf7222fd98d28f1aa0bfdcf881", "name": "d79a4eaf7222fd98d28f1aa0bfdcf881", "type": "electric_scooter", "lon": -76.99136383333334, "rental_uris": {"android": "https://dc.lft.to/lastmile_qr_scan", "ios": "https://dc.lft.to/lastmile_qr_scan"}, "lat": 38.879093166666664, "is_reserved": 0, "is_disabled": 0, "fusion_lat": 0.0}, {"fusion_lon": 0.0, "bike_id": "b4a0c17dcc9c0e3b285041b4605826c2", "name": "b4a0c17dcc9c0e3b285041b4605826c2", "type": "electric_scooter", "lon": -77.04668833333334, "rental_uris": {"android": "https://dc.lft.to/lastmile_qr_scan", "ios": "https://dc.lft.to/lastmile_qr_scan"}, "lat": 38.90324433333333, "is_reserved": 0, "is_disabled": 0, "fusion_lat": 0.0}, {"fusion_lon": 0.0, "bike_id": "d5f01683445a2e7be09f6c63e0449eb3", "name": "d5f01683445a2e7be09f6c63e0449eb3", "type": "electric_scooter", "lon": -77.04172083333333, "rental_uris": {"android": "https://dc.lft.to/lastmile_qr_scan", "ios": "https://dc.lft.to/lastmile_qr_scan"}, "lat": 38.9157445, "is_reserved": 0, "is_disabled": 0, "fusion_lat": 0.0}, {"fusion_lon": 0.0, "bike_id": "efa360b8546e474d82d27023f3bb7943", "name": "efa360b8546e474d82d27023f3bb7943", "type": "electric_bike", "lon": -76.99760566666667, "rental_uris": {"android": "https://dc.lft.to/lastmile_qr_scan", "ios": "https://dc.lft.to/lastmile_qr_scan"}, "lat": 39.0059545, "is_reserved": 0, "is_disabled": 0, "fusion_lat": 0.0}, {"fusion_lon": 0.0, "bike_id": "ed5133b262c183c1ee71c7d137357885", "name": "ed5133b262c183c1ee71c7d137357885", "type": "electric_scooter", "lon": -77.02369433333334, "rental_uris": {"android": "https://dc.lft.to/lastmile_qr_scan", "ios": "https://dc.lft.to/lastmile_qr_scan"}, "lat": 38.907295500000004, "is_reserved": 0, "is_disabled": 0, "fusion_lat": 0.0}, {"fusion_lon": 0.0, "bike_id": "306ef360dda738b58119cddaa4eba23c", "name": "306ef360dda738b58119cddaa4eba23c", "type": "electric_bike", "lon": -77.02655533333333, "rental_uris": {"android": "https://dc.lft.to/lastmile_qr_scan", "ios": "https://dc.lft.to/lastmile_qr_scan"}, "lat": 38.988173833333335, "is_reserved": 0, "is_disabled": 0, "fusion_lat": 0.0}, {"fusion_lon": 0.0, "bike_id": "b2561e5b8c71c026a4a25af3ea9e2aee", "name": "b2561e5b8c71c026a4a25af3ea9e2aee", "type": "electric_scooter", "lon": -77.0341675, "rental_uris": {"android": "https://dc.lft.to/lastmile_qr_scan", "ios": "https://dc.lft.to/lastmile_qr_scan"}, "lat": 38.929437, "is_reserved": 0, "is_disabled": 0, "fusion_lat": 0.0}, {"fusion_lon": 0.0, "bike_id": "1ba268e277d50dc7abceff5cc117b158", "name": "1ba268e277d50dc7abceff5cc117b158", "type": "electric_scooter", "lon": -76.990053, "rental_uris": {"android": "https://dc.lft.to/lastmile_qr_scan", "ios": "https://dc.lft.to/lastmile_qr_scan"}, "lat": 38.86508216666667, "is_reserved": 0, "is_disabled": 0, "fusion_lat": 0.0}, {"fusion_lon": 0.0, "bike_id": "f1fae5057a363838a9ade23cbbfd084f", "name": "f1fae5057a363838a9ade23cbbfd084f", "type": "electric_scooter", "lon": -77.02318783333334, "rental_uris": {"android": "https://dc.lft.to/lastmile_qr_scan", "ios": "https://dc.lft.to/lastmile_qr_scan"}, "lat": 38.89663066666667, "is_reserved": 0, "is_disabled": 0, "fusion_lat": 0.0}, {"fusion_lon": 0.0, "bike_id": "b10fd6dd99411e5867049d38bef9170c", "name": "b10fd6dd99411e5867049d38bef9170c", "type": "electric_scooter", "lon": -77.032779, "rental_uris": {"android": "https://dc.lft.to/lastmile_qr_scan", "ios": "https://dc.lft.to/lastmile_qr_scan"}, "lat": 38.94698866666667, "is_reserved": 0, "is_disabled": 0, "fusion_lat": 0.0}, {"fusion_lon": 0.0, "bike_id": "85f44d0bf6b906acaa43dfe5bd60791a", "name": "85f44d0bf6b906acaa43dfe5bd60791a", "type": "electric_scooter", "lon": -76.99361166666667, "rental_uris": {"android": "https://dc.lft.to/lastmile_qr_scan", "ios": "https://dc.lft.to/lastmile_qr_scan"}, "lat": 38.928386, "is_reserved": 0, "is_disabled": 0, "fusion_lat": 0.0}, {"fusion_lon": 0.0, "bike_id": "776eac55f6432b0bb9857627448d5b25", "name": "776eac55f6432b0bb9857627448d5b25", "type": "electric_scooter", "lon": -76.99077366666667, "rental_uris": {"android": "https://dc.lft.to/lastmile_qr_scan", "ios": "https://dc.lft.to/lastmile_qr_scan"}, "lat": 38.8604715, "is_reserved": 0, "is_disabled": 0, "fusion_lat": 0.0}, {"fusion_lon": 0.0, "bike_id": "2745ef752af241f1d066f5806b324fae", "name": "2745ef752af241f1d066f5806b324fae", "type": "electric_scooter", "lon": -77.02290233333333, "rental_uris": {"android": "https://dc.lft.to/lastmile_qr_scan", "ios": "https://dc.lft.to/lastmile_qr_scan"}, "lat": 38.91723066666667, "is_reserved": 0, "is_disabled": 0, "fusion_lat": 0.0}, {"fusion_lon": 0.0, "bike_id": "9f3b6576ace6d0bf0007b8d97c4e38ce", "name": "9f3b6576ace6d0bf0007b8d97c4e38ce", "type": "electric_scooter", "lon": -77.039072, "rental_uris": {"android": "https://dc.lft.to/lastmile_qr_scan", "ios": "https://dc.lft.to/lastmile_qr_scan"}, "lat": 38.91418083333333, "is_reserved": 0, "is_disabled": 0, "fusion_lat": 0.0}, {"fusion_lon": 0.0, "bike_id": "c56d8b3e990eb78a7a2223d87f162768", "name": "c56d8b3e990eb78a7a2223d87f162768", "type": "electric_scooter", "lon": -77.06250733333333, "rental_uris": {"android": "https://dc.lft.to/lastmile_qr_scan", "ios": "https://dc.lft.to/lastmile_qr_scan"}, "lat": 38.9131735, "is_reserved": 0, "is_disabled": 0, "fusion_lat": 0.0}, {"fusion_lon": 0.0, "bike_id": "22c7ac89134163af8d16a53756ea9ebf", "name": "22c7ac89134163af8d16a53756ea9ebf", "type": "electric_scooter", "lon": -77.0120175, "rental_uris": {"android": "https://dc.lft.to/lastmile_qr_scan", "ios": "https://dc.lft.to/lastmile_qr_scan"}, "lat": 38.925866166666665, "is_reserved": 0, "is_disabled": 0, "fusion_lat": 0.0}, {"fusion_lon": 0.0, "bike_id": "03e3e77d10afea65ed5a2789d0a4a8f5", "name": "03e3e77d10afea65ed5a2789d0a4a8f5", "type": "electric_scooter", "lon": -77.0244515, "rental_uris": {"android": "https://dc.lft.to/lastmile_qr_scan", "ios": "https://dc.lft.to/lastmile_qr_scan"}, "lat": 38.90856316666667, "is_reserved": 0, "is_disabled": 0, "fusion_lat": 0.0}, {"fusion_lon": 0.0, "bike_id": "659ea2d9d4c96ca1e3cec65888bb1fba", "name": "659ea2d9d4c96ca1e3cec65888bb1fba", "type": "electric_scooter", "lon": -77.019951, "rental_uris": {"android": "https://dc.lft.to/lastmile_qr_scan", "ios": "https://dc.lft.to/lastmile_qr_scan"}, "lat": 38.966415, "is_reserved": 0, "is_disabled": 0, "fusion_lat": 0.0}, {"fusion_lon": 0.0, "bike_id": "71f09cfcb66bf854af4c767c5971f7be", "name": "71f09cfcb66bf854af4c767c5971f7be", "type": "electric_scooter", "lon": -77.02219483333333, "rental_uris": {"android": "https://dc.lft.to/lastmile_qr_scan", "ios": "https://dc.lft.to/lastmile_qr_scan"}, "lat": 38.8922305, "is_reserved": 0, "is_disabled": 0, "fusion_lat": 0.0}, {"fusion_lon": 0.0, "bike_id": "713e7db5941ced00c30c58c7df7ee03f", "name": "713e7db5941ced00c30c58c7df7ee03f", "type": "electric_scooter", "lon": -77.05755066666667, "rental_uris": {"android": "https://dc.lft.to/lastmile_qr_scan", "ios": "https://dc.lft.to/lastmile_qr_scan"}, "lat": 38.9249385, "is_reserved": 0, "is_disabled": 0, "fusion_lat": 0.0}, {"fusion_lon": 0.0, "bike_id": "e49359f2f62e2fda2e03dc540137eab9", "name": "e49359f2f62e2fda2e03dc540137eab9", "type": "electric_scooter", "lon": -76.9491315, "rental_uris": {"android": "https://dc.lft.to/lastmile_qr_scan", "ios": "https://dc.lft.to/lastmile_qr_scan"}, "lat": 38.8949285, "is_reserved": 0, "is_disabled": 0, "fusion_lat": 0.0}, {"fusion_lon": 0.0, "bike_id": "7a5f7a26ab831dd641429288f649e951", "name": "7a5f7a26ab831dd641429288f649e951", "type": "electric_scooter", "lon": -76.99012533333334, "rental_uris": {"android": "https://dc.lft.to/lastmile_qr_scan", "ios": "https://dc.lft.to/lastmile_qr_scan"}, "lat": 38.900353833333334, "is_reserved": 0, "is_disabled": 0, "fusion_lat": 0.0}, {"fusion_lon": 0.0, "bike_id": "61db5d819f0dea18a235f4995a9bb6fd", "name": "61db5d819f0dea18a235f4995a9bb6fd", "type": "electric_scooter", "lon": -77.03372616666667, "rental_uris": {"android": "https://dc.lft.to/lastmile_qr_scan", "ios": "https://dc.lft.to/lastmile_qr_scan"}, "lat": 38.9322025, "is_reserved": 0, "is_disabled": 0, "fusion_lat": 0.0},