{"data": {"bikes": [{"bike_id": "6b2f50300dda33596d208f37268f9f63", "type": "electric_scooter", "is_disabled": 0, "lat": 38.9053845, "rental_uris": {"ios": "https://dc.lft.to/lastmile_qr_scan", "android": "https://dc.lft.to/lastmile_qr_scan"}, "is_reserved": 0, "fusion_lon": 0.0, "fusion_lat": 0.0, "lon": -77.047477, "name": "6b2f50300dda33596d208f37268f9f63"}, {"bike_id": "920f35a65f2dbcd5b328637884001e98", "type": "electric_scooter", "is_disabled": 0, "lat": 38.87469383333333, "rental_uris": {"ios": "https://dc.lft.to/lastmile_qr_scan", "android": "https://dc.lft.to/lastmile_qr_scan"}, "is_reserved": 0, "fusion_lon": 0.0, "fusion_lat": 0.0, "lon": -77.00534466666667, "name": "920f35a65f2dbcd5b328637884001e98"}, {"bike_id": "2e305af62fe954b36d5172d0c38dd166", "type": "electric_scooter", "is_disabled": 0, "lat": 38.90154316666667, "rental_uris": {"ios": "https://dc.lft.to/lastmile_qr_scan", "android": "https://dc.lft.to/lastmile_qr_scan"}, "is_reserved": 0, "fusion_lon": 0.0, "fusion_lat": 0.0, "lon": -77.02306966666667, "name": "2e305af62fe954b36d5172d0c38dd166"}, {"bike_id": "bb4e25f864d509a7e9b6e13862df2b44", "type": "electric_scooter", "is_disabled": 0, "lat": 38.874197, "rental_uris": {"ios": "https://dc.lft.to/lastmile_qr_scan", "android": "https://dc.lft.to/lastmile_qr_scan"}, "is_reserved": 0, "fusion_lon": 0.0, "fusion_lat": 0.0, "lon": -76.9691015, "name": "bb4e25f864d509a7e9b6e13862df2b44"}, {"bike_id": "8f4e54a6a31313c060108ac3e068e552", "type": "electric_bike", "is_disabled": 0, "lat": 38.9524595, "rental_uris": {"ios": "https://dc.lft.to/lastmile_qr_scan", "android": "https://dc.lft.to/lastmile_qr_scan"}, "is_reserved": 0, "fusion_lon": 0.0, "fusion_lat": 0.0, "lon": -76.97678283333333, "name": "8f4e54a6a31313c060108ac3e068e552"}, {"bike_id": "d68aef09f8c3f2d1f57b4efd505d9e2b", "type": "electric_scooter", "is_disabled": 0, "lat": 38.89957416666667, "rental_uris": {"ios": "https://dc.lft.to/lastmile_qr_scan", "android": "https://dc.lft.to/lastmile_qr_scan"}, "is_reserved": 0, "fusion_lon": 0.0, "fusion_lat": 0.0, "lon": -76.991488, "name": "d68aef09f8c3f2d1f57b4efd505d9e2b"}, {"bike_id": "59495ccacf2d06f197fd982bd67df47a", "type": "electric_scooter", "is_disabled": 0, "lat": 38.923232, "rental_uris": {"ios": "https://dc.lft.to/lastmile_qr_scan", "android": "https://dc.lft.to/lastmile_qr_scan"}, "is_reserved": 0, "fusion_lon": 0.0, "fusion_lat": 0.0, "lon": -77.03678633333334, "name": "59495ccacf2d06f197fd982bd67df47a"}, {"bike_id": "6e3d24b35c402396a9bd9897b0adf187", "type": "electric_scooter", "is_disabled": 0, "lat": 38.88712966666667, "rental_uris": {"ios": "https://dc.lft.to/lastmile_qr_scan", "android": "https://dc.lft.to/lastmile_qr_scan"}, "is_reserved": 0, "fusion_lon": 0.0, "fusion_lat": 0.0, "lon": -77.022056, "name": "6e3d24b35c402396a9bd9897b0adf187"}, {"bike_id": "8ce49ad08a629f47ac0ce28df219091a", "type": "electric_scooter", "is_disabled": 0, "lat": 38.923858333333335, "rental_uris": {"ios": "https://dc.lft.to/lastmile_qr_scan", "android": "https://dc.lft.to/lastmile_qr_scan"}, "is_reserved": 0, "fusion_lon": 0.0, "fusion_lat": 0.0, "lon": -77.0505485, "name": "8ce49ad08a629f47ac0ce28df219091a"}, {"bike_id": "f45ca5615a5653c6d4ec451f1deac828", "type": "electric_scooter", "is_disabled": 0, "lat": 38.90417033333333, "rental_uris": {"ios": "https://dc.lft.to/lastmile_qr_scan", "android": "https://dc.lft.to/lastmile_qr_scan"}, "is_reserved": 0, "fusion_lon": 0.0, "fusion_lat": 0.0, "lon": -77.023808, "name": "f45ca5615a5653c6d4ec451f1deac828"}, {"bike_id": "e7407a3c5b2b7d9807cff9d1dedeeb2f", "type": "electric_scooter", "is_disabled": 0, "lat": 38.9179515, "rental_uris": {"ios": "https://dc.lft.to/lastmile_qr_scan", "android": "https://dc.lft.to/lastmile_qr_scan"}, "is_reserved": 0, "fusion_lon": 0.0, "fusion_lat": 0.0, "lon": -77.03206416666667, "name": "e7407a3c5b2b7d9807cff9d1dedeeb2f"}, {"bike_id": "72582a74a0acb98a4d3ead7a98af7f09", "type": "electric_bike", "is_disabled": 0, "lat": 38.963142833333336, "rental_uris": {"ios": "https://dc.lft.to/lastmile_qr_scan", "android": "https://dc.lft.to/lastmile_qr_scan"}, "is_reserved": 0, "fusion_lon": 0.0, "fusion_lat": 0.0, "lon": -76.97362483333333, "name": "72582a74a0acb98a4d3ead7a98af7f09"}, {"bike_id": "ed493748abe9b3ae613f50a6385045cf", "type": "electric_scooter", "is_disabled": 0, "lat": 38.90527266666667, "rental_uris": {"ios": "https://dc.lft.to/lastmile_qr_scan", "android": "https://dc.lft.to/lastmile_qr_scan"}, "is_reserved": 0, "fusion_lon": 0.0, "fusion_lat": 0.0, "lon": -77.07032283333334, "name": "ed493748abe9b3ae613f50a6385045cf"}, {"bike_id": "67fdc9a22f89ef8bde4d7235d5cc8688", "type": "electric_scooter", "is_disabled": 0, "lat": 38.9056665, "rental_uris": {"ios": "https://dc.lft.to/lastmile_qr_scan", "android": "https://dc.lft.to/lastmile_qr_scan"}, "is_reserved": 0, "fusion_lon": 0.0, "fusion_lat": 0.0, "lon": -77.0307105, "name": "67fdc9a22f89ef8bde4d7235d5cc8688"}, {"bike_id": "ab0b0f80dfdd637eadfe9ec84002156b", "type": "electric_scooter", "is_disabled": 0, "lat": 38.920326333333335, "rental_uris": {"ios": "https://dc.lft.to/lastmile_qr_scan", "android": "https://dc.lft.to/lastmile_qr_scan"}, "is_reserved": 0, "fusion_lon": 0.0, "fusion_lat": 0.0, "lon": -76.99558683333333, "name": "ab0b0f80dfdd637eadfe9ec84002156b"}, {"bike_id": "9f34d65040d2211a5fbc84a12afffa31", "type": "electric_scooter", "is_disabled": 0, "lat": 38.911844333333335, "rental_uris": {"ios": "https://dc.lft.to/lastmile_qr_scan", "android": "https://dc.lft.to/lastmile_qr_scan"}, "is_reserved": 0, "fusion_lon": 0.0, "fusion_lat": 0.0, "lon": -77.03207183333333, "name": "9f34d65040d2211a5fbc84a12afffa31"}, {"bike_id": "84a782af1fa377721a621930dcaf887c", "type": "electric_scooter", "is_disabled": 0, "lat": 38.86695866666667, "rental_uris": {"ios": "https://dc.lft.to/lastmile_qr_scan", "android": "https://dc.lft.to/lastmile_qr_scan"}, "is_reserved": 0, "fusion_lon": 0.0, "fusion_lat": 0.0, "lon": -76.98714233333334, "name": "84a782af1fa377721a621930dcaf887c"}, {"bike_id": "48b1b42b7fb663ac885b76c13c400081", "type": "electric_bike", "is_disabled": 0, "lat": 38.898469, "rental_uris": {"ios": "https://dc.lft.to/lastmile_qr_scan", "android": "https://dc.lft.to/lastmile_qr_scan"}, "is_reserved": 0, "fusion_lon": 0.0, "fusion_lat": 0.0, "lon": -77.053009, "name": "48b1b42b7fb663ac885b76c13c400081"}, {"bike_id": "0b8368b28658f2c8ec8d7796bcd18e1e", "type": "electric_scooter", "is_disabled": 0, "lat": 38.912460333333335, "rental_uris": {"ios": "https://dc.lft.to/lastmile_qr_scan", "android": "https://dc.lft.to/lastmile_qr_scan"}, "is_reserved": 0, "fusion_lon": 0.0, "fusion_lat": 0.0, "lon": -77.029568, "name": "0b8368b28658f2c8ec8d7796bcd18e1e"}, {"bike_id": "e9c3a9c800314c9d0756b0f0bde4ce47", "type": "electric_scooter", "is_disabled": 0, "lat": 38.900937666666664, "rental_uris": {"ios": "https://dc.lft.to/lastmile_qr_scan", "android": "https://dc.lft.to/lastmile_qr_scan"}, "is_reserved": 0, "fusion_lon": 0.0, "fusion_lat": 0.0, "lon": -77.0193565, "name": "e9c3a9c800314c9d0756b0f0bde4ce47"}, {"bike_id": "bb64f86567cec6209486b8b589a9f16c", "type": "electric_scooter", "is_disabled": 0, "lat": 38.899747833333336, "rental_uris": {"ios": "https://dc.lft.to/lastmile_qr_scan", "android": "https://dc.lft.to/lastmile_qr_scan"}, "is_reserved": 0, "fusion_lon": 0.0, "fusion_lat": 0.0, "lon": -77.01907766666666, "name": "bb64f86567cec6209486b8b589a9f16c"}, {"bike_id": "bee77183e5acb8fc0076f4936b683e15", "type": "electric_scooter", "is_disabled": 0, "lat": 38.92042266666667, "rental_uris": {"ios": "https://dc.lft.to/lastmile_qr_scan", "android": "https://dc.lft.to/lastmile_qr_scan"}, "is_reserved": 0, "fusion_lon": 0.0, "fusion_lat": 0.0, "lon": -77.04200216666666, "name": "bee77183e5acb8fc0076f4936b683e15"}, {"bike_id": "3d2699c600f2c94120061d84c0893e20", "type": "electric_bike", "is_disabled": 0, "lat": 39.0243335, "rental_uris": {"ios": "https://dc.lft.to/lastmile_qr_scan", "android": "https://dc.lft.to/lastmile_qr_scan"}, "is_reserved": 0, "fusion_lon": 0.0, "fusion_lat": 0.0, "lon": -77.13103766666667, "name": "3d2699c600f2c94120061d84c0893e20"}, {"bike_id": "7eaf76f94c3ade685e54cb5403fe607f", "type": "electric_scooter", "is_disabled": 0, "lat": 38.931415333333334, "rental_uris": {"ios": "https://dc.lft.to/lastmile_qr_scan", "android": "https://dc.lft.to/lastmile_qr_scan"}, "is_reserved": 0, "fusion_lon": 0.0, "fusion_lat": 0.0, "lon": -77.04245966666667, "name": "7eaf76f94c3ade685e54cb5403fe607f"}, {"bike_id": "2a52618ea4098b29fb45e5d3d33af13d", "type": "electric_scooter", "is_disabled": 0, "lat": 38.916980333333335, "rental_uris": {"ios": "https://dc.lft.to/lastmile_qr_scan", "android": "https://dc.lft.to/lastmile_qr_scan"}, "is_reserved": 0, "fusion_lon": 0.0, "fusion_lat": 0.0, "lon": -77.02869483333333, "name": "2a52618ea4098b29fb45e5d3d33af13d"}, {"bike_id": "b002f15fb46d5aab656f447fafff0a03", "type": "electric_scooter", "is_disabled": 0, "lat": 38.92981533333333, "rental_uris": {"ios": "https://dc.lft.to/lastmile_qr_scan", "android": "https://dc.lft.to/lastmile_qr_scan"}, "is_reserved": 0, "fusion_lon": 0.0, "fusion_lat": 0.0, "lon": -77.03271683333334, "name": "b002f15fb46d5aab656f447fafff0a03"}, {"bike_id": "8426f37fd3d3b7f7902507ffec315008", "type": "electric_scooter", "is_disabled": 0, "lat": 38.909084166666666, "rental_uris": {"ios": "https://dc.lft.to/lastmile_qr_scan", "android": "https://dc.lft.to/lastmile_qr_scan"}, "is_reserved": 0, "fusion_lon": 0.0, "fusion_lat": 0.0, "lon": -77.02301716666666, "name": "8426f37fd3d3b7f7902507ffec315008"}, {"bike_id": "fad29d011538d77f1c5debf0f754bf61", "type": "electric_scooter", "is_disabled": 0, "lat": 38.93040633333333, "rental_uris": {"ios": "https://dc.lft.to/lastmile_qr_scan", "android": "https://dc.lft.to/lastmile_qr_scan"}, "is_reserved": 0, "fusion_lon": 0.0, "fusion_lat": 0.0, "lon": -77.03299116666666, "name": "fad29d011538d77f1c5debf0f754bf61"}, {"bike_id": "aea8314f9dbb28c57838f1bb75789940", "type": "electric_scooter", "is_disabled": 0, "lat": 38.9346145, "rental_uris": {"ios": "https://dc.lft.to/lastmile_qr_scan", "android": "https://dc.lft.to/lastmile_qr_scan"}, "is_reserved": 0, "fusion_lon": 0.0, "fusion_lat": 0.0, "lon": -77.027753, "name": "aea8314f9dbb28c57838f1bb75789940"}, {"bike_id": "27c60491dc2400214b0bdc5a421335ab", "type": "electric_scooter", "is_disabled": 0, "lat": 38.939903666666666, "rental_uris": {"ios": "https://dc.lft.to/lastmile_qr_scan", "android": "https://dc.lft.to/lastmile_qr_scan"}, "is_reserved": 0, "fusion_lon": 0.0, "fusion_lat": 0.0, "lon": -77.01748183333333, "name": "27c60491dc2400214b0bdc5a421335ab"}, {"bike_id": "af68232e36aca764ba01a4de6df12d28", "type": "electric_scooter", "is_disabled": 0, "lat": 38.923144666666666, "rental_uris": {"ios": "https://dc.lft.to/lastmile_qr_scan", "android": "https://dc.lft.to/lastmile_qr_scan"}, "is_reserved": 0, "fusion_lon": 0.0, "fusion_lat": 0.0, "lon": -77.03815383333334, "name": "af68232e36aca764ba01a4de6df12d28"}, {"bike_id": "bb3b175aa12d8473843222fcf824c7be", "type": "electric_scooter", "is_disabled": 0, "lat": 38.92154033333333, "rental_uris": {"ios": "https://dc.lft.to/lastmile_qr_scan", "android": "https://dc.lft.to/lastmile_qr_scan"}, "is_reserved": 0, "fusion_lon": 0.0, "fusion_lat": 0.0, "lon": -77.0351485, "name": "bb3b175aa12d8473843222fcf824c7be"}, {"bike_id": "1fdfdd32eac563d78216989686020fae", "type": "electric_scooter", "is_disabled": 0, "lat": 38.86737183333334, "rental_uris": {"ios": "https://dc.lft.to/lastmile_qr_scan", "android": "https://dc.lft.to/lastmile_qr_scan"}, "is_reserved": 0, "fusion_lon": 0.0, "fusion_lat": 0.0, "lon": -76.97855266666667, "name": "1fdfdd32eac563d78216989686020fae"}, {"bike_id": "9b1a1ec0ea60506b56427f699797c13a", "type": "electric_scooter", "is_disabled": 0, "lat": 38.91419533333333, "rental_uris": {"ios": "https://dc.lft.to/lastmile_qr_scan", "android": "https://dc.lft.to/lastmile_qr_scan"}, "is_reserved": 0, "fusion_lon": 0.0, "fusion_lat": 0.0, "lon": -77.01799, "name": "9b1a1ec0ea60506b56427f699797c13a"}, {"bike_id": "2c425d59286a9d5811c8081df762cd7f", "type": "electric_scooter", "is_disabled": 0, "lat": 38.92598483333333, "rental_uris": {"ios": "https://dc.lft.to/lastmile_qr_scan", "android": "https://dc.lft.to/lastmile_qr_scan"}, "is_reserved": 0, "fusion_lon": 0.0, "fusion_lat": 0.0, "lon": -77.02387116666667, "name": "2c425d59286a9d5811c8081df762cd7f"}, {"bike_id": "3db85332103d48e865d46b9fbc633659", "type": "electric_scooter", "is_disabled": 0, "lat": 38.909341166666664, "rental_uris": {"ios": "https://dc.lft.to/lastmile_qr_scan", "android": "https://dc.lft.to/lastmile_qr_scan"}, "is_reserved": 0, "fusion_lon": 0.0, "fusion_lat": 0.0, "lon": -77.055528, "name": "3db85332103d48e865d46b9fbc633659"}, {"bike_id": "8aa7cef20df98af0296acfe7e6e7c51e", "type": "electric_scooter", "is_disabled": 0, "lat": 38.91945033333333, "rental_uris": {"ios": "https://dc.lft.to/lastmile_qr_scan", "android": "https://dc.lft.to/lastmile_qr_scan"}, "is_reserved": 0, "fusion_lon": 0.0, "fusion_lat": 0.0, "lon": -77.02709466666667, "name": "8aa7cef20df98af0296acfe7e6e7c51e"}, {"bike_id": "64d355d97e78ee8e5737e85d5e46f2a9", "type": "electric_scooter", "is_disabled": 0, "lat": 38.92765416666667, "rental_uris": {"ios": "https://dc.lft.to/lastmile_qr_scan", "android": "https://dc.lft.to/lastmile_qr_scan"}, "is_reserved": 0, "fusion_lon": 0.0, "fusion_lat": 0.0, "lon": -76.961013, "name": "64d355d97e78ee8e5737e85d5e46f2a9"}, {"bike_id": "f7b95d50e9d2531ba806d2cd123adbfb", "type": "electric_scooter", "is_disabled": 0, "lat": 38.874442333333334, "rental_uris": {"ios": "https://dc.lft.to/lastmile_qr_scan", "android": "https://dc.lft.to/lastmile_qr_scan"}, "is_reserved": 0, "fusion_lon": 0.0, "fusion_lat": 0.0, "lon": -77.00058233333333, "name": "f7b95d50e9d2531ba806d2cd123adbfb"}, {"bike_id": "0774260eced4c9b95217e80948b5f2f3", "type": "electric_scooter", "is_disabled": 0, "lat": 38.8644005, "rental_uris": {"ios": "https://dc.lft.to/lastmile_qr_scan", "android": "https://dc.lft.to/lastmile_qr_scan"}, "is_reserved": 0, "fusion_lon": 0.0, "fusion_lat": 0.0, "lon": -76.97996866666666, "name": "0774260eced4c9b95217e80948b5f2f3"}, {"bike_id": "125417bf35c816441b66d164240cbf28", "type": "electric_scooter", "is_disabled": 0, "lat": 38.92003833333333, "rental_uris": {"ios": "https://dc.lft.to/lastmile_qr_scan", "android": "https://dc.lft.to/lastmile_qr_scan"}, "is_reserved": 0, "fusion_lon": 0.0, "fusion_lat": 0.0, "lon": -77.041685, "name": "125417bf35c816441b66d164240cbf28"}, {"bike_id": "23c1241875958e26471c95311db7e8e0", "type": "electric_scooter", "is_disabled": 0, "lat": 38.95649733333333, "rental_uris": {"ios": "https://dc.lft.to/lastmile_qr_scan", "android": "https://dc.lft.to/lastmile_qr_scan"}, "is_reserved": 0, "fusion_lon": 0.0, "fusion_lat": 0.0, "lon": -77.02400116666666, "name": "23c1241875958e26471c95311db7e8e0"}, {"bike_id": "d052d8a5e448a3c1baf5b924c6d5066b", "type": "electric_scooter", "is_disabled": 0, "lat": 38.892893, "rental_uris": {"ios": "https://dc.lft.to/lastmile_qr_scan", "android": "https://dc.lft.to/lastmile_qr_scan"}, "is_reserved": 0, "fusion_lon": 0.0, "fusion_lat": 0.0, "lon": -77.04870533333333, "name": "d052d8a5e448a3c1baf5b924c6d5066b"}, {"bike_id": "bae49903e01d0749221d203ab80517d4", "type": "electric_scooter", "is_disabled": 0, "lat": 38.89233133333333, "rental_uris": {"ios": "https://dc.lft.to/lastmile_qr_scan", "android": "https://dc.lft.to/lastmile_qr_scan"}, "is_reserved": 0, "fusion_lon": 0.0, "fusion_lat": 0.0, "lon": -77.04356483333333, "name": "bae49903e01d0749221d203ab80517d4"}, {"bike_id": "27bcae57a43769ea2924f3cceba97775", "type": "electric_scooter", "is_disabled": 0, "lat": 38.876822, "rental_uris": {"ios": "https://dc.lft.to/lastmile_qr_scan", "android": "https://dc.lft.to/lastmile_qr_scan"}, "is_reserved": 0, "fusion_lon": 0.0, "fusion_lat": 0.0, "lon": -77.00060033333334, "name": "27bcae57a43769ea2924f3cceba97775"}, {"bike_id": "b2527ac30481834d9c1324c1c97c3b4b", "type": "electric_scooter", "is_disabled": 0, "lat": 38.9039345, "rental_uris": {"ios": "https://dc.lft.to/lastmile_qr_scan", "android": "https://dc.lft.to/lastmile_qr_scan"}, "is_reserved": 0, "fusion_lon": 0.0, "fusion_lat": 0.0, "lon": -76.990085, "name": "b2527ac30481834d9c1324c1c97c3b4b"}, {"bike_id": "c7161a3742301b7607a276a63bc535bf", "type": "electric_scooter", "is_disabled": 0, "lat": 38.9063885, "rental_uris": {"ios": "https://dc.lft.to/lastmile_qr_scan", "android": "https://dc.lft.to/lastmile_qr_scan"}, "is_reserved": 0, "fusion_lon": 0.0, "fusion_lat": 0.0, "lon": -77.01829866666667, "name": "c7161a3742301b7607a276a63bc535bf"}, {"bike_id": "3f1b0663b7a2557e7b7556f5c30355db", "type": "electric_scooter", "is_disabled": 0, "lat": 38.892532333333335, "rental_uris": {"ios": "https://dc.lft.to/lastmile_qr_scan", "android": "https://dc.lft.to/lastmile_qr_scan"}, "is_reserved": 0, "fusion_lon": 0.0, "fusion_lat": 0.0, "lon": -76.92571883333333, "name": "3f1b0663b7a2557e7b7556f5c30355db"}, {"bike_id": "20248bba5081f6733960ea92867ed321", "type": "electric_scooter", "is_disabled": 0, "lat": 38.9167585, "rental_uris": {"ios": "https://dc.lft.to/lastmile_qr_scan", "android": "https://dc.lft.to/lastmile_qr_scan"}, "is_reserved": 0, "fusion_lon": 0.0, "fusion_lat": 0.0, "lon": -77.02532366666667, "name": "20248bba5081f6733960ea92867ed321"}, {"bike_id": "8a3d48a25bb38381eaef1869090574dc", "type": "electric_scooter", "is_disabled": 0, "lat": 38.90855483333333, "rental_uris": {"ios": "https://dc.lft.to/lastmile_qr_scan", "android": "https://dc.lft.to/lastmile_qr_scan"}, "is_reserved": 0, "fusion_lon": 0.0, "fusion_lat": 0.0, "lon": -77.03010433333333, "name": "8a3d48a25bb38381eaef1869090574dc"}, {"bike_id": "b4c362f04ea966117405ccb61603643c", "type": "electric_scooter", "is_disabled": 0, "lat": 38.8973845, "rental_uris": {"ios": "https://dc.lft.to/lastmile_qr_scan", "android": "https://dc.lft.to/lastmile_qr_scan"}, "is_reserved": 0, "fusion_lon": 0.0, "fusion_lat": 0.0, "lon": -76.9472465, "name": "b4c362f04ea966117405ccb61603643c"}, {"bike_id": "e5b350d0da894c7d61baf500659f1f74", "type": "electric_scooter", "is_disabled": 0, "lat": 38.929484, "rental_uris": {"ios": "https://dc.lft.to/lastmile_qr_scan", "android": "https://dc.lft.to/lastmile_qr_scan"}, "is_reserved": 0, "fusion_lon": 0.0, "fusion_lat": 0.0, "lon": -77.0346965, "name": "e5b350d0da894c7d61baf500659f1f74"}, {"bike_id": "f0a2af9518b67b38e03a2103683ba766", "type": "electric_scooter", "is_disabled": 0, "lat": 38.91402933333333, "rental_uris": {"ios": "https://dc.lft.to/lastmile_qr_scan", "android": "https://dc.lft.to/lastmile_qr_scan"}, "is_reserved": 0, "fusion_lon": 0.0, "fusion_lat": 0.0, "lon": -77.0316895, "name": "f0a2af9518b67b38e03a2103683ba766"}, {"bike_id": "7e4799f9598427adce26281d43020e39", "type": "electric_scooter", "is_disabled": 0, "lat": 38.92379666666667, "rental_uris": {"ios": "https://dc.lft.to/lastmile_qr_scan", "android": "https://dc.lft.to/lastmile_qr_scan"}, "is_reserved": 0, "fusion_lon": 0.0, "fusion_lat": 0.0, "lon": -77.0281775, "name": "7e4799f9598427adce26281d43020e39"}, {"bike_id": "632b79d44ebb0ce23754ef7ec9871162", "type": "electric_bike", "is_disabled": 0, "lat": 39.034183, "rental_uris": {"ios": "https://dc.lft.to/lastmile_qr_scan", "android": "https://dc.lft.to/lastmile_qr_scan"}, "is_reserved": 0, "fusion_lon": 0.0, "fusion_lat": 0.0, "lon": -77.0416535, "name": "632b79d44ebb0ce23754ef7ec9871162"}, {"bike_id": "c499604ab16d9df4cbc2d75a0f267841", "type": "electric_scooter", "is_disabled": 0, "lat": 38.896064833333334, "rental_uris": {"ios": "https://dc.lft.to/lastmile_qr_scan", "android": "https://dc.lft.to/lastmile_qr_scan"}, "is_reserved": 0, "fusion_lon": 0.0, "fusion_lat": 0.0, "lon": -77.00930466666667, "name": "c499604ab16d9df4cbc2d75a0f267841"}, {"bike_id": "be5d62fb4cec240842d91dd9b9bcb24e", "type": "electric_scooter", "is_disabled": 0, "lat": 38.92150866666667, "rental_uris": {"ios": "https://dc.lft.to/lastmile_qr_scan", "android": "https://dc.lft.to/lastmile_qr_scan"}, "is_reserved": 0, "fusion_lon": 0.0, "fusion_lat": 0.0, "lon": -77.03868633333333, "name": "be5d62fb4cec240842d91dd9b9bcb24e"}, {"bike_id": "768545a81ebe93008b8fcbddac93dd15", "type": "electric_scooter", "is_disabled": 0, "lat": 38.88176933333333, "rental_uris": {"ios": "https://dc.lft.to/lastmile_qr_scan", "android": "https://dc.lft.to/lastmile_qr_scan"}, "is_reserved": 0, "fusion_lon": 0.0, "fusion_lat": 0.0, "lon": -77.028123, "name": "768545a81ebe93008b8fcbddac93dd15"}, {"bike_id": "ea070dc6173603dfe7718d72a7a3a583", "type": "electric_scooter", "is_disabled": 0, "lat": 38.90306116666667, "rental_uris": {"ios": "https://dc.lft.to/lastmile_qr_scan", "android": "https://dc.lft.to/lastmile_qr_scan"}, "is_reserved": 0, "fusion_lon": 0.0, "fusion_lat": 0.0, "lon": -77.05055266666666, "name": "ea070dc6173603dfe7718d72a7a3a583"}, {"bike_id": "19ded93b1169c3b2f306f3ebc253a09f", "type": "electric_scooter", "is_disabled": 0, "lat": 38.892252666666664, "rental_uris": {"ios": "https://dc.lft.to/lastmile_qr_scan", "android": "https://dc.lft.to/lastmile_qr_scan"}, "is_reserved": 0, "fusion_lon": 0.0, "fusion_lat": 0.0, "lon": -77.04503883333334, "name": "19ded93b1169c3b2f306f3ebc253a09f"}, {"bike_id": "b150c9336fa8120ac37c75659e5df105", "type": "electric_scooter", "is_disabled": 0, "lat": 38.9078635, "rental_uris": {"ios": "https://dc.lft.to/lastmile_qr_scan", "android": "https://dc.lft.to/lastmile_qr_scan"}, "is_reserved": 0, "fusion_lon": 0.0, "fusion_lat": 0.0, "lon": -77.04177166666666, "name": "b150c9336fa8120ac37c75659e5df105"}, {"bike_id": "09973bcaa7ff9986d8ee1e45fdc6501e", "type": "electric_scooter", "is_disabled": 0, "lat": 38.90041, "rental_uris": {"ios": "https://dc.lft.to/lastmile_qr_scan", "android": "https://dc.lft.to/lastmile_qr_scan"}, "is_reserved": 0, "fusion_lon": 0.0, "fusion_lat": 0.0, "lon": -77.00230183333333, "name": "09973bcaa7ff9986d8ee1e45fdc6501e"}, {"bike_id": "76cc887e2b2d395a0faf60901bef159e", "type": "electric_scooter", "is_disabled": 0, "lat": 38.9288595, "rental_uris": {"ios": "https://dc.lft.to/lastmile_qr_scan", "android": "https://dc.lft.to/lastmile_qr_scan"}, "is_reserved": 0, "fusion_lon": 0.0, "fusion_lat": 0.0, "lon": -77.03288866666666, "name": "76cc887e2b2d395a0faf60901bef159e"}, {"bike_id": "c34c3942b0e10bab06f98e398f74740f", "type": "electric_scooter", "is_disabled": 0, "lat": 38.9069135, "rental_uris": {"ios": "https://dc.lft.to/lastmile_qr_scan", "android": "https://dc.lft.to/lastmile_qr_scan"}, "is_reserved": 0, "fusion_lon": 0.0, "fusion_lat": 0.0, "lon": -77.04194516666666, "name": "c34c3942b0e10bab06f98e398f74740f"}, {"bike_id": "b6d06ba2ab021a13fba17c68121e1c66", "type": "electric_scooter", "is_disabled": 0, "lat": 38.92481183333334, "rental_uris": {"ios": "https://dc.lft.to/lastmile_qr_scan", "android": "https://dc.lft.to/lastmile_qr_scan"}, "is_reserved": 0, "fusion_lon": 0.0, "fusion_lat": 0.0, "lon": -77.0317855, "name": "b6d06ba2ab021a13fba17c68121e1c66"}, {"bike_id": "0e7714e0063d640ca892b9a6dcce4b3d", "type": "electric_scooter", "is_disabled": 0, "lat": 38.90062833333333, "rental_uris": {"ios": "https://dc.lft.to/lastmile_qr_scan", "android": "https://dc.lft.to/lastmile_qr_scan"}, "is_reserved": 0, "fusion_lon": 0.0, "fusion_lat": 0.0, "lon": -77.0172685, "name": "0e7714e0063d640ca892b9a6dcce4b3d"}, {"bike_id": "3565c6e69f6eba2d17b2955edc928d0c", "type": "electric_scooter", "is_disabled": 0, "lat": 38.898683166666665, "rental_uris": {"ios": "https://dc.lft.to/lastmile_qr_scan", "android": "https://dc.lft.to/lastmile_qr_scan"}, "is_reserved": 0, "fusion_lon": 0.0, "fusion_lat": 0.0, "lon": -77.041976, "name": "3565c6e69f6eba2d17b2955edc928d0c"}, {"bike_id": "18e37e229e2f838e9cfd0d53e7ea348a", "type": "electric_scooter", "is_disabled": 0, "lat": 38.916535833333334, "rental_uris": {"ios": "https://dc.lft.to/lastmile_qr_scan", "android": "https://dc.lft.to/lastmile_qr_scan"}, "is_reserved": 0, "fusion_lon": 0.0, "fusion_lat": 0.0, "lon": -76.9791055, "name": "18e37e229e2f838e9cfd0d53e7ea348a"}, {"bike_id": "a4228feff55838fe6be0eb3c8f6b2c26", "type": "electric_bike", "is_disabled": 0, "lat": 38.98768883333334, "rental_uris": {"ios": "https://dc.lft.to/lastmile_qr_scan", "android": "https://dc.lft.to/lastmile_qr_scan"}, "is_reserved": 0, "fusion_lon": 0.0, "fusion_lat": 0.0, "lon": -77.14057316666667, "name": "a4228feff55838fe6be0eb3c8f6b2c26"}, {"bike_id": "0a0e0ac999c89a4c99e637c07053a245", "type": "electric_scooter", "is_disabled": 0, "lat": 38.92327683333333, "rental_uris": {"ios": "https://dc.lft.to/lastmile_qr_scan", "android": "https://dc.lft.to/lastmile_qr_scan"}, "is_reserved": 0, "fusion_lon": 0.0, "fusion_lat": 0.0, "lon": -77.00886166666666, "name": "0a0e0ac999c89a4c99e637c07053a245"}, {"bike_id": "59d87782a4e4dee862ee59c7f91cc203", "type": "electric_scooter", "is_disabled": 0, "lat": 38.93361766666666, "rental_uris": {"ios": "https://dc.lft.to/lastmile_qr_scan", "android": "https://dc.lft.to/lastmile_qr_scan"}, "is_reserved": 0, "fusion_lon": 0.0, "fusion_lat": 0.0, "lon": -77.0265045, "name": "59d87782a4e4dee862ee59c7f91cc203"}, {"bike_id": "b2c44f3d49a7ead3ecb489ac56cbe651", "type": "electric_bike", "is_disabled": 0, "lat": 38.900052333333335, "rental_uris": {"ios": "https://dc.lft.to/lastmile_qr_scan", "android": "https://dc.lft.to/lastmile_qr_scan"}, "is_reserved": 0, "fusion_lon": 0.0, "fusion_lat": 0.0, "lon": -77.00619516666667, "name": "b2c44f3d49a7ead3ecb489ac56cbe651"}, {"bike_id": "b1d30d44f6d0819759cf686aba1a074e", "type": "electric_scooter", "is_disabled": 0, "lat": 38.92091466666667, "rental_uris": {"ios": "https://dc.lft.to/lastmile_qr_scan", "android": "https://dc.lft.to/lastmile_qr_scan"}, "is_reserved": 0, "fusion_lon": 0.0, "fusion_lat": 0.0, "lon": -77.025161, "name": "b1d30d44f6d0819759cf686aba1a074e"}, {"bike_id": "5f48aa7f521fce85b2ac98ac4d8f4eb6", "type": "electric_bike", "is_disabled": 0, "lat": 38.91696533333333, "rental_uris": {"ios": "https://dc.lft.to/lastmile_qr_scan", "android": "https://dc.lft.to/lastmile_qr_scan"}, "is_reserved": 0, "fusion_lon": 0.0, "fusion_lat": 0.0, "lon": -77.0400225, "name": "5f48aa7f521fce85b2ac98ac4d8f4eb6"}, {"bike_id": "a95c49f4babf86f511ac70b0d7775b00", "type": "electric_bike", "is_disabled": 0, "lat": 38.886737833333335, "rental_uris": {"ios": "https://dc.lft.to/lastmile_qr_scan", "android": "https://dc.lft.to/lastmile_qr_scan"}, "is_reserved": 0, "fusion_lon": 0.0, "fusion_lat": 0.0, "lon": -77.16242033333333, "name": "a95c49f4babf86f511ac70b0d7775b00"}, {"bike_id": "f0bdac74cf35ee9a9d4d669588b8f95c", "type": "electric_bike", "is_disabled": 0, "lat": 38.83606866666667, "rental_uris": {"ios": "https://dc.lft.to/lastmile_qr_scan", "android": "https://dc.lft.to/lastmile_qr_scan"}, "is_reserved": 0, "fusion_lon": 0.0, "fusion_lat": 0.0, "lon": -77.00382816666666, "name": "f0bdac74cf35ee9a9d4d669588b8f95c"}, {"bike_id": "330e45c8ab968546cb595038ce90d453", "type": "electric_scooter", "is_disabled": 0, "lat": 38.91693166666667, "rental_uris": {"ios": "https://dc.lft.to/lastmile_qr_scan", "android": "https://dc.lft.to/lastmile_qr_scan"}, "is_reserved": 0, "fusion_lon": 0.0, "fusion_lat": 0.0, "lon": -77.04107, "name": "330e45c8ab968546cb595038ce90d453"}, {"bike_id": "fd2203fe40dac49bf1779f7a329561fb", "type": "electric_scooter", "is_disabled": 0, "lat": 38.89839766666667, "rental_uris": {"ios": "https://dc.lft.to/lastmile_qr_scan", "android": "https://dc.lft.to/lastmile_qr_scan"}, "is_reserved": 0, "fusion_lon": 0.0, "fusion_lat": 0.0, "lon": -77.0226005, "name": "fd2203fe40dac49bf1779f7a329561fb"}, {"bike_id": "5478832c4afcb7df24212cd780e26db8", "type": "electric_scooter", "is_disabled": 0, "lat": 38.9223605, "rental_uris": {"ios": "https://dc.lft.to/lastmile_qr_scan", "android": "https://dc.lft.to/lastmile_qr_scan"}, "is_reserved": 0, "fusion_lon": 0.0, "fusion_lat": 0.0, "lon": -77.042468, "name": "5478832c4afcb7df24212cd780e26db8"}, {"bike_id": "1a19112b0780f7f880d9ab4cb9b0f5a0", "type": "electric_scooter", "is_disabled": 0, "lat": 38.90096316666666, "rental_uris": {"ios": "https://dc.lft.to/lastmile_qr_scan", "android": "https://dc.lft.to/lastmile_qr_scan"}, "is_reserved": 0, "fusion_lon": 0.0, "fusion_lat": 0.0, "lon": -77.03857766666667, "name": "1a19112b0780f7f880d9ab4cb9b0f5a0"}, {"bike_id": "d6a604fd1f3f748caf6b347a448c01bd", "type": "electric_scooter", "is_disabled": 0, "lat": 38.906702333333335, "rental_uris": {"ios": "https://dc.lft.to/lastmile_qr_scan", "android": "https://dc.lft.to/lastmile_qr_scan"}, "is_reserved": 0, "fusion_lon": 0.0, "fusion_lat": 0.0, "lon": -77.02719133333333, "name": "d6a604fd1f3f748caf6b347a448c01bd"}, {"bike_id": "f0407219730657f588642889bf803b84", "type": "electric_scooter", "is_disabled": 0, "lat": 38.911468666666664, "rental_uris": {"ios": "https://dc.lft.to/lastmile_qr_scan", "android": "https://dc.lft.to/lastmile_qr_scan"}, "is_reserved": 0, "fusion_lon": 0.0, "fusion_lat": 0.0, "lon": -77.0268675, "name": "f0407219730657f588642889bf803b84"}, {"bike_id": "93959fba6cbe917ee19d72e146c8d92b", "type": "electric_scooter", "is_disabled": 0, "lat": 38.92238433333333, "rental_uris": {"ios": "https://dc.lft.to/lastmile_qr_scan", "android": "https://dc.lft.to/lastmile_qr_scan"}, "is_reserved": 0, "fusion_lon": 0.0, "fusion_lat": 0.0, "lon": -77.02987133333333, "name": "93959fba6cbe917ee19d72e146c8d92b"}, {"bike_id": "8fba705e9782b128cea7d12f4f287d37", "type": "electric_scooter", "is_disabled": 0, "lat": 38.939539, "rental_uris": {"ios": "https://dc.lft.to/lastmile_qr_scan", "android": "https://dc.lft.to/lastmile_qr_scan"}, "is_reserved": 0, "fusion_lon": 0.0, "fusion_lat": 0.0, "lon": -77.07240283333333, "name": "8fba705e9782b128cea7d12f4f287d37"}, {"bike_id": "51fd83987f591e7c659c9de8f41735ec", "type": "electric_scooter", "is_disabled": 0, "lat": 38.91420083333333, "rental_uris": {"ios": "https://dc.lft.to/lastmile_qr_scan", "android": "https://dc.lft.to/lastmile_qr_scan"}, "is_reserved": 0, "fusion_lon": 0.0, "fusion_lat": 0.0, "lon": -77.0198505, "name": "51fd83987f591e7c659c9de8f41735ec"}, {"bike_id": "4c3f19a8b22489142f699e60d5f3e311", "type": "electric_scooter", "is_disabled": 0, "lat": 38.91345066666667, "rental_uris": {"ios": "https://dc.lft.to/lastmile_qr_scan", "android": "https://dc.lft.to/lastmile_qr_scan"}, "is_reserved": 0, "fusion_lon": 0.0, "fusion_lat": 0.0, "lon": -77.03189483333334, "name": "4c3f19a8b22489142f699e60d5f3e311"}, {"bike_id": "a6c0e22cb7dafa67c497c0d2e33e7857", "type": "electric_scooter", "is_disabled": 0, "lat": 38.863725, "rental_uris": {"ios": "https://dc.lft.to/lastmile_qr_scan", "android": "https://dc.lft.to/lastmile_qr_scan"}, "is_reserved": 0, "fusion_lon": 0.0, "fusion_lat": 0.0, "lon": -76.99058533333333, "name": "a6c0e22cb7dafa67c497c0d2e33e7857"}, {"bike_id": "745582cf938265c89cb3d534d57097ad", "type": "electric_scooter", "is_disabled": 0, "lat": 38.923395166666666, "rental_uris": {"ios": "https://dc.lft.to/lastmile_qr_scan", "android": "https://dc.lft.to/lastmile_qr_scan"}, "is_reserved": 0, "fusion_lon": 0.0, "fusion_lat": 0.0, "lon": -77.03505883333334, "name": "745582cf938265c89cb3d534d57097ad"}, {"bike_id": "f2d1e8e3ff0c6003f983628eb7e68565", "type": "electric_scooter", "is_disabled": 0, "lat": 38.91712283333333, "rental_uris": {"ios": "https://dc.lft.to/lastmile_qr_scan", "android": "https://dc.lft.to/lastmile_qr_scan"}, "is_reserved": 0, "fusion_lon": 0.0, "fusion_lat": 0.0, "lon": -77.026629, "name": "f2d1e8e3ff0c6003f983628eb7e68565"}, {"bike_id": "c0320ffc510b81187522df3958600301", "type": "electric_scooter", "is_disabled": 0, "lat": 38.9223145, "rental_uris": {"ios": "https://dc.lft.to/lastmile_qr_scan", "android": "https://dc.lft.to/lastmile_qr_scan"}, "is_reserved": 0, "fusion_lon": 0.0, "fusion_lat": 0.0, "lon": -77.02279583333333, "name": "c0320ffc510b81187522df3958600301"}, {"bike_id": "494edec118399394cc042a2d22a4797e", "type": "electric_scooter", "is_disabled": 0, "lat": 38.90392116666666, "rental_uris": {"ios": "https://dc.lft.to/lastmile_qr_scan", "android": "https://dc.lft.to/lastmile_qr_scan"}, "is_reserved": 0, "fusion_lon": 0.0, "fusion_lat": 0.0, "lon": -77.0184265, "name": "494edec118399394cc042a2d22a4797e"}, {"bike_id": "6470ebee900811c772fdd36d50df8fa0", "type": "electric_scooter", "is_disabled": 0, "lat": 38.90864066666666, "rental_uris": {"ios": "https://dc.lft.to/lastmile_qr_scan", "android": "https://dc.lft.to/lastmile_qr_scan"}, "is_reserved": 0, "fusion_lon": 0.0, "fusion_lat": 0.0, "lon": -77.03226916666667, "name": "6470ebee900811c772fdd36d50df8fa0"}, {"bike_id": "42a9e346ec3501aaca5403e4c59a953d", "type": "electric_scooter", "is_disabled": 0, "lat": 38.886564, "rental_uris": {"ios": "https://dc.lft.to/lastmile_qr_scan", "android": "https://dc.lft.to/lastmile_qr_scan"}, "is_reserved": 0, "fusion_lon": 0.0, "fusion_lat": 0.0, "lon": -77.028241, "name": "42a9e346ec3501aaca5403e4c59a953d"}, {"bike_id": "da177dbd0fea64801a49df2416e5141f", "type": "electric_scooter", "is_disabled": 0, "lat": 38.916397, "rental_uris": {"ios": "https://dc.lft.to/lastmile_qr_scan", "android": "https://dc.lft.to/lastmile_qr_scan"}, "is_reserved": 0, "fusion_lon": 0.0, "fusion_lat": 0.0, "lon": -77.03204733333334, "name": "da177dbd0fea64801a49df2416e5141f"}, {"bike_id": "447ac77ef3a7391d0dd6b26ec7bde34d", "type": "electric_scooter", "is_disabled": 0, "lat": 38.90313033333334, "rental_uris": {"ios": "https://dc.lft.to/lastmile_qr_scan", "android": "https://dc.lft.to/lastmile_qr_scan"}, "is_reserved": 0, "fusion_lon": 0.0, "fusion_lat": 0.0, "lon": -76.991298, "name": "447ac77ef3a7391d0dd6b26ec7bde34d"}, {"bike_id": "faebed6fd0a1b299099f3028566548ff", "type": "electric_bike", "is_disabled": 0, "lat": 38.809726, "rental_uris": {"ios": "https://dc.lft.to/lastmile_qr_scan", "android": "https://dc.lft.to/lastmile_qr_scan"}, "is_reserved": 0, "fusion_lon": 0.0, "fusion_lat": 0.0, "lon": -77.08630216666667, "name": "faebed6fd0a1b299099f3028566548ff"}, {"bike_id": "277cc4f247ac201fa41a56184dde1a7d", "type": "electric_scooter", "is_disabled": 0, "lat": 38.917657166666665, "rental_uris": {"ios": "https://dc.lft.to/lastmile_qr_scan", "android": "https://dc.lft.to/lastmile_qr_scan"}, "is_reserved": 0, "fusion_lon": 0.0, "fusion_lat": 0.0, "lon": -77.04768816666666, "name": "277cc4f247ac201fa41a56184dde1a7d"}, {"bike_id": "137eeed8fe95aef737f15c92b93bc88c", "type": "electric_scooter", "is_disabled": 0, "lat": 38.91173116666667, "rental_uris": {"ios": "https://dc.lft.to/lastmile_qr_scan", "android": "https://dc.lft.to/lastmile_qr_scan"}, "is_reserved": 0, "fusion_lon": 0.0, "fusion_lat": 0.0, "lon": -77.0319025, "name": "137eeed8fe95aef737f15c92b93bc88c"}, {"bike_id": "706a77709de9a453ea45c1cb83655991", "type": "electric_scooter", "is_disabled": 0, "lat": 38.9286465, "rental_uris": {"ios": "https://dc.lft.to/lastmile_qr_scan", "android": "https://dc.lft.to/lastmile_qr_scan"}, "is_reserved": 0, "fusion_lon": 0.0, "fusion_lat": 0.0, "lon": -77.0371205, "name": "706a77709de9a453ea45c1cb83655991"}, {"bike_id": "689e6cecfaaec8a2368f39581df2d462", "type": "electric_scooter", "is_disabled": 0, "lat": 38.955750333333334, "rental_uris": {"ios": "https://dc.lft.to/lastmile_qr_scan", "android": "https://dc.lft.to/lastmile_qr_scan"}, "is_reserved": 0, "fusion_lon": 0.0, "fusion_lat": 0.0, "lon": -77.08037316666666, "name": "689e6cecfaaec8a2368f39581df2d462"}, {"bike_id": "646855143fd1fa6a075e7e01c71260dd", "type": "electric_bike", "is_disabled": 0, "lat": 38.94959516666667, "rental_uris": {"ios": "https://dc.lft.to/lastmile_qr_scan", "android": "https://dc.lft.to/lastmile_qr_scan"}, "is_reserved": 0, "fusion_lon": 0.0, "fusion_lat": 0.0, "lon": -77.066323, "name": "646855143fd1fa6a075e7e01c71260dd"}, {"bike_id": "7761aaa86a3230249a493b781bd9679b", "type": "electric_scooter", "is_disabled": 0, "lat": 38.90963216666667, "rental_uris": {"ios": "https://dc.lft.to/lastmile_qr_scan", "android": "https://dc.lft.to/lastmile_qr_scan"}, "is_reserved": 0, "fusion_lon": 0.0, "fusion_lat": 0.0, "lon": -77.0221575, "name": "7761aaa86a3230249a493b781bd9679b"}, {"bike_id": "0b38c0053163a73fb4fc233edf4125a8", "type": "electric_scooter", "is_disabled": 0, "lat": 38.92161816666667, "rental_uris": {"ios": "https://dc.lft.to/lastmile_qr_scan", "android": "https://dc.lft.to/lastmile_qr_scan"}, "is_reserved": 0, "fusion_lon": 0.0, "fusion_lat": 0.0, "lon": -77.038467, "name": "0b38c0053163a73fb4fc233edf4125a8"}, {"bike_id": "25340171dce8c6b115ef711c322a80ad", "type": "electric_scooter", "is_disabled": 0, "lat": 38.896932666666665, "rental_uris": {"ios": "https://dc.lft.to/lastmile_qr_scan", "android": "https://dc.lft.to/lastmile_qr_scan"}, "is_reserved": 0, "fusion_lon": 0.0, "fusion_lat": 0.0, "lon": -76.9996515, "name": "25340171dce8c6b115ef711c322a80ad"}, {"bike_id": "b7b3975121da28f05f6c93a2de178967", "type": "electric_scooter", "is_disabled": 0, "lat": 38.88487466666667, "rental_uris": {"ios": "https://dc.lft.to/lastmile_qr_scan", "android": "https://dc.lft.to/lastmile_qr_scan"}, "is_reserved": 0, "fusion_lon": 0.0, "fusion_lat": 0.0, "lon": -77.03475266666666, "name": "b7b3975121da28f05f6c93a2de178967"}, {"bike_id": "d9306ea34d1c093d457648c233e564f4", "type": "electric_scooter", "is_disabled": 0, "lat": 38.900325, "rental_uris": {"ios": "https://dc.lft.to/lastmile_qr_scan", "android": "https://dc.lft.to/lastmile_qr_scan"}, "is_reserved": 0, "fusion_lon": 0.0, "fusion_lat": 0.0, "lon": -76.9915855, "name": "d9306ea34d1c093d457648c233e564f4"}, {"bike_id": "d1bc2765d5f8773dd2f48e51b537c112", "type": "electric_scooter", "is_disabled": 0, "lat": 38.9282585, "rental_uris": {"ios": "https://dc.lft.to/lastmile_qr_scan", "android": "https://dc.lft.to/lastmile_qr_scan"}, "is_reserved": 0, "fusion_lon": 0.0, "fusion_lat": 0.0, "lon": -77.02254433333333, "name": "d1bc2765d5f8773dd2f48e51b537c112"}, {"bike_id": "efb8dff4972bd20d250840eb364d8a92", "type": "electric_bike", "is_disabled": 0, "lat": 38.9396995, "rental_uris": {"ios": "https://dc.lft.to/lastmile_qr_scan", "android": "https://dc.lft.to/lastmile_qr_scan"}, "is_reserved": 0, "fusion_lon": 0.0, "fusion_lat": 0.0, "lon": -77.0338875, "name": "efb8dff4972bd20d250840eb364d8a92"}, {"bike_id": "e67e983d6a65049cee0f32088178409c", "type": "electric_scooter", "is_disabled": 0, "lat": 38.89222183333333, "rental_uris": {"ios": "https://dc.lft.to/lastmile_qr_scan", "android": "https://dc.lft.to/lastmile_qr_scan"}, "is_reserved": 0, "fusion_lon": 0.0, "fusion_lat": 0.0, "lon": -77.04803016666666, "name": "e67e983d6a65049cee0f32088178409c"}, {"bike_id": "300c0ed6f416fa736f333b8f408bbce8", "type": "electric_bike", "is_disabled": 0, "lat": 38.836049833333334, "rental_uris": {"ios": "https://dc.lft.to/lastmile_qr_scan", "android": "https://dc.lft.to/lastmile_qr_scan"}, "is_reserved": 0, "fusion_lon": 0.0, "fusion_lat": 0.0, "lon": -77.003828, "name": "300c0ed6f416fa736f333b8f408bbce8"}, {"bike_id": "b1407689a688b92a5f2358f5f5bcb762", "type": "electric_scooter", "is_disabled": 0, "lat": 38.915327166666664, "rental_uris": {"ios": "https://dc.lft.to/lastmile_qr_scan", "android": "https://dc.lft.to/lastmile_qr_scan"}, "is_reserved": 0, "fusion_lon": 0.0, "fusion_lat": 0.0, "lon": -77.0184585, "name": "b1407689a688b92a5f2358f5f5bcb762"}, {"bike_id": "6353b2dab2a9c818aa91a5e2d7c71cb7", "type": "electric_scooter", "is_disabled": 0, "lat": 38.922453, "rental_uris": {"ios": "https://dc.lft.to/lastmile_qr_scan", "android": "https://dc.lft.to/lastmile_qr_scan"}, "is_reserved": 0, "fusion_lon": 0.0, "fusion_lat": 0.0, "lon": -77.04275433333333, "name": "6353b2dab2a9c818aa91a5e2d7c71cb7"}, {"bike_id": "1405713af378408e7f3ff3fa25407c4e", "type": "electric_scooter", "is_disabled": 0, "lat": 38.9151825, "rental_uris": {"ios": "https://dc.lft.to/lastmile_qr_scan", "android": "https://dc.lft.to/lastmile_qr_scan"}, "is_reserved": 0, "fusion_lon": 0.0, "fusion_lat": 0.0, "lon": -77.02301933333334, "name": "1405713af378408e7f3ff3fa25407c4e"}, {"bike_id": "74b8f2fd4496480168a64eb1949857ba", "type": "electric_scooter", "is_disabled": 0, "lat": 38.90638416666667, "rental_uris": {"ios": "https://dc.lft.to/lastmile_qr_scan", "android": "https://dc.lft.to/lastmile_qr_scan"}, "is_reserved": 0, "fusion_lon": 0.0, "fusion_lat": 0.0, "lon": -77.05154983333334, "name": "74b8f2fd4496480168a64eb1949857ba"}, {"bike_id": "095b0ee9e5e5220082cf9baeb3b1b70b", "type": "electric_scooter", "is_disabled": 0, "lat": 38.91481616666667, "rental_uris": {"ios": "https://dc.lft.to/lastmile_qr_scan", "android": "https://dc.lft.to/lastmile_qr_scan"}, "is_reserved": 0, "fusion_lon": 0.0, "fusion_lat": 0.0, "lon": -77.02578366666667, "name": "095b0ee9e5e5220082cf9baeb3b1b70b"}, {"bike_id": "cab075ba4927c056c58592249c06be58", "type": "electric_scooter", "is_disabled": 0, "lat": 38.90191633333333, "rental_uris": {"ios": "https://dc.lft.to/lastmile_qr_scan", "android": "https://dc.lft.to/lastmile_qr_scan"}, "is_reserved": 0, "fusion_lon": 0.0, "fusion_lat": 0.0, "lon": -77.0131065, "name": "cab075ba4927c056c58592249c06be58"}, {"bike_id": "b935a1276b43303326d60806a3d67c31", "type": "electric_scooter", "is_disabled": 0, "lat": 38.89728933333333, "rental_uris": {"ios": "https://dc.lft.to/lastmile_qr_scan", "android": "https://dc.lft.to/lastmile_qr_scan"}, "is_reserved": 0, "fusion_lon": 0.0, "fusion_lat": 0.0, "lon": -77.00371016666666, "name": "b935a1276b43303326d60806a3d67c31"}, {"bike_id": "f3439a5ced8698105e8848adbae628b8", "type": "electric_scooter", "is_disabled": 0, "lat": 38.91268133333333, "rental_uris": {"ios": "https://dc.lft.to/lastmile_qr_scan", "android": "https://dc.lft.to/lastmile_qr_scan"}, "is_reserved": 0, "fusion_lon": 0.0, "fusion_lat": 0.0, "lon": -77.02955883333334, "name": "f3439a5ced8698105e8848adbae628b8"}, {"bike_id": "65c99f731bfd04e0d809f0ae789f821b", "type": "electric_scooter", "is_disabled": 0, "lat": 38.898254666666666, "rental_uris": {"ios": "https://dc.lft.to/lastmile_qr_scan", "android": "https://dc.lft.to/lastmile_qr_scan"}, "is_reserved": 0, "fusion_lon": 0.0, "fusion_lat": 0.0, "lon": -77.0175295, "name": "65c99f731bfd04e0d809f0ae789f821b"}, {"bike_id": "07a43db73bd070ef2c9d28c00a920dce", "type": "electric_scooter", "is_disabled": 0, "lat": 38.939173, "rental_uris": {"ios": "https://dc.lft.to/lastmile_qr_scan", "android": "https://dc.lft.to/lastmile_qr_scan"}, "is_reserved": 0, "fusion_lon": 0.0, "fusion_lat": 0.0, "lon": -77.0604995, "name": "07a43db73bd070ef2c9d28c00a920dce"}, {"bike_id": "b2e5f92574b43aff9bb80f51ee6f2b50", "type": "electric_bike", "is_disabled": 0, "lat": 39.037008, "rental_uris": {"ios": "https://dc.lft.to/lastmile_qr_scan", "android": "https://dc.lft.to/lastmile_qr_scan"}, "is_reserved": 0, "fusion_lon": 0.0, "fusion_lat": 0.0, "lon": -77.0285465, "name": "b2e5f92574b43aff9bb80f51ee6f2b50"}, {"bike_id": "f113de78afa23bb571b01e2d7f39c675", "type": "electric_scooter", "is_disabled": 0, "lat": 38.875605166666666, "rental_uris": {"ios": "https://dc.lft.to/lastmile_qr_scan", "android": "https://dc.lft.to/lastmile_qr_scan"}, "is_reserved": 0, "fusion_lon": 0.0, "fusion_lat": 0.0, "lon": -76.95867966666667, "name": "f113de78afa23bb571b01e2d7f39c675"}, {"bike_id": "90f89a3109193d1399b5a52bf00224d6", "type": "electric_scooter", "is_disabled": 0, "lat": 38.91571016666666, "rental_uris": {"ios": "https://dc.lft.to/lastmile_qr_scan", "android": "https://dc.lft.to/lastmile_qr_scan"}, "is_reserved": 0, "fusion_lon": 0.0, "fusion_lat": 0.0, "lon": -77.01958816666667, "name": "90f89a3109193d1399b5a52bf00224d6"}, {"bike_id": "443c50706beef71237c9a61e1c145e8c", "type": "electric_bike", "is_disabled": 0, "lat": 38.950942166666664, "rental_uris": {"ios": "https://dc.lft.to/lastmile_qr_scan", "android": "https://dc.lft.to/lastmile_qr_scan"}, "is_reserved": 0, "fusion_lon": 0.0, "fusion_lat": 0.0, "lon": -77.08088583333334, "name": "443c50706beef71237c9a61e1c145e8c"}, {"bike_id": "1a77ebd7e5a95be256b676b22b402c56", "type": "electric_scooter", "is_disabled": 0, "lat": 38.917067833333334, "rental_uris": {"ios": "https://dc.lft.to/lastmile_qr_scan", "android": "https://dc.lft.to/lastmile_qr_scan"}, "is_reserved": 0, "fusion_lon": 0.0, "fusion_lat": 0.0, "lon": -77.03470766666666, "name": "1a77ebd7e5a95be256b676b22b402c56"}, {"bike_id": "666e17e7e8e5d2fc3b530d6ecaf6eee5", "type": "electric_scooter", "is_disabled": 0, "lat": 38.927455, "rental_uris": {"ios": "https://dc.lft.to/lastmile_qr_scan", "android": "https://dc.lft.to/lastmile_qr_scan"}, "is_reserved": 0, "fusion_lon": 0.0, "fusion_lat": 0.0, "lon": -77.02536466666666, "name": "666e17e7e8e5d2fc3b530d6ecaf6eee5"}, {"bike_id": "51c3e2aac5978a58578bddd343fd2acf", "type": "electric_scooter", "is_disabled": 0, "lat": 38.91385266666666, "rental_uris": {"ios": "https://dc.lft.to/lastmile_qr_scan", "android": "https://dc.lft.to/lastmile_qr_scan"}, "is_reserved": 0, "fusion_lon": 0.0, "fusion_lat": 0.0, "lon": -77.0170565, "name": "51c3e2aac5978a58578bddd343fd2acf"}, {"bike_id": "4cf25e4347932a364cc1349d67f831d2", "type": "electric_scooter", "is_disabled": 0, "lat": 38.907676, "rental_uris": {"ios": "https://dc.lft.to/lastmile_qr_scan", "android": "https://dc.lft.to/lastmile_qr_scan"}, "is_reserved": 0, "fusion_lon": 0.0, "fusion_lat": 0.0, "lon": -77.04343666666666, "name": "4cf25e4347932a364cc1349d67f831d2"}, {"bike_id": "362e87c15b53da38ac213c7479f3f4c2", "type": "electric_scooter", "is_disabled": 0, "lat": 38.934620333333335, "rental_uris": {"ios": "https://dc.lft.to/lastmile_qr_scan", "android": "https://dc.lft.to/lastmile_qr_scan"}, "is_reserved": 0, "fusion_lon": 0.0, "fusion_lat": 0.0, "lon": -77.02772983333334, "name": "362e87c15b53da38ac213c7479f3f4c2"}, {"bike_id": "ee612a8d0c592a5a485acfbaf0b99146", "type": "electric_scooter", "is_disabled": 0, "lat": 38.909382666666666, "rental_uris": {"ios": "https://dc.lft.to/lastmile_qr_scan", "android": "https://dc.lft.to/lastmile_qr_scan"}, "is_reserved": 0, "fusion_lon": 0.0, "fusion_lat": 0.0, "lon": -77.03198816666666, "name": "ee612a8d0c592a5a485acfbaf0b99146"}, {"bike_id": "e1e2ad31e503b083472d04290b34cd20", "type": "electric_scooter", "is_disabled": 0, "lat": 38.95252716666667, "rental_uris": {"ios": "https://dc.lft.to/lastmile_qr_scan", "android": "https://dc.lft.to/lastmile_qr_scan"}, "is_reserved": 0, "fusion_lon": 0.0, "fusion_lat": 0.0, "lon": -77.019654, "name": "e1e2ad31e503b083472d04290b34cd20"}, {"bike_id": "8d973cc54923ccd77d4fbbccb344c86c", "type": "electric_bike", "is_disabled": 0, "lat": 38.9845915, "rental_uris": {"ios": "https://dc.lft.to/lastmile_qr_scan", "android": "https://dc.lft.to/lastmile_qr_scan"}, "is_reserved": 0, "fusion_lon": 0.0, "fusion_lat": 0.0, "lon": -76.97054583333333, "name": "8d973cc54923ccd77d4fbbccb344c86c"}, {"bike_id": "a130c6c5dd1de527dc90af5004465a85", "type": "electric_scooter", "is_disabled": 0, "lat": 38.917044833333335, "rental_uris": {"ios": "https://dc.lft.to/lastmile_qr_scan", "android": "https://dc.lft.to/lastmile_qr_scan"}, "is_reserved": 0, "fusion_lon": 0.0, "fusion_lat": 0.0, "lon": -77.032451, "name": "a130c6c5dd1de527dc90af5004465a85"}, {"bike_id": "fe2d4846c73820155a9046bb1a3c1099", "type": "electric_scooter", "is_disabled": 0, "lat": 38.866468833333336, "rental_uris": {"ios": "https://dc.lft.to/lastmile_qr_scan", "android": "https://dc.lft.to/lastmile_qr_scan"}, "is_reserved": 0, "fusion_lon": 0.0, "fusion_lat": 0.0, "lon": -76.9882175, "name": "fe2d4846c73820155a9046bb1a3c1099"}, {"bike_id": "190bb040741ade3174ddcc54d8b244ad", "type": "electric_scooter", "is_disabled": 0, "lat": 38.86683283333333, "rental_uris": {"ios": "https://dc.lft.to/lastmile_qr_scan", "android": "https://dc.lft.to/lastmile_qr_scan"}, "is_reserved": 0, "fusion_lon": 0.0, "fusion_lat": 0.0, "lon": -76.9857805, "name": "190bb040741ade3174ddcc54d8b244ad"}, {"bike_id": "aa58fcd2b5d707d07f377eb84b8ff500", "type": "electric_scooter", "is_disabled": 0, "lat": 38.897353, "rental_uris": {"ios": "https://dc.lft.to/lastmile_qr_scan", "android": "https://dc.lft.to/lastmile_qr_scan"}, "is_reserved": 0, "fusion_lon": 0.0, "fusion_lat": 0.0, "lon": -77.046075, "name": "aa58fcd2b5d707d07f377eb84b8ff500"}, {"bike_id": "fb4ac395c101a594f082d58dc0c75b43", "type": "electric_scooter", "is_disabled": 0, "lat": 38.91705316666667, "rental_uris": {"ios": "https://dc.lft.to/lastmile_qr_scan", "android": "https://dc.lft.to/lastmile_qr_scan"}, "is_reserved": 0, "fusion_lon": 0.0, "fusion_lat": 0.0, "lon": -77.09577816666666, "name": "fb4ac395c101a594f082d58dc0c75b43"}, {"bike_id": "5d4c550814733d91a28e42456111984e", "type": "electric_scooter", "is_disabled": 0, "lat": 38.92768433333333, "rental_uris": {"ios": "https://dc.lft.to/lastmile_qr_scan", "android": "https://dc.lft.to/lastmile_qr_scan"}, "is_reserved": 0, "fusion_lon": 0.0, "fusion_lat": 0.0, "lon": -76.98760933333334, "name": "5d4c550814733d91a28e42456111984e"}, {"bike_id": "c6fd6bc0e5a0ae5d2084d4b1abd34b0d", "type": "electric_scooter", "is_disabled": 0, "lat": 38.904141333333335, "rental_uris": {"ios": "https://dc.lft.to/lastmile_qr_scan", "android": "https://dc.lft.to/lastmile_qr_scan"}, "is_reserved": 0, "fusion_lon": 0.0, "fusion_lat": 0.0, "lon": -77.049959, "name": "c6fd6bc0e5a0ae5d2084d4b1abd34b0d"}, {"bike_id": "2f00378225204f7539cf495bde678c41", "type": "electric_scooter", "is_disabled": 0, "lat": 38.902269, "rental_uris": {"ios": "https://dc.lft.to/lastmile_qr_scan", "android": "https://dc.lft.to/lastmile_qr_scan"}, "is_reserved": 0, "fusion_lon": 0.0, "fusion_lat": 0.0, "lon": -77.06079633333333, "name": "2f00378225204f7539cf495bde678c41"}, {"bike_id": "897d23f0e457afcf2d642d181d40331b", "type": "electric_scooter", "is_disabled": 0, "lat": 38.9182395, "rental_uris": {"ios": "https://dc.lft.to/lastmile_qr_scan", "android": "https://dc.lft.to/lastmile_qr_scan"}, "is_reserved": 0, "fusion_lon": 0.0, "fusion_lat": 0.0, "lon": -77.024183, "name": "897d23f0e457afcf2d642d181d40331b"}, {"bike_id": "3912c0dc6088a609373969a72bc3420b", "type": "electric_scooter", "is_disabled": 0, "lat": 38.9077905, "rental_uris": {"ios": "https://dc.lft.to/lastmile_qr_scan", "android": "https://dc.lft.to/lastmile_qr_scan"}, "is_reserved": 0, "fusion_lon": 0.0, "fusion_lat": 0.0, "lon": -77.072495, "name": "3912c0dc6088a609373969a72bc3420b"}, {"bike_id": "2e5fa9ed6ce45d777567ff9915c5ac10", "type": "electric_scooter", "is_disabled": 0, "lat": 38.865045333333335, "rental_uris": {"ios": "https://dc.lft.to/lastmile_qr_scan", "android": "https://dc.lft.to/lastmile_qr_scan"}, "is_reserved": 0, "fusion_lon": 0.0, "fusion_lat": 0.0, "lon": -76.99003866666666, "name": "2e5fa9ed6ce45d777567ff9915c5ac10"}, {"bike_id": "33b36f140f5b466f61fc8e2e7d54b08f", "type": "electric_scooter", "is_disabled": 0, "lat": 38.899933, "rental_uris": {"ios": "https://dc.lft.to/lastmile_qr_scan", "android": "https://dc.lft.to/lastmile_qr_scan"}, "is_reserved": 0, "fusion_lon": 0.0, "fusion_lat": 0.0, "lon": -77.02325716666667, "name": "33b36f140f5b466f61fc8e2e7d54b08f"}, {"bike_id": "079d1f05d0645efb3f41352de971be6c", "type": "electric_scooter", "is_disabled": 0, "lat": 38.86684133333333, "rental_uris": {"ios": "https://dc.lft.to/lastmile_qr_scan", "android": "https://dc.lft.to/lastmile_qr_scan"}, "is_reserved": 0, "fusion_lon": 0.0, "fusion_lat": 0.0, "lon": -76.98578316666666, "name": "079d1f05d0645efb3f41352de971be6c"}, {"bike_id": "97ec430b265b5b1d406507bbf3581ac8", "type": "electric_scooter", "is_disabled": 0, "lat": 38.957341166666666, "rental_uris": {"ios": "https://dc.lft.to/lastmile_qr_scan", "android": "https://dc.lft.to/lastmile_qr_scan"}, "is_reserved": 0, "fusion_lon": 0.0, "fusion_lat": 0.0, "lon": -77.024004, "name": "97ec430b265b5b1d406507bbf3581ac8"}, {"bike_id": "6ae16ed885dd23b966feb1bb9eaa496b", "type": "electric_scooter", "is_disabled": 0, "lat": 38.92319833333333, "rental_uris": {"ios": "https://dc.lft.to/lastmile_qr_scan", "android": "https://dc.lft.to/lastmile_qr_scan"}, "is_reserved": 0, "fusion_lon": 0.0, "fusion_lat": 0.0, "lon": -77.0213585, "name": "6ae16ed885dd23b966feb1bb9eaa496b"}, {"bike_id": "66b5f45220d855ac8aa1e71f664d849f", "type": "electric_scooter", "is_disabled": 0, "lat": 38.89830216666667, "rental_uris": {"ios": "https://dc.lft.to/lastmile_qr_scan", "android": "https://dc.lft.to/lastmile_qr_scan"}, "is_reserved": 0, "fusion_lon": 0.0, "fusion_lat": 0.0, "lon": -76.9195635, "name": "66b5f45220d855ac8aa1e71f664d849f"}, {"bike_id": "4d4686773ef71329d22caea2bca4eaef", "type": "electric_scooter", "is_disabled": 0, "lat": 38.9428735, "rental_uris": {"ios": "https://dc.lft.to/lastmile_qr_scan", "android": "https://dc.lft.to/lastmile_qr_scan"}, "is_reserved": 0, "fusion_lon": 0.0, "fusion_lat": 0.0, "lon": -77.0362085, "name": "4d4686773ef71329d22caea2bca4eaef"}, {"bike_id": "57615286f5aa084755857ff64581637a", "type": "electric_scooter", "is_disabled": 0, "lat": 38.923170666666664, "rental_uris": {"ios": "https://dc.lft.to/lastmile_qr_scan", "android": "https://dc.lft.to/lastmile_qr_scan"}, "is_reserved": 0, "fusion_lon": 0.0, "fusion_lat": 0.0, "lon": -77.0401235, "name": "57615286f5aa084755857ff64581637a"}, {"bike_id": "d2d4efe8aedda9f029eab3de5d7ea73e", "type": "electric_scooter", "is_disabled": 0, "lat": 38.883932, "rental_uris": {"ios": "https://dc.lft.to/lastmile_qr_scan", "android": "https://dc.lft.to/lastmile_qr_scan"}, "is_reserved": 0, "fusion_lon": 0.0, "fusion_lat": 0.0, "lon": -77.01760616666667, "name": "d2d4efe8aedda9f029eab3de5d7ea73e"}, {"bike_id": "454f4f145af42ac4d512e49fcd55f324", "type": "electric_scooter", "is_disabled": 0, "lat": 38.88733216666667, "rental_uris": {"ios": "https://dc.lft.to/lastmile_qr_scan", "android": "https://dc.lft.to/lastmile_qr_scan"}, "is_reserved": 0, "fusion_lon": 0.0, "fusion_lat": 0.0, "lon": -77.03202733333333, "name": "454f4f145af42ac4d512e49fcd55f324"}, {"bike_id": "1b34476d4fee8516fef9d55864db8108", "type": "electric_scooter", "is_disabled": 0, "lat": 38.912609833333335, "rental_uris": {"ios": "https://dc.lft.to/lastmile_qr_scan", "android": "https://dc.lft.to/lastmile_qr_scan"}, "is_reserved": 0, "fusion_lon": 0.0, "fusion_lat": 0.0, "lon": -77.03181533333333, "name": "1b34476d4fee8516fef9d55864db8108"}, {"bike_id": "2faf92f4faca9fcea346fbd03970977f", "type": "electric_scooter", "is_disabled": 0, "lat": 38.86971833333333, "rental_uris": {"ios": "https://dc.lft.to/lastmile_qr_scan", "android": "https://dc.lft.to/lastmile_qr_scan"}, "is_reserved": 0, "fusion_lon": 0.0, "fusion_lat": 0.0, "lon": -76.98176583333333, "name": "2faf92f4faca9fcea346fbd03970977f"}, {"bike_id": "e941baf62c3fd22f68dd2b78eb55dbc2", "type": "electric_scooter", "is_disabled": 0, "lat": 38.934001, "rental_uris": {"ios": "https://dc.lft.to/lastmile_qr_scan", "android": "https://dc.lft.to/lastmile_qr_scan"}, "is_reserved": 0, "fusion_lon": 0.0, "fusion_lat": 0.0, "lon": -77.022129, "name": "e941baf62c3fd22f68dd2b78eb55dbc2"}, {"bike_id": "01ec7a68824deff4e3c12822dfc0a509", "type": "electric_scooter", "is_disabled": 0, "lat": 38.866580666666664, "rental_uris": {"ios": "https://dc.lft.to/lastmile_qr_scan", "android": "https://dc.lft.to/lastmile_qr_scan"}, "is_reserved": 0, "fusion_lon": 0.0, "fusion_lat": 0.0, "lon": -76.988911, "name": "01ec7a68824deff4e3c12822dfc0a509"}, {"bike_id": "28a7deb52194537c44ecd12d90c25d88", "type": "electric_scooter", "is_disabled": 0, "lat": 38.918628, "rental_uris": {"ios": "https://dc.lft.to/lastmile_qr_scan", "android": "https://dc.lft.to/lastmile_qr_scan"}, "is_reserved": 0, "fusion_lon": 0.0, "fusion_lat": 0.0, "lon": -77.02516783333333, "name": "28a7deb52194537c44ecd12d90c25d88"}, {"bike_id": "82a8f0afbb4ad2bbc58a7790a3d84249", "type": "electric_bike", "is_disabled": 0, "lat": 38.99663366666667, "rental_uris": {"ios": "https://dc.lft.to/lastmile_qr_scan", "android": "https://dc.lft.to/lastmile_qr_scan"}, "is_reserved": 0, "fusion_lon": 0.0, "fusion_lat": 0.0, "lon": -77.03977666666667, "name": "82a8f0afbb4ad2bbc58a7790a3d84249"}, {"bike_id": "2e6101ce130fd5a4e339e8851d668c75", "type": "electric_scooter", "is_disabled": 0, "lat": 38.9353205, "rental_uris": {"ios": "https://dc.lft.to/lastmile_qr_scan", "android": "https://dc.lft.to/lastmile_qr_scan"}, "is_reserved": 0, "fusion_lon": 0.0, "fusion_lat": 0.0, "lon": -77.03384166666666, "name": "2e6101ce130fd5a4e339e8851d668c75"}, {"bike_id": "6d6dd3b3f4172edb5f6e01fd29e10080", "type": "electric_scooter", "is_disabled": 0, "lat": 38.909408, "rental_uris": {"ios": "https://dc.lft.to/lastmile_qr_scan", "android": "https://dc.lft.to/lastmile_qr_scan"}, "is_reserved": 0, "fusion_lon": 0.0, "fusion_lat": 0.0, "lon": -77.04250966666666, "name": "6d6dd3b3f4172edb5f6e01fd29e10080"}, {"bike_id": "19bfd02324c0c6891569270ad74db6f0", "type": "electric_scooter", "is_disabled": 0, "lat": 38.924427333333334, "rental_uris": {"ios": "https://dc.lft.to/lastmile_qr_scan", "android": "https://dc.lft.to/lastmile_qr_scan"}, "is_reserved": 0, "fusion_lon": 0.0, "fusion_lat": 0.0, "lon": -77.04033466666667, "name": "19bfd02324c0c6891569270ad74db6f0"}, {"bike_id": "a9197b3581bd1d4db755b8ce12507923", "type": "electric_bike", "is_disabled": 0, "lat": 38.91012166666667, "rental_uris": {"ios": "https://dc.lft.to/lastmile_qr_scan", "android": "https://dc.lft.to/lastmile_qr_scan"}, "is_reserved": 0, "fusion_lon": 0.0, "fusion_lat": 0.0, "lon": -77.22806083333333, "name": "a9197b3581bd1d4db755b8ce12507923"}, {"bike_id": "0a7b70e7a4cf5cabef789c001f40581b", "type": "electric_scooter", "is_disabled": 0, "lat": 38.8997225, "rental_uris": {"ios": "https://dc.lft.to/lastmile_qr_scan", "android": "https://dc.lft.to/lastmile_qr_scan"}, "is_reserved": 0, "fusion_lon": 0.0, "fusion_lat": 0.0, "lon": -77.03380483333333, "name": "0a7b70e7a4cf5cabef789c001f40581b"}, {"bike_id": "0b72d85990f99e756ec7b7c8bfd696a0", "type": "electric_bike", "is_disabled": 0, "lat": 38.872696166666664, "rental_uris": {"ios": "https://dc.lft.to/lastmile_qr_scan", "android": "https://dc.lft.to/lastmile_qr_scan"}, "is_reserved": 0, "fusion_lon": 0.0, "fusion_lat": 0.0, "lon": -77.23247733333334, "name": "0b72d85990f99e756ec7b7c8bfd696a0"}, {"bike_id": "c0de02833ea7fea3c1fab0e301b1f054", "type": "electric_bike", "is_disabled": 0, "lat": 38.88383416666667, "rental_uris": {"ios": "https://dc.lft.to/lastmile_qr_scan", "android": "https://dc.lft.to/lastmile_qr_scan"}, "is_reserved": 0, "fusion_lon": 0.0, "fusion_lat": 0.0, "lon": -76.98556116666667, "name": "c0de02833ea7fea3c1fab0e301b1f054"}, {"bike_id": "31448c4cf0e9b04234f7729e7a3ba30b", "type": "electric_scooter", "is_disabled": 0, "lat": 38.913089166666666, "rental_uris": {"ios": "https://dc.lft.to/lastmile_qr_scan", "android": "https://dc.lft.to/lastmile_qr_scan"}, "is_reserved": 0, "fusion_lon": 0.0, "fusion_lat": 0.0, "lon": -77.04547816666667, "name": "31448c4cf0e9b04234f7729e7a3ba30b"}, {"bike_id": "74103cd763ec1f84b8c0841eb3fea553", "type": "electric_scooter", "is_disabled": 0, "lat": 38.91419533333333, "rental_uris": {"ios": "https://dc.lft.to/lastmile_qr_scan", "android": "https://dc.lft.to/lastmile_qr_scan"}, "is_reserved": 0, "fusion_lon": 0.0, "fusion_lat": 0.0, "lon": -77.0481385, "name": "74103cd763ec1f84b8c0841eb3fea553"}, {"bike_id": "f39e2dd285d29c26e70d201533c2be8f", "type": "electric_scooter", "is_disabled": 0, "lat": 38.90015133333333, "rental_uris": {"ios": "https://dc.lft.to/lastmile_qr_scan", "android": "https://dc.lft.to/lastmile_qr_scan"}, "is_reserved": 0, "fusion_lon": 0.0, "fusion_lat": 0.0, "lon": -77.01143683333333, "name": "f39e2dd285d29c26e70d201533c2be8f"}, {"bike_id": "2852e0a7c8a30961775647354eb5d3e7", "type": "electric_scooter", "is_disabled": 0, "lat": 38.90644183333333, "rental_uris": {"ios": "https://dc.lft.to/lastmile_qr_scan", "android": "https://dc.lft.to/lastmile_qr_scan"}, "is_reserved": 0, "fusion_lon": 0.0, "fusion_lat": 0.0, "lon": -77.03454233333333, "name": "2852e0a7c8a30961775647354eb5d3e7"}, {"bike_id": "c7e6c8c77c79624ab3b7fbe8f85ce861", "type": "electric_bike", "is_disabled": 0, "lat": 38.82174366666667, "rental_uris": {"ios": "https://dc.lft.to/lastmile_qr_scan", "android": "https://dc.lft.to/lastmile_qr_scan"}, "is_reserved": 0, "fusion_lon": 0.0, "fusion_lat": 0.0, "lon": -76.99516633333333, "name": "c7e6c8c77c79624ab3b7fbe8f85ce861"}, {"bike_id": "d2e09c14da65d1869a57bebb227eb48a", "type": "electric_scooter", "is_disabled": 0, "lat": 38.9056245, "rental_uris": {"ios": "https://dc.lft.to/lastmile_qr_scan", "android": "https://dc.lft.to/lastmile_qr_scan"}, "is_reserved": 0, "fusion_lon": 0.0, "fusion_lat": 0.0, "lon": -77.065207, "name": "d2e09c14da65d1869a57bebb227eb48a"}, {"bike_id": "2946bcad8085fced633e742ad7392598", "type": "electric_bike", "is_disabled": 0, "lat": 39.0430765, "rental_uris": {"ios": "https://dc.lft.to/lastmile_qr_scan", "android": "https://dc.lft.to/lastmile_qr_scan"}, "is_reserved": 0, "fusion_lon": 0.0, "fusion_lat": 0.0, "lon": -77.051589, "name": "2946bcad8085fced633e742ad7392598"}, {"bike_id": "519b41b3bafcdeed84dda36f7dc6e978", "type": "electric_scooter", "is_disabled": 0, "lat": 38.9304305, "rental_uris": {"ios": "https://dc.lft.to/lastmile_qr_scan", "android": "https://dc.lft.to/lastmile_qr_scan"}, "is_reserved": 0, "fusion_lon": 0.0, "fusion_lat": 0.0, "lon": -77.03264733333333, "name": "519b41b3bafcdeed84dda36f7dc6e978"}, {"bike_id": "8acdcccee0e21ad45f60c5525596d29e", "type": "electric_scooter", "is_disabled": 0, "lat": 38.91827833333333, "rental_uris": {"ios": "https://dc.lft.to/lastmile_qr_scan", "android": "https://dc.lft.to/lastmile_qr_scan"}, "is_reserved": 0, "fusion_lon": 0.0, "fusion_lat": 0.0, "lon": -77.03939116666666, "name": "8acdcccee0e21ad45f60c5525596d29e"}, {"bike_id": "81d2716dd4d3469edacecddc4c0c9de5", "type": "electric_scooter", "is_disabled": 0, "lat": 38.87685333333334, "rental_uris": {"ios": "https://dc.lft.to/lastmile_qr_scan", "android": "https://dc.lft.to/lastmile_qr_scan"}, "is_reserved": 0, "fusion_lon": 0.0, "fusion_lat": 0.0, "lon": -77.01756283333333, "name": "81d2716dd4d3469edacecddc4c0c9de5"}, {"bike_id": "7f9213359416ffffe4b8e8d6e917ac06", "type": "electric_scooter", "is_disabled": 0, "lat": 38.89850283333333, "rental_uris": {"ios": "https://dc.lft.to/lastmile_qr_scan", "android": "https://dc.lft.to/lastmile_qr_scan"}, "is_reserved": 0, "fusion_lon": 0.0, "fusion_lat": 0.0, "lon": -77.02907433333333, "name": "7f9213359416ffffe4b8e8d6e917ac06"}, {"bike_id": "d82d9a6d70c181fb53dae4bd174545a4", "type": "electric_scooter", "is_disabled": 0, "lat": 38.89355833333333, "rental_uris": {"ios": "https://dc.lft.to/lastmile_qr_scan", "android": "https://dc.lft.to/lastmile_qr_scan"}, "is_reserved": 0, "fusion_lon": 0.0, "fusion_lat": 0.0, "lon": -76.94932816666666, "name": "d82d9a6d70c181fb53dae4bd174545a4"}, {"bike_id": "84bdd87ca013690c895244f5c3ec7069", "type": "electric_scooter", "is_disabled": 0, "lat": 38.90495216666667, "rental_uris": {"ios": "https://dc.lft.to/lastmile_qr_scan", "android": "https://dc.lft.to/lastmile_qr_scan"}, "is_reserved": 0, "fusion_lon": 0.0, "fusion_lat": 0.0, "lon": -77.019962, "name": "84bdd87ca013690c895244f5c3ec7069"}, {"bike_id": "db1f344500d06f7d6749b397f1ab554e", "type": "electric_scooter", "is_disabled": 0, "lat": 38.89329216666667, "rental_uris": {"ios": "https://dc.lft.to/lastmile_qr_scan", "android": "https://dc.lft.to/lastmile_qr_scan"}, "is_reserved": 0, "fusion_lon": 0.0, "fusion_lat": 0.0, "lon": -77.03209483333333, "name": "db1f344500d06f7d6749b397f1ab554e"}, {"bike_id": "c446573ecd6b7169e6d46ac624cc1b1f", "type": "electric_scooter", "is_disabled": 0, "lat": 38.84637216666667, "rental_uris": {"ios": "https://dc.lft.to/lastmile_qr_scan", "android": "https://dc.lft.to/lastmile_qr_scan"}, "is_reserved": 0, "fusion_lon": 0.0, "fusion_lat": 0.0, "lon": -76.99132483333334, "name": "c446573ecd6b7169e6d46ac624cc1b1f"}, {"bike_id": "d47661f2da3d3f5883c37a531a381521", "type": "electric_scooter", "is_disabled": 0, "lat": 38.919665333333334, "rental_uris": {"ios": "https://dc.lft.to/lastmile_qr_scan", "android": "https://dc.lft.to/lastmile_qr_scan"}, "is_reserved": 0, "fusion_lon": 0.0, "fusion_lat": 0.0, "lon": -77.042758, "name": "d47661f2da3d3f5883c37a531a381521"}, {"bike_id": "9ca54d12315afede93098abeff5b9f76", "type": "electric_scooter", "is_disabled": 0, "lat": 38.89228283333333, "rental_uris": {"ios": "https://dc.lft.to/lastmile_qr_scan", "android": "https://dc.lft.to/lastmile_qr_scan"}, "is_reserved": 0, "fusion_lon": 0.0, "fusion_lat": 0.0, "lon": -76.99849566666667, "name": "9ca54d12315afede93098abeff5b9f76"}, {"bike_id": "a1a676dacad2f1708d2eb9673a97ffb4", "type": "electric_scooter", "is_disabled": 0, "lat": 38.871584666666664, "rental_uris": {"ios": "https://dc.lft.to/lastmile_qr_scan", "android": "https://dc.lft.to/lastmile_qr_scan"}, "is_reserved": 0, "fusion_lon": 0.0, "fusion_lat": 0.0, "lon": -77.01354166666667, "name": "a1a676dacad2f1708d2eb9673a97ffb4"}, {"bike_id": "61999b481fd70a36bc225ca5931f7e12", "type": "electric_scooter", "is_disabled": 0, "lat": 38.90563733333333, "rental_uris": {"ios": "https://dc.lft.to/lastmile_qr_scan", "android": "https://dc.lft.to/lastmile_qr_scan"}, "is_reserved": 0, "fusion_lon": 0.0, "fusion_lat": 0.0, "lon": -77.004918, "name": "61999b481fd70a36bc225ca5931f7e12"}, {"bike_id": "72ca0d07184c571b368de8d632affff6", "type": "electric_bike", "is_disabled": 0, "lat": 39.052793333333334, "rental_uris": {"ios": "https://dc.lft.to/lastmile_qr_scan", "android": "https://dc.lft.to/lastmile_qr_scan"}, "is_reserved": 0, "fusion_lon": 0.0, "fusion_lat": 0.0, "lon": -77.08068816666666, "name": "72ca0d07184c571b368de8d632affff6"}, {"bike_id": "46f00dc0096e1da0ab294134c96a2d4a", "type": "electric_scooter", "is_disabled": 0, "lat": 38.931282833333334, "rental_uris": {"ios": "https://dc.lft.to/lastmile_qr_scan", "android": "https://dc.lft.to/lastmile_qr_scan"}, "is_reserved": 0, "fusion_lon": 0.0, "fusion_lat": 0.0, "lon": -76.99573666666667, "name": "46f00dc0096e1da0ab294134c96a2d4a"}, {"bike_id": "bc0c7cf7772a41662dad4af6658d3e1a", "type": "electric_scooter", "is_disabled": 0, "lat": 38.91824866666666, "rental_uris": {"ios": "https://dc.lft.to/lastmile_qr_scan", "android": "https://dc.lft.to/lastmile_qr_scan"}, "is_reserved": 0, "fusion_lon": 0.0, "fusion_lat": 0.0, "lon": -77.04941116666667, "name": "bc0c7cf7772a41662dad4af6658d3e1a"}, {"bike_id": "49b20335a1993c3710efcc0c1fe2d707", "type": "electric_scooter", "is_disabled": 0, "lat": 38.933393833333334, "rental_uris": {"ios": "https://dc.lft.to/lastmile_qr_scan", "android": "https://dc.lft.to/lastmile_qr_scan"}, "is_reserved": 0, "fusion_lon": 0.0, "fusion_lat": 0.0, "lon": -77.02056366666666, "name": "49b20335a1993c3710efcc0c1fe2d707"}, {"bike_id": "6165dffb554283dc54db5223a9e776c3", "type": "electric_scooter", "is_disabled": 0, "lat": 38.907056, "rental_uris": {"ios": "https://dc.lft.to/lastmile_qr_scan", "android": "https://dc.lft.to/lastmile_qr_scan"}, "is_reserved": 0, "fusion_lon": 0.0, "fusion_lat": 0.0, "lon": -77.02396583333334, "name": "6165dffb554283dc54db5223a9e776c3"}, {"bike_id": "84c6eafa07475a82b72c93cc96e6ac91", "type": "electric_scooter", "is_disabled": 0, "lat": 38.916839333333336, "rental_uris": {"ios": "https://dc.lft.to/lastmile_qr_scan", "android": "https://dc.lft.to/lastmile_qr_scan"}, "is_reserved": 0, "fusion_lon": 0.0, "fusion_lat": 0.0, "lon": -77.02958633333333, "name": "84c6eafa07475a82b72c93cc96e6ac91"}, {"bike_id": "c7bbbeea4ceeafb19dc542669f2dfb9a", "type": "electric_scooter", "is_disabled": 0, "lat": 38.8811475, "rental_uris": {"ios": "https://dc.lft.to/lastmile_qr_scan", "android": "https://dc.lft.to/lastmile_qr_scan"}, "is_reserved": 0, "fusion_lon": 0.0, "fusion_lat": 0.0, "lon": -77.00181983333333, "name": "c7bbbeea4ceeafb19dc542669f2dfb9a"}, {"bike_id": "cf3134767ca0dad09bd9359d0fdae155", "type": "electric_scooter", "is_disabled": 0, "lat": 38.866953333333335, "rental_uris": {"ios": "https://dc.lft.to/lastmile_qr_scan", "android": "https://dc.lft.to/lastmile_qr_scan"}, "is_reserved": 0, "fusion_lon": 0.0, "fusion_lat": 0.0, "lon": -76.98712716666667, "name": "cf3134767ca0dad09bd9359d0fdae155"}, {"bike_id": "ab67594af67004f0ecc489e6d685e302", "type": "electric_scooter", "is_disabled": 0, "lat": 38.917024, "rental_uris": {"ios": "https://dc.lft.to/lastmile_qr_scan", "android": "https://dc.lft.to/lastmile_qr_scan"}, "is_reserved": 0, "fusion_lon": 0.0, "fusion_lat": 0.0, "lon": -77.00652533333333, "name": "ab67594af67004f0ecc489e6d685e302"}, {"bike_id": "1f0f3826eb1151b7496c10ba9e226153", "type": "electric_scooter", "is_disabled": 0, "lat": 38.90213216666667, "rental_uris": {"ios": "https://dc.lft.to/lastmile_qr_scan", "android": "https://dc.lft.to/lastmile_qr_scan"}, "is_reserved": 0, "fusion_lon": 0.0, "fusion_lat": 0.0, "lon": -77.023129, "name": "1f0f3826eb1151b7496c10ba9e226153"}, {"bike_id": "3ac1b78a954cd6d03c3b8ea11da990e2", "type": "electric_scooter", "is_disabled": 0, "lat": 38.91658016666667, "rental_uris": {"ios": "https://dc.lft.to/lastmile_qr_scan", "android": "https://dc.lft.to/lastmile_qr_scan"}, "is_reserved": 0, "fusion_lon": 0.0, "fusion_lat": 0.0, "lon": -77.02321583333334, "name": "3ac1b78a954cd6d03c3b8ea11da990e2"}, {"bike_id": "cce1a81e0d53d1c0fe9e3b140fa1b231", "type": "electric_bike", "is_disabled": 0, "lat": 39.014808, "rental_uris": {"ios": "https://dc.lft.to/lastmile_qr_scan", "android": "https://dc.lft.to/lastmile_qr_scan"}, "is_reserved": 0, "fusion_lon": 0.0, "fusion_lat": 0.0, "lon": -77.054918, "name": "cce1a81e0d53d1c0fe9e3b140fa1b231"}, {"bike_id": "679755f8a89de3e0c830bd4c9834bb34", "type": "electric_scooter", "is_disabled": 0, "lat": 38.905525, "rental_uris": {"ios": "https://dc.lft.to/lastmile_qr_scan", "android": "https://dc.lft.to/lastmile_qr_scan"}, "is_reserved": 0, "fusion_lon": 0.0, "fusion_lat": 0.0, "lon": -77.00297783333333, "name": "679755f8a89de3e0c830bd4c9834bb34"}, {"bike_id": "17c58c7f54a76493313ba55b89de75fc", "type": "electric_bike", "is_disabled": 0, "lat": 38.90867516666667, "rental_uris": {"ios": "https://dc.lft.to/lastmile_qr_scan", "android": "https://dc.lft.to/lastmile_qr_scan"}, "is_reserved": 0, "fusion_lon": 0.0, "fusion_lat": 0.0, "lon": -77.07645166666667, "name": "17c58c7f54a76493313ba55b89de75fc"}, {"bike_id": "483da92fe27513c98e719d22b5e7d5b7", "type": "electric_scooter", "is_disabled": 0, "lat": 38.914765333333335, "rental_uris": {"ios": "https://dc.lft.to/lastmile_qr_scan", "android": "https://dc.lft.to/lastmile_qr_scan"}, "is_reserved": 0, "fusion_lon": 0.0, "fusion_lat": 0.0, "lon": -77.04551333333333, "name": "483da92fe27513c98e719d22b5e7d5b7"}, {"bike_id": "a4d97ab5f60efd3cbceaec859f05fedf", "type": "electric_scooter", "is_disabled": 0, "lat": 38.894730333333335, "rental_uris": {"ios": "https://dc.lft.to/lastmile_qr_scan", "android": "https://dc.lft.to/lastmile_qr_scan"}, "is_reserved": 0, "fusion_lon": 0.0, "fusion_lat": 0.0, "lon": -76.99488683333334, "name": "a4d97ab5f60efd3cbceaec859f05fedf"}, {"bike_id": "fa326135a1b1a978c0a0b8b647b5693c", "type": "electric_scooter", "is_disabled": 0, "lat": 38.917035166666665, "rental_uris": {"ios": "https://dc.lft.to/lastmile_qr_scan", "android": "https://dc.lft.to/lastmile_qr_scan"}, "is_reserved": 0, "fusion_lon": 0.0, "fusion_lat": 0.0, "lon": -77.0288785, "name": "fa326135a1b1a978c0a0b8b647b5693c"}, {"bike_id": "e627b8638e92c67fe87381be37e12e88", "type": "electric_scooter", "is_disabled": 0, "lat": 38.91712966666667, "rental_uris": {"ios": "https://dc.lft.to/lastmile_qr_scan", "android": "https://dc.lft.to/lastmile_qr_scan"}, "is_reserved": 0, "fusion_lon": 0.0, "fusion_lat": 0.0, "lon": -77.02385516666666, "name": "e627b8638e92c67fe87381be37e12e88"}, {"bike_id": "24c2c8bde793469ecc25596fd180d553", "type": "electric_scooter", "is_disabled": 0, "lat": 38.89842183333333, "rental_uris": {"ios": "https://dc.lft.to/lastmile_qr_scan", "android": "https://dc.lft.to/lastmile_qr_scan"}, "is_reserved": 0, "fusion_lon": 0.0, "fusion_lat": 0.0, "lon": -76.946369, "name": "24c2c8bde793469ecc25596fd180d553"}, {"bike_id": "4b90db3bfc3858d487d049bdd930b367", "type": "electric_scooter", "is_disabled": 0, "lat": 38.919669, "rental_uris": {"ios": "https://dc.lft.to/lastmile_qr_scan", "android": "https://dc.lft.to/lastmile_qr_scan"}, "is_reserved": 0, "fusion_lon": 0.0, "fusion_lat": 0.0, "lon": -77.014318, "name": "4b90db3bfc3858d487d049bdd930b367"}, {"bike_id": "0bafa24ae3e5fef460d6de665f89142a", "type": "electric_scooter", "is_disabled": 0, "lat": 38.892270333333336, "rental_uris": {"ios": "https://dc.lft.to/lastmile_qr_scan", "android": "https://dc.lft.to/lastmile_qr_scan"}, "is_reserved": 0, "fusion_lon": 0.0, "fusion_lat": 0.0, "lon": -77.01377583333333, "name": "0bafa24ae3e5fef460d6de665f89142a"}, {"bike_id": "897ef7dac64efb8b6b12b0601b04dff0", "type": "electric_scooter", "is_disabled": 0, "lat": 38.892390166666665, "rental_uris": {"ios": "https://dc.lft.to/lastmile_qr_scan", "android": "https://dc.lft.to/lastmile_qr_scan"}, "is_reserved": 0, "fusion_lon": 0.0, "fusion_lat": 0.0, "lon": -77.04501783333333, "name": "897ef7dac64efb8b6b12b0601b04dff0"}, {"bike_id": "4b404d4874ce28f0cb3567207bb5569d", "type": "electric_scooter", "is_disabled": 0, "lat": 38.9039025, "rental_uris": {"ios": "https://dc.lft.to/lastmile_qr_scan", "android": "https://dc.lft.to/lastmile_qr_scan"}, "is_reserved": 0, "fusion_lon": 0.0, "fusion_lat": 0.0, "lon": -77.0220305, "name": "4b404d4874ce28f0cb3567207bb5569d"}, {"bike_id": "a78b8f704db9a3f830cf847df8f4652f", "type": "electric_scooter", "is_disabled": 0, "lat": 38.914207, "rental_uris": {"ios": "https://dc.lft.to/lastmile_qr_scan", "android": "https://dc.lft.to/lastmile_qr_scan"}, "is_reserved": 0, "fusion_lon": 0.0, "fusion_lat": 0.0, "lon": -77.02227583333334, "name": "a78b8f704db9a3f830cf847df8f4652f"}, {"bike_id": "8fba106eb7e23bbaeca0a3f4308beb3d", "type": "electric_scooter", "is_disabled": 0, "lat": 38.902506833333334, "rental_uris": {"ios": "https://dc.lft.to/lastmile_qr_scan", "android": "https://dc.lft.to/lastmile_qr_scan"}, "is_reserved": 0, "fusion_lon": 0.0, "fusion_lat": 0.0, "lon": -76.9866475, "name": "8fba106eb7e23bbaeca0a3f4308beb3d"}, {"bike_id": "133aad60fcd0a21ce663a46ccf6ca258", "type": "electric_bike", "is_disabled": 0, "lat": 38.88372233333333, "rental_uris": {"ios": "https://dc.lft.to/lastmile_qr_scan", "android": "https://dc.lft.to/lastmile_qr_scan"}, "is_reserved": 0, "fusion_lon": 0.0, "fusion_lat": 0.0, "lon": -77.02425933333333, "name": "133aad60fcd0a21ce663a46ccf6ca258"}, {"bike_id": "3c207c1a0c25448704bec859345e2017", "type": "electric_scooter", "is_disabled": 0, "lat": 38.91484233333333, "rental_uris": {"ios": "https://dc.lft.to/lastmile_qr_scan", "android": "https://dc.lft.to/lastmile_qr_scan"}, "is_reserved": 0, "fusion_lon": 0.0, "fusion_lat": 0.0, "lon": -77.032159, "name": "3c207c1a0c25448704bec859345e2017"}, {"bike_id": "f307920e1044a86a8bed64463d5ff0a5", "type": "electric_scooter", "is_disabled": 0, "lat": 38.912663333333334, "rental_uris": {"ios": "https://dc.lft.to/lastmile_qr_scan", "android": "https://dc.lft.to/lastmile_qr_scan"}, "is_reserved": 0, "fusion_lon": 0.0, "fusion_lat": 0.0, "lon": -77.038265, "name": "f307920e1044a86a8bed64463d5ff0a5"}, {"bike_id": "d7161bf4fc0f379152b387b7d8c4c475", "type": "electric_scooter", "is_disabled": 0, "lat": 38.929244, "rental_uris": {"ios": "https://dc.lft.to/lastmile_qr_scan", "android": "https://dc.lft.to/lastmile_qr_scan"}, "is_reserved": 0, "fusion_lon": 0.0, "fusion_lat": 0.0, "lon": -77.0328245, "name": "d7161bf4fc0f379152b387b7d8c4c475"}, {"bike_id": "a8a3c6c131a41edcc014f3ce21195bc9", "type": "electric_scooter", "is_disabled": 0, "lat": 38.913283, "rental_uris": {"ios": "https://dc.lft.to/lastmile_qr_scan", "android": "https://dc.lft.to/lastmile_qr_scan"}, "is_reserved": 0, "fusion_lon": 0.0, "fusion_lat": 0.0, "lon": -77.03176766666667, "name": "a8a3c6c131a41edcc014f3ce21195bc9"}, {"bike_id": "151d06ea6d9aa29be93b1fc65ae1529a", "type": "electric_bike", "is_disabled": 0, "lat": 38.937617333333336, "rental_uris": {"ios": "https://dc.lft.to/lastmile_qr_scan", "android": "https://dc.lft.to/lastmile_qr_scan"}, "is_reserved": 0, "fusion_lon": 0.0, "fusion_lat": 0.0, "lon": -77.024916, "name": "151d06ea6d9aa29be93b1fc65ae1529a"}, {"bike_id": "6464a7456e21e837b0ca368541840f7c", "type": "electric_bike", "is_disabled": 0, "lat": 38.91133766666667, "rental_uris": {"ios": "https://dc.lft.to/lastmile_qr_scan", "android": "https://dc.lft.to/lastmile_qr_scan"}, "is_reserved": 0, "fusion_lon": 0.0, "fusion_lat": 0.0, "lon": -77.06579233333333, "name": "6464a7456e21e837b0ca368541840f7c"}, {"bike_id": "3241f930c107e5bf55404206fbdcac97", "type": "electric_scooter", "is_disabled": 0, "lat": 38.9065655, "rental_uris": {"ios": "https://dc.lft.to/lastmile_qr_scan", "android": "https://dc.lft.to/lastmile_qr_scan"}, "is_reserved": 0, "fusion_lon": 0.0, "fusion_lat": 0.0, "lon": -77.03859066666666, "name": "3241f930c107e5bf55404206fbdcac97"}, {"bike_id": "d71f8253c88cd1080a3ccc515965f2e1", "type": "electric_scooter", "is_disabled": 0, "lat": 38.966075333333336, "rental_uris": {"ios": "https://dc.lft.to/lastmile_qr_scan", "android": "https://dc.lft.to/lastmile_qr_scan"}, "is_reserved": 0, "fusion_lon": 0.0, "fusion_lat": 0.0, "lon": -77.01976083333334, "name": "d71f8253c88cd1080a3ccc515965f2e1"}, {"bike_id": "e71f6b90e6d8505815cd8a7e7ff90364", "type": "electric_bike", "is_disabled": 0, "lat": 38.8075865, "rental_uris": {"ios": "https://dc.lft.to/lastmile_qr_scan", "android": "https://dc.lft.to/lastmile_qr_scan"}, "is_reserved": 0, "fusion_lon": 0.0, "fusion_lat": 0.0, "lon": -77.09466766666667, "name": "e71f6b90e6d8505815cd8a7e7ff90364"}, {"bike_id": "548e0bfd7eb6171e71d8528df6b795c1", "type": "electric_scooter", "is_disabled": 0, "lat": 38.93250533333333, "rental_uris": {"ios": "https://dc.lft.to/lastmile_qr_scan", "android": "https://dc.lft.to/lastmile_qr_scan"}, "is_reserved": 0, "fusion_lon": 0.0, "fusion_lat": 0.0, "lon": -77.02727016666667, "name": "548e0bfd7eb6171e71d8528df6b795c1"}, {"bike_id": "ece2ab89e45c0a2d980c84e62af69074", "type": "electric_scooter", "is_disabled": 0, "lat": 38.93884933333333, "rental_uris": {"ios": "https://dc.lft.to/lastmile_qr_scan", "android": "https://dc.lft.to/lastmile_qr_scan"}, "is_reserved": 0, "fusion_lon": 0.0, "fusion_lat": 0.0, "lon": -77.03324916666666, "name": "ece2ab89e45c0a2d980c84e62af69074"}, {"bike_id": "7bf42f239d1ad6d0318434bc263fc798", "type": "electric_scooter", "is_disabled": 0, "lat": 38.9201155, "rental_uris": {"ios": "https://dc.lft.to/lastmile_qr_scan", "android": "https://dc.lft.to/lastmile_qr_scan"}, "is_reserved": 0, "fusion_lon": 0.0, "fusion_lat": 0.0, "lon": -77.01318933333333, "name": "7bf42f239d1ad6d0318434bc263fc798"}, {"bike_id": "d3a769ce270970860b30d4ff9ebeb8a0", "type": "electric_scooter", "is_disabled": 0, "lat": 38.8923575, "rental_uris": {"ios": "https://dc.lft.to/lastmile_qr_scan", "android": "https://dc.lft.to/lastmile_qr_scan"}, "is_reserved": 0, "fusion_lon": 0.0, "fusion_lat": 0.0, "lon": -77.0416095, "name": "d3a769ce270970860b30d4ff9ebeb8a0"}, {"bike_id": "7d02bf18c21ed2ca5e38c09ae37141fe", "type": "electric_scooter", "is_disabled": 0, "lat": 38.901701, "rental_uris": {"ios": "https://dc.lft.to/lastmile_qr_scan", "android": "https://dc.lft.to/lastmile_qr_scan"}, "is_reserved": 0, "fusion_lon": 0.0, "fusion_lat": 0.0, "lon": -77.0318915, "name": "7d02bf18c21ed2ca5e38c09ae37141fe"}, {"bike_id": "1d8187ee6971da2db387ccb198286fce", "type": "electric_scooter", "is_disabled": 0, "lat": 38.920074, "rental_uris": {"ios": "https://dc.lft.to/lastmile_qr_scan", "android": "https://dc.lft.to/lastmile_qr_scan"}, "is_reserved": 0, "fusion_lon": 0.0, "fusion_lat": 0.0, "lon": -77.024662, "name": "1d8187ee6971da2db387ccb198286fce"}, {"bike_id": "d63ad347ac341eb316031e96c7addfe9", "type": "electric_scooter", "is_disabled": 0, "lat": 38.896890166666665, "rental_uris": {"ios": "https://dc.lft.to/lastmile_qr_scan", "android": "https://dc.lft.to/lastmile_qr_scan"}, "is_reserved": 0, "fusion_lon": 0.0, "fusion_lat": 0.0, "lon": -77.04350183333334, "name": "d63ad347ac341eb316031e96c7addfe9"}, {"bike_id": "0f901a5844742f036e2193d186283a05", "type": "electric_scooter", "is_disabled": 0, "lat": 38.917058, "rental_uris": {"ios": "https://dc.lft.to/lastmile_qr_scan", "android": "https://dc.lft.to/lastmile_qr_scan"}, "is_reserved": 0, "fusion_lon": 0.0, "fusion_lat": 0.0, "lon": -77.02416283333334, "name": "0f901a5844742f036e2193d186283a05"}, {"bike_id": "f668e80a6aa890ff90e6b80100ae775c", "type": "electric_scooter", "is_disabled": 0, "lat": 38.916282333333335, "rental_uris": {"ios": "https://dc.lft.to/lastmile_qr_scan", "android": "https://dc.lft.to/lastmile_qr_scan"}, "is_reserved": 0, "fusion_lon": 0.0, "fusion_lat": 0.0, "lon": -77.030439, "name": "f668e80a6aa890ff90e6b80100ae775c"}, {"bike_id": "9b8b6f6e7c08e442eebff223ced82d1e", "type": "electric_scooter", "is_disabled": 0, "lat": 38.9295965, "rental_uris": {"ios": "https://dc.lft.to/lastmile_qr_scan", "android": "https://dc.lft.to/lastmile_qr_scan"}, "is_reserved": 0, "fusion_lon": 0.0, "fusion_lat": 0.0, "lon": -77.02788016666666, "name": "9b8b6f6e7c08e442eebff223ced82d1e"}, {"bike_id": "eb7e1c1c73162606b368a79619a9508f", "type": "electric_scooter", "is_disabled": 0, "lat": 38.90957016666667, "rental_uris": {"ios": "https://dc.lft.to/lastmile_qr_scan", "android": "https://dc.lft.to/lastmile_qr_scan"}, "is_reserved": 0, "fusion_lon": 0.0, "fusion_lat": 0.0, "lon": -77.045429, "name": "eb7e1c1c73162606b368a79619a9508f"}, {"bike_id": "ab86c5d8484d25bd7f42edb8ed74faf1", "type": "electric_scooter", "is_disabled": 0, "lat": 38.90527633333333, "rental_uris": {"ios": "https://dc.lft.to/lastmile_qr_scan", "android": "https://dc.lft.to/lastmile_qr_scan"}, "is_reserved": 0, "fusion_lon": 0.0, "fusion_lat": 0.0, "lon": -77.06520716666667, "name": "ab86c5d8484d25bd7f42edb8ed74faf1"}, {"bike_id": "3902de5ce3830f7f24d0dd6b28fb8a7f", "type": "electric_scooter", "is_disabled": 0, "lat": 38.91948416666666, "rental_uris": {"ios": "https://dc.lft.to/lastmile_qr_scan", "android": "https://dc.lft.to/lastmile_qr_scan"}, "is_reserved": 0, "fusion_lon": 0.0, "fusion_lat": 0.0, "lon": -77.04488766666667, "name": "3902de5ce3830f7f24d0dd6b28fb8a7f"}, {"bike_id": "22185ebf1d19978ca07a5635eed0e72e", "type": "electric_scooter", "is_disabled": 0, "lat": 38.904987166666665, "rental_uris": {"ios": "https://dc.lft.to/lastmile_qr_scan", "android": "https://dc.lft.to/lastmile_qr_scan"}, "is_reserved": 0, "fusion_lon": 0.0, "fusion_lat": 0.0, "lon": -77.06884883333333, "name": "22185ebf1d19978ca07a5635eed0e72e"}, {"bike_id": "59ffb3974a412b60f4243dd4707b9c70", "type": "electric_scooter", "is_disabled": 0, "lat": 38.91612933333333, "rental_uris": {"ios": "https://dc.lft.to/lastmile_qr_scan", "android": "https://dc.lft.to/lastmile_qr_scan"}, "is_reserved": 0, "fusion_lon": 0.0, "fusion_lat": 0.0, "lon": -77.023005, "name": "59ffb3974a412b60f4243dd4707b9c70"}, {"bike_id": "eb20008bd2bcb660663b758a2f5785fe", "type": "electric_scooter", "is_disabled": 0, "lat": 38.920441333333336, "rental_uris": {"ios": "https://dc.lft.to/lastmile_qr_scan", "android": "https://dc.lft.to/lastmile_qr_scan"}, "is_reserved": 0, "fusion_lon": 0.0, "fusion_lat": 0.0, "lon": -77.03398966666667, "name": "eb20008bd2bcb660663b758a2f5785fe"}, {"bike_id": "257eee55c913e36c91cdddcb95fe061c", "type": "electric_bike", "is_disabled": 0, "lat": 38.937048, "rental_uris": {"ios": "https://dc.lft.to/lastmile_qr_scan", "android": "https://dc.lft.to/lastmile_qr_scan"}, "is_reserved": 0, "fusion_lon": 0.0, "fusion_lat": 0.0, "lon": -77.0560895, "name": "257eee55c913e36c91cdddcb95fe061c"}, {"bike_id": "010d72918291ed57c6da1918b26387c6", "type": "electric_bike", "is_disabled": 0, "lat": 38.83158566666667, "rental_uris": {"ios": "https://dc.lft.to/lastmile_qr_scan", "android": "https://dc.lft.to/lastmile_qr_scan"}, "is_reserved": 0, "fusion_lon": 0.0, "fusion_lat": 0.0, "lon": -76.995441, "name": "010d72918291ed57c6da1918b26387c6"}, {"bike_id": "79454fafe01fcabef2f2da51c99d72dd", "type": "electric_scooter", "is_disabled": 0, "lat": 38.90075616666667, "rental_uris": {"ios": "https://dc.lft.to/lastmile_qr_scan", "android": "https://dc.lft.to/lastmile_qr_scan"}, "is_reserved": 0, "fusion_lon": 0.0, "fusion_lat": 0.0, "lon": -77.030898, "name": "79454fafe01fcabef2f2da51c99d72dd"}, {"bike_id": "f1feb9401bcce08156d78812b8438880", "type": "electric_scooter", "is_disabled": 0, "lat": 38.887131333333336, "rental_uris": {"ios": "https://dc.lft.to/lastmile_qr_scan", "android": "https://dc.lft.to/lastmile_qr_scan"}, "is_reserved": 0, "fusion_lon": 0.0, "fusion_lat": 0.0, "lon": -77.017757, "name": "f1feb9401bcce08156d78812b8438880"}, {"bike_id": "7a3db6b255671226b7123dcf7690f748", "type": "electric_scooter", "is_disabled": 0, "lat": 38.895124833333334, "rental_uris": {"ios": "https://dc.lft.to/lastmile_qr_scan", "android": "https://dc.lft.to/lastmile_qr_scan"}, "is_reserved": 0, "fusion_lon": 0.0, "fusion_lat": 0.0, "lon": -77.04352233333333, "name": "7a3db6b255671226b7123dcf7690f748"}, {"bike_id": "dde0bfac59c045f3fc76ad2860df0f8c", "type": "electric_scooter", "is_disabled": 0, "lat": 38.9331555, "rental_uris": {"ios": "https://dc.lft.to/lastmile_qr_scan", "android": "https://dc.lft.to/lastmile_qr_scan"}, "is_reserved": 0, "fusion_lon": 0.0, "fusion_lat": 0.0, "lon": -77.0275025, "name": "dde0bfac59c045f3fc76ad2860df0f8c"}, {"bike_id": "1ca47fd17c88a2466eebeaccfb6fb0d1", "type": "electric_scooter", "is_disabled": 0, "lat": 38.89994516666667, "rental_uris": {"ios": "https://dc.lft.to/lastmile_qr_scan", "android": "https://dc.lft.to/lastmile_qr_scan"}, "is_reserved": 0, "fusion_lon": 0.0, "fusion_lat": 0.0, "lon": -77.02715516666666, "name": "1ca47fd17c88a2466eebeaccfb6fb0d1"}, {"bike_id": "55c3e9fb8fb9a0613e37867267137a9e", "type": "electric_scooter", "is_disabled": 0, "lat": 38.9223015, "rental_uris": {"ios": "https://dc.lft.to/lastmile_qr_scan", "android": "https://dc.lft.to/lastmile_qr_scan"}, "is_reserved": 0, "fusion_lon": 0.0, "fusion_lat": 0.0, "lon": -76.97529166666666, "name": "55c3e9fb8fb9a0613e37867267137a9e"}, {"bike_id": "ce4727eb78739b006c4bb29c1aa73159", "type": "electric_scooter", "is_disabled": 0, "lat": 38.903646333333334, "rental_uris": {"ios": "https://dc.lft.to/lastmile_qr_scan", "android": "https://dc.lft.to/lastmile_qr_scan"}, "is_reserved": 0, "fusion_lon": 0.0, "fusion_lat": 0.0, "lon": -76.99212683333333, "name": "ce4727eb78739b006c4bb29c1aa73159"}, {"bike_id": "e660fc0420a8b6585110eca165d44049", "type": "electric_scooter", "is_disabled": 0, "lat": 38.91140466666667, "rental_uris": {"ios": "https://dc.lft.to/lastmile_qr_scan", "android": "https://dc.lft.to/lastmile_qr_scan"}, "is_reserved": 0, "fusion_lon": 0.0, "fusion_lat": 0.0, "lon": -77.04501483333334, "name": "e660fc0420a8b6585110eca165d44049"}, {"bike_id": "fb7dd69570fc336c0aadc65136475073", "type": "electric_scooter", "is_disabled": 0, "lat": 38.887174, "rental_uris": {"ios": "https://dc.lft.to/lastmile_qr_scan", "android": "https://dc.lft.to/lastmile_qr_scan"}, "is_reserved": 0, "fusion_lon": 0.0, "fusion_lat": 0.0, "lon": -77.02207633333333, "name": "fb7dd69570fc336c0aadc65136475073"}, {"bike_id": "4eb87cf417c08a1105e3e0944fda8b6b", "type": "electric_bike", "is_disabled": 0, "lat": 38.88047016666667, "rental_uris": {"ios": "https://dc.lft.to/lastmile_qr_scan", "android": "https://dc.lft.to/lastmile_qr_scan"}, "is_reserved": 0, "fusion_lon": 0.0, "fusion_lat": 0.0, "lon": -77.0252655, "name": "4eb87cf417c08a1105e3e0944fda8b6b"}, {"bike_id": "854c0561a29ad597f047690f566f62fe", "type": "electric_scooter", "is_disabled": 0, "lat": 38.95637683333333, "rental_uris": {"ios": "https://dc.lft.to/lastmile_qr_scan", "android": "https://dc.lft.to/lastmile_qr_scan"}, "is_reserved": 0, "fusion_lon": 0.0, "fusion_lat": 0.0, "lon": -77.03628816666667, "name": "854c0561a29ad597f047690f566f62fe"}, {"bike_id": "5a5f42d30f93e3b56e793ee9f1e7d514", "type": "electric_bike", "is_disabled": 0, "lat": 39.051038166666665, "rental_uris": {"ios": "https://dc.lft.to/lastmile_qr_scan", "android": "https://dc.lft.to/lastmile_qr_scan"}, "is_reserved": 0, "fusion_lon": 0.0, "fusion_lat": 0.0, "lon": -77.1175835, "name": "5a5f42d30f93e3b56e793ee9f1e7d514"}, {"bike_id": "3f7113bc22ac6fe472984029c8a3fdeb", "type": "electric_bike", "is_disabled": 0, "lat": 38.85892533333333, "rental_uris": {"ios": "https://dc.lft.to/lastmile_qr_scan", "android": "https://dc.lft.to/lastmile_qr_scan"}, "is_reserved": 0, "fusion_lon": 0.0, "fusion_lat": 0.0, "lon": -77.11864133333333, "name": "3f7113bc22ac6fe472984029c8a3fdeb"}, {"bike_id": "470f7ad55f803c2794817d54400784fc", "type": "electric_scooter", "is_disabled": 0, "lat": 38.88068, "rental_uris": {"ios": "https://dc.lft.to/lastmile_qr_scan", "android": "https://dc.lft.to/lastmile_qr_scan"}, "is_reserved": 0, "fusion_lon": 0.0, "fusion_lat": 0.0, "lon": -77.02551383333333, "name": "470f7ad55f803c2794817d54400784fc"}, {"bike_id": "a4ccca6e24d8eabfade7a3fbf8561343", "type": "electric_scooter", "is_disabled": 0, "lat": 38.9026695, "rental_uris": {"ios": "https://dc.lft.to/lastmile_qr_scan", "android": "https://dc.lft.to/lastmile_qr_scan"}, "is_reserved": 0, "fusion_lon": 0.0, "fusion_lat": 0.0, "lon": -77.03147466666667, "name": "a4ccca6e24d8eabfade7a3fbf8561343"}, {"bike_id": "2eb6444072f4a134ff88abd78a3e3642", "type": "electric_scooter", "is_disabled": 0, "lat": 38.904088, "rental_uris": {"ios": "https://dc.lft.to/lastmile_qr_scan", "android": "https://dc.lft.to/lastmile_qr_scan"}, "is_reserved": 0, "fusion_lon": 0.0, "fusion_lat": 0.0, "lon": -76.97330733333334, "name": "2eb6444072f4a134ff88abd78a3e3642"}, {"bike_id": "38515da73e522145d16edb33f9d0a8a7", "type": "electric_scooter", "is_disabled": 0, "lat": 38.9053635, "rental_uris": {"ios": "https://dc.lft.to/lastmile_qr_scan", "android": "https://dc.lft.to/lastmile_qr_scan"}, "is_reserved": 0, "fusion_lon": 0.0, "fusion_lat": 0.0, "lon": -77.05811683333333, "name": "38515da73e522145d16edb33f9d0a8a7"}, {"bike_id": "540c6f51504764f84f1ce1c146eb2f13", "type": "electric_scooter", "is_disabled": 0, "lat": 38.9158625, "rental_uris": {"ios": "https://dc.lft.to/lastmile_qr_scan", "android": "https://dc.lft.to/lastmile_qr_scan"}, "is_reserved": 0, "fusion_lon": 0.0, "fusion_lat": 0.0, "lon": -77.00201033333333, "name": "540c6f51504764f84f1ce1c146eb2f13"}, {"bike_id": "03f0c7eea0b7483c9f7518192b1ebb27", "type": "electric_scooter", "is_disabled": 0, "lat": 38.897918, "rental_uris": {"ios": "https://dc.lft.to/lastmile_qr_scan", "android": "https://dc.lft.to/lastmile_qr_scan"}, "is_reserved": 0, "fusion_lon": 0.0, "fusion_lat": 0.0, "lon": -77.0321405, "name": "03f0c7eea0b7483c9f7518192b1ebb27"}, {"bike_id": "8c8ad649d4ecdbaa3ac00ab05c4b7b04", "type": "electric_scooter", "is_disabled": 0, "lat": 38.8997235, "rental_uris": {"ios": "https://dc.lft.to/lastmile_qr_scan", "android": "https://dc.lft.to/lastmile_qr_scan"}, "is_reserved": 0, "fusion_lon": 0.0, "fusion_lat": 0.0, "lon": -76.98309566666667, "name": "8c8ad649d4ecdbaa3ac00ab05c4b7b04"}, {"bike_id": "15d61df92111c8ead50337dfab1a2a44", "type": "electric_scooter", "is_disabled": 0, "lat": 38.904699666666666, "rental_uris": {"ios": "https://dc.lft.to/lastmile_qr_scan", "android": "https://dc.lft.to/lastmile_qr_scan"}, "is_reserved": 0, "fusion_lon": 0.0, "fusion_lat": 0.0, "lon": -77.00909116666666, "name": "15d61df92111c8ead50337dfab1a2a44"}, {"bike_id": "cc9dd7ffbb0be04f674a16eb1d1d5fc6", "type": "electric_scooter", "is_disabled": 0, "lat": 38.9065645, "rental_uris": {"ios": "https://dc.lft.to/lastmile_qr_scan", "android": "https://dc.lft.to/lastmile_qr_scan"}, "is_reserved": 0, "fusion_lon": 0.0, "fusion_lat": 0.0, "lon": -77.03852816666667, "name": "cc9dd7ffbb0be04f674a16eb1d1d5fc6"}, {"bike_id": "426c6106784a23cc545c34982d8052f1", "type": "electric_scooter", "is_disabled": 0, "lat": 38.897387333333334, "rental_uris": {"ios": "https://dc.lft.to/lastmile_qr_scan", "android": "https://dc.lft.to/lastmile_qr_scan"}, "is_reserved": 0, "fusion_lon": 0.0, "fusion_lat": 0.0, "lon": -76.94724033333334, "name": "426c6106784a23cc545c34982d8052f1"}, {"bike_id": "a44558c3c653aa5b713f39c8eb141772", "type": "electric_scooter", "is_disabled": 0, "lat": 38.90559833333333, "rental_uris": {"ios": "https://dc.lft.to/lastmile_qr_scan", "android": "https://dc.lft.to/lastmile_qr_scan"}, "is_reserved": 0, "fusion_lon": 0.0, "fusion_lat": 0.0, "lon": -77.02817433333334, "name": "a44558c3c653aa5b713f39c8eb141772"}, {"bike_id": "2e61a4cace1c582fbdf49909c9a3ef27", "type": "electric_scooter", "is_disabled": 0, "lat": 38.973693833333336, "rental_uris": {"ios": "https://dc.lft.to/lastmile_qr_scan", "android": "https://dc.lft.to/lastmile_qr_scan"}, "is_reserved": 0, "fusion_lon": 0.0, "fusion_lat": 0.0, "lon": -77.018656, "name": "2e61a4cace1c582fbdf49909c9a3ef27"}, {"bike_id": "da62729923fd6e6749e5272401c7e2f2", "type": "electric_scooter", "is_disabled": 0, "lat": 38.9091165, "rental_uris": {"ios": "https://dc.lft.to/lastmile_qr_scan", "android": "https://dc.lft.to/lastmile_qr_scan"}, "is_reserved": 0, "fusion_lon": 0.0, "fusion_lat": 0.0, "lon": -77.03214516666667, "name": "da62729923fd6e6749e5272401c7e2f2"}, {"bike_id": "93ddd344f8cbb1a4981481434c2eb427", "type": "electric_scooter", "is_disabled": 0, "lat": 38.891925, "rental_uris": {"ios": "https://dc.lft.to/lastmile_qr_scan", "android": "https://dc.lft.to/lastmile_qr_scan"}, "is_reserved": 0, "fusion_lon": 0.0, "fusion_lat": 0.0, "lon": -77.03640366666667, "name": "93ddd344f8cbb1a4981481434c2eb427"}, {"bike_id": "199c175821b52cdf0df1f8e59917839a", "type": "electric_scooter", "is_disabled": 0, "lat": 38.893658333333335, "rental_uris": {"ios": "https://dc.lft.to/lastmile_qr_scan", "android": "https://dc.lft.to/lastmile_qr_scan"}, "is_reserved": 0, "fusion_lon": 0.0, "fusion_lat": 0.0, "lon": -76.94703933333334, "name": "199c175821b52cdf0df1f8e59917839a"}, {"bike_id": "42630489675e6ca2b696c775e0389840", "type": "electric_scooter", "is_disabled": 0, "lat": 38.912654833333335, "rental_uris": {"ios": "https://dc.lft.to/lastmile_qr_scan", "android": "https://dc.lft.to/lastmile_qr_scan"}, "is_reserved": 0, "fusion_lon": 0.0, "fusion_lat": 0.0, "lon": -77.02956483333334, "name": "42630489675e6ca2b696c775e0389840"}, {"bike_id": "ee1e4cd9b4d27ed40f8087b49d79ac7f", "type": "electric_scooter", "is_disabled": 0, "lat": 38.897075, "rental_uris": {"ios": "https://dc.lft.to/lastmile_qr_scan", "android": "https://dc.lft.to/lastmile_qr_scan"}, "is_reserved": 0, "fusion_lon": 0.0, "fusion_lat": 0.0, "lon": -77.04881133333333, "name": "ee1e4cd9b4d27ed40f8087b49d79ac7f"}, {"bike_id": "bd9b53051f634af04dbf6ac5eecafcb6", "type": "electric_scooter", "is_disabled": 0, "lat": 38.91532266666667, "rental_uris": {"ios": "https://dc.lft.to/lastmile_qr_scan", "android": "https://dc.lft.to/lastmile_qr_scan"}, "is_reserved": 0, "fusion_lon": 0.0, "fusion_lat": 0.0, "lon": -77.03195266666667, "name": "bd9b53051f634af04dbf6ac5eecafcb6"}, {"bike_id": "4534265b4496129d855932d5db83a2ef", "type": "electric_scooter", "is_disabled": 0, "lat": 38.947919, "rental_uris": {"ios": "https://dc.lft.to/lastmile_qr_scan", "android": "https://dc.lft.to/lastmile_qr_scan"}, "is_reserved": 0, "fusion_lon": 0.0, "fusion_lat": 0.0, "lon": -77.02134283333334, "name": "4534265b4496129d855932d5db83a2ef"}, {"bike_id": "05c7c9eb7e3c9eb2de16995b8bdc7c33", "type": "electric_scooter", "is_disabled": 0, "lat": 38.91683183333333, "rental_uris": {"ios": "https://dc.lft.to/lastmile_qr_scan", "android": "https://dc.lft.to/lastmile_qr_scan"}, "is_reserved": 0, "fusion_lon": 0.0, "fusion_lat": 0.0, "lon": -77.02952583333334, "name": "05c7c9eb7e3c9eb2de16995b8bdc7c33"}, {"bike_id": "53f43bd46cb3ea6c45675b575fbe2492", "type": "electric_scooter", "is_disabled": 0, "lat": 38.91315433333333, "rental_uris": {"ios": "https://dc.lft.to/lastmile_qr_scan", "android": "https://dc.lft.to/lastmile_qr_scan"}, "is_reserved": 0, "fusion_lon": 0.0, "fusion_lat": 0.0, "lon": -77.03852283333333, "name": "53f43bd46cb3ea6c45675b575fbe2492"}, {"bike_id": "888d01f3bbb717ccd18059488969fb0c", "type": "electric_scooter", "is_disabled": 0, "lat": 38.958545666666666, "rental_uris": {"ios": "https://dc.lft.to/lastmile_qr_scan", "android": "https://dc.lft.to/lastmile_qr_scan"}, "is_reserved": 0, "fusion_lon": 0.0, "fusion_lat": 0.0, "lon": -77.02795566666667, "name": "888d01f3bbb717ccd18059488969fb0c"}, {"bike_id": "5352ec30b9ee0af8c878eba1210c2076", "type": "electric_scooter", "is_disabled": 0, "lat": 38.8922115, "rental_uris": {"ios": "https://dc.lft.to/lastmile_qr_scan", "android": "https://dc.lft.to/lastmile_qr_scan"}, "is_reserved": 0, "fusion_lon": 0.0, "fusion_lat": 0.0, "lon": -77.03167733333333, "name": "5352ec30b9ee0af8c878eba1210c2076"}, {"bike_id": "3be2d65f2dda2acf5807d6ed94fe9fbe", "type": "electric_scooter", "is_disabled": 0, "lat": 38.93530883333333, "rental_uris": {"ios": "https://dc.lft.to/lastmile_qr_scan", "android": "https://dc.lft.to/lastmile_qr_scan"}, "is_reserved": 0, "fusion_lon": 0.0, "fusion_lat": 0.0, "lon": -77.02347983333334, "name": "3be2d65f2dda2acf5807d6ed94fe9fbe"}, {"bike_id": "cb411f7769a2502c8bfb9f9514edc360", "type": "electric_scooter", "is_disabled": 0, "lat": 38.9155595, "rental_uris": {"ios": "https://dc.lft.to/lastmile_qr_scan", "android": "https://dc.lft.to/lastmile_qr_scan"}, "is_reserved": 0, "fusion_lon": 0.0, "fusion_lat": 0.0, "lon": -77.03219016666667, "name": "cb411f7769a2502c8bfb9f9514edc360"}, {"bike_id": "7df111d08e78e39ad6a460db7a6f8849", "type": "electric_scooter", "is_disabled": 0, "lat": 38.91457316666666, "rental_uris": {"ios": "https://dc.lft.to/lastmile_qr_scan", "android": "https://dc.lft.to/lastmile_qr_scan"}, "is_reserved": 0, "fusion_lon": 0.0, "fusion_lat": 0.0, "lon": -77.07104, "name": "7df111d08e78e39ad6a460db7a6f8849"}, {"bike_id": "12a333b75585a8f23223ab1ed9c7ef5b", "type": "electric_scooter", "is_disabled": 0, "lat": 38.9127235, "rental_uris": {"ios": "https://dc.lft.to/lastmile_qr_scan", "android": "https://dc.lft.to/lastmile_qr_scan"}, "is_reserved": 0, "fusion_lon": 0.0, "fusion_lat": 0.0, "lon": -77.03907066666666, "name": "12a333b75585a8f23223ab1ed9c7ef5b"}, {"bike_id": "a578552e647d2f48c7750dc88a8eb718", "type": "electric_scooter", "is_disabled": 0, "lat": 38.936539833333335, "rental_uris": {"ios": "https://dc.lft.to/lastmile_qr_scan", "android": "https://dc.lft.to/lastmile_qr_scan"}, "is_reserved": 0, "fusion_lon": 0.0, "fusion_lat": 0.0, "lon": -77.03343033333333, "name": "a578552e647d2f48c7750dc88a8eb718"}, {"bike_id": "714e43cfc3ea151df7360ded3be0dee4", "type": "electric_scooter", "is_disabled": 0, "lat": 38.917082, "rental_uris": {"ios": "https://dc.lft.to/lastmile_qr_scan", "android": "https://dc.lft.to/lastmile_qr_scan"}, "is_reserved": 0, "fusion_lon": 0.0, "fusion_lat": 0.0, "lon": -77.0324735, "name": "714e43cfc3ea151df7360ded3be0dee4"}, {"bike_id": "8a9dbd7234db3ff8430dcb0feb61a5b2", "type": "electric_scooter", "is_disabled": 0, "lat": 38.916034, "rental_uris": {"ios": "https://dc.lft.to/lastmile_qr_scan", "android": "https://dc.lft.to/lastmile_qr_scan"}, "is_reserved": 0, "fusion_lon": 0.0, "fusion_lat": 0.0, "lon": -77.0460925, "name": "8a9dbd7234db3ff8430dcb0feb61a5b2"}, {"bike_id": "c81b031724847bec2a26a578748db875", "type": "electric_scooter", "is_disabled": 0, "lat": 38.90144816666667, "rental_uris": {"ios": "https://dc.lft.to/lastmile_qr_scan", "android": "https://dc.lft.to/lastmile_qr_scan"}, "is_reserved": 0, "fusion_lon": 0.0, "fusion_lat": 0.0, "lon": -76.930877, "name": "c81b031724847bec2a26a578748db875"}, {"bike_id": "9ab35d5e9a93cc49000a6a7d2b42a358", "type": "electric_scooter", "is_disabled": 0, "lat": 38.8991915, "rental_uris": {"ios": "https://dc.lft.to/lastmile_qr_scan", "android": "https://dc.lft.to/lastmile_qr_scan"}, "is_reserved": 0, "fusion_lon": 0.0, "fusion_lat": 0.0, "lon": -76.9336275, "name": "9ab35d5e9a93cc49000a6a7d2b42a358"}, {"bike_id": "2723098c793a5c78ac8708a2c456c6fe", "type": "electric_scooter", "is_disabled": 0, "lat": 38.907239833333335, "rental_uris": {"ios": "https://dc.lft.to/lastmile_qr_scan", "android": "https://dc.lft.to/lastmile_qr_scan"},