{"data": {"bikes": [{"rental_uris": {"ios": "https://dc.lft.to/lastmile_qr_scan", "android": "https://dc.lft.to/lastmile_qr_scan"}, "lon": -76.938323, "type": "electric_scooter", "fusion_lat": 0.0, "lat": 38.897679333333336, "name": "c4632ec5cb5c4bc092be21fa54ba3fae", "fusion_lon": 0.0, "bike_id": "c4632ec5cb5c4bc092be21fa54ba3fae", "is_disabled": 0, "is_reserved": 0}, {"rental_uris": {"ios": "https://dc.lft.to/lastmile_qr_scan", "android": "https://dc.lft.to/lastmile_qr_scan"}, "lon": -77.004282, "type": "electric_scooter", "fusion_lat": 0.0, "lat": 38.9039475, "name": "07c1d67e74d514be8e790129d30f98be", "fusion_lon": 0.0, "bike_id": "07c1d67e74d514be8e790129d30f98be", "is_disabled": 0, "is_reserved": 0}, {"rental_uris": {"ios": "https://dc.lft.to/lastmile_qr_scan", "android": "https://dc.lft.to/lastmile_qr_scan"}, "lon": -77.03510283333334, "type": "electric_scooter", "fusion_lat": 0.0, "lat": 38.9214995, "name": "e3466e147a86aa94832b1059ddf4bdf5", "fusion_lon": 0.0, "bike_id": "e3466e147a86aa94832b1059ddf4bdf5", "is_disabled": 0, "is_reserved": 0}, {"rental_uris": {"ios": "https://dc.lft.to/lastmile_qr_scan", "android": "https://dc.lft.to/lastmile_qr_scan"}, "lon": -77.03206233333333, "type": "electric_scooter", "fusion_lat": 0.0, "lat": 38.91430033333334, "name": "d198324466875ce7a8a291f5995f8a71", "fusion_lon": 0.0, "bike_id": "d198324466875ce7a8a291f5995f8a71", "is_disabled": 0, "is_reserved": 0}, {"rental_uris": {"ios": "https://dc.lft.to/lastmile_qr_scan", "android": "https://dc.lft.to/lastmile_qr_scan"}, "lon": -77.00114966666666, "type": "electric_scooter", "fusion_lat": 0.0, "lat": 38.894345, "name": "ffc25a0df7b3c9fa3f51369601d1ecf8", "fusion_lon": 0.0, "bike_id": "ffc25a0df7b3c9fa3f51369601d1ecf8", "is_disabled": 0, "is_reserved": 0}, {"rental_uris": {"ios": "https://dc.lft.to/lastmile_qr_scan", "android": "https://dc.lft.to/lastmile_qr_scan"}, "lon": -77.04421666666667, "type": "electric_scooter", "fusion_lat": 0.0, "lat": 38.9212195, "name": "a29b8e4b407b863798db075972951289", "fusion_lon": 0.0, "bike_id": "a29b8e4b407b863798db075972951289", "is_disabled": 0, "is_reserved": 0}, {"rental_uris": {"ios": "https://dc.lft.to/lastmile_qr_scan", "android": "https://dc.lft.to/lastmile_qr_scan"}, "lon": -77.05786316666666, "type": "electric_scooter", "fusion_lat": 0.0, "lat": 38.905098, "name": "9b56ac1648e9df51c1da7080da8c8f18", "fusion_lon": 0.0, "bike_id": "9b56ac1648e9df51c1da7080da8c8f18", "is_disabled": 0, "is_reserved": 0}, {"rental_uris": {"ios": "https://dc.lft.to/lastmile_qr_scan", "android": "https://dc.lft.to/lastmile_qr_scan"}, "lon": -77.029605, "type": "electric_scooter", "fusion_lat": 0.0, "lat": 38.904903166666664, "name": "fdf71d5ef7e475552b03225bd7c9454f", "fusion_lon": 0.0, "bike_id": "fdf71d5ef7e475552b03225bd7c9454f", "is_disabled": 0, "is_reserved": 0}, {"rental_uris": {"ios": "https://dc.lft.to/lastmile_qr_scan", "android": "https://dc.lft.to/lastmile_qr_scan"}, "lon": -76.96505433333333, "type": "electric_scooter", "fusion_lat": 0.0, "lat": 38.876476333333336, "name": "fd5b6c37cc1976c6e89ba3691212c820", "fusion_lon": 0.0, "bike_id": "fd5b6c37cc1976c6e89ba3691212c820", "is_disabled": 0, "is_reserved": 0}, {"rental_uris": {"ios": "https://dc.lft.to/lastmile_qr_scan", "android": "https://dc.lft.to/lastmile_qr_scan"}, "lon": -77.02381466666667, "type": "electric_scooter", "fusion_lat": 0.0, "lat": 38.9320315, "name": "6e309e173fc248f4ad5ef8614a2b1d6d", "fusion_lon": 0.0, "bike_id": "6e309e173fc248f4ad5ef8614a2b1d6d", "is_disabled": 0, "is_reserved": 0}, {"rental_uris": {"ios": "https://dc.lft.to/lastmile_qr_scan", "android": "https://dc.lft.to/lastmile_qr_scan"}, "lon": -77.027948, "type": "electric_scooter", "fusion_lat": 0.0, "lat": 38.924714333333334, "name": "416da884397f246847115581f631b1d3", "fusion_lon": 0.0, "bike_id": "416da884397f246847115581f631b1d3", "is_disabled": 0, "is_reserved": 0}, {"rental_uris": {"ios": "https://dc.lft.to/lastmile_qr_scan", "android": "https://dc.lft.to/lastmile_qr_scan"}, "lon": -77.03014283333333, "type": "electric_scooter", "fusion_lat": 0.0, "lat": 38.89730816666667, "name": "ece32c7cf42792c0afe81985ad2f67c5", "fusion_lon": 0.0, "bike_id": "ece32c7cf42792c0afe81985ad2f67c5", "is_disabled": 0, "is_reserved": 0}, {"rental_uris": {"ios": "https://dc.lft.to/lastmile_qr_scan", "android": "https://dc.lft.to/lastmile_qr_scan"}, "lon": -77.0328315, "type": "electric_scooter", "fusion_lat": 0.0, "lat": 38.9377815, "name": "f91d331bb07eef274dd75442c40d22ce", "fusion_lon": 0.0, "bike_id": "f91d331bb07eef274dd75442c40d22ce", "is_disabled": 0, "is_reserved": 0}, {"rental_uris": {"ios": "https://dc.lft.to/lastmile_qr_scan", "android": "https://dc.lft.to/lastmile_qr_scan"}, "lon": -77.02708883333334, "type": "electric_scooter", "fusion_lat": 0.0, "lat": 38.918022, "name": "e7c99e0f81b12aeac4f98b0578d02e95", "fusion_lon": 0.0, "bike_id": "e7c99e0f81b12aeac4f98b0578d02e95", "is_disabled": 0, "is_reserved": 0}, {"rental_uris": {"ios": "https://dc.lft.to/lastmile_qr_scan", "android": "https://dc.lft.to/lastmile_qr_scan"}, "lon": -77.07938616666667, "type": "electric_scooter", "fusion_lat": 0.0, "lat": 38.94867166666667, "name": "799be7eac52c524d73970faaad36312a", "fusion_lon": 0.0, "bike_id": "799be7eac52c524d73970faaad36312a", "is_disabled": 0, "is_reserved": 0}, {"rental_uris": {"ios": "https://dc.lft.to/lastmile_qr_scan", "android": "https://dc.lft.to/lastmile_qr_scan"}, "lon": -77.04926166666667, "type": "electric_scooter", "fusion_lat": 0.0, "lat": 38.896012, "name": "b0c9f9499694567fe6403b3931d2c8bd", "fusion_lon": 0.0, "bike_id": "b0c9f9499694567fe6403b3931d2c8bd", "is_disabled": 0, "is_reserved": 0}, {"rental_uris": {"ios": "https://dc.lft.to/lastmile_qr_scan", "android": "https://dc.lft.to/lastmile_qr_scan"}, "lon": -76.9299785, "type": "electric_bike", "fusion_lat": 0.0, "lat": 38.887955, "name": "95ee4ba80ba8966b866e30e5d2c4f461", "fusion_lon": 0.0, "bike_id": "95ee4ba80ba8966b866e30e5d2c4f461", "is_disabled": 0, "is_reserved": 0}, {"rental_uris": {"ios": "https://dc.lft.to/lastmile_qr_scan", "android": "https://dc.lft.to/lastmile_qr_scan"}, "lon": -77.0258255, "type": "electric_scooter", "fusion_lat": 0.0, "lat": 38.8959485, "name": "fa0d2fe27952f52e1f0c4192d70d8fff", "fusion_lon": 0.0, "bike_id": "fa0d2fe27952f52e1f0c4192d70d8fff", "is_disabled": 0, "is_reserved": 0}, {"rental_uris": {"ios": "https://dc.lft.to/lastmile_qr_scan", "android": "https://dc.lft.to/lastmile_qr_scan"}, "lon": -77.00717416666667, "type": "electric_scooter", "fusion_lat": 0.0, "lat": 38.91343883333333, "name": "13fdb9f4e5bf36e1b3074e3223a00101", "fusion_lon": 0.0, "bike_id": "13fdb9f4e5bf36e1b3074e3223a00101", "is_disabled": 0, "is_reserved": 0}, {"rental_uris": {"ios": "https://dc.lft.to/lastmile_qr_scan", "android": "https://dc.lft.to/lastmile_qr_scan"}, "lon": -76.93958066666667, "type": "electric_scooter", "fusion_lat": 0.0, "lat": 38.89415983333333, "name": "84c87b5bfe6e0dc2c9436be020a66682", "fusion_lon": 0.0, "bike_id": "84c87b5bfe6e0dc2c9436be020a66682", "is_disabled": 0, "is_reserved": 0}, {"rental_uris": {"ios": "https://dc.lft.to/lastmile_qr_scan", "android": "https://dc.lft.to/lastmile_qr_scan"}, "lon": -77.05274783333333, "type": "electric_scooter", "fusion_lat": 0.0, "lat": 38.9101235, "name": "2a4674852a82819f7e170eb364ab402c", "fusion_lon": 0.0, "bike_id": "2a4674852a82819f7e170eb364ab402c", "is_disabled": 0, "is_reserved": 0}, {"rental_uris": {"ios": "https://dc.lft.to/lastmile_qr_scan", "android": "https://dc.lft.to/lastmile_qr_scan"}, "lon": -77.0158945, "type": "electric_scooter", "fusion_lat": 0.0, "lat": 38.8961735, "name": "11170d1b090657d17908a2fbc73746a4", "fusion_lon": 0.0, "bike_id": "11170d1b090657d17908a2fbc73746a4", "is_disabled": 0, "is_reserved": 0}, {"rental_uris": {"ios": "https://dc.lft.to/lastmile_qr_scan", "android": "https://dc.lft.to/lastmile_qr_scan"}, "lon": -77.04067966666666, "type": "electric_scooter", "fusion_lat": 0.0, "lat": 38.92654616666667, "name": "0e48d0a2b84150f1a87cda99fbc58a21", "fusion_lon": 0.0, "bike_id": "0e48d0a2b84150f1a87cda99fbc58a21", "is_disabled": 0, "is_reserved": 0}, {"rental_uris": {"ios": "https://dc.lft.to/lastmile_qr_scan", "android": "https://dc.lft.to/lastmile_qr_scan"}, "lon": -77.070447, "type": "electric_bike", "fusion_lat": 0.0, "lat": 38.824481166666665, "name": "dd06221678c33595dce49e35984fd073", "fusion_lon": 0.0, "bike_id": "dd06221678c33595dce49e35984fd073", "is_disabled": 0, "is_reserved": 0}, {"rental_uris": {"ios": "https://dc.lft.to/lastmile_qr_scan", "android": "https://dc.lft.to/lastmile_qr_scan"}, "lon": -77.06885866666667, "type": "electric_scooter", "fusion_lat": 0.0, "lat": 38.940334166666666, "name": "9a6e7cf14cd0685d964a8ccf4ecccdc2", "fusion_lon": 0.0, "bike_id": "9a6e7cf14cd0685d964a8ccf4ecccdc2", "is_disabled": 0, "is_reserved": 0}, {"rental_uris": {"ios": "https://dc.lft.to/lastmile_qr_scan", "android": "https://dc.lft.to/lastmile_qr_scan"}, "lon": -77.03959766666667, "type": "electric_scooter", "fusion_lat": 0.0, "lat": 38.90253, "name": "fad232e5bf47b1779a9e67045275b8e2", "fusion_lon": 0.0, "bike_id": "fad232e5bf47b1779a9e67045275b8e2", "is_disabled": 0, "is_reserved": 0}, {"rental_uris": {"ios": "https://dc.lft.to/lastmile_qr_scan", "android": "https://dc.lft.to/lastmile_qr_scan"}, "lon": -77.02241383333333, "type": "electric_scooter", "fusion_lat": 0.0, "lat": 38.916475, "name": "4b8e795eb748102ba1cb462874feb3d5", "fusion_lon": 0.0, "bike_id": "4b8e795eb748102ba1cb462874feb3d5", "is_disabled": 0, "is_reserved": 0}, {"rental_uris": {"ios": "https://dc.lft.to/lastmile_qr_scan", "android": "https://dc.lft.to/lastmile_qr_scan"}, "lon": -77.04138433333334, "type": "electric_scooter", "fusion_lat": 0.0, "lat": 38.9220605, "name": "d05d919f067f2527ed7021da936e9173", "fusion_lon": 0.0, "bike_id": "d05d919f067f2527ed7021da936e9173", "is_disabled": 0, "is_reserved": 0}, {"rental_uris": {"ios": "https://dc.lft.to/lastmile_qr_scan", "android": "https://dc.lft.to/lastmile_qr_scan"}, "lon": -77.06366016666666, "type": "electric_scooter", "fusion_lat": 0.0, "lat": 38.90924483333333, "name": "bcfcede9a1cf694991c1e446aa3c8861", "fusion_lon": 0.0, "bike_id": "bcfcede9a1cf694991c1e446aa3c8861", "is_disabled": 0, "is_reserved": 0}, {"rental_uris": {"ios": "https://dc.lft.to/lastmile_qr_scan", "android": "https://dc.lft.to/lastmile_qr_scan"}, "lon": -77.02168783333333, "type": "electric_scooter", "fusion_lat": 0.0, "lat": 38.9161295, "name": "9a4c868113f45bba62bc5b84bd359ad9", "fusion_lon": 0.0, "bike_id": "9a4c868113f45bba62bc5b84bd359ad9", "is_disabled": 0, "is_reserved": 0}, {"rental_uris": {"ios": "https://dc.lft.to/lastmile_qr_scan", "android": "https://dc.lft.to/lastmile_qr_scan"}, "lon": -77.043212, "type": "electric_scooter", "fusion_lat": 0.0, "lat": 38.91868683333333, "name": "4665f2e56207e04d5fbe80a51f7724ea", "fusion_lon": 0.0, "bike_id": "4665f2e56207e04d5fbe80a51f7724ea", "is_disabled": 0, "is_reserved": 0}, {"rental_uris": {"ios": "https://dc.lft.to/lastmile_qr_scan", "android": "https://dc.lft.to/lastmile_qr_scan"}, "lon": -76.99944716666667, "type": "electric_scooter", "fusion_lat": 0.0, "lat": 38.842927333333336, "name": "692195b4823053616a610df3c01ad71a", "fusion_lon": 0.0, "bike_id": "692195b4823053616a610df3c01ad71a", "is_disabled": 0, "is_reserved": 0}, {"rental_uris": {"ios": "https://dc.lft.to/lastmile_qr_scan", "android": "https://dc.lft.to/lastmile_qr_scan"}, "lon": -77.01196833333333, "type": "electric_scooter", "fusion_lat": 0.0, "lat": 38.915482, "name": "aac9378f7850268a5989b6ca241cda09", "fusion_lon": 0.0, "bike_id": "aac9378f7850268a5989b6ca241cda09", "is_disabled": 0, "is_reserved": 0}, {"rental_uris": {"ios": "https://dc.lft.to/lastmile_qr_scan", "android": "https://dc.lft.to/lastmile_qr_scan"}, "lon": -76.91599183333334, "type": "electric_bike", "fusion_lat": 0.0, "lat": 38.879796, "name": "ad3d30eac0b71f33eb74e26e5922157d", "fusion_lon": 0.0, "bike_id": "ad3d30eac0b71f33eb74e26e5922157d", "is_disabled": 0, "is_reserved": 0}, {"rental_uris": {"ios": "https://dc.lft.to/lastmile_qr_scan", "android": "https://dc.lft.to/lastmile_qr_scan"}, "lon": -77.02408333333334, "type": "electric_bike", "fusion_lat": 0.0, "lat": 38.9944135, "name": "e0173274c69297d0400e66aaeb40b7f0", "fusion_lon": 0.0, "bike_id": "e0173274c69297d0400e66aaeb40b7f0", "is_disabled": 0, "is_reserved": 0}, {"rental_uris": {"ios": "https://dc.lft.to/lastmile_qr_scan", "android": "https://dc.lft.to/lastmile_qr_scan"}, "lon": -77.0092825, "type": "electric_scooter", "fusion_lat": 0.0, "lat": 38.87198016666667, "name": "10f6a0bacda8eedb4f9032e312dd3590", "fusion_lon": 0.0, "bike_id": "10f6a0bacda8eedb4f9032e312dd3590", "is_disabled": 0, "is_reserved": 0}, {"rental_uris": {"ios": "https://dc.lft.to/lastmile_qr_scan", "android": "https://dc.lft.to/lastmile_qr_scan"}, "lon": -77.04095516666666, "type": "electric_scooter", "fusion_lat": 0.0, "lat": 38.917731833333335, "name": "17bcef2a9644d8b91ead0253b8dd825e", "fusion_lon": 0.0, "bike_id": "17bcef2a9644d8b91ead0253b8dd825e", "is_disabled": 0, "is_reserved": 0}, {"rental_uris": {"ios": "https://dc.lft.to/lastmile_qr_scan", "android": "https://dc.lft.to/lastmile_qr_scan"}, "lon": -77.02182266666667, "type": "electric_scooter", "fusion_lat": 0.0, "lat": 38.9394795, "name": "811a25b91fdca7553a758cc7aa99eb9a", "fusion_lon": 0.0, "bike_id": "811a25b91fdca7553a758cc7aa99eb9a", "is_disabled": 0, "is_reserved": 0}, {"rental_uris": {"ios": "https://dc.lft.to/lastmile_qr_scan", "android": "https://dc.lft.to/lastmile_qr_scan"}, "lon": -76.98254266666666, "type": "electric_scooter", "fusion_lat": 0.0, "lat": 38.908657166666664, "name": "1973da0d766aaa8b729a2ddfc3d9a658", "fusion_lon": 0.0, "bike_id": "1973da0d766aaa8b729a2ddfc3d9a658", "is_disabled": 0, "is_reserved": 0}, {"rental_uris": {"ios": "https://dc.lft.to/lastmile_qr_scan", "android": "https://dc.lft.to/lastmile_qr_scan"}, "lon": -77.009769, "type": "electric_scooter", "fusion_lat": 0.0, "lat": 38.919215, "name": "d25281a6ad1885baa4f6528090ec43ea", "fusion_lon": 0.0, "bike_id": "d25281a6ad1885baa4f6528090ec43ea", "is_disabled": 0, "is_reserved": 0}, {"rental_uris": {"ios": "https://dc.lft.to/lastmile_qr_scan", "android": "https://dc.lft.to/lastmile_qr_scan"}, "lon": -77.0317585, "type": "electric_scooter", "fusion_lat": 0.0, "lat": 38.913245, "name": "dab53a8745626b2e771a19d7fccc8129", "fusion_lon": 0.0, "bike_id": "dab53a8745626b2e771a19d7fccc8129", "is_disabled": 0, "is_reserved": 0}, {"rental_uris": {"ios": "https://dc.lft.to/lastmile_qr_scan", "android": "https://dc.lft.to/lastmile_qr_scan"}, "lon": -76.909578, "type": "electric_bike", "fusion_lat": 0.0, "lat": 38.85426316666667, "name": "e6118ede42c57e22c9f41c492c6a1880", "fusion_lon": 0.0, "bike_id": "e6118ede42c57e22c9f41c492c6a1880", "is_disabled": 0, "is_reserved": 0}, {"rental_uris": {"ios": "https://dc.lft.to/lastmile_qr_scan", "android": "https://dc.lft.to/lastmile_qr_scan"}, "lon": -77.03145833333333, "type": "electric_scooter", "fusion_lat": 0.0, "lat": 38.912624, "name": "f07a97f6e62db2cce8cb6f1c96d22eb4", "fusion_lon": 0.0, "bike_id": "f07a97f6e62db2cce8cb6f1c96d22eb4", "is_disabled": 0, "is_reserved": 0}, {"rental_uris": {"ios": "https://dc.lft.to/lastmile_qr_scan", "android": "https://dc.lft.to/lastmile_qr_scan"}, "lon": -76.94891233333334, "type": "electric_scooter", "fusion_lat": 0.0, "lat": 38.895287333333336, "name": "0169a34a0a2c6b8e1870502310f35fc8", "fusion_lon": 0.0, "bike_id": "0169a34a0a2c6b8e1870502310f35fc8", "is_disabled": 0, "is_reserved": 0}, {"rental_uris": {"ios": "https://dc.lft.to/lastmile_qr_scan", "android": "https://dc.lft.to/lastmile_qr_scan"}, "lon": -77.046927, "type": "electric_scooter", "fusion_lat": 0.0, "lat": 38.901194, "name": "9de9514f2825026856c9eccaf2027b5a", "fusion_lon": 0.0, "bike_id": "9de9514f2825026856c9eccaf2027b5a", "is_disabled": 0, "is_reserved": 0}, {"rental_uris": {"ios": "https://dc.lft.to/lastmile_qr_scan", "android": "https://dc.lft.to/lastmile_qr_scan"}, "lon": -76.98178716666666, "type": "electric_scooter", "fusion_lat": 0.0, "lat": 38.89578, "name": "e9718436cd150a548b5c5e99abd42f88", "fusion_lon": 0.0, "bike_id": "e9718436cd150a548b5c5e99abd42f88", "is_disabled": 0, "is_reserved": 0}, {"rental_uris": {"ios": "https://dc.lft.to/lastmile_qr_scan", "android": "https://dc.lft.to/lastmile_qr_scan"}, "lon": -77.03519666666666, "type": "electric_scooter", "fusion_lat": 0.0, "lat": 38.90665416666667, "name": "7a56f31d98c39d6969f405bf0e4f9947", "fusion_lon": 0.0, "bike_id": "7a56f31d98c39d6969f405bf0e4f9947", "is_disabled": 0, "is_reserved": 0}, {"rental_uris": {"ios": "https://dc.lft.to/lastmile_qr_scan", "android": "https://dc.lft.to/lastmile_qr_scan"}, "lon": -76.99492333333333, "type": "electric_scooter", "fusion_lat": 0.0, "lat": 38.902299, "name": "b43977511878bbd327b15878b582593b", "fusion_lon": 0.0, "bike_id": "b43977511878bbd327b15878b582593b", "is_disabled": 0, "is_reserved": 0}, {"rental_uris": {"ios": "https://dc.lft.to/lastmile_qr_scan", "android": "https://dc.lft.to/lastmile_qr_scan"}, "lon": -77.069385, "type": "electric_scooter", "fusion_lat": 0.0, "lat": 38.905116166666666, "name": "07f60c3f2db3fc89cb1c0ffe26b08d9c", "fusion_lon": 0.0, "bike_id": "07f60c3f2db3fc89cb1c0ffe26b08d9c", "is_disabled": 0, "is_reserved": 0}, {"rental_uris": {"ios": "https://dc.lft.to/lastmile_qr_scan", "android": "https://dc.lft.to/lastmile_qr_scan"}, "lon": -77.042752, "type": "electric_scooter", "fusion_lat": 0.0, "lat": 38.907870833333334, "name": "b9a02d2691558598a95411916636679a", "fusion_lon": 0.0, "bike_id": "b9a02d2691558598a95411916636679a", "is_disabled": 0, "is_reserved": 0}, {"rental_uris": {"ios": "https://dc.lft.to/lastmile_qr_scan", "android": "https://dc.lft.to/lastmile_qr_scan"}, "lon": -77.016412, "type": "electric_scooter", "fusion_lat": 0.0, "lat": 38.92936066666667, "name": "b12462216907019fa6cf2070eb30b5b4", "fusion_lon": 0.0, "bike_id": "b12462216907019fa6cf2070eb30b5b4", "is_disabled": 0, "is_reserved": 0}, {"rental_uris": {"ios": "https://dc.lft.to/lastmile_qr_scan", "android": "https://dc.lft.to/lastmile_qr_scan"}, "lon": -77.0515525, "type": "electric_scooter", "fusion_lat": 0.0, "lat": 38.92385083333333, "name": "7970570e06fe0e962e2ccf351034ddcd", "fusion_lon": 0.0, "bike_id": "7970570e06fe0e962e2ccf351034ddcd", "is_disabled": 0, "is_reserved": 0}, {"rental_uris": {"ios": "https://dc.lft.to/lastmile_qr_scan", "android": "https://dc.lft.to/lastmile_qr_scan"}, "lon": -77.0600515, "type": "electric_scooter", "fusion_lat": 0.0, "lat": 38.905163333333334, "name": "ce067fdde3c4cb9c4b0277ac8fa7cf66", "fusion_lon": 0.0, "bike_id": "ce067fdde3c4cb9c4b0277ac8fa7cf66", "is_disabled": 0, "is_reserved": 0}, {"rental_uris": {"ios": "https://dc.lft.to/lastmile_qr_scan", "android": "https://dc.lft.to/lastmile_qr_scan"}, "lon": -77.02541766666667, "type": "electric_scooter", "fusion_lat": 0.0, "lat": 38.914866333333336, "name": "2ff4e890da4f86409f426491970dd0d8", "fusion_lon": 0.0, "bike_id": "2ff4e890da4f86409f426491970dd0d8", "is_disabled": 0, "is_reserved": 0}, {"rental_uris": {"ios": "https://dc.lft.to/lastmile_qr_scan", "android": "https://dc.lft.to/lastmile_qr_scan"}, "lon": -77.02192883333333, "type": "electric_scooter", "fusion_lat": 0.0, "lat": 38.914152333333334, "name": "623ee177db1ecdccf782e55685cda9cc", "fusion_lon": 0.0, "bike_id": "623ee177db1ecdccf782e55685cda9cc", "is_disabled": 0, "is_reserved": 0}, {"rental_uris": {"ios": "https://dc.lft.to/lastmile_qr_scan", "android": "https://dc.lft.to/lastmile_qr_scan"}, "lon": -77.0089145, "type": "electric_scooter", "fusion_lat": 0.0, "lat": 38.90518216666667, "name": "dcfae94ebd4f918b4e0becf745e8eda2", "fusion_lon": 0.0, "bike_id": "dcfae94ebd4f918b4e0becf745e8eda2", "is_disabled": 0, "is_reserved": 0}, {"rental_uris": {"ios": "https://dc.lft.to/lastmile_qr_scan", "android": "https://dc.lft.to/lastmile_qr_scan"}, "lon": -77.0358485, "type": "electric_scooter", "fusion_lat": 0.0, "lat": 38.907583333333335, "name": "9ceb83f5539ce8af93ccd80cbf2f8465", "fusion_lon": 0.0, "bike_id": "9ceb83f5539ce8af93ccd80cbf2f8465", "is_disabled": 0, "is_reserved": 0}, {"rental_uris": {"ios": "https://dc.lft.to/lastmile_qr_scan", "android": "https://dc.lft.to/lastmile_qr_scan"}, "lon": -77.0250945, "type": "electric_scooter", "fusion_lat": 0.0, "lat": 38.90204416666667, "name": "d5724b3bc1d4fb975a863797a6498eaa", "fusion_lon": 0.0, "bike_id": "d5724b3bc1d4fb975a863797a6498eaa", "is_disabled": 0, "is_reserved": 0}, {"rental_uris": {"ios": "https://dc.lft.to/lastmile_qr_scan", "android": "https://dc.lft.to/lastmile_qr_scan"}, "lon": -77.05506716666666, "type": "electric_scooter", "fusion_lat": 0.0, "lat": 38.92969316666667, "name": "0ea80014dfc5a5a3dd689b19a46b83b6", "fusion_lon": 0.0, "bike_id": "0ea80014dfc5a5a3dd689b19a46b83b6", "is_disabled": 0, "is_reserved": 0}, {"rental_uris": {"ios": "https://dc.lft.to/lastmile_qr_scan", "android": "https://dc.lft.to/lastmile_qr_scan"}, "lon": -77.02613783333334, "type": "electric_scooter", "fusion_lat": 0.0, "lat": 38.9518475, "name": "205e070c249da41c6df7c5d96cdd97ce", "fusion_lon": 0.0, "bike_id": "205e070c249da41c6df7c5d96cdd97ce", "is_disabled": 0, "is_reserved": 0}, {"rental_uris": {"ios": "https://dc.lft.to/lastmile_qr_scan", "android": "https://dc.lft.to/lastmile_qr_scan"}, "lon": -77.02414966666667, "type": "electric_scooter", "fusion_lat": 0.0, "lat": 38.9177285, "name": "6258767b2a00c11fd730e51b97d3f232", "fusion_lon": 0.0, "bike_id": "6258767b2a00c11fd730e51b97d3f232", "is_disabled": 0, "is_reserved": 0}, {"rental_uris": {"ios": "https://dc.lft.to/lastmile_qr_scan", "android": "https://dc.lft.to/lastmile_qr_scan"}, "lon": -77.04185966666667, "type": "electric_scooter", "fusion_lat": 0.0, "lat": 38.92199983333333, "name": "3e1222142609267f53873cd60c330e85", "fusion_lon": 0.0, "bike_id": "3e1222142609267f53873cd60c330e85", "is_disabled": 0, "is_reserved": 0}, {"rental_uris": {"ios": "https://dc.lft.to/lastmile_qr_scan", "android": "https://dc.lft.to/lastmile_qr_scan"}, "lon": -77.03954516666667, "type": "electric_scooter", "fusion_lat": 0.0, "lat": 38.92613133333333, "name": "da7be0d1234f8cc4b7e6daf0299b7c61", "fusion_lon": 0.0, "bike_id": "da7be0d1234f8cc4b7e6daf0299b7c61", "is_disabled": 0, "is_reserved": 0}, {"rental_uris": {"ios": "https://dc.lft.to/lastmile_qr_scan", "android": "https://dc.lft.to/lastmile_qr_scan"}, "lon": -77.0363165, "type": "electric_scooter", "fusion_lat": 0.0, "lat": 38.903394666666664, "name": "9dee38a6ebc282ccbc09e4137e8cf5a9", "fusion_lon": 0.0, "bike_id": "9dee38a6ebc282ccbc09e4137e8cf5a9", "is_disabled": 0, "is_reserved": 0}, {"rental_uris": {"ios": "https://dc.lft.to/lastmile_qr_scan", "android": "https://dc.lft.to/lastmile_qr_scan"}, "lon": -77.02355666666666, "type": "electric_scooter", "fusion_lat": 0.0, "lat": 38.93197883333333, "name": "ce4032740257f1f3e2c02b11bbdcc6cc", "fusion_lon": 0.0, "bike_id": "ce4032740257f1f3e2c02b11bbdcc6cc", "is_disabled": 0, "is_reserved": 0}, {"rental_uris": {"ios": "https://dc.lft.to/lastmile_qr_scan", "android": "https://dc.lft.to/lastmile_qr_scan"}, "lon": -77.02988266666667, "type": "electric_scooter", "fusion_lat": 0.0, "lat": 38.9563145, "name": "74dccdd08805669b69b7ba5078c29fa4", "fusion_lon": 0.0, "bike_id": "74dccdd08805669b69b7ba5078c29fa4", "is_disabled": 0, "is_reserved": 0}, {"rental_uris": {"ios": "https://dc.lft.to/lastmile_qr_scan", "android": "https://dc.lft.to/lastmile_qr_scan"}, "lon": -77.026688, "type": "electric_scooter", "fusion_lat": 0.0, "lat": 38.975452, "name": "62926bab0014f8f4392ae758efcc53aa", "fusion_lon": 0.0, "bike_id": "62926bab0014f8f4392ae758efcc53aa", "is_disabled": 0, "is_reserved": 0}, {"rental_uris": {"ios": "https://dc.lft.to/lastmile_qr_scan", "android": "https://dc.lft.to/lastmile_qr_scan"}, "lon": -77.07093783333333, "type": "electric_scooter", "fusion_lat": 0.0, "lat": 38.933672, "name": "a7e3b829baf574c4f4d8f02911ac305c", "fusion_lon": 0.0, "bike_id": "a7e3b829baf574c4f4d8f02911ac305c", "is_disabled": 0, "is_reserved": 0}, {"rental_uris": {"ios": "https://dc.lft.to/lastmile_qr_scan", "android": "https://dc.lft.to/lastmile_qr_scan"}, "lon": -77.03868483333333, "type": "electric_scooter", "fusion_lat": 0.0, "lat": 38.91270883333333, "name": "2e6e8609f6b698e7db20c0de4a497d9c", "fusion_lon": 0.0, "bike_id": "2e6e8609f6b698e7db20c0de4a497d9c", "is_disabled": 0, "is_reserved": 0}, {"rental_uris": {"ios": "https://dc.lft.to/lastmile_qr_scan", "android": "https://dc.lft.to/lastmile_qr_scan"}, "lon": -76.93240833333333, "type": "electric_bike", "fusion_lat": 0.0, "lat": 38.88278433333333, "name": "7032436c8a3e9efc3b25d34a53fc8f8a", "fusion_lon": 0.0, "bike_id": "7032436c8a3e9efc3b25d34a53fc8f8a", "is_disabled": 0, "is_reserved": 0}, {"rental_uris": {"ios": "https://dc.lft.to/lastmile_qr_scan", "android": "https://dc.lft.to/lastmile_qr_scan"}, "lon": -76.98203583333333, "type": "electric_scooter", "fusion_lat": 0.0, "lat": 38.89089333333333, "name": "0b1b3a184600b73542b9d6d1c6aba261", "fusion_lon": 0.0, "bike_id": "0b1b3a184600b73542b9d6d1c6aba261", "is_disabled": 0, "is_reserved": 0}, {"rental_uris": {"ios": "https://dc.lft.to/lastmile_qr_scan", "android": "https://dc.lft.to/lastmile_qr_scan"}, "lon": -77.047009, "type": "electric_scooter", "fusion_lat": 0.0, "lat": 38.905749166666666, "name": "6b8440059ee15d54c69d9c7bf6304c41", "fusion_lon": 0.0, "bike_id": "6b8440059ee15d54c69d9c7bf6304c41", "is_disabled": 0, "is_reserved": 0}, {"rental_uris": {"ios": "https://dc.lft.to/lastmile_qr_scan", "android": "https://dc.lft.to/lastmile_qr_scan"}, "lon": -77.03026283333334, "type": "electric_scooter", "fusion_lat": 0.0, "lat": 38.922468333333335, "name": "e9b5034f98b8ff04325350c1853eeabb", "fusion_lon": 0.0, "bike_id": "e9b5034f98b8ff04325350c1853eeabb", "is_disabled": 0, "is_reserved": 0}, {"rental_uris": {"ios": "https://dc.lft.to/lastmile_qr_scan", "android": "https://dc.lft.to/lastmile_qr_scan"}, "lon": -76.99944466666666, "type": "electric_scooter", "fusion_lat": 0.0, "lat": 38.842897, "name": "63d6ec70524e0b282d6151c7cb0c6e90", "fusion_lon": 0.0, "bike_id": "63d6ec70524e0b282d6151c7cb0c6e90", "is_disabled": 0, "is_reserved": 0}, {"rental_uris": {"ios": "https://dc.lft.to/lastmile_qr_scan", "android": "https://dc.lft.to/lastmile_qr_scan"}, "lon": -76.991792, "type": "electric_scooter", "fusion_lat": 0.0, "lat": 38.904558333333334, "name": "edf40190c4e0c56feb823afe29a2964a", "fusion_lon": 0.0, "bike_id": "edf40190c4e0c56feb823afe29a2964a", "is_disabled": 0, "is_reserved": 0}, {"rental_uris": {"ios": "https://dc.lft.to/lastmile_qr_scan", "android": "https://dc.lft.to/lastmile_qr_scan"}, "lon": -76.90830333333334, "type": "electric_bike", "fusion_lat": 0.0, "lat": 39.002561166666666, "name": "72a071d349f08ddce4a85e36fd10f22f", "fusion_lon": 0.0, "bike_id": "72a071d349f08ddce4a85e36fd10f22f", "is_disabled": 0, "is_reserved": 0}, {"rental_uris": {"ios": "https://dc.lft.to/lastmile_qr_scan", "android": "https://dc.lft.to/lastmile_qr_scan"}, "lon": -77.11219466666667, "type": "electric_bike", "fusion_lat": 0.0, "lat": 38.82869016666667, "name": "39afc6c5977c2528703bd81af844a18a", "fusion_lon": 0.0, "bike_id": "39afc6c5977c2528703bd81af844a18a", "is_disabled": 0, "is_reserved": 0}, {"rental_uris": {"ios": "https://dc.lft.to/lastmile_qr_scan", "android": "https://dc.lft.to/lastmile_qr_scan"}, "lon": -77.024849, "type": "electric_scooter", "fusion_lat": 0.0, "lat": 38.937569833333335, "name": "fe7fedb24c572c0f57ac9e3b9e308205", "fusion_lon": 0.0, "bike_id": "fe7fedb24c572c0f57ac9e3b9e308205", "is_disabled": 0, "is_reserved": 0}, {"rental_uris": {"ios": "https://dc.lft.to/lastmile_qr_scan", "android": "https://dc.lft.to/lastmile_qr_scan"}, "lon": -77.03355916666666, "type": "electric_scooter", "fusion_lat": 0.0, "lat": 38.89234366666667, "name": "1694d1069dc18d747f678a07033c4c85", "fusion_lon": 0.0, "bike_id": "1694d1069dc18d747f678a07033c4c85", "is_disabled": 0, "is_reserved": 0}, {"rental_uris": {"ios": "https://dc.lft.to/lastmile_qr_scan", "android": "https://dc.lft.to/lastmile_qr_scan"}, "lon": -77.023472, "type": "electric_scooter", "fusion_lat": 0.0, "lat": 38.9155495, "name": "c366d28acdb035ede2da90b04f9ebb25", "fusion_lon": 0.0, "bike_id": "c366d28acdb035ede2da90b04f9ebb25", "is_disabled": 0, "is_reserved": 0}, {"rental_uris": {"ios": "https://dc.lft.to/lastmile_qr_scan", "android": "https://dc.lft.to/lastmile_qr_scan"}, "lon": -77.00250733333333, "type": "electric_scooter", "fusion_lat": 0.0, "lat": 38.91920366666667, "name": "8c95e3b7903041795cf0a837ae9cf520", "fusion_lon": 0.0, "bike_id": "8c95e3b7903041795cf0a837ae9cf520", "is_disabled": 0, "is_reserved": 0}, {"rental_uris": {"ios": "https://dc.lft.to/lastmile_qr_scan", "android": "https://dc.lft.to/lastmile_qr_scan"}, "lon": -77.007562, "type": "electric_scooter", "fusion_lat": 0.0, "lat": 38.871082333333334, "name": "ae95fe4182254992ea120648ef4f974e", "fusion_lon": 0.0, "bike_id": "ae95fe4182254992ea120648ef4f974e", "is_disabled": 0, "is_reserved": 0}, {"rental_uris": {"ios": "https://dc.lft.to/lastmile_qr_scan", "android": "https://dc.lft.to/lastmile_qr_scan"}, "lon": -76.946324, "type": "electric_scooter", "fusion_lat": 0.0, "lat": 38.898401666666665, "name": "ad43eb2831fe7eccea2453d378bc539e", "fusion_lon": 0.0, "bike_id": "ad43eb2831fe7eccea2453d378bc539e", "is_disabled": 0, "is_reserved": 0}, {"rental_uris": {"ios": "https://dc.lft.to/lastmile_qr_scan", "android": "https://dc.lft.to/lastmile_qr_scan"}, "lon": -77.03231683333334, "type": "electric_scooter", "fusion_lat": 0.0, "lat": 38.91401616666667, "name": "48ee33ede4021c00d019615f142735cc", "fusion_lon": 0.0, "bike_id": "48ee33ede4021c00d019615f142735cc", "is_disabled": 0, "is_reserved": 0}, {"rental_uris": {"ios": "https://dc.lft.to/lastmile_qr_scan", "android": "https://dc.lft.to/lastmile_qr_scan"}, "lon": -77.03204166666667, "type": "electric_scooter", "fusion_lat": 0.0, "lat": 38.916983333333334, "name": "6fe3b7b3fa04259bfbaa606e4bcf0349", "fusion_lon": 0.0, "bike_id": "6fe3b7b3fa04259bfbaa606e4bcf0349", "is_disabled": 0, "is_reserved": 0}, {"rental_uris": {"ios": "https://dc.lft.to/lastmile_qr_scan", "android": "https://dc.lft.to/lastmile_qr_scan"}, "lon": -76.98355816666667, "type": "electric_scooter", "fusion_lat": 0.0, "lat": 38.91526433333333, "name": "3b53be4a289d2aeae295eaa106d8fd22", "fusion_lon": 0.0, "bike_id": "3b53be4a289d2aeae295eaa106d8fd22", "is_disabled": 0, "is_reserved": 0}, {"rental_uris": {"ios": "https://dc.lft.to/lastmile_qr_scan", "android": "https://dc.lft.to/lastmile_qr_scan"}, "lon": -77.03218, "type": "electric_scooter", "fusion_lat": 0.0, "lat": 38.91193416666667, "name": "9103bc5f2d7f705ff0dd4add5e036f3c", "fusion_lon": 0.0, "bike_id": "9103bc5f2d7f705ff0dd4add5e036f3c", "is_disabled": 0, "is_reserved": 0}, {"rental_uris": {"ios": "https://dc.lft.to/lastmile_qr_scan", "android": "https://dc.lft.to/lastmile_qr_scan"}, "lon": -77.022025, "type": "electric_scooter", "fusion_lat": 0.0, "lat": 38.88393033333333, "name": "1daaac4133b3b27fb20b0542e3552dd4", "fusion_lon": 0.0, "bike_id": "1daaac4133b3b27fb20b0542e3552dd4", "is_disabled": 0, "is_reserved": 0}, {"rental_uris": {"ios": "https://dc.lft.to/lastmile_qr_scan", "android": "https://dc.lft.to/lastmile_qr_scan"}, "lon": -76.997738, "type": "electric_scooter", "fusion_lat": 0.0, "lat": 38.84427266666667, "name": "9e684af4109f7a73bf4bfc5bbb497d1f", "fusion_lon": 0.0, "bike_id": "9e684af4109f7a73bf4bfc5bbb497d1f", "is_disabled": 0, "is_reserved": 0}, {"rental_uris": {"ios": "https://dc.lft.to/lastmile_qr_scan", "android": "https://dc.lft.to/lastmile_qr_scan"}, "lon": -77.06609366666666, "type": "electric_scooter", "fusion_lat": 0.0, "lat": 38.905185333333336, "name": "358d3dd4360c43603f74f86d673f6418", "fusion_lon": 0.0, "bike_id": "358d3dd4360c43603f74f86d673f6418", "is_disabled": 0, "is_reserved": 0}, {"rental_uris": {"ios": "https://dc.lft.to/lastmile_qr_scan", "android": "https://dc.lft.to/lastmile_qr_scan"}, "lon": -76.99948866666666, "type": "electric_bike", "fusion_lat": 0.0, "lat": 38.9233985, "name": "17bcf63ae953964e3b4f43cca167c250", "fusion_lon": 0.0, "bike_id": "17bcf63ae953964e3b4f43cca167c250", "is_disabled": 0, "is_reserved": 0}, {"rental_uris": {"ios": "https://dc.lft.to/lastmile_qr_scan", "android": "https://dc.lft.to/lastmile_qr_scan"}, "lon": -77.03692166666667, "type": "electric_scooter", "fusion_lat": 0.0, "lat": 38.9275735, "name": "ad42b45ef0229acf6458e4ee6b5ed422", "fusion_lon": 0.0, "bike_id": "ad42b45ef0229acf6458e4ee6b5ed422", "is_disabled": 0, "is_reserved": 0}, {"rental_uris": {"ios": "https://dc.lft.to/lastmile_qr_scan", "android": "https://dc.lft.to/lastmile_qr_scan"}, "lon": -77.01548383333333, "type": "electric_scooter", "fusion_lat": 0.0, "lat": 38.8725845, "name": "1b0030daf32ca3aa02ea9b7bf2023714", "fusion_lon": 0.0, "bike_id": "1b0030daf32ca3aa02ea9b7bf2023714", "is_disabled": 0, "is_reserved": 0}, {"rental_uris": {"ios": "https://dc.lft.to/lastmile_qr_scan", "android": "https://dc.lft.to/lastmile_qr_scan"}, "lon": -77.04986466666666, "type": "electric_scooter", "fusion_lat": 0.0, "lat": 38.8960705, "name": "556e78a9d3e33ae64261797e2fa66294", "fusion_lon": 0.0, "bike_id": "556e78a9d3e33ae64261797e2fa66294", "is_disabled": 0, "is_reserved": 0}, {"rental_uris": {"ios": "https://dc.lft.to/lastmile_qr_scan", "android": "https://dc.lft.to/lastmile_qr_scan"}, "lon": -77.00726316666666, "type": "electric_scooter", "fusion_lat": 0.0, "lat": 38.90375133333333, "name": "bfee8bfb2da11b02f80e5f932a06a711", "fusion_lon": 0.0, "bike_id": "bfee8bfb2da11b02f80e5f932a06a711", "is_disabled": 0, "is_reserved": 0}, {"rental_uris": {"ios": "https://dc.lft.to/lastmile_qr_scan", "android": "https://dc.lft.to/lastmile_qr_scan"}, "lon": -77.049528, "type": "electric_scooter", "fusion_lat": 0.0, "lat": 38.89739733333333, "name": "58443195c713b5a1c563288be2f20ad2", "fusion_lon": 0.0, "bike_id": "58443195c713b5a1c563288be2f20ad2", "is_disabled": 0, "is_reserved": 0}, {"rental_uris": {"ios": "https://dc.lft.to/lastmile_qr_scan", "android": "https://dc.lft.to/lastmile_qr_scan"}, "lon": -77.03382233333333, "type": "electric_scooter", "fusion_lat": 0.0, "lat": 38.8995395, "name": "40b9a4e9eac5b6e53ef12a4ddc76737d", "fusion_lon": 0.0, "bike_id": "40b9a4e9eac5b6e53ef12a4ddc76737d", "is_disabled": 0, "is_reserved": 0}, {"rental_uris": {"ios": "https://dc.lft.to/lastmile_qr_scan", "android": "https://dc.lft.to/lastmile_qr_scan"}, "lon": -76.9799505, "type": "electric_bike", "fusion_lat": 0.0, "lat": 38.877424166666664, "name": "22a28459036d0f89b276e9ddcbd11493", "fusion_lon": 0.0, "bike_id": "22a28459036d0f89b276e9ddcbd11493", "is_disabled": 0, "is_reserved": 0}, {"rental_uris": {"ios": "https://dc.lft.to/lastmile_qr_scan", "android": "https://dc.lft.to/lastmile_qr_scan"}, "lon": -77.03291183333333, "type": "electric_scooter", "fusion_lat": 0.0, "lat": 38.922146166666664, "name": "d6b1f5756af0e0c98d0e2e1bcd3aeb31", "fusion_lon": 0.0, "bike_id": "d6b1f5756af0e0c98d0e2e1bcd3aeb31", "is_disabled": 0, "is_reserved": 0}, {"rental_uris": {"ios": "https://dc.lft.to/lastmile_qr_scan", "android": "https://dc.lft.to/lastmile_qr_scan"}, "lon": -77.3609595, "type": "electric_bike", "fusion_lat": 0.0, "lat": 38.93952983333333, "name": "f1db8e19b81cd72e924a0e16b86232b3", "fusion_lon": 0.0, "bike_id": "f1db8e19b81cd72e924a0e16b86232b3", "is_disabled": 0, "is_reserved": 0}, {"rental_uris": {"ios": "https://dc.lft.to/lastmile_qr_scan", "android": "https://dc.lft.to/lastmile_qr_scan"}, "lon": -77.03939466666667, "type": "electric_scooter", "fusion_lat": 0.0, "lat": 38.900246833333334, "name": "076e5902f2bee89ffd250e0e1a1e578b", "fusion_lon": 0.0, "bike_id": "076e5902f2bee89ffd250e0e1a1e578b", "is_disabled": 0, "is_reserved": 0}, {"rental_uris": {"ios": "https://dc.lft.to/lastmile_qr_scan", "android": "https://dc.lft.to/lastmile_qr_scan"}, "lon": -77.0209475, "type": "electric_scooter", "fusion_lat": 0.0, "lat": 38.910092166666665, "name": "a78156b3ae3a52a14074524421682225", "fusion_lon": 0.0, "bike_id": "a78156b3ae3a52a14074524421682225", "is_disabled": 0, "is_reserved": 0}, {"rental_uris": {"ios": "https://dc.lft.to/lastmile_qr_scan", "android": "https://dc.lft.to/lastmile_qr_scan"}, "lon": -77.03208316666667, "type": "electric_scooter", "fusion_lat": 0.0, "lat": 38.91473933333333, "name": "0fc554fb2cbb8952b12c3a6ac3e6ccc3", "fusion_lon": 0.0, "bike_id": "0fc554fb2cbb8952b12c3a6ac3e6ccc3", "is_disabled": 0, "is_reserved": 0}, {"rental_uris": {"ios": "https://dc.lft.to/lastmile_qr_scan", "android": "https://dc.lft.to/lastmile_qr_scan"}, "lon": -77.04102216666666, "type": "electric_scooter", "fusion_lat": 0.0, "lat": 38.91774516666667, "name": "1462fe0bb5ef26887ffe5f911ecd9511", "fusion_lon": 0.0, "bike_id": "1462fe0bb5ef26887ffe5f911ecd9511", "is_disabled": 0, "is_reserved": 0}, {"rental_uris": {"ios": "https://dc.lft.to/lastmile_qr_scan", "android": "https://dc.lft.to/lastmile_qr_scan"}, "lon": -76.976192, "type": "electric_scooter", "fusion_lat": 0.0, "lat": 38.90381283333333, "name": "28eb7ebcd96f4899470456fc6471c6a9", "fusion_lon": 0.0, "bike_id": "28eb7ebcd96f4899470456fc6471c6a9", "is_disabled": 0, "is_reserved": 0}, {"rental_uris": {"ios": "https://dc.lft.to/lastmile_qr_scan", "android": "https://dc.lft.to/lastmile_qr_scan"}, "lon": -77.03180166666667, "type": "electric_scooter", "fusion_lat": 0.0, "lat": 38.917412, "name": "76432d0193d75b8e5328c9d9ce3f5323", "fusion_lon": 0.0, "bike_id": "76432d0193d75b8e5328c9d9ce3f5323", "is_disabled": 0, "is_reserved": 0}, {"rental_uris": {"ios": "https://dc.lft.to/lastmile_qr_scan", "android": "https://dc.lft.to/lastmile_qr_scan"}, "lon": -76.9463325, "type": "electric_scooter", "fusion_lat": 0.0, "lat": 38.89832166666667, "name": "ce1b7849624ab0a0d6e9217f543b6ce3", "fusion_lon": 0.0, "bike_id": "ce1b7849624ab0a0d6e9217f543b6ce3", "is_disabled": 0, "is_reserved": 0}, {"rental_uris": {"ios": "https://dc.lft.to/lastmile_qr_scan", "android": "https://dc.lft.to/lastmile_qr_scan"}, "lon": -77.03777566666666, "type": "electric_scooter", "fusion_lat": 0.0, "lat": 38.92621616666667, "name": "1c6b2cb0cf08129bd5e265e0111c47f1", "fusion_lon": 0.0, "bike_id": "1c6b2cb0cf08129bd5e265e0111c47f1", "is_disabled": 0, "is_reserved": 0}, {"rental_uris": {"ios": "https://dc.lft.to/lastmile_qr_scan", "android": "https://dc.lft.to/lastmile_qr_scan"}, "lon": -76.97739266666666, "type": "electric_scooter", "fusion_lat": 0.0, "lat": 38.900071833333335, "name": "6943eb3d4b2ef6f8c1ed05189ab0b70e", "fusion_lon": 0.0, "bike_id": "6943eb3d4b2ef6f8c1ed05189ab0b70e", "is_disabled": 0, "is_reserved": 0}, {"rental_uris": {"ios": "https://dc.lft.to/lastmile_qr_scan", "android": "https://dc.lft.to/lastmile_qr_scan"}, "lon": -77.10707983333333, "type": "electric_bike", "fusion_lat": 0.0, "lat": 38.855323, "name": "3ecf206896dd0def67d62bb0c5c09239", "fusion_lon": 0.0, "bike_id": "3ecf206896dd0def67d62bb0c5c09239", "is_disabled": 0, "is_reserved": 0}, {"rental_uris": {"ios": "https://dc.lft.to/lastmile_qr_scan", "android": "https://dc.lft.to/lastmile_qr_scan"}, "lon": -76.95759966666667, "type": "electric_bike", "fusion_lat": 0.0, "lat": 38.88409383333333, "name": "0e6d07973f46886792ea7941c64b1eb7", "fusion_lon": 0.0, "bike_id": "0e6d07973f46886792ea7941c64b1eb7", "is_disabled": 0, "is_reserved": 0}, {"rental_uris": {"ios": "https://dc.lft.to/lastmile_qr_scan", "android": "https://dc.lft.to/lastmile_qr_scan"}, "lon": -76.87818333333334, "type": "electric_bike", "fusion_lat": 0.0, "lat": 38.992310333333336, "name": "ea2633838612739bd0eb74d96258d63d", "fusion_lon": 0.0, "bike_id": "ea2633838612739bd0eb74d96258d63d", "is_disabled": 0, "is_reserved": 0}, {"rental_uris": {"ios": "https://dc.lft.to/lastmile_qr_scan", "android": "https://dc.lft.to/lastmile_qr_scan"}, "lon": -77.020732, "type": "electric_scooter", "fusion_lat": 0.0, "lat": 38.9014725, "name": "63ed8e194cd4d23ca2330b511f167329", "fusion_lon": 0.0, "bike_id": "63ed8e194cd4d23ca2330b511f167329", "is_disabled": 0, "is_reserved": 0}, {"rental_uris": {"ios": "https://dc.lft.to/lastmile_qr_scan", "android": "https://dc.lft.to/lastmile_qr_scan"}, "lon": -77.0324905, "type": "electric_scooter", "fusion_lat": 0.0, "lat": 38.92871233333334, "name": "45568be9944a30e941e2141e06b3e8d3", "fusion_lon": 0.0, "bike_id": "45568be9944a30e941e2141e06b3e8d3", "is_disabled": 0, "is_reserved": 0}, {"rental_uris": {"ios": "https://dc.lft.to/lastmile_qr_scan", "android": "https://dc.lft.to/lastmile_qr_scan"}, "lon": -77.0161995, "type": "electric_scooter", "fusion_lat": 0.0, "lat": 38.87867766666667, "name": "9c742d93bc80f95f60cf05d32bdd4e13", "fusion_lon": 0.0, "bike_id": "9c742d93bc80f95f60cf05d32bdd4e13", "is_disabled": 0, "is_reserved": 0}, {"rental_uris": {"ios": "https://dc.lft.to/lastmile_qr_scan", "android": "https://dc.lft.to/lastmile_qr_scan"}, "lon": -77.04566533333333, "type": "electric_scooter", "fusion_lat": 0.0, "lat": 38.908548, "name": "375349ca41edaa781ca16aca123f4592", "fusion_lon": 0.0, "bike_id": "375349ca41edaa781ca16aca123f4592", "is_disabled": 0, "is_reserved": 0}, {"rental_uris": {"ios": "https://dc.lft.to/lastmile_qr_scan", "android": "https://dc.lft.to/lastmile_qr_scan"}, "lon": -77.0279605, "type": "electric_scooter", "fusion_lat": 0.0, "lat": 38.90665416666667, "name": "1d71d66f56424787967c72d6fc4606a4", "fusion_lon": 0.0, "bike_id": "1d71d66f56424787967c72d6fc4606a4", "is_disabled": 0, "is_reserved": 0}, {"rental_uris": {"ios": "https://dc.lft.to/lastmile_qr_scan", "android": "https://dc.lft.to/lastmile_qr_scan"}, "lon": -77.03405833333333, "type": "electric_bike", "fusion_lat": 0.0, "lat": 38.900236, "name": "80b08ff6543a452c5028746f00461962", "fusion_lon": 0.0, "bike_id": "80b08ff6543a452c5028746f00461962", "is_disabled": 0, "is_reserved": 0}, {"rental_uris": {"ios": "https://dc.lft.to/lastmile_qr_scan", "android": "https://dc.lft.to/lastmile_qr_scan"}, "lon": -77.02815366666667, "type": "electric_scooter", "fusion_lat": 0.0, "lat": 38.91656716666667, "name": "4a5e75d1650d3692e47271cb2bfa0e69", "fusion_lon": 0.0, "bike_id": "4a5e75d1650d3692e47271cb2bfa0e69", "is_disabled": 0, "is_reserved": 0}, {"rental_uris": {"ios": "https://dc.lft.to/lastmile_qr_scan", "android": "https://dc.lft.to/lastmile_qr_scan"}, "lon": -77.0355905, "type": "electric_scooter", "fusion_lat": 0.0, "lat": 38.90830033333334, "name": "3c2c3c80a73d574cd4310d4cda022b2b", "fusion_lon": 0.0, "bike_id": "3c2c3c80a73d574cd4310d4cda022b2b", "is_disabled": 0, "is_reserved": 0}, {"rental_uris": {"ios": "https://dc.lft.to/lastmile_qr_scan", "android": "https://dc.lft.to/lastmile_qr_scan"}, "lon": -77.03197916666667, "type": "electric_scooter", "fusion_lat": 0.0, "lat": 38.92679916666667, "name": "7271dc2288ba24b43a7a69d5cf54b474", "fusion_lon": 0.0, "bike_id": "7271dc2288ba24b43a7a69d5cf54b474", "is_disabled": 0, "is_reserved": 0}, {"rental_uris": {"ios": "https://dc.lft.to/lastmile_qr_scan", "android": "https://dc.lft.to/lastmile_qr_scan"}, "lon": -77.040562, "type": "electric_scooter", "fusion_lat": 0.0, "lat": 38.92704833333333, "name": "e342a5a373398343c800c586f4313bb1", "fusion_lon": 0.0, "bike_id": "e342a5a373398343c800c586f4313bb1", "is_disabled": 0, "is_reserved": 0}, {"rental_uris": {"ios": "https://dc.lft.to/lastmile_qr_scan", "android": "https://dc.lft.to/lastmile_qr_scan"}, "lon": -77.09867383333334, "type": "electric_bike", "fusion_lat": 0.0, "lat": 38.8536105, "name": "ea24505ef313e97767de795b917011e9", "fusion_lon": 0.0, "bike_id": "ea24505ef313e97767de795b917011e9", "is_disabled": 0, "is_reserved": 0}, {"rental_uris": {"ios": "https://dc.lft.to/lastmile_qr_scan", "android": "https://dc.lft.to/lastmile_qr_scan"}, "lon": -77.02795233333333, "type": "electric_scooter", "fusion_lat": 0.0, "lat": 38.9297235, "name": "1a4b110276c55113aa02c8240b3786a9", "fusion_lon": 0.0, "bike_id": "1a4b110276c55113aa02c8240b3786a9", "is_disabled": 0, "is_reserved": 0}, {"rental_uris": {"ios": "https://dc.lft.to/lastmile_qr_scan", "android": "https://dc.lft.to/lastmile_qr_scan"}, "lon": -77.09956666666666, "type": "electric_bike", "fusion_lat": 0.0, "lat": 38.85791366666667, "name": "a6313972cc03a7b70ab80ebc00393633", "fusion_lon": 0.0, "bike_id": "a6313972cc03a7b70ab80ebc00393633", "is_disabled": 0, "is_reserved": 0}, {"rental_uris": {"ios": "https://dc.lft.to/lastmile_qr_scan", "android": "https://dc.lft.to/lastmile_qr_scan"}, "lon": -77.06841083333333, "type": "electric_scooter", "fusion_lat": 0.0, "lat": 38.9172095, "name": "989da9150250623c08dc751a6dc9ae59", "fusion_lon": 0.0, "bike_id": "989da9150250623c08dc751a6dc9ae59", "is_disabled": 0, "is_reserved": 0}, {"rental_uris": {"ios": "https://dc.lft.to/lastmile_qr_scan", "android": "https://dc.lft.to/lastmile_qr_scan"}, "lon": -77.0243795, "type": "electric_scooter", "fusion_lat": 0.0, "lat": 38.9021475, "name": "74ae725663c2aac5a47f8a18e69163e7", "fusion_lon": 0.0, "bike_id": "74ae725663c2aac5a47f8a18e69163e7", "is_disabled": 0, "is_reserved": 0}, {"rental_uris": {"ios": "https://dc.lft.to/lastmile_qr_scan", "android": "https://dc.lft.to/lastmile_qr_scan"}, "lon": -77.04243483333333, "type": "electric_scooter", "fusion_lat": 0.0, "lat": 38.907545666666664, "name": "36114eef2bf5d5fd33b76d99a98ed9f9", "fusion_lon": 0.0, "bike_id": "36114eef2bf5d5fd33b76d99a98ed9f9", "is_disabled": 0, "is_reserved": 0}, {"rental_uris": {"ios": "https://dc.lft.to/lastmile_qr_scan", "android": "https://dc.lft.to/lastmile_qr_scan"}, "lon": -77.03251966666667, "type": "electric_scooter", "fusion_lat": 0.0, "lat": 38.92054683333333, "name": "09706323eab9772091a889291e42d502", "fusion_lon": 0.0, "bike_id": "09706323eab9772091a889291e42d502", "is_disabled": 0, "is_reserved": 0}, {"rental_uris": {"ios": "https://dc.lft.to/lastmile_qr_scan", "android": "https://dc.lft.to/lastmile_qr_scan"}, "lon": -77.047992, "type": "electric_scooter", "fusion_lat": 0.0, "lat": 38.89221083333333, "name": "9108093b3d0aca801fb3bff40c09d03f", "fusion_lon": 0.0, "bike_id": "9108093b3d0aca801fb3bff40c09d03f", "is_disabled": 0, "is_reserved": 0}, {"rental_uris": {"ios": "https://dc.lft.to/lastmile_qr_scan", "android": "https://dc.lft.to/lastmile_qr_scan"}, "lon": -77.02297116666666, "type": "electric_scooter", "fusion_lat": 0.0, "lat": 38.918350833333335, "name": "548fb2141621d17149bf0f8c676b184f", "fusion_lon": 0.0, "bike_id": "548fb2141621d17149bf0f8c676b184f", "is_disabled": 0, "is_reserved": 0}, {"rental_uris": {"ios": "https://dc.lft.to/lastmile_qr_scan", "android": "https://dc.lft.to/lastmile_qr_scan"}, "lon": -77.016992, "type": "electric_scooter", "fusion_lat": 0.0, "lat": 38.92010783333333, "name": "f53691d65582b1c0a010cb287040ded3", "fusion_lon": 0.0, "bike_id": "f53691d65582b1c0a010cb287040ded3", "is_disabled": 0, "is_reserved": 0}, {"rental_uris": {"ios": "https://dc.lft.to/lastmile_qr_scan", "android": "https://dc.lft.to/lastmile_qr_scan"}, "lon": -77.03128766666667, "type": "electric_scooter", "fusion_lat": 0.0, "lat": 38.923734333333336, "name": "6bed73bce4a93192071c65d7a666ab9e", "fusion_lon": 0.0, "bike_id": "6bed73bce4a93192071c65d7a666ab9e", "is_disabled": 0, "is_reserved": 0}, {"rental_uris": {"ios": "https://dc.lft.to/lastmile_qr_scan", "android": "https://dc.lft.to/lastmile_qr_scan"}, "lon": -77.013045, "type": "electric_scooter", "fusion_lat": 0.0, "lat": 38.900550333333335, "name": "1bb493104d88f622dcfd23afe2945391", "fusion_lon": 0.0, "bike_id": "1bb493104d88f622dcfd23afe2945391", "is_disabled": 0, "is_reserved": 0}, {"rental_uris": {"ios": "https://dc.lft.to/lastmile_qr_scan", "android": "https://dc.lft.to/lastmile_qr_scan"}, "lon": -76.99379033333334, "type": "electric_scooter", "fusion_lat": 0.0, "lat": 38.890427333333335, "name": "f4c2b8c6ba825f9b7ca99b41d622abfb", "fusion_lon": 0.0, "bike_id": "f4c2b8c6ba825f9b7ca99b41d622abfb", "is_disabled": 0, "is_reserved": 0}, {"rental_uris": {"ios": "https://dc.lft.to/lastmile_qr_scan", "android": "https://dc.lft.to/lastmile_qr_scan"}, "lon": -77.02496816666667, "type": "electric_scooter", "fusion_lat": 0.0, "lat": 38.918053666666665, "name": "99de0abe1771d67c24cf4961ba2ada76", "fusion_lon": 0.0, "bike_id": "99de0abe1771d67c24cf4961ba2ada76", "is_disabled": 0, "is_reserved": 0}, {"rental_uris": {"ios": "https://dc.lft.to/lastmile_qr_scan", "android": "https://dc.lft.to/lastmile_qr_scan"}, "lon": -77.0128365, "type": "electric_scooter", "fusion_lat": 0.0, "lat": 38.872899333333336, "name": "071bdf8a52b95c40ceeed96da21cb6af", "fusion_lon": 0.0, "bike_id": "071bdf8a52b95c40ceeed96da21cb6af", "is_disabled": 0, "is_reserved": 0}, {"rental_uris": {"ios": "https://dc.lft.to/lastmile_qr_scan", "android": "https://dc.lft.to/lastmile_qr_scan"}, "lon": -77.0409915, "type": "electric_scooter", "fusion_lat": 0.0, "lat": 38.91777233333333, "name": "4d5c11ca2d818a1f21051b6278b3f5b6", "fusion_lon": 0.0, "bike_id": "4d5c11ca2d818a1f21051b6278b3f5b6", "is_disabled": 0, "is_reserved": 0}, {"rental_uris": {"ios": "https://dc.lft.to/lastmile_qr_scan", "android": "https://dc.lft.to/lastmile_qr_scan"}, "lon": -76.98904016666667, "type": "electric_scooter", "fusion_lat": 0.0, "lat": 38.900113166666664, "name": "64ea468539a9653bddfc7a8a79e1988e", "fusion_lon": 0.0, "bike_id": "64ea468539a9653bddfc7a8a79e1988e", "is_disabled": 0, "is_reserved": 0}, {"rental_uris": {"ios": "https://dc.lft.to/lastmile_qr_scan", "android": "https://dc.lft.to/lastmile_qr_scan"}, "lon": -77.12900533333334, "type": "electric_bike", "fusion_lat": 0.0, "lat": 38.863783833333336, "name": "91879ecf7da62938563b16498a93415e", "fusion_lon": 0.0, "bike_id": "91879ecf7da62938563b16498a93415e", "is_disabled": 0, "is_reserved": 0}, {"rental_uris": {"ios": "https://dc.lft.to/lastmile_qr_scan", "android": "https://dc.lft.to/lastmile_qr_scan"}, "lon": -77.02862716666667, "type": "electric_scooter", "fusion_lat": 0.0, "lat": 38.934640333333334, "name": "13468657a74f782ee0bc506abbbaa4b2", "fusion_lon": 0.0, "bike_id": "13468657a74f782ee0bc506abbbaa4b2", "is_disabled": 0, "is_reserved": 0}, {"rental_uris": {"ios": "https://dc.lft.to/lastmile_qr_scan", "android": "https://dc.lft.to/lastmile_qr_scan"}, "lon": -77.03189483333334, "type": "electric_scooter", "fusion_lat": 0.0, "lat": 38.91130066666667, "name": "bebf43349d18123ab1a97a136a3023ef", "fusion_lon": 0.0, "bike_id": "bebf43349d18123ab1a97a136a3023ef", "is_disabled": 0, "is_reserved": 0}, {"rental_uris": {"ios": "https://dc.lft.to/lastmile_qr_scan", "android": "https://dc.lft.to/lastmile_qr_scan"}, "lon": -76.99799266666666, "type": "electric_scooter", "fusion_lat": 0.0, "lat": 38.908534833333334, "name": "333013bf2a071251f4e412716a0c9a24", "fusion_lon": 0.0, "bike_id": "333013bf2a071251f4e412716a0c9a24", "is_disabled": 0, "is_reserved": 0}, {"rental_uris": {"ios": "https://dc.lft.to/lastmile_qr_scan", "android": "https://dc.lft.to/lastmile_qr_scan"}, "lon": -77.02392783333333, "type": "electric_scooter", "fusion_lat": 0.0, "lat": 38.915894, "name": "d307e6406a50d2073d916effff0bd790", "fusion_lon": 0.0, "bike_id": "d307e6406a50d2073d916effff0bd790", "is_disabled": 0, "is_reserved": 0}, {"rental_uris": {"ios": "https://dc.lft.to/lastmile_qr_scan", "android": "https://dc.lft.to/lastmile_qr_scan"}, "lon": -77.03035616666666, "type": "electric_scooter", "fusion_lat": 0.0, "lat": 38.902654166666665, "name": "c4c9ecb890c28aa99087eb684c3437c0", "fusion_lon": 0.0, "bike_id": "c4c9ecb890c28aa99087eb684c3437c0", "is_disabled": 0, "is_reserved": 0}, {"rental_uris": {"ios": "https://dc.lft.to/lastmile_qr_scan", "android": "https://dc.lft.to/lastmile_qr_scan"}, "lon": -77.03788083333333, "type": "electric_scooter", "fusion_lat": 0.0, "lat": 38.90555766666667, "name": "02e26e17e63dad2c22a416e967d90dc5", "fusion_lon": 0.0, "bike_id": "02e26e17e63dad2c22a416e967d90dc5", "is_disabled": 0, "is_reserved": 0}, {"rental_uris": {"ios": "https://dc.lft.to/lastmile_qr_scan", "android": "https://dc.lft.to/lastmile_qr_scan"}, "lon": -77.03661133333334, "type": "electric_scooter", "fusion_lat": 0.0, "lat": 38.935832, "name": "a1351b21268440e1a3a8b04dd7c60e6d", "fusion_lon": 0.0, "bike_id": "a1351b21268440e1a3a8b04dd7c60e6d", "is_disabled": 0, "is_reserved": 0}, {"rental_uris": {"ios": "https://dc.lft.to/lastmile_qr_scan", "android": "https://dc.lft.to/lastmile_qr_scan"}, "lon": -77.05295983333333, "type": "electric_scooter", "fusion_lat": 0.0, "lat": 38.9278135, "name": "f1c18f2f0d5dcccfc657647f3644fb4a", "fusion_lon": 0.0, "bike_id": "f1c18f2f0d5dcccfc657647f3644fb4a", "is_disabled": 0, "is_reserved": 0}, {"rental_uris": {"ios": "https://dc.lft.to/lastmile_qr_scan", "android": "https://dc.lft.to/lastmile_qr_scan"}, "lon": -77.02730833333334, "type": "electric_scooter", "fusion_lat": 0.0, "lat": 38.881521166666666, "name": "171b3b221680ff4b4da82d5f12922b13", "fusion_lon": 0.0, "bike_id": "171b3b221680ff4b4da82d5f12922b13", "is_disabled": 0, "is_reserved": 0}, {"rental_uris": {"ios": "https://dc.lft.to/lastmile_qr_scan", "android": "https://dc.lft.to/lastmile_qr_scan"}, "lon": -77.03957183333333, "type": "electric_scooter", "fusion_lat": 0.0, "lat": 38.89966166666667, "name": "f632dda3504058e4fcb37d0aeaf478ad", "fusion_lon": 0.0, "bike_id": "f632dda3504058e4fcb37d0aeaf478ad", "is_disabled": 0, "is_reserved": 0}, {"rental_uris": {"ios": "https://dc.lft.to/lastmile_qr_scan", "android": "https://dc.lft.to/lastmile_qr_scan"}, "lon": -76.9487835, "type": "electric_scooter", "fusion_lat": 0.0, "lat": 38.89503933333334, "name": "f86c34a837e9c212d4b01f7228535a24", "fusion_lon": 0.0, "bike_id": "f86c34a837e9c212d4b01f7228535a24", "is_disabled": 0, "is_reserved": 0}, {"rental_uris": {"ios": "https://dc.lft.to/lastmile_qr_scan", "android": "https://dc.lft.to/lastmile_qr_scan"}, "lon": -77.04254066666667, "type": "electric_scooter", "fusion_lat": 0.0, "lat": 38.90277183333333, "name": "0fa76d988236cd1d0ee4c67c1369fc11", "fusion_lon": 0.0, "bike_id": "0fa76d988236cd1d0ee4c67c1369fc11", "is_disabled": 0, "is_reserved": 0}, {"rental_uris": {"ios": "https://dc.lft.to/lastmile_qr_scan", "android": "https://dc.lft.to/lastmile_qr_scan"}, "lon": -77.03747866666667, "type": "electric_scooter", "fusion_lat": 0.0, "lat": 38.95152733333333, "name": "8d9f76b1b91ec59ff051013ab85f74e4", "fusion_lon": 0.0, "bike_id": "8d9f76b1b91ec59ff051013ab85f74e4", "is_disabled": 0, "is_reserved": 0}, {"rental_uris": {"ios": "https://dc.lft.to/lastmile_qr_scan", "android": "https://dc.lft.to/lastmile_qr_scan"}, "lon": -77.00755266666667, "type": "electric_scooter", "fusion_lat": 0.0, "lat": 38.897281, "name": "879181759c7d399411ee9aae9bb050a9", "fusion_lon": 0.0, "bike_id": "879181759c7d399411ee9aae9bb050a9", "is_disabled": 0, "is_reserved": 0}, {"rental_uris": {"ios": "https://dc.lft.to/lastmile_qr_scan", "android": "https://dc.lft.to/lastmile_qr_scan"}, "lon": -77.02959016666667, "type": "electric_scooter", "fusion_lat": 0.0, "lat": 38.91686583333333, "name": "9e558707ae963906920f95a9735955ec", "fusion_lon": 0.0, "bike_id": "9e558707ae963906920f95a9735955ec", "is_disabled": 0, "is_reserved": 0}, {"rental_uris": {"ios": "https://dc.lft.to/lastmile_qr_scan", "android": "https://dc.lft.to/lastmile_qr_scan"}, "lon": -77.10683616666667, "type": "electric_bike", "fusion_lat": 0.0, "lat": 38.93579733333333, "name": "0903d0eea431c703e5e3146abaf358da", "fusion_lon": 0.0, "bike_id": "0903d0eea431c703e5e3146abaf358da", "is_disabled": 0, "is_reserved": 0}, {"rental_uris": {"ios": "https://dc.lft.to/lastmile_qr_scan", "android": "https://dc.lft.to/lastmile_qr_scan"}, "lon": -77.066364, "type": "electric_bike", "fusion_lat": 0.0, "lat": 38.820487, "name": "04b70e86eea4b223e24a219e36112ffb", "fusion_lon": 0.0, "bike_id": "04b70e86eea4b223e24a219e36112ffb", "is_disabled": 0, "is_reserved": 0}, {"rental_uris": {"ios": "https://dc.lft.to/lastmile_qr_scan", "android": "https://dc.lft.to/lastmile_qr_scan"}, "lon": -77.03223883333334, "type": "electric_scooter", "fusion_lat": 0.0, "lat": 38.9182485, "name": "687413642d81f5d2e14479ddfbb04c4b", "fusion_lon": 0.0, "bike_id": "687413642d81f5d2e14479ddfbb04c4b", "is_disabled": 0, "is_reserved": 0}, {"rental_uris": {"ios": "https://dc.lft.to/lastmile_qr_scan", "android": "https://dc.lft.to/lastmile_qr_scan"}, "lon": -77.04657033333334, "type": "electric_scooter", "fusion_lat": 0.0, "lat": 38.893394666666666, "name": "3a98f7e72d93a3ee834216f7b5f7f0ce", "fusion_lon": 0.0, "bike_id": "3a98f7e72d93a3ee834216f7b5f7f0ce", "is_disabled": 0, "is_reserved": 0}, {"rental_uris": {"ios": "https://dc.lft.to/lastmile_qr_scan", "android": "https://dc.lft.to/lastmile_qr_scan"}, "lon": -77.06595416666667, "type": "electric_scooter", "fusion_lat": 0.0, "lat": 38.90523566666667, "name": "8be73d390bd5b14fd133b4c0548caf83", "fusion_lon": 0.0, "bike_id": "8be73d390bd5b14fd133b4c0548caf83", "is_disabled": 0, "is_reserved": 0}, {"rental_uris": {"ios": "https://dc.lft.to/lastmile_qr_scan", "android": "https://dc.lft.to/lastmile_qr_scan"}, "lon": -77.04655933333333, "type": "electric_scooter", "fusion_lat": 0.0, "lat": 38.91483916666667, "name": "029adbb4d007ba1b03ac882067f39a95", "fusion_lon": 0.0, "bike_id": "029adbb4d007ba1b03ac882067f39a95", "is_disabled": 0, "is_reserved": 0}, {"rental_uris": {"ios": "https://dc.lft.to/lastmile_qr_scan", "android": "https://dc.lft.to/lastmile_qr_scan"}, "lon": -76.966313, "type": "electric_bike", "fusion_lat": 0.0, "lat": 38.94196866666667, "name": "3effa3c5bbe9a0f8f6d36ad3384009ed", "fusion_lon": 0.0, "bike_id": "3effa3c5bbe9a0f8f6d36ad3384009ed", "is_disabled": 0, "is_reserved": 0}, {"rental_uris": {"ios": "https://dc.lft.to/lastmile_qr_scan", "android": "https://dc.lft.to/lastmile_qr_scan"}, "lon": -77.02507066666666, "type": "electric_scooter", "fusion_lat": 0.0, "lat": 38.8803795, "name": "44276fc1ce59ed1f5005879823cdf3de", "fusion_lon": 0.0, "bike_id": "44276fc1ce59ed1f5005879823cdf3de", "is_disabled": 0, "is_reserved": 0}, {"rental_uris": {"ios": "https://dc.lft.to/lastmile_qr_scan", "android": "https://dc.lft.to/lastmile_qr_scan"}, "lon": -76.938022, "type": "electric_scooter", "fusion_lat": 0.0, "lat": 38.882357, "name": "392aae16b89cd9fd7c1243072890c409", "fusion_lon": 0.0, "bike_id": "392aae16b89cd9fd7c1243072890c409", "is_disabled": 0, "is_reserved": 0}, {"rental_uris": {"ios": "https://dc.lft.to/lastmile_qr_scan", "android": "https://dc.lft.to/lastmile_qr_scan"}, "lon": -77.00987583333334, "type": "electric_scooter", "fusion_lat": 0.0, "lat": 38.914842, "name": "81670856c8d3a1ea22044879a5acf9e8", "fusion_lon": 0.0, "bike_id": "81670856c8d3a1ea22044879a5acf9e8", "is_disabled": 0, "is_reserved": 0}, {"rental_uris": {"ios": "https://dc.lft.to/lastmile_qr_scan", "android": "https://dc.lft.to/lastmile_qr_scan"}, "lon": -77.02795216666667, "type": "electric_scooter", "fusion_lat": 0.0, "lat": 38.91764583333333, "name": "2ea47be24bcd2d2843311b5b57710bc9", "fusion_lon": 0.0, "bike_id": "2ea47be24bcd2d2843311b5b57710bc9", "is_disabled": 0, "is_reserved": 0}, {"rental_uris": {"ios": "https://dc.lft.to/lastmile_qr_scan", "android": "https://dc.lft.to/lastmile_qr_scan"}, "lon": -77.0269805, "type": "electric_scooter", "fusion_lat": 0.0, "lat": 38.949791166666664, "name": "d1457e7457bd74593d7f20140b38f8c2", "fusion_lon": 0.0, "bike_id": "d1457e7457bd74593d7f20140b38f8c2", "is_disabled": 0, "is_reserved": 0}, {"rental_uris": {"ios": "https://dc.lft.to/lastmile_qr_scan", "android": "https://dc.lft.to/lastmile_qr_scan"}, "lon": -77.01053533333334, "type": "electric_scooter", "fusion_lat": 0.0, "lat": 38.879313833333335, "name": "93127b8b6cf1973a73fd5c617ca9cbf3", "fusion_lon": 0.0, "bike_id": "93127b8b6cf1973a73fd5c617ca9cbf3", "is_disabled": 0, "is_reserved": 0}, {"rental_uris": {"ios": "https://dc.lft.to/lastmile_qr_scan", "android": "https://dc.lft.to/lastmile_qr_scan"}, "lon": -77.021125, "type": "electric_scooter", "fusion_lat": 0.0, "lat": 38.91322666666667, "name": "b8c893b5d20007b4efc6e9faefe25718", "fusion_lon": 0.0, "bike_id": "b8c893b5d20007b4efc6e9faefe25718", "is_disabled": 0, "is_reserved": 0}, {"rental_uris": {"ios": "https://dc.lft.to/lastmile_qr_scan", "android": "https://dc.lft.to/lastmile_qr_scan"}, "lon": -77.022982, "type": "electric_scooter", "fusion_lat": 0.0, "lat": 38.93295083333334, "name": "77162903b10dad4ad309e86430d4b2d7", "fusion_lon": 0.0, "bike_id": "77162903b10dad4ad309e86430d4b2d7", "is_disabled": 0, "is_reserved": 0}, {"rental_uris": {"ios": "https://dc.lft.to/lastmile_qr_scan", "android": "https://dc.lft.to/lastmile_qr_scan"}, "lon": -77.04336833333333, "type": "electric_scooter", "fusion_lat": 0.0, "lat": 38.9279315, "name": "ca0984653d699faf628ee23c42407e28", "fusion_lon": 0.0, "bike_id": "ca0984653d699faf628ee23c42407e28", "is_disabled": 0, "is_reserved": 0}, {"rental_uris": {"ios": "https://dc.lft.to/lastmile_qr_scan", "android": "https://dc.lft.to/lastmile_qr_scan"}, "lon": -77.0417365, "type": "electric_scooter", "fusion_lat": 0.0, "lat": 38.91900616666667, "name": "ec95945765eb3a1a6bf79e3a73de6741", "fusion_lon": 0.0, "bike_id": "ec95945765eb3a1a6bf79e3a73de6741", "is_disabled": 0, "is_reserved": 0}, {"rental_uris": {"ios": "https://dc.lft.to/lastmile_qr_scan", "android": "https://dc.lft.to/lastmile_qr_scan"}, "lon": -77.03223, "type": "electric_scooter", "fusion_lat": 0.0, "lat": 38.893972833333336, "name": "5c25b9dca611d2a438e19b3b315b2837", "fusion_lon": 0.0, "bike_id": "5c25b9dca611d2a438e19b3b315b2837", "is_disabled": 0, "is_reserved": 0}, {"rental_uris": {"ios": "https://dc.lft.to/lastmile_qr_scan", "android": "https://dc.lft.to/lastmile_qr_scan"}, "lon": -76.99510866666667, "type": "electric_scooter", "fusion_lat": 0.0, "lat": 38.88616616666667, "name": "1dc83283d5bc53bf5f05412a02000e66", "fusion_lon": 0.0, "bike_id": "1dc83283d5bc53bf5f05412a02000e66", "is_disabled": 0, "is_reserved": 0}, {"rental_uris": {"ios": "https://dc.lft.to/lastmile_qr_scan", "android": "https://dc.lft.to/lastmile_qr_scan"}, "lon": -76.9576315, "type": "electric_scooter", "fusion_lat": 0.0, "lat": 38.8868795, "name": "fe72028ab88fbfc906f75bd2b023a601", "fusion_lon": 0.0, "bike_id": "fe72028ab88fbfc906f75bd2b023a601", "is_disabled": 0, "is_reserved": 0}, {"rental_uris": {"ios": "https://dc.lft.to/lastmile_qr_scan", "android": "https://dc.lft.to/lastmile_qr_scan"}, "lon": -76.95879316666667, "type": "electric_scooter", "fusion_lat": 0.0, "lat": 38.85848816666667, "name": "5fff1eb9034b76cd966f71a94afc2251", "fusion_lon": 0.0, "bike_id": "5fff1eb9034b76cd966f71a94afc2251", "is_disabled": 0, "is_reserved": 0}, {"rental_uris": {"ios": "https://dc.lft.to/lastmile_qr_scan", "android": "https://dc.lft.to/lastmile_qr_scan"}, "lon": -76.9968255, "type": "electric_scooter", "fusion_lat": 0.0, "lat": 38.886833833333334, "name": "80bbab7ca0848983c6607042ef851d9d", "fusion_lon": 0.0, "bike_id": "80bbab7ca0848983c6607042ef851d9d", "is_disabled": 0, "is_reserved": 0}, {"rental_uris": {"ios": "https://dc.lft.to/lastmile_qr_scan", "android": "https://dc.lft.to/lastmile_qr_scan"}, "lon": -76.980229, "type": "electric_scooter", "fusion_lat": 0.0, "lat": 38.903792833333334, "name": "4ddaca87254a51b92e9bdbb533eec350", "fusion_lon": 0.0, "bike_id": "4ddaca87254a51b92e9bdbb533eec350", "is_disabled": 0, "is_reserved": 0}, {"rental_uris": {"ios": "https://dc.lft.to/lastmile_qr_scan", "android": "https://dc.lft.to/lastmile_qr_scan"}, "lon": -76.9983975, "type": "electric_bike", "fusion_lat": 0.0, "lat": 38.83912466666666, "name": "d80c3e2f690106cd8684d1ace46582b0", "fusion_lon": 0.0, "bike_id": "d80c3e2f690106cd8684d1ace46582b0", "is_disabled": 0, "is_reserved": 0}, {"rental_uris": {"ios": "https://dc.lft.to/lastmile_qr_scan", "android": "https://dc.lft.to/lastmile_qr_scan"}, "lon": -77.02944833333333, "type": "electric_scooter", "fusion_lat": 0.0, "lat": 38.9168275, "name": "d56fff2dde6c9a98b109ee1d96e6ff83", "fusion_lon": 0.0, "bike_id": "d56fff2dde6c9a98b109ee1d96e6ff83", "is_disabled": 0, "is_reserved": 0}, {"rental_uris": {"ios": "https://dc.lft.to/lastmile_qr_scan", "android": "https://dc.lft.to/lastmile_qr_scan"}, "lon": -77.06541516666667, "type": "electric_scooter", "fusion_lat": 0.0, "lat": 38.90479533333333, "name": "77cc5a8bd79e3f63675c9369023c858e", "fusion_lon": 0.0, "bike_id": "77cc5a8bd79e3f63675c9369023c858e", "is_disabled": 0, "is_reserved": 0}, {"rental_uris": {"ios": "https://dc.lft.to/lastmile_qr_scan", "android": "https://dc.lft.to/lastmile_qr_scan"}, "lon": -77.031842, "type": "electric_scooter", "fusion_lat": 0.0, "lat": 38.912371666666665, "name": "18e208afcd0b5d28d1871379d167b6d0", "fusion_lon": 0.0, "bike_id": "18e208afcd0b5d28d1871379d167b6d0", "is_disabled": 0, "is_reserved": 0}, {"rental_uris": {"ios": "https://dc.lft.to/lastmile_qr_scan", "android": "https://dc.lft.to/lastmile_qr_scan"}, "lon": -76.98830133333334, "type": "electric_scooter", "fusion_lat": 0.0, "lat": 38.88023866666666, "name": "06cf039919515334fe1b16e232453f3b", "fusion_lon": 0.0, "bike_id": "06cf039919515334fe1b16e232453f3b", "is_disabled": 0, "is_reserved": 0}, {"rental_uris": {"ios": "https://dc.lft.to/lastmile_qr_scan", "android": "https://dc.lft.to/lastmile_qr_scan"}, "lon": -77.03262633333334, "type": "electric_scooter", "fusion_lat": 0.0, "lat": 38.9290905, "name": "229163fe0698db683c34855f4c4142bc", "fusion_lon": 0.0, "bike_id": "229163fe0698db683c34855f4c4142bc", "is_disabled": 0, "is_reserved": 0}, {"rental_uris": {"ios": "https://dc.lft.to/lastmile_qr_scan", "android": "https://dc.lft.to/lastmile_qr_scan"}, "lon": -77.05525033333333, "type": "electric_scooter", "fusion_lat": 0.0, "lat": 38.8994845, "name": "9b7a2a595a65aca5ced6f33f820ed557", "fusion_lon": 0.0, "bike_id": "9b7a2a595a65aca5ced6f33f820ed557", "is_disabled": 0, "is_reserved": 0}, {"rental_uris": {"ios": "https://dc.lft.to/lastmile_qr_scan", "android": "https://dc.lft.to/lastmile_qr_scan"}, "lon": -77.12373766666667, "type": "electric_bike", "fusion_lat": 0.0, "lat": 38.84739066666667, "name": "c5b405fd9ea1e294a4a3dad0ca207a33", "fusion_lon": 0.0, "bike_id": "c5b405fd9ea1e294a4a3dad0ca207a33", "is_disabled": 0, "is_reserved": 0}, {"rental_uris": {"ios": "https://dc.lft.to/lastmile_qr_scan", "android": "https://dc.lft.to/lastmile_qr_scan"}, "lon": -77.02748233333334, "type": "electric_scooter", "fusion_lat": 0.0, "lat": 38.894818, "name": "aa0c2f371913b01c50fc10789cc8ed2b", "fusion_lon": 0.0, "bike_id": "aa0c2f371913b01c50fc10789cc8ed2b", "is_disabled": 0, "is_reserved": 0}, {"rental_uris": {"ios": "https://dc.lft.to/lastmile_qr_scan", "android": "https://dc.lft.to/lastmile_qr_scan"}, "lon": -77.04484683333334, "type": "electric_scooter", "fusion_lat": 0.0, "lat": 38.900661, "name": "07ffb561dcb257ff2ae1ba974d640a03", "fusion_lon": 0.0, "bike_id": "07ffb561dcb257ff2ae1ba974d640a03", "is_disabled": 0, "is_reserved": 0}, {"rental_uris": {"ios": "https://dc.lft.to/lastmile_qr_scan", "android": "https://dc.lft.to/lastmile_qr_scan"}, "lon": -77.0706045, "type": "electric_scooter", "fusion_lat": 0.0, "lat": 38.9010985, "name": "c8fee914503ced20a534c447c293aa31", "fusion_lon": 0.0, "bike_id": "c8fee914503ced20a534c447c293aa31", "is_disabled": 0, "is_reserved": 0}, {"rental_uris": {"ios": "https://dc.lft.to/lastmile_qr_scan", "android": "https://dc.lft.to/lastmile_qr_scan"}, "lon": -77.0335525, "type": "electric_scooter", "fusion_lat": 0.0, "lat": 38.899672333333335, "name": "5cac21259bead2555480c8bc63565039", "fusion_lon": 0.0, "bike_id": "5cac21259bead2555480c8bc63565039", "is_disabled": 0, "is_reserved": 0}, {"rental_uris": {"ios": "https://dc.lft.to/lastmile_qr_scan", "android": "https://dc.lft.to/lastmile_qr_scan"}, "lon": -77.00543783333333, "type": "electric_scooter", "fusion_lat": 0.0, "lat": 38.874571, "name": "6899704d621938bfde48861feade8f97", "fusion_lon": 0.0, "bike_id": "6899704d621938bfde48861feade8f97", "is_disabled": 0, "is_reserved": 0}, {"rental_uris": {"ios": "https://dc.lft.to/lastmile_qr_scan", "android": "https://dc.lft.to/lastmile_qr_scan"}, "lon": -77.01774583333334, "type": "electric_scooter", "fusion_lat": 0.0, "lat": 38.8871155, "name": "d1b8b62801e4909f48425f21e6e295ef", "fusion_lon": 0.0, "bike_id": "d1b8b62801e4909f48425f21e6e295ef", "is_disabled": 0, "is_reserved": 0}, {"rental_uris": {"ios": "https://dc.lft.to/lastmile_qr_scan", "android": "https://dc.lft.to/lastmile_qr_scan"}, "lon": -76.99509233333333, "type": "electric_scooter", "fusion_lat": 0.0, "lat": 38.8774325, "name": "0ae5a126c027c0681feb805357df1bc9", "fusion_lon": 0.0, "bike_id": "0ae5a126c027c0681feb805357df1bc9", "is_disabled": 0, "is_reserved": 0}, {"rental_uris": {"ios": "https://dc.lft.to/lastmile_qr_scan", "android": "https://dc.lft.to/lastmile_qr_scan"}, "lon": -77.033519, "type": "electric_scooter", "fusion_lat": 0.0, "lat": 38.892436333333336, "name": "da9af6d7918cdcb4fe50a634e90443d3", "fusion_lon": 0.0, "bike_id": "da9af6d7918cdcb4fe50a634e90443d3", "is_disabled": 0, "is_reserved": 0}, {"rental_uris": {"ios": "https://dc.lft.to/lastmile_qr_scan", "android": "https://dc.lft.to/lastmile_qr_scan"}, "lon": -77.05345866666667, "type": "electric_scooter", "fusion_lat": 0.0, "lat": 38.902619333333334, "name": "3475fc02619e325092bf87d1ddbb72a7", "fusion_lon": 0.0, "bike_id": "3475fc02619e325092bf87d1ddbb72a7", "is_disabled": 0, "is_reserved": 0}, {"rental_uris": {"ios": "https://dc.lft.to/lastmile_qr_scan", "android": "https://dc.lft.to/lastmile_qr_scan"}, "lon": -76.93099666666667, "type": "electric_scooter", "fusion_lat": 0.0, "lat": 38.90142866666667, "name": "7e670453dee53f9a2b4f971877aeb07d", "fusion_lon": 0.0, "bike_id": "7e670453dee53f9a2b4f971877aeb07d", "is_disabled": 0, "is_reserved": 0}, {"rental_uris": {"ios": "https://dc.lft.to/lastmile_qr_scan", "android": "https://dc.lft.to/lastmile_qr_scan"}, "lon": -77.01132383333334, "type": "electric_scooter", "fusion_lat": 0.0, "lat": 38.90737716666667, "name": "425165413f250087c77fa55a5f3d7637", "fusion_lon": 0.0, "bike_id": "425165413f250087c77fa55a5f3d7637", "is_disabled": 0, "is_reserved": 0}, {"rental_uris": {"ios": "https://dc.lft.to/lastmile_qr_scan", "android": "https://dc.lft.to/lastmile_qr_scan"}, "lon": -77.04864683333334, "type": "electric_scooter", "fusion_lat": 0.0, "lat": 38.892256833333334, "name": "8d1854a6277728cda329b89bf31992f4", "fusion_lon": 0.0, "bike_id": "8d1854a6277728cda329b89bf31992f4", "is_disabled": 0, "is_reserved": 0}, {"rental_uris": {"ios": "https://dc.lft.to/lastmile_qr_scan", "android": "https://dc.lft.to/lastmile_qr_scan"}, "lon": -77.00630516666666, "type": "electric_scooter", "fusion_lat": 0.0, "lat": 38.829285166666665, "name": "fe6ffa105995c90fa61944341e157c51", "fusion_lon": 0.0, "bike_id": "fe6ffa105995c90fa61944341e157c51", "is_disabled": 0, "is_reserved": 0}, {"rental_uris": {"ios": "https://dc.lft.to/lastmile_qr_scan", "android": "https://dc.lft.to/lastmile_qr_scan"}, "lon": -77.0237035, "type": "electric_scooter", "fusion_lat": 0.0, "lat": 38.90305733333334, "name": "ea3b42acbd66adcdbb181cb0f24eebce", "fusion_lon": 0.0, "bike_id": "ea3b42acbd66adcdbb181cb0f24eebce", "is_disabled": 0, "is_reserved": 0}, {"rental_uris": {"ios": "https://dc.lft.to/lastmile_qr_scan", "android": "https://dc.lft.to/lastmile_qr_scan"}, "lon": -77.0461625, "type": "electric_scooter", "fusion_lat": 0.0, "lat": 38.89821083333333, "name": "857460116421320aeb411ad0c4ba2446", "fusion_lon": 0.0, "bike_id": "857460116421320aeb411ad0c4ba2446", "is_disabled": 0, "is_reserved": 0}, {"rental_uris": {"ios": "https://dc.lft.to/lastmile_qr_scan", "android": "https://dc.lft.to/lastmile_qr_scan"}, "lon": -77.01929116666666, "type": "electric_scooter", "fusion_lat": 0.0, "lat": 38.956872833333335, "name": "22e21f585708ff6fdc13f711dc680918", "fusion_lon": 0.0, "bike_id": "22e21f585708ff6fdc13f711dc680918", "is_disabled": 0, "is_reserved": 0}, {"rental_uris": {"ios": "https://dc.lft.to/lastmile_qr_scan", "android": "https://dc.lft.to/lastmile_qr_scan"}, "lon": -77.05674766666667, "type": "electric_scooter", "fusion_lat": 0.0, "lat": 38.923309333333336, "name": "d7987e792ddb5b8648742128df48dd8b", "fusion_lon": 0.0, "bike_id": "d7987e792ddb5b8648742128df48dd8b", "is_disabled": 0, "is_reserved": 0}, {"rental_uris": {"ios": "https://dc.lft.to/lastmile_qr_scan", "android": "https://dc.lft.to/lastmile_qr_scan"}, "lon": -77.03631133333333, "type": "electric_scooter", "fusion_lat": 0.0, "lat": 38.928508666666666, "name": "ea897ca5204af7d34e30ebc8e40649bd", "fusion_lon": 0.0, "bike_id": "ea897ca5204af7d34e30ebc8e40649bd", "is_disabled": 0, "is_reserved": 0}, {"rental_uris": {"ios": "https://dc.lft.to/lastmile_qr_scan", "android": "https://dc.lft.to/lastmile_qr_scan"}, "lon": -77.02298883333333, "type": "electric_scooter", "fusion_lat": 0.0, "lat": 38.918149, "name": "7e26f923945e397e88af60ed5f7ce43c", "fusion_lon": 0.0, "bike_id": "7e26f923945e397e88af60ed5f7ce43c", "is_disabled": 0, "is_reserved": 0}, {"rental_uris": {"ios": "https://dc.lft.to/lastmile_qr_scan", "android": "https://dc.lft.to/lastmile_qr_scan"}, "lon": -76.99520066666666, "type": "electric_scooter", "fusion_lat": 0.0, "lat": 38.86261316666667, "name": "0bfbd3b26bb199f3fffacbef71a5eebe", "fusion_lon": 0.0, "bike_id": "0bfbd3b26bb199f3fffacbef71a5eebe", "is_disabled": 0, "is_reserved": 0}, {"rental_uris": {"ios": "https://dc.lft.to/lastmile_qr_scan", "android": "https://dc.lft.to/lastmile_qr_scan"}, "lon": -77.03784933333333, "type": "electric_scooter", "fusion_lat": 0.0, "lat": 38.954951333333334, "name": "eeb47e7d221e21ff470504c37a945b04", "fusion_lon": 0.0, "bike_id": "eeb47e7d221e21ff470504c37a945b04", "is_disabled": 0, "is_reserved": 0}, {"rental_uris": {"ios": "https://dc.lft.to/lastmile_qr_scan", "android": "https://dc.lft.to/lastmile_qr_scan"}, "lon": -77.00844116666667, "type": "electric_bike", "fusion_lat": 0.0, "lat": 38.94921466666667, "name": "d3e5e3ca504cd6392757a77a36c0e5b0", "fusion_lon": 0.0, "bike_id": "d3e5e3ca504cd6392757a77a36c0e5b0", "is_disabled": 0, "is_reserved": 0}, {"rental_uris": {"ios": "https://dc.lft.to/lastmile_qr_scan", "android": "https://dc.lft.to/lastmile_qr_scan"}, "lon": -77.03660483333333, "type": "electric_scooter", "fusion_lat": 0.0, "lat": 38.922414, "name": "429d47e051f46bcd8faf2f90603a0899", "fusion_lon": 0.0, "bike_id": "429d47e051f46bcd8faf2f90603a0899", "is_disabled": 0, "is_reserved": 0}, {"rental_uris": {"ios": "https://dc.lft.to/lastmile_qr_scan", "android": "https://dc.lft.to/lastmile_qr_scan"}, "lon": -77.14119966666667, "type": "electric_bike", "fusion_lat": 0.0, "lat": 38.81601333333333, "name": "32369603ee568950b148a13769356c57", "fusion_lon": 0.0, "bike_id": "32369603ee568950b148a13769356c57", "is_disabled": 0, "is_reserved": 0}, {"rental_uris": {"ios": "https://dc.lft.to/lastmile_qr_scan", "android": "https://dc.lft.to/lastmile_qr_scan"}, "lon": -77.0456185, "type": "electric_scooter", "fusion_lat": 0.0, "lat": 38.914053333333335, "name": "36cafe5228fe94c7026af4a3d5f31895", "fusion_lon": 0.0, "bike_id": "36cafe5228fe94c7026af4a3d5f31895", "is_disabled": 0, "is_reserved": 0}, {"rental_uris": {"ios": "https://dc.lft.to/lastmile_qr_scan", "android": "https://dc.lft.to/lastmile_qr_scan"}, "lon": -77.01531066666666, "type": "electric_scooter", "fusion_lat": 0.0, "lat": 38.891957166666664, "name": "a42e9a12f29a7e189d3655b3f1d86b80", "fusion_lon": 0.0, "bike_id": "a42e9a12f29a7e189d3655b3f1d86b80", "is_disabled": 0, "is_reserved": 0}, {"rental_uris": {"ios": "https://dc.lft.to/lastmile_qr_scan", "android": "https://dc.lft.to/lastmile_qr_scan"}, "lon": -77.0450085, "type": "electric_scooter", "fusion_lat": 0.0, "lat": 38.909640833333334, "name": "db053f14f3eb8de25d780f6d0eb1b1d2", "fusion_lon": 0.0, "bike_id": "db053f14f3eb8de25d780f6d0eb1b1d2", "is_disabled": 0, "is_reserved": 0}, {"rental_uris": {"ios": "https://dc.lft.to/lastmile_qr_scan", "android": "https://dc.lft.to/lastmile_qr_scan"}, "lon": -77.03394166666666, "type": "electric_scooter", "fusion_lat": 0.0, "lat": 38.919193166666666, "name": "f9d4cbe38aa29d2525f1cce5eb409aa1", "fusion_lon": 0.0, "bike_id": "f9d4cbe38aa29d2525f1cce5eb409aa1", "is_disabled": 0, "is_reserved": 0}, {"rental_uris": {"ios": "https://dc.lft.to/lastmile_qr_scan", "android": "https://dc.lft.to/lastmile_qr_scan"}, "lon": -77.0208085, "type": "electric_scooter", "fusion_lat": 0.0, "lat": 38.8865195, "name": "e6ff990046f206c2cec0bb49f76d477a", "fusion_lon": 0.0, "bike_id": "e6ff990046f206c2cec0bb49f76d477a", "is_disabled": 0, "is_reserved": 0}, {"rental_uris": {"ios": "https://dc.lft.to/lastmile_qr_scan", "android": "https://dc.lft.to/lastmile_qr_scan"}, "lon": -77.03150316666667, "type": "electric_scooter", "fusion_lat": 0.0, "lat": 38.8829695, "name": "527be105aca045cc064e1c551ebed582", "fusion_lon": 0.0, "bike_id": "527be105aca045cc064e1c551ebed582", "is_disabled": 0, "is_reserved": 0}, {"rental_uris": {"ios": "https://dc.lft.to/lastmile_qr_scan", "android": "https://dc.lft.to/lastmile_qr_scan"}, "lon": -77.00571516666666, "type": "electric_scooter", "fusion_lat": 0.0, "lat": 38.87179783333333, "name": "52510a1074c48662eecbe11f1fcbeb90", "fusion_lon": 0.0, "bike_id": "52510a1074c48662eecbe11f1fcbeb90", "is_disabled": 0, "is_reserved": 0}, {"rental_uris": {"ios": "https://dc.lft.to/lastmile_qr_scan", "android": "https://dc.lft.to/lastmile_qr_scan"}, "lon": -77.02662266666667, "type": "electric_scooter", "fusion_lat": 0.0, "lat": 38.897266333333334, "name": "13b01a42d752dcc12deada79239e2de5", "fusion_lon": 0.0, "bike_id": "13b01a42d752dcc12deada79239e2de5", "is_disabled": 0, "is_reserved": 0}, {"rental_uris": {"ios": "https://dc.lft.to/lastmile_qr_scan", "android": "https://dc.lft.to/lastmile_qr_scan"}, "lon": -77.013674, "type": "electric_scooter", "fusion_lat": 0.0, "lat": 38.86361933333333, "name": "e1e5f05b56aa04fb1329490278dc0278", "fusion_lon": 0.0, "bike_id": "e1e5f05b56aa04fb1329490278dc0278", "is_disabled": 0, "is_reserved": 0}, {"rental_uris": {"ios": "https://dc.lft.to/lastmile_qr_scan", "android": "https://dc.lft.to/lastmile_qr_scan"}, "lon": -77.03269866666666, "type": "electric_scooter", "fusion_lat": 0.0, "lat": 38.91928166666667, "name": "6da65a7f9d99d4287748193c7033685c", "fusion_lon": 0.0, "bike_id": "6da65a7f9d99d4287748193c7033685c", "is_disabled": 0, "is_reserved": 0}, {"rental_uris": {"ios": "https://dc.lft.to/lastmile_qr_scan", "android": "https://dc.lft.to/lastmile_qr_scan"}, "lon": -76.94890916666667, "type": "electric_scooter", "fusion_lat": 0.0, "lat": 38.8952905, "name": "98dd0f6a999a0220c80c1a00a5915136", "fusion_lon": 0.0, "bike_id": "98dd0f6a999a0220c80c1a00a5915136", "is_disabled": 0, "is_reserved": 0}, {"rental_uris": {"ios": "https://dc.lft.to/lastmile_qr_scan", "android": "https://dc.lft.to/lastmile_qr_scan"}, "lon": -76.99004816666667, "type": "electric_scooter", "fusion_lat": 0.0, "lat": 38.900322, "name": "f2d62fe964d87684f3a0eb82fc92b2ec", "fusion_lon": 0.0, "bike_id": "f2d62fe964d87684f3a0eb82fc92b2ec", "is_disabled": 0, "is_reserved": 0}, {"rental_uris": {"ios": "https://dc.lft.to/lastmile_qr_scan", "android": "https://dc.lft.to/lastmile_qr_scan"}, "lon": -76.985552, "type": "electric_scooter", "fusion_lat": 0.0, "lat": 38.85584883333333, "name": "5bdcdddf785d68de8ae4cb5fc3bc43b4", "fusion_lon": 0.0, "bike_id": "5bdcdddf785d68de8ae4cb5fc3bc43b4", "is_disabled": 0, "is_reserved": 0}, {"rental_uris": {"ios": "https://dc.lft.to/lastmile_qr_scan", "android": "https://dc.lft.to/lastmile_qr_scan"}, "lon": -77.0706585, "type": "electric_scooter", "fusion_lat": 0.0, "lat": 38.95217666666667, "name": "5cee3371b595ff154d7b33f2e2638eb6", "fusion_lon": 0.0, "bike_id": "5cee3371b595ff154d7b33f2e2638eb6", "is_disabled": 0, "is_reserved": 0}, {"rental_uris": {"ios": "https://dc.lft.to/lastmile_qr_scan", "android": "https://dc.lft.to/lastmile_qr_scan"}, "lon": -77.05503216666666, "type": "electric_scooter", "fusion_lat": 0.0, "lat": 38.92972833333334, "name": "b4ff56268bba48ad10f2981615f9896b", "fusion_lon": 0.0, "bike_id": "b4ff56268bba48ad10f2981615f9896b", "is_disabled": 0, "is_reserved": 0}, {"rental_uris": {"ios": "https://dc.lft.to/lastmile_qr_scan", "android": "https://dc.lft.to/lastmile_qr_scan"}, "lon": -77.04187083333333, "type": "electric_scooter", "fusion_lat": 0.0, "lat": 38.90339933333333, "name": "b145994d194e3b51f2d701117811af8e", "fusion_lon": 0.0, "bike_id": "b145994d194e3b51f2d701117811af8e", "is_disabled": 0, "is_reserved": 0}, {"rental_uris": {"ios": "https://dc.lft.to/lastmile_qr_scan", "android": "https://dc.lft.to/lastmile_qr_scan"}, "lon": -77.02839, "type": "electric_scooter", "fusion_lat": 0.0, "lat": 38.8958155, "name": "060fbbb2980f0a21fe69c79b2b5e3c25", "fusion_lon": 0.0, "bike_id": "060fbbb2980f0a21fe69c79b2b5e3c25", "is_disabled": 0, "is_reserved": 0}, {"rental_uris": {"ios": "https://dc.lft.to/lastmile_qr_scan", "android": "https://dc.lft.to/lastmile_qr_scan"}, "lon": -76.99000816666667, "type": "electric_scooter", "fusion_lat": 0.0, "lat": 38.865029666666665, "name": "b178e8ecf25e177a8663c9b1fe4675c5", "fusion_lon": 0.0, "bike_id": "b178e8ecf25e177a8663c9b1fe4675c5", "is_disabled": 0, "is_reserved": 0}, {"rental_uris": {"ios": "https://dc.lft.to/lastmile_qr_scan", "android": "https://dc.lft.to/lastmile_qr_scan"}, "lon": -77.0314455, "type": "electric_scooter", "fusion_lat": 0.0, "lat": 38.914154333333336, "name": "05f6d00932b9cddd954c5d93a56ca115", "fusion_lon": 0.0, "bike_id": "05f6d00932b9cddd954c5d93a56ca115", "is_disabled": 0, "is_reserved": 0}, {"rental_uris": {"ios": "https://dc.lft.to/lastmile_qr_scan", "android": "https://dc.lft.to/lastmile_qr_scan"}, "lon": -77.01946666666667, "type": "electric_scooter", "fusion_lat": 0.0, "lat": 38.92415966666667, "name": "7e20b8e4e26e5edb165e62ce1f5f8c43", "fusion_lon": 0.0, "bike_id": "7e20b8e4e26e5edb165e62ce1f5f8c43", "is_disabled": 0, "is_reserved": 0}, {"rental_uris": {"ios": "https://dc.lft.to/lastmile_qr_scan", "android": "https://dc.lft.to/lastmile_qr_scan"}, "lon": -77.047203, "type": "electric_scooter", "fusion_lat": 0.0, "lat": 38.92233433333333, "name": "be17f63eaedd02dc097c97000136baca", "fusion_lon": 0.0, "bike_id": "be17f63eaedd02dc097c97000136baca", "is_disabled": 0, "is_reserved": 0}, {"rental_uris": {"ios": "https://dc.lft.to/lastmile_qr_scan", "android": "https://dc.lft.to/lastmile_qr_scan"}, "lon": -77.01763366666667, "type": "electric_scooter", "fusion_lat": 0.0, "lat": 38.92119683333333, "name": "7a78b4dc63f6ce675ef62506fbaf70a7", "fusion_lon": 0.0, "bike_id": "7a78b4dc63f6ce675ef62506fbaf70a7", "is_disabled": 0, "is_reserved": 0}, {"rental_uris": {"ios": "https://dc.lft.to/lastmile_qr_scan", "android": "https://dc.lft.to/lastmile_qr_scan"}, "lon": -77.054112, "type": "electric_scooter", "fusion_lat": 0.0, "lat": 38.90247266666667, "name": "5016d1715042a8b0e3a249c01d693809", "fusion_lon": 0.0, "bike_id": "5016d1715042a8b0e3a249c01d693809", "is_disabled": 0, "is_reserved": 0}, {"rental_uris": {"ios": "https://dc.lft.to/lastmile_qr_scan", "android": "https://dc.lft.to/lastmile_qr_scan"}, "lon": -77.0086295, "type": "electric_bike", "fusion_lat": 0.0, "lat": 38.827281, "name": "34513a1d540b1d9f47c313cdfc6fd164", "fusion_lon": 0.0, "bike_id": "34513a1d540b1d9f47c313cdfc6fd164", "is_disabled": 0, "is_reserved": 0}, {"rental_uris": {"ios": "https://dc.lft.to/lastmile_qr_scan", "android": "https://dc.lft.to/lastmile_qr_scan"}, "lon": -77.066366, "type": "electric_scooter", "fusion_lat": 0.0, "lat": 38.9279705, "name": "c933f3cf99dfb6048ac3446b5cdc85cb", "fusion_lon": 0.0, "bike_id": "c933f3cf99dfb6048ac3446b5cdc85cb", "is_disabled": 0, "is_reserved": 0}, {"rental_uris": {"ios": "https://dc.lft.to/lastmile_qr_scan", "android": "https://dc.lft.to/lastmile_qr_scan"}, "lon": -77.017773, "type": "electric_scooter", "fusion_lat": 0.0, "lat": 38.887208, "name": "ca13da2cfb63024350d7a8245ea7972d", "fusion_lon": 0.0, "bike_id": "ca13da2cfb63024350d7a8245ea7972d", "is_disabled": 0, "is_reserved": 0}, {"rental_uris": {"ios": "https://dc.lft.to/lastmile_qr_scan", "android": "https://dc.lft.to/lastmile_qr_scan"}, "lon": -77.02307333333333, "type": "electric_scooter", "fusion_lat": 0.0, "lat": 38.916836833333335, "name": "29d54ba0240683bd355922143faf2241", "fusion_lon": 0.0, "bike_id": "29d54ba0240683bd355922143faf2241", "is_disabled": 0, "is_reserved": 0}, {"rental_uris": {"ios": "https://dc.lft.to/lastmile_qr_scan", "android": "https://dc.lft.to/lastmile_qr_scan"}, "lon": -76.9271475, "type": "electric_scooter", "fusion_lat": 0.0, "lat": 38.887669, "name": "d3ddb98c6185ae1bf46c490ac6fb05b8", "fusion_lon": 0.0, "bike_id": "d3ddb98c6185ae1bf46c490ac6fb05b8", "is_disabled": 0, "is_reserved": 0}, {"rental_uris": {"ios": "https://dc.lft.to/lastmile_qr_scan", "android": "https://dc.lft.to/lastmile_qr_scan"}, "lon": -77.10772216666666, "type": "electric_bike", "fusion_lat": 0.0, "lat": 38.89216866666666, "name": "8acd6b87bac0dad0b8bc81d6cbac98d4", "fusion_lon": 0.0, "bike_id": "8acd6b87bac0dad0b8bc81d6cbac98d4", "is_disabled": 0, "is_reserved": 0}, {"rental_uris": {"ios": "https://dc.lft.to/lastmile_qr_scan", "android": "https://dc.lft.to/lastmile_qr_scan"}, "lon": -77.01220683333334, "type": "electric_scooter", "fusion_lat": 0.0, "lat": 38.8696895, "name": "b6e3083016675a7ec6da7fed71129564", "fusion_lon": 0.0, "bike_id": "b6e3083016675a7ec6da7fed71129564", "is_disabled": 0, "is_reserved": 0}, {"rental_uris": {"ios": "https://dc.lft.to/lastmile_qr_scan", "android": "https://dc.lft.to/lastmile_qr_scan"}, "lon": -76.9890615, "type": "electric_scooter", "fusion_lat": 0.0, "lat": 38.866919, "name": "fd201acdb175b3a914706232bb3ea861", "fusion_lon": 0.0, "bike_id": "fd201acdb175b3a914706232bb3ea861", "is_disabled": 0, "is_reserved": 0}, {"rental_uris": {"ios": "https://dc.lft.to/lastmile_qr_scan", "android": "https://dc.lft.to/lastmile_qr_scan"}, "lon": -77.01880066666666, "type": "electric_scooter", "fusion_lat": 0.0, "lat": 38.917404166666664, "name": "ebe19d486003d9428bcf959dfe4173a6", "fusion_lon": 0.0, "bike_id": "ebe19d486003d9428bcf959dfe4173a6", "is_disabled": 0, "is_reserved": 0}, {"rental_uris": {"ios": "https://dc.lft.to/lastmile_qr_scan", "android": "https://dc.lft.to/lastmile_qr_scan"}, "lon": -77.03844483333333, "type": "electric_scooter", "fusion_lat": 0.0, "lat": 38.91565033333333, "name": "91ea1de73e37b56b90e1252d75751215", "fusion_lon": 0.0, "bike_id": "91ea1de73e37b56b90e1252d75751215", "is_disabled": 0, "is_reserved": 0}, {"rental_uris": {"ios": "https://dc.lft.to/lastmile_qr_scan", "android": "https://dc.lft.to/lastmile_qr_scan"}, "lon": -77.03790116666667, "type": "electric_scooter", "fusion_lat": 0.0, "lat": 38.9262595, "name": "003041415a1d18d194e2fa48cffc0bf4", "fusion_lon": 0.0, "bike_id": "003041415a1d18d194e2fa48cffc0bf4", "is_disabled": 0, "is_reserved": 0}, {"rental_uris": {"ios": "https://dc.lft.to/lastmile_qr_scan", "android": "https://dc.lft.to/lastmile_qr_scan"}, "lon": -77.05211216666666, "type": "electric_scooter", "fusion_lat": 0.0, "lat": 38.924392166666664, "name": "7036a5baca0249886d7dc0a21a3bb1be", "fusion_lon": 0.0, "bike_id": "7036a5baca0249886d7dc0a21a3bb1be", "is_disabled": 0, "is_reserved": 0}, {"rental_uris": {"ios": "https://dc.lft.to/lastmile_qr_scan", "android": "https://dc.lft.to/lastmile_qr_scan"}, "lon": -76.99849516666667, "type": "electric_scooter", "fusion_lat": 0.0, "lat": 38.894917, "name": "59a20cf47624770a73ca82910537e49a", "fusion_lon": 0.0, "bike_id": "59a20cf47624770a73ca82910537e49a", "is_disabled": 0, "is_reserved": 0}, {"rental_uris": {"ios": "https://dc.lft.to/lastmile_qr_scan", "android": "https://dc.lft.to/lastmile_qr_scan"}, "lon": -77.030693, "type": "electric_scooter", "fusion_lat": 0.0, "lat": 38.90570966666667, "name": "725bd1596ebb84dd63f192effc89fa5d", "fusion_lon": 0.0, "bike_id": "725bd1596ebb84dd63f192effc89fa5d", "is_disabled": 0, "is_reserved": 0}, {"rental_uris": {"ios": "https://dc.lft.to/lastmile_qr_scan", "android": "https://dc.lft.to/lastmile_qr_scan"}, "lon": -77.0107295, "type": "electric_bike", "fusion_lat": 0.0, "lat": 38.956539, "name": "d4736937a9c225f593f4c6cdbd07636e", "fusion_lon": 0.0, "bike_id": "d4736937a9c225f593f4c6cdbd07636e", "is_disabled": 0, "is_reserved": 0}, {"rental_uris": {"ios": "https://dc.lft.to/lastmile_qr_scan", "android": "https://dc.lft.to/lastmile_qr_scan"}, "lon": -76.9884305, "type": "electric_bike", "fusion_lat": 0.0, "lat": 38.842727333333336, "name": "54e367a8eb901beb7b015b44d62d49f8", "fusion_lon": 0.0, "bike_id": "54e367a8eb901beb7b015b44d62d49f8", "is_disabled": 0, "is_reserved": 0}, {"rental_uris": {"ios": "https://dc.lft.to/lastmile_qr_scan", "android": "https://dc.lft.to/lastmile_qr_scan"}, "lon": -77.04829066666667, "type": "electric_scooter", "fusion_lat": 0.0, "lat": 38.909578, "name": "ac6e30eb552e0e2ed3aa4d1be87500df", "fusion_lon": 0.0, "bike_id": "ac6e30eb552e0e2ed3aa4d1be87500df", "is_disabled": 0, "is_reserved": 0}, {"rental_uris": {"ios": "https://dc.lft.to/lastmile_qr_scan", "android": "https://dc.lft.to/lastmile_qr_scan"}, "lon": -77.0026295, "type": "electric_scooter", "fusion_lat": 0.0, "lat": 38.898953, "name": "4e9af4ef2bce87cf484574b5de957e24", "fusion_lon": 0.0, "bike_id": "4e9af4ef2bce87cf484574b5de957e24", "is_disabled": 0, "is_reserved": 0}, {"rental_uris": {"ios": "https://dc.lft.to/lastmile_qr_scan", "android": "https://dc.lft.to/lastmile_qr_scan"}, "lon": -77.0777775, "type": "electric_scooter", "fusion_lat": 0.0, "lat": 38.94558166666667, "name": "f8c6541c8ed1615698330db2ca42ef3b", "fusion_lon": 0.0, "bike_id": "f8c6541c8ed1615698330db2ca42ef3b", "is_disabled": 0, "is_reserved": 0}, {"rental_uris": {"ios": "https://dc.lft.to/lastmile_qr_scan", "android": "https://dc.lft.to/lastmile_qr_scan"}, "lon": -77.04165783333333, "type": "electric_scooter", "fusion_lat": 0.0, "lat": 38.91232816666667, "name": "41d9a5592f1da1515e2391fa1b3002ab", "fusion_lon": 0.0, "bike_id": "41d9a5592f1da1515e2391fa1b3002ab", "is_disabled": 0, "is_reserved": 0}, {"rental_uris": {"ios": "https://dc.lft.to/lastmile_qr_scan", "android": "https://dc.lft.to/lastmile_qr_scan"}, "lon": -77.0335935, "type": "electric_scooter", "fusion_lat": 0.0, "lat": 38.887525833333335, "name": "3d8668ef9570461365ef78bd4278dcf8", "fusion_lon": 0.0, "bike_id": "3d8668ef9570461365ef78bd4278dcf8", "is_disabled": 0, "is_reserved": 0}, {"rental_uris": {"ios": "https://dc.lft.to/lastmile_qr_scan", "android": "https://dc.lft.to/lastmile_qr_scan"}, "lon": -77.03391533333334, "type": "electric_scooter", "fusion_lat": 0.0, "lat": 38.90586666666667, "name": "b1430d94894fce132bd248d0c999cb51", "fusion_lon": 0.0, "bike_id": "b1430d94894fce132bd248d0c999cb51", "is_disabled": 0, "is_reserved": 0}, {"rental_uris": {"ios": "https://dc.lft.to/lastmile_qr_scan", "android": "https://dc.lft.to/lastmile_qr_scan"}, "lon": -76.978293, "type": "electric_bike", "fusion_lat": 0.0, "lat": 38.84607066666667, "name": "a825edb7192f61d97612ef8e67f852c9", "fusion_lon": 0.0, "bike_id": "a825edb7192f61d97612ef8e67f852c9", "is_disabled": 0, "is_reserved": 0}, {"rental_uris": {"ios": "https://dc.lft.to/lastmile_qr_scan", "android": "https://dc.lft.to/lastmile_qr_scan"}, "lon": -77.06259216666666, "type": "electric_scooter", "fusion_lat": 0.0, "lat": 38.9027735, "name": "116e265a5f0fbd15aa31ff64ecd8d4ea", "fusion_lon": 0.0, "bike_id": "116e265a5f0fbd15aa31ff64ecd8d4ea", "is_disabled": 0, "is_reserved": 0}, {"rental_uris": {"ios": "https://dc.lft.to/lastmile_qr_scan", "android": "https://dc.lft.to/lastmile_qr_scan"}, "lon": -77.126254, "type": "electric_bike", "fusion_lat": 0.0, "lat": 39.05811333333333, "name": "670566d5de265341cff4f5b3a203d893", "fusion_lon": 0.0, "bike_id": "670566d5de265341cff4f5b3a203d893", "is_disabled": 0, "is_reserved": 0}, {"rental_uris": {"ios": "https://dc.lft.to/lastmile_qr_scan", "android": "https://dc.lft.to/lastmile_qr_scan"}, "lon": -77.04156, "type": "electric_scooter", "fusion_lat": 0.0, "lat": 38.91404716666667, "name": "416348047d47a655582ffd9bed7e603e", "fusion_lon": 0.0, "bike_id": "416348047d47a655582ffd9bed7e603e", "is_disabled": 0, "is_reserved": 0}, {"rental_uris": {"ios": "https://dc.lft.to/lastmile_qr_scan", "android": "https://dc.lft.to/lastmile_qr_scan"}, "lon": -77.027315, "type": "electric_scooter", "fusion_lat": 0.0, "lat": 38.93206883333333, "name": "0d95b1703b2711238114be69f171ed4c", "fusion_lon": 0.0, "bike_id": "0d95b1703b2711238114be69f171ed4c", "is_disabled": 0, "is_reserved": 0}, {"rental_uris": {"ios": "https://dc.lft.to/lastmile_qr_scan", "android": "https://dc.lft.to/lastmile_qr_scan"}, "lon": -77.071008, "type": "electric_bike", "fusion_lat": 0.0, "lat": 38.91446233333333, "name": "81f9fa34a83dc799b7d44275e14513ec", "fusion_lon": 0.0, "bike_id": "81f9fa34a83dc799b7d44275e14513ec", "is_disabled": 0, "is_reserved": 0}, {"rental_uris": {"ios": "https://dc.lft.to/lastmile_qr_scan", "android": "https://dc.lft.to/lastmile_qr_scan"}, "lon": -76.9839005, "type": "electric_scooter", "fusion_lat": 0.0, "lat": 38.87835466666667, "name": "954bca82aa6aa8d7f00bd86f60244f54", "fusion_lon": 0.0, "bike_id": "954bca82aa6aa8d7f00bd86f60244f54", "is_disabled": 0, "is_reserved": 0}, {"rental_uris": {"ios": "https://dc.lft.to/lastmile_qr_scan", "android": "https://dc.lft.to/lastmile_qr_scan"}, "lon": -77.0314665, "type": "electric_scooter", "fusion_lat": 0.0, "lat": 38.937685, "name": "54944e31aeb7800a7172ac589fcc5de5", "fusion_lon": 0.0, "bike_id": "54944e31aeb7800a7172ac589fcc5de5", "is_disabled": 0, "is_reserved": 0}, {"rental_uris": {"ios": "https://dc.lft.to/lastmile_qr_scan", "android": "https://dc.lft.to/lastmile_qr_scan"}, "lon": -77.0231375, "type": "electric_scooter", "fusion_lat": 0.0, "lat": 38.881888833333335, "name": "4eab194072afacc7d35a175c90051d5c", "fusion_lon": 0.0, "bike_id": "4eab194072afacc7d35a175c90051d5c", "is_disabled": 0, "is_reserved": 0}, {"rental_uris": {"ios": "https://dc.lft.to/lastmile_qr_scan", "android": "https://dc.lft.to/lastmile_qr_scan"}, "lon": -76.98092016666666, "type": "electric_bike", "fusion_lat": 0.0, "lat": 38.881339833333335, "name": "b7de7995b24f653fe5506dfa9fe79b79", "fusion_lon": 0.0, "bike_id": "b7de7995b24f653fe5506dfa9fe79b79", "is_disabled": 0, "is_reserved": 0}, {"rental_uris": {"ios": "https://dc.lft.to/lastmile_qr_scan", "android": "https://dc.lft.to/lastmile_qr_scan"}, "lon": -77.0162095, "type": "electric_scooter", "fusion_lat": 0.0, "lat": 38.90607333333333, "name": "5f353be25975cfb87e26ac59aeb122f4", "fusion_lon": 0.0, "bike_id": "5f353be25975cfb87e26ac59aeb122f4", "is_disabled": 0, "is_reserved": 0}, {"rental_uris": {"ios": "https://dc.lft.to/lastmile_qr_scan", "android": "https://dc.lft.to/lastmile_qr_scan"}, "lon": -77.0291725, "type": "electric_scooter", "fusion_lat": 0.0, "lat": 38.9168195, "name": "b4b2a9fc677c7e6f321dce23cbe2738f", "fusion_lon": 0.0, "bike_id": "b4b2a9fc677c7e6f321dce23cbe2738f", "is_disabled": 0, "is_reserved": 0}, {"rental_uris": {"ios": "https://dc.lft.to/lastmile_qr_scan", "android": "https://dc.lft.to/lastmile_qr_scan"}, "lon": -77.04198, "type": "electric_scooter", "fusion_lat": 0.0, "lat": 38.8992085, "name": "ac20ca8f26f8277faa68b226e2a48ef7", "fusion_lon": 0.0, "bike_id": "ac20ca8f26f8277faa68b226e2a48ef7", "is_disabled": 0, "is_reserved": 0}, {"rental_uris": {"ios": "https://dc.lft.to/lastmile_qr_scan", "android": "https://dc.lft.to/lastmile_qr_scan"}, "lon": -77.0411235, "type": "electric_scooter", "fusion_lat": 0.0, "lat": 38.9104915, "name": "98e3e017866593851e53d3e46083a285", "fusion_lon": 0.0, "bike_id": "98e3e017866593851e53d3e46083a285", "is_disabled": 0, "is_reserved": 0}, {"rental_uris": {"ios": "https://dc.lft.to/lastmile_qr_scan", "android": "https://dc.lft.to/lastmile_qr_scan"}, "lon": -77.01179533333334, "type": "electric_bike", "fusion_lat": 0.0, "lat": 38.87228733333333, "name": "be322b8c57f463c56d6cecc6aa6b4388", "fusion_lon": 0.0, "bike_id": "be322b8c57f463c56d6cecc6aa6b4388", "is_disabled": 0, "is_reserved": 0}, {"rental_uris": {"ios": "https://dc.lft.to/lastmile_qr_scan", "android": "https://dc.lft.to/lastmile_qr_scan"}, "lon": -77.04791216666666, "type": "electric_scooter", "fusion_lat": 0.0, "lat": 38.8996115, "name": "06ee3222be7aa0d9e36c5c7930cea78e", "fusion_lon": 0.0, "bike_id": "06ee3222be7aa0d9e36c5c7930cea78e", "is_disabled": 0, "is_reserved": 0}, {"rental_uris": {"ios": "https://dc.lft.to/lastmile_qr_scan", "android": "https://dc.lft.to/lastmile_qr_scan"}, "lon": -77.05555483333333, "type": "electric_scooter", "fusion_lat": 0.0, "lat": 38.8989965, "name": "e1782d4f8ff7d8cf72d0083856c883b7", "fusion_lon": 0.0, "bike_id": "e1782d4f8ff7d8cf72d0083856c883b7", "is_disabled": 0, "is_reserved": 0}, {"rental_uris": {"ios": "https://dc.lft.to/lastmile_qr_scan", "android": "https://dc.lft.to/lastmile_qr_scan"}, "lon": -77.07719683333333, "type": "electric_scooter", "fusion_lat": 0.0, "lat": 38.94706133333333, "name": "8f0b39c6de43d71e6b4acd060dfc03d8", "fusion_lon": 0.0, "bike_id": "8f0b39c6de43d71e6b4acd060dfc03d8", "is_disabled": 0, "is_reserved": 0}, {"rental_uris": {"ios": "https://dc.lft.to/lastmile_qr_scan", "android": "https://dc.lft.to/lastmile_qr_scan"}, "lon": -77.02476366666667, "type": "electric_scooter", "fusion_lat": 0.0, "lat": 38.897153, "name": "e8bafef301935b58f43caaa6d3998962", "fusion_lon": 0.0, "bike_id": "e8bafef301935b58f43caaa6d3998962", "is_disabled": 0, "is_reserved": 0}, {"rental_uris": {"ios": "https://dc.lft.to/lastmile_qr_scan", "android": "https://dc.lft.to/lastmile_qr_scan"}, "lon": -76.9843465, "type": "electric_scooter", "fusion_lat": 0.0, "lat": 38.91450566666666, "name": "89f9176d2d87f5b85886123123d5ad96", "fusion_lon": 0.0, "bike_id": "89f9176d2d87f5b85886123123d5ad96", "is_disabled": 0, "is_reserved": 0}, {"rental_uris": {"ios": "https://dc.lft.to/lastmile_qr_scan", "android": "https://dc.lft.to/lastmile_qr_scan"}, "lon": -77.03186766666667, "type": "electric_scooter", "fusion_lat": 0.0, "lat": 38.9134775, "name": "8a964077df8461134f9d2ffe8011aa4a", "fusion_lon": 0.0, "bike_id": "8a964077df8461134f9d2ffe8011aa4a", "is_disabled": 0, "is_reserved": 0}, {"rental_uris": {"ios": "https://dc.lft.to/lastmile_qr_scan", "android": "https://dc.lft.to/lastmile_qr_scan"}, "lon": -77.0629925, "type": "electric_scooter", "fusion_lat": 0.0, "lat": 38.9039805, "name": "e6c4cfb1e247473197197ec5973ce012", "fusion_lon": 0.0, "bike_id": "e6c4cfb1e247473197197ec5973ce012", "is_disabled": 0, "is_reserved": 0}, {"rental_uris": {"ios": "https://dc.lft.to/lastmile_qr_scan", "android": "https://dc.lft.to/lastmile_qr_scan"}, "lon": -76.89536866666667, "type": "electric_bike", "fusion_lat": 0.0, "lat": 38.945499166666664, "name": "382c948734d11f4f1ee15651ec41a885", "fusion_lon": 0.0, "bike_id": "382c948734d11f4f1ee15651ec41a885", "is_disabled": 0, "is_reserved": 0}, {"rental_uris": {"ios": "https://dc.lft.to/lastmile_qr_scan", "android": "https://dc.lft.to/lastmile_qr_scan"}, "lon": -77.0599395, "type": "electric_scooter", "fusion_lat": 0.0, "lat": 38.90532116666667, "name": "1399250ab7515c9f422b426c29068df2", "fusion_lon": 0.0, "bike_id": "1399250ab7515c9f422b426c29068df2", "is_disabled": 0, "is_reserved": 0}, {"rental_uris": {"ios": "https://dc.lft.to/lastmile_qr_scan", "android": "https://dc.lft.to/lastmile_qr_scan"}, "lon": -77.01575433333333, "type": "electric_scooter", "fusion_lat": 0.0, "lat": 38.8874375, "name": "0df01eb1211b5450f09f81004773a44c", "fusion_lon": 0.0, "bike_id": "0df01eb1211b5450f09f81004773a44c", "is_disabled": 0, "is_reserved": 0}, {"rental_uris": {"ios": "https://dc.lft.to/lastmile_qr_scan", "android": "https://dc.lft.to/lastmile_qr_scan"}, "lon": -76.99005316666667, "type": "electric_scooter", "fusion_lat": 0.0, "lat": 38.90026183333333, "name": "3d44b32e56a1749691c270828d9bbf54", "fusion_lon": 0.0, "bike_id": "3d44b32e56a1749691c270828d9bbf54", "is_disabled": 0, "is_reserved": 0}, {"rental_uris": {"ios": "https://dc.lft.to/lastmile_qr_scan", "android": "https://dc.lft.to/lastmile_qr_scan"}, "lon": -77.02977283333334, "type": "electric_scooter", "fusion_lat": 0.0, "lat": 38.9162555, "name": "0cdbb52fbe4e127bacbb1c0b593a5fa2", "fusion_lon": 0.0, "bike_id": "0cdbb52fbe4e127bacbb1c0b593a5fa2", "is_disabled": 0, "is_reserved": 0}, {"rental_uris": {"ios": "https://dc.lft.to/lastmile_qr_scan", "android": "https://dc.lft.to/lastmile_qr_scan"},