{"data": {"bikes": [{"is_disabled": 0, "is_reserved": 0, "fusion_lat": 0.0, "lat": 38.95365416666667, "fusion_lon": 0.0, "rental_uris": {"ios": "https://dc.lft.to/lastmile_qr_scan", "android": "https://dc.lft.to/lastmile_qr_scan"}, "lon": -76.94298733333333, "bike_id": "8528417fe9d023bb9c2ac856d0f06ff9", "type": "electric_bike", "name": "8528417fe9d023bb9c2ac856d0f06ff9"}, {"is_disabled": 0, "is_reserved": 0, "fusion_lat": 0.0, "lat": 38.894441, "fusion_lon": 0.0, "rental_uris": {"ios": "https://dc.lft.to/lastmile_qr_scan", "android": "https://dc.lft.to/lastmile_qr_scan"}, "lon": -76.97991583333334, "bike_id": "9e8b3021bb4a4c4d3740a3530bf14041", "type": "electric_scooter", "name": "9e8b3021bb4a4c4d3740a3530bf14041"}, {"is_disabled": 0, "is_reserved": 0, "fusion_lat": 0.0, "lat": 38.939731333333334, "fusion_lon": 0.0, "rental_uris": {"ios": "https://dc.lft.to/lastmile_qr_scan", "android": "https://dc.lft.to/lastmile_qr_scan"}, "lon": -77.03431616666667, "bike_id": "8c574b708d95bc5fd94b09f019cde2ed", "type": "electric_scooter", "name": "8c574b708d95bc5fd94b09f019cde2ed"}, {"is_disabled": 0, "is_reserved": 0, "fusion_lat": 0.0, "lat": 38.906122333333336, "fusion_lon": 0.0, "rental_uris": {"ios": "https://dc.lft.to/lastmile_qr_scan", "android": "https://dc.lft.to/lastmile_qr_scan"}, "lon": -77.04147766666667, "bike_id": "93d2942836992c7acf94e8c1c33469ec", "type": "electric_scooter", "name": "93d2942836992c7acf94e8c1c33469ec"}, {"is_disabled": 0, "is_reserved": 0, "fusion_lat": 0.0, "lat": 38.837727666666666, "fusion_lon": 0.0, "rental_uris": {"ios": "https://dc.lft.to/lastmile_qr_scan", "android": "https://dc.lft.to/lastmile_qr_scan"}, "lon": -76.99858616666667, "bike_id": "f08e4ba959ed88f3b26feaf5d31e6451", "type": "electric_scooter", "name": "f08e4ba959ed88f3b26feaf5d31e6451"}, {"is_disabled": 0, "is_reserved": 0, "fusion_lat": 0.0, "lat": 38.903453, "fusion_lon": 0.0, "rental_uris": {"ios": "https://dc.lft.to/lastmile_qr_scan", "android": "https://dc.lft.to/lastmile_qr_scan"}, "lon": -76.97575583333334, "bike_id": "b858721fc9349d25fccb92da3194f73e", "type": "electric_scooter", "name": "b858721fc9349d25fccb92da3194f73e"}, {"is_disabled": 0, "is_reserved": 0, "fusion_lat": 0.0, "lat": 38.9007375, "fusion_lon": 0.0, "rental_uris": {"ios": "https://dc.lft.to/lastmile_qr_scan", "android": "https://dc.lft.to/lastmile_qr_scan"}, "lon": -77.0506045, "bike_id": "e2612d553156ccc94483a40ba9724d14", "type": "electric_scooter", "name": "e2612d553156ccc94483a40ba9724d14"}, {"is_disabled": 0, "is_reserved": 0, "fusion_lat": 0.0, "lat": 38.931342, "fusion_lon": 0.0, "rental_uris": {"ios": "https://dc.lft.to/lastmile_qr_scan", "android": "https://dc.lft.to/lastmile_qr_scan"}, "lon": -77.07840016666667, "bike_id": "c2dd73217afe8646344e5c66d154ad14", "type": "electric_scooter", "name": "c2dd73217afe8646344e5c66d154ad14"}, {"is_disabled": 0, "is_reserved": 0, "fusion_lat": 0.0, "lat": 38.891727833333334, "fusion_lon": 0.0, "rental_uris": {"ios": "https://dc.lft.to/lastmile_qr_scan", "android": "https://dc.lft.to/lastmile_qr_scan"}, "lon": -77.01564416666666, "bike_id": "202228279c69736f5607e90e7eeeb540", "type": "electric_scooter", "name": "202228279c69736f5607e90e7eeeb540"}, {"is_disabled": 0, "is_reserved": 0, "fusion_lat": 0.0, "lat": 39.00383583333333, "fusion_lon": 0.0, "rental_uris": {"ios": "https://dc.lft.to/lastmile_qr_scan", "android": "https://dc.lft.to/lastmile_qr_scan"}, "lon": -77.0128655, "bike_id": "ff96852b446747f6106a3b8c61c9915d", "type": "electric_bike", "name": "ff96852b446747f6106a3b8c61c9915d"}, {"is_disabled": 0, "is_reserved": 0, "fusion_lat": 0.0, "lat": 38.904728, "fusion_lon": 0.0, "rental_uris": {"ios": "https://dc.lft.to/lastmile_qr_scan", "android": "https://dc.lft.to/lastmile_qr_scan"}, "lon": -76.95043833333334, "bike_id": "3d3e436a400b78bde940336a87a91c18", "type": "electric_scooter", "name": "3d3e436a400b78bde940336a87a91c18"}, {"is_disabled": 0, "is_reserved": 0, "fusion_lat": 0.0, "lat": 38.90464816666667, "fusion_lon": 0.0, "rental_uris": {"ios": "https://dc.lft.to/lastmile_qr_scan", "android": "https://dc.lft.to/lastmile_qr_scan"}, "lon": -77.04868033333334, "bike_id": "f4470d02a104c2cb6b2becf0132136df", "type": "electric_scooter", "name": "f4470d02a104c2cb6b2becf0132136df"}, {"is_disabled": 0, "is_reserved": 0, "fusion_lat": 0.0, "lat": 38.9089115, "fusion_lon": 0.0, "rental_uris": {"ios": "https://dc.lft.to/lastmile_qr_scan", "android": "https://dc.lft.to/lastmile_qr_scan"}, "lon": -77.04411183333333, "bike_id": "4f96164b06994253af029f4a84e10fa6", "type": "electric_scooter", "name": "4f96164b06994253af029f4a84e10fa6"}, {"is_disabled": 0, "is_reserved": 0, "fusion_lat": 0.0, "lat": 38.93082316666667, "fusion_lon": 0.0, "rental_uris": {"ios": "https://dc.lft.to/lastmile_qr_scan", "android": "https://dc.lft.to/lastmile_qr_scan"}, "lon": -77.0280845, "bike_id": "81d26b1835176ddfee9ca29e815346d0", "type": "electric_scooter", "name": "81d26b1835176ddfee9ca29e815346d0"}, {"is_disabled": 0, "is_reserved": 0, "fusion_lat": 0.0, "lat": 38.8553255, "fusion_lon": 0.0, "rental_uris": {"ios": "https://dc.lft.to/lastmile_qr_scan", "android": "https://dc.lft.to/lastmile_qr_scan"}, "lon": -76.99181166666666, "bike_id": "b9d21e65906cfab72068ee6dbf52b9f6", "type": "electric_scooter", "name": "b9d21e65906cfab72068ee6dbf52b9f6"}, {"is_disabled": 0, "is_reserved": 0, "fusion_lat": 0.0, "lat": 38.92601166666667, "fusion_lon": 0.0, "rental_uris": {"ios": "https://dc.lft.to/lastmile_qr_scan", "android": "https://dc.lft.to/lastmile_qr_scan"}, "lon": -77.0215795, "bike_id": "ff84816540ff16de5d9fc0daa14abded", "type": "electric_scooter", "name": "ff84816540ff16de5d9fc0daa14abded"}, {"is_disabled": 0, "is_reserved": 0, "fusion_lat": 0.0, "lat": 38.89223066666667, "fusion_lon": 0.0, "rental_uris": {"ios": "https://dc.lft.to/lastmile_qr_scan", "android": "https://dc.lft.to/lastmile_qr_scan"}, "lon": -77.0278265, "bike_id": "6c4eb81fb93b14229f429f58f2f35e3c", "type": "electric_scooter", "name": "6c4eb81fb93b14229f429f58f2f35e3c"}, {"is_disabled": 0, "is_reserved": 0, "fusion_lat": 0.0, "lat": 38.900301, "fusion_lon": 0.0, "rental_uris": {"ios": "https://dc.lft.to/lastmile_qr_scan", "android": "https://dc.lft.to/lastmile_qr_scan"}, "lon": -77.01195866666667, "bike_id": "dfd22f268fe04cc0cd224849fe20b608", "type": "electric_scooter", "name": "dfd22f268fe04cc0cd224849fe20b608"}, {"is_disabled": 0, "is_reserved": 0, "fusion_lat": 0.0, "lat": 38.875154, "fusion_lon": 0.0, "rental_uris": {"ios": "https://dc.lft.to/lastmile_qr_scan", "android": "https://dc.lft.to/lastmile_qr_scan"}, "lon": -77.11757716666666, "bike_id": "a7265d8207577db1ec772133a8c900d4", "type": "electric_bike", "name": "a7265d8207577db1ec772133a8c900d4"}, {"is_disabled": 0, "is_reserved": 0, "fusion_lat": 0.0, "lat": 38.907034333333335, "fusion_lon": 0.0, "rental_uris": {"ios": "https://dc.lft.to/lastmile_qr_scan", "android": "https://dc.lft.to/lastmile_qr_scan"}, "lon": -77.0320205, "bike_id": "34c24893fabd5b3515958a75fe73d9fd", "type": "electric_scooter", "name": "34c24893fabd5b3515958a75fe73d9fd"}, {"is_disabled": 0, "is_reserved": 0, "fusion_lat": 0.0, "lat": 38.911265, "fusion_lon": 0.0, "rental_uris": {"ios": "https://dc.lft.to/lastmile_qr_scan", "android": "https://dc.lft.to/lastmile_qr_scan"}, "lon": -77.02096016666667, "bike_id": "ef3c0fe2b28ef6790881d4da5010fb4b", "type": "electric_scooter", "name": "ef3c0fe2b28ef6790881d4da5010fb4b"}, {"is_disabled": 0, "is_reserved": 0, "fusion_lat": 0.0, "lat": 38.919942666666664, "fusion_lon": 0.0, "rental_uris": {"ios": "https://dc.lft.to/lastmile_qr_scan", "android": "https://dc.lft.to/lastmile_qr_scan"}, "lon": -77.04189933333333, "bike_id": "9d3aa2f2eeb124ec6118b228aac26b94", "type": "electric_scooter", "name": "9d3aa2f2eeb124ec6118b228aac26b94"}, {"is_disabled": 0, "is_reserved": 0, "fusion_lat": 0.0, "lat": 38.941250833333335, "fusion_lon": 0.0, "rental_uris": {"ios": "https://dc.lft.to/lastmile_qr_scan", "android": "https://dc.lft.to/lastmile_qr_scan"}, "lon": -77.02496366666666, "bike_id": "31a36953c5b593616657ff8f28c458ec", "type": "electric_bike", "name": "31a36953c5b593616657ff8f28c458ec"}, {"is_disabled": 0, "is_reserved": 0, "fusion_lat": 0.0, "lat": 38.88359966666667, "fusion_lon": 0.0, "rental_uris": {"ios": "https://dc.lft.to/lastmile_qr_scan", "android": "https://dc.lft.to/lastmile_qr_scan"}, "lon": -76.92791783333334, "bike_id": "3985c9cbb9dd3fb4025b3897b2cf6d00", "type": "electric_scooter", "name": "3985c9cbb9dd3fb4025b3897b2cf6d00"}, {"is_disabled": 0, "is_reserved": 0, "fusion_lat": 0.0, "lat": 38.918351333333334, "fusion_lon": 0.0, "rental_uris": {"ios": "https://dc.lft.to/lastmile_qr_scan", "android": "https://dc.lft.to/lastmile_qr_scan"}, "lon": -77.0417355, "bike_id": "0805a15d5723f43cd353bb33471db905", "type": "electric_scooter", "name": "0805a15d5723f43cd353bb33471db905"}, {"is_disabled": 0, "is_reserved": 0, "fusion_lat": 0.0, "lat": 38.923337333333336, "fusion_lon": 0.0, "rental_uris": {"ios": "https://dc.lft.to/lastmile_qr_scan", "android": "https://dc.lft.to/lastmile_qr_scan"}, "lon": -77.05679583333334, "bike_id": "f7e78d5819fd498d6e9bd8101ad510ac", "type": "electric_scooter", "name": "f7e78d5819fd498d6e9bd8101ad510ac"}, {"is_disabled": 0, "is_reserved": 0, "fusion_lat": 0.0, "lat": 38.91842316666666, "fusion_lon": 0.0, "rental_uris": {"ios": "https://dc.lft.to/lastmile_qr_scan", "android": "https://dc.lft.to/lastmile_qr_scan"}, "lon": -77.03918733333333, "bike_id": "5108068128abf22cacf06559c9f8b9fe", "type": "electric_scooter", "name": "5108068128abf22cacf06559c9f8b9fe"}, {"is_disabled": 0, "is_reserved": 0, "fusion_lat": 0.0, "lat": 38.923899166666665, "fusion_lon": 0.0, "rental_uris": {"ios": "https://dc.lft.to/lastmile_qr_scan", "android": "https://dc.lft.to/lastmile_qr_scan"}, "lon": -77.025953, "bike_id": "4bba98bf562b1e5478b9c3369ae103c8", "type": "electric_scooter", "name": "4bba98bf562b1e5478b9c3369ae103c8"}, {"is_disabled": 0, "is_reserved": 0, "fusion_lat": 0.0, "lat": 38.904719666666665, "fusion_lon": 0.0, "rental_uris": {"ios": "https://dc.lft.to/lastmile_qr_scan", "android": "https://dc.lft.to/lastmile_qr_scan"}, "lon": -77.04902116666666, "bike_id": "22ddc0846a9fa0f41d61a6e5b14b92f3", "type": "electric_scooter", "name": "22ddc0846a9fa0f41d61a6e5b14b92f3"}, {"is_disabled": 0, "is_reserved": 0, "fusion_lat": 0.0, "lat": 38.9286065, "fusion_lon": 0.0, "rental_uris": {"ios": "https://dc.lft.to/lastmile_qr_scan", "android": "https://dc.lft.to/lastmile_qr_scan"}, "lon": -77.07887766666667, "bike_id": "a1ff02ee9cc4868d71b17841493b7c3c", "type": "electric_scooter", "name": "a1ff02ee9cc4868d71b17841493b7c3c"}, {"is_disabled": 0, "is_reserved": 0, "fusion_lat": 0.0, "lat": 38.91711766666667, "fusion_lon": 0.0, "rental_uris": {"ios": "https://dc.lft.to/lastmile_qr_scan", "android": "https://dc.lft.to/lastmile_qr_scan"}, "lon": -77.038683, "bike_id": "cce4013e954618569311af96e2c204bf", "type": "electric_scooter", "name": "cce4013e954618569311af96e2c204bf"}, {"is_disabled": 0, "is_reserved": 0, "fusion_lat": 0.0, "lat": 38.877946, "fusion_lon": 0.0, "rental_uris": {"ios": "https://dc.lft.to/lastmile_qr_scan", "android": "https://dc.lft.to/lastmile_qr_scan"}, "lon": -77.00120666666666, "bike_id": "e26cb8f0d2746171f851ed689003dda0", "type": "electric_scooter", "name": "e26cb8f0d2746171f851ed689003dda0"}, {"is_disabled": 0, "is_reserved": 0, "fusion_lat": 0.0, "lat": 38.887312333333334, "fusion_lon": 0.0, "rental_uris": {"ios": "https://dc.lft.to/lastmile_qr_scan", "android": "https://dc.lft.to/lastmile_qr_scan"}, "lon": -77.02210783333334, "bike_id": "f30052dc5bdf67c5ccfc2b2d300094eb", "type": "electric_scooter", "name": "f30052dc5bdf67c5ccfc2b2d300094eb"}, {"is_disabled": 0, "is_reserved": 0, "fusion_lat": 0.0, "lat": 38.921873833333336, "fusion_lon": 0.0, "rental_uris": {"ios": "https://dc.lft.to/lastmile_qr_scan", "android": "https://dc.lft.to/lastmile_qr_scan"}, "lon": -77.03792283333334, "bike_id": "48ca38ec3eeb2d52b0403f8732f1facf", "type": "electric_scooter", "name": "48ca38ec3eeb2d52b0403f8732f1facf"}, {"is_disabled": 0, "is_reserved": 0, "fusion_lat": 0.0, "lat": 38.92318233333334, "fusion_lon": 0.0, "rental_uris": {"ios": "https://dc.lft.to/lastmile_qr_scan", "android": "https://dc.lft.to/lastmile_qr_scan"}, "lon": -77.02804566666667, "bike_id": "359bf8daced12be8ebe86be448f4612f", "type": "electric_scooter", "name": "359bf8daced12be8ebe86be448f4612f"}, {"is_disabled": 0, "is_reserved": 0, "fusion_lat": 0.0, "lat": 38.857908, "fusion_lon": 0.0, "rental_uris": {"ios": "https://dc.lft.to/lastmile_qr_scan", "android": "https://dc.lft.to/lastmile_qr_scan"}, "lon": -76.98751416666667, "bike_id": "bb190dfd749690c24a454d4ae2c12d67", "type": "electric_bike", "name": "bb190dfd749690c24a454d4ae2c12d67"}, {"is_disabled": 0, "is_reserved": 0, "fusion_lat": 0.0, "lat": 38.919244166666665, "fusion_lon": 0.0, "rental_uris": {"ios": "https://dc.lft.to/lastmile_qr_scan", "android": "https://dc.lft.to/lastmile_qr_scan"}, "lon": -77.03099033333334, "bike_id": "9b83544943b9ab57aaa7915baaab9f3c", "type": "electric_scooter", "name": "9b83544943b9ab57aaa7915baaab9f3c"}, {"is_disabled": 0, "is_reserved": 0, "fusion_lat": 0.0, "lat": 38.92328833333333, "fusion_lon": 0.0, "rental_uris": {"ios": "https://dc.lft.to/lastmile_qr_scan", "android": "https://dc.lft.to/lastmile_qr_scan"}, "lon": -77.02970116666667, "bike_id": "0e616575a05d9307523b5472b1d99002", "type": "electric_scooter", "name": "0e616575a05d9307523b5472b1d99002"}, {"is_disabled": 0, "is_reserved": 0, "fusion_lat": 0.0, "lat": 38.9000395, "fusion_lon": 0.0, "rental_uris": {"ios": "https://dc.lft.to/lastmile_qr_scan", "android": "https://dc.lft.to/lastmile_qr_scan"}, "lon": -77.0525595, "bike_id": "a686d334db37d8bb48e65705fe77869d", "type": "electric_scooter", "name": "a686d334db37d8bb48e65705fe77869d"}, {"is_disabled": 0, "is_reserved": 0, "fusion_lat": 0.0, "lat": 38.92417416666667, "fusion_lon": 0.0, "rental_uris": {"ios": "https://dc.lft.to/lastmile_qr_scan", "android": "https://dc.lft.to/lastmile_qr_scan"}, "lon": -77.02704483333333, "bike_id": "a64c4fb79d47f4561258fd3948cc2cea", "type": "electric_scooter", "name": "a64c4fb79d47f4561258fd3948cc2cea"}, {"is_disabled": 0, "is_reserved": 0, "fusion_lat": 0.0, "lat": 38.917867666666666, "fusion_lon": 0.0, "rental_uris": {"ios": "https://dc.lft.to/lastmile_qr_scan", "android": "https://dc.lft.to/lastmile_qr_scan"}, "lon": -77.02305233333334, "bike_id": "7ae937963c08495fcc667db2c419ef9c", "type": "electric_scooter", "name": "7ae937963c08495fcc667db2c419ef9c"}, {"is_disabled": 0, "is_reserved": 0, "fusion_lat": 0.0, "lat": 38.9171075, "fusion_lon": 0.0, "rental_uris": {"ios": "https://dc.lft.to/lastmile_qr_scan", "android": "https://dc.lft.to/lastmile_qr_scan"}, "lon": -77.03866133333334, "bike_id": "e8b19d64cecb071572c4c549be7ace48", "type": "electric_scooter", "name": "e8b19d64cecb071572c4c549be7ace48"}, {"is_disabled": 0, "is_reserved": 0, "fusion_lat": 0.0, "lat": 38.937127, "fusion_lon": 0.0, "rental_uris": {"ios": "https://dc.lft.to/lastmile_qr_scan", "android": "https://dc.lft.to/lastmile_qr_scan"}, "lon": -77.02463383333334, "bike_id": "763a506155c569d175a90255e7ff4f26", "type": "electric_scooter", "name": "763a506155c569d175a90255e7ff4f26"}, {"is_disabled": 0, "is_reserved": 0, "fusion_lat": 0.0, "lat": 38.894755833333335, "fusion_lon": 0.0, "rental_uris": {"ios": "https://dc.lft.to/lastmile_qr_scan", "android": "https://dc.lft.to/lastmile_qr_scan"}, "lon": -77.0211255, "bike_id": "e639353e53554b8534cc3149c98f5484", "type": "electric_scooter", "name": "e639353e53554b8534cc3149c98f5484"}, {"is_disabled": 0, "is_reserved": 0, "fusion_lat": 0.0, "lat": 38.90737933333333, "fusion_lon": 0.0, "rental_uris": {"ios": "https://dc.lft.to/lastmile_qr_scan", "android": "https://dc.lft.to/lastmile_qr_scan"}, "lon": -77.0273045, "bike_id": "87a1074c691099be49cb12638c5149b2", "type": "electric_scooter", "name": "87a1074c691099be49cb12638c5149b2"}, {"is_disabled": 0, "is_reserved": 0, "fusion_lat": 0.0, "lat": 38.93873633333333, "fusion_lon": 0.0, "rental_uris": {"ios": "https://dc.lft.to/lastmile_qr_scan", "android": "https://dc.lft.to/lastmile_qr_scan"}, "lon": -77.06019283333333, "bike_id": "2f78bc97c7bca1d14698caefbe2b592b", "type": "electric_scooter", "name": "2f78bc97c7bca1d14698caefbe2b592b"}, {"is_disabled": 0, "is_reserved": 0, "fusion_lat": 0.0, "lat": 38.93055916666667, "fusion_lon": 0.0, "rental_uris": {"ios": "https://dc.lft.to/lastmile_qr_scan", "android": "https://dc.lft.to/lastmile_qr_scan"}, "lon": -77.043332, "bike_id": "899c7f2a6611c35e9df25d5ac4cdff5c", "type": "electric_scooter", "name": "899c7f2a6611c35e9df25d5ac4cdff5c"}, {"is_disabled": 0, "is_reserved": 0, "fusion_lat": 0.0, "lat": 38.906661, "fusion_lon": 0.0, "rental_uris": {"ios": "https://dc.lft.to/lastmile_qr_scan", "android": "https://dc.lft.to/lastmile_qr_scan"}, "lon": -76.985985, "bike_id": "3912ac98235e0f984cc7c6aad7d88863", "type": "electric_scooter", "name": "3912ac98235e0f984cc7c6aad7d88863"}, {"is_disabled": 0, "is_reserved": 0, "fusion_lat": 0.0, "lat": 38.892286, "fusion_lon": 0.0, "rental_uris": {"ios": "https://dc.lft.to/lastmile_qr_scan", "android": "https://dc.lft.to/lastmile_qr_scan"}, "lon": -77.02608333333333, "bike_id": "9241d589051c6087ee210f293409a5cb", "type": "electric_scooter", "name": "9241d589051c6087ee210f293409a5cb"}, {"is_disabled": 0, "is_reserved": 0, "fusion_lat": 0.0, "lat": 38.919951833333336, "fusion_lon": 0.0, "rental_uris": {"ios": "https://dc.lft.to/lastmile_qr_scan", "android": "https://dc.lft.to/lastmile_qr_scan"}, "lon": -77.0181555, "bike_id": "afb1b178c297aff7839108b0cc550327", "type": "electric_scooter", "name": "afb1b178c297aff7839108b0cc550327"}, {"is_disabled": 0, "is_reserved": 0, "fusion_lat": 0.0, "lat": 38.9604865, "fusion_lon": 0.0, "rental_uris": {"ios": "https://dc.lft.to/lastmile_qr_scan", "android": "https://dc.lft.to/lastmile_qr_scan"}, "lon": -77.00509883333334, "bike_id": "c6ed31306e3d0b4b11c9426aa465e73e", "type": "electric_scooter", "name": "c6ed31306e3d0b4b11c9426aa465e73e"}, {"is_disabled": 0, "is_reserved": 0, "fusion_lat": 0.0, "lat": 38.9181755, "fusion_lon": 0.0, "rental_uris": {"ios": "https://dc.lft.to/lastmile_qr_scan", "android": "https://dc.lft.to/lastmile_qr_scan"}, "lon": -77.02712116666666, "bike_id": "136d717115977198e906b84303ef21aa", "type": "electric_scooter", "name": "136d717115977198e906b84303ef21aa"}, {"is_disabled": 0, "is_reserved": 0, "fusion_lat": 0.0, "lat": 38.90261016666667, "fusion_lon": 0.0, "rental_uris": {"ios": "https://dc.lft.to/lastmile_qr_scan", "android": "https://dc.lft.to/lastmile_qr_scan"}, "lon": -77.0017005, "bike_id": "8ac45b98771cf3b9d2ac524873afad16", "type": "electric_scooter", "name": "8ac45b98771cf3b9d2ac524873afad16"}, {"is_disabled": 0, "is_reserved": 0, "fusion_lat": 0.0, "lat": 38.90842283333333, "fusion_lon": 0.0, "rental_uris": {"ios": "https://dc.lft.to/lastmile_qr_scan", "android": "https://dc.lft.to/lastmile_qr_scan"}, "lon": -77.07300066666667, "bike_id": "406da80784f3002d3dc7e72f17ebd0cd", "type": "electric_scooter", "name": "406da80784f3002d3dc7e72f17ebd0cd"}, {"is_disabled": 0, "is_reserved": 0, "fusion_lat": 0.0, "lat": 38.92482583333334, "fusion_lon": 0.0, "rental_uris": {"ios": "https://dc.lft.to/lastmile_qr_scan", "android": "https://dc.lft.to/lastmile_qr_scan"}, "lon": -77.02799366666666, "bike_id": "868549d2549465bd06afc4e6cc94d5b7", "type": "electric_scooter", "name": "868549d2549465bd06afc4e6cc94d5b7"}, {"is_disabled": 0, "is_reserved": 0, "fusion_lat": 0.0, "lat": 38.917081833333334, "fusion_lon": 0.0, "rental_uris": {"ios": "https://dc.lft.to/lastmile_qr_scan", "android": "https://dc.lft.to/lastmile_qr_scan"}, "lon": -77.03315433333333, "bike_id": "50a68bb2bbd5ad9c68cfec32916d5a2a", "type": "electric_scooter", "name": "50a68bb2bbd5ad9c68cfec32916d5a2a"}, {"is_disabled": 0, "is_reserved": 0, "fusion_lat": 0.0, "lat": 38.92784066666667, "fusion_lon": 0.0, "rental_uris": {"ios": "https://dc.lft.to/lastmile_qr_scan", "android": "https://dc.lft.to/lastmile_qr_scan"}, "lon": -77.03143416666667, "bike_id": "b4e41b2260af50d3d1034e475de6a339", "type": "electric_scooter", "name": "b4e41b2260af50d3d1034e475de6a339"}, {"is_disabled": 0, "is_reserved": 0, "fusion_lat": 0.0, "lat": 38.93452166666667, "fusion_lon": 0.0, "rental_uris": {"ios": "https://dc.lft.to/lastmile_qr_scan", "android": "https://dc.lft.to/lastmile_qr_scan"}, "lon": -77.028365, "bike_id": "b526a02cceb9f631cd02e2aecf1eb9c8", "type": "electric_scooter", "name": "b526a02cceb9f631cd02e2aecf1eb9c8"}, {"is_disabled": 0, "is_reserved": 0, "fusion_lat": 0.0, "lat": 38.896929666666665, "fusion_lon": 0.0, "rental_uris": {"ios": "https://dc.lft.to/lastmile_qr_scan", "android": "https://dc.lft.to/lastmile_qr_scan"}, "lon": -77.02413766666666, "bike_id": "a67efd6f3d29da992a57f3d3b2c35c7d", "type": "electric_scooter", "name": "a67efd6f3d29da992a57f3d3b2c35c7d"}, {"is_disabled": 0, "is_reserved": 0, "fusion_lat": 0.0, "lat": 38.905807833333334, "fusion_lon": 0.0, "rental_uris": {"ios": "https://dc.lft.to/lastmile_qr_scan", "android": "https://dc.lft.to/lastmile_qr_scan"}, "lon": -77.05150266666666, "bike_id": "1dd8d13e4fab2623c1a37f6bebf47d36", "type": "electric_scooter", "name": "1dd8d13e4fab2623c1a37f6bebf47d36"}, {"is_disabled": 0, "is_reserved": 0, "fusion_lat": 0.0, "lat": 38.92387816666667, "fusion_lon": 0.0, "rental_uris": {"ios": "https://dc.lft.to/lastmile_qr_scan", "android": "https://dc.lft.to/lastmile_qr_scan"}, "lon": -77.0274495, "bike_id": "61b2ee4b1fe9702808afcf87c9869e82", "type": "electric_scooter", "name": "61b2ee4b1fe9702808afcf87c9869e82"}, {"is_disabled": 0, "is_reserved": 0, "fusion_lat": 0.0, "lat": 38.91807283333333, "fusion_lon": 0.0, "rental_uris": {"ios": "https://dc.lft.to/lastmile_qr_scan", "android": "https://dc.lft.to/lastmile_qr_scan"}, "lon": -77.03436733333334, "bike_id": "443c4389f6538ca347a0607a04b6ee68", "type": "electric_scooter", "name": "443c4389f6538ca347a0607a04b6ee68"}, {"is_disabled": 0, "is_reserved": 0, "fusion_lat": 0.0, "lat": 38.88105733333333, "fusion_lon": 0.0, "rental_uris": {"ios": "https://dc.lft.to/lastmile_qr_scan", "android": "https://dc.lft.to/lastmile_qr_scan"}, "lon": -77.01681216666667, "bike_id": "87abf2dc3f99db7ad2f9f81543e3c298", "type": "electric_bike", "name": "87abf2dc3f99db7ad2f9f81543e3c298"}, {"is_disabled": 0, "is_reserved": 0, "fusion_lat": 0.0, "lat": 38.92391166666667, "fusion_lon": 0.0, "rental_uris": {"ios": "https://dc.lft.to/lastmile_qr_scan", "android": "https://dc.lft.to/lastmile_qr_scan"}, "lon": -77.00001883333333, "bike_id": "ea9bd3352e94c37a799006f3efa868f1", "type": "electric_bike", "name": "ea9bd3352e94c37a799006f3efa868f1"}, {"is_disabled": 0, "is_reserved": 0, "fusion_lat": 0.0, "lat": 38.92522733333333, "fusion_lon": 0.0, "rental_uris": {"ios": "https://dc.lft.to/lastmile_qr_scan", "android": "https://dc.lft.to/lastmile_qr_scan"}, "lon": -77.07709983333334, "bike_id": "9917ea79d8471a67f4448a75e66c11c3", "type": "electric_scooter", "name": "9917ea79d8471a67f4448a75e66c11c3"}, {"is_disabled": 0, "is_reserved": 0, "fusion_lat": 0.0, "lat": 38.932440666666665, "fusion_lon": 0.0, "rental_uris": {"ios": "https://dc.lft.to/lastmile_qr_scan", "android": "https://dc.lft.to/lastmile_qr_scan"}, "lon": -77.03846083333333, "bike_id": "ae463f7968a4fc7686561041ac8baaee", "type": "electric_scooter", "name": "ae463f7968a4fc7686561041ac8baaee"}, {"is_disabled": 0, "is_reserved": 0, "fusion_lat": 0.0, "lat": 38.90960616666667, "fusion_lon": 0.0, "rental_uris": {"ios": "https://dc.lft.to/lastmile_qr_scan", "android": "https://dc.lft.to/lastmile_qr_scan"}, "lon": -77.04862216666666, "bike_id": "1b2815436ae286a118a6470e110218fe", "type": "electric_scooter", "name": "1b2815436ae286a118a6470e110218fe"}, {"is_disabled": 0, "is_reserved": 0, "fusion_lat": 0.0, "lat": 38.862837166666665, "fusion_lon": 0.0, "rental_uris": {"ios": "https://dc.lft.to/lastmile_qr_scan", "android": "https://dc.lft.to/lastmile_qr_scan"}, "lon": -76.945159, "bike_id": "00a637ec61605abf57c4772df8b029b3", "type": "electric_bike", "name": "00a637ec61605abf57c4772df8b029b3"}, {"is_disabled": 0, "is_reserved": 0, "fusion_lat": 0.0, "lat": 38.90717316666667, "fusion_lon": 0.0, "rental_uris": {"ios": "https://dc.lft.to/lastmile_qr_scan", "android": "https://dc.lft.to/lastmile_qr_scan"}, "lon": -77.07603333333333, "bike_id": "fa5798ed5cac18adf2d3417238f6db54", "type": "electric_scooter", "name": "fa5798ed5cac18adf2d3417238f6db54"}, {"is_disabled": 0, "is_reserved": 0, "fusion_lat": 0.0, "lat": 38.9248885, "fusion_lon": 0.0, "rental_uris": {"ios": "https://dc.lft.to/lastmile_qr_scan", "android": "https://dc.lft.to/lastmile_qr_scan"}, "lon": -77.02517916666666, "bike_id": "8a83bc13eff6a706cd093fd837684a71", "type": "electric_scooter", "name": "8a83bc13eff6a706cd093fd837684a71"}, {"is_disabled": 0, "is_reserved": 0, "fusion_lat": 0.0, "lat": 38.90654166666667, "fusion_lon": 0.0, "rental_uris": {"ios": "https://dc.lft.to/lastmile_qr_scan", "android": "https://dc.lft.to/lastmile_qr_scan"}, "lon": -76.9794005, "bike_id": "820b18424305d36adf58d7aca59bda30", "type": "electric_scooter", "name": "820b18424305d36adf58d7aca59bda30"}, {"is_disabled": 0, "is_reserved": 0, "fusion_lat": 0.0, "lat": 38.8937705, "fusion_lon": 0.0, "rental_uris": {"ios": "https://dc.lft.to/lastmile_qr_scan", "android": "https://dc.lft.to/lastmile_qr_scan"}, "lon": -77.020012, "bike_id": "97eb3d4faddaf67a5c0653f8cba6aebd", "type": "electric_scooter", "name": "97eb3d4faddaf67a5c0653f8cba6aebd"}, {"is_disabled": 0, "is_reserved": 0, "fusion_lat": 0.0, "lat": 38.91663666666667, "fusion_lon": 0.0, "rental_uris": {"ios": "https://dc.lft.to/lastmile_qr_scan", "android": "https://dc.lft.to/lastmile_qr_scan"}, "lon": -77.023993, "bike_id": "2c2d6980bf41f6918b447af8420b6d8c", "type": "electric_scooter", "name": "2c2d6980bf41f6918b447af8420b6d8c"}, {"is_disabled": 0, "is_reserved": 0, "fusion_lat": 0.0, "lat": 38.9012195, "fusion_lon": 0.0, "rental_uris": {"ios": "https://dc.lft.to/lastmile_qr_scan", "android": "https://dc.lft.to/lastmile_qr_scan"}, "lon": -77.0499275, "bike_id": "0861f520da5e88febf5613d7a1cdf823", "type": "electric_scooter", "name": "0861f520da5e88febf5613d7a1cdf823"}, {"is_disabled": 0, "is_reserved": 0, "fusion_lat": 0.0, "lat": 38.920953, "fusion_lon": 0.0, "rental_uris": {"ios": "https://dc.lft.to/lastmile_qr_scan", "android": "https://dc.lft.to/lastmile_qr_scan"}, "lon": -77.02533666666666, "bike_id": "6213cc2af588ac701ca4b76cd83e828f", "type": "electric_scooter", "name": "6213cc2af588ac701ca4b76cd83e828f"}, {"is_disabled": 0, "is_reserved": 0, "fusion_lat": 0.0, "lat": 38.92826483333333, "fusion_lon": 0.0, "rental_uris": {"ios": "https://dc.lft.to/lastmile_qr_scan", "android": "https://dc.lft.to/lastmile_qr_scan"}, "lon": -77.02257766666666, "bike_id": "0931fb65cd1740cfec42a7711c626542", "type": "electric_scooter", "name": "0931fb65cd1740cfec42a7711c626542"}, {"is_disabled": 0, "is_reserved": 0, "fusion_lat": 0.0, "lat": 38.91405533333333, "fusion_lon": 0.0, "rental_uris": {"ios": "https://dc.lft.to/lastmile_qr_scan", "android": "https://dc.lft.to/lastmile_qr_scan"}, "lon": -77.03264916666667, "bike_id": "2547a87ea568149df7477b53b6f1c38b", "type": "electric_scooter", "name": "2547a87ea568149df7477b53b6f1c38b"}, {"is_disabled": 0, "is_reserved": 0, "fusion_lat": 0.0, "lat": 38.92709933333333, "fusion_lon": 0.0, "rental_uris": {"ios": "https://dc.lft.to/lastmile_qr_scan", "android": "https://dc.lft.to/lastmile_qr_scan"}, "lon": -77.0381755, "bike_id": "30f9285f7653ad03e0b6d0b026785fdb", "type": "electric_scooter", "name": "30f9285f7653ad03e0b6d0b026785fdb"}, {"is_disabled": 0, "is_reserved": 0, "fusion_lat": 0.0, "lat": 38.9574035, "fusion_lon": 0.0, "rental_uris": {"ios": "https://dc.lft.to/lastmile_qr_scan", "android": "https://dc.lft.to/lastmile_qr_scan"}, "lon": -77.020708, "bike_id": "c9d1ba3dfe58c6122772739f38684f83", "type": "electric_scooter", "name": "c9d1ba3dfe58c6122772739f38684f83"}, {"is_disabled": 0, "is_reserved": 0, "fusion_lat": 0.0, "lat": 38.98369783333333, "fusion_lon": 0.0, "rental_uris": {"ios": "https://dc.lft.to/lastmile_qr_scan", "android": "https://dc.lft.to/lastmile_qr_scan"}, "lon": -76.98853483333333, "bike_id": "f23a2b788f3db8b0c76eed3ce7cfbd7e", "type": "electric_bike", "name": "f23a2b788f3db8b0c76eed3ce7cfbd7e"}, {"is_disabled": 0, "is_reserved": 0, "fusion_lat": 0.0, "lat": 38.923330166666666, "fusion_lon": 0.0, "rental_uris": {"ios": "https://dc.lft.to/lastmile_qr_scan", "android": "https://dc.lft.to/lastmile_qr_scan"}, "lon": -77.05681716666666, "bike_id": "bd1786ab477faf15df4ed122147b6888", "type": "electric_scooter", "name": "bd1786ab477faf15df4ed122147b6888"}, {"is_disabled": 0, "is_reserved": 0, "fusion_lat": 0.0, "lat": 38.84400433333333, "fusion_lon": 0.0, "rental_uris": {"ios": "https://dc.lft.to/lastmile_qr_scan", "android": "https://dc.lft.to/lastmile_qr_scan"}, "lon": -76.99532916666666, "bike_id": "011f43b628091f6a8797b46edc8ebbaf", "type": "electric_scooter", "name": "011f43b628091f6a8797b46edc8ebbaf"}, {"is_disabled": 0, "is_reserved": 0, "fusion_lat": 0.0, "lat": 38.894752, "fusion_lon": 0.0, "rental_uris": {"ios": "https://dc.lft.to/lastmile_qr_scan", "android": "https://dc.lft.to/lastmile_qr_scan"}, "lon": -77.04187283333333, "bike_id": "1619863ebf40d5ccc4d72ca8a1013927", "type": "electric_scooter", "name": "1619863ebf40d5ccc4d72ca8a1013927"}, {"is_disabled": 0, "is_reserved": 0, "fusion_lat": 0.0, "lat": 38.919210666666665, "fusion_lon": 0.0, "rental_uris": {"ios": "https://dc.lft.to/lastmile_qr_scan", "android": "https://dc.lft.to/lastmile_qr_scan"}, "lon": -77.03424983333333, "bike_id": "0b1caa25ad65f2ffd2d8fbbb310f8b70", "type": "electric_scooter", "name": "0b1caa25ad65f2ffd2d8fbbb310f8b70"}, {"is_disabled": 0, "is_reserved": 0, "fusion_lat": 0.0, "lat": 38.9225745, "fusion_lon": 0.0, "rental_uris": {"ios": "https://dc.lft.to/lastmile_qr_scan", "android": "https://dc.lft.to/lastmile_qr_scan"}, "lon": -77.036609, "bike_id": "813e86263ab1267867faae84fefcc14c", "type": "electric_scooter", "name": "813e86263ab1267867faae84fefcc14c"}, {"is_disabled": 0, "is_reserved": 0, "fusion_lat": 0.0, "lat": 38.855559666666664, "fusion_lon": 0.0, "rental_uris": {"ios": "https://dc.lft.to/lastmile_qr_scan", "android": "https://dc.lft.to/lastmile_qr_scan"}, "lon": -77.06405266666667, "bike_id": "470e448a1beef436715800d966f93e23", "type": "electric_bike", "name": "470e448a1beef436715800d966f93e23"}, {"is_disabled": 0, "is_reserved": 0, "fusion_lat": 0.0, "lat": 38.84227816666667, "fusion_lon": 0.0, "rental_uris": {"ios": "https://dc.lft.to/lastmile_qr_scan", "android": "https://dc.lft.to/lastmile_qr_scan"}, "lon": -76.94892433333334, "bike_id": "0b2c8a63abed5a38330b43a9d6ebc237", "type": "electric_bike", "name": "0b2c8a63abed5a38330b43a9d6ebc237"}, {"is_disabled": 0, "is_reserved": 0, "fusion_lat": 0.0, "lat": 38.90252666666667, "fusion_lon": 0.0, "rental_uris": {"ios": "https://dc.lft.to/lastmile_qr_scan", "android": "https://dc.lft.to/lastmile_qr_scan"}, "lon": -77.0174845, "bike_id": "cf8de7266a93d9828000d2035c665348", "type": "electric_scooter", "name": "cf8de7266a93d9828000d2035c665348"}, {"is_disabled": 0, "is_reserved": 0, "fusion_lat": 0.0, "lat": 38.89236616666667, "fusion_lon": 0.0, "rental_uris": {"ios": "https://dc.lft.to/lastmile_qr_scan", "android": "https://dc.lft.to/lastmile_qr_scan"}, "lon": -77.03185033333334, "bike_id": "f3fcb62b2911692c70c4349989877968", "type": "electric_scooter", "name": "f3fcb62b2911692c70c4349989877968"}, {"is_disabled": 0, "is_reserved": 0, "fusion_lat": 0.0, "lat": 38.899583666666665, "fusion_lon": 0.0, "rental_uris": {"ios": "https://dc.lft.to/lastmile_qr_scan", "android": "https://dc.lft.to/lastmile_qr_scan"}, "lon": -77.03344966666667, "bike_id": "a19af85dda69d4450b6991fa218c70b9", "type": "electric_scooter", "name": "a19af85dda69d4450b6991fa218c70b9"}, {"is_disabled": 0, "is_reserved": 0, "fusion_lat": 0.0, "lat": 38.9207325, "fusion_lon": 0.0, "rental_uris": {"ios": "https://dc.lft.to/lastmile_qr_scan", "android": "https://dc.lft.to/lastmile_qr_scan"}, "lon": -77.04200516666667, "bike_id": "5b397c2c317a25bf212166ae1d99aec8", "type": "electric_scooter", "name": "5b397c2c317a25bf212166ae1d99aec8"}, {"is_disabled": 0, "is_reserved": 0, "fusion_lat": 0.0, "lat": 38.912485833333335, "fusion_lon": 0.0, "rental_uris": {"ios": "https://dc.lft.to/lastmile_qr_scan", "android": "https://dc.lft.to/lastmile_qr_scan"}, "lon": -77.016165, "bike_id": "0ed095772fa8541d2ff055b608aa1d71", "type": "electric_scooter", "name": "0ed095772fa8541d2ff055b608aa1d71"}, {"is_disabled": 0, "is_reserved": 0, "fusion_lat": 0.0, "lat": 38.892199166666664, "fusion_lon": 0.0, "rental_uris": {"ios": "https://dc.lft.to/lastmile_qr_scan", "android": "https://dc.lft.to/lastmile_qr_scan"}, "lon": -77.02419266666666, "bike_id": "f80842a27bb15db6258e62352dabac97", "type": "electric_scooter", "name": "f80842a27bb15db6258e62352dabac97"}, {"is_disabled": 0, "is_reserved": 0, "fusion_lat": 0.0, "lat": 38.8995395, "fusion_lon": 0.0, "rental_uris": {"ios": "https://dc.lft.to/lastmile_qr_scan", "android": "https://dc.lft.to/lastmile_qr_scan"}, "lon": -77.04768766666666, "bike_id": "22b3d831c7bc714770c3c9e52bc1e026", "type": "electric_scooter", "name": "22b3d831c7bc714770c3c9e52bc1e026"}, {"is_disabled": 0, "is_reserved": 0, "fusion_lat": 0.0, "lat": 38.90538816666667, "fusion_lon": 0.0, "rental_uris": {"ios": "https://dc.lft.to/lastmile_qr_scan", "android": "https://dc.lft.to/lastmile_qr_scan"}, "lon": -77.041175, "bike_id": "cc1071e81cc99bbad44a9e269c9a6b3c", "type": "electric_scooter", "name": "cc1071e81cc99bbad44a9e269c9a6b3c"}, {"is_disabled": 0, "is_reserved": 0, "fusion_lat": 0.0, "lat": 38.930124666666664, "fusion_lon": 0.0, "rental_uris": {"ios": "https://dc.lft.to/lastmile_qr_scan", "android": "https://dc.lft.to/lastmile_qr_scan"}, "lon": -77.024082, "bike_id": "1a5ab8174d1cfdded7ff5b02eaf312a0", "type": "electric_scooter", "name": "1a5ab8174d1cfdded7ff5b02eaf312a0"}, {"is_disabled": 0, "is_reserved": 0, "fusion_lat": 0.0, "lat": 38.96557633333333, "fusion_lon": 0.0, "rental_uris": {"ios": "https://dc.lft.to/lastmile_qr_scan", "android": "https://dc.lft.to/lastmile_qr_scan"}, "lon": -77.02823716666667, "bike_id": "34796af8782ce0fcab4e8629fb2a7f9f", "type": "electric_bike", "name": "34796af8782ce0fcab4e8629fb2a7f9f"}, {"is_disabled": 0, "is_reserved": 0, "fusion_lat": 0.0, "lat": 38.8852, "fusion_lon": 0.0, "rental_uris": {"ios": "https://dc.lft.to/lastmile_qr_scan", "android": "https://dc.lft.to/lastmile_qr_scan"}, "lon": -76.996205, "bike_id": "845689c5f79b432a4af2dc6536a4ee97", "type": "electric_scooter", "name": "845689c5f79b432a4af2dc6536a4ee97"}, {"is_disabled": 0, "is_reserved": 0, "fusion_lat": 0.0, "lat": 38.92250116666666, "fusion_lon": 0.0, "rental_uris": {"ios": "https://dc.lft.to/lastmile_qr_scan", "android": "https://dc.lft.to/lastmile_qr_scan"}, "lon": -77.03073, "bike_id": "761552bdee20b0dcb0f6e177af66b9ba", "type": "electric_scooter", "name": "761552bdee20b0dcb0f6e177af66b9ba"}, {"is_disabled": 0, "is_reserved": 0, "fusion_lat": 0.0, "lat": 38.90701966666666, "fusion_lon": 0.0, "rental_uris": {"ios": "https://dc.lft.to/lastmile_qr_scan", "android": "https://dc.lft.to/lastmile_qr_scan"}, "lon": -77.0466265, "bike_id": "fc26856177095bcccdfd1c596d905b98", "type": "electric_scooter", "name": "fc26856177095bcccdfd1c596d905b98"}, {"is_disabled": 0, "is_reserved": 0, "fusion_lat": 0.0, "lat": 39.005371, "fusion_lon": 0.0, "rental_uris": {"ios": "https://dc.lft.to/lastmile_qr_scan", "android": "https://dc.lft.to/lastmile_qr_scan"}, "lon": -77.103993, "bike_id": "49d52492ea556e190b20b7a218adc8d0", "type": "electric_bike", "name": "49d52492ea556e190b20b7a218adc8d0"}, {"is_disabled": 0, "is_reserved": 0, "fusion_lat": 0.0, "lat": 38.915670666666664, "fusion_lon": 0.0, "rental_uris": {"ios": "https://dc.lft.to/lastmile_qr_scan", "android": "https://dc.lft.to/lastmile_qr_scan"}, "lon": -77.03661866666667, "bike_id": "f41f35523f27a276833db96718f0747a", "type": "electric_scooter", "name": "f41f35523f27a276833db96718f0747a"}, {"is_disabled": 0, "is_reserved": 0, "fusion_lat": 0.0, "lat": 38.97369533333333, "fusion_lon": 0.0, "rental_uris": {"ios": "https://dc.lft.to/lastmile_qr_scan", "android": "https://dc.lft.to/lastmile_qr_scan"}, "lon": -77.01866683333333, "bike_id": "52c241281dee16154c492a9dca77fdd4", "type": "electric_scooter", "name": "52c241281dee16154c492a9dca77fdd4"}, {"is_disabled": 0, "is_reserved": 0, "fusion_lat": 0.0, "lat": 38.881055333333336, "fusion_lon": 0.0, "rental_uris": {"ios": "https://dc.lft.to/lastmile_qr_scan", "android": "https://dc.lft.to/lastmile_qr_scan"}, "lon": -77.01238566666666, "bike_id": "7c103f31a86abc581b05d2ec9aa82c6d", "type": "electric_scooter", "name": "7c103f31a86abc581b05d2ec9aa82c6d"}, {"is_disabled": 0, "is_reserved": 0, "fusion_lat": 0.0, "lat": 38.868895333333334, "fusion_lon": 0.0, "rental_uris": {"ios": "https://dc.lft.to/lastmile_qr_scan", "android": "https://dc.lft.to/lastmile_qr_scan"}, "lon": -76.99002133333333, "bike_id": "641f6b8751257f591a217a1e5e675963", "type": "electric_scooter", "name": "641f6b8751257f591a217a1e5e675963"}, {"is_disabled": 0, "is_reserved": 0, "fusion_lat": 0.0, "lat": 38.886584666666664, "fusion_lon": 0.0, "rental_uris": {"ios": "https://dc.lft.to/lastmile_qr_scan", "android": "https://dc.lft.to/lastmile_qr_scan"}, "lon": -77.02824533333333, "bike_id": "f127dcf3e2d761a1fc6baf80b86676f1", "type": "electric_scooter", "name": "f127dcf3e2d761a1fc6baf80b86676f1"}, {"is_disabled": 0, "is_reserved": 0, "fusion_lat": 0.0, "lat": 38.895994, "fusion_lon": 0.0, "rental_uris": {"ios": "https://dc.lft.to/lastmile_qr_scan", "android": "https://dc.lft.to/lastmile_qr_scan"}, "lon": -76.983188, "bike_id": "46e448c82eed96fea756185b6c32d0ab", "type": "electric_scooter", "name": "46e448c82eed96fea756185b6c32d0ab"}, {"is_disabled": 0, "is_reserved": 0, "fusion_lat": 0.0, "lat": 38.91621816666667, "fusion_lon": 0.0, "rental_uris": {"ios": "https://dc.lft.to/lastmile_qr_scan", "android": "https://dc.lft.to/lastmile_qr_scan"}, "lon": -77.03132683333334, "bike_id": "fdcbc42b59fc6af4f54c9008a3568773", "type": "electric_scooter", "name": "fdcbc42b59fc6af4f54c9008a3568773"}, {"is_disabled": 0, "is_reserved": 0, "fusion_lat": 0.0, "lat": 38.904474666666665, "fusion_lon": 0.0, "rental_uris": {"ios": "https://dc.lft.to/lastmile_qr_scan", "android": "https://dc.lft.to/lastmile_qr_scan"}, "lon": -77.02697133333334, "bike_id": "4779f7a1ed94b4a79875f610c966396b", "type": "electric_scooter", "name": "4779f7a1ed94b4a79875f610c966396b"}, {"is_disabled": 0, "is_reserved": 0, "fusion_lat": 0.0, "lat": 38.9157495, "fusion_lon": 0.0, "rental_uris": {"ios": "https://dc.lft.to/lastmile_qr_scan", "android": "https://dc.lft.to/lastmile_qr_scan"}, "lon": -77.050351, "bike_id": "68bfdf25f5548c6ce8d640c97f5d7527", "type": "electric_scooter", "name": "68bfdf25f5548c6ce8d640c97f5d7527"}, {"is_disabled": 0, "is_reserved": 0, "fusion_lat": 0.0, "lat": 38.875638333333335, "fusion_lon": 0.0, "rental_uris": {"ios": "https://dc.lft.to/lastmile_qr_scan", "android": "https://dc.lft.to/lastmile_qr_scan"}, "lon": -77.0059585, "bike_id": "e536f0c687aa6ff1819036b5b7551c9c", "type": "electric_scooter", "name": "e536f0c687aa6ff1819036b5b7551c9c"}, {"is_disabled": 0, "is_reserved": 0, "fusion_lat": 0.0, "lat": 38.90948233333334, "fusion_lon": 0.0, "rental_uris": {"ios": "https://dc.lft.to/lastmile_qr_scan", "android": "https://dc.lft.to/lastmile_qr_scan"}, "lon": -77.04831516666667, "bike_id": "4939dd7b552cbba0b01e4d134824e8fc", "type": "electric_scooter", "name": "4939dd7b552cbba0b01e4d134824e8fc"}, {"is_disabled": 0, "is_reserved": 0, "fusion_lat": 0.0, "lat": 38.89263866666667, "fusion_lon": 0.0, "rental_uris": {"ios": "https://dc.lft.to/lastmile_qr_scan", "android": "https://dc.lft.to/lastmile_qr_scan"}, "lon": -77.04204083333333, "bike_id": "bcf938ec74df8680ccd7880278eb9d9f", "type": "electric_scooter", "name": "bcf938ec74df8680ccd7880278eb9d9f"}, {"is_disabled": 0, "is_reserved": 0, "fusion_lat": 0.0, "lat": 38.899007166666664, "fusion_lon": 0.0, "rental_uris": {"ios": "https://dc.lft.to/lastmile_qr_scan", "android": "https://dc.lft.to/lastmile_qr_scan"}, "lon": -76.98963216666667, "bike_id": "cc198811c7e1d5e31fcb3a003d701357", "type": "electric_bike", "name": "cc198811c7e1d5e31fcb3a003d701357"}, {"is_disabled": 0, "is_reserved": 0, "fusion_lat": 0.0, "lat": 38.906934, "fusion_lon": 0.0, "rental_uris": {"ios": "https://dc.lft.to/lastmile_qr_scan", "android": "https://dc.lft.to/lastmile_qr_scan"}, "lon": -77.03536216666667, "bike_id": "c6667d014ee6037bde331283e855f69f", "type": "electric_scooter", "name": "c6667d014ee6037bde331283e855f69f"}, {"is_disabled": 0, "is_reserved": 0, "fusion_lat": 0.0, "lat": 38.92382516666667, "fusion_lon": 0.0, "rental_uris": {"ios": "https://dc.lft.to/lastmile_qr_scan", "android": "https://dc.lft.to/lastmile_qr_scan"}, "lon": -77.04033683333333, "bike_id": "1395b1d1f79c456503f9bafb21bbf9af", "type": "electric_scooter", "name": "1395b1d1f79c456503f9bafb21bbf9af"}, {"is_disabled": 0, "is_reserved": 0, "fusion_lat": 0.0, "lat": 38.912656166666665, "fusion_lon": 0.0, "rental_uris": {"ios": "https://dc.lft.to/lastmile_qr_scan", "android": "https://dc.lft.to/lastmile_qr_scan"}, "lon": -77.02230616666667, "bike_id": "87f0fb9a3635a73c06de4b99191df436", "type": "electric_scooter", "name": "87f0fb9a3635a73c06de4b99191df436"}, {"is_disabled": 0, "is_reserved": 0, "fusion_lat": 0.0, "lat": 38.90724866666667, "fusion_lon": 0.0, "rental_uris": {"ios": "https://dc.lft.to/lastmile_qr_scan", "android": "https://dc.lft.to/lastmile_qr_scan"}, "lon": -77.0307085, "bike_id": "1249d8b1ac9c2cb16a7fc421e312e2a3", "type": "electric_scooter", "name": "1249d8b1ac9c2cb16a7fc421e312e2a3"}, {"is_disabled": 0, "is_reserved": 0, "fusion_lat": 0.0, "lat": 38.95107, "fusion_lon": 0.0, "rental_uris": {"ios": "https://dc.lft.to/lastmile_qr_scan", "android": "https://dc.lft.to/lastmile_qr_scan"}, "lon": -77.015759, "bike_id": "427e3c96a34848175211526890d49870", "type": "electric_scooter", "name": "427e3c96a34848175211526890d49870"}, {"is_disabled": 0, "is_reserved": 0, "fusion_lat": 0.0, "lat": 38.946342666666666, "fusion_lon": 0.0, "rental_uris": {"ios": "https://dc.lft.to/lastmile_qr_scan", "android": "https://dc.lft.to/lastmile_qr_scan"}, "lon": -77.01842083333334, "bike_id": "d70a4bf03b92a19f86dcced5b2ea372b", "type": "electric_scooter", "name": "d70a4bf03b92a19f86dcced5b2ea372b"}, {"is_disabled": 0, "is_reserved": 0, "fusion_lat": 0.0, "lat": 38.928580833333335, "fusion_lon": 0.0, "rental_uris": {"ios": "https://dc.lft.to/lastmile_qr_scan", "android": "https://dc.lft.to/lastmile_qr_scan"}, "lon": -77.07343366666667, "bike_id": "993b00fe6c18c5f13089d420a5b4f576", "type": "electric_scooter", "name": "993b00fe6c18c5f13089d420a5b4f576"}, {"is_disabled": 0, "is_reserved": 0, "fusion_lat": 0.0, "lat": 38.90468533333333, "fusion_lon": 0.0, "rental_uris": {"ios": "https://dc.lft.to/lastmile_qr_scan", "android": "https://dc.lft.to/lastmile_qr_scan"}, "lon": -77.04877583333334, "bike_id": "7800fa1dc1e8d11c44514fd0c7363b57", "type": "electric_scooter", "name": "7800fa1dc1e8d11c44514fd0c7363b57"}, {"is_disabled": 0, "is_reserved": 0, "fusion_lat": 0.0, "lat": 38.91787683333333, "fusion_lon": 0.0, "rental_uris": {"ios": "https://dc.lft.to/lastmile_qr_scan", "android": "https://dc.lft.to/lastmile_qr_scan"}, "lon": -77.02303133333334, "bike_id": "4908ece0e5134c05c3d4b1f96794abd8", "type": "electric_scooter", "name": "4908ece0e5134c05c3d4b1f96794abd8"}, {"is_disabled": 0, "is_reserved": 0, "fusion_lat": 0.0, "lat": 38.9965935, "fusion_lon": 0.0, "rental_uris": {"ios": "https://dc.lft.to/lastmile_qr_scan", "android": "https://dc.lft.to/lastmile_qr_scan"}, "lon": -77.03820683333333, "bike_id": "2a95f53f807184c0c2d9bf80f0be8fe0", "type": "electric_bike", "name": "2a95f53f807184c0c2d9bf80f0be8fe0"}, {"is_disabled": 0, "is_reserved": 0, "fusion_lat": 0.0, "lat": 38.906630166666666, "fusion_lon": 0.0, "rental_uris": {"ios": "https://dc.lft.to/lastmile_qr_scan", "android": "https://dc.lft.to/lastmile_qr_scan"}, "lon": -77.02703783333334, "bike_id": "c3fcca1eb68f13cc92300bf75a37c424", "type": "electric_scooter", "name": "c3fcca1eb68f13cc92300bf75a37c424"}, {"is_disabled": 0, "is_reserved": 0, "fusion_lat": 0.0, "lat": 38.94589916666666, "fusion_lon": 0.0, "rental_uris": {"ios": "https://dc.lft.to/lastmile_qr_scan", "android": "https://dc.lft.to/lastmile_qr_scan"}, "lon": -77.02035383333333, "bike_id": "769c98eb3c452357d56e4f02aa04c411", "type": "electric_scooter", "name": "769c98eb3c452357d56e4f02aa04c411"}, {"is_disabled": 0, "is_reserved": 0, "fusion_lat": 0.0, "lat": 38.963553166666664, "fusion_lon": 0.0, "rental_uris": {"ios": "https://dc.lft.to/lastmile_qr_scan", "android": "https://dc.lft.to/lastmile_qr_scan"}, "lon": -77.03443666666666, "bike_id": "5e0d53b80f63e84103a66688d16b6103", "type": "electric_scooter", "name": "5e0d53b80f63e84103a66688d16b6103"}, {"is_disabled": 0, "is_reserved": 0, "fusion_lat": 0.0, "lat": 38.90362983333333, "fusion_lon": 0.0, "rental_uris": {"ios": "https://dc.lft.to/lastmile_qr_scan", "android": "https://dc.lft.to/lastmile_qr_scan"}, "lon": -77.0600775, "bike_id": "39e7d157a0447f03121b04132f16ecd2", "type": "electric_scooter", "name": "39e7d157a0447f03121b04132f16ecd2"}, {"is_disabled": 0, "is_reserved": 0, "fusion_lat": 0.0, "lat": 38.84257733333333, "fusion_lon": 0.0, "rental_uris": {"ios": "https://dc.lft.to/lastmile_qr_scan", "android": "https://dc.lft.to/lastmile_qr_scan"}, "lon": -76.98847383333333, "bike_id": "01c428c164fbaf536169b6820795e185", "type": "electric_scooter", "name": "01c428c164fbaf536169b6820795e185"}, {"is_disabled": 0, "is_reserved": 0, "fusion_lat": 0.0, "lat": 38.904417333333335, "fusion_lon": 0.0, "rental_uris": {"ios": "https://dc.lft.to/lastmile_qr_scan", "android": "https://dc.lft.to/lastmile_qr_scan"}, "lon": -76.97309866666667, "bike_id": "d44f1dcdf30f7b03147a37f1bd986aba", "type": "electric_scooter", "name": "d44f1dcdf30f7b03147a37f1bd986aba"}, {"is_disabled": 0, "is_reserved": 0, "fusion_lat": 0.0, "lat": 38.8764825, "fusion_lon": 0.0, "rental_uris": {"ios": "https://dc.lft.to/lastmile_qr_scan", "android": "https://dc.lft.to/lastmile_qr_scan"}, "lon": -77.01575033333333, "bike_id": "1e0490e211ef7eff54b9c4210e5e4950", "type": "electric_scooter", "name": "1e0490e211ef7eff54b9c4210e5e4950"}, {"is_disabled": 0, "is_reserved": 0, "fusion_lat": 0.0, "lat": 38.9235235, "fusion_lon": 0.0, "rental_uris": {"ios": "https://dc.lft.to/lastmile_qr_scan", "android": "https://dc.lft.to/lastmile_qr_scan"}, "lon": -77.03392883333333, "bike_id": "b9667429a57965f31039b4ad09dc267d", "type": "electric_scooter", "name": "b9667429a57965f31039b4ad09dc267d"}, {"is_disabled": 0, "is_reserved": 0, "fusion_lat": 0.0, "lat": 38.902193, "fusion_lon": 0.0, "rental_uris": {"ios": "https://dc.lft.to/lastmile_qr_scan", "android": "https://dc.lft.to/lastmile_qr_scan"}, "lon": -77.02367933333333, "bike_id": "c65721b76a1398d1f89464a577b12946", "type": "electric_scooter", "name": "c65721b76a1398d1f89464a577b12946"}, {"is_disabled": 0, "is_reserved": 0, "fusion_lat": 0.0, "lat": 38.8628485, "fusion_lon": 0.0, "rental_uris": {"ios": "https://dc.lft.to/lastmile_qr_scan", "android": "https://dc.lft.to/lastmile_qr_scan"}, "lon": -76.945271, "bike_id": "e4893b4c34739dadb0f4ee2a6e2c28a7", "type": "electric_bike", "name": "e4893b4c34739dadb0f4ee2a6e2c28a7"}, {"is_disabled": 0, "is_reserved": 0, "fusion_lat": 0.0, "lat": 38.916860166666666, "fusion_lon": 0.0, "rental_uris": {"ios": "https://dc.lft.to/lastmile_qr_scan", "android": "https://dc.lft.to/lastmile_qr_scan"}, "lon": -77.02967733333334, "bike_id": "450c39fc031dc939282f87bbbb0398a0", "type": "electric_scooter", "name": "450c39fc031dc939282f87bbbb0398a0"}, {"is_disabled": 0, "is_reserved": 0, "fusion_lat": 0.0, "lat": 38.91695383333333, "fusion_lon": 0.0, "rental_uris": {"ios": "https://dc.lft.to/lastmile_qr_scan", "android": "https://dc.lft.to/lastmile_qr_scan"}, "lon": -77.03159916666667, "bike_id": "32febc22298d0990c3e996337af67b1c", "type": "electric_scooter", "name": "32febc22298d0990c3e996337af67b1c"}, {"is_disabled": 0, "is_reserved": 0, "fusion_lat": 0.0, "lat": 38.939888833333335, "fusion_lon": 0.0, "rental_uris": {"ios": "https://dc.lft.to/lastmile_qr_scan", "android": "https://dc.lft.to/lastmile_qr_scan"}, "lon": -77.03066966666667, "bike_id": "6323968a37db680f6715032e0e5dbc87", "type": "electric_scooter", "name": "6323968a37db680f6715032e0e5dbc87"}, {"is_disabled": 0, "is_reserved": 0, "fusion_lat": 0.0, "lat": 38.87294633333333, "fusion_lon": 0.0, "rental_uris": {"ios": "https://dc.lft.to/lastmile_qr_scan", "android": "https://dc.lft.to/lastmile_qr_scan"}, "lon": -77.0098545, "bike_id": "711c4cf3da6fe5a7f53470694954d7c0", "type": "electric_scooter", "name": "711c4cf3da6fe5a7f53470694954d7c0"}, {"is_disabled": 0, "is_reserved": 0, "fusion_lat": 0.0, "lat": 38.91940983333333, "fusion_lon": 0.0, "rental_uris": {"ios": "https://dc.lft.to/lastmile_qr_scan", "android": "https://dc.lft.to/lastmile_qr_scan"}, "lon": -77.0231415, "bike_id": "24f0939b5aadd005d7baab103e7e1e60", "type": "electric_scooter", "name": "24f0939b5aadd005d7baab103e7e1e60"}, {"is_disabled": 0, "is_reserved": 0, "fusion_lat": 0.0, "lat": 38.9236695, "fusion_lon": 0.0, "rental_uris": {"ios": "https://dc.lft.to/lastmile_qr_scan", "android": "https://dc.lft.to/lastmile_qr_scan"}, "lon": -77.04325983333334, "bike_id": "4b65bae9a20e76344f0039c6ec400e12", "type": "electric_scooter", "name": "4b65bae9a20e76344f0039c6ec400e12"}, {"is_disabled": 0, "is_reserved": 0, "fusion_lat": 0.0, "lat": 38.90154733333333, "fusion_lon": 0.0, "rental_uris": {"ios": "https://dc.lft.to/lastmile_qr_scan", "android": "https://dc.lft.to/lastmile_qr_scan"}, "lon": -76.9742155, "bike_id": "735a7d4d20c93710049d2e7f27e0fb77", "type": "electric_scooter", "name": "735a7d4d20c93710049d2e7f27e0fb77"}, {"is_disabled": 0, "is_reserved": 0, "fusion_lat": 0.0, "lat": 38.9286995, "fusion_lon": 0.0, "rental_uris": {"ios": "https://dc.lft.to/lastmile_qr_scan", "android": "https://dc.lft.to/lastmile_qr_scan"}, "lon": -77.05658783333334, "bike_id": "b713fe4738fdfcc20f2406f9709716a8", "type": "electric_scooter", "name": "b713fe4738fdfcc20f2406f9709716a8"}, {"is_disabled": 0, "is_reserved": 0, "fusion_lat": 0.0, "lat": 38.92259416666667, "fusion_lon": 0.0, "rental_uris": {"ios": "https://dc.lft.to/lastmile_qr_scan", "android": "https://dc.lft.to/lastmile_qr_scan"}, "lon": -77.072774, "bike_id": "380be2f2a856be99ec07055a664c01f1", "type": "electric_scooter", "name": "380be2f2a856be99ec07055a664c01f1"}, {"is_disabled": 0, "is_reserved": 0, "fusion_lat": 0.0, "lat": 38.82924933333334, "fusion_lon": 0.0, "rental_uris": {"ios": "https://dc.lft.to/lastmile_qr_scan", "android": "https://dc.lft.to/lastmile_qr_scan"}, "lon": -77.06881433333334, "bike_id": "140341e8f9f0b3c76df9f6f8da907f2b", "type": "electric_bike", "name": "140341e8f9f0b3c76df9f6f8da907f2b"}, {"is_disabled": 0, "is_reserved": 0, "fusion_lat": 0.0, "lat": 38.88039833333333, "fusion_lon": 0.0, "rental_uris": {"ios": "https://dc.lft.to/lastmile_qr_scan", "android": "https://dc.lft.to/lastmile_qr_scan"}, "lon": -76.927243, "bike_id": "87556f98b061039d84e2244576c2f884", "type": "electric_scooter", "name": "87556f98b061039d84e2244576c2f884"}, {"is_disabled": 0, "is_reserved": 0, "fusion_lat": 0.0, "lat": 38.9021965, "fusion_lon": 0.0, "rental_uris": {"ios": "https://dc.lft.to/lastmile_qr_scan", "android": "https://dc.lft.to/lastmile_qr_scan"}, "lon": -77.02180833333334, "bike_id": "cf2c613075e91a25115762373301990d", "type": "electric_scooter", "name": "cf2c613075e91a25115762373301990d"}, {"is_disabled": 0, "is_reserved": 0, "fusion_lat": 0.0, "lat": 38.915787333333334, "fusion_lon": 0.0, "rental_uris": {"ios": "https://dc.lft.to/lastmile_qr_scan", "android": "https://dc.lft.to/lastmile_qr_scan"}, "lon": -77.01999133333334, "bike_id": "03cd67839e1dd1fb0f3d00bc869e9d1b", "type": "electric_scooter", "name": "03cd67839e1dd1fb0f3d00bc869e9d1b"}, {"is_disabled": 0, "is_reserved": 0, "fusion_lat": 0.0, "lat": 38.892289833333336, "fusion_lon": 0.0, "rental_uris": {"ios": "https://dc.lft.to/lastmile_qr_scan", "android": "https://dc.lft.to/lastmile_qr_scan"}, "lon": -77.0316715, "bike_id": "c9c9385c81de9766b95ca7288c5609ab", "type": "electric_scooter", "name": "c9c9385c81de9766b95ca7288c5609ab"}, {"is_disabled": 0, "is_reserved": 0, "fusion_lat": 0.0, "lat": 38.899124, "fusion_lon": 0.0, "rental_uris": {"ios": "https://dc.lft.to/lastmile_qr_scan", "android": "https://dc.lft.to/lastmile_qr_scan"}, "lon": -76.9339385, "bike_id": "da3dbc562b1234a1c2aa871a95246b64", "type": "electric_scooter", "name": "da3dbc562b1234a1c2aa871a95246b64"}, {"is_disabled": 0, "is_reserved": 0, "fusion_lat": 0.0, "lat": 38.905891833333335, "fusion_lon": 0.0, "rental_uris": {"ios": "https://dc.lft.to/lastmile_qr_scan", "android": "https://dc.lft.to/lastmile_qr_scan"}, "lon": -77.04877483333334, "bike_id": "c96a081b9149186eaaa34d91536a4e79", "type": "electric_scooter", "name": "c96a081b9149186eaaa34d91536a4e79"}, {"is_disabled": 0, "is_reserved": 0, "fusion_lat": 0.0, "lat": 38.923291166666665, "fusion_lon": 0.0, "rental_uris": {"ios": "https://dc.lft.to/lastmile_qr_scan", "android": "https://dc.lft.to/lastmile_qr_scan"}, "lon": -77.00889083333334, "bike_id": "b6b99548f48fed2106e79b60e320288b", "type": "electric_scooter", "name": "b6b99548f48fed2106e79b60e320288b"}, {"is_disabled": 0, "is_reserved": 0, "fusion_lat": 0.0, "lat": 38.89259633333333, "fusion_lon": 0.0, "rental_uris": {"ios": "https://dc.lft.to/lastmile_qr_scan", "android": "https://dc.lft.to/lastmile_qr_scan"}, "lon": -77.05026933333333, "bike_id": "66ac6246dd3bcf9f022935d459a613cf", "type": "electric_scooter", "name": "66ac6246dd3bcf9f022935d459a613cf"}, {"is_disabled": 0, "is_reserved": 0, "fusion_lat": 0.0, "lat": 38.91762766666667, "fusion_lon": 0.0, "rental_uris": {"ios": "https://dc.lft.to/lastmile_qr_scan", "android": "https://dc.lft.to/lastmile_qr_scan"}, "lon": -77.004528, "bike_id": "c76303f3d81ad07680011167388e4220", "type": "electric_scooter", "name": "c76303f3d81ad07680011167388e4220"}, {"is_disabled": 0, "is_reserved": 0, "fusion_lat": 0.0, "lat": 38.876727833333334, "fusion_lon": 0.0, "rental_uris": {"ios": "https://dc.lft.to/lastmile_qr_scan", "android": "https://dc.lft.to/lastmile_qr_scan"}, "lon": -77.0176005, "bike_id": "2de4fbdf49b99f44191462610020e0fe", "type": "electric_scooter", "name": "2de4fbdf49b99f44191462610020e0fe"}, {"is_disabled": 0, "is_reserved": 0, "fusion_lat": 0.0, "lat": 38.921639, "fusion_lon": 0.0, "rental_uris": {"ios": "https://dc.lft.to/lastmile_qr_scan", "android": "https://dc.lft.to/lastmile_qr_scan"}, "lon": -77.03669966666666, "bike_id": "5f18c4ef910a44ed01ea5a50bdec92b2", "type": "electric_scooter", "name": "5f18c4ef910a44ed01ea5a50bdec92b2"}, {"is_disabled": 0, "is_reserved": 0, "fusion_lat": 0.0, "lat": 38.91204116666667, "fusion_lon": 0.0, "rental_uris": {"ios": "https://dc.lft.to/lastmile_qr_scan", "android": "https://dc.lft.to/lastmile_qr_scan"}, "lon": -77.02098916666667, "bike_id": "eaa792d77c81e30d85327515bcda0bb7", "type": "electric_scooter", "name": "eaa792d77c81e30d85327515bcda0bb7"}, {"is_disabled": 0, "is_reserved": 0, "fusion_lat": 0.0, "lat": 38.9161775, "fusion_lon": 0.0, "rental_uris": {"ios": "https://dc.lft.to/lastmile_qr_scan", "android": "https://dc.lft.to/lastmile_qr_scan"}, "lon": -77.02404133333333, "bike_id": "a78b3c2cfaef0ad97fcdffea4ad9ee86", "type": "electric_scooter", "name": "a78b3c2cfaef0ad97fcdffea4ad9ee86"}, {"is_disabled": 0, "is_reserved": 0, "fusion_lat": 0.0, "lat": 38.93131783333333, "fusion_lon": 0.0, "rental_uris": {"ios": "https://dc.lft.to/lastmile_qr_scan", "android": "https://dc.lft.to/lastmile_qr_scan"}, "lon": -77.02811483333333, "bike_id": "3ef50882e85bc89c5a7efeec5704c6d5", "type": "electric_scooter", "name": "3ef50882e85bc89c5a7efeec5704c6d5"}, {"is_disabled": 0, "is_reserved": 0, "fusion_lat": 0.0, "lat": 38.9071805, "fusion_lon": 0.0, "rental_uris": {"ios": "https://dc.lft.to/lastmile_qr_scan", "android": "https://dc.lft.to/lastmile_qr_scan"}, "lon": -77.05306433333334, "bike_id": "7626198b9334b84558b50b352bb198b5", "type": "electric_scooter", "name": "7626198b9334b84558b50b352bb198b5"}, {"is_disabled": 0, "is_reserved": 0, "fusion_lat": 0.0, "lat": 38.89356316666667, "fusion_lon": 0.0, "rental_uris": {"ios": "https://dc.lft.to/lastmile_qr_scan", "android": "https://dc.lft.to/lastmile_qr_scan"}, "lon": -76.99214616666667, "bike_id": "b4258c687ea924b41963b80e455f020d", "type": "electric_scooter", "name": "b4258c687ea924b41963b80e455f020d"}, {"is_disabled": 0, "is_reserved": 0, "fusion_lat": 0.0, "lat": 38.9216025, "fusion_lon": 0.0, "rental_uris": {"ios": "https://dc.lft.to/lastmile_qr_scan", "android": "https://dc.lft.to/lastmile_qr_scan"}, "lon": -77.0346205, "bike_id": "dc6b9ed999d6b3a90e26adb17e76a970", "type": "electric_scooter", "name": "dc6b9ed999d6b3a90e26adb17e76a970"}, {"is_disabled": 0, "is_reserved": 0, "fusion_lat": 0.0, "lat": 38.933161, "fusion_lon": 0.0, "rental_uris": {"ios": "https://dc.lft.to/lastmile_qr_scan", "android": "https://dc.lft.to/lastmile_qr_scan"}, "lon": -77.0318525, "bike_id": "b733a8278adadb1a68bc4f6a0154146f", "type": "electric_scooter", "name": "b733a8278adadb1a68bc4f6a0154146f"}, {"is_disabled": 0, "is_reserved": 0, "fusion_lat": 0.0, "lat": 38.88482066666667, "fusion_lon": 0.0, "rental_uris": {"ios": "https://dc.lft.to/lastmile_qr_scan", "android": "https://dc.lft.to/lastmile_qr_scan"}, "lon": -77.0335525, "bike_id": "998bb8c88ff0ed0bc1485e66a9f3ca6d", "type": "electric_scooter", "name": "998bb8c88ff0ed0bc1485e66a9f3ca6d"}, {"is_disabled": 0, "is_reserved": 0, "fusion_lat": 0.0, "lat": 38.928625833333335, "fusion_lon": 0.0, "rental_uris": {"ios": "https://dc.lft.to/lastmile_qr_scan", "android": "https://dc.lft.to/lastmile_qr_scan"}, "lon": -77.01378116666666, "bike_id": "7e337159cc451f7f28b9f2f28d1898ad", "type": "electric_scooter", "name": "7e337159cc451f7f28b9f2f28d1898ad"}, {"is_disabled": 0, "is_reserved": 0, "fusion_lat": 0.0, "lat": 38.936853666666664, "fusion_lon": 0.0, "rental_uris": {"ios": "https://dc.lft.to/lastmile_qr_scan", "android": "https://dc.lft.to/lastmile_qr_scan"}, "lon": -77.03281466666667, "bike_id": "59cc1fdfc59e940143128b5653516196", "type": "electric_scooter", "name": "59cc1fdfc59e940143128b5653516196"}, {"is_disabled": 0, "is_reserved": 0, "fusion_lat": 0.0, "lat": 38.9261535, "fusion_lon": 0.0, "rental_uris": {"ios": "https://dc.lft.to/lastmile_qr_scan", "android": "https://dc.lft.to/lastmile_qr_scan"}, "lon": -77.02266933333334, "bike_id": "cddad906ef48eb008d491b72b3db18a3", "type": "electric_scooter", "name": "cddad906ef48eb008d491b72b3db18a3"}, {"is_disabled": 0, "is_reserved": 0, "fusion_lat": 0.0, "lat": 38.9429225, "fusion_lon": 0.0, "rental_uris": {"ios": "https://dc.lft.to/lastmile_qr_scan", "android": "https://dc.lft.to/lastmile_qr_scan"}, "lon": -77.07703916666667, "bike_id": "75d1c50595f7a1d440501ff8e8c9e97b", "type": "electric_scooter", "name": "75d1c50595f7a1d440501ff8e8c9e97b"}, {"is_disabled": 0, "is_reserved": 0, "fusion_lat": 0.0, "lat": 38.865185333333336, "fusion_lon": 0.0, "rental_uris": {"ios": "https://dc.lft.to/lastmile_qr_scan", "android": "https://dc.lft.to/lastmile_qr_scan"}, "lon": -76.97323366666667, "bike_id": "d0ecb4b72c073dedcc8c2f12e8760887", "type": "electric_scooter", "name": "d0ecb4b72c073dedcc8c2f12e8760887"}, {"is_disabled": 0, "is_reserved": 0, "fusion_lat": 0.0, "lat": 38.90681583333333, "fusion_lon": 0.0, "rental_uris": {"ios": "https://dc.lft.to/lastmile_qr_scan", "android": "https://dc.lft.to/lastmile_qr_scan"}, "lon": -77.027163, "bike_id": "88eeb25ff21e15f35dc81aa60c0ff757", "type": "electric_scooter", "name": "88eeb25ff21e15f35dc81aa60c0ff757"}, {"is_disabled": 0, "is_reserved": 0, "fusion_lat": 0.0, "lat": 38.916234, "fusion_lon": 0.0, "rental_uris": {"ios": "https://dc.lft.to/lastmile_qr_scan", "android": "https://dc.lft.to/lastmile_qr_scan"}, "lon": -77.0505605, "bike_id": "4e4d7abada847275969349ddef4051df", "type": "electric_scooter", "name": "4e4d7abada847275969349ddef4051df"}, {"is_disabled": 0, "is_reserved": 0, "fusion_lat": 0.0, "lat": 38.96770133333333, "fusion_lon": 0.0, "rental_uris": {"ios": "https://dc.lft.to/lastmile_qr_scan", "android": "https://dc.lft.to/lastmile_qr_scan"}, "lon": -77.03339166666666, "bike_id": "c8779be2ea59c5ed05a0f1151ee91272", "type": "electric_scooter", "name": "c8779be2ea59c5ed05a0f1151ee91272"}, {"is_disabled": 0, "is_reserved": 0, "fusion_lat": 0.0, "lat": 38.93640083333333, "fusion_lon": 0.0, "rental_uris": {"ios": "https://dc.lft.to/lastmile_qr_scan", "android": "https://dc.lft.to/lastmile_qr_scan"}, "lon": -77.03696866666667, "bike_id": "8578756392ceaae170cec8de3b1084f6", "type": "electric_scooter", "name": "8578756392ceaae170cec8de3b1084f6"}, {"is_disabled": 0, "is_reserved": 0, "fusion_lat": 0.0, "lat": 38.925196, "fusion_lon": 0.0, "rental_uris": {"ios": "https://dc.lft.to/lastmile_qr_scan", "android": "https://dc.lft.to/lastmile_qr_scan"}, "lon": -77.021288, "bike_id": "727459da048485a562042ceca03f680c", "type": "electric_scooter", "name": "727459da048485a562042ceca03f680c"}, {"is_disabled": 0, "is_reserved": 0, "fusion_lat": 0.0, "lat": 38.92159766666666, "fusion_lon": 0.0, "rental_uris": {"ios": "https://dc.lft.to/lastmile_qr_scan", "android": "https://dc.lft.to/lastmile_qr_scan"}, "lon": -77.0338635, "bike_id": "b6688c17849703340f52afa276c99ef5", "type": "electric_scooter", "name": "b6688c17849703340f52afa276c99ef5"}, {"is_disabled": 0, "is_reserved": 0, "fusion_lat": 0.0, "lat": 38.891998666666666, "fusion_lon": 0.0, "rental_uris": {"ios": "https://dc.lft.to/lastmile_qr_scan", "android": "https://dc.lft.to/lastmile_qr_scan"}, "lon": -77.04393216666666, "bike_id": "0e0ebc8944deddbeef29f0c4f87111a0", "type": "electric_scooter", "name": "0e0ebc8944deddbeef29f0c4f87111a0"}, {"is_disabled": 0, "is_reserved": 0, "fusion_lat": 0.0, "lat": 38.90091366666667, "fusion_lon": 0.0, "rental_uris": {"ios": "https://dc.lft.to/lastmile_qr_scan", "android": "https://dc.lft.to/lastmile_qr_scan"}, "lon": -77.04758183333334, "bike_id": "41b1d5424d0777fba3731d9a8409b1f9", "type": "electric_scooter", "name": "41b1d5424d0777fba3731d9a8409b1f9"}, {"is_disabled": 0, "is_reserved": 0, "fusion_lat": 0.0, "lat": 38.92781866666667, "fusion_lon": 0.0, "rental_uris": {"ios": "https://dc.lft.to/lastmile_qr_scan", "android": "https://dc.lft.to/lastmile_qr_scan"}, "lon": -77.05258766666667, "bike_id": "d9ccb37458221729fffa6b33c0998026", "type": "electric_scooter", "name": "d9ccb37458221729fffa6b33c0998026"}, {"is_disabled": 0, "is_reserved": 0, "fusion_lat": 0.0, "lat": 38.906684, "fusion_lon": 0.0, "rental_uris": {"ios": "https://dc.lft.to/lastmile_qr_scan", "android": "https://dc.lft.to/lastmile_qr_scan"}, "lon": -77.0270265, "bike_id": "44994e56a987fff6bdf8622e0679cf37", "type": "electric_scooter", "name": "44994e56a987fff6bdf8622e0679cf37"}, {"is_disabled": 0, "is_reserved": 0, "fusion_lat": 0.0, "lat": 38.936624, "fusion_lon": 0.0, "rental_uris": {"ios": "https://dc.lft.to/lastmile_qr_scan", "android": "https://dc.lft.to/lastmile_qr_scan"}, "lon": -77.06604683333333, "bike_id": "5f1fa1f6d24d8b2750b091371a7899c5", "type": "electric_scooter", "name": "5f1fa1f6d24d8b2750b091371a7899c5"}, {"is_disabled": 0, "is_reserved": 0, "fusion_lat": 0.0, "lat": 38.907873333333335, "fusion_lon": 0.0, "rental_uris": {"ios": "https://dc.lft.to/lastmile_qr_scan", "android": "https://dc.lft.to/lastmile_qr_scan"}, "lon": -76.9971905, "bike_id": "cfc78ba2f9c3c5aba88cf37d03a81d89", "type": "electric_scooter", "name": "cfc78ba2f9c3c5aba88cf37d03a81d89"}, {"is_disabled": 0, "is_reserved": 0, "fusion_lat": 0.0, "lat": 38.9296885, "fusion_lon": 0.0, "rental_uris": {"ios": "https://dc.lft.to/lastmile_qr_scan", "android": "https://dc.lft.to/lastmile_qr_scan"}, "lon": -77.02342283333333, "bike_id": "39e7870abbfbfeb3c2af2324851c6472", "type": "electric_scooter", "name": "39e7870abbfbfeb3c2af2324851c6472"}, {"is_disabled": 0, "is_reserved": 0, "fusion_lat": 0.0, "lat": 38.926645666666666, "fusion_lon": 0.0, "rental_uris": {"ios": "https://dc.lft.to/lastmile_qr_scan", "android": "https://dc.lft.to/lastmile_qr_scan"}, "lon": -76.9955295, "bike_id": "dd76419cc528d87ad9caa9be2bfc7496", "type": "electric_scooter", "name": "dd76419cc528d87ad9caa9be2bfc7496"}, {"is_disabled": 0, "is_reserved": 0, "fusion_lat": 0.0, "lat": 38.90131433333333, "fusion_lon": 0.0, "rental_uris": {"ios": "https://dc.lft.to/lastmile_qr_scan", "android": "https://dc.lft.to/lastmile_qr_scan"}, "lon": -76.99721916666667, "bike_id": "2e5d4a49a2c5f3e8104ebeaf486f0fe7", "type": "electric_scooter", "name": "2e5d4a49a2c5f3e8104ebeaf486f0fe7"}, {"is_disabled": 0, "is_reserved": 0, "fusion_lat": 0.0, "lat": 38.93686966666667, "fusion_lon": 0.0, "rental_uris": {"ios": "https://dc.lft.to/lastmile_qr_scan", "android": "https://dc.lft.to/lastmile_qr_scan"}, "lon": -77.03627466666667, "bike_id": "e73076ebaa211fac0a6dae2515cde3f5", "type": "electric_scooter", "name": "e73076ebaa211fac0a6dae2515cde3f5"}, {"is_disabled": 0, "is_reserved": 0, "fusion_lat": 0.0, "lat": 38.89531066666667, "fusion_lon": 0.0, "rental_uris": {"ios": "https://dc.lft.to/lastmile_qr_scan", "android": "https://dc.lft.to/lastmile_qr_scan"}, "lon": -77.02941033333333, "bike_id": "eafa489ac0366c5ce41fdac54130859f", "type": "electric_scooter", "name": "eafa489ac0366c5ce41fdac54130859f"}, {"is_disabled": 0, "is_reserved": 0, "fusion_lat": 0.0, "lat": 38.91016533333333, "fusion_lon": 0.0, "rental_uris": {"ios": "https://dc.lft.to/lastmile_qr_scan", "android": "https://dc.lft.to/lastmile_qr_scan"}, "lon": -77.03644983333334, "bike_id": "4ac82627b54f44b3e319b2d1e5bd6eef", "type": "electric_scooter", "name": "4ac82627b54f44b3e319b2d1e5bd6eef"}, {"is_disabled": 0, "is_reserved": 0, "fusion_lat": 0.0, "lat": 38.89738766666667, "fusion_lon": 0.0, "rental_uris": {"ios": "https://dc.lft.to/lastmile_qr_scan", "android": "https://dc.lft.to/lastmile_qr_scan"}, "lon": -76.99216783333334, "bike_id": "6794a5c9ce40b5f754e58cdb4d2e9721", "type": "electric_bike", "name": "6794a5c9ce40b5f754e58cdb4d2e9721"}, {"is_disabled": 0, "is_reserved": 0, "fusion_lat": 0.0, "lat": 38.95078683333333, "fusion_lon": 0.0, "rental_uris": {"ios": "https://dc.lft.to/lastmile_qr_scan", "android": "https://dc.lft.to/lastmile_qr_scan"}, "lon": -77.0120575, "bike_id": "fa9349d98e1f565d9e0601a3b350ece8", "type": "electric_bike", "name": "fa9349d98e1f565d9e0601a3b350ece8"}, {"is_disabled": 0, "is_reserved": 0, "fusion_lat": 0.0, "lat": 38.8766965, "fusion_lon": 0.0, "rental_uris": {"ios": "https://dc.lft.to/lastmile_qr_scan", "android": "https://dc.lft.to/lastmile_qr_scan"}, "lon": -77.01446933333334, "bike_id": "df1a1bacc4b11535186c881edc1b8696", "type": "electric_bike", "name": "df1a1bacc4b11535186c881edc1b8696"}, {"is_disabled": 0, "is_reserved": 0, "fusion_lat": 0.0, "lat": 38.84859633333333, "fusion_lon": 0.0, "rental_uris": {"ios": "https://dc.lft.to/lastmile_qr_scan", "android": "https://dc.lft.to/lastmile_qr_scan"}, "lon": -77.06831416666667, "bike_id": "e3671633eb32cd7f685d3971270ae84b", "type": "electric_bike", "name": "e3671633eb32cd7f685d3971270ae84b"}, {"is_disabled": 0, "is_reserved": 0, "fusion_lat": 0.0, "lat": 38.897353833333334, "fusion_lon": 0.0, "rental_uris": {"ios": "https://dc.lft.to/lastmile_qr_scan", "android": "https://dc.lft.to/lastmile_qr_scan"}, "lon": -77.02809533333334, "bike_id": "dd3dd365c6fe5f2ad27bdd4d5cdd82b6", "type": "electric_scooter", "name": "dd3dd365c6fe5f2ad27bdd4d5cdd82b6"}, {"is_disabled": 0, "is_reserved": 0, "fusion_lat": 0.0, "lat": 38.91960733333333, "fusion_lon": 0.0, "rental_uris": {"ios": "https://dc.lft.to/lastmile_qr_scan", "android": "https://dc.lft.to/lastmile_qr_scan"}, "lon": -77.07872133333333, "bike_id": "1b86db08c86ac1ca0f6814313d018f1e", "type": "electric_scooter", "name": "1b86db08c86ac1ca0f6814313d018f1e"}, {"is_disabled": 0, "is_reserved": 0, "fusion_lat": 0.0, "lat": 38.920986, "fusion_lon": 0.0, "rental_uris": {"ios": "https://dc.lft.to/lastmile_qr_scan", "android": "https://dc.lft.to/lastmile_qr_scan"}, "lon": -77.0325625, "bike_id": "323e15ee428826fe0e9bd3c17c623da3", "type": "electric_scooter", "name": "323e15ee428826fe0e9bd3c17c623da3"}, {"is_disabled": 0, "is_reserved": 0, "fusion_lat": 0.0, "lat": 38.929098, "fusion_lon": 0.0, "rental_uris": {"ios": "https://dc.lft.to/lastmile_qr_scan", "android": "https://dc.lft.to/lastmile_qr_scan"}, "lon": -77.03240616666666, "bike_id": "e45af1f9b744548d52bf5e7d3414963f", "type": "electric_scooter", "name": "e45af1f9b744548d52bf5e7d3414963f"}, {"is_disabled": 0, "is_reserved": 0, "fusion_lat": 0.0, "lat": 38.92047483333333, "fusion_lon": 0.0, "rental_uris": {"ios": "https://dc.lft.to/lastmile_qr_scan", "android": "https://dc.lft.to/lastmile_qr_scan"}, "lon": -77.03468166666667, "bike_id": "f6823d234ab77fec1758c36a36c3b812", "type": "electric_scooter", "name": "f6823d234ab77fec1758c36a36c3b812"}, {"is_disabled": 0, "is_reserved": 0, "fusion_lat": 0.0, "lat": 38.879224, "fusion_lon": 0.0, "rental_uris": {"ios": "https://dc.lft.to/lastmile_qr_scan", "android": "https://dc.lft.to/lastmile_qr_scan"}, "lon": -77.00781333333333, "bike_id": "bfca960d17224293bb5a331127268f98", "type": "electric_scooter", "name": "bfca960d17224293bb5a331127268f98"}, {"is_disabled": 0, "is_reserved": 0, "fusion_lat": 0.0, "lat": 38.928415666666666, "fusion_lon": 0.0, "rental_uris": {"ios": "https://dc.lft.to/lastmile_qr_scan", "android": "https://dc.lft.to/lastmile_qr_scan"}, "lon": -77.03730666666667, "bike_id": "a4d4fa7bfc36e6a9bfaa12dfd2540ded", "type": "electric_scooter", "name": "a4d4fa7bfc36e6a9bfaa12dfd2540ded"}, {"is_disabled": 0, "is_reserved": 0, "fusion_lat": 0.0, "lat": 38.920935166666666, "fusion_lon": 0.0, "rental_uris": {"ios": "https://dc.lft.to/lastmile_qr_scan", "android": "https://dc.lft.to/lastmile_qr_scan"}, "lon": -77.018147, "bike_id": "a5c78ed16c1dc2a0d9fdd8b23ccceb23", "type": "electric_scooter", "name": "a5c78ed16c1dc2a0d9fdd8b23ccceb23"}, {"is_disabled": 0, "is_reserved": 0, "fusion_lat": 0.0, "lat": 38.90725583333333, "fusion_lon": 0.0, "rental_uris": {"ios": "https://dc.lft.to/lastmile_qr_scan", "android": "https://dc.lft.to/lastmile_qr_scan"}, "lon": -77.00200266666667, "bike_id": "a6cce772bd07ed17281cb6ef627caa5b", "type": "electric_scooter", "name": "a6cce772bd07ed17281cb6ef627caa5b"}, {"is_disabled": 0, "is_reserved": 0, "fusion_lat": 0.0, "lat": 38.911208333333335, "fusion_lon": 0.0, "rental_uris": {"ios": "https://dc.lft.to/lastmile_qr_scan", "android": "https://dc.lft.to/lastmile_qr_scan"}, "lon": -77.03827766666667, "bike_id": "404044e4843a67407af15e1759f15b2e", "type": "electric_scooter", "name": "404044e4843a67407af15e1759f15b2e"}, {"is_disabled": 0, "is_reserved": 0, "fusion_lat": 0.0, "lat": 38.93631116666667, "fusion_lon": 0.0, "rental_uris": {"ios": "https://dc.lft.to/lastmile_qr_scan", "android": "https://dc.lft.to/lastmile_qr_scan"}, "lon": -77.036603, "bike_id": "faeb21ef909160b68ec8e079d2f608b4", "type": "electric_scooter", "name": "faeb21ef909160b68ec8e079d2f608b4"}, {"is_disabled": 0, "is_reserved": 0, "fusion_lat": 0.0, "lat": 38.929902, "fusion_lon": 0.0, "rental_uris": {"ios": "https://dc.lft.to/lastmile_qr_scan", "android": "https://dc.lft.to/lastmile_qr_scan"}, "lon": -77.02208983333334, "bike_id": "74833422f08768ee483d45cd72ab0ec9", "type": "electric_scooter", "name": "74833422f08768ee483d45cd72ab0ec9"}, {"is_disabled": 0, "is_reserved": 0, "fusion_lat": 0.0, "lat": 38.892503166666664, "fusion_lon": 0.0, "rental_uris": {"ios": "https://dc.lft.to/lastmile_qr_scan", "android": "https://dc.lft.to/lastmile_qr_scan"}, "lon": -77.04660133333333, "bike_id": "044b8f897e2ea87474eabe6e243a0a29", "type": "electric_scooter", "name": "044b8f897e2ea87474eabe6e243a0a29"}, {"is_disabled": 0, "is_reserved": 0, "fusion_lat": 0.0, "lat": 38.93592783333333, "fusion_lon": 0.0, "rental_uris": {"ios": "https://dc.lft.to/lastmile_qr_scan", "android": "https://dc.lft.to/lastmile_qr_scan"}, "lon": -77.02412833333334, "bike_id": "1a6309c0d29dd6450d3e60e9b86b8779", "type": "electric_scooter", "name": "1a6309c0d29dd6450d3e60e9b86b8779"}, {"is_disabled": 0, "is_reserved": 0, "fusion_lat": 0.0, "lat": 39.074718833333336, "fusion_lon": 0.0, "rental_uris": {"ios": "https://dc.lft.to/lastmile_qr_scan", "android": "https://dc.lft.to/lastmile_qr_scan"}, "lon": -77.11528866666667, "bike_id": "7ecda18e89f2007db1d0fc272caef8c6", "type": "electric_bike", "name": "7ecda18e89f2007db1d0fc272caef8c6"}, {"is_disabled": 0, "is_reserved": 0, "fusion_lat": 0.0, "lat": 38.92105983333333, "fusion_lon": 0.0, "rental_uris": {"ios": "https://dc.lft.to/lastmile_qr_scan", "android": "https://dc.lft.to/lastmile_qr_scan"}, "lon": -77.04694983333333, "bike_id": "f5331ba3d3dc66f2838b715616e1155a", "type": "electric_scooter", "name": "f5331ba3d3dc66f2838b715616e1155a"}, {"is_disabled": 0, "is_reserved": 0, "fusion_lat": 0.0, "lat": 38.855951, "fusion_lon": 0.0, "rental_uris": {"ios": "https://dc.lft.to/lastmile_qr_scan", "android": "https://dc.lft.to/lastmile_qr_scan"}, "lon": -76.97284633333334, "bike_id": "7de06818993e2ed1f1a252b85a6bb853", "type": "electric_bike", "name": "7de06818993e2ed1f1a252b85a6bb853"}, {"is_disabled": 0, "is_reserved": 0, "fusion_lat": 0.0, "lat": 38.902056, "fusion_lon": 0.0, "rental_uris": {"ios": "https://dc.lft.to/lastmile_qr_scan", "android": "https://dc.lft.to/lastmile_qr_scan"}, "lon": -77.02195616666667, "bike_id": "2b91b30d97ff02701d631bb64e49fca6", "type": "electric_scooter", "name": "2b91b30d97ff02701d631bb64e49fca6"}, {"is_disabled": 0, "is_reserved": 0, "fusion_lat": 0.0, "lat": 38.947471, "fusion_lon": 0.0, "rental_uris": {"ios": "https://dc.lft.to/lastmile_qr_scan", "android": "https://dc.lft.to/lastmile_qr_scan"}, "lon": -77.02360816666666, "bike_id": "b0dc7b3dc3eb541684f138f4c9dcf370", "type": "electric_scooter", "name": "b0dc7b3dc3eb541684f138f4c9dcf370"}, {"is_disabled": 0, "is_reserved": 0, "fusion_lat": 0.0, "lat": 38.804036333333336, "fusion_lon": 0.0, "rental_uris": {"ios": "https://dc.lft.to/lastmile_qr_scan", "android": "https://dc.lft.to/lastmile_qr_scan"}, "lon": -77.11331933333334, "bike_id": "b6c90a32ce8506a499f1d8140ed58c15", "type": "electric_bike", "name": "b6c90a32ce8506a499f1d8140ed58c15"}, {"is_disabled": 0, "is_reserved": 0, "fusion_lat": 0.0, "lat": 38.914169333333334, "fusion_lon": 0.0, "rental_uris": {"ios": "https://dc.lft.to/lastmile_qr_scan", "android": "https://dc.lft.to/lastmile_qr_scan"}, "lon": -77.02217033333334, "bike_id": "e7458da723d8ea4e398d9370b0c41136", "type": "electric_scooter", "name": "e7458da723d8ea4e398d9370b0c41136"}, {"is_disabled": 0, "is_reserved": 0, "fusion_lat": 0.0, "lat": 38.91681666666667, "fusion_lon": 0.0, "rental_uris": {"ios": "https://dc.lft.to/lastmile_qr_scan", "android": "https://dc.lft.to/lastmile_qr_scan"}, "lon": -77.02972916666667, "bike_id": "ee665adcefb218f9226361518825c7a5", "type": "electric_scooter", "name": "ee665adcefb218f9226361518825c7a5"}, {"is_disabled": 0, "is_reserved": 0, "fusion_lat": 0.0, "lat": 38.93352516666667, "fusion_lon": 0.0, "rental_uris": {"ios": "https://dc.lft.to/lastmile_qr_scan", "android": "https://dc.lft.to/lastmile_qr_scan"}, "lon": -77.03414833333333, "bike_id": "720d0af8537052bf136cd47581d5387f", "type": "electric_scooter", "name": "720d0af8537052bf136cd47581d5387f"}, {"is_disabled": 0, "is_reserved": 0, "fusion_lat": 0.0, "lat": 38.89908033333333, "fusion_lon": 0.0, "rental_uris": {"ios": "https://dc.lft.to/lastmile_qr_scan", "android": "https://dc.lft.to/lastmile_qr_scan"}, "lon": -77.04896316666667, "bike_id": "5d61a5ac7f65756dbdcdab110d148866", "type": "electric_scooter", "name": "5d61a5ac7f65756dbdcdab110d148866"}, {"is_disabled": 0, "is_reserved": 0, "fusion_lat": 0.0, "lat": 38.9564045, "fusion_lon": 0.0, "rental_uris": {"ios": "https://dc.lft.to/lastmile_qr_scan", "android": "https://dc.lft.to/lastmile_qr_scan"}, "lon": -77.02447183333334, "bike_id": "d3f42c6931843ce0348d4bf284adcba3", "type": "electric_scooter", "name": "d3f42c6931843ce0348d4bf284adcba3"}, {"is_disabled": 0, "is_reserved": 0, "fusion_lat": 0.0, "lat": 38.90040666666667, "fusion_lon": 0.0, "rental_uris": {"ios": "https://dc.lft.to/lastmile_qr_scan", "android": "https://dc.lft.to/lastmile_qr_scan"}, "lon": -76.98559983333334, "bike_id": "0c5d876729729bc6397a477742d1ebab", "type": "electric_scooter", "name": "0c5d876729729bc6397a477742d1ebab"}, {"is_disabled": 0, "is_reserved": 0, "fusion_lat": 0.0, "lat": 38.93791933333333, "fusion_lon": 0.0, "rental_uris": {"ios": "https://dc.lft.to/lastmile_qr_scan", "android": "https://dc.lft.to/lastmile_qr_scan"}, "lon": -77.029787, "bike_id": "e198c6c230652b3acf163c15996d29f4", "type": "electric_scooter", "name": "e198c6c230652b3acf163c15996d29f4"}, {"is_disabled": 0, "is_reserved": 0, "fusion_lat": 0.0, "lat": 38.920915666666666, "fusion_lon": 0.0, "rental_uris": {"ios": "https://dc.lft.to/lastmile_qr_scan", "android": "https://dc.lft.to/lastmile_qr_scan"}, "lon": -77.02503366666667, "bike_id": "57f9c020f12f5cfbb289f8cdfdb46d68", "type": "electric_scooter", "name": "57f9c020f12f5cfbb289f8cdfdb46d68"}, {"is_disabled": 0, "is_reserved": 0, "fusion_lat": 0.0, "lat": 38.92931266666667, "fusion_lon": 0.0, "rental_uris": {"ios": "https://dc.lft.to/lastmile_qr_scan", "android": "https://dc.lft.to/lastmile_qr_scan"}, "lon": -77.00675, "bike_id": "ec92df6acc9c4bf90de159951b74a4cc", "type": "electric_scooter", "name": "ec92df6acc9c4bf90de159951b74a4cc"}, {"is_disabled": 0, "is_reserved": 0, "fusion_lat": 0.0, "lat": 38.90862166666667, "fusion_lon": 0.0, "rental_uris": {"ios": "https://dc.lft.to/lastmile_qr_scan", "android": "https://dc.lft.to/lastmile_qr_scan"}, "lon": -77.02425066666666, "bike_id": "28be3a38028d320a2a65652f0672ee86", "type": "electric_scooter", "name": "28be3a38028d320a2a65652f0672ee86"}, {"is_disabled": 0, "is_reserved": 0, "fusion_lat": 0.0, "lat": 38.900338833333336, "fusion_lon": 0.0, "rental_uris": {"ios": "https://dc.lft.to/lastmile_qr_scan", "android": "https://dc.lft.to/lastmile_qr_scan"}, "lon": -77.002081, "bike_id": "7333a80675af004be85afdffed851988", "type": "electric_scooter", "name": "7333a80675af004be85afdffed851988"}, {"is_disabled": 0, "is_reserved": 0, "fusion_lat": 0.0, "lat": 38.90194016666667, "fusion_lon": 0.0, "rental_uris": {"ios": "https://dc.lft.to/lastmile_qr_scan", "android": "https://dc.lft.to/lastmile_qr_scan"}, "lon": -77.0508765, "bike_id": "8c1fcf94987e7e587c62398aa5121d08", "type": "electric_scooter", "name": "8c1fcf94987e7e587c62398aa5121d08"}, {"is_disabled": 0, "is_reserved": 0, "fusion_lat": 0.0, "lat": 38.90867466666667, "fusion_lon": 0.0, "rental_uris": {"ios": "https://dc.lft.to/lastmile_qr_scan", "android": "https://dc.lft.to/lastmile_qr_scan"}, "lon": -77.08594216666667, "bike_id": "a5fab9961bf025adfc1b2d68fcb7338e", "type": "electric_scooter", "name": "a5fab9961bf025adfc1b2d68fcb7338e"}, {"is_disabled": 0, "is_reserved": 0, "fusion_lat": 0.0, "lat": 38.9134745, "fusion_lon": 0.0, "rental_uris": {"ios": "https://dc.lft.to/lastmile_qr_scan", "android": "https://dc.lft.to/lastmile_qr_scan"}, "lon": -77.03202783333333, "bike_id": "b8bfff91af064e99fb9eef97bdd64795", "type": "electric_scooter", "name": "b8bfff91af064e99fb9eef97bdd64795"}, {"is_disabled": 0, "is_reserved": 0, "fusion_lat": 0.0, "lat": 38.947221666666664, "fusion_lon": 0.0, "rental_uris": {"ios": "https://dc.lft.to/lastmile_qr_scan", "android": "https://dc.lft.to/lastmile_qr_scan"}, "lon": -77.02355383333334, "bike_id": "948bdaceeaf0319039d7f529e60e29d4", "type": "electric_scooter", "name": "948bdaceeaf0319039d7f529e60e29d4"}, {"is_disabled": 0, "is_reserved": 0, "fusion_lat": 0.0, "lat": 38.92966083333334, "fusion_lon": 0.0, "rental_uris": {"ios": "https://dc.lft.to/lastmile_qr_scan", "android": "https://dc.lft.to/lastmile_qr_scan"}, "lon": -77.04206716666667, "bike_id": "ed6022a74ca34779e2a814ba478e6d0e", "type": "electric_scooter", "name": "ed6022a74ca34779e2a814ba478e6d0e"}, {"is_disabled": 0, "is_reserved": 0, "fusion_lat": 0.0, "lat": 38.917821, "fusion_lon": 0.0, "rental_uris": {"ios": "https://dc.lft.to/lastmile_qr_scan", "android": "https://dc.lft.to/lastmile_qr_scan"}, "lon": -77.0247445, "bike_id": "2853c714a03e105521ef99b1e816e1af", "type": "electric_scooter", "name": "2853c714a03e105521ef99b1e816e1af"}, {"is_disabled": 0, "is_reserved": 0, "fusion_lat": 0.0, "lat": 38.895833333333336, "fusion_lon": 0.0, "rental_uris": {"ios": "https://dc.lft.to/lastmile_qr_scan", "android": "https://dc.lft.to/lastmile_qr_scan"}, "lon": -77.02513933333333, "bike_id": "9c9bd2f62e61b5192df7b5a7f7dbeca9", "type": "electric_scooter", "name": "9c9bd2f62e61b5192df7b5a7f7dbeca9"}, {"is_disabled": 0, "is_reserved": 0, "fusion_lat": 0.0, "lat": 38.92088433333333, "fusion_lon": 0.0, "rental_uris": {"ios": "https://dc.lft.to/lastmile_qr_scan", "android": "https://dc.lft.to/lastmile_qr_scan"}, "lon": -77.02252266666666, "bike_id": "354bd6be4210536ebacbe9d0522f2831", "type": "electric_scooter", "name": "354bd6be4210536ebacbe9d0522f2831"}, {"is_disabled": 0, "is_reserved": 0, "fusion_lat": 0.0, "lat": 38.908628, "fusion_lon": 0.0, "rental_uris": {"ios": "https://dc.lft.to/lastmile_qr_scan", "android": "https://dc.lft.to/lastmile_qr_scan"}, "lon": -77.04830116666666, "bike_id": "55f11726e5d3d4b969a8a7225115f8e0", "type": "electric_scooter", "name": "55f11726e5d3d4b969a8a7225115f8e0"}, {"is_disabled": 0, "is_reserved": 0, "fusion_lat": 0.0, "lat": 38.913243666666666, "fusion_lon": 0.0, "rental_uris": {"ios": "https://dc.lft.to/lastmile_qr_scan", "android": "https://dc.lft.to/lastmile_qr_scan"}, "lon": -77.032002, "bike_id": "b0e0a6deeb253d71fd7f33181c41087e", "type": "electric_scooter", "name": "b0e0a6deeb253d71fd7f33181c41087e"}, {"is_disabled": 0, "is_reserved": 0, "fusion_lat": 0.0, "lat": 38.93861033333334, "fusion_lon": 0.0, "rental_uris": {"ios": "https://dc.lft.to/lastmile_qr_scan", "android": "https://dc.lft.to/lastmile_qr_scan"}, "lon": -76.99436033333333, "bike_id": "cf31aa17322198f352627b0677dc9874", "type": "electric_scooter", "name": "cf31aa17322198f352627b0677dc9874"}, {"is_disabled": 0, "is_reserved": 0, "fusion_lat": 0.0, "lat": 38.91683033333333, "fusion_lon": 0.0, "rental_uris": {"ios": "https://dc.lft.to/lastmile_qr_scan", "android": "https://dc.lft.to/lastmile_qr_scan"}, "lon": -77.0297265, "bike_id": "71829e263ef6f2749ac9b2a68a69817c", "type": "electric_scooter", "name": "71829e263ef6f2749ac9b2a68a69817c"}, {"is_disabled": 0, "is_reserved": 0, "fusion_lat": 0.0, "lat": 38.87172066666667, "fusion_lon": 0.0, "rental_uris": {"ios": "https://dc.lft.to/lastmile_qr_scan", "android": "https://dc.lft.to/lastmile_qr_scan"}, "lon": -77.006268, "bike_id": "e72fe808eadc04f12b17f8987e02003d", "type": "electric_scooter", "name": "e72fe808eadc04f12b17f8987e02003d"}, {"is_disabled": 0, "is_reserved": 0, "fusion_lat": 0.0, "lat": 38.923336666666664, "fusion_lon": 0.0, "rental_uris": {"ios": "https://dc.lft.to/lastmile_qr_scan", "android": "https://dc.lft.to/lastmile_qr_scan"}, "lon": -77.05684383333333, "bike_id": "24c6847dddd509383527cd6359ec5c05", "type": "electric_scooter", "name": "24c6847dddd509383527cd6359ec5c05"}, {"is_disabled": 0, "is_reserved": 0, "fusion_lat": 0.0, "lat": 38.935507, "fusion_lon": 0.0, "rental_uris": {"ios": "https://dc.lft.to/lastmile_qr_scan", "android": "https://dc.lft.to/lastmile_qr_scan"}, "lon": -77.07711033333334, "bike_id": "64ef3b9091b5a2ea28f2e23bd6e64819", "type": "electric_scooter", "name": "64ef3b9091b5a2ea28f2e23bd6e64819"}, {"is_disabled": 0, "is_reserved": 0, "fusion_lat": 0.0, "lat": 38.89178966666667, "fusion_lon": 0.0, "rental_uris": {"ios": "https://dc.lft.to/lastmile_qr_scan", "android": "https://dc.lft.to/lastmile_qr_scan"}, "lon": -77.0317995, "bike_id": "ee5953be646cb66c6f4e3e4b986cdffc", "type": "electric_scooter", "name": "ee5953be646cb66c6f4e3e4b986cdffc"}, {"is_disabled": 0, "is_reserved": 0, "fusion_lat": 0.0, "lat": 38.925903, "fusion_lon": 0.0, "rental_uris": {"ios": "https://dc.lft.to/lastmile_qr_scan", "android": "https://dc.lft.to/lastmile_qr_scan"}, "lon": -77.04405066666666, "bike_id": "1b384f0f8dd9faf08dcb12b0a873504e", "type": "electric_scooter", "name": "1b384f0f8dd9faf08dcb12b0a873504e"}, {"is_disabled": 0, "is_reserved": 0, "fusion_lat": 0.0, "lat": 38.89239466666667, "fusion_lon": 0.0, "rental_uris": {"ios": "https://dc.lft.to/lastmile_qr_scan", "android": "https://dc.lft.to/lastmile_qr_scan"}, "lon": -77.03191283333334, "bike_id": "e4990c7c74dc34c9272018c621041f16", "type": "electric_scooter", "name": "e4990c7c74dc34c9272018c621041f16"}, {"is_disabled": 0, "is_reserved": 0, "fusion_lat": 0.0, "lat": 38.9141975, "fusion_lon": 0.0, "rental_uris": {"ios": "https://dc.lft.to/lastmile_qr_scan", "android": "https://dc.lft.to/lastmile_qr_scan"}, "lon": -77.03175466666667, "bike_id": "efd22695f9a0cf5d1b451f1b2ac97f01", "type": "electric_scooter", "name": "efd22695f9a0cf5d1b451f1b2ac97f01"}, {"is_disabled": 0, "is_reserved": 0, "fusion_lat": 0.0, "lat": 38.9248275, "fusion_lon": 0.0, "rental_uris": {"ios": "https://dc.lft.to/lastmile_qr_scan", "android": "https://dc.lft.to/lastmile_qr_scan"}, "lon": -77.02838066666666, "bike_id": "05ff019f7c8aa601e27c8b301864c132", "type": "electric_scooter", "name": "05ff019f7c8aa601e27c8b301864c132"}, {"is_disabled": 0, "is_reserved": 0, "fusion_lat": 0.0, "lat": 38.928558333333335, "fusion_lon": 0.0, "rental_uris": {"ios": "https://dc.lft.to/lastmile_qr_scan", "android": "https://dc.lft.to/lastmile_qr_scan"}, "lon": -77.034396, "bike_id": "6cd74a6091de73c01aca2245b1e080c7", "type": "electric_scooter", "name": "6cd74a6091de73c01aca2245b1e080c7"}, {"is_disabled": 0, "is_reserved": 0, "fusion_lat": 0.0, "lat": 38.935960666666666, "fusion_lon": 0.0, "rental_uris": {"ios": "https://dc.lft.to/lastmile_qr_scan", "android": "https://dc.lft.to/lastmile_qr_scan"}, "lon": -77.03879466666666, "bike_id": "8bdf8eacf0c21371e650d015e475e3e3", "type": "electric_scooter", "name": "8bdf8eacf0c21371e650d015e475e3e3"}, {"is_disabled": 0, "is_reserved": 0, "fusion_lat": 0.0, "lat": 38.90237183333333, "fusion_lon": 0.0, "rental_uris": {"ios": "https://dc.lft.to/lastmile_qr_scan", "android": "https://dc.lft.to/lastmile_qr_scan"}, "lon": -77.05342183333333, "bike_id": "b4dfa63697d680f747d71508d0eed95d", "type": "electric_scooter", "name": "b4dfa63697d680f747d71508d0eed95d"}, {"is_disabled": 0, "is_reserved": 0, "fusion_lat": 0.0, "lat": 38.900304166666665, "fusion_lon": 0.0, "rental_uris": {"ios": "https://dc.lft.to/lastmile_qr_scan", "android": "https://dc.lft.to/lastmile_qr_scan"}, "lon": -76.99844833333333, "bike_id": "e1ea916885336d4111bfa3741204fae2", "type": "electric_scooter", "name": "e1ea916885336d4111bfa3741204fae2"}, {"is_disabled": 0, "is_reserved": 0, "fusion_lat": 0.0, "lat": 38.83588616666667, "fusion_lon": 0.0, "rental_uris": {"ios": "https://dc.lft.to/lastmile_qr_scan", "android": "https://dc.lft.to/lastmile_qr_scan"}, "lon": -76.990262, "bike_id": "cd1d713c4e31cd83f62ec837abbcc8b5", "type": "electric_bike", "name": "cd1d713c4e31cd83f62ec837abbcc8b5"}, {"is_disabled": 0, "is_reserved": 0, "fusion_lat": 0.0, "lat": 38.9204945, "fusion_lon": 0.0, "rental_uris": {"ios": "https://dc.lft.to/lastmile_qr_scan", "android": "https://dc.lft.to/lastmile_qr_scan"}, "lon": -77.0454095, "bike_id": "76ec0dbf5082f81fcb47bc659a8a7cc1", "type": "electric_scooter", "name": "76ec0dbf5082f81fcb47bc659a8a7cc1"}, {"is_disabled": 0, "is_reserved": 0, "fusion_lat": 0.0, "lat": 38.9027235, "fusion_lon": 0.0, "rental_uris": {"ios": "https://dc.lft.to/lastmile_qr_scan", "android": "https://dc.lft.to/lastmile_qr_scan"}, "lon": -77.00199916666666, "bike_id": "b4996da29fa6ece63b8206d2c71f50fa", "type": "electric_scooter", "name": "b4996da29fa6ece63b8206d2c71f50fa"}, {"is_disabled": 0, "is_reserved": 0, "fusion_lat": 0.0, "lat": 38.91906066666667, "fusion_lon": 0.0, "rental_uris": {"ios": "https://dc.lft.to/lastmile_qr_scan", "android": "https://dc.lft.to/lastmile_qr_scan"}, "lon": -77.10186283333333, "bike_id": "cbe66baaafae9acea5303bebacfe15f5", "type": "electric_bike", "name": "cbe66baaafae9acea5303bebacfe15f5"}, {"is_disabled": 0, "is_reserved": 0, "fusion_lat": 0.0, "lat": 38.9288355, "fusion_lon": 0.0, "rental_uris": {"ios": "https://dc.lft.to/lastmile_qr_scan", "android": "https://dc.lft.to/lastmile_qr_scan"}, "lon": -77.026054, "bike_id": "df8e5c38866fc623c2bb2ac853f9ed06", "type": "electric_scooter", "name": "df8e5c38866fc623c2bb2ac853f9ed06"}, {"is_disabled": 0, "is_reserved": 0, "fusion_lat": 0.0, "lat": 38.919152833333335, "fusion_lon": 0.0, "rental_uris": {"ios": "https://dc.lft.to/lastmile_qr_scan", "android": "https://dc.lft.to/lastmile_qr_scan"}, "lon": -77.0447105, "bike_id": "0e7ad765a94ca8385bc7849ea3847b05", "type": "electric_scooter", "name": "0e7ad765a94ca8385bc7849ea3847b05"}, {"is_disabled": 0, "is_reserved": 0, "fusion_lat": 0.0, "lat": 38.90887166666667, "fusion_lon": 0.0, "rental_uris": {"ios": "https://dc.lft.to/lastmile_qr_scan", "android": "https://dc.lft.to/lastmile_qr_scan"}, "lon": -76.997814, "bike_id": "14b6c9c68c10960802b4b9592b1fc0d9", "type": "electric_scooter", "name": "14b6c9c68c10960802b4b9592b1fc0d9"}, {"is_disabled": 0, "is_reserved": 0, "fusion_lat": 0.0, "lat": 38.907868, "fusion_lon": 0.0, "rental_uris": {"ios": "https://dc.lft.to/lastmile_qr_scan", "android": "https://dc.lft.to/lastmile_qr_scan"}, "lon": -77.04671066666667, "bike_id": "5e22e96a58034809596eb9c837c772d9", "type": "electric_scooter", "name": "5e22e96a58034809596eb9c837c772d9"}, {"is_disabled": 0, "is_reserved": 0, "fusion_lat": 0.0, "lat": 38.93255716666667, "fusion_lon": 0.0, "rental_uris": {"ios": "https://dc.lft.to/lastmile_qr_scan", "android": "https://dc.lft.to/lastmile_qr_scan"}, "lon": -77.03284483333333, "bike_id": "de207b378ac846601abac17446e3deb5", "type": "electric_scooter", "name": "de207b378ac846601abac17446e3deb5"}, {"is_disabled": 0, "is_reserved": 0, "fusion_lat": 0.0, "lat": 38.906417, "fusion_lon": 0.0, "rental_uris": {"ios": "https://dc.lft.to/lastmile_qr_scan", "android": "https://dc.lft.to/lastmile_qr_scan"}, "lon": -77.02463933333334, "bike_id": "4c3e24fbdb0c79d1ba5f6e353e5d19f9", "type": "electric_scooter", "name": "4c3e24fbdb0c79d1ba5f6e353e5d19f9"}, {"is_disabled": 0, "is_reserved": 0, "fusion_lat": 0.0, "lat": 38.89654383333333, "fusion_lon": 0.0, "rental_uris": {"ios": "https://dc.lft.to/lastmile_qr_scan", "android": "https://dc.lft.to/lastmile_qr_scan"}, "lon": -77.04340033333334, "bike_id": "8b55c3bb5b8659c48fe518c529007df3", "type": "electric_scooter", "name": "8b55c3bb5b8659c48fe518c529007df3"}, {"is_disabled": 0, "is_reserved": 0, "fusion_lat": 0.0, "lat": 38.92093466666667, "fusion_lon": 0.0, "rental_uris": {"ios": "https://dc.lft.to/lastmile_qr_scan", "android": "https://dc.lft.to/lastmile_qr_scan"}, "lon": -77.02596316666667, "bike_id": "0cc9abcb993f50eb02f7bfb74ddbdcd1", "type": "electric_scooter", "name": "0cc9abcb993f50eb02f7bfb74ddbdcd1"}, {"is_disabled": 0, "is_reserved": 0, "fusion_lat": 0.0, "lat": 38.949225, "fusion_lon": 0.0, "rental_uris": {"ios": "https://dc.lft.to/lastmile_qr_scan", "android": "https://dc.lft.to/lastmile_qr_scan"}, "lon": -77.007991, "bike_id": "20494864e606940adea3a742da8be4fa", "type": "electric_bike", "name": "20494864e606940adea3a742da8be4fa"}, {"is_disabled": 0, "is_reserved": 0, "fusion_lat": 0.0, "lat": 38.89132816666667, "fusion_lon": 0.0, "rental_uris": {"ios": "https://dc.lft.to/lastmile_qr_scan", "android": "https://dc.lft.to/lastmile_qr_scan"}, "lon": -76.99944816666667, "bike_id": "f1d5b90a53493cd4565af2e454c69a45", "type": "electric_scooter", "name": "f1d5b90a53493cd4565af2e454c69a45"}, {"is_disabled": 0, "is_reserved": 0, "fusion_lat": 0.0, "lat": 38.898943833333334, "fusion_lon": 0.0, "rental_uris": {"ios": "https://dc.lft.to/lastmile_qr_scan", "android": "https://dc.lft.to/lastmile_qr_scan"}, "lon": -77.02822683333333, "bike_id": "e0c1fc9dd35e6e488c3bfc423ac66226", "type": "electric_scooter", "name": "e0c1fc9dd35e6e488c3bfc423ac66226"}, {"is_disabled": 0, "is_reserved": 0, "fusion_lat": 0.0, "lat": 38.9127615, "fusion_lon": 0.0, "rental_uris": {"ios": "https://dc.lft.to/lastmile_qr_scan", "android": "https://dc.lft.to/lastmile_qr_scan"}, "lon": -77.04484866666667, "bike_id": "24ff5d6a64565b1779932e0eb59f33e0", "type": "electric_scooter", "name": "24ff5d6a64565b1779932e0eb59f33e0"}, {"is_disabled": 0, "is_reserved": 0, "fusion_lat": 0.0, "lat": 38.906553833333334, "fusion_lon": 0.0, "rental_uris": {"ios": "https://dc.lft.to/lastmile_qr_scan", "android": "https://dc.lft.to/lastmile_qr_scan"}, "lon": -77.01414866666667, "bike_id": "82c4f5748f2e3215e331b271d56a2760", "type": "electric_scooter", "name": "82c4f5748f2e3215e331b271d56a2760"}, {"is_disabled": 0, "is_reserved": 0, "fusion_lat": 0.0, "lat": 38.90092833333333, "fusion_lon": 0.0, "rental_uris": {"ios": "https://dc.lft.to/lastmile_qr_scan", "android": "https://dc.lft.to/lastmile_qr_scan"}, "lon": -77.04770633333334, "bike_id": "67555dedec94cba4dcaff9eda6a71340", "type": "electric_scooter", "name": "67555dedec94cba4dcaff9eda6a71340"}, {"is_disabled": 0, "is_reserved": 0, "fusion_lat": 0.0, "lat": 38.876443, "fusion_lon": 0.0, "rental_uris": {"ios": "https://dc.lft.to/lastmile_qr_scan", "android": "https://dc.lft.to/lastmile_qr_scan"}, "lon": -76.99294683333333, "bike_id": "f569d421572cb700f6fdd94398c309d6", "type": "electric_scooter", "name": "f569d421572cb700f6fdd94398c309d6"}, {"is_disabled": 0, "is_reserved": 0, "fusion_lat": 0.0, "lat": 38.905969, "fusion_lon": 0.0, "rental_uris": {"ios": "https://dc.lft.to/lastmile_qr_scan", "android": "https://dc.lft.to/lastmile_qr_scan"}, "lon": -77.06536083333333, "bike_id": "c2cd69d8dc1d6f535ff8e58cb28265b9", "type": "electric_scooter", "name": "c2cd69d8dc1d6f535ff8e58cb28265b9"}, {"is_disabled": 0, "is_reserved": 0, "fusion_lat": 0.0, "lat": 38.914219333333335, "fusion_lon": 0.0, "rental_uris": {"ios": "https://dc.lft.to/lastmile_qr_scan", "android": "https://dc.lft.to/lastmile_qr_scan"}, "lon": -77.03177716666667, "bike_id": "1026b00a40069d9035282bf4ee8376be", "type": "electric_scooter", "name": "1026b00a40069d9035282bf4ee8376be"}, {"is_disabled": 0, "is_reserved": 0, "fusion_lat": 0.0, "lat": 38.91825566666667, "fusion_lon": 0.0, "rental_uris": {"ios": "https://dc.lft.to/lastmile_qr_scan", "android": "https://dc.lft.to/lastmile_qr_scan"}, "lon": -77.03439583333333, "bike_id": "fd2989039c4553e182f9dab6e029c2a0", "type": "electric_scooter", "name": "fd2989039c4553e182f9dab6e029c2a0"}, {"is_disabled": 0, "is_reserved": 0, "fusion_lat": 0.0, "lat": 38.90201283333333, "fusion_lon": 0.0, "rental_uris": {"ios": "https://dc.lft.to/lastmile_qr_scan", "android": "https://dc.lft.to/lastmile_qr_scan"}, "lon": -77.05032233333333, "bike_id": "4a28448d4d7a906c525dce380f2f79f3", "type": "electric_scooter", "name": "4a28448d4d7a906c525dce380f2f79f3"}, {"is_disabled": 0, "is_reserved": 0, "fusion_lat": 0.0, "lat": 38.93863133333333, "fusion_lon": 0.0, "rental_uris": {"ios": "https://dc.lft.to/lastmile_qr_scan", "android": "https://dc.lft.to/lastmile_qr_scan"}, "lon": -77.030458, "bike_id": "d48ea63f158f89b09d8c0f5930aa0e47", "type": "electric_scooter", "name": "d48ea63f158f89b09d8c0f5930aa0e47"}, {"is_disabled": 0, "is_reserved": 0, "fusion_lat": 0.0, "lat": 38.948233333333334, "fusion_lon": 0.0, "rental_uris": {"ios": "https://dc.lft.to/lastmile_qr_scan", "android": "https://dc.lft.to/lastmile_qr_scan"}, "lon": -77.02542066666666, "bike_id": "badfc77a567aef4b184bf924c1ec91f2", "type": "electric_scooter", "name": "badfc77a567aef4b184bf924c1ec91f2"}, {"is_disabled": 0, "is_reserved": 0, "fusion_lat": 0.0, "lat": 38.90690433333333, "fusion_lon": 0.0, "rental_uris": {"ios": "https://dc.lft.to/lastmile_qr_scan", "android": "https://dc.lft.to/lastmile_qr_scan"}, "lon": -77.05320433333333, "bike_id": "b43b866c18cb799cb2e991c0626e3672", "type": "electric_scooter", "name": "b43b866c18cb799cb2e991c0626e3672"}, {"is_disabled": 0, "is_reserved": 0, "fusion_lat": 0.0, "lat": 38.902748, "fusion_lon": 0.0, "rental_uris": {"ios": "https://dc.lft.to/lastmile_qr_scan", "android": "https://dc.lft.to/lastmile_qr_scan"}, "lon": -77.0590195, "bike_id": "59047c7e5e360560811190055fb11bdc", "type": "electric_scooter", "name": "59047c7e5e360560811190055fb11bdc"}, {"is_disabled": 0, "is_reserved": 0, "fusion_lat": 0.0, "lat": 38.905749166666666, "fusion_lon": 0.0, "rental_uris": {"ios": "https://dc.lft.to/lastmile_qr_scan", "android": "https://dc.lft.to/lastmile_qr_scan"}, "lon": -77.007097, "bike_id": "19dab15fd26525e769eee01182eb139f", "type": "electric_scooter", "name": "19dab15fd26525e769eee01182eb139f"}, {"is_disabled": 0, "is_reserved": 0, "fusion_lat": 0.0, "lat": 38.9011765, "fusion_lon": 0.0, "rental_uris": {"ios": "https://dc.lft.to/lastmile_qr_scan", "android": "https://dc.lft.to/lastmile_qr_scan"}, "lon": -77.04995866666667, "bike_id": "b593e7c741bfe9f314bde9e495fa36e0", "type": "electric_scooter", "name": "b593e7c741bfe9f314bde9e495fa36e0"}, {"is_disabled": 0, "is_reserved": 0, "fusion_lat": 0.0, "lat": 38.90526166666667, "fusion_lon": 0.0, "rental_uris": {"ios": "https://dc.lft.to/lastmile_qr_scan", "android": "https://dc.lft.to/lastmile_qr_scan"}, "lon": -77.06143533333334, "bike_id": "4d4ca97f1b75fcd52fa97c34db465f84", "type": "electric_scooter", "name": "4d4ca97f1b75fcd52fa97c34db465f84"}, {"is_disabled": 0, "is_reserved": 0, "fusion_lat": 0.0, "lat": 38.90140533333334, "fusion_lon": 0.0, "rental_uris": {"ios": "https://dc.lft.to/lastmile_qr_scan", "android": "https://dc.lft.to/lastmile_qr_scan"}, "lon": -77.05921866666667, "bike_id": "2304e6c44a9a949cc457f3c7a0de078d", "type": "electric_scooter", "name": "2304e6c44a9a949cc457f3c7a0de078d"}, {"is_disabled": 0, "is_reserved": 0, "fusion_lat": 0.0, "lat": 38.92472183333334, "fusion_lon": 0.0, "rental_uris": {"ios": "https://dc.lft.to/lastmile_qr_scan", "android": "https://dc.lft.to/lastmile_qr_scan"}, "lon": -77.03538483333334, "bike_id": "879fd00281f6ceb53d02ddd24b589541", "type": "electric_scooter", "name": "879fd00281f6ceb53d02ddd24b589541"}, {"is_disabled": 0, "is_reserved": 0, "fusion_lat": 0.0, "lat": 38.88279166666667, "fusion_lon": 0.0, "rental_uris": {"ios": "https://dc.lft.to/lastmile_qr_scan", "android": "https://dc.lft.to/lastmile_qr_scan"}, "lon": -76.93241066666667, "bike_id": "f71db6eeb018bb4ba1f40c333df7e86d", "type": "electric_bike", "name": "f71db6eeb018bb4ba1f40c333df7e86d"}, {"is_disabled": 0, "is_reserved": 0, "fusion_lat": 0.0, "lat": 38.85220116666667, "fusion_lon": 0.0, "rental_uris": {"ios": "https://dc.lft.to/lastmile_qr_scan", "android": "https://dc.lft.to/lastmile_qr_scan"}, "lon": -76.99378033333333, "bike_id": "02697664fb377bbf11a4afcb09bc5995", "type": "electric_bike", "name": "02697664fb377bbf11a4afcb09bc5995"}, {"is_disabled": 0, "is_reserved": 0, "fusion_lat": 0.0, "lat": 38.91962766666666, "fusion_lon": 0.0, "rental_uris": {"ios": "https://dc.lft.to/lastmile_qr_scan", "android": "https://dc.lft.to/lastmile_qr_scan"}, "lon": -77.0424215, "bike_id": "5bf752da9477e292a1666469e39e47a4", "type": "electric_scooter", "name": "5bf752da9477e292a1666469e39e47a4"}, {"is_disabled": 0, "is_reserved": 0, "fusion_lat": 0.0, "lat": 38.911226666666664, "fusion_lon": 0.0, "rental_uris": {"ios": "https://dc.lft.to/lastmile_qr_scan", "android": "https://dc.lft.to/lastmile_qr_scan"}, "lon": -77.03866, "bike_id": "0fd5e4722de38d39bf9c77981d4ae117", "type": "electric_scooter", "name": "0fd5e4722de38d39bf9c77981d4ae117"}, {"is_disabled": 0, "is_reserved": 0, "fusion_lat": 0.0, "lat": 38.91451466666667, "fusion_lon": 0.0, "rental_uris": {"ios": "https://dc.lft.to/lastmile_qr_scan", "android": "https://dc.lft.to/lastmile_qr_scan"}, "lon": -77.02174966666666, "bike_id": "24cf80041ca27d5cf4ade21db254d544", "type": "electric_scooter", "name": "24cf80041ca27d5cf4ade21db254d544"},