{"data": {"bikes": [{"lat": 38.93956583333333, "fusion_lon": 0.0, "lon": -77.0724575, "is_disabled": 0, "type": "electric_scooter", "name": "b89383caff01de920d5888a92f2b2666", "fusion_lat": 0.0, "rental_uris": {"android": "https://dc.lft.to/lastmile_qr_scan", "ios": "https://dc.lft.to/lastmile_qr_scan"}, "bike_id": "b89383caff01de920d5888a92f2b2666", "is_reserved": 0}, {"lat": 38.93909416666666, "fusion_lon": 0.0, "lon": -77.02479816666667, "is_disabled": 0, "type": "electric_scooter", "name": "aa6e6fb5287af07e51f3c83f25651d05", "fusion_lat": 0.0, "rental_uris": {"android": "https://dc.lft.to/lastmile_qr_scan", "ios": "https://dc.lft.to/lastmile_qr_scan"}, "bike_id": "aa6e6fb5287af07e51f3c83f25651d05", "is_reserved": 0}, {"lat": 38.86500233333334, "fusion_lon": 0.0, "lon": -76.99003183333333, "is_disabled": 0, "type": "electric_scooter", "name": "254796d331ac90ab6d5b933ff03f968b", "fusion_lat": 0.0, "rental_uris": {"android": "https://dc.lft.to/lastmile_qr_scan", "ios": "https://dc.lft.to/lastmile_qr_scan"}, "bike_id": "254796d331ac90ab6d5b933ff03f968b", "is_reserved": 0}, {"lat": 38.905525833333336, "fusion_lon": 0.0, "lon": -77.04642633333333, "is_disabled": 0, "type": "electric_scooter", "name": "57678a5164c14da3409bd1cdb5135cdc", "fusion_lat": 0.0, "rental_uris": {"android": "https://dc.lft.to/lastmile_qr_scan", "ios": "https://dc.lft.to/lastmile_qr_scan"}, "bike_id": "57678a5164c14da3409bd1cdb5135cdc", "is_reserved": 0}, {"lat": 39.01368266666667, "fusion_lon": 0.0, "lon": -76.921381, "is_disabled": 0, "type": "electric_bike", "name": "d6215be45657b2450633a97bb0dbdf05", "fusion_lat": 0.0, "rental_uris": {"android": "https://dc.lft.to/lastmile_qr_scan", "ios": "https://dc.lft.to/lastmile_qr_scan"}, "bike_id": "d6215be45657b2450633a97bb0dbdf05", "is_reserved": 0}, {"lat": 38.892217333333335, "fusion_lon": 0.0, "lon": -77.04380216666667, "is_disabled": 0, "type": "electric_scooter", "name": "940bd4cbd8308fe9439ecf5e3b73d968", "fusion_lat": 0.0, "rental_uris": {"android": "https://dc.lft.to/lastmile_qr_scan", "ios": "https://dc.lft.to/lastmile_qr_scan"}, "bike_id": "940bd4cbd8308fe9439ecf5e3b73d968", "is_reserved": 0}, {"lat": 38.865799, "fusion_lon": 0.0, "lon": -77.04760733333333, "is_disabled": 0, "type": "electric_bike", "name": "921316e23a25a19f4c27483e6ea93d1e", "fusion_lat": 0.0, "rental_uris": {"android": "https://dc.lft.to/lastmile_qr_scan", "ios": "https://dc.lft.to/lastmile_qr_scan"}, "bike_id": "921316e23a25a19f4c27483e6ea93d1e", "is_reserved": 0}, {"lat": 38.912689, "fusion_lon": 0.0, "lon": -77.01836633333333, "is_disabled": 0, "type": "electric_scooter", "name": "b46663dd30d18491fdf9d7248f1c134b", "fusion_lat": 0.0, "rental_uris": {"android": "https://dc.lft.to/lastmile_qr_scan", "ios": "https://dc.lft.to/lastmile_qr_scan"}, "bike_id": "b46663dd30d18491fdf9d7248f1c134b", "is_reserved": 0}, {"lat": 38.92908516666667, "fusion_lon": 0.0, "lon": -77.03758966666666, "is_disabled": 0, "type": "electric_scooter", "name": "9aa87784c6d5496531ea9dc52f1ef4b1", "fusion_lat": 0.0, "rental_uris": {"android": "https://dc.lft.to/lastmile_qr_scan", "ios": "https://dc.lft.to/lastmile_qr_scan"}, "bike_id": "9aa87784c6d5496531ea9dc52f1ef4b1", "is_reserved": 0}, {"lat": 38.91992416666667, "fusion_lon": 0.0, "lon": -77.03254583333333, "is_disabled": 0, "type": "electric_scooter", "name": "5ed76aa2fe35270034f20749af026c4a", "fusion_lat": 0.0, "rental_uris": {"android": "https://dc.lft.to/lastmile_qr_scan", "ios": "https://dc.lft.to/lastmile_qr_scan"}, "bike_id": "5ed76aa2fe35270034f20749af026c4a", "is_reserved": 0}, {"lat": 38.8651425, "fusion_lon": 0.0, "lon": -76.97333133333333, "is_disabled": 0, "type": "electric_bike", "name": "39400691a33407f4fa911b10cef7a3fc", "fusion_lat": 0.0, "rental_uris": {"android": "https://dc.lft.to/lastmile_qr_scan", "ios": "https://dc.lft.to/lastmile_qr_scan"}, "bike_id": "39400691a33407f4fa911b10cef7a3fc", "is_reserved": 0}, {"lat": 38.942012, "fusion_lon": 0.0, "lon": -77.02507433333334, "is_disabled": 0, "type": "electric_scooter", "name": "397bfa057f9e6d48937d6e878cd164c3", "fusion_lat": 0.0, "rental_uris": {"android": "https://dc.lft.to/lastmile_qr_scan", "ios": "https://dc.lft.to/lastmile_qr_scan"}, "bike_id": "397bfa057f9e6d48937d6e878cd164c3", "is_reserved": 0}, {"lat": 38.93861833333333, "fusion_lon": 0.0, "lon": -77.02650816666667, "is_disabled": 0, "type": "electric_scooter", "name": "c1824d36c65809c71ea6988b1bb25f7e", "fusion_lat": 0.0, "rental_uris": {"android": "https://dc.lft.to/lastmile_qr_scan", "ios": "https://dc.lft.to/lastmile_qr_scan"}, "bike_id": "c1824d36c65809c71ea6988b1bb25f7e", "is_reserved": 0}, {"lat": 38.9244055, "fusion_lon": 0.0, "lon": -77.02143116666667, "is_disabled": 0, "type": "electric_scooter", "name": "9bcfc2fa2ae1ce60cff7b9cc2a0c1280", "fusion_lat": 0.0, "rental_uris": {"android": "https://dc.lft.to/lastmile_qr_scan", "ios": "https://dc.lft.to/lastmile_qr_scan"}, "bike_id": "9bcfc2fa2ae1ce60cff7b9cc2a0c1280", "is_reserved": 0}, {"lat": 38.902652333333336, "fusion_lon": 0.0, "lon": -77.05323333333334, "is_disabled": 0, "type": "electric_scooter", "name": "21f698a7164aca1d916bcaee52a2d4e4", "fusion_lat": 0.0, "rental_uris": {"android": "https://dc.lft.to/lastmile_qr_scan", "ios": "https://dc.lft.to/lastmile_qr_scan"}, "bike_id": "21f698a7164aca1d916bcaee52a2d4e4", "is_reserved": 0}, {"lat": 38.965937, "fusion_lon": 0.0, "lon": -77.06804016666666, "is_disabled": 0, "type": "electric_scooter", "name": "13278fbca6b33bfa8026ff6044fdfe3e", "fusion_lat": 0.0, "rental_uris": {"android": "https://dc.lft.to/lastmile_qr_scan", "ios": "https://dc.lft.to/lastmile_qr_scan"}, "bike_id": "13278fbca6b33bfa8026ff6044fdfe3e", "is_reserved": 0}, {"lat": 38.92253316666667, "fusion_lon": 0.0, "lon": -77.04293883333334, "is_disabled": 0, "type": "electric_scooter", "name": "75edeed4123d635849095b67ae365ab8", "fusion_lat": 0.0, "rental_uris": {"android": "https://dc.lft.to/lastmile_qr_scan", "ios": "https://dc.lft.to/lastmile_qr_scan"}, "bike_id": "75edeed4123d635849095b67ae365ab8", "is_reserved": 0}, {"lat": 38.9332765, "fusion_lon": 0.0, "lon": -77.03279983333333, "is_disabled": 0, "type": "electric_scooter", "name": "57c438c6e695ce9f578936c2f21c24a7", "fusion_lat": 0.0, "rental_uris": {"android": "https://dc.lft.to/lastmile_qr_scan", "ios": "https://dc.lft.to/lastmile_qr_scan"}, "bike_id": "57c438c6e695ce9f578936c2f21c24a7", "is_reserved": 0}, {"lat": 38.88745383333333, "fusion_lon": 0.0, "lon": -77.02738616666667, "is_disabled": 0, "type": "electric_scooter", "name": "f89b42bab01d62bce99c93060888d5ea", "fusion_lat": 0.0, "rental_uris": {"android": "https://dc.lft.to/lastmile_qr_scan", "ios": "https://dc.lft.to/lastmile_qr_scan"}, "bike_id": "f89b42bab01d62bce99c93060888d5ea", "is_reserved": 0}, {"lat": 38.9186895, "fusion_lon": 0.0, "lon": -77.04192383333333, "is_disabled": 0, "type": "electric_scooter", "name": "4f64edf63a91f3d1a185a5a805f47008", "fusion_lat": 0.0, "rental_uris": {"android": "https://dc.lft.to/lastmile_qr_scan", "ios": "https://dc.lft.to/lastmile_qr_scan"}, "bike_id": "4f64edf63a91f3d1a185a5a805f47008", "is_reserved": 0}, {"lat": 38.92351433333333, "fusion_lon": 0.0, "lon": -77.0353805, "is_disabled": 0, "type": "electric_scooter", "name": "6f6e56aa340a99cdf98e1f492e3a85b4", "fusion_lat": 0.0, "rental_uris": {"android": "https://dc.lft.to/lastmile_qr_scan", "ios": "https://dc.lft.to/lastmile_qr_scan"}, "bike_id": "6f6e56aa340a99cdf98e1f492e3a85b4", "is_reserved": 0}, {"lat": 38.9077375, "fusion_lon": 0.0, "lon": -77.0350095, "is_disabled": 0, "type": "electric_scooter", "name": "bc1b25bc4b7c6b5ddcb123a35457e052", "fusion_lat": 0.0, "rental_uris": {"android": "https://dc.lft.to/lastmile_qr_scan", "ios": "https://dc.lft.to/lastmile_qr_scan"}, "bike_id": "bc1b25bc4b7c6b5ddcb123a35457e052", "is_reserved": 0}, {"lat": 38.911097833333336, "fusion_lon": 0.0, "lon": -77.032179, "is_disabled": 0, "type": "electric_scooter", "name": "2c1de34f59f722f71aa8555a3335886a", "fusion_lat": 0.0, "rental_uris": {"android": "https://dc.lft.to/lastmile_qr_scan", "ios": "https://dc.lft.to/lastmile_qr_scan"}, "bike_id": "2c1de34f59f722f71aa8555a3335886a", "is_reserved": 0}, {"lat": 38.8916725, "fusion_lon": 0.0, "lon": -76.91196966666666, "is_disabled": 0, "type": "electric_scooter", "name": "dbcc3c11323d5603d3a2972f639b05a5", "fusion_lat": 0.0, "rental_uris": {"android": "https://dc.lft.to/lastmile_qr_scan", "ios": "https://dc.lft.to/lastmile_qr_scan"}, "bike_id": "dbcc3c11323d5603d3a2972f639b05a5", "is_reserved": 0}, {"lat": 38.92418466666667, "fusion_lon": 0.0, "lon": -77.02262433333334, "is_disabled": 0, "type": "electric_scooter", "name": "35564f2138df5c7d0748b057d2274015", "fusion_lat": 0.0, "rental_uris": {"android": "https://dc.lft.to/lastmile_qr_scan", "ios": "https://dc.lft.to/lastmile_qr_scan"}, "bike_id": "35564f2138df5c7d0748b057d2274015", "is_reserved": 0}, {"lat": 38.92172883333333, "fusion_lon": 0.0, "lon": -77.02108416666667, "is_disabled": 0, "type": "electric_scooter", "name": "643890474ab37841d42fd656d9c0384d", "fusion_lat": 0.0, "rental_uris": {"android": "https://dc.lft.to/lastmile_qr_scan", "ios": "https://dc.lft.to/lastmile_qr_scan"}, "bike_id": "643890474ab37841d42fd656d9c0384d", "is_reserved": 0}, {"lat": 38.891446, "fusion_lon": 0.0, "lon": -76.9838335, "is_disabled": 0, "type": "electric_scooter", "name": "abc40e8f9f47372090ae43572da4ab51", "fusion_lat": 0.0, "rental_uris": {"android": "https://dc.lft.to/lastmile_qr_scan", "ios": "https://dc.lft.to/lastmile_qr_scan"}, "bike_id": "abc40e8f9f47372090ae43572da4ab51", "is_reserved": 0}, {"lat": 38.892205, "fusion_lon": 0.0, "lon": -77.03228866666667, "is_disabled": 0, "type": "electric_scooter", "name": "960653137859ecf4e32eb98667f8cea3", "fusion_lat": 0.0, "rental_uris": {"android": "https://dc.lft.to/lastmile_qr_scan", "ios": "https://dc.lft.to/lastmile_qr_scan"}, "bike_id": "960653137859ecf4e32eb98667f8cea3", "is_reserved": 0}, {"lat": 38.917841833333334, "fusion_lon": 0.0, "lon": -77.02311383333333, "is_disabled": 0, "type": "electric_scooter", "name": "0f78525ff7719d5067cd7c68386db75e", "fusion_lat": 0.0, "rental_uris": {"android": "https://dc.lft.to/lastmile_qr_scan", "ios": "https://dc.lft.to/lastmile_qr_scan"}, "bike_id": "0f78525ff7719d5067cd7c68386db75e", "is_reserved": 0}, {"lat": 38.8715755, "fusion_lon": 0.0, "lon": -76.977406, "is_disabled": 0, "type": "electric_scooter", "name": "d0594558455d2f76e0d19a8594be27c7", "fusion_lat": 0.0, "rental_uris": {"android": "https://dc.lft.to/lastmile_qr_scan", "ios": "https://dc.lft.to/lastmile_qr_scan"}, "bike_id": "d0594558455d2f76e0d19a8594be27c7", "is_reserved": 0}, {"lat": 38.9028145, "fusion_lon": 0.0, "lon": -77.03658533333333, "is_disabled": 0, "type": "electric_scooter", "name": "0934c981cf18788cd9796cceff201b4c", "fusion_lat": 0.0, "rental_uris": {"android": "https://dc.lft.to/lastmile_qr_scan", "ios": "https://dc.lft.to/lastmile_qr_scan"}, "bike_id": "0934c981cf18788cd9796cceff201b4c", "is_reserved": 0}, {"lat": 38.917122, "fusion_lon": 0.0, "lon": -77.02603333333333, "is_disabled": 0, "type": "electric_scooter", "name": "efba7251faeaf013cac69ac414ebaba0", "fusion_lat": 0.0, "rental_uris": {"android": "https://dc.lft.to/lastmile_qr_scan", "ios": "https://dc.lft.to/lastmile_qr_scan"}, "bike_id": "efba7251faeaf013cac69ac414ebaba0", "is_reserved": 0}, {"lat": 38.89895166666667, "fusion_lon": 0.0, "lon": -77.03962983333334, "is_disabled": 0, "type": "electric_scooter", "name": "852c84738967ae2fd5c3fad6613bb37f", "fusion_lat": 0.0, "rental_uris": {"android": "https://dc.lft.to/lastmile_qr_scan", "ios": "https://dc.lft.to/lastmile_qr_scan"}, "bike_id": "852c84738967ae2fd5c3fad6613bb37f", "is_reserved": 0}, {"lat": 38.8923745, "fusion_lon": 0.0, "lon": -77.02774583333333, "is_disabled": 0, "type": "electric_scooter", "name": "415eb1efa2993d0113d5fd337832fd63", "fusion_lat": 0.0, "rental_uris": {"android": "https://dc.lft.to/lastmile_qr_scan", "ios": "https://dc.lft.to/lastmile_qr_scan"}, "bike_id": "415eb1efa2993d0113d5fd337832fd63", "is_reserved": 0}, {"lat": 38.837822333333335, "fusion_lon": 0.0, "lon": -76.99758233333333, "is_disabled": 0, "type": "electric_bike", "name": "d28323f0293478cef8e3f96b9ce754c2", "fusion_lat": 0.0, "rental_uris": {"android": "https://dc.lft.to/lastmile_qr_scan", "ios": "https://dc.lft.to/lastmile_qr_scan"}, "bike_id": "d28323f0293478cef8e3f96b9ce754c2", "is_reserved": 0}, {"lat": 38.89474766666667, "fusion_lon": 0.0, "lon": -77.01080283333333, "is_disabled": 0, "type": "electric_scooter", "name": "1c523c91f22a3a59d8e2d44d7aafc66e", "fusion_lat": 0.0, "rental_uris": {"android": "https://dc.lft.to/lastmile_qr_scan", "ios": "https://dc.lft.to/lastmile_qr_scan"}, "bike_id": "1c523c91f22a3a59d8e2d44d7aafc66e", "is_reserved": 0}, {"lat": 38.83493716666667, "fusion_lon": 0.0, "lon": -77.00681766666666, "is_disabled": 0, "type": "electric_scooter", "name": "1ccb1c5822008cdc81b38e8b885fd286", "fusion_lat": 0.0, "rental_uris": {"android": "https://dc.lft.to/lastmile_qr_scan", "ios": "https://dc.lft.to/lastmile_qr_scan"}, "bike_id": "1ccb1c5822008cdc81b38e8b885fd286", "is_reserved": 0}, {"lat": 38.8814605, "fusion_lon": 0.0, "lon": -76.994905, "is_disabled": 0, "type": "electric_scooter", "name": "f248b24736119e54c01446a722a7584d", "fusion_lat": 0.0, "rental_uris": {"android": "https://dc.lft.to/lastmile_qr_scan", "ios": "https://dc.lft.to/lastmile_qr_scan"}, "bike_id": "f248b24736119e54c01446a722a7584d", "is_reserved": 0}, {"lat": 38.92619633333333, "fusion_lon": 0.0, "lon": -77.04333316666667, "is_disabled": 0, "type": "electric_scooter", "name": "4356b32f9e881ae6b9f3fc8eab0702ff", "fusion_lat": 0.0, "rental_uris": {"android": "https://dc.lft.to/lastmile_qr_scan", "ios": "https://dc.lft.to/lastmile_qr_scan"}, "bike_id": "4356b32f9e881ae6b9f3fc8eab0702ff", "is_reserved": 0}, {"lat": 38.8950335, "fusion_lon": 0.0, "lon": -76.93478433333334, "is_disabled": 0, "type": "electric_scooter", "name": "388c8224fa1b59ccc2e024fe914eda71", "fusion_lat": 0.0, "rental_uris": {"android": "https://dc.lft.to/lastmile_qr_scan", "ios": "https://dc.lft.to/lastmile_qr_scan"}, "bike_id": "388c8224fa1b59ccc2e024fe914eda71", "is_reserved": 0}, {"lat": 38.931800333333335, "fusion_lon": 0.0, "lon": -77.0365495, "is_disabled": 0, "type": "electric_scooter", "name": "cbeacd8abb6cfb61b55c6dbea01e2311", "fusion_lat": 0.0, "rental_uris": {"android": "https://dc.lft.to/lastmile_qr_scan", "ios": "https://dc.lft.to/lastmile_qr_scan"}, "bike_id": "cbeacd8abb6cfb61b55c6dbea01e2311", "is_reserved": 0}, {"lat": 38.93857366666667, "fusion_lon": 0.0, "lon": -77.0264825, "is_disabled": 0, "type": "electric_scooter", "name": "b65a82b94b582924d787c460af7f0d53", "fusion_lat": 0.0, "rental_uris": {"android": "https://dc.lft.to/lastmile_qr_scan", "ios": "https://dc.lft.to/lastmile_qr_scan"}, "bike_id": "b65a82b94b582924d787c460af7f0d53", "is_reserved": 0}, {"lat": 38.90683683333334, "fusion_lon": 0.0, "lon": -77.02693266666667, "is_disabled": 0, "type": "electric_scooter", "name": "bf5bf787c4178d1446de7374e9600b4e", "fusion_lat": 0.0, "rental_uris": {"android": "https://dc.lft.to/lastmile_qr_scan", "ios": "https://dc.lft.to/lastmile_qr_scan"}, "bike_id": "bf5bf787c4178d1446de7374e9600b4e", "is_reserved": 0}, {"lat": 38.911116166666666, "fusion_lon": 0.0, "lon": -77.035784, "is_disabled": 0, "type": "electric_scooter", "name": "4018eb61f7e7407110a0f70fab871a9a", "fusion_lat": 0.0, "rental_uris": {"android": "https://dc.lft.to/lastmile_qr_scan", "ios": "https://dc.lft.to/lastmile_qr_scan"}, "bike_id": "4018eb61f7e7407110a0f70fab871a9a", "is_reserved": 0}, {"lat": 38.910455666666664, "fusion_lon": 0.0, "lon": -77.04086916666667, "is_disabled": 0, "type": "electric_scooter", "name": "8eb9e4f1b29a7a85c60ebfcb38b67784", "fusion_lat": 0.0, "rental_uris": {"android": "https://dc.lft.to/lastmile_qr_scan", "ios": "https://dc.lft.to/lastmile_qr_scan"}, "bike_id": "8eb9e4f1b29a7a85c60ebfcb38b67784", "is_reserved": 0}, {"lat": 38.924453166666666, "fusion_lon": 0.0, "lon": -77.0574495, "is_disabled": 0, "type": "electric_scooter", "name": "588cd7137b2e415b625e3c7238265560", "fusion_lat": 0.0, "rental_uris": {"android": "https://dc.lft.to/lastmile_qr_scan", "ios": "https://dc.lft.to/lastmile_qr_scan"}, "bike_id": "588cd7137b2e415b625e3c7238265560", "is_reserved": 0}, {"lat": 38.8942595, "fusion_lon": 0.0, "lon": -77.0401495, "is_disabled": 0, "type": "electric_scooter", "name": "e99686dd6f479b3f859059fe1090f4a7", "fusion_lat": 0.0, "rental_uris": {"android": "https://dc.lft.to/lastmile_qr_scan", "ios": "https://dc.lft.to/lastmile_qr_scan"}, "bike_id": "e99686dd6f479b3f859059fe1090f4a7", "is_reserved": 0}, {"lat": 38.912611166666665, "fusion_lon": 0.0, "lon": -77.04416116666667, "is_disabled": 0, "type": "electric_scooter", "name": "ebef9341ed7da8728f771963788cf1b8", "fusion_lat": 0.0, "rental_uris": {"android": "https://dc.lft.to/lastmile_qr_scan", "ios": "https://dc.lft.to/lastmile_qr_scan"}, "bike_id": "ebef9341ed7da8728f771963788cf1b8", "is_reserved": 0}, {"lat": 38.91440516666667, "fusion_lon": 0.0, "lon": -77.067065, "is_disabled": 0, "type": "electric_scooter", "name": "2257ebf673ba0053138835ab54b88030", "fusion_lat": 0.0, "rental_uris": {"android": "https://dc.lft.to/lastmile_qr_scan", "ios": "https://dc.lft.to/lastmile_qr_scan"}, "bike_id": "2257ebf673ba0053138835ab54b88030", "is_reserved": 0}, {"lat": 38.89732083333333, "fusion_lon": 0.0, "lon": -77.05475466666667, "is_disabled": 0, "type": "electric_scooter", "name": "01d159919c3c385c9e74c9280c1552f7", "fusion_lat": 0.0, "rental_uris": {"android": "https://dc.lft.to/lastmile_qr_scan", "ios": "https://dc.lft.to/lastmile_qr_scan"}, "bike_id": "01d159919c3c385c9e74c9280c1552f7", "is_reserved": 0}, {"lat": 38.90251633333333, "fusion_lon": 0.0, "lon": -77.04603233333333, "is_disabled": 0, "type": "electric_scooter", "name": "fe825ca0240e598c59a2bf2f6ea7cb89", "fusion_lat": 0.0, "rental_uris": {"android": "https://dc.lft.to/lastmile_qr_scan", "ios": "https://dc.lft.to/lastmile_qr_scan"}, "bike_id": "fe825ca0240e598c59a2bf2f6ea7cb89", "is_reserved": 0}, {"lat": 39.057912333333334, "fusion_lon": 0.0, "lon": -77.150178, "is_disabled": 0, "type": "electric_bike", "name": "7f6e119b37c6df583066ed796ba9ca69", "fusion_lat": 0.0, "rental_uris": {"android": "https://dc.lft.to/lastmile_qr_scan", "ios": "https://dc.lft.to/lastmile_qr_scan"}, "bike_id": "7f6e119b37c6df583066ed796ba9ca69", "is_reserved": 0}, {"lat": 38.912633, "fusion_lon": 0.0, "lon": -77.04742483333334, "is_disabled": 0, "type": "electric_scooter", "name": "d58aa56dfaae09fe9205853bf684969b", "fusion_lat": 0.0, "rental_uris": {"android": "https://dc.lft.to/lastmile_qr_scan", "ios": "https://dc.lft.to/lastmile_qr_scan"}, "bike_id": "d58aa56dfaae09fe9205853bf684969b", "is_reserved": 0}, {"lat": 38.90365083333333, "fusion_lon": 0.0, "lon": -77.04331533333334, "is_disabled": 0, "type": "electric_scooter", "name": "c8d70e66e490c62c02f5f2ef9937000b", "fusion_lat": 0.0, "rental_uris": {"android": "https://dc.lft.to/lastmile_qr_scan", "ios": "https://dc.lft.to/lastmile_qr_scan"}, "bike_id": "c8d70e66e490c62c02f5f2ef9937000b", "is_reserved": 0}, {"lat": 38.9085945, "fusion_lon": 0.0, "lon": -77.0426285, "is_disabled": 0, "type": "electric_scooter", "name": "47e2b6ba7287e93f8bf6b37c6bcb96b0", "fusion_lat": 0.0, "rental_uris": {"android": "https://dc.lft.to/lastmile_qr_scan", "ios": "https://dc.lft.to/lastmile_qr_scan"}, "bike_id": "47e2b6ba7287e93f8bf6b37c6bcb96b0", "is_reserved": 0}, {"lat": 38.928489, "fusion_lon": 0.0, "lon": -77.014205, "is_disabled": 0, "type": "electric_scooter", "name": "7b4f7764ebbadf0d45712d86c16cb174", "fusion_lat": 0.0, "rental_uris": {"android": "https://dc.lft.to/lastmile_qr_scan", "ios": "https://dc.lft.to/lastmile_qr_scan"}, "bike_id": "7b4f7764ebbadf0d45712d86c16cb174", "is_reserved": 0}, {"lat": 38.89220066666667, "fusion_lon": 0.0, "lon": -77.04370366666667, "is_disabled": 0, "type": "electric_scooter", "name": "37fc80e35288546cc31c590e746eb433", "fusion_lat": 0.0, "rental_uris": {"android": "https://dc.lft.to/lastmile_qr_scan", "ios": "https://dc.lft.to/lastmile_qr_scan"}, "bike_id": "37fc80e35288546cc31c590e746eb433", "is_reserved": 0}, {"lat": 38.89367566666667, "fusion_lon": 0.0, "lon": -76.94995, "is_disabled": 0, "type": "electric_scooter", "name": "a7d2893ba3860ae020ae57fae626157e", "fusion_lat": 0.0, "rental_uris": {"android": "https://dc.lft.to/lastmile_qr_scan", "ios": "https://dc.lft.to/lastmile_qr_scan"}, "bike_id": "a7d2893ba3860ae020ae57fae626157e", "is_reserved": 0}, {"lat": 38.86695066666667, "fusion_lon": 0.0, "lon": -76.98702733333333, "is_disabled": 0, "type": "electric_scooter", "name": "dd344acccd5e068067794269e0cec129", "fusion_lat": 0.0, "rental_uris": {"android": "https://dc.lft.to/lastmile_qr_scan", "ios": "https://dc.lft.to/lastmile_qr_scan"}, "bike_id": "dd344acccd5e068067794269e0cec129", "is_reserved": 0}, {"lat": 38.93083566666667, "fusion_lon": 0.0, "lon": -77.00411883333334, "is_disabled": 0, "type": "electric_scooter", "name": "f685af77c5e5b6634c4f1b2c087f9340", "fusion_lat": 0.0, "rental_uris": {"android": "https://dc.lft.to/lastmile_qr_scan", "ios": "https://dc.lft.to/lastmile_qr_scan"}, "bike_id": "f685af77c5e5b6634c4f1b2c087f9340", "is_reserved": 0}, {"lat": 38.89249783333333, "fusion_lon": 0.0, "lon": -77.04663033333334, "is_disabled": 0, "type": "electric_scooter", "name": "c967bdaa56b2a8012bab192f71c50418", "fusion_lat": 0.0, "rental_uris": {"android": "https://dc.lft.to/lastmile_qr_scan", "ios": "https://dc.lft.to/lastmile_qr_scan"}, "bike_id": "c967bdaa56b2a8012bab192f71c50418", "is_reserved": 0}, {"lat": 38.902592166666665, "fusion_lon": 0.0, "lon": -77.02652933333333, "is_disabled": 0, "type": "electric_scooter", "name": "2a72c50ec5eeba1ca76f3ea3d9eaffc4", "fusion_lat": 0.0, "rental_uris": {"android": "https://dc.lft.to/lastmile_qr_scan", "ios": "https://dc.lft.to/lastmile_qr_scan"}, "bike_id": "2a72c50ec5eeba1ca76f3ea3d9eaffc4", "is_reserved": 0}, {"lat": 38.89822566666667, "fusion_lon": 0.0, "lon": -77.043642, "is_disabled": 0, "type": "electric_scooter", "name": "a1681b04942eb076869aa453bc549da7", "fusion_lat": 0.0, "rental_uris": {"android": "https://dc.lft.to/lastmile_qr_scan", "ios": "https://dc.lft.to/lastmile_qr_scan"}, "bike_id": "a1681b04942eb076869aa453bc549da7", "is_reserved": 0}, {"lat": 38.90592866666667, "fusion_lon": 0.0, "lon": -77.02193983333333, "is_disabled": 0, "type": "electric_scooter", "name": "ce48c335fb87b02ccc78f6c6a95d74f5", "fusion_lat": 0.0, "rental_uris": {"android": "https://dc.lft.to/lastmile_qr_scan", "ios": "https://dc.lft.to/lastmile_qr_scan"}, "bike_id": "ce48c335fb87b02ccc78f6c6a95d74f5", "is_reserved": 0}, {"lat": 38.89215816666667, "fusion_lon": 0.0, "lon": -77.0437585, "is_disabled": 0, "type": "electric_scooter", "name": "ef81a43cd5d3e970a905a80c451a54aa", "fusion_lat": 0.0, "rental_uris": {"android": "https://dc.lft.to/lastmile_qr_scan", "ios": "https://dc.lft.to/lastmile_qr_scan"}, "bike_id": "ef81a43cd5d3e970a905a80c451a54aa", "is_reserved": 0}, {"lat": 38.91455416666667, "fusion_lon": 0.0, "lon": -77.0090025, "is_disabled": 0, "type": "electric_scooter", "name": "9d89a1580d683158ccea199451ca50cd", "fusion_lat": 0.0, "rental_uris": {"android": "https://dc.lft.to/lastmile_qr_scan", "ios": "https://dc.lft.to/lastmile_qr_scan"}, "bike_id": "9d89a1580d683158ccea199451ca50cd", "is_reserved": 0}, {"lat": 38.89345133333333, "fusion_lon": 0.0, "lon": -77.041957, "is_disabled": 0, "type": "electric_scooter", "name": "215547bf2eb4a9815c2ae5fd9eb2afd2", "fusion_lat": 0.0, "rental_uris": {"android": "https://dc.lft.to/lastmile_qr_scan", "ios": "https://dc.lft.to/lastmile_qr_scan"}, "bike_id": "215547bf2eb4a9815c2ae5fd9eb2afd2", "is_reserved": 0}, {"lat": 38.904737, "fusion_lon": 0.0, "lon": -77.0283935, "is_disabled": 0, "type": "electric_scooter", "name": "9be307615684e669f1c8d4d0c35e6e03", "fusion_lat": 0.0, "rental_uris": {"android": "https://dc.lft.to/lastmile_qr_scan", "ios": "https://dc.lft.to/lastmile_qr_scan"}, "bike_id": "9be307615684e669f1c8d4d0c35e6e03", "is_reserved": 0}, {"lat": 38.95926816666667, "fusion_lon": 0.0, "lon": -76.92539966666666, "is_disabled": 0, "type": "electric_bike", "name": "758a93091e68461f540ebe09522cc57f", "fusion_lat": 0.0, "rental_uris": {"android": "https://dc.lft.to/lastmile_qr_scan", "ios": "https://dc.lft.to/lastmile_qr_scan"}, "bike_id": "758a93091e68461f540ebe09522cc57f", "is_reserved": 0}, {"lat": 38.887216333333335, "fusion_lon": 0.0, "lon": -77.02586833333334, "is_disabled": 0, "type": "electric_scooter", "name": "7779881afa35156484dae39ef57de53a", "fusion_lat": 0.0, "rental_uris": {"android": "https://dc.lft.to/lastmile_qr_scan", "ios": "https://dc.lft.to/lastmile_qr_scan"}, "bike_id": "7779881afa35156484dae39ef57de53a", "is_reserved": 0}, {"lat": 38.91186366666667, "fusion_lon": 0.0, "lon": -77.03020016666666, "is_disabled": 0, "type": "electric_scooter", "name": "38f30a8b0039ced00022960e38a6b43d", "fusion_lat": 0.0, "rental_uris": {"android": "https://dc.lft.to/lastmile_qr_scan", "ios": "https://dc.lft.to/lastmile_qr_scan"}, "bike_id": "38f30a8b0039ced00022960e38a6b43d", "is_reserved": 0}, {"lat": 38.92437683333333, "fusion_lon": 0.0, "lon": -77.052058, "is_disabled": 0, "type": "electric_scooter", "name": "4a143dfc42786147d8ec56dbf01e77cc", "fusion_lat": 0.0, "rental_uris": {"android": "https://dc.lft.to/lastmile_qr_scan", "ios": "https://dc.lft.to/lastmile_qr_scan"}, "bike_id": "4a143dfc42786147d8ec56dbf01e77cc", "is_reserved": 0}, {"lat": 38.87634333333333, "fusion_lon": 0.0, "lon": -77.00941466666667, "is_disabled": 0, "type": "electric_scooter", "name": "573406d13cbd454fd5d90b128c7ac12b", "fusion_lat": 0.0, "rental_uris": {"android": "https://dc.lft.to/lastmile_qr_scan", "ios": "https://dc.lft.to/lastmile_qr_scan"}, "bike_id": "573406d13cbd454fd5d90b128c7ac12b", "is_reserved": 0}, {"lat": 38.86896083333333, "fusion_lon": 0.0, "lon": -76.98226, "is_disabled": 0, "type": "electric_scooter", "name": "e93bf5b22829095c454322f8cad1845e", "fusion_lat": 0.0, "rental_uris": {"android": "https://dc.lft.to/lastmile_qr_scan", "ios": "https://dc.lft.to/lastmile_qr_scan"}, "bike_id": "e93bf5b22829095c454322f8cad1845e", "is_reserved": 0}, {"lat": 38.891917, "fusion_lon": 0.0, "lon": -77.02768083333333, "is_disabled": 0, "type": "electric_scooter", "name": "ad12b077d6ea718e1441348dc2578b43", "fusion_lat": 0.0, "rental_uris": {"android": "https://dc.lft.to/lastmile_qr_scan", "ios": "https://dc.lft.to/lastmile_qr_scan"}, "bike_id": "ad12b077d6ea718e1441348dc2578b43", "is_reserved": 0}, {"lat": 38.90304316666667, "fusion_lon": 0.0, "lon": -77.04350066666667, "is_disabled": 0, "type": "electric_scooter", "name": "54c7d6f6ccbe25f2c7a420ffd0b35d77", "fusion_lat": 0.0, "rental_uris": {"android": "https://dc.lft.to/lastmile_qr_scan", "ios": "https://dc.lft.to/lastmile_qr_scan"}, "bike_id": "54c7d6f6ccbe25f2c7a420ffd0b35d77", "is_reserved": 0}, {"lat": 38.89223466666667, "fusion_lon": 0.0, "lon": -77.02624433333334, "is_disabled": 0, "type": "electric_scooter", "name": "10b4e04f9160444cd3b3bab044f60c54", "fusion_lat": 0.0, "rental_uris": {"android": "https://dc.lft.to/lastmile_qr_scan", "ios": "https://dc.lft.to/lastmile_qr_scan"}, "bike_id": "10b4e04f9160444cd3b3bab044f60c54", "is_reserved": 0}, {"lat": 38.9674155, "fusion_lon": 0.0, "lon": -76.98192866666666, "is_disabled": 0, "type": "electric_bike", "name": "f0e0da70498842c6087f68d47ff63e48", "fusion_lat": 0.0, "rental_uris": {"android": "https://dc.lft.to/lastmile_qr_scan", "ios": "https://dc.lft.to/lastmile_qr_scan"}, "bike_id": "f0e0da70498842c6087f68d47ff63e48", "is_reserved": 0}, {"lat": 38.91681666666667, "fusion_lon": 0.0, "lon": -77.03774933333334, "is_disabled": 0, "type": "electric_scooter", "name": "2fb492bde45f621d80f0c98252d7fad1", "fusion_lat": 0.0, "rental_uris": {"android": "https://dc.lft.to/lastmile_qr_scan", "ios": "https://dc.lft.to/lastmile_qr_scan"}, "bike_id": "2fb492bde45f621d80f0c98252d7fad1", "is_reserved": 0}, {"lat": 38.92324716666667, "fusion_lon": 0.0, "lon": -77.03572883333334, "is_disabled": 0, "type": "electric_scooter", "name": "4f988bd15dd200b3fb13d16a9f08da7a", "fusion_lat": 0.0, "rental_uris": {"android": "https://dc.lft.to/lastmile_qr_scan", "ios": "https://dc.lft.to/lastmile_qr_scan"}, "bike_id": "4f988bd15dd200b3fb13d16a9f08da7a", "is_reserved": 0}, {"lat": 39.014794333333334, "fusion_lon": 0.0, "lon": -77.054965, "is_disabled": 0, "type": "electric_bike", "name": "a45e5e656ab5027c2628e868eb440ea2", "fusion_lat": 0.0, "rental_uris": {"android": "https://dc.lft.to/lastmile_qr_scan", "ios": "https://dc.lft.to/lastmile_qr_scan"}, "bike_id": "a45e5e656ab5027c2628e868eb440ea2", "is_reserved": 0}, {"lat": 38.9138155, "fusion_lon": 0.0, "lon": -77.03148583333333, "is_disabled": 0, "type": "electric_scooter", "name": "584c6a5ff57d8c6cffe3681a06a13e47", "fusion_lat": 0.0, "rental_uris": {"android": "https://dc.lft.to/lastmile_qr_scan", "ios": "https://dc.lft.to/lastmile_qr_scan"}, "bike_id": "584c6a5ff57d8c6cffe3681a06a13e47", "is_reserved": 0}, {"lat": 38.8960315, "fusion_lon": 0.0, "lon": -77.04988933333334, "is_disabled": 0, "type": "electric_scooter", "name": "61499ead8c2f4d8151ae6c19eb8e4163", "fusion_lat": 0.0, "rental_uris": {"android": "https://dc.lft.to/lastmile_qr_scan", "ios": "https://dc.lft.to/lastmile_qr_scan"}, "bike_id": "61499ead8c2f4d8151ae6c19eb8e4163", "is_reserved": 0}, {"lat": 38.9240365, "fusion_lon": 0.0, "lon": -77.05174366666667, "is_disabled": 0, "type": "electric_scooter", "name": "05808b275c8af0a4d1e8931e8407727d", "fusion_lat": 0.0, "rental_uris": {"android": "https://dc.lft.to/lastmile_qr_scan", "ios": "https://dc.lft.to/lastmile_qr_scan"}, "bike_id": "05808b275c8af0a4d1e8931e8407727d", "is_reserved": 0}, {"lat": 38.896256666666666, "fusion_lon": 0.0, "lon": -77.0320635, "is_disabled": 0, "type": "electric_scooter", "name": "09a738eae7a99dbe892748b30334b4ee", "fusion_lat": 0.0, "rental_uris": {"android": "https://dc.lft.to/lastmile_qr_scan", "ios": "https://dc.lft.to/lastmile_qr_scan"}, "bike_id": "09a738eae7a99dbe892748b30334b4ee", "is_reserved": 0}, {"lat": 38.91628216666667, "fusion_lon": 0.0, "lon": -77.04797266666667, "is_disabled": 0, "type": "electric_scooter", "name": "7d7626e02cc210d7016a1d6f1c99ba35", "fusion_lat": 0.0, "rental_uris": {"android": "https://dc.lft.to/lastmile_qr_scan", "ios": "https://dc.lft.to/lastmile_qr_scan"}, "bike_id": "7d7626e02cc210d7016a1d6f1c99ba35", "is_reserved": 0}, {"lat": 38.894227666666666, "fusion_lon": 0.0, "lon": -77.04004316666666, "is_disabled": 0, "type": "electric_scooter", "name": "ce528b4f800ac4e9934c5d3a6a541991", "fusion_lat": 0.0, "rental_uris": {"android": "https://dc.lft.to/lastmile_qr_scan", "ios": "https://dc.lft.to/lastmile_qr_scan"}, "bike_id": "ce528b4f800ac4e9934c5d3a6a541991", "is_reserved": 0}, {"lat": 38.926114, "fusion_lon": 0.0, "lon": -77.043295, "is_disabled": 0, "type": "electric_scooter", "name": "c86fb3144ce2c9dc312cd5e2c85782c6", "fusion_lat": 0.0, "rental_uris": {"android": "https://dc.lft.to/lastmile_qr_scan", "ios": "https://dc.lft.to/lastmile_qr_scan"}, "bike_id": "c86fb3144ce2c9dc312cd5e2c85782c6", "is_reserved": 0}, {"lat": 38.953264, "fusion_lon": 0.0, "lon": -76.95441833333334, "is_disabled": 0, "type": "electric_bike", "name": "7e2b790343b068a567b43fb488f0e400", "fusion_lat": 0.0, "rental_uris": {"android": "https://dc.lft.to/lastmile_qr_scan", "ios": "https://dc.lft.to/lastmile_qr_scan"}, "bike_id": "7e2b790343b068a567b43fb488f0e400", "is_reserved": 0}, {"lat": 38.921615333333335, "fusion_lon": 0.0, "lon": -77.03384933333334, "is_disabled": 0, "type": "electric_scooter", "name": "579180f0c7c746dc500810c8e05ecf25", "fusion_lat": 0.0, "rental_uris": {"android": "https://dc.lft.to/lastmile_qr_scan", "ios": "https://dc.lft.to/lastmile_qr_scan"}, "bike_id": "579180f0c7c746dc500810c8e05ecf25", "is_reserved": 0}, {"lat": 38.932255, "fusion_lon": 0.0, "lon": -77.18123616666666, "is_disabled": 0, "type": "electric_bike", "name": "d7a49a80db392caedea5eef3a28377ba", "fusion_lat": 0.0, "rental_uris": {"android": "https://dc.lft.to/lastmile_qr_scan", "ios": "https://dc.lft.to/lastmile_qr_scan"}, "bike_id": "d7a49a80db392caedea5eef3a28377ba", "is_reserved": 0}, {"lat": 38.9518215, "fusion_lon": 0.0, "lon": -77.02618516666666, "is_disabled": 0, "type": "electric_scooter", "name": "02f566c7318867b5bd712ec24874f8f7", "fusion_lat": 0.0, "rental_uris": {"android": "https://dc.lft.to/lastmile_qr_scan", "ios": "https://dc.lft.to/lastmile_qr_scan"}, "bike_id": "02f566c7318867b5bd712ec24874f8f7", "is_reserved": 0}, {"lat": 38.90527616666667, "fusion_lon": 0.0, "lon": -77.03145033333334, "is_disabled": 0, "type": "electric_scooter", "name": "e2aaa1c4c926d26ff22b27480a84f8b2", "fusion_lat": 0.0, "rental_uris": {"android": "https://dc.lft.to/lastmile_qr_scan", "ios": "https://dc.lft.to/lastmile_qr_scan"}, "bike_id": "e2aaa1c4c926d26ff22b27480a84f8b2", "is_reserved": 0}, {"lat": 38.89899066666667, "fusion_lon": 0.0, "lon": -76.993809, "is_disabled": 0, "type": "electric_scooter", "name": "fce2428cb4c4dc99ccf351538d728c9f", "fusion_lat": 0.0, "rental_uris": {"android": "https://dc.lft.to/lastmile_qr_scan", "ios": "https://dc.lft.to/lastmile_qr_scan"}, "bike_id": "fce2428cb4c4dc99ccf351538d728c9f", "is_reserved": 0}, {"lat": 38.88136933333333, "fusion_lon": 0.0, "lon": -77.01226066666666, "is_disabled": 0, "type": "electric_scooter", "name": "a3f058caf617932d505cd05a4fa94324", "fusion_lat": 0.0, "rental_uris": {"android": "https://dc.lft.to/lastmile_qr_scan", "ios": "https://dc.lft.to/lastmile_qr_scan"}, "bike_id": "a3f058caf617932d505cd05a4fa94324", "is_reserved": 0}, {"lat": 38.91621766666667, "fusion_lon": 0.0, "lon": -77.0316675, "is_disabled": 0, "type": "electric_scooter", "name": "69b650478b488b445fb5d498a72bcb3f", "fusion_lat": 0.0, "rental_uris": {"android": "https://dc.lft.to/lastmile_qr_scan", "ios": "https://dc.lft.to/lastmile_qr_scan"}, "bike_id": "69b650478b488b445fb5d498a72bcb3f", "is_reserved": 0}, {"lat": 38.94093983333333, "fusion_lon": 0.0, "lon": -77.0211615, "is_disabled": 0, "type": "electric_scooter", "name": "3aa2521fd5360f5509940175d28ebb7a", "fusion_lat": 0.0, "rental_uris": {"android": "https://dc.lft.to/lastmile_qr_scan", "ios": "https://dc.lft.to/lastmile_qr_scan"}, "bike_id": "3aa2521fd5360f5509940175d28ebb7a", "is_reserved": 0}, {"lat": 38.92425816666667, "fusion_lon": 0.0, "lon": -77.05181483333334, "is_disabled": 0, "type": "electric_scooter", "name": "731ab2c74cb1a19e8eee0629c092f8ba", "fusion_lat": 0.0, "rental_uris": {"android": "https://dc.lft.to/lastmile_qr_scan", "ios": "https://dc.lft.to/lastmile_qr_scan"}, "bike_id": "731ab2c74cb1a19e8eee0629c092f8ba", "is_reserved": 0}, {"lat": 38.91821566666667, "fusion_lon": 0.0, "lon": -77.02421383333333, "is_disabled": 0, "type": "electric_scooter", "name": "1e7429d9de0943d30ca71ef2bc7b61f9", "fusion_lat": 0.0, "rental_uris": {"android": "https://dc.lft.to/lastmile_qr_scan", "ios": "https://dc.lft.to/lastmile_qr_scan"}, "bike_id": "1e7429d9de0943d30ca71ef2bc7b61f9", "is_reserved": 0}, {"lat": 38.9690225, "fusion_lon": 0.0, "lon": -76.99496316666666, "is_disabled": 0, "type": "electric_bike", "name": "8a86e515a8af99139a34290641a25efc", "fusion_lat": 0.0, "rental_uris": {"android": "https://dc.lft.to/lastmile_qr_scan", "ios": "https://dc.lft.to/lastmile_qr_scan"}, "bike_id": "8a86e515a8af99139a34290641a25efc", "is_reserved": 0}, {"lat": 38.963194666666666, "fusion_lon": 0.0, "lon": -76.973633, "is_disabled": 0, "type": "electric_bike", "name": "7ea1e005490578388b2070e3fa3937af", "fusion_lat": 0.0, "rental_uris": {"android": "https://dc.lft.to/lastmile_qr_scan", "ios": "https://dc.lft.to/lastmile_qr_scan"}, "bike_id": "7ea1e005490578388b2070e3fa3937af", "is_reserved": 0}, {"lat": 38.90867166666666, "fusion_lon": 0.0, "lon": -77.08597033333334, "is_disabled": 0, "type": "electric_scooter", "name": "42b282aad18ffb35bb75db16cedf7c37", "fusion_lat": 0.0, "rental_uris": {"android": "https://dc.lft.to/lastmile_qr_scan", "ios": "https://dc.lft.to/lastmile_qr_scan"}, "bike_id": "42b282aad18ffb35bb75db16cedf7c37", "is_reserved": 0}, {"lat": 38.9285355, "fusion_lon": 0.0, "lon": -77.01579333333333, "is_disabled": 0, "type": "electric_scooter", "name": "b81b717b53733edc24edde0473eab1b6", "fusion_lat": 0.0, "rental_uris": {"android": "https://dc.lft.to/lastmile_qr_scan", "ios": "https://dc.lft.to/lastmile_qr_scan"}, "bike_id": "b81b717b53733edc24edde0473eab1b6", "is_reserved": 0}, {"lat": 38.928765, "fusion_lon": 0.0, "lon": -77.036439, "is_disabled": 0, "type": "electric_scooter", "name": "01cb8a279fa648120cede343f0c36c4b", "fusion_lat": 0.0, "rental_uris": {"android": "https://dc.lft.to/lastmile_qr_scan", "ios": "https://dc.lft.to/lastmile_qr_scan"}, "bike_id": "01cb8a279fa648120cede343f0c36c4b", "is_reserved": 0}, {"lat": 38.88742083333333, "fusion_lon": 0.0, "lon": -77.03159916666667, "is_disabled": 0, "type": "electric_scooter", "name": "b4efdf696b9cbafcd21f8267257b19f3", "fusion_lat": 0.0, "rental_uris": {"android": "https://dc.lft.to/lastmile_qr_scan", "ios": "https://dc.lft.to/lastmile_qr_scan"}, "bike_id": "b4efdf696b9cbafcd21f8267257b19f3", "is_reserved": 0}, {"lat": 38.915274833333335, "fusion_lon": 0.0, "lon": -77.02193666666666, "is_disabled": 0, "type": "electric_scooter", "name": "d32d67ccd0274fd871c0e85c68d801de", "fusion_lat": 0.0, "rental_uris": {"android": "https://dc.lft.to/lastmile_qr_scan", "ios": "https://dc.lft.to/lastmile_qr_scan"}, "bike_id": "d32d67ccd0274fd871c0e85c68d801de", "is_reserved": 0}, {"lat": 38.924045, "fusion_lon": 0.0, "lon": -77.05173016666667, "is_disabled": 0, "type": "electric_scooter", "name": "41e6d800cb4222d91fed73ba012f30a2", "fusion_lat": 0.0, "rental_uris": {"android": "https://dc.lft.to/lastmile_qr_scan", "ios": "https://dc.lft.to/lastmile_qr_scan"}, "bike_id": "41e6d800cb4222d91fed73ba012f30a2", "is_reserved": 0}, {"lat": 38.8934, "fusion_lon": 0.0, "lon": -77.0464075, "is_disabled": 0, "type": "electric_scooter", "name": "23ee8a82fe8b3717649f419ebc1c16bf", "fusion_lat": 0.0, "rental_uris": {"android": "https://dc.lft.to/lastmile_qr_scan", "ios": "https://dc.lft.to/lastmile_qr_scan"}, "bike_id": "23ee8a82fe8b3717649f419ebc1c16bf", "is_reserved": 0}, {"lat": 38.906472, "fusion_lon": 0.0, "lon": -77.04815083333334, "is_disabled": 0, "type": "electric_scooter", "name": "995c0390d9dc896e6a21c9108d9da56b", "fusion_lat": 0.0, "rental_uris": {"android": "https://dc.lft.to/lastmile_qr_scan", "ios": "https://dc.lft.to/lastmile_qr_scan"}, "bike_id": "995c0390d9dc896e6a21c9108d9da56b", "is_reserved": 0}, {"lat": 38.9217055, "fusion_lon": 0.0, "lon": -77.0382555, "is_disabled": 0, "type": "electric_scooter", "name": "f97ca80a632e173b3f4f35ecfe5fe1b8", "fusion_lat": 0.0, "rental_uris": {"android": "https://dc.lft.to/lastmile_qr_scan", "ios": "https://dc.lft.to/lastmile_qr_scan"}, "bike_id": "f97ca80a632e173b3f4f35ecfe5fe1b8", "is_reserved": 0}, {"lat": 38.89918766666667, "fusion_lon": 0.0, "lon": -76.93383883333334, "is_disabled": 0, "type": "electric_scooter", "name": "675904b87c46c321e91734ca9413f88d", "fusion_lat": 0.0, "rental_uris": {"android": "https://dc.lft.to/lastmile_qr_scan", "ios": "https://dc.lft.to/lastmile_qr_scan"}, "bike_id": "675904b87c46c321e91734ca9413f88d", "is_reserved": 0}, {"lat": 38.899115333333334, "fusion_lon": 0.0, "lon": -76.93380416666666, "is_disabled": 0, "type": "electric_scooter", "name": "cc393e68f03a66a395e2f2d327380c0a", "fusion_lat": 0.0, "rental_uris": {"android": "https://dc.lft.to/lastmile_qr_scan", "ios": "https://dc.lft.to/lastmile_qr_scan"}, "bike_id": "cc393e68f03a66a395e2f2d327380c0a", "is_reserved": 0}, {"lat": 38.915557666666665, "fusion_lon": 0.0, "lon": -77.03129333333334, "is_disabled": 0, "type": "electric_scooter", "name": "9f8883c7214b4684dfd7f4138c378bc0", "fusion_lat": 0.0, "rental_uris": {"android": "https://dc.lft.to/lastmile_qr_scan", "ios": "https://dc.lft.to/lastmile_qr_scan"}, "bike_id": "9f8883c7214b4684dfd7f4138c378bc0", "is_reserved": 0}, {"lat": 38.89250066666666, "fusion_lon": 0.0, "lon": -77.04664866666667, "is_disabled": 0, "type": "electric_scooter", "name": "9c2f8a1480620c5110b2509edaa27798", "fusion_lat": 0.0, "rental_uris": {"android": "https://dc.lft.to/lastmile_qr_scan", "ios": "https://dc.lft.to/lastmile_qr_scan"}, "bike_id": "9c2f8a1480620c5110b2509edaa27798", "is_reserved": 0}, {"lat": 38.892198, "fusion_lon": 0.0, "lon": -77.02353583333333, "is_disabled": 0, "type": "electric_scooter", "name": "6984f795602d1d121065b7ed16cebd4e", "fusion_lat": 0.0, "rental_uris": {"android": "https://dc.lft.to/lastmile_qr_scan", "ios": "https://dc.lft.to/lastmile_qr_scan"}, "bike_id": "6984f795602d1d121065b7ed16cebd4e", "is_reserved": 0}, {"lat": 38.88305033333334, "fusion_lon": 0.0, "lon": -76.97866283333333, "is_disabled": 0, "type": "electric_scooter", "name": "f67b991fc6b54daddc88d37fc3ff7529", "fusion_lat": 0.0, "rental_uris": {"android": "https://dc.lft.to/lastmile_qr_scan", "ios": "https://dc.lft.to/lastmile_qr_scan"}, "bike_id": "f67b991fc6b54daddc88d37fc3ff7529", "is_reserved": 0}, {"lat": 38.926782333333335, "fusion_lon": 0.0, "lon": -77.029868, "is_disabled": 0, "type": "electric_scooter", "name": "8d32f6c16763c04379d1799e329e678b", "fusion_lat": 0.0, "rental_uris": {"android": "https://dc.lft.to/lastmile_qr_scan", "ios": "https://dc.lft.to/lastmile_qr_scan"}, "bike_id": "8d32f6c16763c04379d1799e329e678b", "is_reserved": 0}, {"lat": 39.06294716666667, "fusion_lon": 0.0, "lon": -77.04980666666667, "is_disabled": 0, "type": "electric_bike", "name": "014e42993d07ffb5cfc47e93f8d2d4a4", "fusion_lat": 0.0, "rental_uris": {"android": "https://dc.lft.to/lastmile_qr_scan", "ios": "https://dc.lft.to/lastmile_qr_scan"}, "bike_id": "014e42993d07ffb5cfc47e93f8d2d4a4", "is_reserved": 0}, {"lat": 38.903476166666664, "fusion_lon": 0.0, "lon": -77.028418, "is_disabled": 0, "type": "electric_scooter", "name": "4f8ebaa1e38969a60db0d6c83d6d6280", "fusion_lat": 0.0, "rental_uris": {"android": "https://dc.lft.to/lastmile_qr_scan", "ios": "https://dc.lft.to/lastmile_qr_scan"}, "bike_id": "4f8ebaa1e38969a60db0d6c83d6d6280", "is_reserved": 0}, {"lat": 38.89961, "fusion_lon": 0.0, "lon": -77.0500225, "is_disabled": 0, "type": "electric_scooter", "name": "4a0be10bba2784d704e41458c16d9a1d", "fusion_lat": 0.0, "rental_uris": {"android": "https://dc.lft.to/lastmile_qr_scan", "ios": "https://dc.lft.to/lastmile_qr_scan"}, "bike_id": "4a0be10bba2784d704e41458c16d9a1d", "is_reserved": 0}, {"lat": 38.911074, "fusion_lon": 0.0, "lon": -77.04268366666666, "is_disabled": 0, "type": "electric_scooter", "name": "9581e6a67e158c746382f7512c0ed723", "fusion_lat": 0.0, "rental_uris": {"android": "https://dc.lft.to/lastmile_qr_scan", "ios": "https://dc.lft.to/lastmile_qr_scan"}, "bike_id": "9581e6a67e158c746382f7512c0ed723", "is_reserved": 0}, {"lat": 38.90121766666667, "fusion_lon": 0.0, "lon": -77.04016083333333, "is_disabled": 0, "type": "electric_scooter", "name": "71587f8850e8eaf0edb8c40fb7066177", "fusion_lat": 0.0, "rental_uris": {"android": "https://dc.lft.to/lastmile_qr_scan", "ios": "https://dc.lft.to/lastmile_qr_scan"}, "bike_id": "71587f8850e8eaf0edb8c40fb7066177", "is_reserved": 0}, {"lat": 38.906422666666664, "fusion_lon": 0.0, "lon": -77.03873383333334, "is_disabled": 0, "type": "electric_scooter", "name": "42e4315bc8e03ef33c403fbea77c0253", "fusion_lat": 0.0, "rental_uris": {"android": "https://dc.lft.to/lastmile_qr_scan", "ios": "https://dc.lft.to/lastmile_qr_scan"}, "bike_id": "42e4315bc8e03ef33c403fbea77c0253", "is_reserved": 0}, {"lat": 38.905673, "fusion_lon": 0.0, "lon": -77.04345866666667, "is_disabled": 0, "type": "electric_scooter", "name": "0aa843fdaadcd334eedc1de100580f5b", "fusion_lat": 0.0, "rental_uris": {"android": "https://dc.lft.to/lastmile_qr_scan", "ios": "https://dc.lft.to/lastmile_qr_scan"}, "bike_id": "0aa843fdaadcd334eedc1de100580f5b", "is_reserved": 0}, {"lat": 38.85519633333333, "fusion_lon": 0.0, "lon": -76.9842475, "is_disabled": 0, "type": "electric_bike", "name": "b11a58c4aab068c6b22f7444097ef547", "fusion_lat": 0.0, "rental_uris": {"android": "https://dc.lft.to/lastmile_qr_scan", "ios": "https://dc.lft.to/lastmile_qr_scan"}, "bike_id": "b11a58c4aab068c6b22f7444097ef547", "is_reserved": 0}, {"lat": 38.903749, "fusion_lon": 0.0, "lon": -77.03312466666667, "is_disabled": 0, "type": "electric_scooter", "name": "ba8804efafcfcb474f8a32ceb7e625f3", "fusion_lat": 0.0, "rental_uris": {"android": "https://dc.lft.to/lastmile_qr_scan", "ios": "https://dc.lft.to/lastmile_qr_scan"}, "bike_id": "ba8804efafcfcb474f8a32ceb7e625f3", "is_reserved": 0}, {"lat": 38.898802, "fusion_lon": 0.0, "lon": -77.02577233333334, "is_disabled": 0, "type": "electric_scooter", "name": "dd1b9fca46aeaba549947c3d8f0a3dc2", "fusion_lat": 0.0, "rental_uris": {"android": "https://dc.lft.to/lastmile_qr_scan", "ios": "https://dc.lft.to/lastmile_qr_scan"}, "bike_id": "dd1b9fca46aeaba549947c3d8f0a3dc2", "is_reserved": 0}, {"lat": 38.901130333333334, "fusion_lon": 0.0, "lon": -77.04024116666666, "is_disabled": 0, "type": "electric_scooter", "name": "858c48bb3ca27a3dfd08bd55890b5562", "fusion_lat": 0.0, "rental_uris": {"android": "https://dc.lft.to/lastmile_qr_scan", "ios": "https://dc.lft.to/lastmile_qr_scan"}, "bike_id": "858c48bb3ca27a3dfd08bd55890b5562", "is_reserved": 0}, {"lat": 38.93102716666667, "fusion_lon": 0.0, "lon": -77.03638666666667, "is_disabled": 0, "type": "electric_scooter", "name": "8eecaebdedde5799957758cccdcc980f", "fusion_lat": 0.0, "rental_uris": {"android": "https://dc.lft.to/lastmile_qr_scan", "ios": "https://dc.lft.to/lastmile_qr_scan"}, "bike_id": "8eecaebdedde5799957758cccdcc980f", "is_reserved": 0}, {"lat": 38.91530483333333, "fusion_lon": 0.0, "lon": -77.0462635, "is_disabled": 0, "type": "electric_scooter", "name": "ac238d13b70cc0db4bee6aa83ce42727", "fusion_lat": 0.0, "rental_uris": {"android": "https://dc.lft.to/lastmile_qr_scan", "ios": "https://dc.lft.to/lastmile_qr_scan"}, "bike_id": "ac238d13b70cc0db4bee6aa83ce42727", "is_reserved": 0}, {"lat": 38.863538166666665, "fusion_lon": 0.0, "lon": -76.99065366666666, "is_disabled": 0, "type": "electric_scooter", "name": "c3eabb46a5468dc18270ad6a474528c9", "fusion_lat": 0.0, "rental_uris": {"android": "https://dc.lft.to/lastmile_qr_scan", "ios": "https://dc.lft.to/lastmile_qr_scan"}, "bike_id": "c3eabb46a5468dc18270ad6a474528c9", "is_reserved": 0}, {"lat": 38.887366166666666, "fusion_lon": 0.0, "lon": -77.01738583333334, "is_disabled": 0, "type": "electric_scooter", "name": "b3160ecef57791e81cbe758f07765888", "fusion_lat": 0.0, "rental_uris": {"android": "https://dc.lft.to/lastmile_qr_scan", "ios": "https://dc.lft.to/lastmile_qr_scan"}, "bike_id": "b3160ecef57791e81cbe758f07765888", "is_reserved": 0}, {"lat": 38.874666, "fusion_lon": 0.0, "lon": -77.00513166666667, "is_disabled": 0, "type": "electric_scooter", "name": "50e381f5096216149107f6fea2afa435", "fusion_lat": 0.0, "rental_uris": {"android": "https://dc.lft.to/lastmile_qr_scan", "ios": "https://dc.lft.to/lastmile_qr_scan"}, "bike_id": "50e381f5096216149107f6fea2afa435", "is_reserved": 0}, {"lat": 38.90075733333333, "fusion_lon": 0.0, "lon": -77.02454366666667, "is_disabled": 0, "type": "electric_scooter", "name": "bcccb41c169e0cf538aaf56c898386c7", "fusion_lat": 0.0, "rental_uris": {"android": "https://dc.lft.to/lastmile_qr_scan", "ios": "https://dc.lft.to/lastmile_qr_scan"}, "bike_id": "bcccb41c169e0cf538aaf56c898386c7", "is_reserved": 0}, {"lat": 38.90865466666666, "fusion_lon": 0.0, "lon": -77.04858033333333, "is_disabled": 0, "type": "electric_scooter", "name": "89e0dce13d3b60475ab1edf7491415d3", "fusion_lat": 0.0, "rental_uris": {"android": "https://dc.lft.to/lastmile_qr_scan", "ios": "https://dc.lft.to/lastmile_qr_scan"}, "bike_id": "89e0dce13d3b60475ab1edf7491415d3", "is_reserved": 0}, {"lat": 38.89218916666667, "fusion_lon": 0.0, "lon": -77.03341216666666, "is_disabled": 0, "type": "electric_scooter", "name": "b80497840e34a03b0317b31270388a93", "fusion_lat": 0.0, "rental_uris": {"android": "https://dc.lft.to/lastmile_qr_scan", "ios": "https://dc.lft.to/lastmile_qr_scan"}, "bike_id": "b80497840e34a03b0317b31270388a93", "is_reserved": 0}, {"lat": 38.922549333333336, "fusion_lon": 0.0, "lon": -77.07034366666667, "is_disabled": 0, "type": "electric_scooter", "name": "82ad58111730ed494aed9e9c1c6d4464", "fusion_lat": 0.0, "rental_uris": {"android": "https://dc.lft.to/lastmile_qr_scan", "ios": "https://dc.lft.to/lastmile_qr_scan"}, "bike_id": "82ad58111730ed494aed9e9c1c6d4464", "is_reserved": 0}, {"lat": 38.892161333333334, "fusion_lon": 0.0, "lon": -77.04504433333334, "is_disabled": 0, "type": "electric_scooter", "name": "779570cacd2b25065c882ddc5f0453ed", "fusion_lat": 0.0, "rental_uris": {"android": "https://dc.lft.to/lastmile_qr_scan", "ios": "https://dc.lft.to/lastmile_qr_scan"}, "bike_id": "779570cacd2b25065c882ddc5f0453ed", "is_reserved": 0}, {"lat": 38.9179175, "fusion_lon": 0.0, "lon": -77.0232035, "is_disabled": 0, "type": "electric_scooter", "name": "10b898d895f39e44dbcb6ac9e2a8c7c5", "fusion_lat": 0.0, "rental_uris": {"android": "https://dc.lft.to/lastmile_qr_scan", "ios": "https://dc.lft.to/lastmile_qr_scan"}, "bike_id": "10b898d895f39e44dbcb6ac9e2a8c7c5", "is_reserved": 0}, {"lat": 38.90649466666667, "fusion_lon": 0.0, "lon": -77.04159416666667, "is_disabled": 0, "type": "electric_scooter", "name": "e4f616727116d7c27a11499e8a81b622", "fusion_lat": 0.0, "rental_uris": {"android": "https://dc.lft.to/lastmile_qr_scan", "ios": "https://dc.lft.to/lastmile_qr_scan"}, "bike_id": "e4f616727116d7c27a11499e8a81b622", "is_reserved": 0}, {"lat": 38.87287366666666, "fusion_lon": 0.0, "lon": -76.9773055, "is_disabled": 0, "type": "electric_scooter", "name": "6ed275238192076e584024443301c8f8", "fusion_lat": 0.0, "rental_uris": {"android": "https://dc.lft.to/lastmile_qr_scan", "ios": "https://dc.lft.to/lastmile_qr_scan"}, "bike_id": "6ed275238192076e584024443301c8f8", "is_reserved": 0}, {"lat": 38.88767083333333, "fusion_lon": 0.0, "lon": -77.01773633333333, "is_disabled": 0, "type": "electric_scooter", "name": "b1e9a453ef4b8eb0c51bf5941dff1f0e", "fusion_lat": 0.0, "rental_uris": {"android": "https://dc.lft.to/lastmile_qr_scan", "ios": "https://dc.lft.to/lastmile_qr_scan"}, "bike_id": "b1e9a453ef4b8eb0c51bf5941dff1f0e", "is_reserved": 0}, {"lat": 38.93425933333333, "fusion_lon": 0.0, "lon": -77.04407866666666, "is_disabled": 0, "type": "electric_scooter", "name": "55d9a089580fed3d7174ecbb0ade36d4", "fusion_lat": 0.0, "rental_uris": {"android": "https://dc.lft.to/lastmile_qr_scan", "ios": "https://dc.lft.to/lastmile_qr_scan"}, "bike_id": "55d9a089580fed3d7174ecbb0ade36d4", "is_reserved": 0}, {"lat": 38.90061083333333, "fusion_lon": 0.0, "lon": -77.04531266666666, "is_disabled": 0, "type": "electric_scooter", "name": "e80838f09a97a78f97194d606b23f9ef", "fusion_lat": 0.0, "rental_uris": {"android": "https://dc.lft.to/lastmile_qr_scan", "ios": "https://dc.lft.to/lastmile_qr_scan"}, "bike_id": "e80838f09a97a78f97194d606b23f9ef", "is_reserved": 0}, {"lat": 38.90148833333333, "fusion_lon": 0.0, "lon": -77.0435215, "is_disabled": 0, "type": "electric_scooter", "name": "0a385425f3ffa00631e5cc7cb54a0c6c", "fusion_lat": 0.0, "rental_uris": {"android": "https://dc.lft.to/lastmile_qr_scan", "ios": "https://dc.lft.to/lastmile_qr_scan"}, "bike_id": "0a385425f3ffa00631e5cc7cb54a0c6c", "is_reserved": 0}, {"lat": 38.922335333333336, "fusion_lon": 0.0, "lon": -77.03653716666666, "is_disabled": 0, "type": "electric_scooter", "name": "cb038e1b2f8449dc29f1ec4d8775ea20", "fusion_lat": 0.0, "rental_uris": {"android": "https://dc.lft.to/lastmile_qr_scan", "ios": "https://dc.lft.to/lastmile_qr_scan"}, "bike_id": "cb038e1b2f8449dc29f1ec4d8775ea20", "is_reserved": 0}, {"lat": 38.92603116666667, "fusion_lon": 0.0, "lon": -77.0215745, "is_disabled": 0, "type": "electric_scooter", "name": "64caa55c56b75054277cbe6db0a63785", "fusion_lat": 0.0, "rental_uris": {"android": "https://dc.lft.to/lastmile_qr_scan", "ios": "https://dc.lft.to/lastmile_qr_scan"}, "bike_id": "64caa55c56b75054277cbe6db0a63785", "is_reserved": 0}, {"lat": 38.943143, "fusion_lon": 0.0, "lon": -77.01729583333334, "is_disabled": 0, "type": "electric_scooter", "name": "19ca8b26bb07ef7b34eb9a4b227d7bfc", "fusion_lat": 0.0, "rental_uris": {"android": "https://dc.lft.to/lastmile_qr_scan", "ios": "https://dc.lft.to/lastmile_qr_scan"}, "bike_id": "19ca8b26bb07ef7b34eb9a4b227d7bfc", "is_reserved": 0}, {"lat": 38.88514966666666, "fusion_lon": 0.0, "lon": -76.99739483333333, "is_disabled": 0, "type": "electric_scooter", "name": "db4f4fbde957a0337c92f86b4bed672e", "fusion_lat": 0.0, "rental_uris": {"android": "https://dc.lft.to/lastmile_qr_scan", "ios": "https://dc.lft.to/lastmile_qr_scan"}, "bike_id": "db4f4fbde957a0337c92f86b4bed672e", "is_reserved": 0}, {"lat": 38.89937333333334, "fusion_lon": 0.0, "lon": -77.01455366666667, "is_disabled": 0, "type": "electric_scooter", "name": "610d4c20147d996b6f8980874662d22f", "fusion_lat": 0.0, "rental_uris": {"android": "https://dc.lft.to/lastmile_qr_scan", "ios": "https://dc.lft.to/lastmile_qr_scan"}, "bike_id": "610d4c20147d996b6f8980874662d22f", "is_reserved": 0}, {"lat": 38.9169555, "fusion_lon": 0.0, "lon": -77.03315533333334, "is_disabled": 0, "type": "electric_scooter", "name": "c8be8a9d3992ef6dc99b52d23d159f0b", "fusion_lat": 0.0, "rental_uris": {"android": "https://dc.lft.to/lastmile_qr_scan", "ios": "https://dc.lft.to/lastmile_qr_scan"}, "bike_id": "c8be8a9d3992ef6dc99b52d23d159f0b", "is_reserved": 0}, {"lat": 38.9043075, "fusion_lon": 0.0, "lon": -77.043439, "is_disabled": 0, "type": "electric_scooter", "name": "a456000b8a2f39a6941bba89d95e7ba8", "fusion_lat": 0.0, "rental_uris": {"android": "https://dc.lft.to/lastmile_qr_scan", "ios": "https://dc.lft.to/lastmile_qr_scan"}, "bike_id": "a456000b8a2f39a6941bba89d95e7ba8", "is_reserved": 0}, {"lat": 38.906347333333336, "fusion_lon": 0.0, "lon": -77.06907166666667, "is_disabled": 0, "type": "electric_scooter", "name": "0ba7e225e3e0ab00463204eeb7850f3c", "fusion_lat": 0.0, "rental_uris": {"android": "https://dc.lft.to/lastmile_qr_scan", "ios": "https://dc.lft.to/lastmile_qr_scan"}, "bike_id": "0ba7e225e3e0ab00463204eeb7850f3c", "is_reserved": 0}, {"lat": 38.90059316666667, "fusion_lon": 0.0, "lon": -77.01284333333334, "is_disabled": 0, "type": "electric_scooter", "name": "22961a2c5e26d8a3c04af114cda7c24a", "fusion_lat": 0.0, "rental_uris": {"android": "https://dc.lft.to/lastmile_qr_scan", "ios": "https://dc.lft.to/lastmile_qr_scan"}, "bike_id": "22961a2c5e26d8a3c04af114cda7c24a", "is_reserved": 0}, {"lat": 38.91081766666667, "fusion_lon": 0.0, "lon": -77.065479, "is_disabled": 0, "type": "electric_scooter", "name": "17837dede3cdf04f0f7951e82b5f8340", "fusion_lat": 0.0, "rental_uris": {"android": "https://dc.lft.to/lastmile_qr_scan", "ios": "https://dc.lft.to/lastmile_qr_scan"}, "bike_id": "17837dede3cdf04f0f7951e82b5f8340", "is_reserved": 0}, {"lat": 38.8669875, "fusion_lon": 0.0, "lon": -76.9859725, "is_disabled": 0, "type": "electric_scooter", "name": "a9f22acb99fea13f34ee3ffcddadb088", "fusion_lat": 0.0, "rental_uris": {"android": "https://dc.lft.to/lastmile_qr_scan", "ios": "https://dc.lft.to/lastmile_qr_scan"}, "bike_id": "a9f22acb99fea13f34ee3ffcddadb088", "is_reserved": 0}, {"lat": 38.904999333333336, "fusion_lon": 0.0, "lon": -77.0347215, "is_disabled": 0, "type": "electric_scooter", "name": "c1514d33a8cd40a717d5717fce40f325", "fusion_lat": 0.0, "rental_uris": {"android": "https://dc.lft.to/lastmile_qr_scan", "ios": "https://dc.lft.to/lastmile_qr_scan"}, "bike_id": "c1514d33a8cd40a717d5717fce40f325", "is_reserved": 0}, {"lat": 38.895304, "fusion_lon": 0.0, "lon": -77.032628, "is_disabled": 0, "type": "electric_scooter", "name": "3445635367f5ef7e89a87160a6023266", "fusion_lat": 0.0, "rental_uris": {"android": "https://dc.lft.to/lastmile_qr_scan", "ios": "https://dc.lft.to/lastmile_qr_scan"}, "bike_id": "3445635367f5ef7e89a87160a6023266", "is_reserved": 0}, {"lat": 38.88730483333333, "fusion_lon": 0.0, "lon": -77.02834283333334, "is_disabled": 0, "type": "electric_scooter", "name": "67ac5935446956175485b648716f4408", "fusion_lat": 0.0, "rental_uris": {"android": "https://dc.lft.to/lastmile_qr_scan", "ios": "https://dc.lft.to/lastmile_qr_scan"}, "bike_id": "67ac5935446956175485b648716f4408", "is_reserved": 0}, {"lat": 38.8817715, "fusion_lon": 0.0, "lon": -77.03574733333333, "is_disabled": 0, "type": "electric_scooter", "name": "3cb333a6d2d635c402df78919be94a70", "fusion_lat": 0.0, "rental_uris": {"android": "https://dc.lft.to/lastmile_qr_scan", "ios": "https://dc.lft.to/lastmile_qr_scan"}, "bike_id": "3cb333a6d2d635c402df78919be94a70", "is_reserved": 0}, {"lat": 38.8765305, "fusion_lon": 0.0, "lon": -77.00873233333333, "is_disabled": 0, "type": "electric_scooter", "name": "2bb9dd9ca7b0baa5c1de8a706f47d3e8", "fusion_lat": 0.0, "rental_uris": {"android": "https://dc.lft.to/lastmile_qr_scan", "ios": "https://dc.lft.to/lastmile_qr_scan"}, "bike_id": "2bb9dd9ca7b0baa5c1de8a706f47d3e8", "is_reserved": 0}, {"lat": 38.807538, "fusion_lon": 0.0, "lon": -77.094559, "is_disabled": 0, "type": "electric_bike", "name": "884c02b8fdb5693fd2ee30dae216bf45", "fusion_lat": 0.0, "rental_uris": {"android": "https://dc.lft.to/lastmile_qr_scan", "ios": "https://dc.lft.to/lastmile_qr_scan"}, "bike_id": "884c02b8fdb5693fd2ee30dae216bf45", "is_reserved": 0}, {"lat": 38.89219333333333, "fusion_lon": 0.0, "lon": -77.0201465, "is_disabled": 0, "type": "electric_scooter", "name": "236a0417768624827231e9cbd822d9f0", "fusion_lat": 0.0, "rental_uris": {"android": "https://dc.lft.to/lastmile_qr_scan", "ios": "https://dc.lft.to/lastmile_qr_scan"}, "bike_id": "236a0417768624827231e9cbd822d9f0", "is_reserved": 0}, {"lat": 38.905229166666665, "fusion_lon": 0.0, "lon": -77.049977, "is_disabled": 0, "type": "electric_scooter", "name": "4689941a162d39de48f3e809d7f29de0", "fusion_lat": 0.0, "rental_uris": {"android": "https://dc.lft.to/lastmile_qr_scan", "ios": "https://dc.lft.to/lastmile_qr_scan"}, "bike_id": "4689941a162d39de48f3e809d7f29de0", "is_reserved": 0}, {"lat": 38.898524333333334, "fusion_lon": 0.0, "lon": -76.98178933333334, "is_disabled": 0, "type": "electric_scooter", "name": "d2a9cb2eb542c98a4cddfd9a3f7181bc", "fusion_lat": 0.0, "rental_uris": {"android": "https://dc.lft.to/lastmile_qr_scan", "ios": "https://dc.lft.to/lastmile_qr_scan"}, "bike_id": "d2a9cb2eb542c98a4cddfd9a3f7181bc", "is_reserved": 0}, {"lat": 38.911489833333334, "fusion_lon": 0.0, "lon": -77.004807, "is_disabled": 0, "type": "electric_scooter", "name": "0ace487cff5e7fd662624f04b962c293", "fusion_lat": 0.0, "rental_uris": {"android": "https://dc.lft.to/lastmile_qr_scan", "ios": "https://dc.lft.to/lastmile_qr_scan"}, "bike_id": "0ace487cff5e7fd662624f04b962c293", "is_reserved": 0}, {"lat": 38.853251, "fusion_lon": 0.0, "lon": -76.98019783333334, "is_disabled": 0, "type": "electric_bike", "name": "9477ef97d65cedf8586bf2e8bda11517", "fusion_lat": 0.0, "rental_uris": {"android": "https://dc.lft.to/lastmile_qr_scan", "ios": "https://dc.lft.to/lastmile_qr_scan"}, "bike_id": "9477ef97d65cedf8586bf2e8bda11517", "is_reserved": 0}, {"lat": 38.8861675, "fusion_lon": 0.0, "lon": -76.955812, "is_disabled": 0, "type": "electric_scooter", "name": "45a748166dce5bb78fec54807435de99", "fusion_lat": 0.0, "rental_uris": {"android": "https://dc.lft.to/lastmile_qr_scan", "ios": "https://dc.lft.to/lastmile_qr_scan"}, "bike_id": "45a748166dce5bb78fec54807435de99", "is_reserved": 0}, {"lat": 38.90250833333333, "fusion_lon": 0.0, "lon": -77.017536, "is_disabled": 0, "type": "electric_scooter", "name": "80a4bf8619f4d3879ec8d3b5d116691e", "fusion_lat": 0.0, "rental_uris": {"android": "https://dc.lft.to/lastmile_qr_scan", "ios": "https://dc.lft.to/lastmile_qr_scan"}, "bike_id": "80a4bf8619f4d3879ec8d3b5d116691e", "is_reserved": 0}, {"lat": 38.94307883333333, "fusion_lon": 0.0, "lon": -77.05943066666667, "is_disabled": 0, "type": "electric_scooter", "name": "94db9eb1d1c07495ad9565cfa160c52b", "fusion_lat": 0.0, "rental_uris": {"android": "https://dc.lft.to/lastmile_qr_scan", "ios": "https://dc.lft.to/lastmile_qr_scan"}, "bike_id": "94db9eb1d1c07495ad9565cfa160c52b", "is_reserved": 0}, {"lat": 38.88314416666667, "fusion_lon": 0.0, "lon": -77.01686033333333, "is_disabled": 0, "type": "electric_scooter", "name": "ddccbba44247f262ea395dc08ab5c3ca", "fusion_lat": 0.0, "rental_uris": {"android": "https://dc.lft.to/lastmile_qr_scan", "ios": "https://dc.lft.to/lastmile_qr_scan"}, "bike_id": "ddccbba44247f262ea395dc08ab5c3ca", "is_reserved": 0}, {"lat": 38.95257333333333, "fusion_lon": 0.0, "lon": -77.00789583333334, "is_disabled": 0, "type": "electric_bike", "name": "beffcf10a2ca413032af6389e8cb0469", "fusion_lat": 0.0, "rental_uris": {"android": "https://dc.lft.to/lastmile_qr_scan", "ios": "https://dc.lft.to/lastmile_qr_scan"}, "bike_id": "beffcf10a2ca413032af6389e8cb0469", "is_reserved": 0}, {"lat": 38.921766166666664, "fusion_lon": 0.0, "lon": -77.04228783333333, "is_disabled": 0, "type": "electric_scooter", "name": "e6e6eefdd045814e57af42ed8bb87bc0", "fusion_lat": 0.0, "rental_uris": {"android": "https://dc.lft.to/lastmile_qr_scan", "ios": "https://dc.lft.to/lastmile_qr_scan"}, "bike_id": "e6e6eefdd045814e57af42ed8bb87bc0", "is_reserved": 0}, {"lat": 38.92858, "fusion_lon": 0.0, "lon": -77.01426483333333, "is_disabled": 0, "type": "electric_scooter", "name": "07e1f2ac3b7b5431a59c7b489dc62136", "fusion_lat": 0.0, "rental_uris": {"android": "https://dc.lft.to/lastmile_qr_scan", "ios": "https://dc.lft.to/lastmile_qr_scan"}, "bike_id": "07e1f2ac3b7b5431a59c7b489dc62136", "is_reserved": 0}, {"lat": 38.9000215, "fusion_lon": 0.0, "lon": -77.03342433333333, "is_disabled": 0, "type": "electric_scooter", "name": "145632844a7a445ddf592889ed7ed33c", "fusion_lat": 0.0, "rental_uris": {"android": "https://dc.lft.to/lastmile_qr_scan", "ios": "https://dc.lft.to/lastmile_qr_scan"}, "bike_id": "145632844a7a445ddf592889ed7ed33c", "is_reserved": 0}, {"lat": 38.90254516666667, "fusion_lon": 0.0, "lon": -77.04634433333334, "is_disabled": 0, "type": "electric_scooter", "name": "2e1962576edf1f6f648f19d9cb1e4568", "fusion_lat": 0.0, "rental_uris": {"android": "https://dc.lft.to/lastmile_qr_scan", "ios": "https://dc.lft.to/lastmile_qr_scan"}, "bike_id": "2e1962576edf1f6f648f19d9cb1e4568", "is_reserved": 0}, {"lat": 38.923616833333334, "fusion_lon": 0.0, "lon": -77.05049733333334, "is_disabled": 0, "type": "electric_scooter", "name": "0abe29f669429b903686b1afc25b4e81", "fusion_lat": 0.0, "rental_uris": {"android": "https://dc.lft.to/lastmile_qr_scan", "ios": "https://dc.lft.to/lastmile_qr_scan"}, "bike_id": "0abe29f669429b903686b1afc25b4e81", "is_reserved": 0}, {"lat": 38.905097, "fusion_lon": 0.0, "lon": -76.98487866666666, "is_disabled": 0, "type": "electric_scooter", "name": "5471795a2f9460a8df7da691bdfe85d1", "fusion_lat": 0.0, "rental_uris": {"android": "https://dc.lft.to/lastmile_qr_scan", "ios": "https://dc.lft.to/lastmile_qr_scan"}, "bike_id": "5471795a2f9460a8df7da691bdfe85d1", "is_reserved": 0}, {"lat": 38.9012695, "fusion_lon": 0.0, "lon": -77.03984566666666, "is_disabled": 0, "type": "electric_scooter", "name": "f6fafb5ab463ce4cbbb8a42552beae1e", "fusion_lat": 0.0, "rental_uris": {"android": "https://dc.lft.to/lastmile_qr_scan", "ios": "https://dc.lft.to/lastmile_qr_scan"}, "bike_id": "f6fafb5ab463ce4cbbb8a42552beae1e", "is_reserved": 0}, {"lat": 38.894956666666666, "fusion_lon": 0.0, "lon": -77.02737483333334, "is_disabled": 0, "type": "electric_scooter", "name": "466d222742834d65e5ecd26353258ea8", "fusion_lat": 0.0, "rental_uris": {"android": "https://dc.lft.to/lastmile_qr_scan", "ios": "https://dc.lft.to/lastmile_qr_scan"}, "bike_id": "466d222742834d65e5ecd26353258ea8", "is_reserved": 0}, {"lat": 38.897139833333334, "fusion_lon": 0.0, "lon": -77.00797783333333, "is_disabled": 0, "type": "electric_scooter", "name": "65c6a4b5a7aae9d38ac9cab6f3118e0f", "fusion_lat": 0.0, "rental_uris": {"android": "https://dc.lft.to/lastmile_qr_scan", "ios": "https://dc.lft.to/lastmile_qr_scan"}, "bike_id": "65c6a4b5a7aae9d38ac9cab6f3118e0f", "is_reserved": 0}, {"lat": 38.884975, "fusion_lon": 0.0, "lon": -77.015902, "is_disabled": 0, "type": "electric_scooter", "name": "20564b98384f0eee8945138947272fc7", "fusion_lat": 0.0, "rental_uris": {"android": "https://dc.lft.to/lastmile_qr_scan", "ios": "https://dc.lft.to/lastmile_qr_scan"}, "bike_id": "20564b98384f0eee8945138947272fc7", "is_reserved": 0}, {"lat": 38.827864166666664, "fusion_lon": 0.0, "lon": -77.00919, "is_disabled": 0, "type": "electric_bike", "name": "2da1402e27a4176ae048a2bb56c51acf", "fusion_lat": 0.0, "rental_uris": {"android": "https://dc.lft.to/lastmile_qr_scan", "ios": "https://dc.lft.to/lastmile_qr_scan"}, "bike_id": "2da1402e27a4176ae048a2bb56c51acf", "is_reserved": 0}, {"lat": 38.920589, "fusion_lon": 0.0, "lon": -77.02511433333333, "is_disabled": 0, "type": "electric_scooter", "name": "5e626c1609b60f7d423b328818e21050", "fusion_lat": 0.0, "rental_uris": {"android": "https://dc.lft.to/lastmile_qr_scan", "ios": "https://dc.lft.to/lastmile_qr_scan"}, "bike_id": "5e626c1609b60f7d423b328818e21050", "is_reserved": 0}, {"lat": 38.91111816666667, "fusion_lon": 0.0, "lon": -77.04480716666667, "is_disabled": 0, "type": "electric_scooter", "name": "b993d02b90feeb6d8c6d0ed6aa06adb5", "fusion_lat": 0.0, "rental_uris": {"android": "https://dc.lft.to/lastmile_qr_scan", "ios": "https://dc.lft.to/lastmile_qr_scan"}, "bike_id": "b993d02b90feeb6d8c6d0ed6aa06adb5", "is_reserved": 0}, {"lat": 38.98454533333334, "fusion_lon": 0.0, "lon": -77.02644366666667, "is_disabled": 0, "type": "electric_scooter", "name": "e88a0f3141fca007108cb58402aec250", "fusion_lat": 0.0, "rental_uris": {"android": "https://dc.lft.to/lastmile_qr_scan", "ios": "https://dc.lft.to/lastmile_qr_scan"}, "bike_id": "e88a0f3141fca007108cb58402aec250", "is_reserved": 0}, {"lat": 39.052774166666666, "fusion_lon": 0.0, "lon": -77.08073566666667, "is_disabled": 0, "type": "electric_bike", "name": "78e6799ec112420266b07cd4b50126d7", "fusion_lat": 0.0, "rental_uris": {"android": "https://dc.lft.to/lastmile_qr_scan", "ios": "https://dc.lft.to/lastmile_qr_scan"}, "bike_id": "78e6799ec112420266b07cd4b50126d7", "is_reserved": 0}, {"lat": 38.878241333333335, "fusion_lon": 0.0, "lon": -76.96306183333333, "is_disabled": 0, "type": "electric_scooter", "name": "59b069350382365e5d1be6fa83fc53af", "fusion_lat": 0.0, "rental_uris": {"android": "https://dc.lft.to/lastmile_qr_scan", "ios": "https://dc.lft.to/lastmile_qr_scan"}, "bike_id": "59b069350382365e5d1be6fa83fc53af", "is_reserved": 0}, {"lat": 38.8872075, "fusion_lon": 0.0, "lon": -77.0281425, "is_disabled": 0, "type": "electric_scooter", "name": "cdd2a7cc24d40539f7672604ee693eb9", "fusion_lat": 0.0, "rental_uris": {"android": "https://dc.lft.to/lastmile_qr_scan", "ios": "https://dc.lft.to/lastmile_qr_scan"}, "bike_id": "cdd2a7cc24d40539f7672604ee693eb9", "is_reserved": 0}, {"lat": 38.8699775, "fusion_lon": 0.0, "lon": -76.9758985, "is_disabled": 0, "type": "electric_scooter", "name": "6c5153949e78cb570579adfcb9941cfa", "fusion_lat": 0.0, "rental_uris": {"android": "https://dc.lft.to/lastmile_qr_scan", "ios": "https://dc.lft.to/lastmile_qr_scan"}, "bike_id": "6c5153949e78cb570579adfcb9941cfa", "is_reserved": 0}, {"lat": 38.9610105, "fusion_lon": 0.0, "lon": -76.92820633333334, "is_disabled": 0, "type": "electric_bike", "name": "2b0db7f3aa705a6f1fc5a4db46b29e60", "fusion_lat": 0.0, "rental_uris": {"android": "https://dc.lft.to/lastmile_qr_scan", "ios": "https://dc.lft.to/lastmile_qr_scan"}, "bike_id": "2b0db7f3aa705a6f1fc5a4db46b29e60", "is_reserved": 0}, {"lat": 38.92318066666667, "fusion_lon": 0.0, "lon": -77.02130133333333, "is_disabled": 0, "type": "electric_scooter", "name": "e14f8479225e532fcf09a6948d07ef06", "fusion_lat": 0.0, "rental_uris": {"android": "https://dc.lft.to/lastmile_qr_scan", "ios": "https://dc.lft.to/lastmile_qr_scan"}, "bike_id": "e14f8479225e532fcf09a6948d07ef06", "is_reserved": 0}, {"lat": 38.87679633333333, "fusion_lon": 0.0, "lon": -77.004124, "is_disabled": 0, "type": "electric_scooter", "name": "bdf24127892daaea2845741fc4105edb", "fusion_lat": 0.0, "rental_uris": {"android": "https://dc.lft.to/lastmile_qr_scan", "ios": "https://dc.lft.to/lastmile_qr_scan"}, "bike_id": "bdf24127892daaea2845741fc4105edb", "is_reserved": 0}, {"lat": 38.93048266666667, "fusion_lon": 0.0, "lon": -77.03230366666666, "is_disabled": 0, "type": "electric_scooter", "name": "5d671739dfd43c4ea509d76de1caf76c", "fusion_lat": 0.0, "rental_uris": {"android": "https://dc.lft.to/lastmile_qr_scan", "ios": "https://dc.lft.to/lastmile_qr_scan"}, "bike_id": "5d671739dfd43c4ea509d76de1caf76c", "is_reserved": 0}, {"lat": 38.87195666666667, "fusion_lon": 0.0, "lon": -77.0107495, "is_disabled": 0, "type": "electric_scooter", "name": "0bbd51d7e46527dfd384f7db9d663594", "fusion_lat": 0.0, "rental_uris": {"android": "https://dc.lft.to/lastmile_qr_scan", "ios": "https://dc.lft.to/lastmile_qr_scan"}, "bike_id": "0bbd51d7e46527dfd384f7db9d663594", "is_reserved": 0}, {"lat": 38.897502, "fusion_lon": 0.0, "lon": -77.04356166666666, "is_disabled": 0, "type": "electric_scooter", "name": "576eb3785976d492016d86bfc741f999", "fusion_lat": 0.0, "rental_uris": {"android": "https://dc.lft.to/lastmile_qr_scan", "ios": "https://dc.lft.to/lastmile_qr_scan"}, "bike_id": "576eb3785976d492016d86bfc741f999", "is_reserved": 0}, {"lat": 38.9024385, "fusion_lon": 0.0, "lon": -76.99562016666667, "is_disabled": 0, "type": "electric_scooter", "name": "7b068b5acb429d9030fab0fedcb141a5", "fusion_lat": 0.0, "rental_uris": {"android": "https://dc.lft.to/lastmile_qr_scan", "ios": "https://dc.lft.to/lastmile_qr_scan"}, "bike_id": "7b068b5acb429d9030fab0fedcb141a5", "is_reserved": 0}, {"lat": 38.892164333333334, "fusion_lon": 0.0, "lon": -77.04501883333333, "is_disabled": 0, "type": "electric_scooter", "name": "8cd908e4b98c9cfae609411b950e709f", "fusion_lat": 0.0, "rental_uris": {"android": "https://dc.lft.to/lastmile_qr_scan", "ios": "https://dc.lft.to/lastmile_qr_scan"}, "bike_id": "8cd908e4b98c9cfae609411b950e709f", "is_reserved": 0}, {"lat": 38.92988666666667, "fusion_lon": 0.0, "lon": -77.03471966666666, "is_disabled": 0, "type": "electric_scooter", "name": "74f541c996e553a5f5fca078d53dda64", "fusion_lat": 0.0, "rental_uris": {"android": "https://dc.lft.to/lastmile_qr_scan", "ios": "https://dc.lft.to/lastmile_qr_scan"}, "bike_id": "74f541c996e553a5f5fca078d53dda64", "is_reserved": 0}, {"lat": 38.9180545, "fusion_lon": 0.0, "lon": -77.0249735, "is_disabled": 0, "type": "electric_scooter", "name": "d66b3a20e736d3e41068ed43f02b613f", "fusion_lat": 0.0, "rental_uris": {"android": "https://dc.lft.to/lastmile_qr_scan", "ios": "https://dc.lft.to/lastmile_qr_scan"}, "bike_id": "d66b3a20e736d3e41068ed43f02b613f", "is_reserved": 0}, {"lat": 38.88715333333333, "fusion_lon": 0.0, "lon": -77.0222045, "is_disabled": 0, "type": "electric_scooter", "name": "4d09051d44b1a932885b2bf389a3e7dd", "fusion_lat": 0.0, "rental_uris": {"android": "https://dc.lft.to/lastmile_qr_scan", "ios": "https://dc.lft.to/lastmile_qr_scan"}, "bike_id": "4d09051d44b1a932885b2bf389a3e7dd", "is_reserved": 0}, {"lat": 38.89807016666666, "fusion_lon": 0.0, "lon": -77.00608866666667, "is_disabled": 0, "type": "electric_bike", "name": "ca1902733970b04955595b9c8b9597d9", "fusion_lat": 0.0, "rental_uris": {"android": "https://dc.lft.to/lastmile_qr_scan", "ios": "https://dc.lft.to/lastmile_qr_scan"}, "bike_id": "ca1902733970b04955595b9c8b9597d9", "is_reserved": 0}, {"lat": 38.90845233333334, "fusion_lon": 0.0, "lon": -77.0417825, "is_disabled": 0, "type": "electric_scooter", "name": "5a322651a1c12872364d9362985c4016", "fusion_lat": 0.0, "rental_uris": {"android": "https://dc.lft.to/lastmile_qr_scan", "ios": "https://dc.lft.to/lastmile_qr_scan"}, "bike_id": "5a322651a1c12872364d9362985c4016", "is_reserved": 0}, {"lat": 38.952252666666666, "fusion_lon": 0.0, "lon": -77.01429666666667, "is_disabled": 0, "type": "electric_scooter", "name": "761b6ae13bd9798700ea3a30cd6352fe", "fusion_lat": 0.0, "rental_uris": {"android": "https://dc.lft.to/lastmile_qr_scan", "ios": "https://dc.lft.to/lastmile_qr_scan"}, "bike_id": "761b6ae13bd9798700ea3a30cd6352fe", "is_reserved": 0}, {"lat": 38.930321, "fusion_lon": 0.0, "lon": -77.0129635, "is_disabled": 0, "type": "electric_scooter", "name": "a18a4c165c91f17ca82c4a18abe9ba10", "fusion_lat": 0.0, "rental_uris": {"android": "https://dc.lft.to/lastmile_qr_scan", "ios": "https://dc.lft.to/lastmile_qr_scan"}, "bike_id": "a18a4c165c91f17ca82c4a18abe9ba10", "is_reserved": 0}, {"lat": 38.887223666666664, "fusion_lon": 0.0, "lon": -77.02212166666666, "is_disabled": 0, "type": "electric_scooter", "name": "726a8aafdd15fee6203bcff4df5b0ab1", "fusion_lat": 0.0, "rental_uris": {"android": "https://dc.lft.to/lastmile_qr_scan", "ios": "https://dc.lft.to/lastmile_qr_scan"}, "bike_id": "726a8aafdd15fee6203bcff4df5b0ab1", "is_reserved": 0}, {"lat": 38.928168666666664, "fusion_lon": 0.0, "lon": -77.0552455, "is_disabled": 0, "type": "electric_scooter", "name": "c73e64f9be3e7718325a80af573f1738", "fusion_lat": 0.0, "rental_uris": {"android": "https://dc.lft.to/lastmile_qr_scan", "ios": "https://dc.lft.to/lastmile_qr_scan"}, "bike_id": "c73e64f9be3e7718325a80af573f1738", "is_reserved": 0}, {"lat": 38.892421666666664, "fusion_lon": 0.0, "lon": -77.017377, "is_disabled": 0, "type": "electric_scooter", "name": "617febccaaa6ceebc98e5a8c3dc1ea0d", "fusion_lat": 0.0, "rental_uris": {"android": "https://dc.lft.to/lastmile_qr_scan", "ios": "https://dc.lft.to/lastmile_qr_scan"}, "bike_id": "617febccaaa6ceebc98e5a8c3dc1ea0d", "is_reserved": 0}, {"lat": 38.889892, "fusion_lon": 0.0, "lon": -76.9832885, "is_disabled": 0, "type": "electric_scooter", "name": "63891740f923f3fd70ee387d2958d8d8", "fusion_lat": 0.0, "rental_uris": {"android": "https://dc.lft.to/lastmile_qr_scan", "ios": "https://dc.lft.to/lastmile_qr_scan"}, "bike_id": "63891740f923f3fd70ee387d2958d8d8", "is_reserved": 0}, {"lat": 38.900076166666665, "fusion_lon": 0.0, "lon": -77.0450115, "is_disabled": 0, "type": "electric_scooter", "name": "d5a4dea2821f573a9195b199da1bf787", "fusion_lat": 0.0, "rental_uris": {"android": "https://dc.lft.to/lastmile_qr_scan", "ios": "https://dc.lft.to/lastmile_qr_scan"}, "bike_id": "d5a4dea2821f573a9195b199da1bf787", "is_reserved": 0}, {"lat": 38.903746, "fusion_lon": 0.0, "lon": -77.03841016666667, "is_disabled": 0, "type": "electric_scooter", "name": "217e1e8a308c4a512d4c5abfedcd518a", "fusion_lat": 0.0, "rental_uris": {"android": "https://dc.lft.to/lastmile_qr_scan", "ios": "https://dc.lft.to/lastmile_qr_scan"}, "bike_id": "217e1e8a308c4a512d4c5abfedcd518a", "is_reserved": 0}, {"lat": 38.9170465, "fusion_lon": 0.0, "lon": -77.02596583333333, "is_disabled": 0, "type": "electric_scooter", "name": "3274682f94104aa6e3f3bd57b95deab0", "fusion_lat": 0.0, "rental_uris": {"android": "https://dc.lft.to/lastmile_qr_scan", "ios": "https://dc.lft.to/lastmile_qr_scan"}, "bike_id": "3274682f94104aa6e3f3bd57b95deab0", "is_reserved": 0}, {"lat": 38.90420733333333, "fusion_lon": 0.0, "lon": -77.02397033333334, "is_disabled": 0, "type": "electric_scooter", "name": "27603a2722477e966102c9a4cea5643b", "fusion_lat": 0.0, "rental_uris": {"android": "https://dc.lft.to/lastmile_qr_scan", "ios": "https://dc.lft.to/lastmile_qr_scan"}, "bike_id": "27603a2722477e966102c9a4cea5643b", "is_reserved": 0}, {"lat": 38.921931, "fusion_lon": 0.0, "lon": -77.01838183333334, "is_disabled": 0, "type": "electric_scooter", "name": "9f9ce7128dbafd5f74f374cf5334c131", "fusion_lat": 0.0, "rental_uris": {"android": "https://dc.lft.to/lastmile_qr_scan", "ios": "https://dc.lft.to/lastmile_qr_scan"}, "bike_id": "9f9ce7128dbafd5f74f374cf5334c131", "is_reserved": 0}, {"lat": 38.92977416666667, "fusion_lon": 0.0, "lon": -77.03648933333334, "is_disabled": 0, "type": "electric_scooter", "name": "62d7ee37d447bc9fe30c1377d3a4ff63", "fusion_lat": 0.0, "rental_uris": {"android": "https://dc.lft.to/lastmile_qr_scan", "ios": "https://dc.lft.to/lastmile_qr_scan"}, "bike_id": "62d7ee37d447bc9fe30c1377d3a4ff63", "is_reserved": 0}, {"lat": 38.9088735, "fusion_lon": 0.0, "lon": -76.98539733333334, "is_disabled": 0, "type": "electric_scooter", "name": "ecabca603a5501a2ff91ec8ab03247a9", "fusion_lat": 0.0, "rental_uris": {"android": "https://dc.lft.to/lastmile_qr_scan", "ios": "https://dc.lft.to/lastmile_qr_scan"}, "bike_id": "ecabca603a5501a2ff91ec8ab03247a9", "is_reserved": 0}, {"lat": 38.88678783333334, "fusion_lon": 0.0, "lon": -76.95471883333333, "is_disabled": 0, "type": "electric_scooter", "name": "24b7066f07654749a5dda2c52415113e", "fusion_lat": 0.0, "rental_uris": {"android": "https://dc.lft.to/lastmile_qr_scan", "ios": "https://dc.lft.to/lastmile_qr_scan"}, "bike_id": "24b7066f07654749a5dda2c52415113e", "is_reserved": 0}, {"lat": 38.90694716666667, "fusion_lon": 0.0, "lon": -77.041593, "is_disabled": 0, "type": "electric_scooter", "name": "927d0a2856526a0ad0dcf3796fa0fc3a", "fusion_lat": 0.0, "rental_uris": {"android": "https://dc.lft.to/lastmile_qr_scan", "ios": "https://dc.lft.to/lastmile_qr_scan"}, "bike_id": "927d0a2856526a0ad0dcf3796fa0fc3a", "is_reserved": 0}, {"lat": 38.88742766666667, "fusion_lon": 0.0, "lon": -77.0274025, "is_disabled": 0, "type": "electric_scooter", "name": "4ee90ef25fdbe79bc3092ba4f388dc65", "fusion_lat": 0.0, "rental_uris": {"android": "https://dc.lft.to/lastmile_qr_scan", "ios": "https://dc.lft.to/lastmile_qr_scan"}, "bike_id": "4ee90ef25fdbe79bc3092ba4f388dc65", "is_reserved": 0}, {"lat": 38.8650355, "fusion_lon": 0.0, "lon": -76.99001283333334, "is_disabled": 0, "type": "electric_scooter", "name": "03d850142f65d1e3150018458a0ffafd", "fusion_lat": 0.0, "rental_uris": {"android": "https://dc.lft.to/lastmile_qr_scan", "ios": "https://dc.lft.to/lastmile_qr_scan"}, "bike_id": "03d850142f65d1e3150018458a0ffafd", "is_reserved": 0}, {"lat": 38.902660166666664, "fusion_lon": 0.0, "lon": -77.05919116666666, "is_disabled": 0, "type": "electric_scooter", "name": "19093ef8f7ae55914ecfd576f422009c", "fusion_lat": 0.0, "rental_uris": {"android": "https://dc.lft.to/lastmile_qr_scan", "ios": "https://dc.lft.to/lastmile_qr_scan"}, "bike_id": "19093ef8f7ae55914ecfd576f422009c", "is_reserved": 0}, {"lat": 38.89236783333333, "fusion_lon": 0.0, "lon": -77.03140033333334, "is_disabled": 0, "type": "electric_scooter", "name": "97e22f368eb14a73aefce0068daa9570", "fusion_lat": 0.0, "rental_uris": {"android": "https://dc.lft.to/lastmile_qr_scan", "ios": "https://dc.lft.to/lastmile_qr_scan"}, "bike_id": "97e22f368eb14a73aefce0068daa9570", "is_reserved": 0}, {"lat": 38.905203, "fusion_lon": 0.0, "lon": -77.05288716666666, "is_disabled": 0, "type": "electric_scooter", "name": "74a16e203126afa7a6c1e9c2e4769533", "fusion_lat": 0.0, "rental_uris": {"android": "https://dc.lft.to/lastmile_qr_scan", "ios": "https://dc.lft.to/lastmile_qr_scan"}, "bike_id": "74a16e203126afa7a6c1e9c2e4769533", "is_reserved": 0}, {"lat": 38.92579283333333, "fusion_lon": 0.0, "lon": -77.0261655, "is_disabled": 0, "type": "electric_scooter", "name": "b8aec68a64c037a778b74a6a829fad36", "fusion_lat": 0.0, "rental_uris": {"android": "https://dc.lft.to/lastmile_qr_scan", "ios": "https://dc.lft.to/lastmile_qr_scan"}, "bike_id": "b8aec68a64c037a778b74a6a829fad36", "is_reserved": 0}, {"lat": 38.9246435, "fusion_lon": 0.0, "lon": -77.02147583333333, "is_disabled": 0, "type": "electric_scooter", "name": "11bc97b74369a7fba2fbb8b20086b320", "fusion_lat": 0.0, "rental_uris": {"android": "https://dc.lft.to/lastmile_qr_scan", "ios": "https://dc.lft.to/lastmile_qr_scan"}, "bike_id": "11bc97b74369a7fba2fbb8b20086b320", "is_reserved": 0}, {"lat": 38.93597366666667, "fusion_lon": 0.0, "lon": -77.038035, "is_disabled": 0, "type": "electric_scooter", "name": "0c310bec85c05015b50ee152e41098da", "fusion_lat": 0.0, "rental_uris": {"android": "https://dc.lft.to/lastmile_qr_scan", "ios": "https://dc.lft.to/lastmile_qr_scan"}, "bike_id": "0c310bec85c05015b50ee152e41098da", "is_reserved": 0}, {"lat": 38.9386635, "fusion_lon": 0.0, "lon": -76.94292716666666, "is_disabled": 0, "type": "electric_bike", "name": "3e9c242a57319c3361c417d2c14a0d2b", "fusion_lat": 0.0, "rental_uris": {"android": "https://dc.lft.to/lastmile_qr_scan", "ios": "https://dc.lft.to/lastmile_qr_scan"}, "bike_id": "3e9c242a57319c3361c417d2c14a0d2b", "is_reserved": 0}, {"lat": 38.887362, "fusion_lon": 0.0, "lon": -77.022126, "is_disabled": 0, "type": "electric_scooter", "name": "6a2bd35f2497fbb1d2193457170a2b7f", "fusion_lat": 0.0, "rental_uris": {"android": "https://dc.lft.to/lastmile_qr_scan", "ios": "https://dc.lft.to/lastmile_qr_scan"}, "bike_id": "6a2bd35f2497fbb1d2193457170a2b7f", "is_reserved": 0}, {"lat": 38.902227, "fusion_lon": 0.0, "lon": -77.03373233333333, "is_disabled": 0, "type": "electric_scooter", "name": "97db76b5545b1f8c692cbdfe8e4bc950", "fusion_lat": 0.0, "rental_uris": {"android": "https://dc.lft.to/lastmile_qr_scan", "ios": "https://dc.lft.to/lastmile_qr_scan"}, "bike_id": "97db76b5545b1f8c692cbdfe8e4bc950", "is_reserved": 0}, {"lat": 38.95951316666667, "fusion_lon": 0.0, "lon": -77.10092516666667, "is_disabled": 0, "type": "electric_bike", "name": "8749b7d63de11c7d54752dbdd12767f9", "fusion_lat": 0.0, "rental_uris": {"android": "https://dc.lft.to/lastmile_qr_scan", "ios": "https://dc.lft.to/lastmile_qr_scan"}, "bike_id": "8749b7d63de11c7d54752dbdd12767f9", "is_reserved": 0}, {"lat": 38.88602133333333, "fusion_lon": 0.0, "lon": -76.99512316666667, "is_disabled": 0, "type": "electric_scooter", "name": "702ffde1562776c0acc7a73f05467bd4", "fusion_lat": 0.0, "rental_uris": {"android": "https://dc.lft.to/lastmile_qr_scan", "ios": "https://dc.lft.to/lastmile_qr_scan"}, "bike_id": "702ffde1562776c0acc7a73f05467bd4", "is_reserved": 0}, {"lat": 38.93457033333333, "fusion_lon": 0.0, "lon": -77.02217783333333, "is_disabled": 0, "type": "electric_scooter", "name": "14f4177510fa700f78e7554f6dd96eab", "fusion_lat": 0.0, "rental_uris": {"android": "https://dc.lft.to/lastmile_qr_scan", "ios": "https://dc.lft.to/lastmile_qr_scan"}, "bike_id": "14f4177510fa700f78e7554f6dd96eab", "is_reserved": 0}, {"lat": 38.884613, "fusion_lon": 0.0, "lon": -76.92624333333333, "is_disabled": 0, "type": "electric_scooter", "name": "62b58ea6af3da1e1622eca921a581a96", "fusion_lat": 0.0, "rental_uris": {"android": "https://dc.lft.to/lastmile_qr_scan", "ios": "https://dc.lft.to/lastmile_qr_scan"}, "bike_id": "62b58ea6af3da1e1622eca921a581a96", "is_reserved": 0}, {"lat": 38.831588833333335, "fusion_lon": 0.0, "lon": -76.9954545, "is_disabled": 0, "type": "electric_bike", "name": "aa8901359afb614bbe2afa3d1fc5b927", "fusion_lat": 0.0, "rental_uris": {"android": "https://dc.lft.to/lastmile_qr_scan", "ios": "https://dc.lft.to/lastmile_qr_scan"}, "bike_id": "aa8901359afb614bbe2afa3d1fc5b927", "is_reserved": 0}, {"lat": 38.9198905, "fusion_lon": 0.0, "lon": -77.03254233333334, "is_disabled": 0, "type": "electric_scooter", "name": "8a4be51e1536fdf2cc3ccf79b36db69d", "fusion_lat": 0.0, "rental_uris": {"android": "https://dc.lft.to/lastmile_qr_scan", "ios": "https://dc.lft.to/lastmile_qr_scan"}, "bike_id": "8a4be51e1536fdf2cc3ccf79b36db69d", "is_reserved": 0}, {"lat": 38.90751066666667, "fusion_lon": 0.0, "lon": -77.07165633333334, "is_disabled": 0, "type": "electric_scooter", "name": "0576a6dd0968795656d0db011630780b", "fusion_lat": 0.0, "rental_uris": {"android": "https://dc.lft.to/lastmile_qr_scan", "ios": "https://dc.lft.to/lastmile_qr_scan"}, "bike_id": "0576a6dd0968795656d0db011630780b", "is_reserved": 0}, {"lat": 38.81194416666666, "fusion_lon": 0.0, "lon": -77.10835033333333, "is_disabled": 0, "type": "electric_bike", "name": "7cd505f003f0406669e64ab44a8ad30e", "fusion_lat": 0.0, "rental_uris": {"android": "https://dc.lft.to/lastmile_qr_scan", "ios": "https://dc.lft.to/lastmile_qr_scan"}, "bike_id": "7cd505f003f0406669e64ab44a8ad30e", "is_reserved": 0}, {"lat": 38.923362833333336, "fusion_lon": 0.0, "lon": -77.02128533333334, "is_disabled": 0, "type": "electric_scooter", "name": "67f2597b02a53f8590068ac5988ed966", "fusion_lat": 0.0, "rental_uris": {"android": "https://dc.lft.to/lastmile_qr_scan", "ios": "https://dc.lft.to/lastmile_qr_scan"}, "bike_id": "67f2597b02a53f8590068ac5988ed966", "is_reserved": 0}, {"lat": 38.92357366666667, "fusion_lon": 0.0, "lon": -77.050468, "is_disabled": 0, "type": "electric_scooter", "name": "99387061328ff6cc53a0f09c321693c7", "fusion_lat": 0.0, "rental_uris": {"android": "https://dc.lft.to/lastmile_qr_scan", "ios": "https://dc.lft.to/lastmile_qr_scan"}, "bike_id": "99387061328ff6cc53a0f09c321693c7", "is_reserved": 0}, {"lat": 38.871593, "fusion_lon": 0.0, "lon": -77.013507, "is_disabled": 0, "type": "electric_scooter", "name": "fc5ab5feb2c8e1809411254763298ae5", "fusion_lat": 0.0, "rental_uris": {"android": "https://dc.lft.to/lastmile_qr_scan", "ios": "https://dc.lft.to/lastmile_qr_scan"}, "bike_id": "fc5ab5feb2c8e1809411254763298ae5", "is_reserved": 0}, {"lat": 38.92759133333333, "fusion_lon": 0.0, "lon": -77.03279516666667, "is_disabled": 0, "type": "electric_scooter", "name": "0bec41d16564f60c3c4e44303652a3eb", "fusion_lat": 0.0, "rental_uris": {"android": "https://dc.lft.to/lastmile_qr_scan", "ios": "https://dc.lft.to/lastmile_qr_scan"}, "bike_id": "0bec41d16564f60c3c4e44303652a3eb", "is_reserved": 0}, {"lat": 38.96230833333333, "fusion_lon": 0.0, "lon": -77.02629933333333, "is_disabled": 0, "type": "electric_bike", "name": "75b91b19349783402e26445cd8c3cecc", "fusion_lat": 0.0, "rental_uris": {"android": "https://dc.lft.to/lastmile_qr_scan", "ios": "https://dc.lft.to/lastmile_qr_scan"}, "bike_id": "75b91b19349783402e26445cd8c3cecc", "is_reserved": 0}, {"lat": 38.921406833333336, "fusion_lon": 0.0, "lon": -77.02873266666667, "is_disabled": 0, "type": "electric_scooter", "name": "cbde56481bfc30656247a7c378cfb6e8", "fusion_lat": 0.0, "rental_uris": {"android": "https://dc.lft.to/lastmile_qr_scan", "ios": "https://dc.lft.to/lastmile_qr_scan"}, "bike_id": "cbde56481bfc30656247a7c378cfb6e8", "is_reserved": 0}, {"lat": 38.895546833333334, "fusion_lon": 0.0, "lon": -76.94875633333334, "is_disabled": 0, "type": "electric_scooter", "name": "71ac8ad048f32029ad9271d9ab2237c2", "fusion_lat": 0.0, "rental_uris": {"android": "https://dc.lft.to/lastmile_qr_scan", "ios": "https://dc.lft.to/lastmile_qr_scan"}, "bike_id": "71ac8ad048f32029ad9271d9ab2237c2", "is_reserved": 0}, {"lat": 38.885189833333335, "fusion_lon": 0.0, "lon": -76.99623783333334, "is_disabled": 0, "type": "electric_scooter", "name": "6b37dfae9bb8b38f865bfba7ee8b6c6a", "fusion_lat": 0.0, "rental_uris": {"android": "https://dc.lft.to/lastmile_qr_scan", "ios": "https://dc.lft.to/lastmile_qr_scan"}, "bike_id": "6b37dfae9bb8b38f865bfba7ee8b6c6a", "is_reserved": 0}, {"lat": 38.92933266666667, "fusion_lon": 0.0, "lon": -77.0377275, "is_disabled": 0, "type": "electric_scooter", "name": "f911e4064e0873e33a168ef3f247b1b6", "fusion_lat": 0.0, "rental_uris": {"android": "https://dc.lft.to/lastmile_qr_scan", "ios": "https://dc.lft.to/lastmile_qr_scan"}, "bike_id": "f911e4064e0873e33a168ef3f247b1b6", "is_reserved": 0}, {"lat": 38.90968016666667, "fusion_lon": 0.0, "lon": -77.03342533333333, "is_disabled": 0, "type": "electric_scooter", "name": "b3c2d0ca778505d460f57611865f92ab", "fusion_lat": 0.0, "rental_uris": {"android": "https://dc.lft.to/lastmile_qr_scan", "ios": "https://dc.lft.to/lastmile_qr_scan"}, "bike_id": "b3c2d0ca778505d460f57611865f92ab", "is_reserved": 0}, {"lat": 38.917052, "fusion_lon": 0.0, "lon": -77.04260266666667, "is_disabled": 0, "type": "electric_scooter", "name": "81d910e501cf4abd59ebb9489f3df538", "fusion_lat": 0.0, "rental_uris": {"android": "https://dc.lft.to/lastmile_qr_scan", "ios": "https://dc.lft.to/lastmile_qr_scan"}, "bike_id": "81d910e501cf4abd59ebb9489f3df538", "is_reserved": 0}, {"lat": 38.902214, "fusion_lon": 0.0, "lon": -77.039399, "is_disabled": 0, "type": "electric_scooter", "name": "c84f06e4e038af4de40f5faf59f978a6", "fusion_lat": 0.0, "rental_uris": {"android": "https://dc.lft.to/lastmile_qr_scan", "ios": "https://dc.lft.to/lastmile_qr_scan"}, "bike_id": "c84f06e4e038af4de40f5faf59f978a6", "is_reserved": 0}, {"lat": 38.92968883333333, "fusion_lon": 0.0, "lon": -77.05510266666667, "is_disabled": 0, "type": "electric_scooter", "name": "9337cece4df44d460d5b90c05ae9da17", "fusion_lat": 0.0, "rental_uris": {"android": "https://dc.lft.to/lastmile_qr_scan", "ios": "https://dc.lft.to/lastmile_qr_scan"}, "bike_id": "9337cece4df44d460d5b90c05ae9da17", "is_reserved": 0}, {"lat": 38.92150566666667, "fusion_lon": 0.0, "lon": -77.0209735, "is_disabled": 0, "type": "electric_scooter", "name": "8ac58e8c444957b048f271f0767bd08e", "fusion_lat": 0.0, "rental_uris": {"android": "https://dc.lft.to/lastmile_qr_scan", "ios": "https://dc.lft.to/lastmile_qr_scan"}, "bike_id": "8ac58e8c444957b048f271f0767bd08e", "is_reserved": 0}, {"lat": 38.949755833333334, "fusion_lon": 0.0, "lon": -77.0738455, "is_disabled": 0, "type": "electric_bike", "name": "142cd4bfd8312eb887c825b7ff2e8465", "fusion_lat": 0.0, "rental_uris": {"android": "https://dc.lft.to/lastmile_qr_scan", "ios": "https://dc.lft.to/lastmile_qr_scan"}, "bike_id": "142cd4bfd8312eb887c825b7ff2e8465", "is_reserved": 0}, {"lat": 38.899632, "fusion_lon": 0.0, "lon": -77.0157675, "is_disabled": 0, "type": "electric_scooter", "name": "26475ac63015bea63384d46afc66be8b", "fusion_lat": 0.0, "rental_uris": {"android": "https://dc.lft.to/lastmile_qr_scan", "ios": "https://dc.lft.to/lastmile_qr_scan"}, "bike_id": "26475ac63015bea63384d46afc66be8b", "is_reserved": 0}, {"lat": 38.94255833333333, "fusion_lon": 0.0, "lon": -77.02838483333333, "is_disabled": 0, "type": "electric_scooter", "name": "5c16b17eff2a906624bb20274a3c7891", "fusion_lat": 0.0, "rental_uris": {"android": "https://dc.lft.to/lastmile_qr_scan", "ios": "https://dc.lft.to/lastmile_qr_scan"}, "bike_id": "5c16b17eff2a906624bb20274a3c7891", "is_reserved": 0}, {"lat": 38.921341, "fusion_lon": 0.0, "lon": -77.020725, "is_disabled": 0, "type": "electric_scooter", "name": "fb7bf23ec4b3d644de6c9d35f7c383b9", "fusion_lat": 0.0, "rental_uris": {"android": "https://dc.lft.to/lastmile_qr_scan", "ios": "https://dc.lft.to/lastmile_qr_scan"}, "bike_id": "fb7bf23ec4b3d644de6c9d35f7c383b9", "is_reserved": 0}, {"lat": 38.94551333333333, "fusion_lon": 0.0, "lon": -76.89541483333333, "is_disabled": 0, "type": "electric_bike", "name": "98641f62afd5df65277fa394ef4bf141", "fusion_lat": 0.0, "rental_uris": {"android": "https://dc.lft.to/lastmile_qr_scan", "ios": "https://dc.lft.to/lastmile_qr_scan"}, "bike_id": "98641f62afd5df65277fa394ef4bf141", "is_reserved": 0}, {"lat": 38.897737166666666, "fusion_lon": 0.0, "lon": -77.0389525, "is_disabled": 0, "type": "electric_scooter", "name": "12e3bf51b66581fb707f7d1a29dd6954", "fusion_lat": 0.0, "rental_uris": {"android": "https://dc.lft.to/lastmile_qr_scan", "ios": "https://dc.lft.to/lastmile_qr_scan"}, "bike_id": "12e3bf51b66581fb707f7d1a29dd6954", "is_reserved": 0}, {"lat": 38.909634, "fusion_lon": 0.0, "lon": -77.01444066666667, "is_disabled": 0, "type": "electric_scooter", "name": "9b27c822e4ad692d1aa75ce2a28e188a", "fusion_lat": 0.0, "rental_uris": {"android": "https://dc.lft.to/lastmile_qr_scan", "ios": "https://dc.lft.to/lastmile_qr_scan"}, "bike_id": "9b27c822e4ad692d1aa75ce2a28e188a", "is_reserved": 0}, {"lat": 38.90911933333334, "fusion_lon": 0.0, "lon": -77.032119, "is_disabled": 0, "type": "electric_scooter", "name": "ffd376d30a730a45474b67e7660de734", "fusion_lat": 0.0, "rental_uris": {"android": "https://dc.lft.to/lastmile_qr_scan", "ios": "https://dc.lft.to/lastmile_qr_scan"}, "bike_id": "ffd376d30a730a45474b67e7660de734", "is_reserved": 0}, {"lat": 38.8861485, "fusion_lon": 0.0, "lon": -76.99655966666667, "is_disabled": 0, "type": "electric_scooter", "name": "cb2b65cc701e982eedad67d7fdf84163", "fusion_lat": 0.0, "rental_uris": {"android": "https://dc.lft.to/lastmile_qr_scan", "ios": "https://dc.lft.to/lastmile_qr_scan"}, "bike_id": "cb2b65cc701e982eedad67d7fdf84163", "is_reserved": 0}, {"lat": 39.0549745, "fusion_lon": 0.0, "lon": -77.046431, "is_disabled": 0, "type": "electric_bike", "name": "5dd48ff01ab8c440cddc8c4ea9759a8d", "fusion_lat": 0.0, "rental_uris": {"android": "https://dc.lft.to/lastmile_qr_scan", "ios": "https://dc.lft.to/lastmile_qr_scan"}, "bike_id": "5dd48ff01ab8c440cddc8c4ea9759a8d", "is_reserved": 0}, {"lat": 38.95438866666667, "fusion_lon": 0.0, "lon": -76.98919166666667, "is_disabled": 0, "type": "electric_bike", "name": "071aa4d6db3399634f7366d98bf9bf6b", "fusion_lat": 0.0, "rental_uris": {"android": "https://dc.lft.to/lastmile_qr_scan", "ios": "https://dc.lft.to/lastmile_qr_scan"}, "bike_id": "071aa4d6db3399634f7366d98bf9bf6b", "is_reserved": 0}, {"lat": 38.88599, "fusion_lon": 0.0, "lon": -76.9950625, "is_disabled": 0, "type": "electric_scooter", "name": "cc83849ef4a05c5e63014733f500ef09", "fusion_lat": 0.0, "rental_uris": {"android": "https://dc.lft.to/lastmile_qr_scan", "ios": "https://dc.lft.to/lastmile_qr_scan"}, "bike_id": "cc83849ef4a05c5e63014733f500ef09", "is_reserved": 0}, {"lat": 38.90728383333333, "fusion_lon": 0.0, "lon": -77.03882483333334, "is_disabled": 0, "type": "electric_scooter", "name": "51a447091c39079025041af23bef1c30", "fusion_lat": 0.0, "rental_uris": {"android": "https://dc.lft.to/lastmile_qr_scan", "ios": "https://dc.lft.to/lastmile_qr_scan"}, "bike_id": "51a447091c39079025041af23bef1c30", "is_reserved": 0}, {"lat": 38.931678, "fusion_lon": 0.0, "lon": -76.8840185, "is_disabled": 0, "type": "electric_bike", "name": "ff85f3ddfa23413e31e8c5825d0a570c", "fusion_lat": 0.0, "rental_uris": {"android": "https://dc.lft.to/lastmile_qr_scan", "ios": "https://dc.lft.to/lastmile_qr_scan"}, "bike_id": "ff85f3ddfa23413e31e8c5825d0a570c", "is_reserved": 0}, {"lat": 38.9084535, "fusion_lon": 0.0, "lon": -77.02697116666667, "is_disabled": 0, "type": "electric_scooter", "name": "8c26a4faf338e1f3e81f24fb1e58da14", "fusion_lat": 0.0, "rental_uris": {"android": "https://dc.lft.to/lastmile_qr_scan", "ios": "https://dc.lft.to/lastmile_qr_scan"}, "bike_id": "8c26a4faf338e1f3e81f24fb1e58da14", "is_reserved": 0}, {"lat": 38.92239516666667, "fusion_lon": 0.0, "lon": -77.0366445, "is_disabled": 0, "type": "electric_scooter", "name": "3051a641c5fc0f13976822d62849d95d", "fusion_lat": 0.0, "rental_uris": {"android": "https://dc.lft.to/lastmile_qr_scan", "ios": "https://dc.lft.to/lastmile_qr_scan"}, "bike_id": "3051a641c5fc0f13976822d62849d95d", "is_reserved": 0}, {"lat": 38.86481666666667, "fusion_lon": 0.0, "lon": -76.97728733333334, "is_disabled": 0, "type": "electric_bike", "name": "8b1d7092b56a78f0754d3be974cfd87a", "fusion_lat": 0.0, "rental_uris": {"android": "https://dc.lft.to/lastmile_qr_scan", "ios": "https://dc.lft.to/lastmile_qr_scan"}, "bike_id": "8b1d7092b56a78f0754d3be974cfd87a", "is_reserved": 0}, {"lat": 38.929605333333335, "fusion_lon": 0.0, "lon": -77.18559516666667, "is_disabled": 0, "type": "electric_bike", "name": "1e34e491d71165d7399c5c2127b69329", "fusion_lat": 0.0, "rental_uris": {"android": "https://dc.lft.to/lastmile_qr_scan", "ios": "https://dc.lft.to/lastmile_qr_scan"}, "bike_id": "1e34e491d71165d7399c5c2127b69329", "is_reserved": 0}, {"lat": 38.894234166666664, "fusion_lon": 0.0, "lon": -77.02410983333333, "is_disabled": 0, "type": "electric_scooter", "name": "bf9dd09223cf719172c6c79d18787dee", "fusion_lat": 0.0, "rental_uris": {"android": "https://dc.lft.to/lastmile_qr_scan", "ios": "https://dc.lft.to/lastmile_qr_scan"}, "bike_id": "bf9dd09223cf719172c6c79d18787dee", "is_reserved": 0}, {"lat": 38.88074683333333, "fusion_lon": 0.0, "lon": -77.02580966666666, "is_disabled": 0, "type": "electric_scooter", "name": "d62401e940f189db73907c62b9c569c6", "fusion_lat": 0.0, "rental_uris": {"android": "https://dc.lft.to/lastmile_qr_scan", "ios": "https://dc.lft.to/lastmile_qr_scan"}, "bike_id": "d62401e940f189db73907c62b9c569c6", "is_reserved": 0}, {"lat": 38.8999165, "fusion_lon": 0.0, "lon": -77.00126683333333, "is_disabled": 0, "type": "electric_scooter", "name": "1ca97cf509e9878e93d0e5e33b2f63ee", "fusion_lat": 0.0, "rental_uris": {"android": "https://dc.lft.to/lastmile_qr_scan", "ios": "https://dc.lft.to/lastmile_qr_scan"}, "bike_id": "1ca97cf509e9878e93d0e5e33b2f63ee", "is_reserved": 0}, {"lat": 38.911952666666664, "fusion_lon": 0.0, "lon": -77.0346015, "is_disabled": 0, "type": "electric_scooter", "name": "ec32753d3875978fdece23529ede2b94", "fusion_lat": 0.0, "rental_uris": {"android": "https://dc.lft.to/lastmile_qr_scan", "ios": "https://dc.lft.to/lastmile_qr_scan"}, "bike_id": "ec32753d3875978fdece23529ede2b94", "is_reserved": 0}, {"lat": 38.99598816666666, "fusion_lon": 0.0, "lon": -77.0321365, "is_disabled": 0, "type": "electric_scooter", "name": "66533f95e2407c71a8ea86521248a56e", "fusion_lat": 0.0, "rental_uris": {"android": "https://dc.lft.to/lastmile_qr_scan", "ios": "https://dc.lft.to/lastmile_qr_scan"}, "bike_id": "66533f95e2407c71a8ea86521248a56e", "is_reserved": 0}, {"lat": 38.8831035, "fusion_lon": 0.0, "lon": -77.01762066666667, "is_disabled": 0, "type": "electric_scooter", "name": "f55eb66e42e7c0b2fbcc9e3e1ad8bb42", "fusion_lat": 0.0, "rental_uris": {"android": "https://dc.lft.to/lastmile_qr_scan", "ios": "https://dc.lft.to/lastmile_qr_scan"}, "bike_id": "f55eb66e42e7c0b2fbcc9e3e1ad8bb42", "is_reserved": 0}, {"lat": 38.893284666666666, "fusion_lon": 0.0, "lon": -77.04678116666666, "is_disabled": 0, "type": "electric_scooter", "name": "757bd99f4f958cff0cd165e1b3e18ef2", "fusion_lat": 0.0, "rental_uris": {"android": "https://dc.lft.to/lastmile_qr_scan", "ios": "https://dc.lft.to/lastmile_qr_scan"}, "bike_id": "757bd99f4f958cff0cd165e1b3e18ef2", "is_reserved": 0}, {"lat": 38.90465183333333, "fusion_lon": 0.0, "lon": -76.9804595, "is_disabled": 0, "type": "electric_scooter", "name": "9f136c5bd8f14fad2db7d061e8dde915", "fusion_lat": 0.0, "rental_uris": {"android": "https://dc.lft.to/lastmile_qr_scan", "ios": "https://dc.lft.to/lastmile_qr_scan"}, "bike_id": "9f136c5bd8f14fad2db7d061e8dde915", "is_reserved": 0}, {"lat": 38.90366933333333, "fusion_lon": 0.0, "lon": -77.03319483333334, "is_disabled": 0, "type": "electric_scooter", "name": "d377a60b66543d83630743521864f599", "fusion_lat": 0.0, "rental_uris": {"android": "https://dc.lft.to/lastmile_qr_scan", "ios": "https://dc.lft.to/lastmile_qr_scan"}, "bike_id": "d377a60b66543d83630743521864f599", "is_reserved": 0}, {"lat": 38.899123, "fusion_lon": 0.0, "lon": -76.93349133333334, "is_disabled": 0, "type": "electric_scooter", "name": "246ae11b46e93f7e1cef14172e492411", "fusion_lat": 0.0, "rental_uris": {"android": "https://dc.lft.to/lastmile_qr_scan", "ios": "https://dc.lft.to/lastmile_qr_scan"}, "bike_id": "246ae11b46e93f7e1cef14172e492411", "is_reserved": 0}, {"lat": 38.89474833333333, "fusion_lon": 0.0, "lon": -77.00990333333333, "is_disabled": 0, "type": "electric_scooter", "name": "fecc7e0030e424fd8a1ffc10c884e6dd", "fusion_lat": 0.0, "rental_uris": {"android": "https://dc.lft.to/lastmile_qr_scan", "ios": "https://dc.lft.to/lastmile_qr_scan"}, "bike_id": "fecc7e0030e424fd8a1ffc10c884e6dd", "is_reserved": 0}, {"lat": 38.92824566666667, "fusion_lon": 0.0, "lon": -77.02159283333333, "is_disabled": 0, "type": "electric_scooter", "name": "d8a81bec3a09cda597767cc6af89e7ab", "fusion_lat": 0.0, "rental_uris": {"android": "https://dc.lft.to/lastmile_qr_scan", "ios": "https://dc.lft.to/lastmile_qr_scan"}, "bike_id": "d8a81bec3a09cda597767cc6af89e7ab", "is_reserved": 0}, {"lat": 38.915705833333334, "fusion_lon": 0.0, "lon": -77.0384135, "is_disabled": 0, "type": "electric_scooter", "name": "002ff60ee099920355895db7cd0d1bd2", "fusion_lat": 0.0, "rental_uris": {"android": "https://dc.lft.to/lastmile_qr_scan", "ios": "https://dc.lft.to/lastmile_qr_scan"}, "bike_id": "002ff60ee099920355895db7cd0d1bd2", "is_reserved": 0},