{"data": {"bikes": [{"rental_uris": {"ios": "https://dc.lft.to/lastmile_qr_scan", "android": "https://dc.lft.to/lastmile_qr_scan"}, "lon": -77.03275116666667, "type": "electric_bike", "fusion_lat": 0.0, "lat": 38.93429616666667, "name": "4063b0568185e494b1220355d4496464", "fusion_lon": 0.0, "bike_id": "4063b0568185e494b1220355d4496464", "is_disabled": 0, "is_reserved": 0}, {"rental_uris": {"ios": "https://dc.lft.to/lastmile_qr_scan", "android": "https://dc.lft.to/lastmile_qr_scan"}, "lon": -77.03320766666667, "type": "electric_scooter", "fusion_lat": 0.0, "lat": 38.8988635, "name": "3b973ba240bde72e89ba5b3ca4af4665", "fusion_lon": 0.0, "bike_id": "3b973ba240bde72e89ba5b3ca4af4665", "is_disabled": 0, "is_reserved": 0}, {"rental_uris": {"ios": "https://dc.lft.to/lastmile_qr_scan", "android": "https://dc.lft.to/lastmile_qr_scan"}, "lon": -77.04607683333333, "type": "electric_scooter", "fusion_lat": 0.0, "lat": 38.90250316666667, "name": "71f9954cc9986b44c11d24658a2c5cb2", "fusion_lon": 0.0, "bike_id": "71f9954cc9986b44c11d24658a2c5cb2", "is_disabled": 0, "is_reserved": 0}, {"rental_uris": {"ios": "https://dc.lft.to/lastmile_qr_scan", "android": "https://dc.lft.to/lastmile_qr_scan"}, "lon": -77.02510466666666, "type": "electric_scooter", "fusion_lat": 0.0, "lat": 38.9191095, "name": "a42ccc1475e762c12276d7c74c20ebac", "fusion_lon": 0.0, "bike_id": "a42ccc1475e762c12276d7c74c20ebac", "is_disabled": 0, "is_reserved": 0}, {"rental_uris": {"ios": "https://dc.lft.to/lastmile_qr_scan", "android": "https://dc.lft.to/lastmile_qr_scan"}, "lon": -76.96527733333333, "type": "electric_scooter", "fusion_lat": 0.0, "lat": 38.8762915, "name": "b68bd915a67957eb55575448b08f8528", "fusion_lon": 0.0, "bike_id": "b68bd915a67957eb55575448b08f8528", "is_disabled": 0, "is_reserved": 0}, {"rental_uris": {"ios": "https://dc.lft.to/lastmile_qr_scan", "android": "https://dc.lft.to/lastmile_qr_scan"}, "lon": -77.03195916666667, "type": "electric_scooter", "fusion_lat": 0.0, "lat": 38.908467, "name": "f4ee76df6cd350436ff0d8d9651c45ae", "fusion_lon": 0.0, "bike_id": "f4ee76df6cd350436ff0d8d9651c45ae", "is_disabled": 0, "is_reserved": 0}, {"rental_uris": {"ios": "https://dc.lft.to/lastmile_qr_scan", "android": "https://dc.lft.to/lastmile_qr_scan"}, "lon": -77.0019915, "type": "electric_scooter", "fusion_lat": 0.0, "lat": 38.8944495, "name": "c7ad1e0baa68bc6a856eb7ae10668333", "fusion_lon": 0.0, "bike_id": "c7ad1e0baa68bc6a856eb7ae10668333", "is_disabled": 0, "is_reserved": 0}, {"rental_uris": {"ios": "https://dc.lft.to/lastmile_qr_scan", "android": "https://dc.lft.to/lastmile_qr_scan"}, "lon": -77.04209266666666, "type": "electric_scooter", "fusion_lat": 0.0, "lat": 38.92317116666667, "name": "9aa93c1a13cb2f9608162bdbfc775e57", "fusion_lon": 0.0, "bike_id": "9aa93c1a13cb2f9608162bdbfc775e57", "is_disabled": 0, "is_reserved": 0}, {"rental_uris": {"ios": "https://dc.lft.to/lastmile_qr_scan", "android": "https://dc.lft.to/lastmile_qr_scan"}, "lon": -76.993369, "type": "electric_bike", "fusion_lat": 0.0, "lat": 38.96193533333334, "name": "f46a622ae1d5769d09b89dd8aa0e73b4", "fusion_lon": 0.0, "bike_id": "f46a622ae1d5769d09b89dd8aa0e73b4", "is_disabled": 0, "is_reserved": 0}, {"rental_uris": {"ios": "https://dc.lft.to/lastmile_qr_scan", "android": "https://dc.lft.to/lastmile_qr_scan"}, "lon": -77.02707983333333, "type": "electric_scooter", "fusion_lat": 0.0, "lat": 38.899405, "name": "c4ee8b4fe4c1f511a78b033c6ca8aefd", "fusion_lon": 0.0, "bike_id": "c4ee8b4fe4c1f511a78b033c6ca8aefd", "is_disabled": 0, "is_reserved": 0}, {"rental_uris": {"ios": "https://dc.lft.to/lastmile_qr_scan", "android": "https://dc.lft.to/lastmile_qr_scan"}, "lon": -77.01867016666667, "type": "electric_scooter", "fusion_lat": 0.0, "lat": 38.948975833333336, "name": "f9611df4960a2a7326bcaecdf53aec2d", "fusion_lon": 0.0, "bike_id": "f9611df4960a2a7326bcaecdf53aec2d", "is_disabled": 0, "is_reserved": 0}, {"rental_uris": {"ios": "https://dc.lft.to/lastmile_qr_scan", "android": "https://dc.lft.to/lastmile_qr_scan"}, "lon": -77.0292945, "type": "electric_scooter", "fusion_lat": 0.0, "lat": 38.8821665, "name": "5116a9834290e1fdc32cdf33b87c1ad1", "fusion_lon": 0.0, "bike_id": "5116a9834290e1fdc32cdf33b87c1ad1", "is_disabled": 0, "is_reserved": 0}, {"rental_uris": {"ios": "https://dc.lft.to/lastmile_qr_scan", "android": "https://dc.lft.to/lastmile_qr_scan"}, "lon": -77.06643483333333, "type": "electric_scooter", "fusion_lat": 0.0, "lat": 38.91376566666667, "name": "70a4fda9f979a75e310c47186d38eab7", "fusion_lon": 0.0, "bike_id": "70a4fda9f979a75e310c47186d38eab7", "is_disabled": 0, "is_reserved": 0}, {"rental_uris": {"ios": "https://dc.lft.to/lastmile_qr_scan", "android": "https://dc.lft.to/lastmile_qr_scan"}, "lon": -77.05567783333333, "type": "electric_scooter", "fusion_lat": 0.0, "lat": 38.89958566666667, "name": "0f4bb2104c3536c902d6bd73744b1ebb", "fusion_lon": 0.0, "bike_id": "0f4bb2104c3536c902d6bd73744b1ebb", "is_disabled": 0, "is_reserved": 0}, {"rental_uris": {"ios": "https://dc.lft.to/lastmile_qr_scan", "android": "https://dc.lft.to/lastmile_qr_scan"}, "lon": -76.95515683333333, "type": "electric_scooter", "fusion_lat": 0.0, "lat": 38.890515, "name": "80c04f730825c8e020113b9b2d25ca84", "fusion_lon": 0.0, "bike_id": "80c04f730825c8e020113b9b2d25ca84", "is_disabled": 0, "is_reserved": 0}, {"rental_uris": {"ios": "https://dc.lft.to/lastmile_qr_scan", "android": "https://dc.lft.to/lastmile_qr_scan"}, "lon": -77.04266833333334, "type": "electric_scooter", "fusion_lat": 0.0, "lat": 38.934149, "name": "689d3e9874a2e7be809080ca5640adca", "fusion_lon": 0.0, "bike_id": "689d3e9874a2e7be809080ca5640adca", "is_disabled": 0, "is_reserved": 0}, {"rental_uris": {"ios": "https://dc.lft.to/lastmile_qr_scan", "android": "https://dc.lft.to/lastmile_qr_scan"}, "lon": -77.03190066666667, "type": "electric_scooter", "fusion_lat": 0.0, "lat": 38.89379866666667, "name": "81bab99c5b1524133e4f49d2737ff826", "fusion_lon": 0.0, "bike_id": "81bab99c5b1524133e4f49d2737ff826", "is_disabled": 0, "is_reserved": 0}, {"rental_uris": {"ios": "https://dc.lft.to/lastmile_qr_scan", "android": "https://dc.lft.to/lastmile_qr_scan"}, "lon": -77.0329665, "type": "electric_scooter", "fusion_lat": 0.0, "lat": 38.928672666666664, "name": "09d9de76c43588683a9798ae7a4da8c2", "fusion_lon": 0.0, "bike_id": "09d9de76c43588683a9798ae7a4da8c2", "is_disabled": 0, "is_reserved": 0}, {"rental_uris": {"ios": "https://dc.lft.to/lastmile_qr_scan", "android": "https://dc.lft.to/lastmile_qr_scan"}, "lon": -77.046396, "type": "electric_scooter", "fusion_lat": 0.0, "lat": 38.8922995, "name": "7c1290720bc9cecb90a35f7aba3e6ca7", "fusion_lon": 0.0, "bike_id": "7c1290720bc9cecb90a35f7aba3e6ca7", "is_disabled": 0, "is_reserved": 0}, {"rental_uris": {"ios": "https://dc.lft.to/lastmile_qr_scan", "android": "https://dc.lft.to/lastmile_qr_scan"}, "lon": -76.94627483333333, "type": "electric_bike", "fusion_lat": 0.0, "lat": 38.946245, "name": "568c911bea6e678f3efb1c104f99498e", "fusion_lon": 0.0, "bike_id": "568c911bea6e678f3efb1c104f99498e", "is_disabled": 0, "is_reserved": 0}, {"rental_uris": {"ios": "https://dc.lft.to/lastmile_qr_scan", "android": "https://dc.lft.to/lastmile_qr_scan"}, "lon": -76.97204566666667, "type": "electric_scooter", "fusion_lat": 0.0, "lat": 38.8549515, "name": "b3268abfc7d49310e7d8b2df7ed419e2", "fusion_lon": 0.0, "bike_id": "b3268abfc7d49310e7d8b2df7ed419e2", "is_disabled": 0, "is_reserved": 0}, {"rental_uris": {"ios": "https://dc.lft.to/lastmile_qr_scan", "android": "https://dc.lft.to/lastmile_qr_scan"}, "lon": -76.9987995, "type": "electric_scooter", "fusion_lat": 0.0, "lat": 38.907490333333335, "name": "d0a3307e716c04bc10c67fa487c92a64", "fusion_lon": 0.0, "bike_id": "d0a3307e716c04bc10c67fa487c92a64", "is_disabled": 0, "is_reserved": 0}, {"rental_uris": {"ios": "https://dc.lft.to/lastmile_qr_scan", "android": "https://dc.lft.to/lastmile_qr_scan"}, "lon": -77.01832533333334, "type": "electric_scooter", "fusion_lat": 0.0, "lat": 38.9134685, "name": "9d80fa3da3b3102fc13a32221a0c3d4e", "fusion_lon": 0.0, "bike_id": "9d80fa3da3b3102fc13a32221a0c3d4e", "is_disabled": 0, "is_reserved": 0}, {"rental_uris": {"ios": "https://dc.lft.to/lastmile_qr_scan", "android": "https://dc.lft.to/lastmile_qr_scan"}, "lon": -77.02198783333333, "type": "electric_scooter", "fusion_lat": 0.0, "lat": 38.91691216666667, "name": "ce46616e70b76ed9fa78caeb6875d21e", "fusion_lon": 0.0, "bike_id": "ce46616e70b76ed9fa78caeb6875d21e", "is_disabled": 0, "is_reserved": 0}, {"rental_uris": {"ios": "https://dc.lft.to/lastmile_qr_scan", "android": "https://dc.lft.to/lastmile_qr_scan"}, "lon": -77.07663866666667, "type": "electric_scooter", "fusion_lat": 0.0, "lat": 38.906237833333336, "name": "cdf693850a376dd2fe56bd8c936abb39", "fusion_lon": 0.0, "bike_id": "cdf693850a376dd2fe56bd8c936abb39", "is_disabled": 0, "is_reserved": 0}, {"rental_uris": {"ios": "https://dc.lft.to/lastmile_qr_scan", "android": "https://dc.lft.to/lastmile_qr_scan"}, "lon": -77.0269665, "type": "electric_scooter", "fusion_lat": 0.0, "lat": 38.90931033333333, "name": "af6d7ae43a31c7a8cc549bc70a1f646b", "fusion_lon": 0.0, "bike_id": "af6d7ae43a31c7a8cc549bc70a1f646b", "is_disabled": 0, "is_reserved": 0}, {"rental_uris": {"ios": "https://dc.lft.to/lastmile_qr_scan", "android": "https://dc.lft.to/lastmile_qr_scan"}, "lon": -76.98560716666667, "type": "electric_bike", "fusion_lat": 0.0, "lat": 38.868905833333336, "name": "c2f92716c92b99fc32ef58d7cd182891", "fusion_lon": 0.0, "bike_id": "c2f92716c92b99fc32ef58d7cd182891", "is_disabled": 0, "is_reserved": 0}, {"rental_uris": {"ios": "https://dc.lft.to/lastmile_qr_scan", "android": "https://dc.lft.to/lastmile_qr_scan"}, "lon": -76.99144766666667, "type": "electric_scooter", "fusion_lat": 0.0, "lat": 38.885912833333336, "name": "b6e0692a3eec5359025a521266b963f4", "fusion_lon": 0.0, "bike_id": "b6e0692a3eec5359025a521266b963f4", "is_disabled": 0, "is_reserved": 0}, {"rental_uris": {"ios": "https://dc.lft.to/lastmile_qr_scan", "android": "https://dc.lft.to/lastmile_qr_scan"}, "lon": -77.04225216666667, "type": "electric_scooter", "fusion_lat": 0.0, "lat": 38.91109733333333, "name": "3a7070ddd9bef74ef273ef3c0f26642c", "fusion_lon": 0.0, "bike_id": "3a7070ddd9bef74ef273ef3c0f26642c", "is_disabled": 0, "is_reserved": 0}, {"rental_uris": {"ios": "https://dc.lft.to/lastmile_qr_scan", "android": "https://dc.lft.to/lastmile_qr_scan"}, "lon": -77.04159333333334, "type": "electric_scooter", "fusion_lat": 0.0, "lat": 38.9174865, "name": "063f73f79ea39c3676438afdf62d09c4", "fusion_lon": 0.0, "bike_id": "063f73f79ea39c3676438afdf62d09c4", "is_disabled": 0, "is_reserved": 0}, {"rental_uris": {"ios": "https://dc.lft.to/lastmile_qr_scan", "android": "https://dc.lft.to/lastmile_qr_scan"}, "lon": -77.02495616666667, "type": "electric_scooter", "fusion_lat": 0.0, "lat": 38.90646783333333, "name": "ff8854a7d1871595327076812e8214d9", "fusion_lon": 0.0, "bike_id": "ff8854a7d1871595327076812e8214d9", "is_disabled": 0, "is_reserved": 0}, {"rental_uris": {"ios": "https://dc.lft.to/lastmile_qr_scan", "android": "https://dc.lft.to/lastmile_qr_scan"}, "lon": -77.0515325, "type": "electric_scooter", "fusion_lat": 0.0, "lat": 38.906011166666666, "name": "cdbbd8843904471ee51c6e8721f5e0d3", "fusion_lon": 0.0, "bike_id": "cdbbd8843904471ee51c6e8721f5e0d3", "is_disabled": 0, "is_reserved": 0}, {"rental_uris": {"ios": "https://dc.lft.to/lastmile_qr_scan", "android": "https://dc.lft.to/lastmile_qr_scan"}, "lon": -77.09200516666667, "type": "electric_scooter", "fusion_lat": 0.0, "lat": 38.91718216666666, "name": "f35b59794a086c16218f2610d0a4fbff", "fusion_lon": 0.0, "bike_id": "f35b59794a086c16218f2610d0a4fbff", "is_disabled": 0, "is_reserved": 0}, {"rental_uris": {"ios": "https://dc.lft.to/lastmile_qr_scan", "android": "https://dc.lft.to/lastmile_qr_scan"}, "lon": -77.02233133333333, "type": "electric_scooter", "fusion_lat": 0.0, "lat": 38.91103016666667, "name": "d08fade8334d913102344704329d157f", "fusion_lon": 0.0, "bike_id": "d08fade8334d913102344704329d157f", "is_disabled": 0, "is_reserved": 0}, {"rental_uris": {"ios": "https://dc.lft.to/lastmile_qr_scan", "android": "https://dc.lft.to/lastmile_qr_scan"}, "lon": -77.03451933333334, "type": "electric_scooter", "fusion_lat": 0.0, "lat": 38.91845883333333, "name": "0fb0f9870583dd97e3605ab5c7d32de6", "fusion_lon": 0.0, "bike_id": "0fb0f9870583dd97e3605ab5c7d32de6", "is_disabled": 0, "is_reserved": 0}, {"rental_uris": {"ios": "https://dc.lft.to/lastmile_qr_scan", "android": "https://dc.lft.to/lastmile_qr_scan"}, "lon": -77.03250833333334, "type": "electric_scooter", "fusion_lat": 0.0, "lat": 38.959322, "name": "f02ad63423783262172642f46785dd58", "fusion_lon": 0.0, "bike_id": "f02ad63423783262172642f46785dd58", "is_disabled": 0, "is_reserved": 0}, {"rental_uris": {"ios": "https://dc.lft.to/lastmile_qr_scan", "android": "https://dc.lft.to/lastmile_qr_scan"}, "lon": -77.0426035, "type": "electric_scooter", "fusion_lat": 0.0, "lat": 38.91703833333333, "name": "edfca94b7b1de0a7db9c14c6e00318a1", "fusion_lon": 0.0, "bike_id": "edfca94b7b1de0a7db9c14c6e00318a1", "is_disabled": 0, "is_reserved": 0}, {"rental_uris": {"ios": "https://dc.lft.to/lastmile_qr_scan", "android": "https://dc.lft.to/lastmile_qr_scan"}, "lon": -77.03268733333333, "type": "electric_scooter", "fusion_lat": 0.0, "lat": 38.93820866666667, "name": "a8a7532f68a381bd3eadecfc9c0e7142", "fusion_lon": 0.0, "bike_id": "a8a7532f68a381bd3eadecfc9c0e7142", "is_disabled": 0, "is_reserved": 0}, {"rental_uris": {"ios": "https://dc.lft.to/lastmile_qr_scan", "android": "https://dc.lft.to/lastmile_qr_scan"}, "lon": -77.0283495, "type": "electric_scooter", "fusion_lat": 0.0, "lat": 38.887701666666665, "name": "4a7359cdc4f30aac8f029cc56dfb0955", "fusion_lon": 0.0, "bike_id": "4a7359cdc4f30aac8f029cc56dfb0955", "is_disabled": 0, "is_reserved": 0}, {"rental_uris": {"ios": "https://dc.lft.to/lastmile_qr_scan", "android": "https://dc.lft.to/lastmile_qr_scan"}, "lon": -77.01436266666667, "type": "electric_scooter", "fusion_lat": 0.0, "lat": 38.929883, "name": "d18aa8a8734f9b6cbb89cf829aa048df", "fusion_lon": 0.0, "bike_id": "d18aa8a8734f9b6cbb89cf829aa048df", "is_disabled": 0, "is_reserved": 0}, {"rental_uris": {"ios": "https://dc.lft.to/lastmile_qr_scan", "android": "https://dc.lft.to/lastmile_qr_scan"}, "lon": -77.04255366666666, "type": "electric_scooter", "fusion_lat": 0.0, "lat": 38.922015333333334, "name": "1e5275477dbcd8404477f401e368c387", "fusion_lon": 0.0, "bike_id": "1e5275477dbcd8404477f401e368c387", "is_disabled": 0, "is_reserved": 0}, {"rental_uris": {"ios": "https://dc.lft.to/lastmile_qr_scan", "android": "https://dc.lft.to/lastmile_qr_scan"}, "lon": -77.03828466666667, "type": "electric_scooter", "fusion_lat": 0.0, "lat": 38.902543, "name": "7afbebb497a810ef10f3945d542a3cce", "fusion_lon": 0.0, "bike_id": "7afbebb497a810ef10f3945d542a3cce", "is_disabled": 0, "is_reserved": 0}, {"rental_uris": {"ios": "https://dc.lft.to/lastmile_qr_scan", "android": "https://dc.lft.to/lastmile_qr_scan"}, "lon": -77.0158765, "type": "electric_scooter", "fusion_lat": 0.0, "lat": 38.95709433333333, "name": "bbbd093001e07b2dcc5757d443b060e7", "fusion_lon": 0.0, "bike_id": "bbbd093001e07b2dcc5757d443b060e7", "is_disabled": 0, "is_reserved": 0}, {"rental_uris": {"ios": "https://dc.lft.to/lastmile_qr_scan", "android": "https://dc.lft.to/lastmile_qr_scan"}, "lon": -77.0295035, "type": "electric_scooter", "fusion_lat": 0.0, "lat": 38.89764866666667, "name": "d5eb10cb3790c68d0bdbfcfd0158b0a1", "fusion_lon": 0.0, "bike_id": "d5eb10cb3790c68d0bdbfcfd0158b0a1", "is_disabled": 0, "is_reserved": 0}, {"rental_uris": {"ios": "https://dc.lft.to/lastmile_qr_scan", "android": "https://dc.lft.to/lastmile_qr_scan"}, "lon": -77.038909, "type": "electric_scooter", "fusion_lat": 0.0, "lat": 38.912559333333334, "name": "ef20d9ff72761e6af1b0710396ec3587", "fusion_lon": 0.0, "bike_id": "ef20d9ff72761e6af1b0710396ec3587", "is_disabled": 0, "is_reserved": 0}, {"rental_uris": {"ios": "https://dc.lft.to/lastmile_qr_scan", "android": "https://dc.lft.to/lastmile_qr_scan"}, "lon": -77.02988383333333, "type": "electric_scooter", "fusion_lat": 0.0, "lat": 38.956309, "name": "30ea547fa94a7c13cde28bf60c5fcf33", "fusion_lon": 0.0, "bike_id": "30ea547fa94a7c13cde28bf60c5fcf33", "is_disabled": 0, "is_reserved": 0}, {"rental_uris": {"ios": "https://dc.lft.to/lastmile_qr_scan", "android": "https://dc.lft.to/lastmile_qr_scan"}, "lon": -76.938883, "type": "electric_bike", "fusion_lat": 0.0, "lat": 38.883258166666664, "name": "d6eb6dbe57ae377b7817fd5909c48029", "fusion_lon": 0.0, "bike_id": "d6eb6dbe57ae377b7817fd5909c48029", "is_disabled": 0, "is_reserved": 0}, {"rental_uris": {"ios": "https://dc.lft.to/lastmile_qr_scan", "android": "https://dc.lft.to/lastmile_qr_scan"}, "lon": -77.02715083333334, "type": "electric_scooter", "fusion_lat": 0.0, "lat": 38.909541, "name": "830b7a31c1e3230bf743c9a60b5f5d2f", "fusion_lon": 0.0, "bike_id": "830b7a31c1e3230bf743c9a60b5f5d2f", "is_disabled": 0, "is_reserved": 0}, {"rental_uris": {"ios": "https://dc.lft.to/lastmile_qr_scan", "android": "https://dc.lft.to/lastmile_qr_scan"}, "lon": -77.04078533333333, "type": "electric_scooter", "fusion_lat": 0.0, "lat": 38.91120433333333, "name": "72cc6424a6f936862af5d837144abdce", "fusion_lon": 0.0, "bike_id": "72cc6424a6f936862af5d837144abdce", "is_disabled": 0, "is_reserved": 0}, {"rental_uris": {"ios": "https://dc.lft.to/lastmile_qr_scan", "android": "https://dc.lft.to/lastmile_qr_scan"}, "lon": -77.02843416666667, "type": "electric_scooter", "fusion_lat": 0.0, "lat": 38.93253583333333, "name": "38dab335e69fb6304f9d5e0c8f2b82a1", "fusion_lon": 0.0, "bike_id": "38dab335e69fb6304f9d5e0c8f2b82a1", "is_disabled": 0, "is_reserved": 0}, {"rental_uris": {"ios": "https://dc.lft.to/lastmile_qr_scan", "android": "https://dc.lft.to/lastmile_qr_scan"}, "lon": -77.03650633333334, "type": "electric_scooter", "fusion_lat": 0.0, "lat": 38.954971, "name": "a245563607c526ad12045e82a90f2c3e", "fusion_lon": 0.0, "bike_id": "a245563607c526ad12045e82a90f2c3e", "is_disabled": 0, "is_reserved": 0}, {"rental_uris": {"ios": "https://dc.lft.to/lastmile_qr_scan", "android": "https://dc.lft.to/lastmile_qr_scan"}, "lon": -77.027271, "type": "electric_scooter", "fusion_lat": 0.0, "lat": 38.9379805, "name": "5a58f881ee67ba6d948b3e4a5478a46f", "fusion_lon": 0.0, "bike_id": "5a58f881ee67ba6d948b3e4a5478a46f", "is_disabled": 0, "is_reserved": 0}, {"rental_uris": {"ios": "https://dc.lft.to/lastmile_qr_scan", "android": "https://dc.lft.to/lastmile_qr_scan"}, "lon": -77.02812, "type": "electric_scooter", "fusion_lat": 0.0, "lat": 38.9237025, "name": "0848d13a5e70671fe3397f5094faad69", "fusion_lon": 0.0, "bike_id": "0848d13a5e70671fe3397f5094faad69", "is_disabled": 0, "is_reserved": 0}, {"rental_uris": {"ios": "https://dc.lft.to/lastmile_qr_scan", "android": "https://dc.lft.to/lastmile_qr_scan"}, "lon": -77.0318175, "type": "electric_scooter", "fusion_lat": 0.0, "lat": 38.8998625, "name": "be4cbbebf9cd2f299d1b50149562f6a7", "fusion_lon": 0.0, "bike_id": "be4cbbebf9cd2f299d1b50149562f6a7", "is_disabled": 0, "is_reserved": 0}, {"rental_uris": {"ios": "https://dc.lft.to/lastmile_qr_scan", "android": "https://dc.lft.to/lastmile_qr_scan"}, "lon": -77.019971, "type": "electric_scooter", "fusion_lat": 0.0, "lat": 38.90236133333333, "name": "a815be72d4eb9b06ed29e501bba32672", "fusion_lon": 0.0, "bike_id": "a815be72d4eb9b06ed29e501bba32672", "is_disabled": 0, "is_reserved": 0}, {"rental_uris": {"ios": "https://dc.lft.to/lastmile_qr_scan", "android": "https://dc.lft.to/lastmile_qr_scan"}, "lon": -77.08944116666666, "type": "electric_bike", "fusion_lat": 0.0, "lat": 38.841009166666666, "name": "11c050d9e7844483b28314329cbc4915", "fusion_lon": 0.0, "bike_id": "11c050d9e7844483b28314329cbc4915", "is_disabled": 0, "is_reserved": 0}, {"rental_uris": {"ios": "https://dc.lft.to/lastmile_qr_scan", "android": "https://dc.lft.to/lastmile_qr_scan"}, "lon": -77.00074316666667, "type": "electric_scooter", "fusion_lat": 0.0, "lat": 38.87498266666667, "name": "170faba18c24262cff47d65547fdf5f0", "fusion_lon": 0.0, "bike_id": "170faba18c24262cff47d65547fdf5f0", "is_disabled": 0, "is_reserved": 0}, {"rental_uris": {"ios": "https://dc.lft.to/lastmile_qr_scan", "android": "https://dc.lft.to/lastmile_qr_scan"}, "lon": -77.022494, "type": "electric_scooter", "fusion_lat": 0.0, "lat": 38.924972833333335, "name": "1150f12d330487f3304c5ebf8369035e", "fusion_lon": 0.0, "bike_id": "1150f12d330487f3304c5ebf8369035e", "is_disabled": 0, "is_reserved": 0}, {"rental_uris": {"ios": "https://dc.lft.to/lastmile_qr_scan", "android": "https://dc.lft.to/lastmile_qr_scan"}, "lon": -77.0061155, "type": "electric_bike", "fusion_lat": 0.0, "lat": 38.875449, "name": "f804ee6a16c59c1e20ffa6607b97522c", "fusion_lon": 0.0, "bike_id": "f804ee6a16c59c1e20ffa6607b97522c", "is_disabled": 0, "is_reserved": 0}, {"rental_uris": {"ios": "https://dc.lft.to/lastmile_qr_scan", "android": "https://dc.lft.to/lastmile_qr_scan"}, "lon": -77.03283116666667, "type": "electric_scooter", "fusion_lat": 0.0, "lat": 38.9568155, "name": "b2855ab40083928d4b8917bb7da79974", "fusion_lon": 0.0, "bike_id": "b2855ab40083928d4b8917bb7da79974", "is_disabled": 0, "is_reserved": 0}, {"rental_uris": {"ios": "https://dc.lft.to/lastmile_qr_scan", "android": "https://dc.lft.to/lastmile_qr_scan"}, "lon": -77.03150016666666, "type": "electric_scooter", "fusion_lat": 0.0, "lat": 38.91196716666666, "name": "8dd8ce248b4d135475bd84b246ead241", "fusion_lon": 0.0, "bike_id": "8dd8ce248b4d135475bd84b246ead241", "is_disabled": 0, "is_reserved": 0}, {"rental_uris": {"ios": "https://dc.lft.to/lastmile_qr_scan", "android": "https://dc.lft.to/lastmile_qr_scan"}, "lon": -76.9937755, "type": "electric_scooter", "fusion_lat": 0.0, "lat": 38.90064483333333, "name": "fd4be854c091170bfcd2c22311c6c9f3", "fusion_lon": 0.0, "bike_id": "fd4be854c091170bfcd2c22311c6c9f3", "is_disabled": 0, "is_reserved": 0}, {"rental_uris": {"ios": "https://dc.lft.to/lastmile_qr_scan", "android": "https://dc.lft.to/lastmile_qr_scan"}, "lon": -77.03280816666667, "type": "electric_scooter", "fusion_lat": 0.0, "lat": 38.93687033333333, "name": "253f9ea86468474308717bf29cc6b405", "fusion_lon": 0.0, "bike_id": "253f9ea86468474308717bf29cc6b405", "is_disabled": 0, "is_reserved": 0}, {"rental_uris": {"ios": "https://dc.lft.to/lastmile_qr_scan", "android": "https://dc.lft.to/lastmile_qr_scan"}, "lon": -77.04605116666667, "type": "electric_scooter", "fusion_lat": 0.0, "lat": 38.913819833333335, "name": "60a5f2ae7acf90e8bad63e282cf55b21", "fusion_lon": 0.0, "bike_id": "60a5f2ae7acf90e8bad63e282cf55b21", "is_disabled": 0, "is_reserved": 0}, {"rental_uris": {"ios": "https://dc.lft.to/lastmile_qr_scan", "android": "https://dc.lft.to/lastmile_qr_scan"}, "lon": -77.04071833333333, "type": "electric_bike", "fusion_lat": 0.0, "lat": 38.81239466666667, "name": "33c912b91f2d87dc3b60e82283cd0155", "fusion_lon": 0.0, "bike_id": "33c912b91f2d87dc3b60e82283cd0155", "is_disabled": 0, "is_reserved": 0}, {"rental_uris": {"ios": "https://dc.lft.to/lastmile_qr_scan", "android": "https://dc.lft.to/lastmile_qr_scan"}, "lon": -77.02959283333334, "type": "electric_scooter", "fusion_lat": 0.0, "lat": 38.91718316666667, "name": "a2fefa74811e6b5ed094a67e41a7b463", "fusion_lon": 0.0, "bike_id": "a2fefa74811e6b5ed094a67e41a7b463", "is_disabled": 0, "is_reserved": 0}, {"rental_uris": {"ios": "https://dc.lft.to/lastmile_qr_scan", "android": "https://dc.lft.to/lastmile_qr_scan"}, "lon": -77.17840833333334, "type": "electric_bike", "fusion_lat": 0.0, "lat": 39.08856333333333, "name": "2fcfb7e7bba1f14463d579df80c18071", "fusion_lon": 0.0, "bike_id": "2fcfb7e7bba1f14463d579df80c18071", "is_disabled": 0, "is_reserved": 0}, {"rental_uris": {"ios": "https://dc.lft.to/lastmile_qr_scan", "android": "https://dc.lft.to/lastmile_qr_scan"}, "lon": -77.02709633333333, "type": "electric_scooter", "fusion_lat": 0.0, "lat": 38.94993683333333, "name": "afad55b7767af5ae648913aa45a2addc", "fusion_lon": 0.0, "bike_id": "afad55b7767af5ae648913aa45a2addc", "is_disabled": 0, "is_reserved": 0}, {"rental_uris": {"ios": "https://dc.lft.to/lastmile_qr_scan", "android": "https://dc.lft.to/lastmile_qr_scan"}, "lon": -77.03656333333333, "type": "electric_scooter", "fusion_lat": 0.0, "lat": 38.90278633333333, "name": "ad7d69abe3e56926cb4f365b43debf1d", "fusion_lon": 0.0, "bike_id": "ad7d69abe3e56926cb4f365b43debf1d", "is_disabled": 0, "is_reserved": 0}, {"rental_uris": {"ios": "https://dc.lft.to/lastmile_qr_scan", "android": "https://dc.lft.to/lastmile_qr_scan"}, "lon": -77.04412383333333, "type": "electric_scooter", "fusion_lat": 0.0, "lat": 38.922338333333336, "name": "911f1c182778dfe901cda5a1815010d3", "fusion_lon": 0.0, "bike_id": "911f1c182778dfe901cda5a1815010d3", "is_disabled": 0, "is_reserved": 0}, {"rental_uris": {"ios": "https://dc.lft.to/lastmile_qr_scan", "android": "https://dc.lft.to/lastmile_qr_scan"}, "lon": -76.98900016666667, "type": "electric_scooter", "fusion_lat": 0.0, "lat": 38.86692516666667, "name": "24d01a3cf779bbc194a8daf3d469f485", "fusion_lon": 0.0, "bike_id": "24d01a3cf779bbc194a8daf3d469f485", "is_disabled": 0, "is_reserved": 0}, {"rental_uris": {"ios": "https://dc.lft.to/lastmile_qr_scan", "android": "https://dc.lft.to/lastmile_qr_scan"}, "lon": -77.01884983333333, "type": "electric_scooter", "fusion_lat": 0.0, "lat": 38.902404833333335, "name": "0f2f711e2c27778e0de70cff22469546", "fusion_lon": 0.0, "bike_id": "0f2f711e2c27778e0de70cff22469546", "is_disabled": 0, "is_reserved": 0}, {"rental_uris": {"ios": "https://dc.lft.to/lastmile_qr_scan", "android": "https://dc.lft.to/lastmile_qr_scan"}, "lon": -77.04303916666667, "type": "electric_bike", "fusion_lat": 0.0, "lat": 39.054476, "name": "3b6eee32c7085313e5b38f0aabaac56c", "fusion_lon": 0.0, "bike_id": "3b6eee32c7085313e5b38f0aabaac56c", "is_disabled": 0, "is_reserved": 0}, {"rental_uris": {"ios": "https://dc.lft.to/lastmile_qr_scan", "android": "https://dc.lft.to/lastmile_qr_scan"}, "lon": -77.00184716666666, "type": "electric_scooter", "fusion_lat": 0.0, "lat": 38.9000855, "name": "d488d5a9d336ae4fe42694a5d0c6ae04", "fusion_lon": 0.0, "bike_id": "d488d5a9d336ae4fe42694a5d0c6ae04", "is_disabled": 0, "is_reserved": 0}, {"rental_uris": {"ios": "https://dc.lft.to/lastmile_qr_scan", "android": "https://dc.lft.to/lastmile_qr_scan"}, "lon": -77.0486725, "type": "electric_scooter", "fusion_lat": 0.0, "lat": 38.89221083333333, "name": "b7bc6014d6e7d040e5157f1f8af5985c", "fusion_lon": 0.0, "bike_id": "b7bc6014d6e7d040e5157f1f8af5985c", "is_disabled": 0, "is_reserved": 0}, {"rental_uris": {"ios": "https://dc.lft.to/lastmile_qr_scan", "android": "https://dc.lft.to/lastmile_qr_scan"}, "lon": -77.065295, "type": "electric_scooter", "fusion_lat": 0.0, "lat": 38.934776666666664, "name": "53c201ca677a91fcb54e0f383a6de017", "fusion_lon": 0.0, "bike_id": "53c201ca677a91fcb54e0f383a6de017", "is_disabled": 0, "is_reserved": 0}, {"rental_uris": {"ios": "https://dc.lft.to/lastmile_qr_scan", "android": "https://dc.lft.to/lastmile_qr_scan"}, "lon": -77.03203916666666, "type": "electric_scooter", "fusion_lat": 0.0, "lat": 38.929708, "name": "7d84a169d8c37559bdb354a0dab9928d", "fusion_lon": 0.0, "bike_id": "7d84a169d8c37559bdb354a0dab9928d", "is_disabled": 0, "is_reserved": 0}, {"rental_uris": {"ios": "https://dc.lft.to/lastmile_qr_scan", "android": "https://dc.lft.to/lastmile_qr_scan"}, "lon": -77.04818783333333, "type": "electric_scooter", "fusion_lat": 0.0, "lat": 38.913353, "name": "e7434265cdd66dde7f276c90c836cf46", "fusion_lon": 0.0, "bike_id": "e7434265cdd66dde7f276c90c836cf46", "is_disabled": 0, "is_reserved": 0}, {"rental_uris": {"ios": "https://dc.lft.to/lastmile_qr_scan", "android": "https://dc.lft.to/lastmile_qr_scan"}, "lon": -77.0344845, "type": "electric_scooter", "fusion_lat": 0.0, "lat": 38.90728683333333, "name": "70dad8f334c27e898236d6b924072a75", "fusion_lon": 0.0, "bike_id": "70dad8f334c27e898236d6b924072a75", "is_disabled": 0, "is_reserved": 0}, {"rental_uris": {"ios": "https://dc.lft.to/lastmile_qr_scan", "android": "https://dc.lft.to/lastmile_qr_scan"}, "lon": -77.04414383333334, "type": "electric_scooter", "fusion_lat": 0.0, "lat": 38.90935616666667, "name": "54a77b6ced12a13032a118fa6c404bd3", "fusion_lon": 0.0, "bike_id": "54a77b6ced12a13032a118fa6c404bd3", "is_disabled": 0, "is_reserved": 0}, {"rental_uris": {"ios": "https://dc.lft.to/lastmile_qr_scan", "android": "https://dc.lft.to/lastmile_qr_scan"}, "lon": -77.09650733333334, "type": "electric_bike", "fusion_lat": 0.0, "lat": 38.91625966666667, "name": "5b6c5b8a45a997f128b64191a2949193", "fusion_lon": 0.0, "bike_id": "5b6c5b8a45a997f128b64191a2949193", "is_disabled": 0, "is_reserved": 0}, {"rental_uris": {"ios": "https://dc.lft.to/lastmile_qr_scan", "android": "https://dc.lft.to/lastmile_qr_scan"}, "lon": -77.00043683333334, "type": "electric_bike", "fusion_lat": 0.0, "lat": 38.87437, "name": "7d93142ae859ec85b4f5ab8c997a95e6", "fusion_lon": 0.0, "bike_id": "7d93142ae859ec85b4f5ab8c997a95e6", "is_disabled": 0, "is_reserved": 0}, {"rental_uris": {"ios": "https://dc.lft.to/lastmile_qr_scan", "android": "https://dc.lft.to/lastmile_qr_scan"}, "lon": -76.90816616666666, "type": "electric_bike", "fusion_lat": 0.0, "lat": 38.994551, "name": "8ac789f6fb3b82847b98acdc0494c62d", "fusion_lon": 0.0, "bike_id": "8ac789f6fb3b82847b98acdc0494c62d", "is_disabled": 0, "is_reserved": 0}, {"rental_uris": {"ios": "https://dc.lft.to/lastmile_qr_scan", "android": "https://dc.lft.to/lastmile_qr_scan"}, "lon": -76.98442483333334, "type": "electric_scooter", "fusion_lat": 0.0, "lat": 38.91426, "name": "5640a6e3bd5bdb77a6f0b3e0a7ece43a", "fusion_lon": 0.0, "bike_id": "5640a6e3bd5bdb77a6f0b3e0a7ece43a", "is_disabled": 0, "is_reserved": 0}, {"rental_uris": {"ios": "https://dc.lft.to/lastmile_qr_scan", "android": "https://dc.lft.to/lastmile_qr_scan"}, "lon": -77.00917266666667, "type": "electric_scooter", "fusion_lat": 0.0, "lat": 38.910680166666666, "name": "5ae400f2ab5cabae6f128ac9cca16ec3", "fusion_lon": 0.0, "bike_id": "5ae400f2ab5cabae6f128ac9cca16ec3", "is_disabled": 0, "is_reserved": 0}, {"rental_uris": {"ios": "https://dc.lft.to/lastmile_qr_scan", "android": "https://dc.lft.to/lastmile_qr_scan"}, "lon": -77.025329, "type": "electric_scooter", "fusion_lat": 0.0, "lat": 38.91821133333333, "name": "c8b05f426c1742e34f131f7fbd0d6354", "fusion_lon": 0.0, "bike_id": "c8b05f426c1742e34f131f7fbd0d6354", "is_disabled": 0, "is_reserved": 0}, {"rental_uris": {"ios": "https://dc.lft.to/lastmile_qr_scan", "android": "https://dc.lft.to/lastmile_qr_scan"}, "lon": -77.03409416666666, "type": "electric_scooter", "fusion_lat": 0.0, "lat": 38.909697333333334, "name": "b29be34cb538750fc830784431118349", "fusion_lon": 0.0, "bike_id": "b29be34cb538750fc830784431118349", "is_disabled": 0, "is_reserved": 0}, {"rental_uris": {"ios": "https://dc.lft.to/lastmile_qr_scan", "android": "https://dc.lft.to/lastmile_qr_scan"}, "lon": -76.93520983333333, "type": "electric_scooter", "fusion_lat": 0.0, "lat": 38.908724666666664, "name": "f340029acda5d5cca288514005540cf9", "fusion_lon": 0.0, "bike_id": "f340029acda5d5cca288514005540cf9", "is_disabled": 0, "is_reserved": 0}, {"rental_uris": {"ios": "https://dc.lft.to/lastmile_qr_scan", "android": "https://dc.lft.to/lastmile_qr_scan"}, "lon": -76.9381085, "type": "electric_scooter", "fusion_lat": 0.0, "lat": 38.91303716666667, "name": "9b9859e44c9db7fbad93eb6dbd7ec77d", "fusion_lon": 0.0, "bike_id": "9b9859e44c9db7fbad93eb6dbd7ec77d", "is_disabled": 0, "is_reserved": 0}, {"rental_uris": {"ios": "https://dc.lft.to/lastmile_qr_scan", "android": "https://dc.lft.to/lastmile_qr_scan"}, "lon": -77.046841, "type": "electric_scooter", "fusion_lat": 0.0, "lat": 38.902348, "name": "94d49f5d8c3fb50fe1b780a05099ec6c", "fusion_lon": 0.0, "bike_id": "94d49f5d8c3fb50fe1b780a05099ec6c", "is_disabled": 0, "is_reserved": 0}, {"rental_uris": {"ios": "https://dc.lft.to/lastmile_qr_scan", "android": "https://dc.lft.to/lastmile_qr_scan"}, "lon": -77.05002666666667, "type": "electric_scooter", "fusion_lat": 0.0, "lat": 38.901808, "name": "72a118d4d8ab43d3b4d0a37bdc409201", "fusion_lon": 0.0, "bike_id": "72a118d4d8ab43d3b4d0a37bdc409201", "is_disabled": 0, "is_reserved": 0}, {"rental_uris": {"ios": "https://dc.lft.to/lastmile_qr_scan", "android": "https://dc.lft.to/lastmile_qr_scan"}, "lon": -77.02393316666667, "type": "electric_scooter", "fusion_lat": 0.0, "lat": 38.887369166666666, "name": "95b2660163e571a3a770f5567b05443f", "fusion_lon": 0.0, "bike_id": "95b2660163e571a3a770f5567b05443f", "is_disabled": 0, "is_reserved": 0}, {"rental_uris": {"ios": "https://dc.lft.to/lastmile_qr_scan", "android": "https://dc.lft.to/lastmile_qr_scan"}, "lon": -77.02589266666666, "type": "electric_scooter", "fusion_lat": 0.0, "lat": 38.91934666666667, "name": "57c0c340bdc045b1240e8d1950e6274b", "fusion_lon": 0.0, "bike_id": "57c0c340bdc045b1240e8d1950e6274b", "is_disabled": 0, "is_reserved": 0}, {"rental_uris": {"ios": "https://dc.lft.to/lastmile_qr_scan", "android": "https://dc.lft.to/lastmile_qr_scan"}, "lon": -76.99158116666666, "type": "electric_scooter", "fusion_lat": 0.0, "lat": 38.893451166666665, "name": "06f924949277fac008ea704ed06a9823", "fusion_lon": 0.0, "bike_id": "06f924949277fac008ea704ed06a9823", "is_disabled": 0, "is_reserved": 0}, {"rental_uris": {"ios": "https://dc.lft.to/lastmile_qr_scan", "android": "https://dc.lft.to/lastmile_qr_scan"}, "lon": -77.06160833333334, "type": "electric_scooter", "fusion_lat": 0.0, "lat": 38.94224583333333, "name": "fb6ab24419235c4dadd090940ef90bdb", "fusion_lon": 0.0, "bike_id": "fb6ab24419235c4dadd090940ef90bdb", "is_disabled": 0, "is_reserved": 0}, {"rental_uris": {"ios": "https://dc.lft.to/lastmile_qr_scan", "android": "https://dc.lft.to/lastmile_qr_scan"}, "lon": -77.02975016666667, "type": "electric_scooter", "fusion_lat": 0.0, "lat": 38.9078095, "name": "6efbbf7704b85e3f40bada1e91415ef3", "fusion_lon": 0.0, "bike_id": "6efbbf7704b85e3f40bada1e91415ef3", "is_disabled": 0, "is_reserved": 0}, {"rental_uris": {"ios": "https://dc.lft.to/lastmile_qr_scan", "android": "https://dc.lft.to/lastmile_qr_scan"}, "lon": -77.03169316666667, "type": "electric_scooter", "fusion_lat": 0.0, "lat": 38.896088666666664, "name": "98f773888985da6bc26c6bfe6196239f", "fusion_lon": 0.0, "bike_id": "98f773888985da6bc26c6bfe6196239f", "is_disabled": 0, "is_reserved": 0}, {"rental_uris": {"ios": "https://dc.lft.to/lastmile_qr_scan", "android": "https://dc.lft.to/lastmile_qr_scan"}, "lon": -77.03284116666667, "type": "electric_bike", "fusion_lat": 0.0, "lat": 38.93768216666667, "name": "4087eb9b45b291d81c7366bce5a3683a", "fusion_lon": 0.0, "bike_id": "4087eb9b45b291d81c7366bce5a3683a", "is_disabled": 0, "is_reserved": 0}, {"rental_uris": {"ios": "https://dc.lft.to/lastmile_qr_scan", "android": "https://dc.lft.to/lastmile_qr_scan"}, "lon": -77.1274015, "type": "electric_bike", "fusion_lat": 0.0, "lat": 38.888207, "name": "0768df4e505ccf4c104fb34ed3143b48", "fusion_lon": 0.0, "bike_id": "0768df4e505ccf4c104fb34ed3143b48", "is_disabled": 0, "is_reserved": 0}, {"rental_uris": {"ios": "https://dc.lft.to/lastmile_qr_scan", "android": "https://dc.lft.to/lastmile_qr_scan"}, "lon": -76.9876875, "type": "electric_scooter", "fusion_lat": 0.0, "lat": 38.911741666666664, "name": "a2427a197a71560a5239105d88248be1", "fusion_lon": 0.0, "bike_id": "a2427a197a71560a5239105d88248be1", "is_disabled": 0, "is_reserved": 0}, {"rental_uris": {"ios": "https://dc.lft.to/lastmile_qr_scan", "android": "https://dc.lft.to/lastmile_qr_scan"}, "lon": -76.93157833333333, "type": "electric_scooter", "fusion_lat": 0.0, "lat": 38.89876266666667, "name": "e1be928c1f5e914cacac72b2b4b9786e", "fusion_lon": 0.0, "bike_id": "e1be928c1f5e914cacac72b2b4b9786e", "is_disabled": 0, "is_reserved": 0}, {"rental_uris": {"ios": "https://dc.lft.to/lastmile_qr_scan", "android": "https://dc.lft.to/lastmile_qr_scan"}, "lon": -77.03370333333334, "type": "electric_scooter", "fusion_lat": 0.0, "lat": 38.910464166666664, "name": "dc315f07f2247bc146b547135047c189", "fusion_lon": 0.0, "bike_id": "dc315f07f2247bc146b547135047c189", "is_disabled": 0, "is_reserved": 0}, {"rental_uris": {"ios": "https://dc.lft.to/lastmile_qr_scan", "android": "https://dc.lft.to/lastmile_qr_scan"}, "lon": -77.03215283333333, "type": "electric_scooter", "fusion_lat": 0.0, "lat": 38.914586, "name": "17ca1273dd99d18ff5441836176dd06d", "fusion_lon": 0.0, "bike_id": "17ca1273dd99d18ff5441836176dd06d", "is_disabled": 0, "is_reserved": 0}, {"rental_uris": {"ios": "https://dc.lft.to/lastmile_qr_scan", "android": "https://dc.lft.to/lastmile_qr_scan"}, "lon": -77.10339133333333, "type": "electric_bike", "fusion_lat": 0.0, "lat": 38.85226566666667, "name": "a0d2eacab964b893ca866a0c38a35cea", "fusion_lon": 0.0, "bike_id": "a0d2eacab964b893ca866a0c38a35cea", "is_disabled": 0, "is_reserved": 0}, {"rental_uris": {"ios": "https://dc.lft.to/lastmile_qr_scan", "android": "https://dc.lft.to/lastmile_qr_scan"}, "lon": -77.02166, "type": "electric_scooter", "fusion_lat": 0.0, "lat": 38.88630833333333, "name": "effccb2f7f0a4f561c848f075d21c692", "fusion_lon": 0.0, "bike_id": "effccb2f7f0a4f561c848f075d21c692", "is_disabled": 0, "is_reserved": 0}, {"rental_uris": {"ios": "https://dc.lft.to/lastmile_qr_scan", "android": "https://dc.lft.to/lastmile_qr_scan"}, "lon": -77.0013705, "type": "electric_scooter", "fusion_lat": 0.0, "lat": 38.904112833333336, "name": "0199ca4991c505dfe3643b9f6332fcbb", "fusion_lon": 0.0, "bike_id": "0199ca4991c505dfe3643b9f6332fcbb", "is_disabled": 0, "is_reserved": 0}, {"rental_uris": {"ios": "https://dc.lft.to/lastmile_qr_scan", "android": "https://dc.lft.to/lastmile_qr_scan"}, "lon": -77.0297645, "type": "electric_scooter", "fusion_lat": 0.0, "lat": 38.962315333333336, "name": "28345b153c0055138e438ff935c2f465", "fusion_lon": 0.0, "bike_id": "28345b153c0055138e438ff935c2f465", "is_disabled": 0, "is_reserved": 0}, {"rental_uris": {"ios": "https://dc.lft.to/lastmile_qr_scan", "android": "https://dc.lft.to/lastmile_qr_scan"}, "lon": -77.00880133333334, "type": "electric_scooter", "fusion_lat": 0.0, "lat": 38.91401233333333, "name": "ebdde6dcf04ec682c9ee1fc80bd3b9e5", "fusion_lon": 0.0, "bike_id": "ebdde6dcf04ec682c9ee1fc80bd3b9e5", "is_disabled": 0, "is_reserved": 0}, {"rental_uris": {"ios": "https://dc.lft.to/lastmile_qr_scan", "android": "https://dc.lft.to/lastmile_qr_scan"}, "lon": -77.03160116666666, "type": "electric_scooter", "fusion_lat": 0.0, "lat": 38.91414966666667, "name": "48ba858114551f5c350a8eb4d7fc2203", "fusion_lon": 0.0, "bike_id": "48ba858114551f5c350a8eb4d7fc2203", "is_disabled": 0, "is_reserved": 0}, {"rental_uris": {"ios": "https://dc.lft.to/lastmile_qr_scan", "android": "https://dc.lft.to/lastmile_qr_scan"}, "lon": -77.04209933333334, "type": "electric_bike", "fusion_lat": 0.0, "lat": 38.93336883333333, "name": "8210d433654160320057e3295375b996", "fusion_lon": 0.0, "bike_id": "8210d433654160320057e3295375b996", "is_disabled": 0, "is_reserved": 0}, {"rental_uris": {"ios": "https://dc.lft.to/lastmile_qr_scan", "android": "https://dc.lft.to/lastmile_qr_scan"}, "lon": -77.03180316666666, "type": "electric_scooter", "fusion_lat": 0.0, "lat": 38.9015945, "name": "47fb496e7190c614482c45b848bdf427", "fusion_lon": 0.0, "bike_id": "47fb496e7190c614482c45b848bdf427", "is_disabled": 0, "is_reserved": 0}, {"rental_uris": {"ios": "https://dc.lft.to/lastmile_qr_scan", "android": "https://dc.lft.to/lastmile_qr_scan"}, "lon": -77.038613, "type": "electric_scooter", "fusion_lat": 0.0, "lat": 38.90995316666667, "name": "357bca53b8e529fa7f01a8701c29c145", "fusion_lon": 0.0, "bike_id": "357bca53b8e529fa7f01a8701c29c145", "is_disabled": 0, "is_reserved": 0}, {"rental_uris": {"ios": "https://dc.lft.to/lastmile_qr_scan", "android": "https://dc.lft.to/lastmile_qr_scan"}, "lon": -77.0727205, "type": "electric_scooter", "fusion_lat": 0.0, "lat": 38.93479816666667, "name": "5368d671e4da13e27337f75a53f7e6b1", "fusion_lon": 0.0, "bike_id": "5368d671e4da13e27337f75a53f7e6b1", "is_disabled": 0, "is_reserved": 0}, {"rental_uris": {"ios": "https://dc.lft.to/lastmile_qr_scan", "android": "https://dc.lft.to/lastmile_qr_scan"}, "lon": -77.02600933333333, "type": "electric_scooter", "fusion_lat": 0.0, "lat": 38.90345133333334, "name": "31e9751b6f001a78956fe0b82a23d55c", "fusion_lon": 0.0, "bike_id": "31e9751b6f001a78956fe0b82a23d55c", "is_disabled": 0, "is_reserved": 0}, {"rental_uris": {"ios": "https://dc.lft.to/lastmile_qr_scan", "android": "https://dc.lft.to/lastmile_qr_scan"}, "lon": -77.0240075, "type": "electric_scooter", "fusion_lat": 0.0, "lat": 38.933710833333336, "name": "5517b927aed0293dd7505d790a40ecaa", "fusion_lon": 0.0, "bike_id": "5517b927aed0293dd7505d790a40ecaa", "is_disabled": 0, "is_reserved": 0}, {"rental_uris": {"ios": "https://dc.lft.to/lastmile_qr_scan", "android": "https://dc.lft.to/lastmile_qr_scan"}, "lon": -77.03465716666666, "type": "electric_scooter", "fusion_lat": 0.0, "lat": 38.908693166666666, "name": "ef8f23091855e80dad12484c293685b3", "fusion_lon": 0.0, "bike_id": "ef8f23091855e80dad12484c293685b3", "is_disabled": 0, "is_reserved": 0}, {"rental_uris": {"ios": "https://dc.lft.to/lastmile_qr_scan", "android": "https://dc.lft.to/lastmile_qr_scan"}, "lon": -77.01204816666667, "type": "electric_scooter", "fusion_lat": 0.0, "lat": 38.9171305, "name": "62ebd5e1de9f8a021f230bce95af94a4", "fusion_lon": 0.0, "bike_id": "62ebd5e1de9f8a021f230bce95af94a4", "is_disabled": 0, "is_reserved": 0}, {"rental_uris": {"ios": "https://dc.lft.to/lastmile_qr_scan", "android": "https://dc.lft.to/lastmile_qr_scan"}, "lon": -77.03449516666667, "type": "electric_scooter", "fusion_lat": 0.0, "lat": 38.9081275, "name": "eaed3ac5d4321ce538e8c2afac821968", "fusion_lon": 0.0, "bike_id": "eaed3ac5d4321ce538e8c2afac821968", "is_disabled": 0, "is_reserved": 0}, {"rental_uris": {"ios": "https://dc.lft.to/lastmile_qr_scan", "android": "https://dc.lft.to/lastmile_qr_scan"}, "lon": -77.04493983333333, "type": "electric_scooter", "fusion_lat": 0.0, "lat": 38.91950516666667, "name": "e132ea725a293486a5194778ba09268b", "fusion_lon": 0.0, "bike_id": "e132ea725a293486a5194778ba09268b", "is_disabled": 0, "is_reserved": 0}, {"rental_uris": {"ios": "https://dc.lft.to/lastmile_qr_scan", "android": "https://dc.lft.to/lastmile_qr_scan"}, "lon": -76.98681033333334, "type": "electric_scooter", "fusion_lat": 0.0, "lat": 38.88216233333333, "name": "e54698d16d8b5e2496cc10f4d544b943", "fusion_lon": 0.0, "bike_id": "e54698d16d8b5e2496cc10f4d544b943", "is_disabled": 0, "is_reserved": 0}, {"rental_uris": {"ios": "https://dc.lft.to/lastmile_qr_scan", "android": "https://dc.lft.to/lastmile_qr_scan"}, "lon": -77.04172966666667, "type": "electric_scooter", "fusion_lat": 0.0, "lat": 38.903623, "name": "7e6fbf4c953933a0647b5dcc96b736b5", "fusion_lon": 0.0, "bike_id": "7e6fbf4c953933a0647b5dcc96b736b5", "is_disabled": 0, "is_reserved": 0}, {"rental_uris": {"ios": "https://dc.lft.to/lastmile_qr_scan", "android": "https://dc.lft.to/lastmile_qr_scan"}, "lon": -77.00862383333333, "type": "electric_bike", "fusion_lat": 0.0, "lat": 38.827300666666666, "name": "714ed528dc70e2c4e467c48c6c3e7260", "fusion_lon": 0.0, "bike_id": "714ed528dc70e2c4e467c48c6c3e7260", "is_disabled": 0, "is_reserved": 0}, {"rental_uris": {"ios": "https://dc.lft.to/lastmile_qr_scan", "android": "https://dc.lft.to/lastmile_qr_scan"}, "lon": -76.985655, "type": "electric_scooter", "fusion_lat": 0.0, "lat": 38.855884833333334, "name": "25193124893dab677ea151cb80d4017b", "fusion_lon": 0.0, "bike_id": "25193124893dab677ea151cb80d4017b", "is_disabled": 0, "is_reserved": 0}, {"rental_uris": {"ios": "https://dc.lft.to/lastmile_qr_scan", "android": "https://dc.lft.to/lastmile_qr_scan"}, "lon": -77.02580316666666, "type": "electric_scooter", "fusion_lat": 0.0, "lat": 38.8924555, "name": "3ae93faa4f6298059dab2cd915b354d1", "fusion_lon": 0.0, "bike_id": "3ae93faa4f6298059dab2cd915b354d1", "is_disabled": 0, "is_reserved": 0}, {"rental_uris": {"ios": "https://dc.lft.to/lastmile_qr_scan", "android": "https://dc.lft.to/lastmile_qr_scan"}, "lon": -77.01947733333333, "type": "electric_scooter", "fusion_lat": 0.0, "lat": 38.92417366666667, "name": "b67f18dd2dec117fda1245016330fc86", "fusion_lon": 0.0, "bike_id": "b67f18dd2dec117fda1245016330fc86", "is_disabled": 0, "is_reserved": 0}, {"rental_uris": {"ios": "https://dc.lft.to/lastmile_qr_scan", "android": "https://dc.lft.to/lastmile_qr_scan"}, "lon": -77.04709266666667, "type": "electric_scooter", "fusion_lat": 0.0, "lat": 38.92244133333333, "name": "74b8801bf7dbbae1b0544d2cd955b476", "fusion_lon": 0.0, "bike_id": "74b8801bf7dbbae1b0544d2cd955b476", "is_disabled": 0, "is_reserved": 0}, {"rental_uris": {"ios": "https://dc.lft.to/lastmile_qr_scan", "android": "https://dc.lft.to/lastmile_qr_scan"}, "lon": -77.17851366666666, "type": "electric_bike", "fusion_lat": 0.0, "lat": 39.08900633333333, "name": "a265b3204d91701bfc1d4aaaad12418e", "fusion_lon": 0.0, "bike_id": "a265b3204d91701bfc1d4aaaad12418e", "is_disabled": 0, "is_reserved": 0}, {"rental_uris": {"ios": "https://dc.lft.to/lastmile_qr_scan", "android": "https://dc.lft.to/lastmile_qr_scan"}, "lon": -77.0410305, "type": "electric_scooter", "fusion_lat": 0.0, "lat": 38.91854383333333, "name": "5ea5f484f6ebe5af1da4cfe6feeb1a80", "fusion_lon": 0.0, "bike_id": "5ea5f484f6ebe5af1da4cfe6feeb1a80", "is_disabled": 0, "is_reserved": 0}, {"rental_uris": {"ios": "https://dc.lft.to/lastmile_qr_scan", "android": "https://dc.lft.to/lastmile_qr_scan"}, "lon": -77.08543033333333, "type": "electric_bike", "fusion_lat": 0.0, "lat": 38.856184166666665, "name": "8e98dc1795a52f7904cdfcc75bd3fc6f", "fusion_lon": 0.0, "bike_id": "8e98dc1795a52f7904cdfcc75bd3fc6f", "is_disabled": 0, "is_reserved": 0}, {"rental_uris": {"ios": "https://dc.lft.to/lastmile_qr_scan", "android": "https://dc.lft.to/lastmile_qr_scan"}, "lon": -77.0346265, "type": "electric_scooter", "fusion_lat": 0.0, "lat": 38.945772, "name": "9e28d51eec04d4aa11e88d66fcc551ad", "fusion_lon": 0.0, "bike_id": "9e28d51eec04d4aa11e88d66fcc551ad", "is_disabled": 0, "is_reserved": 0}, {"rental_uris": {"ios": "https://dc.lft.to/lastmile_qr_scan", "android": "https://dc.lft.to/lastmile_qr_scan"}, "lon": -77.00724066666666, "type": "electric_scooter", "fusion_lat": 0.0, "lat": 38.884940666666665, "name": "75535a926c120494a03c0d83e61d905d", "fusion_lon": 0.0, "bike_id": "75535a926c120494a03c0d83e61d905d", "is_disabled": 0, "is_reserved": 0}, {"rental_uris": {"ios": "https://dc.lft.to/lastmile_qr_scan", "android": "https://dc.lft.to/lastmile_qr_scan"}, "lon": -77.02627666666666, "type": "electric_bike", "fusion_lat": 0.0, "lat": 38.962245833333334, "name": "d19a205b06929575b19ef371c272b685", "fusion_lon": 0.0, "bike_id": "d19a205b06929575b19ef371c272b685", "is_disabled": 0, "is_reserved": 0}, {"rental_uris": {"ios": "https://dc.lft.to/lastmile_qr_scan", "android": "https://dc.lft.to/lastmile_qr_scan"}, "lon": -77.03443583333333, "type": "electric_scooter", "fusion_lat": 0.0, "lat": 38.90271633333333, "name": "34cdb32c3e42c63608819c229e7a6647", "fusion_lon": 0.0, "bike_id": "34cdb32c3e42c63608819c229e7a6647", "is_disabled": 0, "is_reserved": 0}, {"rental_uris": {"ios": "https://dc.lft.to/lastmile_qr_scan", "android": "https://dc.lft.to/lastmile_qr_scan"}, "lon": -76.99499283333333, "type": "electric_scooter", "fusion_lat": 0.0, "lat": 38.862468, "name": "fdd1e62ee3d8b1daa2ec769ce98837b1", "fusion_lon": 0.0, "bike_id": "fdd1e62ee3d8b1daa2ec769ce98837b1", "is_disabled": 0, "is_reserved": 0}, {"rental_uris": {"ios": "https://dc.lft.to/lastmile_qr_scan", "android": "https://dc.lft.to/lastmile_qr_scan"}, "lon": -77.0234605, "type": "electric_scooter", "fusion_lat": 0.0, "lat": 38.931779666666664, "name": "02d77ead5c0679c23508a5fd537bf025", "fusion_lon": 0.0, "bike_id": "02d77ead5c0679c23508a5fd537bf025", "is_disabled": 0, "is_reserved": 0}, {"rental_uris": {"ios": "https://dc.lft.to/lastmile_qr_scan", "android": "https://dc.lft.to/lastmile_qr_scan"}, "lon": -76.99554483333333, "type": "electric_scooter", "fusion_lat": 0.0, "lat": 38.886064166666664, "name": "fc408300126db86e44a0eaccd3546b89", "fusion_lon": 0.0, "bike_id": "fc408300126db86e44a0eaccd3546b89", "is_disabled": 0, "is_reserved": 0}, {"rental_uris": {"ios": "https://dc.lft.to/lastmile_qr_scan", "android": "https://dc.lft.to/lastmile_qr_scan"}, "lon": -77.03351716666667, "type": "electric_scooter", "fusion_lat": 0.0, "lat": 38.88512716666666, "name": "8148c35a7a7947cb19e553d26986bd92", "fusion_lon": 0.0, "bike_id": "8148c35a7a7947cb19e553d26986bd92", "is_disabled": 0, "is_reserved": 0}, {"rental_uris": {"ios": "https://dc.lft.to/lastmile_qr_scan", "android": "https://dc.lft.to/lastmile_qr_scan"}, "lon": -77.02412416666667, "type": "electric_scooter", "fusion_lat": 0.0, "lat": 38.917049666666664, "name": "746daf3429d9aae215cea115857d52cf", "fusion_lon": 0.0, "bike_id": "746daf3429d9aae215cea115857d52cf", "is_disabled": 0, "is_reserved": 0}, {"rental_uris": {"ios": "https://dc.lft.to/lastmile_qr_scan", "android": "https://dc.lft.to/lastmile_qr_scan"}, "lon": -77.03025316666667, "type": "electric_scooter", "fusion_lat": 0.0, "lat": 38.9026305, "name": "ce0bf02b3e5b4ae3e18d009c10e078ac", "fusion_lon": 0.0, "bike_id": "ce0bf02b3e5b4ae3e18d009c10e078ac", "is_disabled": 0, "is_reserved": 0}, {"rental_uris": {"ios": "https://dc.lft.to/lastmile_qr_scan", "android": "https://dc.lft.to/lastmile_qr_scan"}, "lon": -77.02178066666667, "type": "electric_scooter", "fusion_lat": 0.0, "lat": 38.915746666666664, "name": "9f25aed3d55608c14556e1575daeaeee", "fusion_lon": 0.0, "bike_id": "9f25aed3d55608c14556e1575daeaeee", "is_disabled": 0, "is_reserved": 0}, {"rental_uris": {"ios": "https://dc.lft.to/lastmile_qr_scan", "android": "https://dc.lft.to/lastmile_qr_scan"}, "lon": -77.03070066666666, "type": "electric_scooter", "fusion_lat": 0.0, "lat": 38.89967466666667, "name": "cc093578bb9cc68823539ba5b63898fd", "fusion_lon": 0.0, "bike_id": "cc093578bb9cc68823539ba5b63898fd", "is_disabled": 0, "is_reserved": 0}, {"rental_uris": {"ios": "https://dc.lft.to/lastmile_qr_scan", "android": "https://dc.lft.to/lastmile_qr_scan"}, "lon": -77.022407, "type": "electric_scooter", "fusion_lat": 0.0, "lat": 38.911162, "name": "3f51f5323ce98d84387719766ec65b0a", "fusion_lon": 0.0, "bike_id": "3f51f5323ce98d84387719766ec65b0a", "is_disabled": 0, "is_reserved": 0}, {"rental_uris": {"ios": "https://dc.lft.to/lastmile_qr_scan", "android": "https://dc.lft.to/lastmile_qr_scan"}, "lon": -77.04480333333333, "type": "electric_scooter", "fusion_lat": 0.0, "lat": 38.910639333333336, "name": "944ba9f8ccfdd6b7e54916da3b15e236", "fusion_lon": 0.0, "bike_id": "944ba9f8ccfdd6b7e54916da3b15e236", "is_disabled": 0, "is_reserved": 0}, {"rental_uris": {"ios": "https://dc.lft.to/lastmile_qr_scan", "android": "https://dc.lft.to/lastmile_qr_scan"}, "lon": -77.02436383333334, "type": "electric_scooter", "fusion_lat": 0.0, "lat": 38.92702933333333, "name": "d10f270d0a9d1f31d57bccc393b468c6", "fusion_lon": 0.0, "bike_id": "d10f270d0a9d1f31d57bccc393b468c6", "is_disabled": 0, "is_reserved": 0}, {"rental_uris": {"ios": "https://dc.lft.to/lastmile_qr_scan", "android": "https://dc.lft.to/lastmile_qr_scan"}, "lon": -77.033148, "type": "electric_scooter", "fusion_lat": 0.0, "lat": 38.89847066666667, "name": "f40ec95ac10384404e3ea64fe1064187", "fusion_lon": 0.0, "bike_id": "f40ec95ac10384404e3ea64fe1064187", "is_disabled": 0, "is_reserved": 0}, {"rental_uris": {"ios": "https://dc.lft.to/lastmile_qr_scan", "android": "https://dc.lft.to/lastmile_qr_scan"}, "lon": -77.037961, "type": "electric_scooter", "fusion_lat": 0.0, "lat": 38.91213666666667, "name": "5a556b47ca84854da92117f14847d7f7", "fusion_lon": 0.0, "bike_id": "5a556b47ca84854da92117f14847d7f7", "is_disabled": 0, "is_reserved": 0}, {"rental_uris": {"ios": "https://dc.lft.to/lastmile_qr_scan", "android": "https://dc.lft.to/lastmile_qr_scan"}, "lon": -77.02729683333334, "type": "electric_scooter", "fusion_lat": 0.0, "lat": 38.9379495, "name": "8d201b110d11823689067a6965cfc333", "fusion_lon": 0.0, "bike_id": "8d201b110d11823689067a6965cfc333", "is_disabled": 0, "is_reserved": 0}, {"rental_uris": {"ios": "https://dc.lft.to/lastmile_qr_scan", "android": "https://dc.lft.to/lastmile_qr_scan"}, "lon": -77.038429, "type": "electric_scooter", "fusion_lat": 0.0, "lat": 38.910173, "name": "9bdf8239468d73367f687efc5ced2db4", "fusion_lon": 0.0, "bike_id": "9bdf8239468d73367f687efc5ced2db4", "is_disabled": 0, "is_reserved": 0}, {"rental_uris": {"ios": "https://dc.lft.to/lastmile_qr_scan", "android": "https://dc.lft.to/lastmile_qr_scan"}, "lon": -77.03809733333334, "type": "electric_scooter", "fusion_lat": 0.0, "lat": 38.92074366666667, "name": "9ff4f6337c187b21f692ede29466e85e", "fusion_lon": 0.0, "bike_id": "9ff4f6337c187b21f692ede29466e85e", "is_disabled": 0, "is_reserved": 0}, {"rental_uris": {"ios": "https://dc.lft.to/lastmile_qr_scan", "android": "https://dc.lft.to/lastmile_qr_scan"}, "lon": -77.019356, "type": "electric_scooter", "fusion_lat": 0.0, "lat": 38.9492665, "name": "7d1d0c24480b61846152b1bdeadfcf49", "fusion_lon": 0.0, "bike_id": "7d1d0c24480b61846152b1bdeadfcf49", "is_disabled": 0, "is_reserved": 0}, {"rental_uris": {"ios": "https://dc.lft.to/lastmile_qr_scan", "android": "https://dc.lft.to/lastmile_qr_scan"}, "lon": -77.04353316666666, "type": "electric_scooter", "fusion_lat": 0.0, "lat": 38.89672, "name": "e5d73e15829c4b6073c5b3f5144108de", "fusion_lon": 0.0, "bike_id": "e5d73e15829c4b6073c5b3f5144108de", "is_disabled": 0, "is_reserved": 0}, {"rental_uris": {"ios": "https://dc.lft.to/lastmile_qr_scan", "android": "https://dc.lft.to/lastmile_qr_scan"}, "lon": -77.02713966666667, "type": "electric_scooter", "fusion_lat": 0.0, "lat": 38.906730333333336, "name": "d8d10409f1ee3671842c75b521e68f1e", "fusion_lon": 0.0, "bike_id": "d8d10409f1ee3671842c75b521e68f1e", "is_disabled": 0, "is_reserved": 0}, {"rental_uris": {"ios": "https://dc.lft.to/lastmile_qr_scan", "android": "https://dc.lft.to/lastmile_qr_scan"}, "lon": -77.00507333333333, "type": "electric_scooter", "fusion_lat": 0.0, "lat": 38.91194016666667, "name": "dca7e21c3541c49cd29942c8a131021b", "fusion_lon": 0.0, "bike_id": "dca7e21c3541c49cd29942c8a131021b", "is_disabled": 0, "is_reserved": 0}, {"rental_uris": {"ios": "https://dc.lft.to/lastmile_qr_scan", "android": "https://dc.lft.to/lastmile_qr_scan"}, "lon": -76.94732433333333, "type": "electric_scooter", "fusion_lat": 0.0, "lat": 38.896720333333334, "name": "7d5c8e91584287b37ad3b3cd3febf2fd", "fusion_lon": 0.0, "bike_id": "7d5c8e91584287b37ad3b3cd3febf2fd", "is_disabled": 0, "is_reserved": 0}, {"rental_uris": {"ios": "https://dc.lft.to/lastmile_qr_scan", "android": "https://dc.lft.to/lastmile_qr_scan"}, "lon": -77.0464495, "type": "electric_bike", "fusion_lat": 0.0, "lat": 38.85211966666667, "name": "1b695dfd088c265dec77ef9d358376a4", "fusion_lon": 0.0, "bike_id": "1b695dfd088c265dec77ef9d358376a4", "is_disabled": 0, "is_reserved": 0}, {"rental_uris": {"ios": "https://dc.lft.to/lastmile_qr_scan", "android": "https://dc.lft.to/lastmile_qr_scan"}, "lon": -77.043865, "type": "electric_scooter", "fusion_lat": 0.0, "lat": 38.917924666666664, "name": "5177158e944283c35642f56ce8d49ce0", "fusion_lon": 0.0, "bike_id": "5177158e944283c35642f56ce8d49ce0", "is_disabled": 0, "is_reserved": 0}, {"rental_uris": {"ios": "https://dc.lft.to/lastmile_qr_scan", "android": "https://dc.lft.to/lastmile_qr_scan"}, "lon": -77.0332315, "type": "electric_scooter", "fusion_lat": 0.0, "lat": 38.900447666666665, "name": "3c30e5579ff163f5a1de99f8a1cb8b39", "fusion_lon": 0.0, "bike_id": "3c30e5579ff163f5a1de99f8a1cb8b39", "is_disabled": 0, "is_reserved": 0}, {"rental_uris": {"ios": "https://dc.lft.to/lastmile_qr_scan", "android": "https://dc.lft.to/lastmile_qr_scan"}, "lon": -77.03187316666667, "type": "electric_scooter", "fusion_lat": 0.0, "lat": 38.9117935, "name": "680fa06f88735dc0472c48322dc660d4", "fusion_lon": 0.0, "bike_id": "680fa06f88735dc0472c48322dc660d4", "is_disabled": 0, "is_reserved": 0}, {"rental_uris": {"ios": "https://dc.lft.to/lastmile_qr_scan", "android": "https://dc.lft.to/lastmile_qr_scan"}, "lon": -77.03838433333334, "type": "electric_scooter", "fusion_lat": 0.0, "lat": 38.92165716666667, "name": "33ceba0118cf5e7d7ffe8cc63ea7dae6", "fusion_lon": 0.0, "bike_id": "33ceba0118cf5e7d7ffe8cc63ea7dae6", "is_disabled": 0, "is_reserved": 0}, {"rental_uris": {"ios": "https://dc.lft.to/lastmile_qr_scan", "android": "https://dc.lft.to/lastmile_qr_scan"}, "lon": -77.04157933333333, "type": "electric_scooter", "fusion_lat": 0.0, "lat": 38.914196, "name": "86a87678e235eb390e3cec0f5d43c96c", "fusion_lon": 0.0, "bike_id": "86a87678e235eb390e3cec0f5d43c96c", "is_disabled": 0, "is_reserved": 0}, {"rental_uris": {"ios": "https://dc.lft.to/lastmile_qr_scan", "android": "https://dc.lft.to/lastmile_qr_scan"}, "lon": -76.981485, "type": "electric_scooter", "fusion_lat": 0.0, "lat": 38.90566833333333, "name": "377e4869d388f842ea86236d0ebe5cad", "fusion_lon": 0.0, "bike_id": "377e4869d388f842ea86236d0ebe5cad", "is_disabled": 0, "is_reserved": 0}, {"rental_uris": {"ios": "https://dc.lft.to/lastmile_qr_scan", "android": "https://dc.lft.to/lastmile_qr_scan"}, "lon": -77.025642, "type": "electric_scooter", "fusion_lat": 0.0, "lat": 38.925333333333334, "name": "8ac94003565b121c6ee7f26d77aa781e", "fusion_lon": 0.0, "bike_id": "8ac94003565b121c6ee7f26d77aa781e", "is_disabled": 0, "is_reserved": 0}, {"rental_uris": {"ios": "https://dc.lft.to/lastmile_qr_scan", "android": "https://dc.lft.to/lastmile_qr_scan"}, "lon": -77.011196, "type": "electric_scooter", "fusion_lat": 0.0, "lat": 38.895065, "name": "7c85f3492a798c8ad5fc7492ada00151", "fusion_lon": 0.0, "bike_id": "7c85f3492a798c8ad5fc7492ada00151", "is_disabled": 0, "is_reserved": 0}, {"rental_uris": {"ios": "https://dc.lft.to/lastmile_qr_scan", "android": "https://dc.lft.to/lastmile_qr_scan"}, "lon": -76.999537, "type": "electric_scooter", "fusion_lat": 0.0, "lat": 38.842937166666665, "name": "dd28f292d68ffa41e2bf1f690b6bcef0", "fusion_lon": 0.0, "bike_id": "dd28f292d68ffa41e2bf1f690b6bcef0", "is_disabled": 0, "is_reserved": 0}, {"rental_uris": {"ios": "https://dc.lft.to/lastmile_qr_scan", "android": "https://dc.lft.to/lastmile_qr_scan"}, "lon": -77.0218365, "type": "electric_scooter", "fusion_lat": 0.0, "lat": 38.924819166666666, "name": "215f7cb30078fc09d8d78eeada4359b5", "fusion_lon": 0.0, "bike_id": "215f7cb30078fc09d8d78eeada4359b5", "is_disabled": 0, "is_reserved": 0}, {"rental_uris": {"ios": "https://dc.lft.to/lastmile_qr_scan", "android": "https://dc.lft.to/lastmile_qr_scan"}, "lon": -77.04085066666667, "type": "electric_scooter", "fusion_lat": 0.0, "lat": 38.9201655, "name": "759449b63924a02367f10d84d17bdb2c", "fusion_lon": 0.0, "bike_id": "759449b63924a02367f10d84d17bdb2c", "is_disabled": 0, "is_reserved": 0}, {"rental_uris": {"ios": "https://dc.lft.to/lastmile_qr_scan", "android": "https://dc.lft.to/lastmile_qr_scan"}, "lon": -77.03451016666666, "type": "electric_scooter", "fusion_lat": 0.0, "lat": 38.91817183333333, "name": "be1c3467bcaedb6b9e01318a775d8460", "fusion_lon": 0.0, "bike_id": "be1c3467bcaedb6b9e01318a775d8460", "is_disabled": 0, "is_reserved": 0}, {"rental_uris": {"ios": "https://dc.lft.to/lastmile_qr_scan", "android": "https://dc.lft.to/lastmile_qr_scan"}, "lon": -76.983713, "type": "electric_scooter", "fusion_lat": 0.0, "lat": 38.861126, "name": "224c20cb2652656ca5ac86e1d6f5d421", "fusion_lon": 0.0, "bike_id": "224c20cb2652656ca5ac86e1d6f5d421", "is_disabled": 0, "is_reserved": 0}, {"rental_uris": {"ios": "https://dc.lft.to/lastmile_qr_scan", "android": "https://dc.lft.to/lastmile_qr_scan"}, "lon": -77.011496, "type": "electric_scooter", "fusion_lat": 0.0, "lat": 38.9567305, "name": "0cdbc9145d75ff3cee4c8f41f91c0c30", "fusion_lon": 0.0, "bike_id": "0cdbc9145d75ff3cee4c8f41f91c0c30", "is_disabled": 0, "is_reserved": 0}, {"rental_uris": {"ios": "https://dc.lft.to/lastmile_qr_scan", "android": "https://dc.lft.to/lastmile_qr_scan"}, "lon": -77.04398483333334, "type": "electric_scooter", "fusion_lat": 0.0, "lat": 38.910807166666665, "name": "582f7945b41863b63eea0d45e2f1725e", "fusion_lon": 0.0, "bike_id": "582f7945b41863b63eea0d45e2f1725e", "is_disabled": 0, "is_reserved": 0}, {"rental_uris": {"ios": "https://dc.lft.to/lastmile_qr_scan", "android": "https://dc.lft.to/lastmile_qr_scan"}, "lon": -77.0019965, "type": "electric_scooter", "fusion_lat": 0.0, "lat": 38.82257333333333, "name": "37c71ba81e24ca60d01cbe7047d75e92", "fusion_lon": 0.0, "bike_id": "37c71ba81e24ca60d01cbe7047d75e92", "is_disabled": 0, "is_reserved": 0}, {"rental_uris": {"ios": "https://dc.lft.to/lastmile_qr_scan", "android": "https://dc.lft.to/lastmile_qr_scan"}, "lon": -77.01969883333334, "type": "electric_scooter", "fusion_lat": 0.0, "lat": 38.883753, "name": "7533d789a66ab57641c396a5c7fb96b4", "fusion_lon": 0.0, "bike_id": "7533d789a66ab57641c396a5c7fb96b4", "is_disabled": 0, "is_reserved": 0}, {"rental_uris": {"ios": "https://dc.lft.to/lastmile_qr_scan", "android": "https://dc.lft.to/lastmile_qr_scan"}, "lon": -77.0449735, "type": "electric_scooter", "fusion_lat": 0.0, "lat": 38.911091, "name": "33bbf054b0db33f0bfefa5985eced97d", "fusion_lon": 0.0, "bike_id": "33bbf054b0db33f0bfefa5985eced97d", "is_disabled": 0, "is_reserved": 0}, {"rental_uris": {"ios": "https://dc.lft.to/lastmile_qr_scan", "android": "https://dc.lft.to/lastmile_qr_scan"}, "lon": -77.0325555, "type": "electric_scooter", "fusion_lat": 0.0, "lat": 38.90717683333333, "name": "30460fd64bca446e45468f98e6913c3b", "fusion_lon": 0.0, "bike_id": "30460fd64bca446e45468f98e6913c3b", "is_disabled": 0, "is_reserved": 0}, {"rental_uris": {"ios": "https://dc.lft.to/lastmile_qr_scan", "android": "https://dc.lft.to/lastmile_qr_scan"}, "lon": -76.92372166666667, "type": "electric_bike", "fusion_lat": 0.0, "lat": 38.883726, "name": "fc0e4477dd332085657f3d899728ad8a", "fusion_lon": 0.0, "bike_id": "fc0e4477dd332085657f3d899728ad8a", "is_disabled": 0, "is_reserved": 0}, {"rental_uris": {"ios": "https://dc.lft.to/lastmile_qr_scan", "android": "https://dc.lft.to/lastmile_qr_scan"}, "lon": -76.99572783333333, "type": "electric_scooter", "fusion_lat": 0.0, "lat": 38.900313, "name": "f780147d87ddff3ade719a50e5fc5098", "fusion_lon": 0.0, "bike_id": "f780147d87ddff3ade719a50e5fc5098", "is_disabled": 0, "is_reserved": 0}, {"rental_uris": {"ios": "https://dc.lft.to/lastmile_qr_scan", "android": "https://dc.lft.to/lastmile_qr_scan"}, "lon": -77.02335966666666, "type": "electric_scooter", "fusion_lat": 0.0, "lat": 38.92058633333333, "name": "6d0861a58aeee9c05854876a9ed54634", "fusion_lon": 0.0, "bike_id": "6d0861a58aeee9c05854876a9ed54634", "is_disabled": 0, "is_reserved": 0}, {"rental_uris": {"ios": "https://dc.lft.to/lastmile_qr_scan", "android": "https://dc.lft.to/lastmile_qr_scan"}, "lon": -77.04782583333333, "type": "electric_scooter", "fusion_lat": 0.0, "lat": 38.893780166666666, "name": "d9095deb5b1b514954fa5ada7df8423a", "fusion_lon": 0.0, "bike_id": "d9095deb5b1b514954fa5ada7df8423a", "is_disabled": 0, "is_reserved": 0}, {"rental_uris": {"ios": "https://dc.lft.to/lastmile_qr_scan", "android": "https://dc.lft.to/lastmile_qr_scan"}, "lon": -77.0228785, "type": "electric_scooter", "fusion_lat": 0.0, "lat": 38.95647616666667, "name": "39c8280a5e2bef737503a7049df9e835", "fusion_lon": 0.0, "bike_id": "39c8280a5e2bef737503a7049df9e835", "is_disabled": 0, "is_reserved": 0}, {"rental_uris": {"ios": "https://dc.lft.to/lastmile_qr_scan", "android": "https://dc.lft.to/lastmile_qr_scan"}, "lon": -77.038585, "type": "electric_scooter", "fusion_lat": 0.0, "lat": 38.9116955, "name": "b19aa2e45311029f680707405a72e985", "fusion_lon": 0.0, "bike_id": "b19aa2e45311029f680707405a72e985", "is_disabled": 0, "is_reserved": 0}, {"rental_uris": {"ios": "https://dc.lft.to/lastmile_qr_scan", "android": "https://dc.lft.to/lastmile_qr_scan"}, "lon": -77.03208833333333, "type": "electric_scooter", "fusion_lat": 0.0, "lat": 38.89404016666667, "name": "97e5b80971d3a757d0b66a62266d8bff", "fusion_lon": 0.0, "bike_id": "97e5b80971d3a757d0b66a62266d8bff", "is_disabled": 0, "is_reserved": 0}, {"rental_uris": {"ios": "https://dc.lft.to/lastmile_qr_scan", "android": "https://dc.lft.to/lastmile_qr_scan"}, "lon": -77.04195916666667, "type": "electric_scooter", "fusion_lat": 0.0, "lat": 38.91868616666667, "name": "96c62de138504e94dfa3df3f61045a54", "fusion_lon": 0.0, "bike_id": "96c62de138504e94dfa3df3f61045a54", "is_disabled": 0, "is_reserved": 0}, {"rental_uris": {"ios": "https://dc.lft.to/lastmile_qr_scan", "android": "https://dc.lft.to/lastmile_qr_scan"}, "lon": -77.01977583333333, "type": "electric_scooter", "fusion_lat": 0.0, "lat": 38.902403, "name": "22b91ea9a48c79ac45e01323768ae305", "fusion_lon": 0.0, "bike_id": "22b91ea9a48c79ac45e01323768ae305", "is_disabled": 0, "is_reserved": 0}, {"rental_uris": {"ios": "https://dc.lft.to/lastmile_qr_scan", "android": "https://dc.lft.to/lastmile_qr_scan"}, "lon": -77.06287166666667, "type": "electric_scooter", "fusion_lat": 0.0, "lat": 38.904848, "name": "9f5636fb4c0472c6585db7b07d3845e7", "fusion_lon": 0.0, "bike_id": "9f5636fb4c0472c6585db7b07d3845e7", "is_disabled": 0, "is_reserved": 0}, {"rental_uris": {"ios": "https://dc.lft.to/lastmile_qr_scan", "android": "https://dc.lft.to/lastmile_qr_scan"}, "lon": -77.04492, "type": "electric_scooter", "fusion_lat": 0.0, "lat": 38.90330683333333, "name": "38b06cd356f20c583bed96960d1b75f1", "fusion_lon": 0.0, "bike_id": "38b06cd356f20c583bed96960d1b75f1", "is_disabled": 0, "is_reserved": 0}, {"rental_uris": {"ios": "https://dc.lft.to/lastmile_qr_scan", "android": "https://dc.lft.to/lastmile_qr_scan"}, "lon": -77.00806583333333, "type": "electric_scooter", "fusion_lat": 0.0, "lat": 38.905645666666665, "name": "d9bad431e22c2220965d65126322cb7b", "fusion_lon": 0.0, "bike_id": "d9bad431e22c2220965d65126322cb7b", "is_disabled": 0, "is_reserved": 0}, {"rental_uris": {"ios": "https://dc.lft.to/lastmile_qr_scan", "android": "https://dc.lft.to/lastmile_qr_scan"}, "lon": -77.02162816666667, "type": "electric_scooter", "fusion_lat": 0.0, "lat": 38.92492766666667, "name": "542ef6aa0100cdb239acea3a0d6de2be", "fusion_lon": 0.0, "bike_id": "542ef6aa0100cdb239acea3a0d6de2be", "is_disabled": 0, "is_reserved": 0}, {"rental_uris": {"ios": "https://dc.lft.to/lastmile_qr_scan", "android": "https://dc.lft.to/lastmile_qr_scan"}, "lon": -76.93175266666667, "type": "electric_scooter", "fusion_lat": 0.0, "lat": 38.89885, "name": "db5b4fee90aa4e7b21a9d3b6d8c8e717", "fusion_lon": 0.0, "bike_id": "db5b4fee90aa4e7b21a9d3b6d8c8e717", "is_disabled": 0, "is_reserved": 0}, {"rental_uris": {"ios": "https://dc.lft.to/lastmile_qr_scan", "android": "https://dc.lft.to/lastmile_qr_scan"}, "lon": -77.02760233333333, "type": "electric_scooter", "fusion_lat": 0.0, "lat": 38.9134525, "name": "f2dc2e132127d4d52facfab70c7682ab", "fusion_lon": 0.0, "bike_id": "f2dc2e132127d4d52facfab70c7682ab", "is_disabled": 0, "is_reserved": 0}, {"rental_uris": {"ios": "https://dc.lft.to/lastmile_qr_scan", "android": "https://dc.lft.to/lastmile_qr_scan"}, "lon": -77.05154016666667, "type": "electric_scooter", "fusion_lat": 0.0, "lat": 38.90211716666666, "name": "1b71f793d77f4f4d22ef96e3b5f3a5a0", "fusion_lon": 0.0, "bike_id": "1b71f793d77f4f4d22ef96e3b5f3a5a0", "is_disabled": 0, "is_reserved": 0}, {"rental_uris": {"ios": "https://dc.lft.to/lastmile_qr_scan", "android": "https://dc.lft.to/lastmile_qr_scan"}, "lon": -77.03816383333333, "type": "electric_scooter", "fusion_lat": 0.0, "lat": 38.920689833333334, "name": "954f8165741a6939fdf11a010f0e2f9f", "fusion_lon": 0.0, "bike_id": "954f8165741a6939fdf11a010f0e2f9f", "is_disabled": 0, "is_reserved": 0}, {"rental_uris": {"ios": "https://dc.lft.to/lastmile_qr_scan", "android": "https://dc.lft.to/lastmile_qr_scan"}, "lon": -76.99585633333334, "type": "electric_scooter", "fusion_lat": 0.0, "lat": 38.95503983333333, "name": "6a05361b4b433144136f6864ede699ba", "fusion_lon": 0.0, "bike_id": "6a05361b4b433144136f6864ede699ba", "is_disabled": 0, "is_reserved": 0}, {"rental_uris": {"ios": "https://dc.lft.to/lastmile_qr_scan", "android": "https://dc.lft.to/lastmile_qr_scan"}, "lon": -76.9192215, "type": "electric_scooter", "fusion_lat": 0.0, "lat": 38.890787833333334, "name": "c34f6a153bf89c114b185e1fa1c3c24b", "fusion_lon": 0.0, "bike_id": "c34f6a153bf89c114b185e1fa1c3c24b", "is_disabled": 0, "is_reserved": 0}, {"rental_uris": {"ios": "https://dc.lft.to/lastmile_qr_scan", "android": "https://dc.lft.to/lastmile_qr_scan"}, "lon": -76.997966, "type": "electric_bike", "fusion_lat": 0.0, "lat": 38.9055825, "name": "7db5c0c64b70bccdce5ac866d0a351a2", "fusion_lon": 0.0, "bike_id": "7db5c0c64b70bccdce5ac866d0a351a2", "is_disabled": 0, "is_reserved": 0}, {"rental_uris": {"ios": "https://dc.lft.to/lastmile_qr_scan", "android": "https://dc.lft.to/lastmile_qr_scan"}, "lon": -77.04181783333334, "type": "electric_scooter", "fusion_lat": 0.0, "lat": 38.90136616666667, "name": "a67fe3003ce589c839d2df38eda0764b", "fusion_lon": 0.0, "bike_id": "a67fe3003ce589c839d2df38eda0764b", "is_disabled": 0, "is_reserved": 0}, {"rental_uris": {"ios": "https://dc.lft.to/lastmile_qr_scan", "android": "https://dc.lft.to/lastmile_qr_scan"}, "lon": -77.041885, "type": "electric_scooter", "fusion_lat": 0.0, "lat": 38.9205085, "name": "980b92db21b575efcb409216012f41bf", "fusion_lon": 0.0, "bike_id": "980b92db21b575efcb409216012f41bf", "is_disabled": 0, "is_reserved": 0}, {"rental_uris": {"ios": "https://dc.lft.to/lastmile_qr_scan", "android": "https://dc.lft.to/lastmile_qr_scan"}, "lon": -77.13093333333333, "type": "electric_bike", "fusion_lat": 0.0, "lat": 38.86163766666667, "name": "5104f318f9b1c179f50f9ff616fe6fd3", "fusion_lon": 0.0, "bike_id": "5104f318f9b1c179f50f9ff616fe6fd3", "is_disabled": 0, "is_reserved": 0}, {"rental_uris": {"ios": "https://dc.lft.to/lastmile_qr_scan", "android": "https://dc.lft.to/lastmile_qr_scan"}, "lon": -77.02865016666667, "type": "electric_scooter", "fusion_lat": 0.0, "lat": 38.9072825, "name": "6ebac033bbe20ba8ebade45486893b5f", "fusion_lon": 0.0, "bike_id": "6ebac033bbe20ba8ebade45486893b5f", "is_disabled": 0, "is_reserved": 0}, {"rental_uris": {"ios": "https://dc.lft.to/lastmile_qr_scan", "android": "https://dc.lft.to/lastmile_qr_scan"}, "lon": -77.02305983333333, "type": "electric_scooter", "fusion_lat": 0.0, "lat": 38.91839683333333, "name": "1d84cca2f26ccbf002137feb8b516d0d", "fusion_lon": 0.0, "bike_id": "1d84cca2f26ccbf002137feb8b516d0d", "is_disabled": 0, "is_reserved": 0}, {"rental_uris": {"ios": "https://dc.lft.to/lastmile_qr_scan", "android": "https://dc.lft.to/lastmile_qr_scan"}, "lon": -77.0320245, "type": "electric_scooter", "fusion_lat": 0.0, "lat": 38.91980516666667, "name": "1e509f2a9533d62e420becc2be93c12f", "fusion_lon": 0.0, "bike_id": "1e509f2a9533d62e420becc2be93c12f", "is_disabled": 0, "is_reserved": 0}, {"rental_uris": {"ios": "https://dc.lft.to/lastmile_qr_scan", "android": "https://dc.lft.to/lastmile_qr_scan"}, "lon": -77.038005, "type": "electric_scooter", "fusion_lat": 0.0, "lat": 38.93603783333333, "name": "aba345abf711fda0075059ce7c90ae51", "fusion_lon": 0.0, "bike_id": "aba345abf711fda0075059ce7c90ae51", "is_disabled": 0, "is_reserved": 0}, {"rental_uris": {"ios": "https://dc.lft.to/lastmile_qr_scan", "android": "https://dc.lft.to/lastmile_qr_scan"}, "lon": -77.02324733333333, "type": "electric_scooter", "fusion_lat": 0.0, "lat": 38.8836335, "name": "cb624f23adc1340ad1dbca19e6c86d6b", "fusion_lon": 0.0, "bike_id": "cb624f23adc1340ad1dbca19e6c86d6b", "is_disabled": 0, "is_reserved": 0}, {"rental_uris": {"ios": "https://dc.lft.to/lastmile_qr_scan", "android": "https://dc.lft.to/lastmile_qr_scan"}, "lon": -77.032299, "type": "electric_scooter", "fusion_lat": 0.0, "lat": 38.896312, "name": "a05ae752d5d992edf76b0b76ccec37d7", "fusion_lon": 0.0, "bike_id": "a05ae752d5d992edf76b0b76ccec37d7", "is_disabled": 0, "is_reserved": 0}, {"rental_uris": {"ios": "https://dc.lft.to/lastmile_qr_scan", "android": "https://dc.lft.to/lastmile_qr_scan"}, "lon": -77.02610616666666, "type": "electric_bike", "fusion_lat": 0.0, "lat": 38.962015666666666, "name": "46851302bcb868fd5c9a0431735342ee", "fusion_lon": 0.0, "bike_id": "46851302bcb868fd5c9a0431735342ee", "is_disabled": 0, "is_reserved": 0}, {"rental_uris": {"ios": "https://dc.lft.to/lastmile_qr_scan", "android": "https://dc.lft.to/lastmile_qr_scan"}, "lon": -77.0312195, "type": "electric_scooter", "fusion_lat": 0.0, "lat": 38.973773333333334, "name": "9ae1a677b2fcae3a5ee804cf5f71412a", "fusion_lon": 0.0, "bike_id": "9ae1a677b2fcae3a5ee804cf5f71412a", "is_disabled": 0, "is_reserved": 0}, {"rental_uris": {"ios": "https://dc.lft.to/lastmile_qr_scan", "android": "https://dc.lft.to/lastmile_qr_scan"}, "lon": -77.09166533333334, "type": "electric_bike", "fusion_lat": 0.0, "lat": 38.96755183333333, "name": "4fb45fc1c57c1ed7b8669ac8d3410f0e", "fusion_lon": 0.0, "bike_id": "4fb45fc1c57c1ed7b8669ac8d3410f0e", "is_disabled": 0, "is_reserved": 0}, {"rental_uris": {"ios": "https://dc.lft.to/lastmile_qr_scan", "android": "https://dc.lft.to/lastmile_qr_scan"}, "lon": -77.0440785, "type": "electric_scooter", "fusion_lat": 0.0, "lat": 38.87430883333333, "name": "2910bb1e04269bcf02f8546e03aebd43", "fusion_lon": 0.0, "bike_id": "2910bb1e04269bcf02f8546e03aebd43", "is_disabled": 0, "is_reserved": 0}, {"rental_uris": {"ios": "https://dc.lft.to/lastmile_qr_scan", "android": "https://dc.lft.to/lastmile_qr_scan"}, "lon": -77.03386116666667, "type": "electric_scooter", "fusion_lat": 0.0, "lat": 38.92163033333333, "name": "f9d4da7e3ae51941543b7e0e96d580b6", "fusion_lon": 0.0, "bike_id": "f9d4da7e3ae51941543b7e0e96d580b6", "is_disabled": 0, "is_reserved": 0}, {"rental_uris": {"ios": "https://dc.lft.to/lastmile_qr_scan", "android": "https://dc.lft.to/lastmile_qr_scan"}, "lon": -76.96176066666666, "type": "electric_bike", "fusion_lat": 0.0, "lat": 38.9185905, "name": "9c5a1a971ba633059224e9c94f024721", "fusion_lon": 0.0, "bike_id": "9c5a1a971ba633059224e9c94f024721", "is_disabled": 0, "is_reserved": 0}, {"rental_uris": {"ios": "https://dc.lft.to/lastmile_qr_scan", "android": "https://dc.lft.to/lastmile_qr_scan"}, "lon": -77.01336433333333, "type": "electric_scooter", "fusion_lat": 0.0, "lat": 38.9661055, "name": "3623c2b9d403d74ea991210a7cac06e3", "fusion_lon": 0.0, "bike_id": "3623c2b9d403d74ea991210a7cac06e3", "is_disabled": 0, "is_reserved": 0}, {"rental_uris": {"ios": "https://dc.lft.to/lastmile_qr_scan", "android": "https://dc.lft.to/lastmile_qr_scan"}, "lon": -77.05593483333334, "type": "electric_scooter", "fusion_lat": 0.0, "lat": 38.937000833333336, "name": "918fb443c361cff9638a68b6af953dd9", "fusion_lon": 0.0, "bike_id": "918fb443c361cff9638a68b6af953dd9", "is_disabled": 0, "is_reserved": 0}, {"rental_uris": {"ios": "https://dc.lft.to/lastmile_qr_scan", "android": "https://dc.lft.to/lastmile_qr_scan"}, "lon": -77.01166316666666, "type": "electric_scooter", "fusion_lat": 0.0, "lat": 38.8723355, "name": "ab849a14800496ad68f480838315b093", "fusion_lon": 0.0, "bike_id": "ab849a14800496ad68f480838315b093", "is_disabled": 0, "is_reserved": 0}, {"rental_uris": {"ios": "https://dc.lft.to/lastmile_qr_scan", "android": "https://dc.lft.to/lastmile_qr_scan"}, "lon": -77.0002815, "type": "electric_scooter", "fusion_lat": 0.0, "lat": 38.87639433333333, "name": "f8d06fd6939eba520d34fa2caa86352c", "fusion_lon": 0.0, "bike_id": "f8d06fd6939eba520d34fa2caa86352c", "is_disabled": 0, "is_reserved": 0}, {"rental_uris": {"ios": "https://dc.lft.to/lastmile_qr_scan", "android": "https://dc.lft.to/lastmile_qr_scan"}, "lon": -77.02651283333333, "type": "electric_scooter", "fusion_lat": 0.0, "lat": 38.88111133333334, "name": "b767fb8ab4aceb82c87ced83bba0360c", "fusion_lon": 0.0, "bike_id": "b767fb8ab4aceb82c87ced83bba0360c", "is_disabled": 0, "is_reserved": 0}, {"rental_uris": {"ios": "https://dc.lft.to/lastmile_qr_scan", "android": "https://dc.lft.to/lastmile_qr_scan"}, "lon": -77.02652916666666, "type": "electric_scooter", "fusion_lat": 0.0, "lat": 38.910583333333335, "name": "d8742ecbfabe62ef9348e399b1026570", "fusion_lon": 0.0, "bike_id": "d8742ecbfabe62ef9348e399b1026570", "is_disabled": 0, "is_reserved": 0}, {"rental_uris": {"ios": "https://dc.lft.to/lastmile_qr_scan", "android": "https://dc.lft.to/lastmile_qr_scan"}, "lon": -76.93173283333333, "type": "electric_scooter", "fusion_lat": 0.0, "lat": 38.89881966666667, "name": "8ebf887eabe57d775abcd4aa51e47399", "fusion_lon": 0.0, "bike_id": "8ebf887eabe57d775abcd4aa51e47399", "is_disabled": 0, "is_reserved": 0}, {"rental_uris": {"ios": "https://dc.lft.to/lastmile_qr_scan", "android": "https://dc.lft.to/lastmile_qr_scan"}, "lon": -77.01888033333333, "type": "electric_scooter", "fusion_lat": 0.0, "lat": 38.909960833333336, "name": "a1a7fc9a7e127c9f9dbf3ed5394b8154", "fusion_lon": 0.0, "bike_id": "a1a7fc9a7e127c9f9dbf3ed5394b8154", "is_disabled": 0, "is_reserved": 0}, {"rental_uris": {"ios": "https://dc.lft.to/lastmile_qr_scan", "android": "https://dc.lft.to/lastmile_qr_scan"}, "lon": -77.03789483333334, "type": "electric_scooter", "fusion_lat": 0.0, "lat": 38.930271166666664, "name": "5295d3ccf457f9a22fa1f153e0ea9353", "fusion_lon": 0.0, "bike_id": "5295d3ccf457f9a22fa1f153e0ea9353", "is_disabled": 0, "is_reserved": 0}, {"rental_uris": {"ios": "https://dc.lft.to/lastmile_qr_scan", "android": "https://dc.lft.to/lastmile_qr_scan"}, "lon": -76.9955915, "type": "electric_scooter", "fusion_lat": 0.0, "lat": 38.92310966666667, "name": "904e6df1981981f72665029f545b03dd", "fusion_lon": 0.0, "bike_id": "904e6df1981981f72665029f545b03dd", "is_disabled": 0, "is_reserved": 0}, {"rental_uris": {"ios": "https://dc.lft.to/lastmile_qr_scan", "android": "https://dc.lft.to/lastmile_qr_scan"}, "lon": -77.04998533333334, "type": "electric_scooter", "fusion_lat": 0.0, "lat": 38.892332833333334, "name": "35a05bcb14c1a88af56a56fad6b92ce5", "fusion_lon": 0.0, "bike_id": "35a05bcb14c1a88af56a56fad6b92ce5", "is_disabled": 0, "is_reserved": 0}, {"rental_uris": {"ios": "https://dc.lft.to/lastmile_qr_scan", "android": "https://dc.lft.to/lastmile_qr_scan"}, "lon": -77.00115033333333, "type": "electric_scooter", "fusion_lat": 0.0, "lat": 38.894362, "name": "16758b6780cbb2de9adaf0bb478f6394", "fusion_lon": 0.0, "bike_id": "16758b6780cbb2de9adaf0bb478f6394", "is_disabled": 0, "is_reserved": 0}, {"rental_uris": {"ios": "https://dc.lft.to/lastmile_qr_scan", "android": "https://dc.lft.to/lastmile_qr_scan"}, "lon": -77.03256716666667, "type": "electric_scooter", "fusion_lat": 0.0, "lat": 38.935267833333334, "name": "ebd270babf09a6915b76fac3cd992a3f", "fusion_lon": 0.0, "bike_id": "ebd270babf09a6915b76fac3cd992a3f", "is_disabled": 0, "is_reserved": 0}, {"rental_uris": {"ios": "https://dc.lft.to/lastmile_qr_scan", "android": "https://dc.lft.to/lastmile_qr_scan"}, "lon": -77.0316365, "type": "electric_scooter", "fusion_lat": 0.0, "lat": 38.923725, "name": "d80db368df4fb8d3f03a7edb71039917", "fusion_lon": 0.0, "bike_id": "d80db368df4fb8d3f03a7edb71039917", "is_disabled": 0, "is_reserved": 0}, {"rental_uris": {"ios": "https://dc.lft.to/lastmile_qr_scan", "android": "https://dc.lft.to/lastmile_qr_scan"}, "lon": -77.044202, "type": "electric_scooter", "fusion_lat": 0.0, "lat": 38.92114566666667, "name": "8c14d4267c64fb4b5e7278b383f8b16f", "fusion_lon": 0.0, "bike_id": "8c14d4267c64fb4b5e7278b383f8b16f", "is_disabled": 0, "is_reserved": 0}, {"rental_uris": {"ios": "https://dc.lft.to/lastmile_qr_scan", "android": "https://dc.lft.to/lastmile_qr_scan"}, "lon": -76.938255, "type": "electric_scooter", "fusion_lat": 0.0, "lat": 38.897614, "name": "28b1c6f776d37e9eb21ebf7b3bcf0f88", "fusion_lon": 0.0, "bike_id": "28b1c6f776d37e9eb21ebf7b3bcf0f88", "is_disabled": 0, "is_reserved": 0}, {"rental_uris": {"ios": "https://dc.lft.to/lastmile_qr_scan", "android": "https://dc.lft.to/lastmile_qr_scan"}, "lon": -77.05179633333333, "type": "electric_scooter", "fusion_lat": 0.0, "lat": 38.924270166666666, "name": "e78ac6d1efd3c335a58cc824d3e35074", "fusion_lon": 0.0, "bike_id": "e78ac6d1efd3c335a58cc824d3e35074", "is_disabled": 0, "is_reserved": 0}, {"rental_uris": {"ios": "https://dc.lft.to/lastmile_qr_scan", "android": "https://dc.lft.to/lastmile_qr_scan"}, "lon": -77.02719533333334, "type": "electric_scooter", "fusion_lat": 0.0, "lat": 38.892239333333336, "name": "ffb0e7432ba8270239953d00ff4c0136", "fusion_lon": 0.0, "bike_id": "ffb0e7432ba8270239953d00ff4c0136", "is_disabled": 0, "is_reserved": 0}, {"rental_uris": {"ios": "https://dc.lft.to/lastmile_qr_scan", "android": "https://dc.lft.to/lastmile_qr_scan"}, "lon": -77.07289716666666, "type": "electric_scooter", "fusion_lat": 0.0, "lat": 38.93174366666667, "name": "c821cdcd25309c597c05cd7301c48bd1", "fusion_lon": 0.0, "bike_id": "c821cdcd25309c597c05cd7301c48bd1", "is_disabled": 0, "is_reserved": 0}, {"rental_uris": {"ios": "https://dc.lft.to/lastmile_qr_scan", "android": "https://dc.lft.to/lastmile_qr_scan"}, "lon": -77.0240065, "type": "electric_scooter", "fusion_lat": 0.0, "lat": 38.88736566666667, "name": "9be4250af9e6fef74b35d751d3c80dd0", "fusion_lon": 0.0, "bike_id": "9be4250af9e6fef74b35d751d3c80dd0", "is_disabled": 0, "is_reserved": 0}, {"rental_uris": {"ios": "https://dc.lft.to/lastmile_qr_scan", "android": "https://dc.lft.to/lastmile_qr_scan"}, "lon": -77.01069833333334, "type": "electric_scooter", "fusion_lat": 0.0, "lat": 38.871126333333336, "name": "122c994101cd27df448db132141f488e", "fusion_lon": 0.0, "bike_id": "122c994101cd27df448db132141f488e", "is_disabled": 0, "is_reserved": 0}, {"rental_uris": {"ios": "https://dc.lft.to/lastmile_qr_scan", "android": "https://dc.lft.to/lastmile_qr_scan"}, "lon": -77.01818833333333, "type": "electric_scooter", "fusion_lat": 0.0, "lat": 38.908146333333335, "name": "af42bb1ffc12ce88e4593481f66d8d69", "fusion_lon": 0.0, "bike_id": "af42bb1ffc12ce88e4593481f66d8d69", "is_disabled": 0, "is_reserved": 0}, {"rental_uris": {"ios": "https://dc.lft.to/lastmile_qr_scan", "android": "https://dc.lft.to/lastmile_qr_scan"}, "lon": -76.97186583333334, "type": "electric_scooter", "fusion_lat": 0.0, "lat": 38.912605666666664, "name": "f9d417d5fb4d570c7b26d3fe533f2b4a", "fusion_lon": 0.0, "bike_id": "f9d417d5fb4d570c7b26d3fe533f2b4a", "is_disabled": 0, "is_reserved": 0}, {"rental_uris": {"ios": "https://dc.lft.to/lastmile_qr_scan", "android": "https://dc.lft.to/lastmile_qr_scan"}, "lon": -77.0200405, "type": "electric_scooter", "fusion_lat": 0.0, "lat": 38.892474, "name": "d2e16b123e6fd9c2406b23e274532df2", "fusion_lon": 0.0, "bike_id": "d2e16b123e6fd9c2406b23e274532df2", "is_disabled": 0, "is_reserved": 0}, {"rental_uris": {"ios": "https://dc.lft.to/lastmile_qr_scan", "android": "https://dc.lft.to/lastmile_qr_scan"}, "lon": -76.99034616666667, "type": "electric_scooter", "fusion_lat": 0.0, "lat": 38.858746333333336, "name": "a6637875608913a637bb4533729299d9", "fusion_lon": 0.0, "bike_id": "a6637875608913a637bb4533729299d9", "is_disabled": 0, "is_reserved": 0}, {"rental_uris": {"ios": "https://dc.lft.to/lastmile_qr_scan", "android": "https://dc.lft.to/lastmile_qr_scan"}, "lon": -77.00291516666667, "type": "electric_bike", "fusion_lat": 0.0, "lat": 38.911645, "name": "1b4df55c6b951a6785a475ed956cebba", "fusion_lon": 0.0, "bike_id": "1b4df55c6b951a6785a475ed956cebba", "is_disabled": 0, "is_reserved": 0}, {"rental_uris": {"ios": "https://dc.lft.to/lastmile_qr_scan", "android": "https://dc.lft.to/lastmile_qr_scan"}, "lon": -77.109167, "type": "electric_bike", "fusion_lat": 0.0, "lat": 39.05202033333333, "name": "8a985bd30b0bd3fd783ef62bc7732a22", "fusion_lon": 0.0, "bike_id": "8a985bd30b0bd3fd783ef62bc7732a22", "is_disabled": 0, "is_reserved": 0}, {"rental_uris": {"ios": "https://dc.lft.to/lastmile_qr_scan", "android": "https://dc.lft.to/lastmile_qr_scan"}, "lon": -77.01518816666666, "type": "electric_scooter", "fusion_lat": 0.0, "lat": 38.91873833333333, "name": "d2658e402d260ee3e423e67a904f8baf", "fusion_lon": 0.0, "bike_id": "d2658e402d260ee3e423e67a904f8baf", "is_disabled": 0, "is_reserved": 0}, {"rental_uris": {"ios": "https://dc.lft.to/lastmile_qr_scan", "android": "https://dc.lft.to/lastmile_qr_scan"}, "lon": -77.0231295, "type": "electric_scooter", "fusion_lat": 0.0, "lat": 38.887361166666665, "name": "480cd9667ae97d8ef502ebd37a24cdd2", "fusion_lon": 0.0, "bike_id": "480cd9667ae97d8ef502ebd37a24cdd2", "is_disabled": 0, "is_reserved": 0}, {"rental_uris": {"ios": "https://dc.lft.to/lastmile_qr_scan", "android": "https://dc.lft.to/lastmile_qr_scan"}, "lon": -76.97609666666666, "type": "electric_bike", "fusion_lat": 0.0, "lat": 38.913082333333335, "name": "f15903e3e84b31abea866f68fa1f9f20", "fusion_lon": 0.0, "bike_id": "f15903e3e84b31abea866f68fa1f9f20", "is_disabled": 0, "is_reserved": 0}, {"rental_uris": {"ios": "https://dc.lft.to/lastmile_qr_scan", "android": "https://dc.lft.to/lastmile_qr_scan"}, "lon": -77.04389116666667, "type": "electric_scooter", "fusion_lat": 0.0, "lat": 38.922763333333336, "name": "f1777c685304e4df917dc95adbe945f8", "fusion_lon": 0.0, "bike_id": "f1777c685304e4df917dc95adbe945f8", "is_disabled": 0, "is_reserved": 0}, {"rental_uris": {"ios": "https://dc.lft.to/lastmile_qr_scan", "android": "https://dc.lft.to/lastmile_qr_scan"}, "lon": -77.02000666666666, "type": "electric_scooter", "fusion_lat": 0.0, "lat": 38.90470283333333, "name": "8e6854e9437ec0295fc1145248bbcf09", "fusion_lon": 0.0, "bike_id": "8e6854e9437ec0295fc1145248bbcf09", "is_disabled": 0, "is_reserved": 0}, {"rental_uris": {"ios": "https://dc.lft.to/lastmile_qr_scan", "android": "https://dc.lft.to/lastmile_qr_scan"}, "lon": -76.90429866666666, "type": "electric_bike", "fusion_lat": 0.0, "lat": 38.8974695, "name": "f1e7183c4a4d4c7e41166ed5af3c57f8", "fusion_lon": 0.0, "bike_id": "f1e7183c4a4d4c7e41166ed5af3c57f8", "is_disabled": 0, "is_reserved": 0}, {"rental_uris": {"ios": "https://dc.lft.to/lastmile_qr_scan", "android": "https://dc.lft.to/lastmile_qr_scan"}, "lon": -77.02314883333334, "type": "electric_scooter", "fusion_lat": 0.0, "lat": 38.929431666666666, "name": "a549f98990521a99e0457ed4717abccb", "fusion_lon": 0.0, "bike_id": "a549f98990521a99e0457ed4717abccb", "is_disabled": 0, "is_reserved": 0}, {"rental_uris": {"ios": "https://dc.lft.to/lastmile_qr_scan", "android": "https://dc.lft.to/lastmile_qr_scan"}, "lon": -77.0404305, "type": "electric_scooter", "fusion_lat": 0.0, "lat": 38.92984533333333, "name": "e2e32d0a386c195bc9dd383940c48ae4", "fusion_lon": 0.0, "bike_id": "e2e32d0a386c195bc9dd383940c48ae4", "is_disabled": 0, "is_reserved": 0}, {"rental_uris": {"ios": "https://dc.lft.to/lastmile_qr_scan", "android": "https://dc.lft.to/lastmile_qr_scan"}, "lon": -77.00724783333334, "type": "electric_scooter", "fusion_lat": 0.0, "lat": 38.8849175, "name": "437b99b8347b6c32a4ae50d425248d38", "fusion_lon": 0.0, "bike_id": "437b99b8347b6c32a4ae50d425248d38", "is_disabled": 0, "is_reserved": 0}, {"rental_uris": {"ios": "https://dc.lft.to/lastmile_qr_scan", "android": "https://dc.lft.to/lastmile_qr_scan"}, "lon": -77.03442166666666, "type": "electric_scooter", "fusion_lat": 0.0, "lat": 38.90339783333334, "name": "39539f719855cac8c63a217322519dc9", "fusion_lon": 0.0, "bike_id": "39539f719855cac8c63a217322519dc9", "is_disabled": 0, "is_reserved": 0}, {"rental_uris": {"ios": "https://dc.lft.to/lastmile_qr_scan", "android": "https://dc.lft.to/lastmile_qr_scan"}, "lon": -76.99746483333334, "type": "electric_scooter", "fusion_lat": 0.0, "lat": 38.92197216666667, "name": "15d220ba019b32d664aa2616d76bd41e", "fusion_lon": 0.0, "bike_id": "15d220ba019b32d664aa2616d76bd41e", "is_disabled": 0, "is_reserved": 0}, {"rental_uris": {"ios": "https://dc.lft.to/lastmile_qr_scan", "android": "https://dc.lft.to/lastmile_qr_scan"}, "lon": -77.03194366666666, "type": "electric_scooter", "fusion_lat": 0.0, "lat": 38.90870866666667, "name": "6d8a07d3dea5e603531aa7b0c28740d8", "fusion_lon": 0.0, "bike_id": "6d8a07d3dea5e603531aa7b0c28740d8", "is_disabled": 0, "is_reserved": 0}, {"rental_uris": {"ios": "https://dc.lft.to/lastmile_qr_scan", "android": "https://dc.lft.to/lastmile_qr_scan"}, "lon": -77.02392416666666, "type": "electric_scooter", "fusion_lat": 0.0, "lat": 38.907056833333336, "name": "8a1809978951538368dd2f61794feb0d", "fusion_lon": 0.0, "bike_id": "8a1809978951538368dd2f61794feb0d", "is_disabled": 0, "is_reserved": 0}, {"rental_uris": {"ios": "https://dc.lft.to/lastmile_qr_scan", "android": "https://dc.lft.to/lastmile_qr_scan"}, "lon": -77.03872266666667, "type": "electric_scooter", "fusion_lat": 0.0, "lat": 38.902398833333336, "name": "64650ad7912e9b340dee977519b68715", "fusion_lon": 0.0, "bike_id": "64650ad7912e9b340dee977519b68715", "is_disabled": 0, "is_reserved": 0}, {"rental_uris": {"ios": "https://dc.lft.to/lastmile_qr_scan", "android": "https://dc.lft.to/lastmile_qr_scan"}, "lon": -77.04880933333334, "type": "electric_scooter", "fusion_lat": 0.0, "lat": 38.91235733333333, "name": "790f222647d013e9e0ad9bebab9aeb03", "fusion_lon": 0.0, "bike_id": "790f222647d013e9e0ad9bebab9aeb03", "is_disabled": 0, "is_reserved": 0}, {"rental_uris": {"ios": "https://dc.lft.to/lastmile_qr_scan", "android": "https://dc.lft.to/lastmile_qr_scan"}, "lon": -77.01511866666667, "type": "electric_scooter", "fusion_lat": 0.0, "lat": 38.887344, "name": "6c04a9213c4ec5dfe7cbbb910904da57", "fusion_lon": 0.0, "bike_id": "6c04a9213c4ec5dfe7cbbb910904da57", "is_disabled": 0, "is_reserved": 0}, {"rental_uris": {"ios": "https://dc.lft.to/lastmile_qr_scan", "android": "https://dc.lft.to/lastmile_qr_scan"}, "lon": -77.03080733333333, "type": "electric_scooter", "fusion_lat": 0.0, "lat": 38.9099685, "name": "3f64c60d727348d6e1939c1360ce06b4", "fusion_lon": 0.0, "bike_id": "3f64c60d727348d6e1939c1360ce06b4", "is_disabled": 0, "is_reserved": 0}, {"rental_uris": {"ios": "https://dc.lft.to/lastmile_qr_scan", "android": "https://dc.lft.to/lastmile_qr_scan"}, "lon": -77.03797716666666, "type": "electric_scooter", "fusion_lat": 0.0, "lat": 38.925779, "name": "c4680663e4fe566864eba4b3490a231e", "fusion_lon": 0.0, "bike_id": "c4680663e4fe566864eba4b3490a231e", "is_disabled": 0, "is_reserved": 0}, {"rental_uris": {"ios": "https://dc.lft.to/lastmile_qr_scan", "android": "https://dc.lft.to/lastmile_qr_scan"}, "lon": -77.0436905, "type": "electric_scooter", "fusion_lat": 0.0, "lat": 38.902394666666666, "name": "6985c1447891571e4019dd050294ede3", "fusion_lon": 0.0, "bike_id": "6985c1447891571e4019dd050294ede3", "is_disabled": 0, "is_reserved": 0}, {"rental_uris": {"ios": "https://dc.lft.to/lastmile_qr_scan", "android": "https://dc.lft.to/lastmile_qr_scan"}, "lon": -77.03353716666666, "type": "electric_scooter", "fusion_lat": 0.0, "lat": 38.88505983333334, "name": "adfdc854ac72111acb5d1091b5fecb39", "fusion_lon": 0.0, "bike_id": "adfdc854ac72111acb5d1091b5fecb39", "is_disabled": 0, "is_reserved": 0}, {"rental_uris": {"ios": "https://dc.lft.to/lastmile_qr_scan", "android": "https://dc.lft.to/lastmile_qr_scan"}, "lon": -77.04518316666666, "type": "electric_scooter", "fusion_lat": 0.0, "lat": 38.90971966666667, "name": "226acbdad785e90ffebf7108638710ce", "fusion_lon": 0.0, "bike_id": "226acbdad785e90ffebf7108638710ce", "is_disabled": 0, "is_reserved": 0}, {"rental_uris": {"ios": "https://dc.lft.to/lastmile_qr_scan", "android": "https://dc.lft.to/lastmile_qr_scan"}, "lon": -77.03822483333333, "type": "electric_scooter", "fusion_lat": 0.0, "lat": 38.92056066666667, "name": "86f58914f6d94895a4150c267c0ef601", "fusion_lon": 0.0, "bike_id": "86f58914f6d94895a4150c267c0ef601", "is_disabled": 0, "is_reserved": 0}, {"rental_uris": {"ios": "https://dc.lft.to/lastmile_qr_scan", "android": "https://dc.lft.to/lastmile_qr_scan"}, "lon": -77.03068216666667, "type": "electric_scooter", "fusion_lat": 0.0, "lat": 38.92247916666667, "name": "9ade9db5efc9c8ed722bfe86a41bbb66", "fusion_lon": 0.0, "bike_id": "9ade9db5efc9c8ed722bfe86a41bbb66", "is_disabled": 0, "is_reserved": 0}, {"rental_uris": {"ios": "https://dc.lft.to/lastmile_qr_scan", "android": "https://dc.lft.to/lastmile_qr_scan"}, "lon": -77.04442616666667, "type": "electric_scooter", "fusion_lat": 0.0, "lat": 38.91879466666666, "name": "1c4016c4df9519ea382c59deb645af80", "fusion_lon": 0.0, "bike_id": "1c4016c4df9519ea382c59deb645af80", "is_disabled": 0, "is_reserved": 0}, {"rental_uris": {"ios": "https://dc.lft.to/lastmile_qr_scan", "android": "https://dc.lft.to/lastmile_qr_scan"}, "lon": -77.05588716666666, "type": "electric_scooter", "fusion_lat": 0.0, "lat": 38.92782833333333, "name": "5c2c38bc66b1bcea70b177dd3663d337", "fusion_lon": 0.0, "bike_id": "5c2c38bc66b1bcea70b177dd3663d337", "is_disabled": 0, "is_reserved": 0}, {"rental_uris": {"ios": "https://dc.lft.to/lastmile_qr_scan", "android": "https://dc.lft.to/lastmile_qr_scan"}, "lon": -77.043768, "type": "electric_scooter", "fusion_lat": 0.0, "lat": 38.892243666666666, "name": "461dbc724ff4a3da68ad9bea855ebde9", "fusion_lon": 0.0, "bike_id": "461dbc724ff4a3da68ad9bea855ebde9", "is_disabled": 0, "is_reserved": 0}, {"rental_uris": {"ios": "https://dc.lft.to/lastmile_qr_scan", "android": "https://dc.lft.to/lastmile_qr_scan"}, "lon": -77.03209333333334, "type": "electric_scooter", "fusion_lat": 0.0, "lat": 38.913203833333334, "name": "b81d00d089c6db5e345094a61f5d5bd3", "fusion_lon": 0.0, "bike_id": "b81d00d089c6db5e345094a61f5d5bd3", "is_disabled": 0, "is_reserved": 0}, {"rental_uris": {"ios": "https://dc.lft.to/lastmile_qr_scan", "android": "https://dc.lft.to/lastmile_qr_scan"}, "lon": -77.0952025, "type": "electric_bike", "fusion_lat": 0.0, "lat": 38.838127666666665, "name": "14b1d8cd3bfacae34f3e1d6417ced7ba", "fusion_lon": 0.0, "bike_id": "14b1d8cd3bfacae34f3e1d6417ced7ba", "is_disabled": 0, "is_reserved": 0}, {"rental_uris": {"ios": "https://dc.lft.to/lastmile_qr_scan", "android": "https://dc.lft.to/lastmile_qr_scan"}, "lon": -77.0417975, "type": "electric_scooter", "fusion_lat": 0.0, "lat": 38.90536866666667, "name": "83392f20baad277e8e7df6af7791e720", "fusion_lon": 0.0, "bike_id": "83392f20baad277e8e7df6af7791e720", "is_disabled": 0, "is_reserved": 0}, {"rental_uris": {"ios": "https://dc.lft.to/lastmile_qr_scan", "android": "https://dc.lft.to/lastmile_qr_scan"}, "lon": -77.02791466666666, "type": "electric_scooter", "fusion_lat": 0.0, "lat": 38.893724666666664, "name": "1455f7fafcc0c5979e1dcc58423bc160", "fusion_lon": 0.0, "bike_id": "1455f7fafcc0c5979e1dcc58423bc160", "is_disabled": 0, "is_reserved": 0}, {"rental_uris": {"ios": "https://dc.lft.to/lastmile_qr_scan", "android": "https://dc.lft.to/lastmile_qr_scan"}, "lon": -77.03176666666667, "type": "electric_scooter", "fusion_lat": 0.0, "lat": 38.913202, "name": "c747bb2c124d9909f4c86488424f9b72", "fusion_lon": 0.0, "bike_id": "c747bb2c124d9909f4c86488424f9b72", "is_disabled": 0, "is_reserved": 0}, {"rental_uris": {"ios": "https://dc.lft.to/lastmile_qr_scan", "android": "https://dc.lft.to/lastmile_qr_scan"}, "lon": -76.9581785, "type": "electric_scooter", "fusion_lat": 0.0, "lat": 38.89058766666667, "name": "7ffeef4384ee23fcefaf77f30cf1664b", "fusion_lon": 0.0, "bike_id": "7ffeef4384ee23fcefaf77f30cf1664b", "is_disabled": 0, "is_reserved": 0}, {"rental_uris": {"ios": "https://dc.lft.to/lastmile_qr_scan", "android": "https://dc.lft.to/lastmile_qr_scan"}, "lon": -77.03367316666667, "type": "electric_scooter", "fusion_lat": 0.0, "lat": 38.89844333333333, "name": "e732608cc4f8fb8f22966211864947ae", "fusion_lon": 0.0, "bike_id": "e732608cc4f8fb8f22966211864947ae", "is_disabled": 0, "is_reserved": 0}, {"rental_uris": {"ios": "https://dc.lft.to/lastmile_qr_scan", "android": "https://dc.lft.to/lastmile_qr_scan"}, "lon": -77.03940933333334, "type": "electric_scooter", "fusion_lat": 0.0, "lat": 38.908197666666666, "name": "3f16dea537c915f3389e48fd17009876", "fusion_lon": 0.0, "bike_id": "3f16dea537c915f3389e48fd17009876", "is_disabled": 0, "is_reserved": 0}, {"rental_uris": {"ios": "https://dc.lft.to/lastmile_qr_scan", "android": "https://dc.lft.to/lastmile_qr_scan"}, "lon": -77.0209815, "type": "electric_scooter", "fusion_lat": 0.0, "lat": 38.93448383333333, "name": "c86ee0a2a1e346f3687e9da6dc0b2cc0", "fusion_lon": 0.0, "bike_id": "c86ee0a2a1e346f3687e9da6dc0b2cc0", "is_disabled": 0, "is_reserved": 0}, {"rental_uris": {"ios": "https://dc.lft.to/lastmile_qr_scan", "android": "https://dc.lft.to/lastmile_qr_scan"}, "lon": -77.02606933333334, "type": "electric_scooter", "fusion_lat": 0.0, "lat": 38.8963835, "name": "fe27fdfb5cece30b0ebcfdb0cc8f46df", "fusion_lon": 0.0, "bike_id": "fe27fdfb5cece30b0ebcfdb0cc8f46df", "is_disabled": 0, "is_reserved": 0}, {"rental_uris": {"ios": "https://dc.lft.to/lastmile_qr_scan", "android": "https://dc.lft.to/lastmile_qr_scan"}, "lon": -76.9466645, "type": "electric_scooter", "fusion_lat": 0.0, "lat": 38.8986955, "name": "108f5fe681251ef5c497a03a79fe61e7", "fusion_lon": 0.0, "bike_id": "108f5fe681251ef5c497a03a79fe61e7", "is_disabled": 0, "is_reserved": 0}, {"rental_uris": {"ios": "https://dc.lft.to/lastmile_qr_scan", "android": "https://dc.lft.to/lastmile_qr_scan"}, "lon": -77.024939, "type": "electric_scooter", "fusion_lat": 0.0, "lat": 38.91807933333333, "name": "9dfb500af78eed49a3d698d8fc8454d5", "fusion_lon": 0.0, "bike_id": "9dfb500af78eed49a3d698d8fc8454d5", "is_disabled": 0, "is_reserved": 0}, {"rental_uris": {"ios": "https://dc.lft.to/lastmile_qr_scan", "android": "https://dc.lft.to/lastmile_qr_scan"}, "lon": -77.03298916666667, "type": "electric_scooter", "fusion_lat": 0.0, "lat": 38.9097785, "name": "934445239247782b3cc9806c6c346092", "fusion_lon": 0.0, "bike_id": "934445239247782b3cc9806c6c346092", "is_disabled": 0, "is_reserved": 0}, {"rental_uris": {"ios": "https://dc.lft.to/lastmile_qr_scan", "android": "https://dc.lft.to/lastmile_qr_scan"}, "lon": -76.997017, "type": "electric_scooter", "fusion_lat": 0.0, "lat": 38.908360333333334, "name": "44d77a4a4876fdb82234b411ba685dcd", "fusion_lon": 0.0, "bike_id": "44d77a4a4876fdb82234b411ba685dcd", "is_disabled": 0, "is_reserved": 0}, {"rental_uris": {"ios": "https://dc.lft.to/lastmile_qr_scan", "android": "https://dc.lft.to/lastmile_qr_scan"}, "lon": -77.00334683333334, "type": "electric_scooter", "fusion_lat": 0.0, "lat": 38.893572, "name": "fb0f12e63435e87b5b9f909a969ca460", "fusion_lon": 0.0, "bike_id": "fb0f12e63435e87b5b9f909a969ca460", "is_disabled": 0, "is_reserved": 0}, {"rental_uris": {"ios": "https://dc.lft.to/lastmile_qr_scan", "android": "https://dc.lft.to/lastmile_qr_scan"}, "lon": -77.046922, "type": "electric_scooter", "fusion_lat": 0.0, "lat": 38.921306666666666, "name": "b6c8dd5fd84e60414352cf6e56a01981", "fusion_lon": 0.0, "bike_id": "b6c8dd5fd84e60414352cf6e56a01981", "is_disabled": 0, "is_reserved": 0}, {"rental_uris": {"ios": "https://dc.lft.to/lastmile_qr_scan", "android": "https://dc.lft.to/lastmile_qr_scan"}, "lon": -76.87822333333334, "type": "electric_bike", "fusion_lat": 0.0, "lat": 38.992306666666664, "name": "336f1f50fad8f93d5ff1f4eb7c9f35bf", "fusion_lon": 0.0, "bike_id": "336f1f50fad8f93d5ff1f4eb7c9f35bf", "is_disabled": 0, "is_reserved": 0}, {"rental_uris": {"ios": "https://dc.lft.to/lastmile_qr_scan", "android": "https://dc.lft.to/lastmile_qr_scan"}, "lon": -77.03316383333333, "type": "electric_scooter", "fusion_lat": 0.0, "lat": 38.914193833333336, "name": "c6e554e82a462f17c9dca3591076ee92", "fusion_lon": 0.0, "bike_id": "c6e554e82a462f17c9dca3591076ee92", "is_disabled": 0, "is_reserved": 0}, {"rental_uris": {"ios": "https://dc.lft.to/lastmile_qr_scan", "android": "https://dc.lft.to/lastmile_qr_scan"}, "lon": -77.05523816666667, "type": "electric_scooter", "fusion_lat": 0.0, "lat": 38.899234166666666, "name": "82ffe17fe1f6b4c140b44d2a702384df", "fusion_lon": 0.0, "bike_id": "82ffe17fe1f6b4c140b44d2a702384df", "is_disabled": 0, "is_reserved": 0}, {"rental_uris": {"ios": "https://dc.lft.to/lastmile_qr_scan", "android": "https://dc.lft.to/lastmile_qr_scan"}, "lon": -76.94866133333333, "type": "electric_bike", "fusion_lat": 0.0, "lat": 38.889579833333336, "name": "c1064048893872ddcae9a3b6048aa53d", "fusion_lon": 0.0, "bike_id": "c1064048893872ddcae9a3b6048aa53d", "is_disabled": 0, "is_reserved": 0},