{"data": {"bikes": [{"bike_id": "db06503721b9ba4fddaa7683e26b4218", "lat": 38.92062683333333, "is_reserved": 0, "fusion_lat": 0.0, "rental_uris": {"android": "https://dc.lft.to/lastmile_qr_scan", "ios": "https://dc.lft.to/lastmile_qr_scan"}, "fusion_lon": 0.0, "name": "db06503721b9ba4fddaa7683e26b4218", "lon": -77.03248983333333, "is_disabled": 0, "type": "electric_scooter"}, {"bike_id": "2a0a3bcba2b4bb1f93886f249a7caa84", "lat": 38.93883983333333, "is_reserved": 0, "fusion_lat": 0.0, "rental_uris": {"android": "https://dc.lft.to/lastmile_qr_scan", "ios": "https://dc.lft.to/lastmile_qr_scan"}, "fusion_lon": 0.0, "name": "2a0a3bcba2b4bb1f93886f249a7caa84", "lon": -77.02477933333333, "is_disabled": 0, "type": "electric_scooter"}, {"bike_id": "522aa8c7704e514efe5a8b7ed1d053a7", "lat": 38.905469333333336, "is_reserved": 0, "fusion_lat": 0.0, "rental_uris": {"android": "https://dc.lft.to/lastmile_qr_scan", "ios": "https://dc.lft.to/lastmile_qr_scan"}, "fusion_lon": 0.0, "name": "522aa8c7704e514efe5a8b7ed1d053a7", "lon": -77.04692916666667, "is_disabled": 0, "type": "electric_scooter"}, {"bike_id": "30d8c218da46c131e6ae35640c630fb0", "lat": 38.84317016666667, "is_reserved": 0, "fusion_lat": 0.0, "rental_uris": {"android": "https://dc.lft.to/lastmile_qr_scan", "ios": "https://dc.lft.to/lastmile_qr_scan"}, "fusion_lon": 0.0, "name": "30d8c218da46c131e6ae35640c630fb0", "lon": -76.99914316666667, "is_disabled": 0, "type": "electric_scooter"}, {"bike_id": "b68c82f98f731a5c348fb8a63eefdcab", "lat": 38.8995425, "is_reserved": 0, "fusion_lat": 0.0, "rental_uris": {"android": "https://dc.lft.to/lastmile_qr_scan", "ios": "https://dc.lft.to/lastmile_qr_scan"}, "fusion_lon": 0.0, "name": "b68c82f98f731a5c348fb8a63eefdcab", "lon": -77.04541533333334, "is_disabled": 0, "type": "electric_scooter"}, {"bike_id": "43e41b31224869558fd5d65403884a24", "lat": 38.9028555, "is_reserved": 0, "fusion_lat": 0.0, "rental_uris": {"android": "https://dc.lft.to/lastmile_qr_scan", "ios": "https://dc.lft.to/lastmile_qr_scan"}, "fusion_lon": 0.0, "name": "43e41b31224869558fd5d65403884a24", "lon": -77.006126, "is_disabled": 0, "type": "electric_scooter"}, {"bike_id": "d8bf6127ffe2d838426bc5d8d7646798", "lat": 38.893976, "is_reserved": 0, "fusion_lat": 0.0, "rental_uris": {"android": "https://dc.lft.to/lastmile_qr_scan", "ios": "https://dc.lft.to/lastmile_qr_scan"}, "fusion_lon": 0.0, "name": "d8bf6127ffe2d838426bc5d8d7646798", "lon": -77.0211985, "is_disabled": 0, "type": "electric_scooter"}, {"bike_id": "da9c28864f8db661e3c638ef9123187a", "lat": 38.94803, "is_reserved": 0, "fusion_lat": 0.0, "rental_uris": {"android": "https://dc.lft.to/lastmile_qr_scan", "ios": "https://dc.lft.to/lastmile_qr_scan"}, "fusion_lon": 0.0, "name": "da9c28864f8db661e3c638ef9123187a", "lon": -76.95540316666667, "is_disabled": 0, "type": "electric_bike"}, {"bike_id": "65fefb77ce6cb99c576ae0829da48442", "lat": 38.92467516666667, "is_reserved": 0, "fusion_lat": 0.0, "rental_uris": {"android": "https://dc.lft.to/lastmile_qr_scan", "ios": "https://dc.lft.to/lastmile_qr_scan"}, "fusion_lon": 0.0, "name": "65fefb77ce6cb99c576ae0829da48442", "lon": -77.03916716666667, "is_disabled": 0, "type": "electric_scooter"}, {"bike_id": "3d74540730a6d0cc78a5c7462dcc3779", "lat": 38.851298166666666, "is_reserved": 0, "fusion_lat": 0.0, "rental_uris": {"android": "https://dc.lft.to/lastmile_qr_scan", "ios": "https://dc.lft.to/lastmile_qr_scan"}, "fusion_lon": 0.0, "name": "3d74540730a6d0cc78a5c7462dcc3779", "lon": -76.971144, "is_disabled": 0, "type": "electric_scooter"}, {"bike_id": "791fd16b4b6e908f1f3f3746545c83ed", "lat": 38.9231725, "is_reserved": 0, "fusion_lat": 0.0, "rental_uris": {"android": "https://dc.lft.to/lastmile_qr_scan", "ios": "https://dc.lft.to/lastmile_qr_scan"}, "fusion_lon": 0.0, "name": "791fd16b4b6e908f1f3f3746545c83ed", "lon": -77.04643016666667, "is_disabled": 0, "type": "electric_scooter"}, {"bike_id": "7069dc28317cf0693294a33fbd4f8fa8", "lat": 38.941953166666664, "is_reserved": 0, "fusion_lat": 0.0, "rental_uris": {"android": "https://dc.lft.to/lastmile_qr_scan", "ios": "https://dc.lft.to/lastmile_qr_scan"}, "fusion_lon": 0.0, "name": "7069dc28317cf0693294a33fbd4f8fa8", "lon": -77.0365855, "is_disabled": 0, "type": "electric_scooter"}, {"bike_id": "8aac7a72217253a6909e56e28fc7b425", "lat": 38.915680333333334, "is_reserved": 0, "fusion_lat": 0.0, "rental_uris": {"android": "https://dc.lft.to/lastmile_qr_scan", "ios": "https://dc.lft.to/lastmile_qr_scan"}, "fusion_lon": 0.0, "name": "8aac7a72217253a6909e56e28fc7b425", "lon": -77.0259435, "is_disabled": 0, "type": "electric_scooter"}, {"bike_id": "ec5ef346044c60ba16370eb7c118b081", "lat": 38.91572583333333, "is_reserved": 0, "fusion_lat": 0.0, "rental_uris": {"android": "https://dc.lft.to/lastmile_qr_scan", "ios": "https://dc.lft.to/lastmile_qr_scan"}, "fusion_lon": 0.0, "name": "ec5ef346044c60ba16370eb7c118b081", "lon": -77.01246833333333, "is_disabled": 0, "type": "electric_scooter"}, {"bike_id": "c7d62d63aa03499291b603935200147c", "lat": 38.8686965, "is_reserved": 0, "fusion_lat": 0.0, "rental_uris": {"android": "https://dc.lft.to/lastmile_qr_scan", "ios": "https://dc.lft.to/lastmile_qr_scan"}, "fusion_lon": 0.0, "name": "c7d62d63aa03499291b603935200147c", "lon": -76.9708505, "is_disabled": 0, "type": "electric_bike"}, {"bike_id": "6fbc20af2f2027aed90f20b75ba0242f", "lat": 38.9002195, "is_reserved": 0, "fusion_lat": 0.0, "rental_uris": {"android": "https://dc.lft.to/lastmile_qr_scan", "ios": "https://dc.lft.to/lastmile_qr_scan"}, "fusion_lon": 0.0, "name": "6fbc20af2f2027aed90f20b75ba0242f", "lon": -77.03812233333333, "is_disabled": 0, "type": "electric_scooter"}, {"bike_id": "2b18ce1f8eeb08e7b7918404f6fa0b35", "lat": 38.9055205, "is_reserved": 0, "fusion_lat": 0.0, "rental_uris": {"android": "https://dc.lft.to/lastmile_qr_scan", "ios": "https://dc.lft.to/lastmile_qr_scan"}, "fusion_lon": 0.0, "name": "2b18ce1f8eeb08e7b7918404f6fa0b35", "lon": -77.04091316666667, "is_disabled": 0, "type": "electric_scooter"}, {"bike_id": "09d5a516b580d385063ca7e4b73882e6", "lat": 38.90591333333333, "is_reserved": 0, "fusion_lat": 0.0, "rental_uris": {"android": "https://dc.lft.to/lastmile_qr_scan", "ios": "https://dc.lft.to/lastmile_qr_scan"}, "fusion_lon": 0.0, "name": "09d5a516b580d385063ca7e4b73882e6", "lon": -77.021965, "is_disabled": 0, "type": "electric_scooter"}, {"bike_id": "23a5d51107e1a5d3232b9728c0f67c8e", "lat": 38.9142085, "is_reserved": 0, "fusion_lat": 0.0, "rental_uris": {"android": "https://dc.lft.to/lastmile_qr_scan", "ios": "https://dc.lft.to/lastmile_qr_scan"}, "fusion_lon": 0.0, "name": "23a5d51107e1a5d3232b9728c0f67c8e", "lon": -77.019895, "is_disabled": 0, "type": "electric_scooter"}, {"bike_id": "b79991a25c6835e9aa05a511c5eea27f", "lat": 38.887102, "is_reserved": 0, "fusion_lat": 0.0, "rental_uris": {"android": "https://dc.lft.to/lastmile_qr_scan", "ios": "https://dc.lft.to/lastmile_qr_scan"}, "fusion_lon": 0.0, "name": "b79991a25c6835e9aa05a511c5eea27f", "lon": -77.01774066666667, "is_disabled": 0, "type": "electric_scooter"}, {"bike_id": "a7416977d797253d5095e43b82beb83e", "lat": 38.940828833333335, "is_reserved": 0, "fusion_lat": 0.0, "rental_uris": {"android": "https://dc.lft.to/lastmile_qr_scan", "ios": "https://dc.lft.to/lastmile_qr_scan"}, "fusion_lon": 0.0, "name": "a7416977d797253d5095e43b82beb83e", "lon": -77.02724016666667, "is_disabled": 0, "type": "electric_scooter"}, {"bike_id": "8c8951d672857896f0101080795d3207", "lat": 38.913814, "is_reserved": 0, "fusion_lat": 0.0, "rental_uris": {"android": "https://dc.lft.to/lastmile_qr_scan", "ios": "https://dc.lft.to/lastmile_qr_scan"}, "fusion_lon": 0.0, "name": "8c8951d672857896f0101080795d3207", "lon": -77.032093, "is_disabled": 0, "type": "electric_scooter"}, {"bike_id": "cb67cc45adb97d6d4184ec31c595cf9e", "lat": 38.91704716666667, "is_reserved": 0, "fusion_lat": 0.0, "rental_uris": {"android": "https://dc.lft.to/lastmile_qr_scan", "ios": "https://dc.lft.to/lastmile_qr_scan"}, "fusion_lon": 0.0, "name": "cb67cc45adb97d6d4184ec31c595cf9e", "lon": -77.02413066666666, "is_disabled": 0, "type": "electric_scooter"}, {"bike_id": "7b9c24fa44b0e539fb0036d4c4583a19", "lat": 38.92261416666667, "is_reserved": 0, "fusion_lat": 0.0, "rental_uris": {"android": "https://dc.lft.to/lastmile_qr_scan", "ios": "https://dc.lft.to/lastmile_qr_scan"}, "fusion_lon": 0.0, "name": "7b9c24fa44b0e539fb0036d4c4583a19", "lon": -77.02038766666666, "is_disabled": 0, "type": "electric_scooter"}, {"bike_id": "e5ada57351801d84d35f4277dce6c787", "lat": 38.9125715, "is_reserved": 0, "fusion_lat": 0.0, "rental_uris": {"android": "https://dc.lft.to/lastmile_qr_scan", "ios": "https://dc.lft.to/lastmile_qr_scan"}, "fusion_lon": 0.0, "name": "e5ada57351801d84d35f4277dce6c787", "lon": -77.0380585, "is_disabled": 0, "type": "electric_scooter"}, {"bike_id": "566b01d7e5aea5a691631e55a16f9f22", "lat": 38.9082055, "is_reserved": 0, "fusion_lat": 0.0, "rental_uris": {"android": "https://dc.lft.to/lastmile_qr_scan", "ios": "https://dc.lft.to/lastmile_qr_scan"}, "fusion_lon": 0.0, "name": "566b01d7e5aea5a691631e55a16f9f22", "lon": -76.99711533333334, "is_disabled": 0, "type": "electric_scooter"}, {"bike_id": "b93ff3510e673e97df3a6720a4d2885c", "lat": 39.01370583333333, "is_reserved": 0, "fusion_lat": 0.0, "rental_uris": {"android": "https://dc.lft.to/lastmile_qr_scan", "ios": "https://dc.lft.to/lastmile_qr_scan"}, "fusion_lon": 0.0, "name": "b93ff3510e673e97df3a6720a4d2885c", "lon": -76.92136533333333, "is_disabled": 0, "type": "electric_bike"}, {"bike_id": "b7dbd25428d8b4129775f8d36e0d83cb", "lat": 38.90373183333333, "is_reserved": 0, "fusion_lat": 0.0, "rental_uris": {"android": "https://dc.lft.to/lastmile_qr_scan", "ios": "https://dc.lft.to/lastmile_qr_scan"}, "fusion_lon": 0.0, "name": "b7dbd25428d8b4129775f8d36e0d83cb", "lon": -77.03860716666667, "is_disabled": 0, "type": "electric_scooter"}, {"bike_id": "ad2f021a10174f21f226649550310df4", "lat": 38.91769983333333, "is_reserved": 0, "fusion_lat": 0.0, "rental_uris": {"android": "https://dc.lft.to/lastmile_qr_scan", "ios": "https://dc.lft.to/lastmile_qr_scan"}, "fusion_lon": 0.0, "name": "ad2f021a10174f21f226649550310df4", "lon": -77.02948233333333, "is_disabled": 0, "type": "electric_scooter"}, {"bike_id": "d91529d101f00331a6162bd418760661", "lat": 38.89606466666667, "is_reserved": 0, "fusion_lat": 0.0, "rental_uris": {"android": "https://dc.lft.to/lastmile_qr_scan", "ios": "https://dc.lft.to/lastmile_qr_scan"}, "fusion_lon": 0.0, "name": "d91529d101f00331a6162bd418760661", "lon": -77.00926316666667, "is_disabled": 0, "type": "electric_scooter"}, {"bike_id": "e690f71ef0e3a620c9a949e687ce7a7c", "lat": 38.88540883333334, "is_reserved": 0, "fusion_lat": 0.0, "rental_uris": {"android": "https://dc.lft.to/lastmile_qr_scan", "ios": "https://dc.lft.to/lastmile_qr_scan"}, "fusion_lon": 0.0, "name": "e690f71ef0e3a620c9a949e687ce7a7c", "lon": -77.00583733333333, "is_disabled": 0, "type": "electric_scooter"}, {"bike_id": "75bb0d38215aa8a5a1c97829bdfe07b7", "lat": 38.923951333333335, "is_reserved": 0, "fusion_lat": 0.0, "rental_uris": {"android": "https://dc.lft.to/lastmile_qr_scan", "ios": "https://dc.lft.to/lastmile_qr_scan"}, "fusion_lon": 0.0, "name": "75bb0d38215aa8a5a1c97829bdfe07b7", "lon": -76.993821, "is_disabled": 0, "type": "electric_scooter"}, {"bike_id": "6813c2607317d9c4998e364f559ac6f6", "lat": 38.9235405, "is_reserved": 0, "fusion_lat": 0.0, "rental_uris": {"android": "https://dc.lft.to/lastmile_qr_scan", "ios": "https://dc.lft.to/lastmile_qr_scan"}, "fusion_lon": 0.0, "name": "6813c2607317d9c4998e364f559ac6f6", "lon": -77.04151933333333, "is_disabled": 0, "type": "electric_scooter"}, {"bike_id": "dbab7eee4b3802451b5b7ec4902edde9", "lat": 38.87369783333333, "is_reserved": 0, "fusion_lat": 0.0, "rental_uris": {"android": "https://dc.lft.to/lastmile_qr_scan", "ios": "https://dc.lft.to/lastmile_qr_scan"}, "fusion_lon": 0.0, "name": "dbab7eee4b3802451b5b7ec4902edde9", "lon": -77.0006495, "is_disabled": 0, "type": "electric_scooter"}, {"bike_id": "b611dff1d296cabc40480714321911fc", "lat": 38.885344333333336, "is_reserved": 0, "fusion_lat": 0.0, "rental_uris": {"android": "https://dc.lft.to/lastmile_qr_scan", "ios": "https://dc.lft.to/lastmile_qr_scan"}, "fusion_lon": 0.0, "name": "b611dff1d296cabc40480714321911fc", "lon": -76.998272, "is_disabled": 0, "type": "electric_scooter"}, {"bike_id": "d1f53c26196dcd7718bbf01b9b7dc606", "lat": 38.924866, "is_reserved": 0, "fusion_lat": 0.0, "rental_uris": {"android": "https://dc.lft.to/lastmile_qr_scan", "ios": "https://dc.lft.to/lastmile_qr_scan"}, "fusion_lon": 0.0, "name": "d1f53c26196dcd7718bbf01b9b7dc606", "lon": -77.0213315, "is_disabled": 0, "type": "electric_scooter"}, {"bike_id": "51d17c412daf9ed2c76d282a91bd4d33", "lat": 38.911782333333335, "is_reserved": 0, "fusion_lat": 0.0, "rental_uris": {"android": "https://dc.lft.to/lastmile_qr_scan", "ios": "https://dc.lft.to/lastmile_qr_scan"}, "fusion_lon": 0.0, "name": "51d17c412daf9ed2c76d282a91bd4d33", "lon": -77.012141, "is_disabled": 0, "type": "electric_scooter"}, {"bike_id": "a92c99616c46f4901c7311c5afd45187", "lat": 38.9155345, "is_reserved": 0, "fusion_lat": 0.0, "rental_uris": {"android": "https://dc.lft.to/lastmile_qr_scan", "ios": "https://dc.lft.to/lastmile_qr_scan"}, "fusion_lon": 0.0, "name": "a92c99616c46f4901c7311c5afd45187", "lon": -77.006473, "is_disabled": 0, "type": "electric_scooter"}, {"bike_id": "80238691db8da77c002f76c5adb69648", "lat": 38.9578715, "is_reserved": 0, "fusion_lat": 0.0, "rental_uris": {"android": "https://dc.lft.to/lastmile_qr_scan", "ios": "https://dc.lft.to/lastmile_qr_scan"}, "fusion_lon": 0.0, "name": "80238691db8da77c002f76c5adb69648", "lon": -77.032181, "is_disabled": 0, "type": "electric_scooter"}, {"bike_id": "86a4c473cb9eaa049b3b2478a2d10597", "lat": 38.9238385, "is_reserved": 0, "fusion_lat": 0.0, "rental_uris": {"android": "https://dc.lft.to/lastmile_qr_scan", "ios": "https://dc.lft.to/lastmile_qr_scan"}, "fusion_lon": 0.0, "name": "86a4c473cb9eaa049b3b2478a2d10597", "lon": -77.02980683333334, "is_disabled": 0, "type": "electric_scooter"}, {"bike_id": "d38afa6e222f0219126cbfb6235f1cb2", "lat": 38.92344633333333, "is_reserved": 0, "fusion_lat": 0.0, "rental_uris": {"android": "https://dc.lft.to/lastmile_qr_scan", "ios": "https://dc.lft.to/lastmile_qr_scan"}, "fusion_lon": 0.0, "name": "d38afa6e222f0219126cbfb6235f1cb2", "lon": -77.0512145, "is_disabled": 0, "type": "electric_scooter"}, {"bike_id": "9a8768a375871b23ee2c7c34f34f27de", "lat": 38.900870833333336, "is_reserved": 0, "fusion_lat": 0.0, "rental_uris": {"android": "https://dc.lft.to/lastmile_qr_scan", "ios": "https://dc.lft.to/lastmile_qr_scan"}, "fusion_lon": 0.0, "name": "9a8768a375871b23ee2c7c34f34f27de", "lon": -77.027936, "is_disabled": 0, "type": "electric_scooter"}, {"bike_id": "7a38d8b18cd2475214aeea2a4c0be156", "lat": 38.89335916666667, "is_reserved": 0, "fusion_lat": 0.0, "rental_uris": {"android": "https://dc.lft.to/lastmile_qr_scan", "ios": "https://dc.lft.to/lastmile_qr_scan"}, "fusion_lon": 0.0, "name": "7a38d8b18cd2475214aeea2a4c0be156", "lon": -77.02821966666667, "is_disabled": 0, "type": "electric_bike"}, {"bike_id": "65596506ded8a483037b7a7e61f0e167", "lat": 38.97398283333333, "is_reserved": 0, "fusion_lat": 0.0, "rental_uris": {"android": "https://dc.lft.to/lastmile_qr_scan", "ios": "https://dc.lft.to/lastmile_qr_scan"}, "fusion_lon": 0.0, "name": "65596506ded8a483037b7a7e61f0e167", "lon": -77.06456733333333, "is_disabled": 0, "type": "electric_bike"}, {"bike_id": "7af0a2f7a99fcc39f3f29f08b7621f7d", "lat": 38.91683466666667, "is_reserved": 0, "fusion_lat": 0.0, "rental_uris": {"android": "https://dc.lft.to/lastmile_qr_scan", "ios": "https://dc.lft.to/lastmile_qr_scan"}, "fusion_lon": 0.0, "name": "7af0a2f7a99fcc39f3f29f08b7621f7d", "lon": -77.02963933333334, "is_disabled": 0, "type": "electric_scooter"}, {"bike_id": "58fcca9d3977f2e90c33743312061bbc", "lat": 38.91033266666667, "is_reserved": 0, "fusion_lat": 0.0, "rental_uris": {"android": "https://dc.lft.to/lastmile_qr_scan", "ios": "https://dc.lft.to/lastmile_qr_scan"}, "fusion_lon": 0.0, "name": "58fcca9d3977f2e90c33743312061bbc", "lon": -77.03803283333333, "is_disabled": 0, "type": "electric_scooter"}, {"bike_id": "b4828e1fc1b8e759c123dd31ffb810b1", "lat": 38.916825833333334, "is_reserved": 0, "fusion_lat": 0.0, "rental_uris": {"android": "https://dc.lft.to/lastmile_qr_scan", "ios": "https://dc.lft.to/lastmile_qr_scan"}, "fusion_lon": 0.0, "name": "b4828e1fc1b8e759c123dd31ffb810b1", "lon": -77.0296775, "is_disabled": 0, "type": "electric_scooter"}, {"bike_id": "6b5a509db5ad26b54c285b252e0f3cc0", "lat": 38.911099, "is_reserved": 0, "fusion_lat": 0.0, "rental_uris": {"android": "https://dc.lft.to/lastmile_qr_scan", "ios": "https://dc.lft.to/lastmile_qr_scan"}, "fusion_lon": 0.0, "name": "6b5a509db5ad26b54c285b252e0f3cc0", "lon": -77.04506066666667, "is_disabled": 0, "type": "electric_scooter"}, {"bike_id": "ebeca8f2bd8bad86d77ab7e0eefc994d", "lat": 38.872418, "is_reserved": 0, "fusion_lat": 0.0, "rental_uris": {"android": "https://dc.lft.to/lastmile_qr_scan", "ios": "https://dc.lft.to/lastmile_qr_scan"}, "fusion_lon": 0.0, "name": "ebeca8f2bd8bad86d77ab7e0eefc994d", "lon": -76.97727383333333, "is_disabled": 0, "type": "electric_scooter"}, {"bike_id": "bb8ff23dbdd5f93afd8b747c2877aa14", "lat": 38.89728566666667, "is_reserved": 0, "fusion_lat": 0.0, "rental_uris": {"android": "https://dc.lft.to/lastmile_qr_scan", "ios": "https://dc.lft.to/lastmile_qr_scan"}, "fusion_lon": 0.0, "name": "bb8ff23dbdd5f93afd8b747c2877aa14", "lon": -77.01763383333333, "is_disabled": 0, "type": "electric_scooter"}, {"bike_id": "df35264e9ea3b02b1d8a90ebe7be2152", "lat": 38.93293583333333, "is_reserved": 0, "fusion_lat": 0.0, "rental_uris": {"android": "https://dc.lft.to/lastmile_qr_scan", "ios": "https://dc.lft.to/lastmile_qr_scan"}, "fusion_lon": 0.0, "name": "df35264e9ea3b02b1d8a90ebe7be2152", "lon": -77.08541233333334, "is_disabled": 0, "type": "electric_scooter"}, {"bike_id": "2dd3274921a45d921125864c68da3f77", "lat": 38.8864075, "is_reserved": 0, "fusion_lat": 0.0, "rental_uris": {"android": "https://dc.lft.to/lastmile_qr_scan", "ios": "https://dc.lft.to/lastmile_qr_scan"}, "fusion_lon": 0.0, "name": "2dd3274921a45d921125864c68da3f77", "lon": -77.01370183333333, "is_disabled": 0, "type": "electric_scooter"}, {"bike_id": "0f6ca7e4656596f8fdd8d3b19780a8ed", "lat": 38.887161666666664, "is_reserved": 0, "fusion_lat": 0.0, "rental_uris": {"android": "https://dc.lft.to/lastmile_qr_scan", "ios": "https://dc.lft.to/lastmile_qr_scan"}, "fusion_lon": 0.0, "name": "0f6ca7e4656596f8fdd8d3b19780a8ed", "lon": -76.99631833333333, "is_disabled": 0, "type": "electric_scooter"}, {"bike_id": "e4d23dea304a59e4b01cd660b123a9a8", "lat": 38.8923245, "is_reserved": 0, "fusion_lat": 0.0, "rental_uris": {"android": "https://dc.lft.to/lastmile_qr_scan", "ios": "https://dc.lft.to/lastmile_qr_scan"}, "fusion_lon": 0.0, "name": "e4d23dea304a59e4b01cd660b123a9a8", "lon": -77.04676483333333, "is_disabled": 0, "type": "electric_scooter"}, {"bike_id": "a4317442d180d95c66177b236cdd2bdd", "lat": 38.85812883333333, "is_reserved": 0, "fusion_lat": 0.0, "rental_uris": {"android": "https://dc.lft.to/lastmile_qr_scan", "ios": "https://dc.lft.to/lastmile_qr_scan"}, "fusion_lon": 0.0, "name": "a4317442d180d95c66177b236cdd2bdd", "lon": -76.9892325, "is_disabled": 0, "type": "electric_scooter"}, {"bike_id": "3576cb01ff7ba6a4640f2ab1a0ce8211", "lat": 38.89782833333334, "is_reserved": 0, "fusion_lat": 0.0, "rental_uris": {"android": "https://dc.lft.to/lastmile_qr_scan", "ios": "https://dc.lft.to/lastmile_qr_scan"}, "fusion_lon": 0.0, "name": "3576cb01ff7ba6a4640f2ab1a0ce8211", "lon": -77.03198983333333, "is_disabled": 0, "type": "electric_scooter"}, {"bike_id": "1d047d39681d70942fa7c3a43f73c871", "lat": 38.936818333333335, "is_reserved": 0, "fusion_lat": 0.0, "rental_uris": {"android": "https://dc.lft.to/lastmile_qr_scan", "ios": "https://dc.lft.to/lastmile_qr_scan"}, "fusion_lon": 0.0, "name": "1d047d39681d70942fa7c3a43f73c871", "lon": -77.02436, "is_disabled": 0, "type": "electric_scooter"}, {"bike_id": "a8644b1966b0f2ac8fa07067d4d0ae26", "lat": 38.86682716666667, "is_reserved": 0, "fusion_lat": 0.0, "rental_uris": {"android": "https://dc.lft.to/lastmile_qr_scan", "ios": "https://dc.lft.to/lastmile_qr_scan"}, "fusion_lon": 0.0, "name": "a8644b1966b0f2ac8fa07067d4d0ae26", "lon": -76.98574633333334, "is_disabled": 0, "type": "electric_scooter"}, {"bike_id": "d586cca693ff9704f89e4a6b0874a8c8", "lat": 38.8948875, "is_reserved": 0, "fusion_lat": 0.0, "rental_uris": {"android": "https://dc.lft.to/lastmile_qr_scan", "ios": "https://dc.lft.to/lastmile_qr_scan"}, "fusion_lon": 0.0, "name": "d586cca693ff9704f89e4a6b0874a8c8", "lon": -76.987802, "is_disabled": 0, "type": "electric_scooter"}, {"bike_id": "6847f454964a0ee369084f82cf9433cb", "lat": 38.907911666666664, "is_reserved": 0, "fusion_lat": 0.0, "rental_uris": {"android": "https://dc.lft.to/lastmile_qr_scan", "ios": "https://dc.lft.to/lastmile_qr_scan"}, "fusion_lon": 0.0, "name": "6847f454964a0ee369084f82cf9433cb", "lon": -76.99421733333334, "is_disabled": 0, "type": "electric_scooter"}, {"bike_id": "8814a6f70ae13262e59df1e60a5f3c90", "lat": 38.90585466666667, "is_reserved": 0, "fusion_lat": 0.0, "rental_uris": {"android": "https://dc.lft.to/lastmile_qr_scan", "ios": "https://dc.lft.to/lastmile_qr_scan"}, "fusion_lon": 0.0, "name": "8814a6f70ae13262e59df1e60a5f3c90", "lon": -77.046095, "is_disabled": 0, "type": "electric_scooter"}, {"bike_id": "e91b400c357d1e32eaf9c584e595c8dc", "lat": 38.87071566666667, "is_reserved": 0, "fusion_lat": 0.0, "rental_uris": {"android": "https://dc.lft.to/lastmile_qr_scan", "ios": "https://dc.lft.to/lastmile_qr_scan"}, "fusion_lon": 0.0, "name": "e91b400c357d1e32eaf9c584e595c8dc", "lon": -76.9813535, "is_disabled": 0, "type": "electric_scooter"}, {"bike_id": "87054f82ae73b0fb4384bf5eca95f3ce", "lat": 38.866273666666665, "is_reserved": 0, "fusion_lat": 0.0, "rental_uris": {"android": "https://dc.lft.to/lastmile_qr_scan", "ios": "https://dc.lft.to/lastmile_qr_scan"}, "fusion_lon": 0.0, "name": "87054f82ae73b0fb4384bf5eca95f3ce", "lon": -76.9871945, "is_disabled": 0, "type": "electric_scooter"}, {"bike_id": "8d8c11c55f154ebc4f4b8dfcb9ae6074", "lat": 38.898316666666666, "is_reserved": 0, "fusion_lat": 0.0, "rental_uris": {"android": "https://dc.lft.to/lastmile_qr_scan", "ios": "https://dc.lft.to/lastmile_qr_scan"}, "fusion_lon": 0.0, "name": "8d8c11c55f154ebc4f4b8dfcb9ae6074", "lon": -77.04908383333333, "is_disabled": 0, "type": "electric_scooter"}, {"bike_id": "0089151a6eefd7640c13ec40f35d3a2f", "lat": 38.89692133333333, "is_reserved": 0, "fusion_lat": 0.0, "rental_uris": {"android": "https://dc.lft.to/lastmile_qr_scan", "ios": "https://dc.lft.to/lastmile_qr_scan"}, "fusion_lon": 0.0, "name": "0089151a6eefd7640c13ec40f35d3a2f", "lon": -77.02296916666667, "is_disabled": 0, "type": "electric_scooter"}, {"bike_id": "dfd9778bf4ee9a9eb65e671b3670283a", "lat": 38.9484185, "is_reserved": 0, "fusion_lat": 0.0, "rental_uris": {"android": "https://dc.lft.to/lastmile_qr_scan", "ios": "https://dc.lft.to/lastmile_qr_scan"}, "fusion_lon": 0.0, "name": "dfd9778bf4ee9a9eb65e671b3670283a", "lon": -77.02544483333334, "is_disabled": 0, "type": "electric_scooter"}, {"bike_id": "ed1e6ece860d76722b6fb86f048a7e7c", "lat": 38.94362533333333, "is_reserved": 0, "fusion_lat": 0.0, "rental_uris": {"android": "https://dc.lft.to/lastmile_qr_scan", "ios": "https://dc.lft.to/lastmile_qr_scan"}, "fusion_lon": 0.0, "name": "ed1e6ece860d76722b6fb86f048a7e7c", "lon": -77.00352483333333, "is_disabled": 0, "type": "electric_bike"}, {"bike_id": "33b466960a5221728f6234c3d163535a", "lat": 38.9190995, "is_reserved": 0, "fusion_lat": 0.0, "rental_uris": {"android": "https://dc.lft.to/lastmile_qr_scan", "ios": "https://dc.lft.to/lastmile_qr_scan"}, "fusion_lon": 0.0, "name": "33b466960a5221728f6234c3d163535a", "lon": -77.01365033333333, "is_disabled": 0, "type": "electric_scooter"}, {"bike_id": "22c3ed1003f000f97ea581c42681e3bd", "lat": 38.932746333333334, "is_reserved": 0, "fusion_lat": 0.0, "rental_uris": {"android": "https://dc.lft.to/lastmile_qr_scan", "ios": "https://dc.lft.to/lastmile_qr_scan"}, "fusion_lon": 0.0, "name": "22c3ed1003f000f97ea581c42681e3bd", "lon": -77.03096916666667, "is_disabled": 0, "type": "electric_scooter"}, {"bike_id": "a00a4ee1b043092e6620d9b3c3789340", "lat": 38.9079105, "is_reserved": 0, "fusion_lat": 0.0, "rental_uris": {"android": "https://dc.lft.to/lastmile_qr_scan", "ios": "https://dc.lft.to/lastmile_qr_scan"}, "fusion_lon": 0.0, "name": "a00a4ee1b043092e6620d9b3c3789340", "lon": -76.98035316666666, "is_disabled": 0, "type": "electric_scooter"}, {"bike_id": "21775f24ebf5b261dbd84047aba4afda", "lat": 38.89358333333333, "is_reserved": 0, "fusion_lat": 0.0, "rental_uris": {"android": "https://dc.lft.to/lastmile_qr_scan", "ios": "https://dc.lft.to/lastmile_qr_scan"}, "fusion_lon": 0.0, "name": "21775f24ebf5b261dbd84047aba4afda", "lon": -76.94934633333334, "is_disabled": 0, "type": "electric_scooter"}, {"bike_id": "8c867b58cba374a5b390504d271b0533", "lat": 38.874609, "is_reserved": 0, "fusion_lat": 0.0, "rental_uris": {"android": "https://dc.lft.to/lastmile_qr_scan", "ios": "https://dc.lft.to/lastmile_qr_scan"}, "fusion_lon": 0.0, "name": "8c867b58cba374a5b390504d271b0533", "lon": -77.00938083333334, "is_disabled": 0, "type": "electric_scooter"}, {"bike_id": "680092622f1ca60bb0ce812cf0a8f85c", "lat": 38.84601633333333, "is_reserved": 0, "fusion_lat": 0.0, "rental_uris": {"android": "https://dc.lft.to/lastmile_qr_scan", "ios": "https://dc.lft.to/lastmile_qr_scan"}, "fusion_lon": 0.0, "name": "680092622f1ca60bb0ce812cf0a8f85c", "lon": -77.10857316666667, "is_disabled": 0, "type": "electric_bike"}, {"bike_id": "8811f357ca6f92f850020d231f954b37", "lat": 38.876871, "is_reserved": 0, "fusion_lat": 0.0, "rental_uris": {"android": "https://dc.lft.to/lastmile_qr_scan", "ios": "https://dc.lft.to/lastmile_qr_scan"}, "fusion_lon": 0.0, "name": "8811f357ca6f92f850020d231f954b37", "lon": -77.01760966666667, "is_disabled": 0, "type": "electric_scooter"}, {"bike_id": "a461e7e90138c84feabbbad179b7fc8a", "lat": 38.9261045, "is_reserved": 0, "fusion_lat": 0.0, "rental_uris": {"android": "https://dc.lft.to/lastmile_qr_scan", "ios": "https://dc.lft.to/lastmile_qr_scan"}, "fusion_lon": 0.0, "name": "a461e7e90138c84feabbbad179b7fc8a", "lon": -77.021601, "is_disabled": 0, "type": "electric_scooter"}, {"bike_id": "4d6a3e4b26e0b2c1c150ad2050b3cd72", "lat": 38.91824416666667, "is_reserved": 0, "fusion_lat": 0.0, "rental_uris": {"android": "https://dc.lft.to/lastmile_qr_scan", "ios": "https://dc.lft.to/lastmile_qr_scan"}, "fusion_lon": 0.0, "name": "4d6a3e4b26e0b2c1c150ad2050b3cd72", "lon": -77.024185, "is_disabled": 0, "type": "electric_scooter"}, {"bike_id": "90d7e7f5dfba28874458c31aeea577a0", "lat": 38.9002575, "is_reserved": 0, "fusion_lat": 0.0, "rental_uris": {"android": "https://dc.lft.to/lastmile_qr_scan", "ios": "https://dc.lft.to/lastmile_qr_scan"}, "fusion_lon": 0.0, "name": "90d7e7f5dfba28874458c31aeea577a0", "lon": -77.02412566666666, "is_disabled": 0, "type": "electric_scooter"}, {"bike_id": "a9f6c62638812fe73569088d003da9b0", "lat": 38.90375566666667, "is_reserved": 0, "fusion_lat": 0.0, "rental_uris": {"android": "https://dc.lft.to/lastmile_qr_scan", "ios": "https://dc.lft.to/lastmile_qr_scan"}, "fusion_lon": 0.0, "name": "a9f6c62638812fe73569088d003da9b0", "lon": -77.0451515, "is_disabled": 0, "type": "electric_scooter"}, {"bike_id": "c83936fa07bfc1577bc4a7c942123ae9", "lat": 38.915662, "is_reserved": 0, "fusion_lat": 0.0, "rental_uris": {"android": "https://dc.lft.to/lastmile_qr_scan", "ios": "https://dc.lft.to/lastmile_qr_scan"}, "fusion_lon": 0.0, "name": "c83936fa07bfc1577bc4a7c942123ae9", "lon": -77.020045, "is_disabled": 0, "type": "electric_scooter"}, {"bike_id": "0a1d128818e93af3f9061f8c79918b5f", "lat": 38.905667333333334, "is_reserved": 0, "fusion_lat": 0.0, "rental_uris": {"android": "https://dc.lft.to/lastmile_qr_scan", "ios": "https://dc.lft.to/lastmile_qr_scan"}, "fusion_lon": 0.0, "name": "0a1d128818e93af3f9061f8c79918b5f", "lon": -77.065203, "is_disabled": 0, "type": "electric_scooter"}, {"bike_id": "e8330d00ec37de5377238d0befc747a3", "lat": 38.89327266666667, "is_reserved": 0, "fusion_lat": 0.0, "rental_uris": {"android": "https://dc.lft.to/lastmile_qr_scan", "ios": "https://dc.lft.to/lastmile_qr_scan"}, "fusion_lon": 0.0, "name": "e8330d00ec37de5377238d0befc747a3", "lon": -77.03192183333333, "is_disabled": 0, "type": "electric_scooter"}, {"bike_id": "1e552be7d6be614fc0c499d86e29aa93", "lat": 38.8216805, "is_reserved": 0, "fusion_lat": 0.0, "rental_uris": {"android": "https://dc.lft.to/lastmile_qr_scan", "ios": "https://dc.lft.to/lastmile_qr_scan"}, "fusion_lon": 0.0, "name": "1e552be7d6be614fc0c499d86e29aa93", "lon": -76.9950345, "is_disabled": 0, "type": "electric_bike"}, {"bike_id": "c0973c17730e4817bb8b034b4f37d245", "lat": 38.87173816666667, "is_reserved": 0, "fusion_lat": 0.0, "rental_uris": {"android": "https://dc.lft.to/lastmile_qr_scan", "ios": "https://dc.lft.to/lastmile_qr_scan"}, "fusion_lon": 0.0, "name": "c0973c17730e4817bb8b034b4f37d245", "lon": -77.006806, "is_disabled": 0, "type": "electric_scooter"}, {"bike_id": "f89d921aa6d6d223c062c2cc29f22c00", "lat": 38.8463965, "is_reserved": 0, "fusion_lat": 0.0, "rental_uris": {"android": "https://dc.lft.to/lastmile_qr_scan", "ios": "https://dc.lft.to/lastmile_qr_scan"}, "fusion_lon": 0.0, "name": "f89d921aa6d6d223c062c2cc29f22c00", "lon": -76.9913095, "is_disabled": 0, "type": "electric_scooter"}, {"bike_id": "190afc35aa72ef13761b1a1c40f26cef", "lat": 38.90151316666667, "is_reserved": 0, "fusion_lat": 0.0, "rental_uris": {"android": "https://dc.lft.to/lastmile_qr_scan", "ios": "https://dc.lft.to/lastmile_qr_scan"}, "fusion_lon": 0.0, "name": "190afc35aa72ef13761b1a1c40f26cef", "lon": -77.02957316666667, "is_disabled": 0, "type": "electric_scooter"}, {"bike_id": "870414dc98e22c39d051281f959b9a5c", "lat": 38.9052405, "is_reserved": 0, "fusion_lat": 0.0, "rental_uris": {"android": "https://dc.lft.to/lastmile_qr_scan", "ios": "https://dc.lft.to/lastmile_qr_scan"}, "fusion_lon": 0.0, "name": "870414dc98e22c39d051281f959b9a5c", "lon": -77.04166266666667, "is_disabled": 0, "type": "electric_scooter"}, {"bike_id": "4d88fa90f9cd37a6eb9fc054833b9a95", "lat": 38.918342, "is_reserved": 0, "fusion_lat": 0.0, "rental_uris": {"android": "https://dc.lft.to/lastmile_qr_scan", "ios": "https://dc.lft.to/lastmile_qr_scan"}, "fusion_lon": 0.0, "name": "4d88fa90f9cd37a6eb9fc054833b9a95", "lon": -77.039344, "is_disabled": 0, "type": "electric_scooter"}, {"bike_id": "e9cc14105e866f0d649dbaf3b6d1148d", "lat": 38.916098833333336, "is_reserved": 0, "fusion_lat": 0.0, "rental_uris": {"android": "https://dc.lft.to/lastmile_qr_scan", "ios": "https://dc.lft.to/lastmile_qr_scan"}, "fusion_lon": 0.0, "name": "e9cc14105e866f0d649dbaf3b6d1148d", "lon": -77.01734316666666, "is_disabled": 0, "type": "electric_scooter"}, {"bike_id": "8542789b64d3b23636212644af6e46d1", "lat": 38.9146985, "is_reserved": 0, "fusion_lat": 0.0, "rental_uris": {"android": "https://dc.lft.to/lastmile_qr_scan", "ios": "https://dc.lft.to/lastmile_qr_scan"}, "fusion_lon": 0.0, "name": "8542789b64d3b23636212644af6e46d1", "lon": -76.98115583333333, "is_disabled": 0, "type": "electric_scooter"}, {"bike_id": "f0a1d15f2207eb1c1188e42ffc706760", "lat": 38.886549333333335, "is_reserved": 0, "fusion_lat": 0.0, "rental_uris": {"android": "https://dc.lft.to/lastmile_qr_scan", "ios": "https://dc.lft.to/lastmile_qr_scan"}, "fusion_lon": 0.0, "name": "f0a1d15f2207eb1c1188e42ffc706760", "lon": -77.16233883333334, "is_disabled": 0, "type": "electric_bike"}, {"bike_id": "a26718accf5a8fc2a4aebf77fdc7094e", "lat": 38.92318683333333, "is_reserved": 0, "fusion_lat": 0.0, "rental_uris": {"android": "https://dc.lft.to/lastmile_qr_scan", "ios": "https://dc.lft.to/lastmile_qr_scan"}, "fusion_lon": 0.0, "name": "a26718accf5a8fc2a4aebf77fdc7094e", "lon": -77.04449283333334, "is_disabled": 0, "type": "electric_scooter"}, {"bike_id": "204b76e25831c59b2f5786106a101948", "lat": 38.949950333333334, "is_reserved": 0, "fusion_lat": 0.0, "rental_uris": {"android": "https://dc.lft.to/lastmile_qr_scan", "ios": "https://dc.lft.to/lastmile_qr_scan"}, "fusion_lon": 0.0, "name": "204b76e25831c59b2f5786106a101948", "lon": -77.018301, "is_disabled": 0, "type": "electric_scooter"}, {"bike_id": "123273ba2b7c34d7bf44cd807f0b7caf", "lat": 38.9098055, "is_reserved": 0, "fusion_lat": 0.0, "rental_uris": {"android": "https://dc.lft.to/lastmile_qr_scan", "ios": "https://dc.lft.to/lastmile_qr_scan"}, "fusion_lon": 0.0, "name": "123273ba2b7c34d7bf44cd807f0b7caf", "lon": -76.99504933333333, "is_disabled": 0, "type": "electric_scooter"}, {"bike_id": "a8ab14bbab8b4032da752d31f28dc1db", "lat": 38.876382166666666, "is_reserved": 0, "fusion_lat": 0.0, "rental_uris": {"android": "https://dc.lft.to/lastmile_qr_scan", "ios": "https://dc.lft.to/lastmile_qr_scan"}, "fusion_lon": 0.0, "name": "a8ab14bbab8b4032da752d31f28dc1db", "lon": -77.00438716666666, "is_disabled": 0, "type": "electric_scooter"}, {"bike_id": "8735fa2ac7eb2ad9e657649f87b1648b", "lat": 38.901876, "is_reserved": 0, "fusion_lat": 0.0, "rental_uris": {"android": "https://dc.lft.to/lastmile_qr_scan", "ios": "https://dc.lft.to/lastmile_qr_scan"}, "fusion_lon": 0.0, "name": "8735fa2ac7eb2ad9e657649f87b1648b", "lon": -77.02027666666666, "is_disabled": 0, "type": "electric_scooter"}, {"bike_id": "9990ccf48610eed77c03a079dec9192e", "lat": 38.88343, "is_reserved": 0, "fusion_lat": 0.0, "rental_uris": {"android": "https://dc.lft.to/lastmile_qr_scan", "ios": "https://dc.lft.to/lastmile_qr_scan"}, "fusion_lon": 0.0, "name": "9990ccf48610eed77c03a079dec9192e", "lon": -76.99486433333334, "is_disabled": 0, "type": "electric_scooter"}, {"bike_id": "e6d8cb609e01d5e56bcc0c0a429c8d78", "lat": 38.876227166666666, "is_reserved": 0, "fusion_lat": 0.0, "rental_uris": {"android": "https://dc.lft.to/lastmile_qr_scan", "ios": "https://dc.lft.to/lastmile_qr_scan"}, "fusion_lon": 0.0, "name": "e6d8cb609e01d5e56bcc0c0a429c8d78", "lon": -76.96528666666667, "is_disabled": 0, "type": "electric_scooter"}, {"bike_id": "6fd461f1275f4ce30d2d258c897f2d58", "lat": 38.92667466666666, "is_reserved": 0, "fusion_lat": 0.0, "rental_uris": {"android": "https://dc.lft.to/lastmile_qr_scan", "ios": "https://dc.lft.to/lastmile_qr_scan"}, "fusion_lon": 0.0, "name": "6fd461f1275f4ce30d2d258c897f2d58", "lon": -77.014841, "is_disabled": 0, "type": "electric_scooter"}, {"bike_id": "cf4be6d63504786c6ed7a034a71d52e6", "lat": 38.93156583333333, "is_reserved": 0, "fusion_lat": 0.0, "rental_uris": {"android": "https://dc.lft.to/lastmile_qr_scan", "ios": "https://dc.lft.to/lastmile_qr_scan"}, "fusion_lon": 0.0, "name": "cf4be6d63504786c6ed7a034a71d52e6", "lon": -77.02882116666666, "is_disabled": 0, "type": "electric_scooter"}, {"bike_id": "8d108a7bb50b6dcf3962f2a1a79e8d47", "lat": 38.90613033333333, "is_reserved": 0, "fusion_lat": 0.0, "rental_uris": {"android": "https://dc.lft.to/lastmile_qr_scan", "ios": "https://dc.lft.to/lastmile_qr_scan"}, "fusion_lon": 0.0, "name": "8d108a7bb50b6dcf3962f2a1a79e8d47", "lon": -77.0763975, "is_disabled": 0, "type": "electric_bike"}, {"bike_id": "266f5b095e1ad1b897892b236606d927", "lat": 38.900605166666665, "is_reserved": 0, "fusion_lat": 0.0, "rental_uris": {"android": "https://dc.lft.to/lastmile_qr_scan", "ios": "https://dc.lft.to/lastmile_qr_scan"}, "fusion_lon": 0.0, "name": "266f5b095e1ad1b897892b236606d927", "lon": -76.92740033333334, "is_disabled": 0, "type": "electric_scooter"}, {"bike_id": "0cdbeaa3c275bd49205e85d3a589e2f1", "lat": 38.905088166666665, "is_reserved": 0, "fusion_lat": 0.0, "rental_uris": {"android": "https://dc.lft.to/lastmile_qr_scan", "ios": "https://dc.lft.to/lastmile_qr_scan"}, "fusion_lon": 0.0, "name": "0cdbeaa3c275bd49205e85d3a589e2f1", "lon": -77.04353633333334, "is_disabled": 0, "type": "electric_scooter"}, {"bike_id": "5e13331f2e6a8e768018fffa9ecdbf36", "lat": 38.932001166666666, "is_reserved": 0, "fusion_lat": 0.0, "rental_uris": {"android": "https://dc.lft.to/lastmile_qr_scan", "ios": "https://dc.lft.to/lastmile_qr_scan"}, "fusion_lon": 0.0, "name": "5e13331f2e6a8e768018fffa9ecdbf36", "lon": -77.02401933333333, "is_disabled": 0, "type": "electric_scooter"}, {"bike_id": "b3bb81442819ccdea6b1ab5d99b3d2b2", "lat": 38.886563, "is_reserved": 0, "fusion_lat": 0.0, "rental_uris": {"android": "https://dc.lft.to/lastmile_qr_scan", "ios": "https://dc.lft.to/lastmile_qr_scan"}, "fusion_lon": 0.0, "name": "b3bb81442819ccdea6b1ab5d99b3d2b2", "lon": -77.02827416666666, "is_disabled": 0, "type": "electric_scooter"}, {"bike_id": "a106bf3c35eb02af47004b0f464bc370", "lat": 38.90375366666667, "is_reserved": 0, "fusion_lat": 0.0, "rental_uris": {"android": "https://dc.lft.to/lastmile_qr_scan", "ios": "https://dc.lft.to/lastmile_qr_scan"}, "fusion_lon": 0.0, "name": "a106bf3c35eb02af47004b0f464bc370", "lon": -77.03187866666667, "is_disabled": 0, "type": "electric_scooter"}, {"bike_id": "cc7898da85ef19d9934865b2621c1cd6", "lat": 38.9171525, "is_reserved": 0, "fusion_lat": 0.0, "rental_uris": {"android": "https://dc.lft.to/lastmile_qr_scan", "ios": "https://dc.lft.to/lastmile_qr_scan"}, "fusion_lon": 0.0, "name": "cc7898da85ef19d9934865b2621c1cd6", "lon": -77.0267115, "is_disabled": 0, "type": "electric_scooter"}, {"bike_id": "73d25df584dddb6f5c22e234c04a8440", "lat": 38.80973983333333, "is_reserved": 0, "fusion_lat": 0.0, "rental_uris": {"android": "https://dc.lft.to/lastmile_qr_scan", "ios": "https://dc.lft.to/lastmile_qr_scan"}, "fusion_lon": 0.0, "name": "73d25df584dddb6f5c22e234c04a8440", "lon": -77.0862935, "is_disabled": 0, "type": "electric_bike"}, {"bike_id": "2ff9bd974077f46df6d28d411fb074cb", "lat": 38.897491, "is_reserved": 0, "fusion_lat": 0.0, "rental_uris": {"android": "https://dc.lft.to/lastmile_qr_scan", "ios": "https://dc.lft.to/lastmile_qr_scan"}, "fusion_lon": 0.0, "name": "2ff9bd974077f46df6d28d411fb074cb", "lon": -77.02183616666667, "is_disabled": 0, "type": "electric_scooter"}, {"bike_id": "1c35f94eeede3f847584ce4ffb9daf8e", "lat": 38.95575383333333, "is_reserved": 0, "fusion_lat": 0.0, "rental_uris": {"android": "https://dc.lft.to/lastmile_qr_scan", "ios": "https://dc.lft.to/lastmile_qr_scan"}, "fusion_lon": 0.0, "name": "1c35f94eeede3f847584ce4ffb9daf8e", "lon": -77.08039533333333, "is_disabled": 0, "type": "electric_scooter"}, {"bike_id": "c3c968a7d7023fdd1e3fe51976dd5890", "lat": 38.92145633333333, "is_reserved": 0, "fusion_lat": 0.0, "rental_uris": {"android": "https://dc.lft.to/lastmile_qr_scan", "ios": "https://dc.lft.to/lastmile_qr_scan"}, "fusion_lon": 0.0, "name": "c3c968a7d7023fdd1e3fe51976dd5890", "lon": -77.032296, "is_disabled": 0, "type": "electric_scooter"}, {"bike_id": "fb39171b0cba98465341a0fcdb7d166c", "lat": 38.924152666666664, "is_reserved": 0, "fusion_lat": 0.0, "rental_uris": {"android": "https://dc.lft.to/lastmile_qr_scan", "ios": "https://dc.lft.to/lastmile_qr_scan"}, "fusion_lon": 0.0, "name": "fb39171b0cba98465341a0fcdb7d166c", "lon": -77.02005766666667, "is_disabled": 0, "type": "electric_scooter"}, {"bike_id": "5bc6644c765efd94e27e1b96ab0cc9f6", "lat": 38.92043483333333, "is_reserved": 0, "fusion_lat": 0.0, "rental_uris": {"android": "https://dc.lft.to/lastmile_qr_scan", "ios": "https://dc.lft.to/lastmile_qr_scan"}, "fusion_lon": 0.0, "name": "5bc6644c765efd94e27e1b96ab0cc9f6", "lon": -77.02574866666667, "is_disabled": 0, "type": "electric_scooter"}, {"bike_id": "f3ba9f23caed46d7c508b4ce29856a0a", "lat": 38.91685783333333, "is_reserved": 0, "fusion_lat": 0.0, "rental_uris": {"android": "https://dc.lft.to/lastmile_qr_scan", "ios": "https://dc.lft.to/lastmile_qr_scan"}, "fusion_lon": 0.0, "name": "f3ba9f23caed46d7c508b4ce29856a0a", "lon": -77.023767, "is_disabled": 0, "type": "electric_scooter"}, {"bike_id": "3275ac23303eaebce5ca64fc6f0a1dbf", "lat": 38.922535, "is_reserved": 0, "fusion_lat": 0.0, "rental_uris": {"android": "https://dc.lft.to/lastmile_qr_scan", "ios": "https://dc.lft.to/lastmile_qr_scan"}, "fusion_lon": 0.0, "name": "3275ac23303eaebce5ca64fc6f0a1dbf", "lon": -77.0412495, "is_disabled": 0, "type": "electric_scooter"}, {"bike_id": "2103e6baeebddd4e89130aeb7846db82", "lat": 38.9248445, "is_reserved": 0, "fusion_lat": 0.0, "rental_uris": {"android": "https://dc.lft.to/lastmile_qr_scan", "ios": "https://dc.lft.to/lastmile_qr_scan"}, "fusion_lon": 0.0, "name": "2103e6baeebddd4e89130aeb7846db82", "lon": -77.031854, "is_disabled": 0, "type": "electric_scooter"}, {"bike_id": "644e104e5a4d44a851f9a7c7a8ee1b57", "lat": 38.99312233333333, "is_reserved": 0, "fusion_lat": 0.0, "rental_uris": {"android": "https://dc.lft.to/lastmile_qr_scan", "ios": "https://dc.lft.to/lastmile_qr_scan"}, "fusion_lon": 0.0, "name": "644e104e5a4d44a851f9a7c7a8ee1b57", "lon": -77.023106, "is_disabled": 0, "type": "electric_bike"}, {"bike_id": "af56a4bd039f444cd1fb90949ef3f985", "lat": 38.90467433333333, "is_reserved": 0, "fusion_lat": 0.0, "rental_uris": {"android": "https://dc.lft.to/lastmile_qr_scan", "ios": "https://dc.lft.to/lastmile_qr_scan"}, "fusion_lon": 0.0, "name": "af56a4bd039f444cd1fb90949ef3f985", "lon": -77.04471866666667, "is_disabled": 0, "type": "electric_scooter"}, {"bike_id": "c47603a7acd803fd31f8551a693f217b", "lat": 38.9176065, "is_reserved": 0, "fusion_lat": 0.0, "rental_uris": {"android": "https://dc.lft.to/lastmile_qr_scan", "ios": "https://dc.lft.to/lastmile_qr_scan"}, "fusion_lon": 0.0, "name": "c47603a7acd803fd31f8551a693f217b", "lon": -77.047632, "is_disabled": 0, "type": "electric_scooter"}, {"bike_id": "f8c0d1f81950b54d62029d0d98590b87", "lat": 38.90326816666666, "is_reserved": 0, "fusion_lat": 0.0, "rental_uris": {"android": "https://dc.lft.to/lastmile_qr_scan", "ios": "https://dc.lft.to/lastmile_qr_scan"}, "fusion_lon": 0.0, "name": "f8c0d1f81950b54d62029d0d98590b87", "lon": -76.9912515, "is_disabled": 0, "type": "electric_scooter"}, {"bike_id": "c2f2c77c1b94a6484a25ec18239fed68", "lat": 38.902051166666666, "is_reserved": 0, "fusion_lat": 0.0, "rental_uris": {"android": "https://dc.lft.to/lastmile_qr_scan", "ios": "https://dc.lft.to/lastmile_qr_scan"}, "fusion_lon": 0.0, "name": "c2f2c77c1b94a6484a25ec18239fed68", "lon": -77.02368783333333, "is_disabled": 0, "type": "electric_scooter"}, {"bike_id": "d0edd9c2e1b05a2236a9d7d3ae17980a", "lat": 38.935232, "is_reserved": 0, "fusion_lat": 0.0, "rental_uris": {"android": "https://dc.lft.to/lastmile_qr_scan", "ios": "https://dc.lft.to/lastmile_qr_scan"}, "fusion_lon": 0.0, "name": "d0edd9c2e1b05a2236a9d7d3ae17980a", "lon": -76.96443733333334, "is_disabled": 0, "type": "electric_bike"}, {"bike_id": "e1bb824847749a90ccd3a5b6bd3da04b", "lat": 38.863732166666665, "is_reserved": 0, "fusion_lat": 0.0, "rental_uris": {"android": "https://dc.lft.to/lastmile_qr_scan", "ios": "https://dc.lft.to/lastmile_qr_scan"}, "fusion_lon": 0.0, "name": "e1bb824847749a90ccd3a5b6bd3da04b", "lon": -76.99061816666666, "is_disabled": 0, "type": "electric_scooter"}, {"bike_id": "1cfc78602cd1ad09261cdee392cd0de3", "lat": 38.892234, "is_reserved": 0, "fusion_lat": 0.0, "rental_uris": {"android": "https://dc.lft.to/lastmile_qr_scan", "ios": "https://dc.lft.to/lastmile_qr_scan"}, "fusion_lon": 0.0, "name": "1cfc78602cd1ad09261cdee392cd0de3", "lon": -77.030256, "is_disabled": 0, "type": "electric_scooter"}, {"bike_id": "6c9b6e31a0e3c823e9afbdfbc6e8c5ce", "lat": 38.88656683333333, "is_reserved": 0, "fusion_lat": 0.0, "rental_uris": {"android": "https://dc.lft.to/lastmile_qr_scan", "ios": "https://dc.lft.to/lastmile_qr_scan"}, "fusion_lon": 0.0, "name": "6c9b6e31a0e3c823e9afbdfbc6e8c5ce", "lon": -77.028335, "is_disabled": 0, "type": "electric_scooter"}, {"bike_id": "5f7273e62ed57abecda6fc3486aad785", "lat": 38.915542, "is_reserved": 0, "fusion_lat": 0.0, "rental_uris": {"android": "https://dc.lft.to/lastmile_qr_scan", "ios": "https://dc.lft.to/lastmile_qr_scan"}, "fusion_lon": 0.0, "name": "5f7273e62ed57abecda6fc3486aad785", "lon": -77.02427883333333, "is_disabled": 0, "type": "electric_scooter"}, {"bike_id": "1729b61e05b718c6a68fd74f626e885d", "lat": 38.9482625, "is_reserved": 0, "fusion_lat": 0.0, "rental_uris": {"android": "https://dc.lft.to/lastmile_qr_scan", "ios": "https://dc.lft.to/lastmile_qr_scan"}, "fusion_lon": 0.0, "name": "1729b61e05b718c6a68fd74f626e885d", "lon": -77.02550733333334, "is_disabled": 0, "type": "electric_scooter"}, {"bike_id": "338c626c85ffce924542e8fefce025b7", "lat": 38.901727666666666, "is_reserved": 0, "fusion_lat": 0.0, "rental_uris": {"android": "https://dc.lft.to/lastmile_qr_scan", "ios": "https://dc.lft.to/lastmile_qr_scan"}, "fusion_lon": 0.0, "name": "338c626c85ffce924542e8fefce025b7", "lon": -77.02489083333333, "is_disabled": 0, "type": "electric_scooter"}, {"bike_id": "704b9c85e373a17e24615c0454ce6232", "lat": 38.925794833333335, "is_reserved": 0, "fusion_lat": 0.0, "rental_uris": {"android": "https://dc.lft.to/lastmile_qr_scan", "ios": "https://dc.lft.to/lastmile_qr_scan"}, "fusion_lon": 0.0, "name": "704b9c85e373a17e24615c0454ce6232", "lon": -77.02884516666667, "is_disabled": 0, "type": "electric_scooter"}, {"bike_id": "0130e949e56b63a2e8d09eb91c621177", "lat": 38.886862666666666, "is_reserved": 0, "fusion_lat": 0.0, "rental_uris": {"android": "https://dc.lft.to/lastmile_qr_scan", "ios": "https://dc.lft.to/lastmile_qr_scan"}, "fusion_lon": 0.0, "name": "0130e949e56b63a2e8d09eb91c621177", "lon": -76.97637166666667, "is_disabled": 0, "type": "electric_scooter"}, {"bike_id": "f43b3a7682439a2177253a23f5b763a0", "lat": 38.91849916666666, "is_reserved": 0, "fusion_lat": 0.0, "rental_uris": {"android": "https://dc.lft.to/lastmile_qr_scan", "ios": "https://dc.lft.to/lastmile_qr_scan"}, "fusion_lon": 0.0, "name": "f43b3a7682439a2177253a23f5b763a0", "lon": -77.03216733333333, "is_disabled": 0, "type": "electric_scooter"}, {"bike_id": "c2f7dfcd5dc3e47b7f11897087a1e396", "lat": 38.90632466666667, "is_reserved": 0, "fusion_lat": 0.0, "rental_uris": {"android": "https://dc.lft.to/lastmile_qr_scan", "ios": "https://dc.lft.to/lastmile_qr_scan"}, "fusion_lon": 0.0, "name": "c2f7dfcd5dc3e47b7f11897087a1e396", "lon": -77.0386555, "is_disabled": 0, "type": "electric_scooter"}, {"bike_id": "d88b408a121fcaf1bbe58f13be4778f0", "lat": 38.920264833333334, "is_reserved": 0, "fusion_lat": 0.0, "rental_uris": {"android": "https://dc.lft.to/lastmile_qr_scan", "ios": "https://dc.lft.to/lastmile_qr_scan"}, "fusion_lon": 0.0, "name": "d88b408a121fcaf1bbe58f13be4778f0", "lon": -77.07154833333334, "is_disabled": 0, "type": "electric_scooter"}, {"bike_id": "b21b377576a645357b96dad9c3715247", "lat": 38.937282833333335, "is_reserved": 0, "fusion_lat": 0.0, "rental_uris": {"android": "https://dc.lft.to/lastmile_qr_scan", "ios": "https://dc.lft.to/lastmile_qr_scan"}, "fusion_lon": 0.0, "name": "b21b377576a645357b96dad9c3715247", "lon": -77.03261816666667, "is_disabled": 0, "type": "electric_scooter"}, {"bike_id": "768d77928546f44da5680a03fc8330e8", "lat": 38.899462166666666, "is_reserved": 0, "fusion_lat": 0.0, "rental_uris": {"android": "https://dc.lft.to/lastmile_qr_scan", "ios": "https://dc.lft.to/lastmile_qr_scan"}, "fusion_lon": 0.0, "name": "768d77928546f44da5680a03fc8330e8", "lon": -77.01450016666666, "is_disabled": 0, "type": "electric_scooter"}, {"bike_id": "d0a91fe67c640e735b99659e32a8e4e9", "lat": 38.906514, "is_reserved": 0, "fusion_lat": 0.0, "rental_uris": {"android": "https://dc.lft.to/lastmile_qr_scan", "ios": "https://dc.lft.to/lastmile_qr_scan"}, "fusion_lon": 0.0, "name": "d0a91fe67c640e735b99659e32a8e4e9", "lon": -77.0095815, "is_disabled": 0, "type": "electric_scooter"}, {"bike_id": "f82dcc2565e1718823bb63b115ede6eb", "lat": 38.89850416666667, "is_reserved": 0, "fusion_lat": 0.0, "rental_uris": {"android": "https://dc.lft.to/lastmile_qr_scan", "ios": "https://dc.lft.to/lastmile_qr_scan"}, "fusion_lon": 0.0, "name": "f82dcc2565e1718823bb63b115ede6eb", "lon": -77.028776, "is_disabled": 0, "type": "electric_scooter"}, {"bike_id": "74710ebd7ff0564762a33834516664e7", "lat": 38.9869725, "is_reserved": 0, "fusion_lat": 0.0, "rental_uris": {"android": "https://dc.lft.to/lastmile_qr_scan", "ios": "https://dc.lft.to/lastmile_qr_scan"}, "fusion_lon": 0.0, "name": "74710ebd7ff0564762a33834516664e7", "lon": -77.02982966666667, "is_disabled": 0, "type": "electric_scooter"}, {"bike_id": "f539f518f925cd3a8d9e44f6da9e12e7", "lat": 38.887522, "is_reserved": 0, "fusion_lat": 0.0, "rental_uris": {"android": "https://dc.lft.to/lastmile_qr_scan", "ios": "https://dc.lft.to/lastmile_qr_scan"}, "fusion_lon": 0.0, "name": "f539f518f925cd3a8d9e44f6da9e12e7", "lon": -77.02184633333333, "is_disabled": 0, "type": "electric_scooter"}, {"bike_id": "eaab0cec51a1e1e6afd8e142dbf57502", "lat": 38.91009616666667, "is_reserved": 0, "fusion_lat": 0.0, "rental_uris": {"android": "https://dc.lft.to/lastmile_qr_scan", "ios": "https://dc.lft.to/lastmile_qr_scan"}, "fusion_lon": 0.0, "name": "eaab0cec51a1e1e6afd8e142dbf57502", "lon": -77.02844383333333, "is_disabled": 0, "type": "electric_scooter"}, {"bike_id": "d2007f5d2300fdd48359771d1e1eb5f8", "lat": 38.932436833333334, "is_reserved": 0, "fusion_lat": 0.0, "rental_uris": {"android": "https://dc.lft.to/lastmile_qr_scan", "ios": "https://dc.lft.to/lastmile_qr_scan"}, "fusion_lon": 0.0, "name": "d2007f5d2300fdd48359771d1e1eb5f8", "lon": -76.995122, "is_disabled": 0, "type": "electric_scooter"}, {"bike_id": "14fdb8398ac72bf1ef176617b6486327", "lat": 38.897176333333334, "is_reserved": 0, "fusion_lat": 0.0, "rental_uris": {"android": "https://dc.lft.to/lastmile_qr_scan", "ios": "https://dc.lft.to/lastmile_qr_scan"}, "fusion_lon": 0.0, "name": "14fdb8398ac72bf1ef176617b6486327", "lon": -77.02160283333333, "is_disabled": 0, "type": "electric_scooter"}, {"bike_id": "40d54c200c17cd4e17da6df616c39509", "lat": 38.9038845, "is_reserved": 0, "fusion_lat": 0.0, "rental_uris": {"android": "https://dc.lft.to/lastmile_qr_scan", "ios": "https://dc.lft.to/lastmile_qr_scan"}, "fusion_lon": 0.0, "name": "40d54c200c17cd4e17da6df616c39509", "lon": -77.046017, "is_disabled": 0, "type": "electric_scooter"}, {"bike_id": "5ff2c81e42f0fa4b6b71f2c34af103a9", "lat": 38.8317045, "is_reserved": 0, "fusion_lat": 0.0, "rental_uris": {"android": "https://dc.lft.to/lastmile_qr_scan", "ios": "https://dc.lft.to/lastmile_qr_scan"}, "fusion_lon": 0.0, "name": "5ff2c81e42f0fa4b6b71f2c34af103a9", "lon": -77.00801816666667, "is_disabled": 0, "type": "electric_scooter"}, {"bike_id": "91f3ef4ceff33b07f981df04893dfcf6", "lat": 38.91697216666667, "is_reserved": 0, "fusion_lat": 0.0, "rental_uris": {"android": "https://dc.lft.to/lastmile_qr_scan", "ios": "https://dc.lft.to/lastmile_qr_scan"}, "fusion_lon": 0.0, "name": "91f3ef4ceff33b07f981df04893dfcf6", "lon": -77.00814783333334, "is_disabled": 0, "type": "electric_scooter"}, {"bike_id": "7d6d6e6095d9286613353199325b2dc1", "lat": 38.896075, "is_reserved": 0, "fusion_lat": 0.0, "rental_uris": {"android": "https://dc.lft.to/lastmile_qr_scan", "ios": "https://dc.lft.to/lastmile_qr_scan"}, "fusion_lon": 0.0, "name": "7d6d6e6095d9286613353199325b2dc1", "lon": -77.02366416666666, "is_disabled": 0, "type": "electric_scooter"}, {"bike_id": "dc5a5a33509fd3594c7aed256c39f82a", "lat": 38.92521816666667, "is_reserved": 0, "fusion_lat": 0.0, "rental_uris": {"android": "https://dc.lft.to/lastmile_qr_scan", "ios": "https://dc.lft.to/lastmile_qr_scan"}, "fusion_lon": 0.0, "name": "dc5a5a33509fd3594c7aed256c39f82a", "lon": -77.04116683333334, "is_disabled": 0, "type": "electric_scooter"}, {"bike_id": "b95f42be79e068929cd14c175c64939a", "lat": 38.90399633333333, "is_reserved": 0, "fusion_lat": 0.0, "rental_uris": {"android": "https://dc.lft.to/lastmile_qr_scan", "ios": "https://dc.lft.to/lastmile_qr_scan"}, "fusion_lon": 0.0, "name": "b95f42be79e068929cd14c175c64939a", "lon": -77.0385475, "is_disabled": 0, "type": "electric_scooter"}, {"bike_id": "72e0c14909f869a3e3993d8e86b42561", "lat": 38.91926, "is_reserved": 0, "fusion_lat": 0.0, "rental_uris": {"android": "https://dc.lft.to/lastmile_qr_scan", "ios": "https://dc.lft.to/lastmile_qr_scan"}, "fusion_lon": 0.0, "name": "72e0c14909f869a3e3993d8e86b42561", "lon": -77.0319775, "is_disabled": 0, "type": "electric_scooter"}, {"bike_id": "6e8153ad466285fbcf8712e38537f94c", "lat": 38.91815716666667, "is_reserved": 0, "fusion_lat": 0.0, "rental_uris": {"android": "https://dc.lft.to/lastmile_qr_scan", "ios": "https://dc.lft.to/lastmile_qr_scan"}, "fusion_lon": 0.0, "name": "6e8153ad466285fbcf8712e38537f94c", "lon": -77.02473566666667, "is_disabled": 0, "type": "electric_scooter"}, {"bike_id": "862e30ed46c0e00b09f3a0635e7c5128", "lat": 38.915433, "is_reserved": 0, "fusion_lat": 0.0, "rental_uris": {"android": "https://dc.lft.to/lastmile_qr_scan", "ios": "https://dc.lft.to/lastmile_qr_scan"}, "fusion_lon": 0.0, "name": "862e30ed46c0e00b09f3a0635e7c5128", "lon": -77.03646016666667, "is_disabled": 0, "type": "electric_scooter"}, {"bike_id": "0bab6999de5976f558cd642404cf74a0", "lat": 38.91482666666667, "is_reserved": 0, "fusion_lat": 0.0, "rental_uris": {"android": "https://dc.lft.to/lastmile_qr_scan", "ios": "https://dc.lft.to/lastmile_qr_scan"}, "fusion_lon": 0.0, "name": "0bab6999de5976f558cd642404cf74a0", "lon": -77.02584183333333, "is_disabled": 0, "type": "electric_scooter"}, {"bike_id": "f9570ec02fa5eb5e61244aff88c678cd", "lat": 38.89746233333334, "is_reserved": 0, "fusion_lat": 0.0, "rental_uris": {"android": "https://dc.lft.to/lastmile_qr_scan", "ios": "https://dc.lft.to/lastmile_qr_scan"}, "fusion_lon": 0.0, "name": "f9570ec02fa5eb5e61244aff88c678cd", "lon": -76.941895, "is_disabled": 0, "type": "electric_scooter"}, {"bike_id": "4d89f47747528291277cedddc5cadd20", "lat": 38.93098033333333, "is_reserved": 0, "fusion_lat": 0.0, "rental_uris": {"android": "https://dc.lft.to/lastmile_qr_scan", "ios": "https://dc.lft.to/lastmile_qr_scan"}, "fusion_lon": 0.0, "name": "4d89f47747528291277cedddc5cadd20", "lon": -77.02661866666666, "is_disabled": 0, "type": "electric_scooter"}, {"bike_id": "601bc6ed39cfa719736ab55b19043f03", "lat": 38.899444333333335, "is_reserved": 0, "fusion_lat": 0.0, "rental_uris": {"android": "https://dc.lft.to/lastmile_qr_scan", "ios": "https://dc.lft.to/lastmile_qr_scan"}, "fusion_lon": 0.0, "name": "601bc6ed39cfa719736ab55b19043f03", "lon": -77.04492666666667, "is_disabled": 0, "type": "electric_scooter"}, {"bike_id": "4cfe7216323b6099ddf7dc1f8296f048", "lat": 38.883545166666664, "is_reserved": 0, "fusion_lat": 0.0, "rental_uris": {"android": "https://dc.lft.to/lastmile_qr_scan", "ios": "https://dc.lft.to/lastmile_qr_scan"}, "fusion_lon": 0.0, "name": "4cfe7216323b6099ddf7dc1f8296f048", "lon": -76.99493216666667, "is_disabled": 0, "type": "electric_bike"}, {"bike_id": "9eaf29c8feb412e70a32b5dd81f61f28", "lat": 38.91643883333333, "is_reserved": 0, "fusion_lat": 0.0, "rental_uris": {"android": "https://dc.lft.to/lastmile_qr_scan", "ios": "https://dc.lft.to/lastmile_qr_scan"}, "fusion_lon": 0.0, "name": "9eaf29c8feb412e70a32b5dd81f61f28", "lon": -77.032122, "is_disabled": 0, "type": "electric_scooter"}, {"bike_id": "6b6ca5efa22dd3b98c6ff74d5a1433bf", "lat": 38.912825166666664, "is_reserved": 0, "fusion_lat": 0.0, "rental_uris": {"android": "https://dc.lft.to/lastmile_qr_scan", "ios": "https://dc.lft.to/lastmile_qr_scan"}, "fusion_lon": 0.0, "name": "6b6ca5efa22dd3b98c6ff74d5a1433bf", "lon": -77.06113266666667, "is_disabled": 0, "type": "electric_scooter"}, {"bike_id": "da01bf8227700e13c1e95f718c8e1b5f", "lat": 38.920662166666666, "is_reserved": 0, "fusion_lat": 0.0, "rental_uris": {"android": "https://dc.lft.to/lastmile_qr_scan", "ios": "https://dc.lft.to/lastmile_qr_scan"}, "fusion_lon": 0.0, "name": "da01bf8227700e13c1e95f718c8e1b5f", "lon": -76.8907105, "is_disabled": 0, "type": "electric_bike"}, {"bike_id": "5d83d82560cad77f06ede17ba62777ea", "lat": 38.90821433333333, "is_reserved": 0, "fusion_lat": 0.0, "rental_uris": {"android": "https://dc.lft.to/lastmile_qr_scan", "ios": "https://dc.lft.to/lastmile_qr_scan"}, "fusion_lon": 0.0, "name": "5d83d82560cad77f06ede17ba62777ea", "lon": -77.03836883333334, "is_disabled": 0, "type": "electric_scooter"}, {"bike_id": "0a02f66d29ab98468205cf5c505d1f4e", "lat": 38.91993266666667, "is_reserved": 0, "fusion_lat": 0.0, "rental_uris": {"android": "https://dc.lft.to/lastmile_qr_scan", "ios": "https://dc.lft.to/lastmile_qr_scan"}, "fusion_lon": 0.0, "name": "0a02f66d29ab98468205cf5c505d1f4e", "lon": -77.03251866666666, "is_disabled": 0, "type": "electric_scooter"}, {"bike_id": "0c342b700f896fa90516c8241ad5ff72", "lat": 38.862488, "is_reserved": 0, "fusion_lat": 0.0, "rental_uris": {"android": "https://dc.lft.to/lastmile_qr_scan", "ios": "https://dc.lft.to/lastmile_qr_scan"}, "fusion_lon": 0.0, "name": "0c342b700f896fa90516c8241ad5ff72", "lon": -76.9950185, "is_disabled": 0, "type": "electric_scooter"}, {"bike_id": "40d8fcfb400b4893965f59ceefec2f07", "lat": 38.902561, "is_reserved": 0, "fusion_lat": 0.0, "rental_uris": {"android": "https://dc.lft.to/lastmile_qr_scan", "ios": "https://dc.lft.to/lastmile_qr_scan"}, "fusion_lon": 0.0, "name": "40d8fcfb400b4893965f59ceefec2f07", "lon": -77.00821683333334, "is_disabled": 0, "type": "electric_scooter"}, {"bike_id": "d73e9dfa4fd353b8e73d01fd1ae977cb", "lat": 38.9111085, "is_reserved": 0, "fusion_lat": 0.0, "rental_uris": {"android": "https://dc.lft.to/lastmile_qr_scan", "ios": "https://dc.lft.to/lastmile_qr_scan"}, "fusion_lon": 0.0, "name": "d73e9dfa4fd353b8e73d01fd1ae977cb", "lon": -77.04357333333333, "is_disabled": 0, "type": "electric_scooter"}, {"bike_id": "312342fe4a77e024216081280e381d33", "lat": 38.85757383333333, "is_reserved": 0, "fusion_lat": 0.0, "rental_uris": {"android": "https://dc.lft.to/lastmile_qr_scan", "ios": "https://dc.lft.to/lastmile_qr_scan"}, "fusion_lon": 0.0, "name": "312342fe4a77e024216081280e381d33", "lon": -76.98757266666667, "is_disabled": 0, "type": "electric_bike"}, {"bike_id": "67c1da754073a5f9c01dd977d8875645", "lat": 38.93353116666667, "is_reserved": 0, "fusion_lat": 0.0, "rental_uris": {"android": "https://dc.lft.to/lastmile_qr_scan", "ios": "https://dc.lft.to/lastmile_qr_scan"}, "fusion_lon": 0.0, "name": "67c1da754073a5f9c01dd977d8875645", "lon": -77.04119366666667, "is_disabled": 0, "type": "electric_scooter"}, {"bike_id": "3f3fca04e1910564b71aca78662d69c4", "lat": 38.920251, "is_reserved": 0, "fusion_lat": 0.0, "rental_uris": {"android": "https://dc.lft.to/lastmile_qr_scan", "ios": "https://dc.lft.to/lastmile_qr_scan"}, "fusion_lon": 0.0, "name": "3f3fca04e1910564b71aca78662d69c4", "lon": -77.04195166666666, "is_disabled": 0, "type": "electric_scooter"}, {"bike_id": "9af8bc0f5afba4f6e67b06d9b5a5f9e8", "lat": 38.86685033333333, "is_reserved": 0, "fusion_lat": 0.0, "rental_uris": {"android": "https://dc.lft.to/lastmile_qr_scan", "ios": "https://dc.lft.to/lastmile_qr_scan"}, "fusion_lon": 0.0, "name": "9af8bc0f5afba4f6e67b06d9b5a5f9e8", "lon": -76.9857495, "is_disabled": 0, "type": "electric_scooter"}, {"bike_id": "609e008fb9e73f81457cbea46da3d430", "lat": 38.862485166666666, "is_reserved": 0, "fusion_lat": 0.0, "rental_uris": {"android": "https://dc.lft.to/lastmile_qr_scan", "ios": "https://dc.lft.to/lastmile_qr_scan"}, "fusion_lon": 0.0, "name": "609e008fb9e73f81457cbea46da3d430", "lon": -76.99506783333334, "is_disabled": 0, "type": "electric_scooter"}, {"bike_id": "afa3c7d049badb07adf6e7347bc7ff5e", "lat": 38.948320333333335, "is_reserved": 0, "fusion_lat": 0.0, "rental_uris": {"android": "https://dc.lft.to/lastmile_qr_scan", "ios": "https://dc.lft.to/lastmile_qr_scan"}, "fusion_lon": 0.0, "name": "afa3c7d049badb07adf6e7347bc7ff5e", "lon": -77.0390255, "is_disabled": 0, "type": "electric_bike"}, {"bike_id": "5eab6045f072eea988422f48e31c04d8", "lat": 38.916673833333334, "is_reserved": 0, "fusion_lat": 0.0, "rental_uris": {"android": "https://dc.lft.to/lastmile_qr_scan", "ios": "https://dc.lft.to/lastmile_qr_scan"}, "fusion_lon": 0.0, "name": "5eab6045f072eea988422f48e31c04d8", "lon": -77.02383683333333, "is_disabled": 0, "type": "electric_scooter"}, {"bike_id": "74226bfc142c5a38953dc3827dd2e482", "lat": 38.90281233333333, "is_reserved": 0, "fusion_lat": 0.0, "rental_uris": {"android": "https://dc.lft.to/lastmile_qr_scan", "ios": "https://dc.lft.to/lastmile_qr_scan"}, "fusion_lon": 0.0, "name": "74226bfc142c5a38953dc3827dd2e482", "lon": -77.03874033333334, "is_disabled": 0, "type": "electric_scooter"}, {"bike_id": "af778ecbaee26816b18357045d612f85", "lat": 38.9318495, "is_reserved": 0, "fusion_lat": 0.0, "rental_uris": {"android": "https://dc.lft.to/lastmile_qr_scan", "ios": "https://dc.lft.to/lastmile_qr_scan"}, "fusion_lon": 0.0, "name": "af778ecbaee26816b18357045d612f85", "lon": -77.02674516666667, "is_disabled": 0, "type": "electric_scooter"}, {"bike_id": "e44c4f5f24d39019781755c68135ad8c", "lat": 38.800194, "is_reserved": 0, "fusion_lat": 0.0, "rental_uris": {"android": "https://dc.lft.to/lastmile_qr_scan", "ios": "https://dc.lft.to/lastmile_qr_scan"}, "fusion_lon": 0.0, "name": "e44c4f5f24d39019781755c68135ad8c", "lon": -77.06339816666667, "is_disabled": 0, "type": "electric_bike"}, {"bike_id": "20c11215150cfa7bcd07e975426f9025", "lat": 38.92382683333334, "is_reserved": 0, "fusion_lat": 0.0, "rental_uris": {"android": "https://dc.lft.to/lastmile_qr_scan", "ios": "https://dc.lft.to/lastmile_qr_scan"}, "fusion_lon": 0.0, "name": "20c11215150cfa7bcd07e975426f9025", "lon": -77.03648116666666, "is_disabled": 0, "type": "electric_scooter"}, {"bike_id": "0c87b73eebed345a0dc4d73ae148bf11", "lat": 38.92877766666667, "is_reserved": 0, "fusion_lat": 0.0, "rental_uris": {"android": "https://dc.lft.to/lastmile_qr_scan", "ios": "https://dc.lft.to/lastmile_qr_scan"}, "fusion_lon": 0.0, "name": "0c87b73eebed345a0dc4d73ae148bf11", "lon": -77.01839766666667, "is_disabled": 0, "type": "electric_scooter"}, {"bike_id": "74684854081ec0547f18eddeccea40ed", "lat": 38.918139833333335, "is_reserved": 0, "fusion_lat": 0.0, "rental_uris": {"android": "https://dc.lft.to/lastmile_qr_scan", "ios": "https://dc.lft.to/lastmile_qr_scan"}, "fusion_lon": 0.0, "name": "74684854081ec0547f18eddeccea40ed", "lon": -77.02474016666666, "is_disabled": 0, "type": "electric_scooter"}, {"bike_id": "e50c3a8639d34f73c1adb077d69bd766", "lat": 38.927290666666664, "is_reserved": 0, "fusion_lat": 0.0, "rental_uris": {"android": "https://dc.lft.to/lastmile_qr_scan", "ios": "https://dc.lft.to/lastmile_qr_scan"}, "fusion_lon": 0.0, "name": "e50c3a8639d34f73c1adb077d69bd766", "lon": -77.02977733333333, "is_disabled": 0, "type": "electric_scooter"}, {"bike_id": "a26dc24cc3f6c65cc1e7414b0e82eb8f", "lat": 38.90163116666667, "is_reserved": 0, "fusion_lat": 0.0, "rental_uris": {"android": "https://dc.lft.to/lastmile_qr_scan", "ios": "https://dc.lft.to/lastmile_qr_scan"}, "fusion_lon": 0.0, "name": "a26dc24cc3f6c65cc1e7414b0e82eb8f", "lon": -77.04062483333334, "is_disabled": 0, "type": "electric_scooter"}, {"bike_id": "91682c9a2f81eba737c983370dd8d94c", "lat": 38.92426283333333, "is_reserved": 0, "fusion_lat": 0.0, "rental_uris": {"android": "https://dc.lft.to/lastmile_qr_scan", "ios": "https://dc.lft.to/lastmile_qr_scan"}, "fusion_lon": 0.0, "name": "91682c9a2f81eba737c983370dd8d94c", "lon": -77.051807, "is_disabled": 0, "type": "electric_scooter"}, {"bike_id": "c85c71e58fca3e1fec729ac1dc240dfd", "lat": 38.91608033333333, "is_reserved": 0, "fusion_lat": 0.0, "rental_uris": {"android": "https://dc.lft.to/lastmile_qr_scan", "ios": "https://dc.lft.to/lastmile_qr_scan"}, "fusion_lon": 0.0, "name": "c85c71e58fca3e1fec729ac1dc240dfd", "lon": -77.03390733333333, "is_disabled": 0, "type": "electric_scooter"}, {"bike_id": "d146f627ddc55e8a3d2e96e5d5599629", "lat": 38.90717933333333, "is_reserved": 0, "fusion_lat": 0.0, "rental_uris": {"android": "https://dc.lft.to/lastmile_qr_scan", "ios": "https://dc.lft.to/lastmile_qr_scan"}, "fusion_lon": 0.0, "name": "d146f627ddc55e8a3d2e96e5d5599629", "lon": -77.01929616666666, "is_disabled": 0, "type": "electric_scooter"}, {"bike_id": "57f3f3cb42e61361f3ca0c85c342e0bc", "lat": 38.88747333333333, "is_reserved": 0, "fusion_lat": 0.0, "rental_uris": {"android": "https://dc.lft.to/lastmile_qr_scan", "ios": "https://dc.lft.to/lastmile_qr_scan"}, "fusion_lon": 0.0, "name": "57f3f3cb42e61361f3ca0c85c342e0bc", "lon": -77.02568733333334, "is_disabled": 0, "type": "electric_scooter"}, {"bike_id": "dc27ba691d28278966084b3126cebb63", "lat": 38.8962375, "is_reserved": 0, "fusion_lat": 0.0, "rental_uris": {"android": "https://dc.lft.to/lastmile_qr_scan", "ios": "https://dc.lft.to/lastmile_qr_scan"}, "fusion_lon": 0.0, "name": "dc27ba691d28278966084b3126cebb63", "lon": -77.02201716666667, "is_disabled": 0, "type": "electric_scooter"}, {"bike_id": "98614af6cd1566232fd311390e16c5e0", "lat": 38.89226983333333, "is_reserved": 0, "fusion_lat": 0.0, "rental_uris": {"android": "https://dc.lft.to/lastmile_qr_scan", "ios": "https://dc.lft.to/lastmile_qr_scan"}, "fusion_lon": 0.0, "name": "98614af6cd1566232fd311390e16c5e0", "lon": -77.0137795, "is_disabled": 0, "type": "electric_scooter"}, {"bike_id": "ae6876066d0e0539fbd3df096598eeb2", "lat": 39.0148085, "is_reserved": 0, "fusion_lat": 0.0, "rental_uris": {"android": "https://dc.lft.to/lastmile_qr_scan", "ios": "https://dc.lft.to/lastmile_qr_scan"}, "fusion_lon": 0.0, "name": "ae6876066d0e0539fbd3df096598eeb2", "lon": -77.05495666666667, "is_disabled": 0, "type": "electric_bike"}, {"bike_id": "e3ecedb802ac1a1c8b1faa2559271283", "lat": 38.91469566666667, "is_reserved": 0, "fusion_lat": 0.0, "rental_uris": {"android": "https://dc.lft.to/lastmile_qr_scan", "ios": "https://dc.lft.to/lastmile_qr_scan"}, "fusion_lon": 0.0, "name": "e3ecedb802ac1a1c8b1faa2559271283", "lon": -77.04548183333333, "is_disabled": 0, "type": "electric_scooter"}, {"bike_id": "a2223dd1d9d7bb44a6182894c041a16d", "lat": 38.908674833333336, "is_reserved": 0, "fusion_lat": 0.0, "rental_uris": {"android": "https://dc.lft.to/lastmile_qr_scan", "ios": "https://dc.lft.to/lastmile_qr_scan"}, "fusion_lon": 0.0, "name": "a2223dd1d9d7bb44a6182894c041a16d", "lon": -77.07644433333333, "is_disabled": 0, "type": "electric_bike"}, {"bike_id": "add43625ca8dae6088871640659d9c84", "lat": 38.911162166666664, "is_reserved": 0, "fusion_lat": 0.0, "rental_uris": {"android": "https://dc.lft.to/lastmile_qr_scan", "ios": "https://dc.lft.to/lastmile_qr_scan"}, "fusion_lon": 0.0, "name": "add43625ca8dae6088871640659d9c84", "lon": -77.0446585, "is_disabled": 0, "type": "electric_scooter"}, {"bike_id": "08456ee38f6d7aa90a851931a16de2a7", "lat": 38.929048333333334, "is_reserved": 0, "fusion_lat": 0.0, "rental_uris": {"android": "https://dc.lft.to/lastmile_qr_scan", "ios": "https://dc.lft.to/lastmile_qr_scan"}, "fusion_lon": 0.0, "name": "08456ee38f6d7aa90a851931a16de2a7", "lon": -77.01646783333334, "is_disabled": 0, "type": "electric_scooter"}, {"bike_id": "20e9770bff3f92cedb009cc028b3fbe3", "lat": 38.95778033333333, "is_reserved": 0, "fusion_lat": 0.0, "rental_uris": {"android": "https://dc.lft.to/lastmile_qr_scan", "ios": "https://dc.lft.to/lastmile_qr_scan"}, "fusion_lon": 0.0, "name": "20e9770bff3f92cedb009cc028b3fbe3", "lon": -77.02467366666667, "is_disabled": 0, "type": "electric_scooter"}, {"bike_id": "31c8c30cf50a18e20a5e2f77c0621fe0", "lat": 38.91691133333333, "is_reserved": 0, "fusion_lat": 0.0, "rental_uris": {"android": "https://dc.lft.to/lastmile_qr_scan", "ios": "https://dc.lft.to/lastmile_qr_scan"}, "fusion_lon": 0.0, "name": "31c8c30cf50a18e20a5e2f77c0621fe0", "lon": -77.0229065, "is_disabled": 0, "type": "electric_scooter"}, {"bike_id": "13e3f3fb378f6aab62e9b6c1c3d16a79", "lat": 38.8986975, "is_reserved": 0, "fusion_lat": 0.0, "rental_uris": {"android": "https://dc.lft.to/lastmile_qr_scan", "ios": "https://dc.lft.to/lastmile_qr_scan"}, "fusion_lon": 0.0, "name": "13e3f3fb378f6aab62e9b6c1c3d16a79", "lon": -76.94639466666666, "is_disabled": 0, "type": "electric_scooter"}, {"bike_id": "695e675f1fa44b7a745d4920fb9e3423", "lat": 38.8947575, "is_reserved": 0, "fusion_lat": 0.0, "rental_uris": {"android": "https://dc.lft.to/lastmile_qr_scan", "ios": "https://dc.lft.to/lastmile_qr_scan"}, "fusion_lon": 0.0, "name": "695e675f1fa44b7a745d4920fb9e3423", "lon": -76.99487383333333, "is_disabled": 0, "type": "electric_scooter"}, {"bike_id": "0dfe4125fffb057bde00eda657a5fbd3", "lat": 38.90228066666667, "is_reserved": 0, "fusion_lat": 0.0, "rental_uris": {"android": "https://dc.lft.to/lastmile_qr_scan", "ios": "https://dc.lft.to/lastmile_qr_scan"}, "fusion_lon": 0.0, "name": "0dfe4125fffb057bde00eda657a5fbd3", "lon": -77.021229, "is_disabled": 0, "type": "electric_scooter"}, {"bike_id": "152e096e1384399000108ca9c1132573", "lat": 38.9132095, "is_reserved": 0, "fusion_lat": 0.0, "rental_uris": {"android": "https://dc.lft.to/lastmile_qr_scan", "ios": "https://dc.lft.to/lastmile_qr_scan"}, "fusion_lon": 0.0, "name": "152e096e1384399000108ca9c1132573", "lon": -77.03662333333334, "is_disabled": 0, "type": "electric_scooter"}, {"bike_id": "fc80dd25b0a176a92dc19875bb77f332", "lat": 38.955296, "is_reserved": 0, "fusion_lat": 0.0, "rental_uris": {"android": "https://dc.lft.to/lastmile_qr_scan", "ios": "https://dc.lft.to/lastmile_qr_scan"}, "fusion_lon": 0.0, "name": "fc80dd25b0a176a92dc19875bb77f332", "lon": -77.02782733333333, "is_disabled": 0, "type": "electric_scooter"}, {"bike_id": "b8f174afc1ece98317b69e264de08b1a", "lat": 38.90232783333333, "is_reserved": 0, "fusion_lat": 0.0, "rental_uris": {"android": "https://dc.lft.to/lastmile_qr_scan", "ios": "https://dc.lft.to/lastmile_qr_scan"}, "fusion_lon": 0.0, "name": "b8f174afc1ece98317b69e264de08b1a", "lon": -77.01696316666667, "is_disabled": 0, "type": "electric_scooter"}, {"bike_id": "5305dbc239c56b7a29e3c277d72d909d", "lat": 38.89953166666667, "is_reserved": 0, "fusion_lat": 0.0, "rental_uris": {"android": "https://dc.lft.to/lastmile_qr_scan", "ios": "https://dc.lft.to/lastmile_qr_scan"}, "fusion_lon": 0.0, "name": "5305dbc239c56b7a29e3c277d72d909d", "lon": -77.03191316666667, "is_disabled": 0, "type": "electric_scooter"}, {"bike_id": "2d9743399309a97f1c1bb52d68cb34c2", "lat": 38.942909666666665, "is_reserved": 0, "fusion_lat": 0.0, "rental_uris": {"android": "https://dc.lft.to/lastmile_qr_scan", "ios": "https://dc.lft.to/lastmile_qr_scan"}, "fusion_lon": 0.0, "name": "2d9743399309a97f1c1bb52d68cb34c2", "lon": -77.02166783333334, "is_disabled": 0, "type": "electric_scooter"}, {"bike_id": "10ebc2e348f91c74e5649c6e9ed4a0e3", "lat": 38.92062833333333, "is_reserved": 0, "fusion_lat": 0.0, "rental_uris": {"android": "https://dc.lft.to/lastmile_qr_scan", "ios": "https://dc.lft.to/lastmile_qr_scan"}, "fusion_lon": 0.0, "name": "10ebc2e348f91c74e5649c6e9ed4a0e3", "lon": -77.04256866666667, "is_disabled": 0, "type": "electric_scooter"}, {"bike_id": "033affb5b35f0c24cc4a3f6f078bba6b", "lat": 38.900330333333336, "is_reserved": 0, "fusion_lat": 0.0, "rental_uris": {"android": "https://dc.lft.to/lastmile_qr_scan", "ios": "https://dc.lft.to/lastmile_qr_scan"}, "fusion_lon": 0.0, "name": "033affb5b35f0c24cc4a3f6f078bba6b", "lon": -77.00075983333333, "is_disabled": 0, "type": "electric_scooter"}, {"bike_id": "683dd11aad8f7ba97c1ef4a91c548dcc", "lat": 38.924155166666665, "is_reserved": 0, "fusion_lat": 0.0, "rental_uris": {"android": "https://dc.lft.to/lastmile_qr_scan", "ios": "https://dc.lft.to/lastmile_qr_scan"}, "fusion_lon": 0.0, "name": "683dd11aad8f7ba97c1ef4a91c548dcc", "lon": -77.0212865, "is_disabled": 0, "type": "electric_scooter"}, {"bike_id": "1fc03163d64ae5b53fe7a647534accb9", "lat": 38.866836, "is_reserved": 0, "fusion_lat": 0.0, "rental_uris": {"android": "https://dc.lft.to/lastmile_qr_scan", "ios": "https://dc.lft.to/lastmile_qr_scan"}, "fusion_lon": 0.0, "name": "1fc03163d64ae5b53fe7a647534accb9", "lon": -76.98574316666667, "is_disabled": 0, "type": "electric_scooter"}, {"bike_id": "085b546868a8880a9e280fb8f090e2e7", "lat": 38.853552, "is_reserved": 0, "fusion_lat": 0.0, "rental_uris": {"android": "https://dc.lft.to/lastmile_qr_scan", "ios": "https://dc.lft.to/lastmile_qr_scan"}, "fusion_lon": 0.0, "name": "085b546868a8880a9e280fb8f090e2e7", "lon": -77.13465266666667, "is_disabled": 0, "type": "electric_bike"}, {"bike_id": "9cb7c467ead87652ebde1a9a302614f2", "lat": 38.9168445, "is_reserved": 0, "fusion_lat": 0.0, "rental_uris": {"android": "https://dc.lft.to/lastmile_qr_scan", "ios": "https://dc.lft.to/lastmile_qr_scan"}, "fusion_lon": 0.0, "name": "9cb7c467ead87652ebde1a9a302614f2", "lon": -77.0241085, "is_disabled": 0, "type": "electric_scooter"}, {"bike_id": "3bf1706db02f30150234ae8f6dda408c", "lat": 38.921645, "is_reserved": 0, "fusion_lat": 0.0, "rental_uris": {"android": "https://dc.lft.to/lastmile_qr_scan", "ios": "https://dc.lft.to/lastmile_qr_scan"}, "fusion_lon": 0.0, "name": "3bf1706db02f30150234ae8f6dda408c", "lon": -77.03397166666667, "is_disabled": 0, "type": "electric_scooter"}, {"bike_id": "80f158db1b05764422ee7dfb45d515a6", "lat": 38.89407166666667, "is_reserved": 0, "fusion_lat": 0.0, "rental_uris": {"android": "https://dc.lft.to/lastmile_qr_scan", "ios": "https://dc.lft.to/lastmile_qr_scan"}, "fusion_lon": 0.0, "name": "80f158db1b05764422ee7dfb45d515a6", "lon": -77.022092, "is_disabled": 0, "type": "electric_scooter"}, {"bike_id": "f83b119e8b5dbe34441eecb4ec0c9e3c", "lat": 38.92581933333334, "is_reserved": 0, "fusion_lat": 0.0, "rental_uris": {"android": "https://dc.lft.to/lastmile_qr_scan", "ios": "https://dc.lft.to/lastmile_qr_scan"}, "fusion_lon": 0.0, "name": "f83b119e8b5dbe34441eecb4ec0c9e3c", "lon": -77.039906, "is_disabled": 0, "type": "electric_scooter"}, {"bike_id": "acee206fca7e928aaf0dc21bdcf48ade", "lat": 38.90724816666667, "is_reserved": 0, "fusion_lat": 0.0, "rental_uris": {"android": "https://dc.lft.to/lastmile_qr_scan", "ios": "https://dc.lft.to/lastmile_qr_scan"}, "fusion_lon": 0.0, "name": "acee206fca7e928aaf0dc21bdcf48ade", "lon": -77.04026516666667, "is_disabled": 0, "type": "electric_scooter"}, {"bike_id": "6836aa8c55a09ee001176df73f26b61e", "lat": 38.914461333333335, "is_reserved": 0, "fusion_lat": 0.0, "rental_uris": {"android": "https://dc.lft.to/lastmile_qr_scan", "ios": "https://dc.lft.to/lastmile_qr_scan"}, "fusion_lon": 0.0, "name": "6836aa8c55a09ee001176df73f26b61e", "lon": -77.03181616666667, "is_disabled": 0, "type": "electric_scooter"}, {"bike_id": "fcc7bb476db2d093340d7881fec20069", "lat": 38.92495233333333, "is_reserved": 0, "fusion_lat": 0.0, "rental_uris": {"android": "https://dc.lft.to/lastmile_qr_scan", "ios": "https://dc.lft.to/lastmile_qr_scan"}, "fusion_lon": 0.0, "name": "fcc7bb476db2d093340d7881fec20069", "lon": -77.05117083333333, "is_disabled": 0, "type": "electric_scooter"}, {"bike_id": "4596369fa8dc7c9ce04da9d41dd77ab3", "lat": 38.907521333333335, "is_reserved": 0, "fusion_lat": 0.0, "rental_uris": {"android": "https://dc.lft.to/lastmile_qr_scan", "ios": "https://dc.lft.to/lastmile_qr_scan"}, "fusion_lon": 0.0, "name": "4596369fa8dc7c9ce04da9d41dd77ab3", "lon": -77.032176, "is_disabled": 0, "type": "electric_scooter"}, {"bike_id": "34e6c9f5816dfb94b133fa7324d582f4", "lat": 38.91817966666667, "is_reserved": 0, "fusion_lat": 0.0, "rental_uris": {"android": "https://dc.lft.to/lastmile_qr_scan", "ios": "https://dc.lft.to/lastmile_qr_scan"}, "fusion_lon": 0.0, "name": "34e6c9f5816dfb94b133fa7324d582f4", "lon": -77.04010883333333, "is_disabled": 0, "type": "electric_scooter"}, {"bike_id": "3d03db28f883f4ea8febb19609c2b432", "lat": 38.8974575, "is_reserved": 0, "fusion_lat": 0.0, "rental_uris": {"android": "https://dc.lft.to/lastmile_qr_scan", "ios": "https://dc.lft.to/lastmile_qr_scan"}, "fusion_lon": 0.0, "name": "3d03db28f883f4ea8febb19609c2b432", "lon": -76.97973116666667, "is_disabled": 0, "type": "electric_scooter"}, {"bike_id": "22c9338f46f760b5f812ebad7adaf1f6", "lat": 38.934597833333335, "is_reserved": 0, "fusion_lat": 0.0, "rental_uris": {"android": "https://dc.lft.to/lastmile_qr_scan", "ios": "https://dc.lft.to/lastmile_qr_scan"}, "fusion_lon": 0.0, "name": "22c9338f46f760b5f812ebad7adaf1f6", "lon": -76.96441666666666, "is_disabled": 0, "type": "electric_scooter"}, {"bike_id": "190ef7bff37b0b11cae3fe993a08d0d6", "lat": 38.904410166666665, "is_reserved": 0, "fusion_lat": 0.0, "rental_uris": {"android": "https://dc.lft.to/lastmile_qr_scan", "ios": "https://dc.lft.to/lastmile_qr_scan"}, "fusion_lon": 0.0, "name": "190ef7bff37b0b11cae3fe993a08d0d6", "lon": -77.04850716666667, "is_disabled": 0, "type": "electric_scooter"}, {"bike_id": "3afe7117905bec3a6b4ffd94e9ea85ac", "lat": 38.91486883333334, "is_reserved": 0, "fusion_lat": 0.0, "rental_uris": {"android": "https://dc.lft.to/lastmile_qr_scan", "ios": "https://dc.lft.to/lastmile_qr_scan"}, "fusion_lon": 0.0, "name": "3afe7117905bec3a6b4ffd94e9ea85ac", "lon": -77.04542816666667, "is_disabled": 0, "type": "electric_scooter"}, {"bike_id": "b95d3f622e08c09727bb274260471d38", "lat": 38.8984605, "is_reserved": 0, "fusion_lat": 0.0, "rental_uris": {"android": "https://dc.lft.to/lastmile_qr_scan", "ios": "https://dc.lft.to/lastmile_qr_scan"}, "fusion_lon": 0.0, "name": "b95d3f622e08c09727bb274260471d38", "lon": -77.0530045, "is_disabled": 0, "type": "electric_bike"}, {"bike_id": "b00f22afb6a73e8ad551a71961ea904b", "lat": 38.930899, "is_reserved": 0, "fusion_lat": 0.0, "rental_uris": {"android": "https://dc.lft.to/lastmile_qr_scan", "ios": "https://dc.lft.to/lastmile_qr_scan"}, "fusion_lon": 0.0, "name": "b00f22afb6a73e8ad551a71961ea904b", "lon": -77.03747883333334, "is_disabled": 0, "type": "electric_scooter"}, {"bike_id": "553815287045ffe31bb8d3e4ac602ce4", "lat": 38.896099666666665, "is_reserved": 0, "fusion_lat": 0.0, "rental_uris": {"android": "https://dc.lft.to/lastmile_qr_scan", "ios": "https://dc.lft.to/lastmile_qr_scan"}, "fusion_lon": 0.0, "name": "553815287045ffe31bb8d3e4ac602ce4", "lon": -77.01120116666667, "is_disabled": 0, "type": "electric_scooter"}, {"bike_id": "798fc25dfc4cd53e3293689711ac12f7", "lat": 39.02435233333333, "is_reserved": 0, "fusion_lat": 0.0, "rental_uris": {"android": "https://dc.lft.to/lastmile_qr_scan", "ios": "https://dc.lft.to/lastmile_qr_scan"}, "fusion_lon": 0.0, "name": "798fc25dfc4cd53e3293689711ac12f7", "lon": -77.13103716666667, "is_disabled": 0, "type": "electric_bike"}, {"bike_id": "6d2d2e6a8ffd2462c51c031c017d667b", "lat": 38.931453166666664, "is_reserved": 0, "fusion_lat": 0.0, "rental_uris": {"android": "https://dc.lft.to/lastmile_qr_scan", "ios": "https://dc.lft.to/lastmile_qr_scan"}, "fusion_lon": 0.0, "name": "6d2d2e6a8ffd2462c51c031c017d667b", "lon": -77.04245016666667, "is_disabled": 0, "type": "electric_scooter"}, {"bike_id": "965013437518a4dce48c6f7bc386695c", "lat": 38.9183365, "is_reserved": 0, "fusion_lat": 0.0, "rental_uris": {"android": "https://dc.lft.to/lastmile_qr_scan", "ios": "https://dc.lft.to/lastmile_qr_scan"}, "fusion_lon": 0.0, "name": "965013437518a4dce48c6f7bc386695c", "lon": -77.035115, "is_disabled": 0, "type": "electric_scooter"}, {"bike_id": "8c624654d4e4c936e8f8ca680fdc290c", "lat": 38.916987, "is_reserved": 0, "fusion_lat": 0.0, "rental_uris": {"android": "https://dc.lft.to/lastmile_qr_scan", "ios": "https://dc.lft.to/lastmile_qr_scan"}, "fusion_lon": 0.0, "name": "8c624654d4e4c936e8f8ca680fdc290c", "lon": -77.028687, "is_disabled": 0, "type": "electric_scooter"}, {"bike_id": "32ff7f15d5a4c0464ff73d59d03b5b1f", "lat": 38.91406466666667, "is_reserved": 0, "fusion_lat": 0.0, "rental_uris": {"android": "https://dc.lft.to/lastmile_qr_scan", "ios": "https://dc.lft.to/lastmile_qr_scan"}, "fusion_lon": 0.0, "name": "32ff7f15d5a4c0464ff73d59d03b5b1f", "lon": -77.023824, "is_disabled": 0, "type": "electric_scooter"}, {"bike_id": "619330816379ad8cb1721d2d5d757106", "lat": 38.93961316666667, "is_reserved": 0, "fusion_lat": 0.0, "rental_uris": {"android": "https://dc.lft.to/lastmile_qr_scan", "ios": "https://dc.lft.to/lastmile_qr_scan"}, "fusion_lon": 0.0, "name": "619330816379ad8cb1721d2d5d757106", "lon": -77.02750883333333, "is_disabled": 0, "type": "electric_scooter"}, {"bike_id": "1551f51e555b06fb241f97c124c0dc05", "lat": 38.867023, "is_reserved": 0, "fusion_lat": 0.0, "rental_uris": {"android": "https://dc.lft.to/lastmile_qr_scan", "ios": "https://dc.lft.to/lastmile_qr_scan"}, "fusion_lon": 0.0, "name": "1551f51e555b06fb241f97c124c0dc05", "lon": -76.98710283333334, "is_disabled": 0, "type": "electric_scooter"}, {"bike_id": "e250a3c825e49391a1e730409b7ed4e6", "lat": 38.920502, "is_reserved": 0, "fusion_lat": 0.0, "rental_uris": {"android": "https://dc.lft.to/lastmile_qr_scan", "ios": "https://dc.lft.to/lastmile_qr_scan"}, "fusion_lon": 0.0, "name": "e250a3c825e49391a1e730409b7ed4e6", "lon": -77.04189183333334, "is_disabled": 0, "type": "electric_scooter"}, {"bike_id": "0fbd9aba61c2b901bc674c549b5b255f", "lat": 38.89221283333333, "is_reserved": 0, "fusion_lat": 0.0, "rental_uris": {"android": "https://dc.lft.to/lastmile_qr_scan", "ios": "https://dc.lft.to/lastmile_qr_scan"}, "fusion_lon": 0.0, "name": "0fbd9aba61c2b901bc674c549b5b255f", "lon": -77.04863166666667, "is_disabled": 0, "type": "electric_scooter"}, {"bike_id": "1f5ccef6b01bc09abef42a9e646ffc20", "lat": 38.877217333333334, "is_reserved": 0, "fusion_lat": 0.0, "rental_uris": {"android": "https://dc.lft.to/lastmile_qr_scan", "ios": "https://dc.lft.to/lastmile_qr_scan"}, "fusion_lon": 0.0, "name": "1f5ccef6b01bc09abef42a9e646ffc20", "lon": -77.003296, "is_disabled": 0, "type": "electric_scooter"}, {"bike_id": "98ca17f70ccbabc22d51cf4fde8495fd", "lat": 38.87385283333333, "is_reserved": 0, "fusion_lat": 0.0, "rental_uris": {"android": "https://dc.lft.to/lastmile_qr_scan", "ios": "https://dc.lft.to/lastmile_qr_scan"}, "fusion_lon": 0.0, "name": "98ca17f70ccbabc22d51cf4fde8495fd", "lon": -77.04341416666666, "is_disabled": 0, "type": "electric_scooter"}, {"bike_id": "8f117e911fbf1ab96d006dadb08dbe76", "lat": 38.911102666666665, "is_reserved": 0, "fusion_lat": 0.0, "rental_uris": {"android": "https://dc.lft.to/lastmile_qr_scan", "ios": "https://dc.lft.to/lastmile_qr_scan"}, "fusion_lon": 0.0, "name": "8f117e911fbf1ab96d006dadb08dbe76", "lon": -77.04470433333333, "is_disabled": 0, "type": "electric_scooter"}, {"bike_id": "d013040d5a25f4cc836b03c4ecbac964", "lat": 38.83425416666667, "is_reserved": 0, "fusion_lat": 0.0, "rental_uris": {"android": "https://dc.lft.to/lastmile_qr_scan", "ios": "https://dc.lft.to/lastmile_qr_scan"}, "fusion_lon": 0.0, "name": "d013040d5a25f4cc836b03c4ecbac964", "lon": -77.0588775, "is_disabled": 0, "type": "electric_bike"}, {"bike_id": "9e302fdd2d2f7e2ab1c16c7647003549", "lat": 38.90174666666667, "is_reserved": 0, "fusion_lat": 0.0, "rental_uris": {"android": "https://dc.lft.to/lastmile_qr_scan", "ios": "https://dc.lft.to/lastmile_qr_scan"}, "fusion_lon": 0.0, "name": "9e302fdd2d2f7e2ab1c16c7647003549", "lon": -77.02172883333333, "is_disabled": 0, "type": "electric_scooter"}, {"bike_id": "ba73095d8cf250ea0946d3a4bdf924c1", "lat": 38.9241375, "is_reserved": 0, "fusion_lat": 0.0, "rental_uris": {"android": "https://dc.lft.to/lastmile_qr_scan", "ios": "https://dc.lft.to/lastmile_qr_scan"}, "fusion_lon": 0.0, "name": "ba73095d8cf250ea0946d3a4bdf924c1", "lon": -77.02031733333334, "is_disabled": 0, "type": "electric_scooter"}, {"bike_id": "228fb16d24120c223f2dde1c293dc0b0", "lat": 38.9060575, "is_reserved": 0, "fusion_lat": 0.0, "rental_uris": {"android": "https://dc.lft.to/lastmile_qr_scan", "ios": "https://dc.lft.to/lastmile_qr_scan"}, "fusion_lon": 0.0, "name": "228fb16d24120c223f2dde1c293dc0b0", "lon": -77.02573383333333, "is_disabled": 0, "type": "electric_scooter"}, {"bike_id": "f4c3174e445aa0350d7016adcf927f59", "lat": 38.92328966666667, "is_reserved": 0, "fusion_lat": 0.0, "rental_uris": {"android": "https://dc.lft.to/lastmile_qr_scan", "ios": "https://dc.lft.to/lastmile_qr_scan"}, "fusion_lon": 0.0, "name": "f4c3174e445aa0350d7016adcf927f59", "lon": -77.0243485, "is_disabled": 0, "type": "electric_scooter"}, {"bike_id": "6e6aed4ba86f6ff1d6ba1e032785e272", "lat": 38.92689983333333, "is_reserved": 0, "fusion_lat": 0.0, "rental_uris": {"android": "https://dc.lft.to/lastmile_qr_scan", "ios": "https://dc.lft.to/lastmile_qr_scan"}, "fusion_lon": 0.0, "name": "6e6aed4ba86f6ff1d6ba1e032785e272", "lon": -77.03564916666667, "is_disabled": 0, "type": "electric_scooter"}, {"bike_id": "7c27d25b5491fc3c664ebef14c96bcfc", "lat": 38.90115216666667, "is_reserved": 0, "fusion_lat": 0.0, "rental_uris": {"android": "https://dc.lft.to/lastmile_qr_scan", "ios": "https://dc.lft.to/lastmile_qr_scan"}, "fusion_lon": 0.0, "name": "7c27d25b5491fc3c664ebef14c96bcfc", "lon": -76.9862705, "is_disabled": 0, "type": "electric_scooter"}, {"bike_id": "3321795307ac49d288968bf05fe2f505", "lat": 38.915652, "is_reserved": 0, "fusion_lat": 0.0, "rental_uris": {"android": "https://dc.lft.to/lastmile_qr_scan", "ios": "https://dc.lft.to/lastmile_qr_scan"}, "fusion_lon": 0.0, "name": "3321795307ac49d288968bf05fe2f505", "lon": -77.03045483333334, "is_disabled": 0, "type": "electric_scooter"}, {"bike_id": "a699d172770da9ceb77e5cb332b92fa3", "lat": 38.900371, "is_reserved": 0, "fusion_lat": 0.0, "rental_uris": {"android": "https://dc.lft.to/lastmile_qr_scan", "ios": "https://dc.lft.to/lastmile_qr_scan"}, "fusion_lon": 0.0, "name": "a699d172770da9ceb77e5cb332b92fa3", "lon": -77.03810033333333, "is_disabled": 0, "type": "electric_scooter"}, {"bike_id": "2958f519d891a49946280dd00d4008b8", "lat": 39.0510045, "is_reserved": 0, "fusion_lat": 0.0, "rental_uris": {"android": "https://dc.lft.to/lastmile_qr_scan", "ios": "https://dc.lft.to/lastmile_qr_scan"}, "fusion_lon": 0.0, "name": "2958f519d891a49946280dd00d4008b8", "lon": -77.117465, "is_disabled": 0, "type": "electric_bike"}, {"bike_id": "0f43c4255a90810e7763a7b701c17e92", "lat": 38.92910633333334, "is_reserved": 0, "fusion_lat": 0.0, "rental_uris": {"android": "https://dc.lft.to/lastmile_qr_scan", "ios": "https://dc.lft.to/lastmile_qr_scan"}, "fusion_lon": 0.0, "name": "0f43c4255a90810e7763a7b701c17e92", "lon": -77.03249016666666, "is_disabled": 0, "type": "electric_scooter"}, {"bike_id": "aa903b4df36102604db34bc66953a2d2", "lat": 38.9563655, "is_reserved": 0, "fusion_lat": 0.0, "rental_uris": {"android": "https://dc.lft.to/lastmile_qr_scan", "ios": "https://dc.lft.to/lastmile_qr_scan"}, "fusion_lon": 0.0, "name": "aa903b4df36102604db34bc66953a2d2", "lon": -77.0362775, "is_disabled": 0, "type": "electric_scooter"}, {"bike_id": "e665ae0c0997a0380bd95df30c39aa7c", "lat": 38.895162, "is_reserved": 0, "fusion_lat": 0.0, "rental_uris": {"android": "https://dc.lft.to/lastmile_qr_scan", "ios": "https://dc.lft.to/lastmile_qr_scan"}, "fusion_lon": 0.0, "name": "e665ae0c0997a0380bd95df30c39aa7c", "lon": -77.043439, "is_disabled": 0, "type": "electric_scooter"}, {"bike_id": "cf9c6ff916a6e4e31c1fa9e9ec982384", "lat": 38.90795383333333, "is_reserved": 0, "fusion_lat": 0.0, "rental_uris": {"android": "https://dc.lft.to/lastmile_qr_scan", "ios": "https://dc.lft.to/lastmile_qr_scan"}, "fusion_lon": 0.0, "name": "cf9c6ff916a6e4e31c1fa9e9ec982384", "lon": -77.026973, "is_disabled": 0, "type": "electric_scooter"}, {"bike_id": "917e615bb144be16cfc8749d0f43a483", "lat": 38.88538366666667, "is_reserved": 0, "fusion_lat": 0.0, "rental_uris": {"android": "https://dc.lft.to/lastmile_qr_scan", "ios": "https://dc.lft.to/lastmile_qr_scan"}, "fusion_lon": 0.0, "name": "917e615bb144be16cfc8749d0f43a483", "lon": -77.00575866666667, "is_disabled": 0, "type": "electric_scooter"}, {"bike_id": "40d18888b5a88ef4fb7ab0482feef0ee", "lat": 38.90362283333333, "is_reserved": 0, "fusion_lat": 0.0, "rental_uris": {"android": "https://dc.lft.to/lastmile_qr_scan", "ios": "https://dc.lft.to/lastmile_qr_scan"}, "fusion_lon": 0.0, "name": "40d18888b5a88ef4fb7ab0482feef0ee", "lon": -76.99214983333333, "is_disabled": 0, "type": "electric_scooter"}, {"bike_id": "3b500d2b13cd2c40d97cf1cb72179788", "lat": 38.887246833333336, "is_reserved": 0, "fusion_lat": 0.0, "rental_uris": {"android": "https://dc.lft.to/lastmile_qr_scan", "ios": "https://dc.lft.to/lastmile_qr_scan"}, "fusion_lon": 0.0, "name": "3b500d2b13cd2c40d97cf1cb72179788", "lon": -77.02181166666666, "is_disabled": 0, "type": "electric_scooter"}, {"bike_id": "b24d41111dc8fe0474a6ebc8c1b9de26", "lat": 38.92242233333333, "is_reserved": 0, "fusion_lat": 0.0, "rental_uris": {"android": "https://dc.lft.to/lastmile_qr_scan", "ios": "https://dc.lft.to/lastmile_qr_scan"}, "fusion_lon": 0.0, "name": "b24d41111dc8fe0474a6ebc8c1b9de26", "lon": -77.04010433333333, "is_disabled": 0, "type": "electric_scooter"}, {"bike_id": "9fcc8de85b28c276959bb5354ad632cc", "lat": 38.91428066666667, "is_reserved": 0, "fusion_lat": 0.0, "rental_uris": {"android": "https://dc.lft.to/lastmile_qr_scan", "ios": "https://dc.lft.to/lastmile_qr_scan"}, "fusion_lon": 0.0, "name": "9fcc8de85b28c276959bb5354ad632cc", "lon": -77.031828, "is_disabled": 0, "type": "electric_scooter"}, {"bike_id": "9eacc7150a8dd9065de8be1d31c65d77", "lat": 38.90573, "is_reserved": 0, "fusion_lat": 0.0, "rental_uris": {"android": "https://dc.lft.to/lastmile_qr_scan", "ios": "https://dc.lft.to/lastmile_qr_scan"}, "fusion_lon": 0.0, "name": "9eacc7150a8dd9065de8be1d31c65d77", "lon": -77.022105, "is_disabled": 0, "type": "electric_scooter"}, {"bike_id": "4d3034ac5d01300d12373075944f10ae", "lat": 38.910318, "is_reserved": 0, "fusion_lat": 0.0, "rental_uris": {"android": "https://dc.lft.to/lastmile_qr_scan", "ios": "https://dc.lft.to/lastmile_qr_scan"}, "fusion_lon": 0.0, "name": "4d3034ac5d01300d12373075944f10ae", "lon": -76.985542, "is_disabled": 0, "type": "electric_scooter"}, {"bike_id": "f4b9b0a7fc018fc5504b08024042ec6e", "lat": 38.927601333333335, "is_reserved": 0, "fusion_lat": 0.0, "rental_uris": {"android": "https://dc.lft.to/lastmile_qr_scan", "ios": "https://dc.lft.to/lastmile_qr_scan"}, "fusion_lon": 0.0, "name": "f4b9b0a7fc018fc5504b08024042ec6e", "lon": -77.05638116666667, "is_disabled": 0, "type": "electric_scooter"}, {"bike_id": "21ce9ec39cccbb6472214573707d0276", "lat": 38.911102166666666, "is_reserved": 0, "fusion_lat": 0.0, "rental_uris": {"android": "https://dc.lft.to/lastmile_qr_scan", "ios": "https://dc.lft.to/lastmile_qr_scan"}, "fusion_lon": 0.0, "name": "21ce9ec39cccbb6472214573707d0276", "lon": -77.03865716666667, "is_disabled": 0, "type": "electric_scooter"}, {"bike_id": "450c642b0daac4439ff0e2872f865407", "lat": 38.92331433333333, "is_reserved": 0, "fusion_lat": 0.0, "rental_uris": {"android": "https://dc.lft.to/lastmile_qr_scan", "ios": "https://dc.lft.to/lastmile_qr_scan"}, "fusion_lon": 0.0, "name": "450c642b0daac4439ff0e2872f865407", "lon": -77.04617116666667, "is_disabled": 0, "type": "electric_scooter"}, {"bike_id": "7fed9d598c950cc9e88284575fe7752b", "lat": 38.908827, "is_reserved": 0, "fusion_lat": 0.0, "rental_uris": {"android": "https://dc.lft.to/lastmile_qr_scan", "ios": "https://dc.lft.to/lastmile_qr_scan"}, "fusion_lon": 0.0, "name": "7fed9d598c950cc9e88284575fe7752b", "lon": -77.04665183333333, "is_disabled": 0, "type": "electric_scooter"}, {"bike_id": "2173243bde451daf82cdc1d811160525", "lat": 38.89135616666667, "is_reserved": 0, "fusion_lat": 0.0, "rental_uris": {"android": "https://dc.lft.to/lastmile_qr_scan", "ios": "https://dc.lft.to/lastmile_qr_scan"}, "fusion_lon": 0.0, "name": "2173243bde451daf82cdc1d811160525", "lon": -76.9518815, "is_disabled": 0, "type": "electric_scooter"}, {"bike_id": "61458ee24dc5939ac4f8178004b80d8e", "lat": 38.871702166666665, "is_reserved": 0, "fusion_lat": 0.0, "rental_uris": {"android": "https://dc.lft.to/lastmile_qr_scan", "ios": "https://dc.lft.to/lastmile_qr_scan"}, "fusion_lon": 0.0, "name": "61458ee24dc5939ac4f8178004b80d8e", "lon": -77.00622116666666, "is_disabled": 0, "type": "electric_scooter"}, {"bike_id": "949b0db28e9329a4a6b55b26231469c4", "lat": 38.926376166666664, "is_reserved": 0, "fusion_lat": 0.0, "rental_uris": {"android": "https://dc.lft.to/lastmile_qr_scan", "ios": "https://dc.lft.to/lastmile_qr_scan"}, "fusion_lon": 0.0, "name": "949b0db28e9329a4a6b55b26231469c4", "lon": -77.03427266666667, "is_disabled": 0, "type": "electric_scooter"}, {"bike_id": "f30c1d6e3e047d6c87529d3ad99de5d3", "lat": 38.897314, "is_reserved": 0, "fusion_lat": 0.0, "rental_uris": {"android": "https://dc.lft.to/lastmile_qr_scan", "ios": "https://dc.lft.to/lastmile_qr_scan"}, "fusion_lon": 0.0, "name": "f30c1d6e3e047d6c87529d3ad99de5d3", "lon": -77.0445315, "is_disabled": 0, "type": "electric_scooter"}, {"bike_id": "ee3bb28496ac83b4f6f6f27ff68b8994", "lat": 38.93624833333333, "is_reserved": 0, "fusion_lat": 0.0, "rental_uris": {"android": "https://dc.lft.to/lastmile_qr_scan", "ios": "https://dc.lft.to/lastmile_qr_scan"}, "fusion_lon": 0.0, "name": "ee3bb28496ac83b4f6f6f27ff68b8994", "lon": -76.979701, "is_disabled": 0, "type": "electric_scooter"}, {"bike_id": "4e394b1d93bf3955fbae866332f4e3c1", "lat": 38.915730333333336, "is_reserved": 0, "fusion_lat": 0.0, "rental_uris": {"android": "https://dc.lft.to/lastmile_qr_scan", "ios": "https://dc.lft.to/lastmile_qr_scan"}, "fusion_lon": 0.0, "name": "4e394b1d93bf3955fbae866332f4e3c1", "lon": -77.01875516666666, "is_disabled": 0, "type": "electric_scooter"}, {"bike_id": "558f38a5cb397a121a9e2bcdbf38745a", "lat": 38.90536933333333, "is_reserved": 0, "fusion_lat": 0.0, "rental_uris": {"android": "https://dc.lft.to/lastmile_qr_scan", "ios": "https://dc.lft.to/lastmile_qr_scan"}, "fusion_lon": 0.0, "name": "558f38a5cb397a121a9e2bcdbf38745a", "lon": -77.03454, "is_disabled": 0, "type": "electric_scooter"}, {"bike_id": "bb31daf3bffb0e0f11f2b332fc6d16a2", "lat": 38.90381033333333, "is_reserved": 0, "fusion_lat": 0.0, "rental_uris": {"android": "https://dc.lft.to/lastmile_qr_scan", "ios": "https://dc.lft.to/lastmile_qr_scan"}, "fusion_lon": 0.0, "name": "bb31daf3bffb0e0f11f2b332fc6d16a2", "lon": -76.9820875, "is_disabled": 0, "type": "electric_scooter"}, {"bike_id": "e5aab0ec54c98599ffb2e3e28ab70ea2", "lat": 38.918187333333336, "is_reserved": 0, "fusion_lat": 0.0, "rental_uris": {"android": "https://dc.lft.to/lastmile_qr_scan", "ios": "https://dc.lft.to/lastmile_qr_scan"}, "fusion_lon": 0.0, "name": "e5aab0ec54c98599ffb2e3e28ab70ea2", "lon": -77.040041, "is_disabled": 0, "type": "electric_scooter"}, {"bike_id": "e06eea080a062492fa644caf43e5787e", "lat": 38.91493466666667, "is_reserved": 0, "fusion_lat": 0.0, "rental_uris": {"android": "https://dc.lft.to/lastmile_qr_scan", "ios": "https://dc.lft.to/lastmile_qr_scan"}, "fusion_lon": 0.0, "name": "e06eea080a062492fa644caf43e5787e", "lon": -77.018593, "is_disabled": 0, "type": "electric_scooter"}, {"bike_id": "b50f346a54e33755caae3b61fb64dad6", "lat": 38.90654033333333, "is_reserved": 0, "fusion_lat": 0.0, "rental_uris": {"android": "https://dc.lft.to/lastmile_qr_scan", "ios": "https://dc.lft.to/lastmile_qr_scan"}, "fusion_lon": 0.0, "name": "b50f346a54e33755caae3b61fb64dad6", "lon": -77.0428415, "is_disabled": 0, "type": "electric_scooter"}, {"bike_id": "3189610d9a93ae7a4ce5f0b89bd8d14a", "lat": 38.90311466666667, "is_reserved": 0, "fusion_lat": 0.0, "rental_uris": {"android": "https://dc.lft.to/lastmile_qr_scan", "ios": "https://dc.lft.to/lastmile_qr_scan"}, "fusion_lon": 0.0, "name": "3189610d9a93ae7a4ce5f0b89bd8d14a", "lon": -77.0287095, "is_disabled": 0, "type": "electric_scooter"}, {"bike_id": "0f92a8e30c9614ee6eadcb4917dff6ff", "lat": 38.90570916666667, "is_reserved": 0, "fusion_lat": 0.0, "rental_uris": {"android": "https://dc.lft.to/lastmile_qr_scan", "ios": "https://dc.lft.to/lastmile_qr_scan"}, "fusion_lon": 0.0, "name": "0f92a8e30c9614ee6eadcb4917dff6ff", "lon": -77.00297416666666, "is_disabled": 0, "type": "electric_scooter"}, {"bike_id": "a5b4fdea9b56960ebc2dd6f3fd9ed3f4", "lat": 38.87885516666667, "is_reserved": 0, "fusion_lat": 0.0, "rental_uris": {"android": "https://dc.lft.to/lastmile_qr_scan", "ios": "https://dc.lft.to/lastmile_qr_scan"}, "fusion_lon": 0.0, "name": "a5b4fdea9b56960ebc2dd6f3fd9ed3f4", "lon": -77.09618733333333, "is_disabled": 0, "type": "electric_bike"}, {"bike_id": "272364bbbdd0ed63781c730390a81ecf", "lat": 38.929715, "is_reserved": 0, "fusion_lat": 0.0, "rental_uris": {"android": "https://dc.lft.to/lastmile_qr_scan", "ios": "https://dc.lft.to/lastmile_qr_scan"}, "fusion_lon": 0.0, "name": "272364bbbdd0ed63781c730390a81ecf", "lon": -77.027894, "is_disabled": 0, "type": "electric_scooter"}, {"bike_id": "163dafd956cfa5f038dc04dfb8168e7f", "lat": 38.903840333333335, "is_reserved": 0, "fusion_lat": 0.0, "rental_uris": {"android": "https://dc.lft.to/lastmile_qr_scan", "ios": "https://dc.lft.to/lastmile_qr_scan"}, "fusion_lon": 0.0, "name": "163dafd956cfa5f038dc04dfb8168e7f", "lon": -77.04833083333334, "is_disabled": 0, "type": "electric_scooter"}, {"bike_id": "f42babe7b0425c6ba25a522fd7ba9d65", "lat": 38.920891166666664, "is_reserved": 0, "fusion_lat": 0.0, "rental_uris": {"android": "https://dc.lft.to/lastmile_qr_scan", "ios": "https://dc.lft.to/lastmile_qr_scan"}, "fusion_lon": 0.0, "name": "f42babe7b0425c6ba25a522fd7ba9d65", "lon": -77.02043866666666, "is_disabled": 0, "type": "electric_scooter"}, {"bike_id": "fdee505bdc769b310da007aa9ce12680", "lat": 38.90755433333333, "is_reserved": 0, "fusion_lat": 0.0, "rental_uris": {"android": "https://dc.lft.to/lastmile_qr_scan", "ios": "https://dc.lft.to/lastmile_qr_scan"}, "fusion_lon": 0.0, "name": "fdee505bdc769b310da007aa9ce12680", "lon": -77.03222, "is_disabled": 0, "type": "electric_scooter"}, {"bike_id": "094fae13aff9c5a2069579183cd04cfb", "lat": 38.914124666666666, "is_reserved": 0, "fusion_lat": 0.0, "rental_uris": {"android": "https://dc.lft.to/lastmile_qr_scan", "ios": "https://dc.lft.to/lastmile_qr_scan"}, "fusion_lon": 0.0, "name": "094fae13aff9c5a2069579183cd04cfb", "lon": -77.04497483333333, "is_disabled": 0, "type": "electric_scooter"}, {"bike_id": "521950f8dac52098f358567093241dbf", "lat": 38.874777, "is_reserved": 0, "fusion_lat": 0.0, "rental_uris": {"android": "https://dc.lft.to/lastmile_qr_scan", "ios": "https://dc.lft.to/lastmile_qr_scan"}, "fusion_lon": 0.0, "name": "521950f8dac52098f358567093241dbf", "lon": -77.01071883333333, "is_disabled": 0, "type": "electric_scooter"}, {"bike_id": "d07fa6eddbee41cd281964f7402e73c2", "lat": 38.89887433333333, "is_reserved": 0, "fusion_lat": 0.0, "rental_uris": {"android": "https://dc.lft.to/lastmile_qr_scan", "ios": "https://dc.lft.to/lastmile_qr_scan"}, "fusion_lon": 0.0, "name": "d07fa6eddbee41cd281964f7402e73c2", "lon": -76.93179366666666, "is_disabled": 0, "type": "electric_scooter"}, {"bike_id": "6d48d70283ff12177000d4b929f6cd89", "lat": 38.91845516666667, "is_reserved": 0, "fusion_lat": 0.0, "rental_uris": {"android": "https://dc.lft.to/lastmile_qr_scan", "ios": "https://dc.lft.to/lastmile_qr_scan"}, "fusion_lon": 0.0, "name": "6d48d70283ff12177000d4b929f6cd89", "lon": -77.0319565, "is_disabled": 0, "type": "electric_scooter"}, {"bike_id": "d621dee2901a7307938af552f84b0322", "lat": 38.933237, "is_reserved": 0, "fusion_lat": 0.0, "rental_uris": {"android": "https://dc.lft.to/lastmile_qr_scan", "ios": "https://dc.lft.to/lastmile_qr_scan"}, "fusion_lon": 0.0, "name": "d621dee2901a7307938af552f84b0322", "lon": -77.02929883333333, "is_disabled": 0, "type": "electric_scooter"}, {"bike_id": "967812d13540d3b531dcfc8ce8d67111", "lat": 38.907571, "is_reserved": 0, "fusion_lat": 0.0, "rental_uris": {"android": "https://dc.lft.to/lastmile_qr_scan", "ios": "https://dc.lft.to/lastmile_qr_scan"}, "fusion_lon": 0.0, "name": "967812d13540d3b531dcfc8ce8d67111", "lon": -77.04149033333333, "is_disabled": 0, "type": "electric_scooter"}, {"bike_id": "49421ffcd4919134a28ce128de4bce43", "lat": 38.9057065, "is_reserved": 0, "fusion_lat": 0.0, "rental_uris": {"android": "https://dc.lft.to/lastmile_qr_scan", "ios": "https://dc.lft.to/lastmile_qr_scan"}, "fusion_lon": 0.0, "name": "49421ffcd4919134a28ce128de4bce43", "lon": -76.97633866666666, "is_disabled": 0, "type": "electric_scooter"}, {"bike_id": "59a67dfbd8d86d892f30098379bc0534", "lat": 38.91474933333333, "is_reserved": 0, "fusion_lat": 0.0, "rental_uris": {"android": "https://dc.lft.to/lastmile_qr_scan", "ios": "https://dc.lft.to/lastmile_qr_scan"},