{"data": {"bikes": [{"type": "electric_scooter", "fusion_lon": 0.0, "bike_id": "b96797c45e9c7af553e01bacf63cd19f", "is_disabled": 0, "lat": 38.916009, "rental_uris": {"ios": "https://dc.lft.to/lastmile_qr_scan", "android": "https://dc.lft.to/lastmile_qr_scan"}, "is_reserved": 0, "lon": -77.03206033333333, "fusion_lat": 0.0, "name": "b96797c45e9c7af553e01bacf63cd19f"}, {"type": "electric_scooter", "fusion_lon": 0.0, "bike_id": "7b5282cc590e19fab512e596c285143a", "is_disabled": 0, "lat": 38.92844216666667, "rental_uris": {"ios": "https://dc.lft.to/lastmile_qr_scan", "android": "https://dc.lft.to/lastmile_qr_scan"}, "is_reserved": 0, "lon": -77.01586766666667, "fusion_lat": 0.0, "name": "7b5282cc590e19fab512e596c285143a"}, {"type": "electric_scooter", "fusion_lon": 0.0, "bike_id": "db87f6109ee3b7ab498832b53bb9150c", "is_disabled": 0, "lat": 38.961166166666665, "rental_uris": {"ios": "https://dc.lft.to/lastmile_qr_scan", "android": "https://dc.lft.to/lastmile_qr_scan"}, "is_reserved": 0, "lon": -77.03327766666666, "fusion_lat": 0.0, "name": "db87f6109ee3b7ab498832b53bb9150c"}, {"type": "electric_scooter", "fusion_lon": 0.0, "bike_id": "ac08e0639235b6fcc44cc469a9ec17ed", "is_disabled": 0, "lat": 38.9021095, "rental_uris": {"ios": "https://dc.lft.to/lastmile_qr_scan", "android": "https://dc.lft.to/lastmile_qr_scan"}, "is_reserved": 0, "lon": -77.03359416666666, "fusion_lat": 0.0, "name": "ac08e0639235b6fcc44cc469a9ec17ed"}, {"type": "electric_scooter", "fusion_lon": 0.0, "bike_id": "a7637bc680d9ffb551e1610abc75e74c", "is_disabled": 0, "lat": 38.876402666666664, "rental_uris": {"ios": "https://dc.lft.to/lastmile_qr_scan", "android": "https://dc.lft.to/lastmile_qr_scan"}, "is_reserved": 0, "lon": -76.99786266666666, "fusion_lat": 0.0, "name": "a7637bc680d9ffb551e1610abc75e74c"}, {"type": "electric_scooter", "fusion_lon": 0.0, "bike_id": "b99e66c20bf2c4bb100c2aa344305110", "is_disabled": 0, "lat": 38.95043116666667, "rental_uris": {"ios": "https://dc.lft.to/lastmile_qr_scan", "android": "https://dc.lft.to/lastmile_qr_scan"}, "is_reserved": 0, "lon": -77.0779315, "fusion_lat": 0.0, "name": "b99e66c20bf2c4bb100c2aa344305110"}, {"type": "electric_scooter", "fusion_lon": 0.0, "bike_id": "4a5866df05c96be35810c910ebefb213", "is_disabled": 0, "lat": 38.9030745, "rental_uris": {"ios": "https://dc.lft.to/lastmile_qr_scan", "android": "https://dc.lft.to/lastmile_qr_scan"}, "is_reserved": 0, "lon": -77.026502, "fusion_lat": 0.0, "name": "4a5866df05c96be35810c910ebefb213"}, {"type": "electric_scooter", "fusion_lon": 0.0, "bike_id": "166c50686ec9feb939b1d517a8013d29", "is_disabled": 0, "lat": 38.94197166666667, "rental_uris": {"ios": "https://dc.lft.to/lastmile_qr_scan", "android": "https://dc.lft.to/lastmile_qr_scan"}, "is_reserved": 0, "lon": -77.02517416666667, "fusion_lat": 0.0, "name": "166c50686ec9feb939b1d517a8013d29"}, {"type": "electric_scooter", "fusion_lon": 0.0, "bike_id": "d5a7c40886f9c7dc1266481fd7707358", "is_disabled": 0, "lat": 38.88999316666667, "rental_uris": {"ios": "https://dc.lft.to/lastmile_qr_scan", "android": "https://dc.lft.to/lastmile_qr_scan"}, "is_reserved": 0, "lon": -77.00344966666667, "fusion_lat": 0.0, "name": "d5a7c40886f9c7dc1266481fd7707358"}, {"type": "electric_scooter", "fusion_lon": 0.0, "bike_id": "ea25eeb065175a5489ba1a2edcb09cb3", "is_disabled": 0, "lat": 38.92269316666667, "rental_uris": {"ios": "https://dc.lft.to/lastmile_qr_scan", "android": "https://dc.lft.to/lastmile_qr_scan"}, "is_reserved": 0, "lon": -77.02244316666666, "fusion_lat": 0.0, "name": "ea25eeb065175a5489ba1a2edcb09cb3"}, {"type": "electric_bike", "fusion_lon": 0.0, "bike_id": "95d9ad87d04c7a4d71dc214d7cfd830f", "is_disabled": 0, "lat": 38.98045833333333, "rental_uris": {"ios": "https://dc.lft.to/lastmile_qr_scan", "android": "https://dc.lft.to/lastmile_qr_scan"}, "is_reserved": 0, "lon": -76.95797, "fusion_lat": 0.0, "name": "95d9ad87d04c7a4d71dc214d7cfd830f"}, {"type": "electric_scooter", "fusion_lon": 0.0, "bike_id": "23d9796cde6fb628a7751938031c685c", "is_disabled": 0, "lat": 38.920451, "rental_uris": {"ios": "https://dc.lft.to/lastmile_qr_scan", "android": "https://dc.lft.to/lastmile_qr_scan"}, "is_reserved": 0, "lon": -77.03466933333333, "fusion_lat": 0.0, "name": "23d9796cde6fb628a7751938031c685c"}, {"type": "electric_scooter", "fusion_lon": 0.0, "bike_id": "a569e64ca8a0c40cca9c65e6262e6a7a", "is_disabled": 0, "lat": 38.9104265, "rental_uris": {"ios": "https://dc.lft.to/lastmile_qr_scan", "android": "https://dc.lft.to/lastmile_qr_scan"}, "is_reserved": 0, "lon": -77.07535466666667, "fusion_lat": 0.0, "name": "a569e64ca8a0c40cca9c65e6262e6a7a"}, {"type": "electric_scooter", "fusion_lon": 0.0, "bike_id": "dd5778c80bd1a145f1553a467e7a0f97", "is_disabled": 0, "lat": 38.899739833333335, "rental_uris": {"ios": "https://dc.lft.to/lastmile_qr_scan", "android": "https://dc.lft.to/lastmile_qr_scan"}, "is_reserved": 0, "lon": -77.0213185, "fusion_lat": 0.0, "name": "dd5778c80bd1a145f1553a467e7a0f97"}, {"type": "electric_scooter", "fusion_lon": 0.0, "bike_id": "75dfd434d8986c3bb7b15017d926e59b", "is_disabled": 0, "lat": 38.909748666666665, "rental_uris": {"ios": "https://dc.lft.to/lastmile_qr_scan", "android": "https://dc.lft.to/lastmile_qr_scan"}, "is_reserved": 0, "lon": -77.03839333333333, "fusion_lat": 0.0, "name": "75dfd434d8986c3bb7b15017d926e59b"}, {"type": "electric_scooter", "fusion_lon": 0.0, "bike_id": "a1c40eb7d2272999402e061fa5695cdb", "is_disabled": 0, "lat": 38.88995966666667, "rental_uris": {"ios": "https://dc.lft.to/lastmile_qr_scan", "android": "https://dc.lft.to/lastmile_qr_scan"}, "is_reserved": 0, "lon": -76.954343, "fusion_lat": 0.0, "name": "a1c40eb7d2272999402e061fa5695cdb"}, {"type": "electric_scooter", "fusion_lon": 0.0, "bike_id": "a8ce615d12378cad1266fb5fc6e0d1e2", "is_disabled": 0, "lat": 38.898365166666665, "rental_uris": {"ios": "https://dc.lft.to/lastmile_qr_scan", "android": "https://dc.lft.to/lastmile_qr_scan"}, "is_reserved": 0, "lon": -77.05259133333334, "fusion_lat": 0.0, "name": "a8ce615d12378cad1266fb5fc6e0d1e2"}, {"type": "electric_scooter", "fusion_lon": 0.0, "bike_id": "52a440c241534f3127a0d23b605cda09", "is_disabled": 0, "lat": 38.906631833333336, "rental_uris": {"ios": "https://dc.lft.to/lastmile_qr_scan", "android": "https://dc.lft.to/lastmile_qr_scan"}, "is_reserved": 0, "lon": -76.97933916666666, "fusion_lat": 0.0, "name": "52a440c241534f3127a0d23b605cda09"}, {"type": "electric_scooter", "fusion_lon": 0.0, "bike_id": "60a625b33bfdfabe31d66f4947e231e5", "is_disabled": 0, "lat": 38.882105833333334, "rental_uris": {"ios": "https://dc.lft.to/lastmile_qr_scan", "android": "https://dc.lft.to/lastmile_qr_scan"}, "is_reserved": 0, "lon": -77.01768066666666, "fusion_lat": 0.0, "name": "60a625b33bfdfabe31d66f4947e231e5"}, {"type": "electric_scooter", "fusion_lon": 0.0, "bike_id": "c819f344d6541c182f4b4473327f62ee", "is_disabled": 0, "lat": 38.900203166666664, "rental_uris": {"ios": "https://dc.lft.to/lastmile_qr_scan", "android": "https://dc.lft.to/lastmile_qr_scan"}, "is_reserved": 0, "lon": -77.01035133333333, "fusion_lat": 0.0, "name": "c819f344d6541c182f4b4473327f62ee"}, {"type": "electric_scooter", "fusion_lon": 0.0, "bike_id": "4d13161c60c24e9850043abc52afce60", "is_disabled": 0, "lat": 38.913286666666664, "rental_uris": {"ios": "https://dc.lft.to/lastmile_qr_scan", "android": "https://dc.lft.to/lastmile_qr_scan"}, "is_reserved": 0, "lon": -77.0333155, "fusion_lat": 0.0, "name": "4d13161c60c24e9850043abc52afce60"}, {"type": "electric_bike", "fusion_lon": 0.0, "bike_id": "fa359e4c2fdc4c17cdf38e43145ec387", "is_disabled": 0, "lat": 38.835255, "rental_uris": {"ios": "https://dc.lft.to/lastmile_qr_scan", "android": "https://dc.lft.to/lastmile_qr_scan"}, "is_reserved": 0, "lon": -76.987046, "fusion_lat": 0.0, "name": "fa359e4c2fdc4c17cdf38e43145ec387"}, {"type": "electric_scooter", "fusion_lon": 0.0, "bike_id": "fef90813df3f234125164c34ea773b5a", "is_disabled": 0, "lat": 38.89975166666667, "rental_uris": {"ios": "https://dc.lft.to/lastmile_qr_scan", "android": "https://dc.lft.to/lastmile_qr_scan"}, "is_reserved": 0, "lon": -77.03145683333334, "fusion_lat": 0.0, "name": "fef90813df3f234125164c34ea773b5a"}, {"type": "electric_scooter", "fusion_lon": 0.0, "bike_id": "40995452c17f607d2986cef0a379b843", "is_disabled": 0, "lat": 38.88717533333333, "rental_uris": {"ios": "https://dc.lft.to/lastmile_qr_scan", "android": "https://dc.lft.to/lastmile_qr_scan"}, "is_reserved": 0, "lon": -77.02202083333333, "fusion_lat": 0.0, "name": "40995452c17f607d2986cef0a379b843"}, {"type": "electric_scooter", "fusion_lon": 0.0, "bike_id": "6c5f178607d2445db77b00b5e60003ff", "is_disabled": 0, "lat": 38.922518333333336, "rental_uris": {"ios": "https://dc.lft.to/lastmile_qr_scan", "android": "https://dc.lft.to/lastmile_qr_scan"}, "is_reserved": 0, "lon": -77.01943716666666, "fusion_lat": 0.0, "name": "6c5f178607d2445db77b00b5e60003ff"}, {"type": "electric_scooter", "fusion_lon": 0.0, "bike_id": "f72ad4b69fbd666514b221d47611672e", "is_disabled": 0, "lat": 38.92420116666667, "rental_uris": {"ios": "https://dc.lft.to/lastmile_qr_scan", "android": "https://dc.lft.to/lastmile_qr_scan"}, "is_reserved": 0, "lon": -77.01943616666667, "fusion_lat": 0.0, "name": "f72ad4b69fbd666514b221d47611672e"}, {"type": "electric_scooter", "fusion_lon": 0.0, "bike_id": "1615ec992dee92136c469ef765474d42", "is_disabled": 0, "lat": 38.92051933333333, "rental_uris": {"ios": "https://dc.lft.to/lastmile_qr_scan", "android": "https://dc.lft.to/lastmile_qr_scan"}, "is_reserved": 0, "lon": -77.0418675, "fusion_lat": 0.0, "name": "1615ec992dee92136c469ef765474d42"}, {"type": "electric_scooter", "fusion_lon": 0.0, "bike_id": "96c49ca3085dfc1511dc3f41cc0e6f6a", "is_disabled": 0, "lat": 38.86498016666667, "rental_uris": {"ios": "https://dc.lft.to/lastmile_qr_scan", "android": "https://dc.lft.to/lastmile_qr_scan"}, "is_reserved": 0, "lon": -76.98980883333333, "fusion_lat": 0.0, "name": "96c49ca3085dfc1511dc3f41cc0e6f6a"}, {"type": "electric_scooter", "fusion_lon": 0.0, "bike_id": "7dc8a9fec15de201f12e69214ba3dfe0", "is_disabled": 0, "lat": 38.9556405, "rental_uris": {"ios": "https://dc.lft.to/lastmile_qr_scan", "android": "https://dc.lft.to/lastmile_qr_scan"}, "is_reserved": 0, "lon": -77.07456716666667, "fusion_lat": 0.0, "name": "7dc8a9fec15de201f12e69214ba3dfe0"}, {"type": "electric_scooter", "fusion_lon": 0.0, "bike_id": "b1ac0ce67e67b3307ffd261184546133", "is_disabled": 0, "lat": 38.92058, "rental_uris": {"ios": "https://dc.lft.to/lastmile_qr_scan", "android": "https://dc.lft.to/lastmile_qr_scan"}, "is_reserved": 0, "lon": -77.04188616666667, "fusion_lat": 0.0, "name": "b1ac0ce67e67b3307ffd261184546133"}, {"type": "electric_scooter", "fusion_lon": 0.0, "bike_id": "12a1f258c6b0d1f86bace89dd318bc79", "is_disabled": 0, "lat": 38.8953645, "rental_uris": {"ios": "https://dc.lft.to/lastmile_qr_scan", "android": "https://dc.lft.to/lastmile_qr_scan"}, "is_reserved": 0, "lon": -76.94925316666667, "fusion_lat": 0.0, "name": "12a1f258c6b0d1f86bace89dd318bc79"}, {"type": "electric_scooter", "fusion_lon": 0.0, "bike_id": "e3d202cd0b176095cf9db3783d397a3b", "is_disabled": 0, "lat": 38.93248766666667, "rental_uris": {"ios": "https://dc.lft.to/lastmile_qr_scan", "android": "https://dc.lft.to/lastmile_qr_scan"}, "is_reserved": 0, "lon": -77.038543, "fusion_lat": 0.0, "name": "e3d202cd0b176095cf9db3783d397a3b"}, {"type": "electric_scooter", "fusion_lon": 0.0, "bike_id": "ac7ca570f08030877c1e7b36ab20de26", "is_disabled": 0, "lat": 38.90682266666666, "rental_uris": {"ios": "https://dc.lft.to/lastmile_qr_scan", "android": "https://dc.lft.to/lastmile_qr_scan"}, "is_reserved": 0, "lon": -77.038232, "fusion_lat": 0.0, "name": "ac7ca570f08030877c1e7b36ab20de26"}, {"type": "electric_scooter", "fusion_lon": 0.0, "bike_id": "63a226e1020794fd7467d35734d3d105", "is_disabled": 0, "lat": 38.90015783333333, "rental_uris": {"ios": "https://dc.lft.to/lastmile_qr_scan", "android": "https://dc.lft.to/lastmile_qr_scan"}, "is_reserved": 0, "lon": -77.01179233333333, "fusion_lat": 0.0, "name": "63a226e1020794fd7467d35734d3d105"}, {"type": "electric_scooter", "fusion_lon": 0.0, "bike_id": "9569b79d000e8df417f809f5a835f004", "is_disabled": 0, "lat": 38.88643783333333, "rental_uris": {"ios": "https://dc.lft.to/lastmile_qr_scan", "android": "https://dc.lft.to/lastmile_qr_scan"}, "is_reserved": 0, "lon": -76.9820975, "fusion_lat": 0.0, "name": "9569b79d000e8df417f809f5a835f004"}, {"type": "electric_scooter", "fusion_lon": 0.0, "bike_id": "aa9bcb39c947e25b0713d924eec5686d", "is_disabled": 0, "lat": 38.9248075, "rental_uris": {"ios": "https://dc.lft.to/lastmile_qr_scan", "android": "https://dc.lft.to/lastmile_qr_scan"}, "is_reserved": 0, "lon": -77.025522, "fusion_lat": 0.0, "name": "aa9bcb39c947e25b0713d924eec5686d"}, {"type": "electric_bike", "fusion_lon": 0.0, "bike_id": "2c297daf2544481ebf6c47579b3ead7f", "is_disabled": 0, "lat": 38.88040933333333, "rental_uris": {"ios": "https://dc.lft.to/lastmile_qr_scan", "android": "https://dc.lft.to/lastmile_qr_scan"}, "is_reserved": 0, "lon": -77.10927483333333, "fusion_lat": 0.0, "name": "2c297daf2544481ebf6c47579b3ead7f"}, {"type": "electric_scooter", "fusion_lon": 0.0, "bike_id": "918995cb30187cce14bb1663bd93fd4e", "is_disabled": 0, "lat": 38.9352765, "rental_uris": {"ios": "https://dc.lft.to/lastmile_qr_scan", "android": "https://dc.lft.to/lastmile_qr_scan"}, "is_reserved": 0, "lon": -77.02349233333334, "fusion_lat": 0.0, "name": "918995cb30187cce14bb1663bd93fd4e"}, {"type": "electric_scooter", "fusion_lon": 0.0, "bike_id": "67514115d383869a0af6b372bf172972", "is_disabled": 0, "lat": 38.894001833333334, "rental_uris": {"ios": "https://dc.lft.to/lastmile_qr_scan", "android": "https://dc.lft.to/lastmile_qr_scan"}, "is_reserved": 0, "lon": -77.02121583333333, "fusion_lat": 0.0, "name": "67514115d383869a0af6b372bf172972"}, {"type": "electric_scooter", "fusion_lon": 0.0, "bike_id": "5b3d97d3596d8e2ebeca8ed4eee959cb", "is_disabled": 0, "lat": 38.916176, "rental_uris": {"ios": "https://dc.lft.to/lastmile_qr_scan", "android": "https://dc.lft.to/lastmile_qr_scan"}, "is_reserved": 0, "lon": -77.041721, "fusion_lat": 0.0, "name": "5b3d97d3596d8e2ebeca8ed4eee959cb"}, {"type": "electric_scooter", "fusion_lon": 0.0, "bike_id": "2b5c5c95672cc4832b70a60b8b332f01", "is_disabled": 0, "lat": 38.9191925, "rental_uris": {"ios": "https://dc.lft.to/lastmile_qr_scan", "android": "https://dc.lft.to/lastmile_qr_scan"}, "is_reserved": 0, "lon": -77.0242025, "fusion_lat": 0.0, "name": "2b5c5c95672cc4832b70a60b8b332f01"}, {"type": "electric_scooter", "fusion_lon": 0.0, "bike_id": "ebaf976cb5c4e8892e09d4e919259dc6", "is_disabled": 0, "lat": 38.90793, "rental_uris": {"ios": "https://dc.lft.to/lastmile_qr_scan", "android": "https://dc.lft.to/lastmile_qr_scan"}, "is_reserved": 0, "lon": -77.00036683333333, "fusion_lat": 0.0, "name": "ebaf976cb5c4e8892e09d4e919259dc6"}, {"type": "electric_scooter", "fusion_lon": 0.0, "bike_id": "a32ba016ca9d402c3a5699ef5bbc1f3a", "is_disabled": 0, "lat": 38.862129833333334, "rental_uris": {"ios": "https://dc.lft.to/lastmile_qr_scan", "android": "https://dc.lft.to/lastmile_qr_scan"}, "is_reserved": 0, "lon": -76.99477383333334, "fusion_lat": 0.0, "name": "a32ba016ca9d402c3a5699ef5bbc1f3a"}, {"type": "electric_scooter", "fusion_lon": 0.0, "bike_id": "66a84d27f4880d63d96c1822ded6fcb9", "is_disabled": 0, "lat": 38.89946583333333, "rental_uris": {"ios": "https://dc.lft.to/lastmile_qr_scan", "android": "https://dc.lft.to/lastmile_qr_scan"}, "is_reserved": 0, "lon": -77.02000633333333, "fusion_lat": 0.0, "name": "66a84d27f4880d63d96c1822ded6fcb9"}, {"type": "electric_scooter", "fusion_lon": 0.0, "bike_id": "f152c1a8954395c83694bddcd3d00605", "is_disabled": 0, "lat": 38.8848595, "rental_uris": {"ios": "https://dc.lft.to/lastmile_qr_scan", "android": "https://dc.lft.to/lastmile_qr_scan"}, "is_reserved": 0, "lon": -77.01532766666666, "fusion_lat": 0.0, "name": "f152c1a8954395c83694bddcd3d00605"}, {"type": "electric_scooter", "fusion_lon": 0.0, "bike_id": "9393a0b72a0d75b43f7c15d3eed49124", "is_disabled": 0, "lat": 38.900507, "rental_uris": {"ios": "https://dc.lft.to/lastmile_qr_scan", "android": "https://dc.lft.to/lastmile_qr_scan"}, "is_reserved": 0, "lon": -76.98821616666666, "fusion_lat": 0.0, "name": "9393a0b72a0d75b43f7c15d3eed49124"}, {"type": "electric_scooter", "fusion_lon": 0.0, "bike_id": "4bf76680a923fc4acd046384c0907b81", "is_disabled": 0, "lat": 38.8864945, "rental_uris": {"ios": "https://dc.lft.to/lastmile_qr_scan", "android": "https://dc.lft.to/lastmile_qr_scan"}, "is_reserved": 0, "lon": -77.02135966666667, "fusion_lat": 0.0, "name": "4bf76680a923fc4acd046384c0907b81"}, {"type": "electric_scooter", "fusion_lon": 0.0, "bike_id": "d46d79a47b7d4e1ad9c533077979d9d7", "is_disabled": 0, "lat": 38.915116, "rental_uris": {"ios": "https://dc.lft.to/lastmile_qr_scan", "android": "https://dc.lft.to/lastmile_qr_scan"}, "is_reserved": 0, "lon": -77.0460045, "fusion_lat": 0.0, "name": "d46d79a47b7d4e1ad9c533077979d9d7"}, {"type": "electric_bike", "fusion_lon": 0.0, "bike_id": "fb50adbf49f91396c430d375f1497ea7", "is_disabled": 0, "lat": 38.9265875, "rental_uris": {"ios": "https://dc.lft.to/lastmile_qr_scan", "android": "https://dc.lft.to/lastmile_qr_scan"}, "is_reserved": 0, "lon": -77.09008166666666, "fusion_lat": 0.0, "name": "fb50adbf49f91396c430d375f1497ea7"}, {"type": "electric_scooter", "fusion_lon": 0.0, "bike_id": "ae9b8375e8680682ac65b5f4ac978781", "is_disabled": 0, "lat": 38.9231715, "rental_uris": {"ios": "https://dc.lft.to/lastmile_qr_scan", "android": "https://dc.lft.to/lastmile_qr_scan"}, "is_reserved": 0, "lon": -77.01949016666667, "fusion_lat": 0.0, "name": "ae9b8375e8680682ac65b5f4ac978781"}, {"type": "electric_scooter", "fusion_lon": 0.0, "bike_id": "5a0b69b90628e7a60b675c51b4de88d4", "is_disabled": 0, "lat": 38.916208, "rental_uris": {"ios": "https://dc.lft.to/lastmile_qr_scan", "android": "https://dc.lft.to/lastmile_qr_scan"}, "is_reserved": 0, "lon": -77.02304166666667, "fusion_lat": 0.0, "name": "5a0b69b90628e7a60b675c51b4de88d4"}, {"type": "electric_scooter", "fusion_lon": 0.0, "bike_id": "091f4fa99aaec261a03d1f4b4a3d6cd1", "is_disabled": 0, "lat": 38.9181315, "rental_uris": {"ios": "https://dc.lft.to/lastmile_qr_scan", "android": "https://dc.lft.to/lastmile_qr_scan"}, "is_reserved": 0, "lon": -77.02526316666666, "fusion_lat": 0.0, "name": "091f4fa99aaec261a03d1f4b4a3d6cd1"}, {"type": "electric_bike", "fusion_lon": 0.0, "bike_id": "8264978a005930b7eaf3c8bbe8841412", "is_disabled": 0, "lat": 38.981009666666665, "rental_uris": {"ios": "https://dc.lft.to/lastmile_qr_scan", "android": "https://dc.lft.to/lastmile_qr_scan"}, "is_reserved": 0, "lon": -77.00755316666667, "fusion_lat": 0.0, "name": "8264978a005930b7eaf3c8bbe8841412"}, {"type": "electric_scooter", "fusion_lon": 0.0, "bike_id": "ffb5292b9b67f063cd8bf3182f3c8ffd", "is_disabled": 0, "lat": 38.897778333333335, "rental_uris": {"ios": "https://dc.lft.to/lastmile_qr_scan", "android": "https://dc.lft.to/lastmile_qr_scan"}, "is_reserved": 0, "lon": -77.02187283333333, "fusion_lat": 0.0, "name": "ffb5292b9b67f063cd8bf3182f3c8ffd"}, {"type": "electric_bike", "fusion_lon": 0.0, "bike_id": "db2fdae1a2505d41e6f899cd3600b856", "is_disabled": 0, "lat": 38.850914833333334, "rental_uris": {"ios": "https://dc.lft.to/lastmile_qr_scan", "android": "https://dc.lft.to/lastmile_qr_scan"}, "is_reserved": 0, "lon": -76.95696416666667, "fusion_lat": 0.0, "name": "db2fdae1a2505d41e6f899cd3600b856"}, {"type": "electric_scooter", "fusion_lon": 0.0, "bike_id": "5dcc3b96622afe0f7b0aa4edb6b65638", "is_disabled": 0, "lat": 38.9260485, "rental_uris": {"ios": "https://dc.lft.to/lastmile_qr_scan", "android": "https://dc.lft.to/lastmile_qr_scan"}, "is_reserved": 0, "lon": -77.02148816666667, "fusion_lat": 0.0, "name": "5dcc3b96622afe0f7b0aa4edb6b65638"}, {"type": "electric_scooter", "fusion_lon": 0.0, "bike_id": "aa7d7c492fd2d7e6c6ee6b858a50062b", "is_disabled": 0, "lat": 38.90044983333333, "rental_uris": {"ios": "https://dc.lft.to/lastmile_qr_scan", "android": "https://dc.lft.to/lastmile_qr_scan"}, "is_reserved": 0, "lon": -76.98836683333333, "fusion_lat": 0.0, "name": "aa7d7c492fd2d7e6c6ee6b858a50062b"}, {"type": "electric_scooter", "fusion_lon": 0.0, "bike_id": "8c74a89a13617e1e21df434fab1d1847", "is_disabled": 0, "lat": 38.924011, "rental_uris": {"ios": "https://dc.lft.to/lastmile_qr_scan", "android": "https://dc.lft.to/lastmile_qr_scan"}, "is_reserved": 0, "lon": -77.024283, "fusion_lat": 0.0, "name": "8c74a89a13617e1e21df434fab1d1847"}, {"type": "electric_scooter", "fusion_lon": 0.0, "bike_id": "287fa55f6230b0faad408e14933286e0", "is_disabled": 0, "lat": 38.92253916666667, "rental_uris": {"ios": "https://dc.lft.to/lastmile_qr_scan", "android": "https://dc.lft.to/lastmile_qr_scan"}, "is_reserved": 0, "lon": -77.02116916666667, "fusion_lat": 0.0, "name": "287fa55f6230b0faad408e14933286e0"}, {"type": "electric_scooter", "fusion_lon": 0.0, "bike_id": "3961ee2af1f13f1f0e44afd26d1833b5", "is_disabled": 0, "lat": 38.92137016666667, "rental_uris": {"ios": "https://dc.lft.to/lastmile_qr_scan", "android": "https://dc.lft.to/lastmile_qr_scan"}, "is_reserved": 0, "lon": -77.06297933333333, "fusion_lat": 0.0, "name": "3961ee2af1f13f1f0e44afd26d1833b5"}, {"type": "electric_bike", "fusion_lon": 0.0, "bike_id": "2ae4546ab0594f841e3f033915aba819", "is_disabled": 0, "lat": 38.880266, "rental_uris": {"ios": "https://dc.lft.to/lastmile_qr_scan", "android": "https://dc.lft.to/lastmile_qr_scan"}, "is_reserved": 0, "lon": -76.917142, "fusion_lat": 0.0, "name": "2ae4546ab0594f841e3f033915aba819"}, {"type": "electric_scooter", "fusion_lon": 0.0, "bike_id": "458157cede279dc3bbe8daecbb8bdc4c", "is_disabled": 0, "lat": 38.94092233333333, "rental_uris": {"ios": "https://dc.lft.to/lastmile_qr_scan", "android": "https://dc.lft.to/lastmile_qr_scan"}, "is_reserved": 0, "lon": -77.02641033333333, "fusion_lat": 0.0, "name": "458157cede279dc3bbe8daecbb8bdc4c"}, {"type": "electric_scooter", "fusion_lon": 0.0, "bike_id": "89d99796b3181bdd92ed362585a47552", "is_disabled": 0, "lat": 38.9198975, "rental_uris": {"ios": "https://dc.lft.to/lastmile_qr_scan", "android": "https://dc.lft.to/lastmile_qr_scan"}, "is_reserved": 0, "lon": -76.97303616666667, "fusion_lat": 0.0, "name": "89d99796b3181bdd92ed362585a47552"}, {"type": "electric_scooter", "fusion_lon": 0.0, "bike_id": "f121905ff1e29d7d7bae01df7f57eb27", "is_disabled": 0, "lat": 38.902568333333335, "rental_uris": {"ios": "https://dc.lft.to/lastmile_qr_scan", "android": "https://dc.lft.to/lastmile_qr_scan"}, "is_reserved": 0, "lon": -77.005884, "fusion_lat": 0.0, "name": "f121905ff1e29d7d7bae01df7f57eb27"}, {"type": "electric_scooter", "fusion_lon": 0.0, "bike_id": "b32d2279f5178029dfc6158c4c27071d", "is_disabled": 0, "lat": 38.904742166666665, "rental_uris": {"ios": "https://dc.lft.to/lastmile_qr_scan", "android": "https://dc.lft.to/lastmile_qr_scan"}, "is_reserved": 0, "lon": -77.04601033333333, "fusion_lat": 0.0, "name": "b32d2279f5178029dfc6158c4c27071d"}, {"type": "electric_scooter", "fusion_lon": 0.0, "bike_id": "32e0d292c6bf06f88f3637d306d0a295", "is_disabled": 0, "lat": 38.903968, "rental_uris": {"ios": "https://dc.lft.to/lastmile_qr_scan", "android": "https://dc.lft.to/lastmile_qr_scan"}, "is_reserved": 0, "lon": -77.06809366666667, "fusion_lat": 0.0, "name": "32e0d292c6bf06f88f3637d306d0a295"}, {"type": "electric_scooter", "fusion_lon": 0.0, "bike_id": "16b29e996ecfaa4fbcb8b87411f1b79a", "is_disabled": 0, "lat": 38.935334833333336, "rental_uris": {"ios": "https://dc.lft.to/lastmile_qr_scan", "android": "https://dc.lft.to/lastmile_qr_scan"}, "is_reserved": 0, "lon": -77.0234775, "fusion_lat": 0.0, "name": "16b29e996ecfaa4fbcb8b87411f1b79a"}, {"type": "electric_scooter", "fusion_lon": 0.0, "bike_id": "e502b7bbfb7c02412f6c8c1733ed372d", "is_disabled": 0, "lat": 38.920883833333335, "rental_uris": {"ios": "https://dc.lft.to/lastmile_qr_scan", "android": "https://dc.lft.to/lastmile_qr_scan"}, "is_reserved": 0, "lon": -77.04225033333333, "fusion_lat": 0.0, "name": "e502b7bbfb7c02412f6c8c1733ed372d"}, {"type": "electric_scooter", "fusion_lon": 0.0, "bike_id": "26a3086ec52eae9c94a2b0ff7e4dc443", "is_disabled": 0, "lat": 38.909443333333336, "rental_uris": {"ios": "https://dc.lft.to/lastmile_qr_scan", "android": "https://dc.lft.to/lastmile_qr_scan"}, "is_reserved": 0, "lon": -77.04656766666666, "fusion_lat": 0.0, "name": "26a3086ec52eae9c94a2b0ff7e4dc443"}, {"type": "electric_scooter", "fusion_lon": 0.0, "bike_id": "398663bf99e2e693e126e2c2f511607a", "is_disabled": 0, "lat": 38.9001365, "rental_uris": {"ios": "https://dc.lft.to/lastmile_qr_scan", "android": "https://dc.lft.to/lastmile_qr_scan"}, "is_reserved": 0, "lon": -77.00576066666666, "fusion_lat": 0.0, "name": "398663bf99e2e693e126e2c2f511607a"}, {"type": "electric_scooter", "fusion_lon": 0.0, "bike_id": "3e349295b195627ce5189bcf5da049f3", "is_disabled": 0, "lat": 38.916406333333335, "rental_uris": {"ios": "https://dc.lft.to/lastmile_qr_scan", "android": "https://dc.lft.to/lastmile_qr_scan"}, "is_reserved": 0, "lon": -76.98281383333334, "fusion_lat": 0.0, "name": "3e349295b195627ce5189bcf5da049f3"}, {"type": "electric_scooter", "fusion_lon": 0.0, "bike_id": "a9d467d53f28ef14ac36e15e6e5ed05c", "is_disabled": 0, "lat": 38.90892766666666, "rental_uris": {"ios": "https://dc.lft.to/lastmile_qr_scan", "android": "https://dc.lft.to/lastmile_qr_scan"}, "is_reserved": 0, "lon": -77.04398333333333, "fusion_lat": 0.0, "name": "a9d467d53f28ef14ac36e15e6e5ed05c"}, {"type": "electric_scooter", "fusion_lon": 0.0, "bike_id": "1310671ef04830e3b2b852cb307af92f", "is_disabled": 0, "lat": 38.90019916666667, "rental_uris": {"ios": "https://dc.lft.to/lastmile_qr_scan", "android": "https://dc.lft.to/lastmile_qr_scan"}, "is_reserved": 0, "lon": -77.01178816666666, "fusion_lat": 0.0, "name": "1310671ef04830e3b2b852cb307af92f"}, {"type": "electric_scooter", "fusion_lon": 0.0, "bike_id": "3ba5cb63fd45c5365ab665a2eec75604", "is_disabled": 0, "lat": 38.89218566666667, "rental_uris": {"ios": "https://dc.lft.to/lastmile_qr_scan", "android": "https://dc.lft.to/lastmile_qr_scan"}, "is_reserved": 0, "lon": -77.023718, "fusion_lat": 0.0, "name": "3ba5cb63fd45c5365ab665a2eec75604"}, {"type": "electric_scooter", "fusion_lon": 0.0, "bike_id": "2bdc47682f8e62c18ca7ba372f715751", "is_disabled": 0, "lat": 38.92459916666667, "rental_uris": {"ios": "https://dc.lft.to/lastmile_qr_scan", "android": "https://dc.lft.to/lastmile_qr_scan"}, "is_reserved": 0, "lon": -77.03284316666667, "fusion_lat": 0.0, "name": "2bdc47682f8e62c18ca7ba372f715751"}, {"type": "electric_bike", "fusion_lon": 0.0, "bike_id": "6f7d21ca3366ef4274efd2efdcfa2762", "is_disabled": 0, "lat": 38.831019, "rental_uris": {"ios": "https://dc.lft.to/lastmile_qr_scan", "android": "https://dc.lft.to/lastmile_qr_scan"}, "is_reserved": 0, "lon": -77.11280966666666, "fusion_lat": 0.0, "name": "6f7d21ca3366ef4274efd2efdcfa2762"}, {"type": "electric_scooter", "fusion_lon": 0.0, "bike_id": "17dced41b42582e0e75e16272c294a19", "is_disabled": 0, "lat": 38.917854166666665, "rental_uris": {"ios": "https://dc.lft.to/lastmile_qr_scan", "android": "https://dc.lft.to/lastmile_qr_scan"}, "is_reserved": 0, "lon": -77.02304683333334, "fusion_lat": 0.0, "name": "17dced41b42582e0e75e16272c294a19"}, {"type": "electric_bike", "fusion_lon": 0.0, "bike_id": "4f3a621f93535a67289696ce9a9a365a", "is_disabled": 0, "lat": 38.900113833333336, "rental_uris": {"ios": "https://dc.lft.to/lastmile_qr_scan", "android": "https://dc.lft.to/lastmile_qr_scan"}, "is_reserved": 0, "lon": -77.00542716666666, "fusion_lat": 0.0, "name": "4f3a621f93535a67289696ce9a9a365a"}, {"type": "electric_scooter", "fusion_lon": 0.0, "bike_id": "2bf7831157412307e9cc314893ef3f7c", "is_disabled": 0, "lat": 38.902815, "rental_uris": {"ios": "https://dc.lft.to/lastmile_qr_scan", "android": "https://dc.lft.to/lastmile_qr_scan"}, "is_reserved": 0, "lon": -77.03834083333334, "fusion_lat": 0.0, "name": "2bf7831157412307e9cc314893ef3f7c"}, {"type": "electric_scooter", "fusion_lon": 0.0, "bike_id": "1ca73bb41328c8dd17e45a3804f09e59", "is_disabled": 0, "lat": 38.89454466666667, "rental_uris": {"ios": "https://dc.lft.to/lastmile_qr_scan", "android": "https://dc.lft.to/lastmile_qr_scan"}, "is_reserved": 0, "lon": -77.00342183333333, "fusion_lat": 0.0, "name": "1ca73bb41328c8dd17e45a3804f09e59"}, {"type": "electric_scooter", "fusion_lon": 0.0, "bike_id": "ee9ee8fd75be96863624673d5a45ffcd", "is_disabled": 0, "lat": 38.910362, "rental_uris": {"ios": "https://dc.lft.to/lastmile_qr_scan", "android": "https://dc.lft.to/lastmile_qr_scan"}, "is_reserved": 0, "lon": -77.03436416666666, "fusion_lat": 0.0, "name": "ee9ee8fd75be96863624673d5a45ffcd"}, {"type": "electric_scooter", "fusion_lon": 0.0, "bike_id": "c2d1e99f506d3cff6e4ba37176aacfc1", "is_disabled": 0, "lat": 38.892550666666665, "rental_uris": {"ios": "https://dc.lft.to/lastmile_qr_scan", "android": "https://dc.lft.to/lastmile_qr_scan"}, "is_reserved": 0, "lon": -77.022012, "fusion_lat": 0.0, "name": "c2d1e99f506d3cff6e4ba37176aacfc1"}, {"type": "electric_scooter", "fusion_lon": 0.0, "bike_id": "4ab67da8c333609116f3fc334f757c75", "is_disabled": 0, "lat": 38.92896733333333, "rental_uris": {"ios": "https://dc.lft.to/lastmile_qr_scan", "android": "https://dc.lft.to/lastmile_qr_scan"}, "is_reserved": 0, "lon": -77.05806683333333, "fusion_lat": 0.0, "name": "4ab67da8c333609116f3fc334f757c75"}, {"type": "electric_scooter", "fusion_lon": 0.0, "bike_id": "2174281a9169c3a316071bd614803036", "is_disabled": 0, "lat": 38.89938583333333, "rental_uris": {"ios": "https://dc.lft.to/lastmile_qr_scan", "android": "https://dc.lft.to/lastmile_qr_scan"}, "is_reserved": 0, "lon": -77.0417405, "fusion_lat": 0.0, "name": "2174281a9169c3a316071bd614803036"}, {"type": "electric_scooter", "fusion_lon": 0.0, "bike_id": "68ef6141c631d1c208955a32e04cea1c", "is_disabled": 0, "lat": 38.913380333333336, "rental_uris": {"ios": "https://dc.lft.to/lastmile_qr_scan", "android": "https://dc.lft.to/lastmile_qr_scan"}, "is_reserved": 0, "lon": -77.06319, "fusion_lat": 0.0, "name": "68ef6141c631d1c208955a32e04cea1c"}, {"type": "electric_bike", "fusion_lon": 0.0, "bike_id": "42932246fcd0c64c8a75cbac0a60f42c", "is_disabled": 0, "lat": 38.91038, "rental_uris": {"ios": "https://dc.lft.to/lastmile_qr_scan", "android": "https://dc.lft.to/lastmile_qr_scan"}, "is_reserved": 0, "lon": -77.07554583333334, "fusion_lat": 0.0, "name": "42932246fcd0c64c8a75cbac0a60f42c"}, {"type": "electric_scooter", "fusion_lon": 0.0, "bike_id": "a0e600d6d8e5ed02be133cc6d0e51fb1", "is_disabled": 0, "lat": 38.917676166666666, "rental_uris": {"ios": "https://dc.lft.to/lastmile_qr_scan", "android": "https://dc.lft.to/lastmile_qr_scan"}, "is_reserved": 0, "lon": -77.023422, "fusion_lat": 0.0, "name": "a0e600d6d8e5ed02be133cc6d0e51fb1"}, {"type": "electric_scooter", "fusion_lon": 0.0, "bike_id": "f5a0e1e978f0bdbb328e0bf8c0a93751", "is_disabled": 0, "lat": 38.9097515, "rental_uris": {"ios": "https://dc.lft.to/lastmile_qr_scan", "android": "https://dc.lft.to/lastmile_qr_scan"}, "is_reserved": 0, "lon": -76.99709516666667, "fusion_lat": 0.0, "name": "f5a0e1e978f0bdbb328e0bf8c0a93751"}, {"type": "electric_scooter", "fusion_lon": 0.0, "bike_id": "c4da19c58849da8241e8c5d83f9ec949", "is_disabled": 0, "lat": 38.902696, "rental_uris": {"ios": "https://dc.lft.to/lastmile_qr_scan", "android": "https://dc.lft.to/lastmile_qr_scan"}, "is_reserved": 0, "lon": -77.04590733333333, "fusion_lat": 0.0, "name": "c4da19c58849da8241e8c5d83f9ec949"}, {"type": "electric_bike", "fusion_lon": 0.0, "bike_id": "f5e266be004694959eea116b54552f41", "is_disabled": 0, "lat": 38.92201266666667, "rental_uris": {"ios": "https://dc.lft.to/lastmile_qr_scan", "android": "https://dc.lft.to/lastmile_qr_scan"}, "is_reserved": 0, "lon": -77.0819265, "fusion_lat": 0.0, "name": "f5e266be004694959eea116b54552f41"}, {"type": "electric_scooter", "fusion_lon": 0.0, "bike_id": "f3f4019764788f6f61d9dd04269dbacf", "is_disabled": 0, "lat": 38.87671533333334, "rental_uris": {"ios": "https://dc.lft.to/lastmile_qr_scan", "android": "https://dc.lft.to/lastmile_qr_scan"}, "is_reserved": 0, "lon": -77.00931516666667, "fusion_lat": 0.0, "name": "f3f4019764788f6f61d9dd04269dbacf"}, {"type": "electric_scooter", "fusion_lon": 0.0, "bike_id": "c05e0cb425d9beb5dc9d554a5748f269", "is_disabled": 0, "lat": 38.91109316666667, "rental_uris": {"ios": "https://dc.lft.to/lastmile_qr_scan", "android": "https://dc.lft.to/lastmile_qr_scan"}, "is_reserved": 0, "lon": -77.04472266666667, "fusion_lat": 0.0, "name": "c05e0cb425d9beb5dc9d554a5748f269"}, {"type": "electric_scooter", "fusion_lon": 0.0, "bike_id": "3612037cbfe176e1e17995f6b0178c5b", "is_disabled": 0, "lat": 38.92244133333333, "rental_uris": {"ios": "https://dc.lft.to/lastmile_qr_scan", "android": "https://dc.lft.to/lastmile_qr_scan"}, "is_reserved": 0, "lon": -77.07294916666666, "fusion_lat": 0.0, "name": "3612037cbfe176e1e17995f6b0178c5b"}, {"type": "electric_scooter", "fusion_lon": 0.0, "bike_id": "1d3a5df6d87333fb90d58f66c3676c78", "is_disabled": 0, "lat": 38.87788416666667, "rental_uris": {"ios": "https://dc.lft.to/lastmile_qr_scan", "android": "https://dc.lft.to/lastmile_qr_scan"}, "is_reserved": 0, "lon": -76.99404083333333, "fusion_lat": 0.0, "name": "1d3a5df6d87333fb90d58f66c3676c78"}, {"type": "electric_scooter", "fusion_lon": 0.0, "bike_id": "44d415d15a5280bb80b7b67aceb4725d", "is_disabled": 0, "lat": 38.92769066666666, "rental_uris": {"ios": "https://dc.lft.to/lastmile_qr_scan", "android": "https://dc.lft.to/lastmile_qr_scan"}, "is_reserved": 0, "lon": -77.0293575, "fusion_lat": 0.0, "name": "44d415d15a5280bb80b7b67aceb4725d"}, {"type": "electric_bike", "fusion_lon": 0.0, "bike_id": "fb5f21301f174b19e0bc2abb7548ce0d", "is_disabled": 0, "lat": 38.8623115, "rental_uris": {"ios": "https://dc.lft.to/lastmile_qr_scan", "android": "https://dc.lft.to/lastmile_qr_scan"}, "is_reserved": 0, "lon": -76.9958245, "fusion_lat": 0.0, "name": "fb5f21301f174b19e0bc2abb7548ce0d"}, {"type": "electric_scooter", "fusion_lon": 0.0, "bike_id": "16d1b73f5bf252c4cafb08d0de3909ba", "is_disabled": 0, "lat": 38.900429833333334, "rental_uris": {"ios": "https://dc.lft.to/lastmile_qr_scan", "android": "https://dc.lft.to/lastmile_qr_scan"}, "is_reserved": 0, "lon": -77.024102, "fusion_lat": 0.0, "name": "16d1b73f5bf252c4cafb08d0de3909ba"}, {"type": "electric_scooter", "fusion_lon": 0.0, "bike_id": "d4ccd178a2d392464fa69f7d9946d342", "is_disabled": 0, "lat": 38.905773833333335, "rental_uris": {"ios": "https://dc.lft.to/lastmile_qr_scan", "android": "https://dc.lft.to/lastmile_qr_scan"}, "is_reserved": 0, "lon": -77.04600266666667, "fusion_lat": 0.0, "name": "d4ccd178a2d392464fa69f7d9946d342"}, {"type": "electric_scooter", "fusion_lon": 0.0, "bike_id": "5ef29affb92ea223f3eb4d37a1f2185c", "is_disabled": 0, "lat": 38.89556783333333, "rental_uris": {"ios": "https://dc.lft.to/lastmile_qr_scan", "android": "https://dc.lft.to/lastmile_qr_scan"}, "is_reserved": 0, "lon": -77.0467275, "fusion_lat": 0.0, "name": "5ef29affb92ea223f3eb4d37a1f2185c"}, {"type": "electric_scooter", "fusion_lon": 0.0, "bike_id": "46a7cf0bc2e6b30f83706f4e0b0cbe7f", "is_disabled": 0, "lat": 38.9282445, "rental_uris": {"ios": "https://dc.lft.to/lastmile_qr_scan", "android": "https://dc.lft.to/lastmile_qr_scan"}, "is_reserved": 0, "lon": -77.0225595, "fusion_lat": 0.0, "name": "46a7cf0bc2e6b30f83706f4e0b0cbe7f"}, {"type": "electric_scooter", "fusion_lon": 0.0, "bike_id": "ee7093a592eed60794301708e845fe26", "is_disabled": 0, "lat": 38.92449516666667, "rental_uris": {"ios": "https://dc.lft.to/lastmile_qr_scan", "android": "https://dc.lft.to/lastmile_qr_scan"}, "is_reserved": 0, "lon": -77.051966, "fusion_lat": 0.0, "name": "ee7093a592eed60794301708e845fe26"}, {"type": "electric_scooter", "fusion_lon": 0.0, "bike_id": "804c931fc0a68fea92da073a9404843c", "is_disabled": 0, "lat": 38.9195345, "rental_uris": {"ios": "https://dc.lft.to/lastmile_qr_scan", "android": "https://dc.lft.to/lastmile_qr_scan"}, "is_reserved": 0, "lon": -77.02488966666667, "fusion_lat": 0.0, "name": "804c931fc0a68fea92da073a9404843c"}, {"type": "electric_scooter", "fusion_lon": 0.0, "bike_id": "da3a474eb5c37fd1eaa672a074c13805", "is_disabled": 0, "lat": 38.93283566666667, "rental_uris": {"ios": "https://dc.lft.to/lastmile_qr_scan", "android": "https://dc.lft.to/lastmile_qr_scan"}, "is_reserved": 0, "lon": -77.0369825, "fusion_lat": 0.0, "name": "da3a474eb5c37fd1eaa672a074c13805"}, {"type": "electric_scooter", "fusion_lon": 0.0, "bike_id": "8c57451108d24085c0e8b6108c242513", "is_disabled": 0, "lat": 38.92270533333333, "rental_uris": {"ios": "https://dc.lft.to/lastmile_qr_scan", "android": "https://dc.lft.to/lastmile_qr_scan"}, "is_reserved": 0, "lon": -77.0191945, "fusion_lat": 0.0, "name": "8c57451108d24085c0e8b6108c242513"}, {"type": "electric_scooter", "fusion_lon": 0.0, "bike_id": "67110f08a09f383b65c931e9717c229e", "is_disabled": 0, "lat": 38.885070666666664, "rental_uris": {"ios": "https://dc.lft.to/lastmile_qr_scan", "android": "https://dc.lft.to/lastmile_qr_scan"}, "is_reserved": 0, "lon": -77.020756, "fusion_lat": 0.0, "name": "67110f08a09f383b65c931e9717c229e"}, {"type": "electric_scooter", "fusion_lon": 0.0, "bike_id": "6a8cd0589fc7284733a8a5d8a64f6b93", "is_disabled": 0, "lat": 38.892225333333336, "rental_uris": {"ios": "https://dc.lft.to/lastmile_qr_scan", "android": "https://dc.lft.to/lastmile_qr_scan"}, "is_reserved": 0, "lon": -77.04854316666666, "fusion_lat": 0.0, "name": "6a8cd0589fc7284733a8a5d8a64f6b93"}, {"type": "electric_scooter", "fusion_lon": 0.0, "bike_id": "a9f09c68206feeebd2e89b384f11fea9", "is_disabled": 0, "lat": 38.9245515, "rental_uris": {"ios": "https://dc.lft.to/lastmile_qr_scan", "android": "https://dc.lft.to/lastmile_qr_scan"}, "is_reserved": 0, "lon": -77.03293616666667, "fusion_lat": 0.0, "name": "a9f09c68206feeebd2e89b384f11fea9"}, {"type": "electric_bike", "fusion_lon": 0.0, "bike_id": "d9095cbbd0e1d75abd0a415fdc364b97", "is_disabled": 0, "lat": 38.956667, "rental_uris": {"ios": "https://dc.lft.to/lastmile_qr_scan", "android": "https://dc.lft.to/lastmile_qr_scan"}, "is_reserved": 0, "lon": -77.01317983333334, "fusion_lat": 0.0, "name": "d9095cbbd0e1d75abd0a415fdc364b97"}, {"type": "electric_scooter", "fusion_lon": 0.0, "bike_id": "d32e06401badd0594b63e633aa837542", "is_disabled": 0, "lat": 38.920183333333334, "rental_uris": {"ios": "https://dc.lft.to/lastmile_qr_scan", "android": "https://dc.lft.to/lastmile_qr_scan"}, "is_reserved": 0, "lon": -77.0314705, "fusion_lat": 0.0, "name": "d32e06401badd0594b63e633aa837542"}, {"type": "electric_scooter", "fusion_lon": 0.0, "bike_id": "8492a6b7e37ab8edc77d610d15682b22", "is_disabled": 0, "lat": 38.90585466666667, "rental_uris": {"ios": "https://dc.lft.to/lastmile_qr_scan", "android": "https://dc.lft.to/lastmile_qr_scan"}, "is_reserved": 0, "lon": -77.06515333333333, "fusion_lat": 0.0, "name": "8492a6b7e37ab8edc77d610d15682b22"}, {"type": "electric_scooter", "fusion_lon": 0.0, "bike_id": "0f39da2f5619cc620a937261b280603c", "is_disabled": 0, "lat": 38.8929455, "rental_uris": {"ios": "https://dc.lft.to/lastmile_qr_scan", "android": "https://dc.lft.to/lastmile_qr_scan"}, "is_reserved": 0, "lon": -76.95110283333334, "fusion_lat": 0.0, "name": "0f39da2f5619cc620a937261b280603c"}, {"type": "electric_scooter", "fusion_lon": 0.0, "bike_id": "ff77a3b98d969c9daa0f9bec9d6c8867", "is_disabled": 0, "lat": 38.90846533333333, "rental_uris": {"ios": "https://dc.lft.to/lastmile_qr_scan", "android": "https://dc.lft.to/lastmile_qr_scan"}, "is_reserved": 0, "lon": -77.03636566666667, "fusion_lat": 0.0, "name": "ff77a3b98d969c9daa0f9bec9d6c8867"}, {"type": "electric_scooter", "fusion_lon": 0.0, "bike_id": "43e790b326e3635fa271da57b6c97518", "is_disabled": 0, "lat": 38.909657333333335, "rental_uris": {"ios": "https://dc.lft.to/lastmile_qr_scan", "android": "https://dc.lft.to/lastmile_qr_scan"}, "is_reserved": 0, "lon": -77.0382715, "fusion_lat": 0.0, "name": "43e790b326e3635fa271da57b6c97518"}, {"type": "electric_scooter", "fusion_lon": 0.0, "bike_id": "64ed73149b4ca08d69fe1480ac22acd8", "is_disabled": 0, "lat": 38.89735733333333, "rental_uris": {"ios": "https://dc.lft.to/lastmile_qr_scan", "android": "https://dc.lft.to/lastmile_qr_scan"}, "is_reserved": 0, "lon": -77.007524, "fusion_lat": 0.0, "name": "64ed73149b4ca08d69fe1480ac22acd8"}, {"type": "electric_scooter", "fusion_lon": 0.0, "bike_id": "56976db6537b06fe326d63b04b6b636c", "is_disabled": 0, "lat": 38.8980065, "rental_uris": {"ios": "https://dc.lft.to/lastmile_qr_scan", "android": "https://dc.lft.to/lastmile_qr_scan"}, "is_reserved": 0, "lon": -77.041956, "fusion_lat": 0.0, "name": "56976db6537b06fe326d63b04b6b636c"}, {"type": "electric_scooter", "fusion_lon": 0.0, "bike_id": "0701f5d415d8571f10073306dd4e51b8", "is_disabled": 0, "lat": 38.9257305, "rental_uris": {"ios": "https://dc.lft.to/lastmile_qr_scan", "android": "https://dc.lft.to/lastmile_qr_scan"}, "is_reserved": 0, "lon": -77.03273883333334, "fusion_lat": 0.0, "name": "0701f5d415d8571f10073306dd4e51b8"}, {"type": "electric_scooter", "fusion_lon": 0.0, "bike_id": "e1b5189f2845cff1877aa024e8fa95f4", "is_disabled": 0, "lat": 38.89014266666667, "rental_uris": {"ios": "https://dc.lft.to/lastmile_qr_scan", "android": "https://dc.lft.to/lastmile_qr_scan"}, "is_reserved": 0, "lon": -76.93740166666667, "fusion_lat": 0.0, "name": "e1b5189f2845cff1877aa024e8fa95f4"}, {"type": "electric_scooter", "fusion_lon": 0.0, "bike_id": "1ca6b4ca62d7c8bb64e41c15a3c87c87", "is_disabled": 0, "lat": 38.93304783333333, "rental_uris": {"ios": "https://dc.lft.to/lastmile_qr_scan", "android": "https://dc.lft.to/lastmile_qr_scan"}, "is_reserved": 0, "lon": -77.03259583333333, "fusion_lat": 0.0, "name": "1ca6b4ca62d7c8bb64e41c15a3c87c87"}, {"type": "electric_scooter", "fusion_lon": 0.0, "bike_id": "c4ccc8c685657e91c04887a5ec1b065d", "is_disabled": 0, "lat": 38.905332, "rental_uris": {"ios": "https://dc.lft.to/lastmile_qr_scan", "android": "https://dc.lft.to/lastmile_qr_scan"}, "is_reserved": 0, "lon": -77.04937733333334, "fusion_lat": 0.0, "name": "c4ccc8c685657e91c04887a5ec1b065d"}, {"type": "electric_scooter", "fusion_lon": 0.0, "bike_id": "9b8e7ce59e644c8b2207c93359a14040", "is_disabled": 0, "lat": 38.910522666666665, "rental_uris": {"ios": "https://dc.lft.to/lastmile_qr_scan", "android": "https://dc.lft.to/lastmile_qr_scan"}, "is_reserved": 0, "lon": -77.0501805, "fusion_lat": 0.0, "name": "9b8e7ce59e644c8b2207c93359a14040"}, {"type": "electric_scooter", "fusion_lon": 0.0, "bike_id": "9c08b6c69ec72f01e09c74fe0d009a77", "is_disabled": 0, "lat": 38.91040533333333, "rental_uris": {"ios": "https://dc.lft.to/lastmile_qr_scan", "android": "https://dc.lft.to/lastmile_qr_scan"}, "is_reserved": 0, "lon": -76.985656, "fusion_lat": 0.0, "name": "9c08b6c69ec72f01e09c74fe0d009a77"}, {"type": "electric_scooter", "fusion_lon": 0.0, "bike_id": "0e1811c471fbd00a4f3850777c11233d", "is_disabled": 0, "lat": 38.875759333333335, "rental_uris": {"ios": "https://dc.lft.to/lastmile_qr_scan", "android": "https://dc.lft.to/lastmile_qr_scan"}, "is_reserved": 0, "lon": -77.006029, "fusion_lat": 0.0, "name": "0e1811c471fbd00a4f3850777c11233d"}, {"type": "electric_scooter", "fusion_lon": 0.0, "bike_id": "cd590a6542970bff8f3add36a663d916", "is_disabled": 0, "lat": 38.8923725, "rental_uris": {"ios": "https://dc.lft.to/lastmile_qr_scan", "android": "https://dc.lft.to/lastmile_qr_scan"}, "is_reserved": 0, "lon": -77.04674216666666, "fusion_lat": 0.0, "name": "cd590a6542970bff8f3add36a663d916"}, {"type": "electric_scooter", "fusion_lon": 0.0, "bike_id": "06be8511f59914b6d091a4690b4602ac", "is_disabled": 0, "lat": 38.93790533333333, "rental_uris": {"ios": "https://dc.lft.to/lastmile_qr_scan", "android": "https://dc.lft.to/lastmile_qr_scan"}, "is_reserved": 0, "lon": -77.02328216666666, "fusion_lat": 0.0, "name": "06be8511f59914b6d091a4690b4602ac"}, {"type": "electric_scooter", "fusion_lon": 0.0, "bike_id": "418fb8898cfaa126e896940e07fda696", "is_disabled": 0, "lat": 38.92613333333333, "rental_uris": {"ios": "https://dc.lft.to/lastmile_qr_scan", "android": "https://dc.lft.to/lastmile_qr_scan"}, "is_reserved": 0, "lon": -77.02156466666666, "fusion_lat": 0.0, "name": "418fb8898cfaa126e896940e07fda696"}, {"type": "electric_scooter", "fusion_lon": 0.0, "bike_id": "1c12684ca80b7009078eb3650ff0519e", "is_disabled": 0, "lat": 38.8922145, "rental_uris": {"ios": "https://dc.lft.to/lastmile_qr_scan", "android": "https://dc.lft.to/lastmile_qr_scan"}, "is_reserved": 0, "lon": -77.04367866666666, "fusion_lat": 0.0, "name": "1c12684ca80b7009078eb3650ff0519e"}, {"type": "electric_scooter", "fusion_lon": 0.0, "bike_id": "9864bf29a22870ebf2b95ce100f87380", "is_disabled": 0, "lat": 38.89631333333333, "rental_uris": {"ios": "https://dc.lft.to/lastmile_qr_scan", "android": "https://dc.lft.to/lastmile_qr_scan"}, "is_reserved": 0, "lon": -77.05027766666667, "fusion_lat": 0.0, "name": "9864bf29a22870ebf2b95ce100f87380"}, {"type": "electric_scooter", "fusion_lon": 0.0, "bike_id": "70ec9331a40301e84121f327d2942f9b", "is_disabled": 0, "lat": 38.89718766666667, "rental_uris": {"ios": "https://dc.lft.to/lastmile_qr_scan", "android": "https://dc.lft.to/lastmile_qr_scan"}, "is_reserved": 0, "lon": -77.007967, "fusion_lat": 0.0, "name": "70ec9331a40301e84121f327d2942f9b"}, {"type": "electric_scooter", "fusion_lon": 0.0, "bike_id": "e22ac674d62918dc0181878c2efc285f", "is_disabled": 0, "lat": 38.877264333333336, "rental_uris": {"ios": "https://dc.lft.to/lastmile_qr_scan", "android": "https://dc.lft.to/lastmile_qr_scan"}, "is_reserved": 0, "lon": -77.01772616666666, "fusion_lat": 0.0, "name": "e22ac674d62918dc0181878c2efc285f"}, {"type": "electric_scooter", "fusion_lon": 0.0, "bike_id": "f9ee1b4a307d08bdfd74ecc9b2e9b017", "is_disabled": 0, "lat": 38.924739333333335, "rental_uris": {"ios": "https://dc.lft.to/lastmile_qr_scan", "android": "https://dc.lft.to/lastmile_qr_scan"}, "is_reserved": 0, "lon": -77.03911633333334, "fusion_lat": 0.0, "name": "f9ee1b4a307d08bdfd74ecc9b2e9b017"}, {"type": "electric_scooter", "fusion_lon": 0.0, "bike_id": "7514478ef0a7682b2819de87253788bb", "is_disabled": 0, "lat": 38.966075000000004, "rental_uris": {"ios": "https://dc.lft.to/lastmile_qr_scan", "android": "https://dc.lft.to/lastmile_qr_scan"}, "is_reserved": 0, "lon": -77.02748516666666, "fusion_lat": 0.0, "name": "7514478ef0a7682b2819de87253788bb"}, {"type": "electric_bike", "fusion_lon": 0.0, "bike_id": "118b8aab4ce819c52ca061da0bc318f6", "is_disabled": 0, "lat": 38.9171455, "rental_uris": {"ios": "https://dc.lft.to/lastmile_qr_scan", "android": "https://dc.lft.to/lastmile_qr_scan"}, "is_reserved": 0, "lon": -77.04591116666667, "fusion_lat": 0.0, "name": "118b8aab4ce819c52ca061da0bc318f6"}, {"type": "electric_bike", "fusion_lon": 0.0, "bike_id": "3acde2bc8875bf787cb67e8bf8c30a44", "is_disabled": 0, "lat": 38.8960735, "rental_uris": {"ios": "https://dc.lft.to/lastmile_qr_scan", "android": "https://dc.lft.to/lastmile_qr_scan"}, "is_reserved": 0, "lon": -77.0221605, "fusion_lat": 0.0, "name": "3acde2bc8875bf787cb67e8bf8c30a44"}, {"type": "electric_scooter", "fusion_lon": 0.0, "bike_id": "e5f603db7fd25c939a3422b2a95f5e36", "is_disabled": 0, "lat": 38.83793983333333, "rental_uris": {"ios": "https://dc.lft.to/lastmile_qr_scan", "android": "https://dc.lft.to/lastmile_qr_scan"}, "is_reserved": 0, "lon": -77.00450633333334, "fusion_lat": 0.0, "name": "e5f603db7fd25c939a3422b2a95f5e36"}, {"type": "electric_scooter", "fusion_lon": 0.0, "bike_id": "ccb96e862a3c968b25f8d50f5e38c882", "is_disabled": 0, "lat": 38.92122833333333, "rental_uris": {"ios": "https://dc.lft.to/lastmile_qr_scan", "android": "https://dc.lft.to/lastmile_qr_scan"}, "is_reserved": 0, "lon": -77.04208116666666, "fusion_lat": 0.0, "name": "ccb96e862a3c968b25f8d50f5e38c882"}, {"type": "electric_bike", "fusion_lon": 0.0, "bike_id": "fa7a87334ecc4ad81cdad8f564ce7ff5", "is_disabled": 0, "lat": 38.896218166666664, "rental_uris": {"ios": "https://dc.lft.to/lastmile_qr_scan", "android": "https://dc.lft.to/lastmile_qr_scan"}, "is_reserved": 0, "lon": -76.90741166666666, "fusion_lat": 0.0, "name": "fa7a87334ecc4ad81cdad8f564ce7ff5"}, {"type": "electric_scooter", "fusion_lon": 0.0, "bike_id": "66ec781e537b6e9210fde6d367858c61", "is_disabled": 0, "lat": 38.89222, "rental_uris": {"ios": "https://dc.lft.to/lastmile_qr_scan", "android": "https://dc.lft.to/lastmile_qr_scan"}, "is_reserved": 0, "lon": -77.0433375, "fusion_lat": 0.0, "name": "66ec781e537b6e9210fde6d367858c61"}, {"type": "electric_scooter", "fusion_lon": 0.0, "bike_id": "002e465da3fcb2e3ef28b4e1b0ffb7e2", "is_disabled": 0, "lat": 38.916939666666664, "rental_uris": {"ios": "https://dc.lft.to/lastmile_qr_scan", "android": "https://dc.lft.to/lastmile_qr_scan"}, "is_reserved": 0, "lon": -77.02891466666667, "fusion_lat": 0.0, "name": "002e465da3fcb2e3ef28b4e1b0ffb7e2"}, {"type": "electric_scooter", "fusion_lon": 0.0, "bike_id": "58801a8d125af1fa9a44574e48feed78", "is_disabled": 0, "lat": 38.920584166666664, "rental_uris": {"ios": "https://dc.lft.to/lastmile_qr_scan", "android": "https://dc.lft.to/lastmile_qr_scan"}, "is_reserved": 0, "lon": -77.0317745, "fusion_lat": 0.0, "name": "58801a8d125af1fa9a44574e48feed78"}, {"type": "electric_scooter", "fusion_lon": 0.0, "bike_id": "4792c6d9ce37611bd1c0a5b2d5260f06", "is_disabled": 0, "lat": 38.899075333333336, "rental_uris": {"ios": "https://dc.lft.to/lastmile_qr_scan", "android": "https://dc.lft.to/lastmile_qr_scan"}, "is_reserved": 0, "lon": -77.032973, "fusion_lat": 0.0, "name": "4792c6d9ce37611bd1c0a5b2d5260f06"}, {"type": "electric_scooter", "fusion_lon": 0.0, "bike_id": "8b9953fd20a94d5a507db1facc724ae2", "is_disabled": 0, "lat": 38.915650666666664, "rental_uris": {"ios": "https://dc.lft.to/lastmile_qr_scan", "android": "https://dc.lft.to/lastmile_qr_scan"}, "is_reserved": 0, "lon": -77.02001483333333, "fusion_lat": 0.0, "name": "8b9953fd20a94d5a507db1facc724ae2"}, {"type": "electric_scooter", "fusion_lon": 0.0, "bike_id": "5f4af9dda05243d0837c786c594dd166", "is_disabled": 0, "lat": 38.92156133333334, "rental_uris": {"ios": "https://dc.lft.to/lastmile_qr_scan", "android": "https://dc.lft.to/lastmile_qr_scan"}, "is_reserved": 0, "lon": -77.0337965, "fusion_lat": 0.0, "name": "5f4af9dda05243d0837c786c594dd166"}, {"type": "electric_scooter", "fusion_lon": 0.0, "bike_id": "69b0ac5142d21ca6f9e87e5e5807668b", "is_disabled": 0, "lat": 38.88706416666667, "rental_uris": {"ios": "https://dc.lft.to/lastmile_qr_scan", "android": "https://dc.lft.to/lastmile_qr_scan"}, "is_reserved": 0, "lon": -77.02826166666667, "fusion_lat": 0.0, "name": "69b0ac5142d21ca6f9e87e5e5807668b"}, {"type": "electric_scooter", "fusion_lon": 0.0, "bike_id": "a90183dccb56d3fb8b5d82fc3edaed94", "is_disabled": 0, "lat": 38.9083495, "rental_uris": {"ios": "https://dc.lft.to/lastmile_qr_scan", "android": "https://dc.lft.to/lastmile_qr_scan"}, "is_reserved": 0, "lon": -77.04364766666667, "fusion_lat": 0.0, "name": "a90183dccb56d3fb8b5d82fc3edaed94"}, {"type": "electric_scooter", "fusion_lon": 0.0, "bike_id": "34efff30df86a653bb23d3021fb064f9", "is_disabled": 0, "lat": 38.92054383333333, "rental_uris": {"ios": "https://dc.lft.to/lastmile_qr_scan", "android": "https://dc.lft.to/lastmile_qr_scan"}, "is_reserved": 0, "lon": -77.03248783333333, "fusion_lat": 0.0, "name": "34efff30df86a653bb23d3021fb064f9"}, {"type": "electric_bike", "fusion_lon": 0.0, "bike_id": "b9ee3f22ebd6ae5c7c279d2cda9cea7e", "is_disabled": 0, "lat": 38.8073755, "rental_uris": {"ios": "https://dc.lft.to/lastmile_qr_scan", "android": "https://dc.lft.to/lastmile_qr_scan"}, "is_reserved": 0, "lon": -77.0972255, "fusion_lat": 0.0, "name": "b9ee3f22ebd6ae5c7c279d2cda9cea7e"}, {"type": "electric_bike", "fusion_lon": 0.0, "bike_id": "d977687f199b4874ba5f8987a5428589", "is_disabled": 0, "lat": 38.862597666666666, "rental_uris": {"ios": "https://dc.lft.to/lastmile_qr_scan", "android": "https://dc.lft.to/lastmile_qr_scan"}, "is_reserved": 0, "lon": -76.983499, "fusion_lat": 0.0, "name": "d977687f199b4874ba5f8987a5428589"}, {"type": "electric_scooter", "fusion_lon": 0.0, "bike_id": "8726393149abd0922ce2967b1c8d2062", "is_disabled": 0, "lat": 38.881840833333335, "rental_uris": {"ios": "https://dc.lft.to/lastmile_qr_scan", "android": "https://dc.lft.to/lastmile_qr_scan"}, "is_reserved": 0, "lon": -77.02198066666666, "fusion_lat": 0.0, "name": "8726393149abd0922ce2967b1c8d2062"}, {"type": "electric_scooter", "fusion_lon": 0.0, "bike_id": "122d207b620980792cbb079178ec4223", "is_disabled": 0, "lat": 38.916086, "rental_uris": {"ios": "https://dc.lft.to/lastmile_qr_scan", "android": "https://dc.lft.to/lastmile_qr_scan"}, "is_reserved": 0, "lon": -77.04871166666666, "fusion_lat": 0.0, "name": "122d207b620980792cbb079178ec4223"}, {"type": "electric_scooter", "fusion_lon": 0.0, "bike_id": "e24599f26f0e11d9fda731c08ef6b0e1", "is_disabled": 0, "lat": 38.91770666666667, "rental_uris": {"ios": "https://dc.lft.to/lastmile_qr_scan", "android": "https://dc.lft.to/lastmile_qr_scan"}, "is_reserved": 0, "lon": -77.03465833333334, "fusion_lat": 0.0, "name": "e24599f26f0e11d9fda731c08ef6b0e1"}, {"type": "electric_scooter", "fusion_lon": 0.0, "bike_id": "e855dd6db5e2734fe3cfd5771d96ab38", "is_disabled": 0, "lat": 38.933002, "rental_uris": {"ios": "https://dc.lft.to/lastmile_qr_scan", "android": "https://dc.lft.to/lastmile_qr_scan"}, "is_reserved": 0, "lon": -77.03266183333334, "fusion_lat": 0.0, "name": "e855dd6db5e2734fe3cfd5771d96ab38"}, {"type": "electric_scooter", "fusion_lon": 0.0, "bike_id": "1a27e784854f4ae12c12dcfd11cac1db", "is_disabled": 0, "lat": 38.917665166666666, "rental_uris": {"ios": "https://dc.lft.to/lastmile_qr_scan", "android": "https://dc.lft.to/lastmile_qr_scan"}, "is_reserved": 0, "lon": -77.02209583333334, "fusion_lat": 0.0, "name": "1a27e784854f4ae12c12dcfd11cac1db"}, {"type": "electric_scooter", "fusion_lon": 0.0, "bike_id": "98109c32664a28258c74ab424f8e99f4", "is_disabled": 0, "lat": 38.90162616666667, "rental_uris": {"ios": "https://dc.lft.to/lastmile_qr_scan", "android": "https://dc.lft.to/lastmile_qr_scan"}, "is_reserved": 0, "lon": -77.03930666666666, "fusion_lat": 0.0, "name": "98109c32664a28258c74ab424f8e99f4"}, {"type": "electric_scooter", "fusion_lon": 0.0, "bike_id": "d9aa6c7cc82bacf28f5eb32e8519511a", "is_disabled": 0, "lat": 38.93797466666667, "rental_uris": {"ios": "https://dc.lft.to/lastmile_qr_scan", "android": "https://dc.lft.to/lastmile_qr_scan"}, "is_reserved": 0, "lon": -77.03283066666667, "fusion_lat": 0.0, "name": "d9aa6c7cc82bacf28f5eb32e8519511a"}, {"type": "electric_scooter", "fusion_lon": 0.0, "bike_id": "e916fbe55080012b044bb4315102472f", "is_disabled": 0, "lat": 38.892197333333336, "rental_uris": {"ios": "https://dc.lft.to/lastmile_qr_scan", "android": "https://dc.lft.to/lastmile_qr_scan"}, "is_reserved": 0, "lon": -77.02216016666667, "fusion_lat": 0.0, "name": "e916fbe55080012b044bb4315102472f"}, {"type": "electric_scooter", "fusion_lon": 0.0, "bike_id": "5c77701fcea2b517ebbcf15d4c421396", "is_disabled": 0, "lat": 38.918118666666665, "rental_uris": {"ios": "https://dc.lft.to/lastmile_qr_scan", "android": "https://dc.lft.to/lastmile_qr_scan"}, "is_reserved": 0, "lon": -77.03165666666666, "fusion_lat": 0.0, "name": "5c77701fcea2b517ebbcf15d4c421396"}, {"type": "electric_scooter", "fusion_lon": 0.0, "bike_id": "b9f58bc6b3b3fcba7a40a92851e8fd0c", "is_disabled": 0, "lat": 38.910927666666666, "rental_uris": {"ios": "https://dc.lft.to/lastmile_qr_scan", "android": "https://dc.lft.to/lastmile_qr_scan"}, "is_reserved": 0, "lon": -77.038666, "fusion_lat": 0.0, "name": "b9f58bc6b3b3fcba7a40a92851e8fd0c"}, {"type": "electric_scooter", "fusion_lon": 0.0, "bike_id": "5e3eeaffd8e090a137d284281b5cfe94", "is_disabled": 0, "lat": 38.88677116666667, "rental_uris": {"ios": "https://dc.lft.to/lastmile_qr_scan", "android": "https://dc.lft.to/lastmile_qr_scan"}, "is_reserved": 0, "lon": -77.01357816666666, "fusion_lat": 0.0, "name": "5e3eeaffd8e090a137d284281b5cfe94"}, {"type": "electric_scooter", "fusion_lon": 0.0, "bike_id": "f7b193c77742c738a919c2f72d4d397f", "is_disabled": 0, "lat": 38.91189683333333, "rental_uris": {"ios": "https://dc.lft.to/lastmile_qr_scan", "android": "https://dc.lft.to/lastmile_qr_scan"}, "is_reserved": 0, "lon": -77.04223383333333, "fusion_lat": 0.0, "name": "f7b193c77742c738a919c2f72d4d397f"}, {"type": "electric_scooter", "fusion_lon": 0.0, "bike_id": "feb2b7df64b2382d233f92839e0496bf", "is_disabled": 0, "lat": 38.89736633333333, "rental_uris": {"ios": "https://dc.lft.to/lastmile_qr_scan", "android": "https://dc.lft.to/lastmile_qr_scan"}, "is_reserved": 0, "lon": -77.02694533333333, "fusion_lat": 0.0, "name": "feb2b7df64b2382d233f92839e0496bf"}, {"type": "electric_scooter", "fusion_lon": 0.0, "bike_id": "e48cf0d953ea2681642f233950314d3c", "is_disabled": 0, "lat": 38.91474566666667, "rental_uris": {"ios": "https://dc.lft.to/lastmile_qr_scan", "android": "https://dc.lft.to/lastmile_qr_scan"}, "is_reserved": 0, "lon": -77.021881, "fusion_lat": 0.0, "name": "e48cf0d953ea2681642f233950314d3c"}, {"type": "electric_scooter", "fusion_lon": 0.0, "bike_id": "825daf1a98d2f01cdc030ec9718724e7", "is_disabled": 0, "lat": 38.900554666666665, "rental_uris": {"ios": "https://dc.lft.to/lastmile_qr_scan", "android": "https://dc.lft.to/lastmile_qr_scan"}, "is_reserved": 0, "lon": -77.04189233333334, "fusion_lat": 0.0, "name": "825daf1a98d2f01cdc030ec9718724e7"}, {"type": "electric_scooter", "fusion_lon": 0.0, "bike_id": "61e18960fa1f462796104d364115e89d", "is_disabled": 0, "lat": 38.9045985, "rental_uris": {"ios": "https://dc.lft.to/lastmile_qr_scan", "android": "https://dc.lft.to/lastmile_qr_scan"}, "is_reserved": 0, "lon": -77.04669066666666, "fusion_lat": 0.0, "name": "61e18960fa1f462796104d364115e89d"}, {"type": "electric_scooter", "fusion_lon": 0.0, "bike_id": "9bcccd5158cd9e2e5bc4bc11389a58fb", "is_disabled": 0, "lat": 38.90744, "rental_uris": {"ios": "https://dc.lft.to/lastmile_qr_scan", "android": "https://dc.lft.to/lastmile_qr_scan"}, "is_reserved": 0, "lon": -77.003189, "fusion_lat": 0.0, "name": "9bcccd5158cd9e2e5bc4bc11389a58fb"}, {"type": "electric_bike", "fusion_lon": 0.0, "bike_id": "ec96492193069f53e7a01f52b8d7bf2c", "is_disabled": 0, "lat": 38.857217, "rental_uris": {"ios": "https://dc.lft.to/lastmile_qr_scan", "android": "https://dc.lft.to/lastmile_qr_scan"}, "is_reserved": 0, "lon": -76.97772033333334, "fusion_lat": 0.0, "name": "ec96492193069f53e7a01f52b8d7bf2c"}, {"type": "electric_scooter", "fusion_lon": 0.0, "bike_id": "de0835546923393f32be3294f6514ae0", "is_disabled": 0, "lat": 38.918177166666666, "rental_uris": {"ios": "https://dc.lft.to/lastmile_qr_scan", "android": "https://dc.lft.to/lastmile_qr_scan"}, "is_reserved": 0, "lon": -77.027153, "fusion_lat": 0.0, "name": "de0835546923393f32be3294f6514ae0"}, {"type": "electric_scooter", "fusion_lon": 0.0, "bike_id": "2e80ea43e55469574a06973dce49dced", "is_disabled": 0, "lat": 38.918093666666664, "rental_uris": {"ios": "https://dc.lft.to/lastmile_qr_scan", "android": "https://dc.lft.to/lastmile_qr_scan"}, "is_reserved": 0, "lon": -77.03926316666667, "fusion_lat": 0.0, "name": "2e80ea43e55469574a06973dce49dced"}, {"type": "electric_scooter", "fusion_lon": 0.0, "bike_id": "0e408738991ceabc4dd9ae38dc2693f0", "is_disabled": 0, "lat": 38.916588833333336, "rental_uris": {"ios": "https://dc.lft.to/lastmile_qr_scan", "android": "https://dc.lft.to/lastmile_qr_scan"}, "is_reserved": 0, "lon": -77.03851166666666, "fusion_lat": 0.0, "name": "0e408738991ceabc4dd9ae38dc2693f0"}, {"type": "electric_scooter", "fusion_lon": 0.0, "bike_id": "f9535f72eb88f35e2adb6ad1f287aebd", "is_disabled": 0, "lat": 38.90839416666667, "rental_uris": {"ios": "https://dc.lft.to/lastmile_qr_scan", "android": "https://dc.lft.to/lastmile_qr_scan"}, "is_reserved": 0, "lon": -77.03324066666667, "fusion_lat": 0.0, "name": "f9535f72eb88f35e2adb6ad1f287aebd"}, {"type": "electric_scooter", "fusion_lon": 0.0, "bike_id": "edb082e470332f131b98f37ff16feca7", "is_disabled": 0, "lat": 38.896073333333334, "rental_uris": {"ios": "https://dc.lft.to/lastmile_qr_scan", "android": "https://dc.lft.to/lastmile_qr_scan"}, "is_reserved": 0, "lon": -77.054363, "fusion_lat": 0.0, "name": "edb082e470332f131b98f37ff16feca7"}, {"type": "electric_scooter", "fusion_lon": 0.0, "bike_id": "ffd2cd9c3f6470cc6bbd1c26b8e82455", "is_disabled": 0, "lat": 38.901261166666664, "rental_uris": {"ios": "https://dc.lft.to/lastmile_qr_scan", "android": "https://dc.lft.to/lastmile_qr_scan"}, "is_reserved": 0, "lon": -77.03816283333333, "fusion_lat": 0.0, "name": "ffd2cd9c3f6470cc6bbd1c26b8e82455"}, {"type": "electric_scooter", "fusion_lon": 0.0, "bike_id": "8243c42ce4c779e2cc8d072be402db54", "is_disabled": 0, "lat": 38.924667166666666, "rental_uris": {"ios": "https://dc.lft.to/lastmile_qr_scan", "android": "https://dc.lft.to/lastmile_qr_scan"}, "is_reserved": 0, "lon": -77.02270116666666, "fusion_lat": 0.0, "name": "8243c42ce4c779e2cc8d072be402db54"}, {"type": "electric_scooter", "fusion_lon": 0.0, "bike_id": "a0b8eb6fdfdcd81b4c82768a52f6b348", "is_disabled": 0, "lat": 38.911159833333336, "rental_uris": {"ios": "https://dc.lft.to/lastmile_qr_scan", "android": "https://dc.lft.to/lastmile_qr_scan"}, "is_reserved": 0, "lon": -77.006062, "fusion_lat": 0.0, "name": "a0b8eb6fdfdcd81b4c82768a52f6b348"}, {"type": "electric_scooter", "fusion_lon": 0.0, "bike_id": "df2f80b6c780b086cbe07490e658df8a", "is_disabled": 0, "lat": 38.93064733333333, "rental_uris": {"ios": "https://dc.lft.to/lastmile_qr_scan", "android": "https://dc.lft.to/lastmile_qr_scan"}, "is_reserved": 0, "lon": -77.05837566666666, "fusion_lat": 0.0, "name": "df2f80b6c780b086cbe07490e658df8a"}, {"type": "electric_scooter", "fusion_lon": 0.0, "bike_id": "1197fe8061c978ead70533e71e47e3a1", "is_disabled": 0, "lat": 38.935219833333335, "rental_uris": {"ios": "https://dc.lft.to/lastmile_qr_scan", "android": "https://dc.lft.to/lastmile_qr_scan"}, "is_reserved": 0, "lon": -77.032602, "fusion_lat": 0.0, "name": "1197fe8061c978ead70533e71e47e3a1"}, {"type": "electric_scooter", "fusion_lon": 0.0, "bike_id": "28f3acdefe7b8b35cf7452603669417b", "is_disabled": 0, "lat": 38.94452783333333, "rental_uris": {"ios": "https://dc.lft.to/lastmile_qr_scan", "android": "https://dc.lft.to/lastmile_qr_scan"}, "is_reserved": 0, "lon": -77.02802483333333, "fusion_lat": 0.0, "name": "28f3acdefe7b8b35cf7452603669417b"}, {"type": "electric_scooter", "fusion_lon": 0.0, "bike_id": "72a6e8c0cfb03c72f3321da03bd78162", "is_disabled": 0, "lat": 38.93396333333333, "rental_uris": {"ios": "https://dc.lft.to/lastmile_qr_scan", "android": "https://dc.lft.to/lastmile_qr_scan"}, "is_reserved": 0, "lon": -77.04544216666666, "fusion_lat": 0.0, "name": "72a6e8c0cfb03c72f3321da03bd78162"}, {"type": "electric_scooter", "fusion_lon": 0.0, "bike_id": "9b0501cb287afb24ecde60473298ec08", "is_disabled": 0, "lat": 38.9034145, "rental_uris": {"ios": "https://dc.lft.to/lastmile_qr_scan", "android": "https://dc.lft.to/lastmile_qr_scan"}, "is_reserved": 0, "lon": -77.03429566666667, "fusion_lat": 0.0, "name": "9b0501cb287afb24ecde60473298ec08"}, {"type": "electric_scooter", "fusion_lon": 0.0, "bike_id": "a822d1aba6f6ac998f51ae7a96703f36", "is_disabled": 0, "lat": 38.891955833333334, "rental_uris": {"ios": "https://dc.lft.to/lastmile_qr_scan", "android": "https://dc.lft.to/lastmile_qr_scan"}, "is_reserved": 0, "lon": -77.02379, "fusion_lat": 0.0, "name": "a822d1aba6f6ac998f51ae7a96703f36"}, {"type": "electric_scooter", "fusion_lon": 0.0, "bike_id": "7332d486df92f4668d29890809293c5d", "is_disabled": 0, "lat": 38.90821016666666, "rental_uris": {"ios": "https://dc.lft.to/lastmile_qr_scan", "android": "https://dc.lft.to/lastmile_qr_scan"}, "is_reserved": 0, "lon": -77.042854, "fusion_lat": 0.0, "name": "7332d486df92f4668d29890809293c5d"}, {"type": "electric_scooter", "fusion_lon": 0.0, "bike_id": "b584ec412ddac09d04360c751c1417cc", "is_disabled": 0, "lat": 38.91760166666667, "rental_uris": {"ios": "https://dc.lft.to/lastmile_qr_scan", "android": "https://dc.lft.to/lastmile_qr_scan"}, "is_reserved": 0, "lon": -77.03908783333334, "fusion_lat": 0.0, "name": "b584ec412ddac09d04360c751c1417cc"}, {"type": "electric_scooter", "fusion_lon": 0.0, "bike_id": "4059b6f0f338333da1ad027731646ed0", "is_disabled": 0, "lat": 38.8636085, "rental_uris": {"ios": "https://dc.lft.to/lastmile_qr_scan", "android": "https://dc.lft.to/lastmile_qr_scan"}, "is_reserved": 0, "lon": -76.99039383333333, "fusion_lat": 0.0, "name": "4059b6f0f338333da1ad027731646ed0"}, {"type": "electric_scooter", "fusion_lon": 0.0, "bike_id": "7d58dcb22fa7fdef7b1d22105c2aee5b", "is_disabled": 0, "lat": 38.89885733333333, "rental_uris": {"ios": "https://dc.lft.to/lastmile_qr_scan", "android": "https://dc.lft.to/lastmile_qr_scan"}, "is_reserved": 0, "lon": -76.93174083333334, "fusion_lat": 0.0, "name": "7d58dcb22fa7fdef7b1d22105c2aee5b"}, {"type": "electric_scooter", "fusion_lon": 0.0, "bike_id": "5df389c5df81fee6bdb3c93831a3782f", "is_disabled": 0, "lat": 38.924805, "rental_uris": {"ios": "https://dc.lft.to/lastmile_qr_scan", "android": "https://dc.lft.to/lastmile_qr_scan"}, "is_reserved": 0, "lon": -77.02550216666667, "fusion_lat": 0.0, "name": "5df389c5df81fee6bdb3c93831a3782f"}, {"type": "electric_scooter", "fusion_lon": 0.0, "bike_id": "efb1f4bf3bf3e1cf161c12b2d2dbb983", "is_disabled": 0, "lat": 38.9048455, "rental_uris": {"ios": "https://dc.lft.to/lastmile_qr_scan", "android": "https://dc.lft.to/lastmile_qr_scan"}, "is_reserved": 0, "lon": -77.035743, "fusion_lat": 0.0, "name": "efb1f4bf3bf3e1cf161c12b2d2dbb983"}, {"type": "electric_scooter", "fusion_lon": 0.0, "bike_id": "b5bb42b57dc2d38394146781e4b8ecba", "is_disabled": 0, "lat": 38.92049133333333, "rental_uris": {"ios": "https://dc.lft.to/lastmile_qr_scan", "android": "https://dc.lft.to/lastmile_qr_scan"}, "is_reserved": 0, "lon": -77.02440116666666, "fusion_lat": 0.0, "name": "b5bb42b57dc2d38394146781e4b8ecba"}, {"type": "electric_scooter", "fusion_lon": 0.0, "bike_id": "f8155fe8387a48e166854c47de73f639", "is_disabled": 0, "lat": 38.91944816666667, "rental_uris": {"ios": "https://dc.lft.to/lastmile_qr_scan", "android": "https://dc.lft.to/lastmile_qr_scan"}, "is_reserved": 0, "lon": -77.01777316666667, "fusion_lat": 0.0, "name": "f8155fe8387a48e166854c47de73f639"}, {"type": "electric_scooter", "fusion_lon": 0.0, "bike_id": "266af7ef0f25da7121d82864b2a3918b", "is_disabled": 0, "lat": 38.92169483333333, "rental_uris": {"ios": "https://dc.lft.to/lastmile_qr_scan", "android": "https://dc.lft.to/lastmile_qr_scan"}, "is_reserved": 0, "lon": -76.99855516666666, "fusion_lat": 0.0, "name": "266af7ef0f25da7121d82864b2a3918b"}, {"type": "electric_scooter", "fusion_lon": 0.0, "bike_id": "ad733e9d245956acd640ce4b309d331c", "is_disabled": 0, "lat": 38.926121, "rental_uris": {"ios": "https://dc.lft.to/lastmile_qr_scan", "android": "https://dc.lft.to/lastmile_qr_scan"}, "is_reserved": 0, "lon": -77.0215815, "fusion_lat": 0.0, "name": "ad733e9d245956acd640ce4b309d331c"}, {"type": "electric_scooter", "fusion_lon": 0.0, "bike_id": "bd090f2cf70f11140ad9b172122045ab", "is_disabled": 0, "lat": 38.87994416666667, "rental_uris": {"ios": "https://dc.lft.to/lastmile_qr_scan", "android": "https://dc.lft.to/lastmile_qr_scan"}, "is_reserved": 0, "lon": -77.01275566666666, "fusion_lat": 0.0, "name": "bd090f2cf70f11140ad9b172122045ab"}, {"type": "electric_scooter", "fusion_lon": 0.0, "bike_id": "acdc7645d9522aae8cc4d848eba3c25e", "is_disabled": 0, "lat": 38.89986483333333, "rental_uris": {"ios": "https://dc.lft.to/lastmile_qr_scan", "android": "https://dc.lft.to/lastmile_qr_scan"}, "is_reserved": 0, "lon": -76.9949325, "fusion_lat": 0.0, "name": "acdc7645d9522aae8cc4d848eba3c25e"}, {"type": "electric_scooter", "fusion_lon": 0.0, "bike_id": "77eb9531ca00acfc0b2faea6c7957db9", "is_disabled": 0, "lat": 38.88436216666667, "rental_uris": {"ios": "https://dc.lft.to/lastmile_qr_scan", "android": "https://dc.lft.to/lastmile_qr_scan"}, "is_reserved": 0, "lon": -77.01508166666666, "fusion_lat": 0.0, "name": "77eb9531ca00acfc0b2faea6c7957db9"}, {"type": "electric_scooter", "fusion_lon": 0.0, "bike_id": "576b993a36e10e4b12cf5e69b55ba8f7", "is_disabled": 0, "lat": 38.892218166666666, "rental_uris": {"ios": "https://dc.lft.to/lastmile_qr_scan", "android": "https://dc.lft.to/lastmile_qr_scan"}, "is_reserved": 0, "lon": -77.04335616666667, "fusion_lat": 0.0, "name": "576b993a36e10e4b12cf5e69b55ba8f7"}, {"type": "electric_scooter", "fusion_lon": 0.0, "bike_id": "cc6e2d43f019e5ce9f33f81795999116", "is_disabled": 0, "lat": 38.91125016666667, "rental_uris": {"ios": "https://dc.lft.to/lastmile_qr_scan", "android": "https://dc.lft.to/lastmile_qr_scan"}, "is_reserved": 0, "lon": -77.02195866666666, "fusion_lat": 0.0, "name": "cc6e2d43f019e5ce9f33f81795999116"}, {"type": "electric_bike", "fusion_lon": 0.0, "bike_id": "ff4dd60109685288cee6fa6c7e251951", "is_disabled": 0, "lat": 39.084377, "rental_uris": {"ios": "https://dc.lft.to/lastmile_qr_scan", "android": "https://dc.lft.to/lastmile_qr_scan"}, "is_reserved": 0, "lon": -76.95158733333334, "fusion_lat": 0.0, "name": "ff4dd60109685288cee6fa6c7e251951"}, {"type": "electric_scooter", "fusion_lon": 0.0, "bike_id": "9a7bd706e736b842633987a15c6ee1a5", "is_disabled": 0, "lat": 38.93213166666666, "rental_uris": {"ios": "https://dc.lft.to/lastmile_qr_scan", "android": "https://dc.lft.to/lastmile_qr_scan"}, "is_reserved": 0, "lon": -77.0239835, "fusion_lat": 0.0, "name": "9a7bd706e736b842633987a15c6ee1a5"}, {"type": "electric_scooter", "fusion_lon": 0.0, "bike_id": "2a2dbaad08c8419fa41270fd4c3f897a", "is_disabled": 0, "lat": 38.8947145, "rental_uris": {"ios": "https://dc.lft.to/lastmile_qr_scan", "android": "https://dc.lft.to/lastmile_qr_scan"}, "is_reserved": 0, "lon": -76.94959216666666, "fusion_lat": 0.0, "name": "2a2dbaad08c8419fa41270fd4c3f897a"}, {"type": "electric_bike", "fusion_lon": 0.0, "bike_id": "15836b91fc6d2364252447f4441986b3", "is_disabled": 0, "lat": 38.88263716666667, "rental_uris": {"ios": "https://dc.lft.to/lastmile_qr_scan", "android": "https://dc.lft.to/lastmile_qr_scan"}, "is_reserved": 0, "lon": -77.2282135, "fusion_lat": 0.0, "name": "15836b91fc6d2364252447f4441986b3"}, {"type": "electric_scooter", "fusion_lon": 0.0, "bike_id": "3586f627426f641bab2ef56bd3a5af03", "is_disabled": 0, "lat": 38.89314666666667, "rental_uris": {"ios": "https://dc.lft.to/lastmile_qr_scan", "android": "https://dc.lft.to/lastmile_qr_scan"}, "is_reserved": 0, "lon": -77.02091383333334, "fusion_lat": 0.0, "name": "3586f627426f641bab2ef56bd3a5af03"}, {"type": "electric_scooter", "fusion_lon": 0.0, "bike_id": "0e1b4a664ccbabe496bab58a52ae59f8", "is_disabled": 0, "lat": 38.9047675, "rental_uris": {"ios": "https://dc.lft.to/lastmile_qr_scan", "android": "https://dc.lft.to/lastmile_qr_scan"}, "is_reserved": 0, "lon": -77.03567533333333, "fusion_lat": 0.0, "name": "0e1b4a664ccbabe496bab58a52ae59f8"}, {"type": "electric_scooter", "fusion_lon": 0.0, "bike_id": "c28f8d81b69754a4c3457d13161f0fc4", "is_disabled": 0, "lat": 38.920722, "rental_uris": {"ios": "https://dc.lft.to/lastmile_qr_scan", "android": "https://dc.lft.to/lastmile_qr_scan"}, "is_reserved": 0, "lon": -77.02494383333334, "fusion_lat": 0.0, "name": "c28f8d81b69754a4c3457d13161f0fc4"}, {"type": "electric_scooter", "fusion_lon": 0.0, "bike_id": "2aaf901331843ba82eb27d5dec779159", "is_disabled": 0, "lat": 38.9243995, "rental_uris": {"ios": "https://dc.lft.to/lastmile_qr_scan", "android": "https://dc.lft.to/lastmile_qr_scan"}, "is_reserved": 0, "lon": -77.03326033333333, "fusion_lat": 0.0, "name": "2aaf901331843ba82eb27d5dec779159"}, {"type": "electric_scooter", "fusion_lon": 0.0, "bike_id": "50ec57c202fa44059150adeb125ff611", "is_disabled": 0, "lat": 38.923579333333336, "rental_uris": {"ios": "https://dc.lft.to/lastmile_qr_scan", "android": "https://dc.lft.to/lastmile_qr_scan"}, "is_reserved": 0, "lon": -77.03224766666666, "fusion_lat": 0.0, "name": "50ec57c202fa44059150adeb125ff611"}, {"type": "electric_scooter", "fusion_lon": 0.0, "bike_id": "9def5dfbeb30afc7aa3b5d15664029f1", "is_disabled": 0, "lat": 38.884, "rental_uris": {"ios": "https://dc.lft.to/lastmile_qr_scan", "android": "https://dc.lft.to/lastmile_qr_scan"}, "is_reserved": 0, "lon": -76.93039733333333, "fusion_lat": 0.0, "name": "9def5dfbeb30afc7aa3b5d15664029f1"}, {"type": "electric_scooter", "fusion_lon": 0.0, "bike_id": "07effc0e5bd119d2b9ba5e1157cb3200", "is_disabled": 0, "lat": 38.86657183333333, "rental_uris": {"ios": "https://dc.lft.to/lastmile_qr_scan", "android": "https://dc.lft.to/lastmile_qr_scan"}, "is_reserved": 0, "lon": -76.98885533333333, "fusion_lat": 0.0, "name": "07effc0e5bd119d2b9ba5e1157cb3200"}, {"type": "electric_scooter", "fusion_lon": 0.0, "bike_id": "9433b87f42f1f1b3ea53930d8cd2389a", "is_disabled": 0, "lat": 38.905269833333335, "rental_uris": {"ios": "https://dc.lft.to/lastmile_qr_scan", "android": "https://dc.lft.to/lastmile_qr_scan"}, "is_reserved": 0, "lon": -77.05929866666666, "fusion_lat": 0.0, "name": "9433b87f42f1f1b3ea53930d8cd2389a"}, {"type": "electric_scooter", "fusion_lon": 0.0, "bike_id": "93d8d561a6cd6e5c413de716883c9e20", "is_disabled": 0, "lat": 38.956261166666664, "rental_uris": {"ios": "https://dc.lft.to/lastmile_qr_scan", "android": "https://dc.lft.to/lastmile_qr_scan"}, "is_reserved": 0, "lon": -77.02211133333333, "fusion_lat": 0.0, "name": "93d8d561a6cd6e5c413de716883c9e20"}, {"type": "electric_scooter", "fusion_lon": 0.0, "bike_id": "f5340ed96e266707fb1f1a2c0e48ac6e", "is_disabled": 0, "lat": 38.90579233333333, "rental_uris": {"ios": "https://dc.lft.to/lastmile_qr_scan", "android": "https://dc.lft.to/lastmile_qr_scan"}, "is_reserved": 0, "lon": -77.04683916666667, "fusion_lat": 0.0, "name": "f5340ed96e266707fb1f1a2c0e48ac6e"}, {"type": "electric_scooter", "fusion_lon": 0.0, "bike_id": "61cb9bfffd43299cf6fbb302dafccad9", "is_disabled": 0, "lat": 38.900122, "rental_uris": {"ios": "https://dc.lft.to/lastmile_qr_scan", "android": "https://dc.lft.to/lastmile_qr_scan"}, "is_reserved": 0, "lon": -77.01256133333334, "fusion_lat": 0.0, "name": "61cb9bfffd43299cf6fbb302dafccad9"}, {"type": "electric_scooter", "fusion_lon": 0.0, "bike_id": "c5fe71394d0819cf2f4e3c1f2e246554", "is_disabled": 0, "lat": 38.90556266666667, "rental_uris": {"ios": "https://dc.lft.to/lastmile_qr_scan", "android": "https://dc.lft.to/lastmile_qr_scan"}, "is_reserved": 0, "lon": -77.0457335, "fusion_lat": 0.0, "name": "c5fe71394d0819cf2f4e3c1f2e246554"}, {"type": "electric_scooter", "fusion_lon": 0.0, "bike_id": "550928c0ee1371c8cc90f66f2cc029e4", "is_disabled": 0, "lat": 38.927141166666665, "rental_uris": {"ios": "https://dc.lft.to/lastmile_qr_scan", "android": "https://dc.lft.to/lastmile_qr_scan"}, "is_reserved": 0, "lon": -77.020697, "fusion_lat": 0.0, "name": "550928c0ee1371c8cc90f66f2cc029e4"}, {"type": "electric_scooter", "fusion_lon": 0.0, "bike_id": "5af41a9e4434602897ca787f7e7d35b1", "is_disabled": 0, "lat": 38.890104666666666, "rental_uris": {"ios": "https://dc.lft.to/lastmile_qr_scan", "android": "https://dc.lft.to/lastmile_qr_scan"}, "is_reserved": 0, "lon": -77.03318766666666, "fusion_lat": 0.0, "name": "5af41a9e4434602897ca787f7e7d35b1"}, {"type": "electric_bike", "fusion_lon": 0.0, "bike_id": "c6a8e86402e91f90355f331940febe47", "is_disabled": 0, "lat": 38.83158566666667, "rental_uris": {"ios": "https://dc.lft.to/lastmile_qr_scan", "android": "https://dc.lft.to/lastmile_qr_scan"}, "is_reserved": 0, "lon": -76.99573133333334, "fusion_lat": 0.0, "name": "c6a8e86402e91f90355f331940febe47"}, {"type": "electric_scooter", "fusion_lon": 0.0, "bike_id": "b5416194d216dc7fe9bfa019e951bf34", "is_disabled": 0, "lat": 38.92923416666667, "rental_uris": {"ios": "https://dc.lft.to/lastmile_qr_scan", "android": "https://dc.lft.to/lastmile_qr_scan"}, "is_reserved": 0, "lon": -77.031947, "fusion_lat": 0.0, "name": "b5416194d216dc7fe9bfa019e951bf34"}, {"type": "electric_scooter", "fusion_lon": 0.0, "bike_id": "1727e1a792e2b3e0110d416f6b8282f9", "is_disabled": 0, "lat": 38.906449, "rental_uris": {"ios": "https://dc.lft.to/lastmile_qr_scan", "android": "https://dc.lft.to/lastmile_qr_scan"}, "is_reserved": 0, "lon": -77.04649833333333, "fusion_lat": 0.0, "name": "1727e1a792e2b3e0110d416f6b8282f9"}, {"type": "electric_scooter", "fusion_lon": 0.0, "bike_id": "c9eba23fc82dc29cb6e7f373aa357d9c", "is_disabled": 0, "lat": 38.90982983333333, "rental_uris": {"ios": "https://dc.lft.to/lastmile_qr_scan", "android": "https://dc.lft.to/lastmile_qr_scan"}, "is_reserved": 0, "lon": -77.02200883333333, "fusion_lat": 0.0, "name": "c9eba23fc82dc29cb6e7f373aa357d9c"}, {"type": "electric_scooter", "fusion_lon": 0.0, "bike_id": "106fa2ec845da08b38fd46ea74438d72", "is_disabled": 0, "lat": 38.8923755, "rental_uris": {"ios": "https://dc.lft.to/lastmile_qr_scan", "android": "https://dc.lft.to/lastmile_qr_scan"}, "is_reserved": 0, "lon": -77.04159933333334, "fusion_lat": 0.0, "name": "106fa2ec845da08b38fd46ea74438d72"}, {"type": "electric_scooter", "fusion_lon": 0.0, "bike_id": "cdf4465ef86d756ceba9de7e280ccf12", "is_disabled": 0, "lat": 38.924864166666666, "rental_uris": {"ios": "https://dc.lft.to/lastmile_qr_scan", "android": "https://dc.lft.to/lastmile_qr_scan"}, "is_reserved": 0, "lon": -77.02138566666666, "fusion_lat": 0.0, "name": "cdf4465ef86d756ceba9de7e280ccf12"}, {"type": "electric_scooter", "fusion_lon": 0.0, "bike_id": "a4b526b2905223cb5efdf5a88ba0fa66", "is_disabled": 0, "lat": 38.927512166666666, "rental_uris": {"ios": "https://dc.lft.to/lastmile_qr_scan", "android": "https://dc.lft.to/lastmile_qr_scan"}, "is_reserved": 0, "lon": -77.032438, "fusion_lat": 0.0, "name": "a4b526b2905223cb5efdf5a88ba0fa66"}, {"type": "electric_scooter", "fusion_lon": 0.0, "bike_id": "c012a59bd2a97338565c8db8e6210831", "is_disabled": 0, "lat": 38.90254866666667, "rental_uris": {"ios": "https://dc.lft.to/lastmile_qr_scan", "android": "https://dc.lft.to/lastmile_qr_scan"}, "is_reserved": 0, "lon": -77.045935, "fusion_lat": 0.0, "name": "c012a59bd2a97338565c8db8e6210831"}, {"type": "electric_scooter", "fusion_lon": 0.0, "bike_id": "2f66029f706f868aca18e4b4df2594c0", "is_disabled": 0, "lat": 38.90070383333333, "rental_uris": {"ios": "https://dc.lft.to/lastmile_qr_scan", "android": "https://dc.lft.to/lastmile_qr_scan"}, "is_reserved": 0, "lon": -77.04784733333334, "fusion_lat": 0.0, "name": "2f66029f706f868aca18e4b4df2594c0"}, {"type": "electric_scooter", "fusion_lon": 0.0, "bike_id": "2ae5ad6a124e7ea90f3cd0af33f24cf7", "is_disabled": 0, "lat": 38.927180666666665, "rental_uris": {"ios": "https://dc.lft.to/lastmile_qr_scan", "android": "https://dc.lft.to/lastmile_qr_scan"}, "is_reserved": 0, "lon": -77.02067033333333, "fusion_lat": 0.0, "name": "2ae5ad6a124e7ea90f3cd0af33f24cf7"}, {"type": "electric_scooter", "fusion_lon": 0.0, "bike_id": "0d8cafa36c5fa15380061fded74266a9", "is_disabled": 0, "lat": 38.93530766666667, "rental_uris": {"ios": "https://dc.lft.to/lastmile_qr_scan", "android": "https://dc.lft.to/lastmile_qr_scan"}, "is_reserved": 0, "lon": -77.02343333333333, "fusion_lat": 0.0, "name": "0d8cafa36c5fa15380061fded74266a9"}, {"type": "electric_scooter", "fusion_lon": 0.0, "bike_id": "9800c1ee171bbdfef1e246be0038b6fa", "is_disabled": 0, "lat": 38.89501383333333, "rental_uris": {"ios": "https://dc.lft.to/lastmile_qr_scan", "android": "https://dc.lft.to/lastmile_qr_scan"}, "is_reserved": 0, "lon": -77.02161983333333, "fusion_lat": 0.0, "name": "9800c1ee171bbdfef1e246be0038b6fa"}, {"type": "electric_scooter", "fusion_lon": 0.0, "bike_id": "1a3d058d82e2d5daaf5d923ab6bc79bc", "is_disabled": 0, "lat": 38.921602666666665, "rental_uris": {"ios": "https://dc.lft.to/lastmile_qr_scan", "android": "https://dc.lft.to/lastmile_qr_scan"}, "is_reserved": 0, "lon": -77.03842166666666, "fusion_lat": 0.0, "name": "1a3d058d82e2d5daaf5d923ab6bc79bc"}, {"type": "electric_scooter", "fusion_lon": 0.0, "bike_id": "8b3de1bb7db1c25e42c0c2a9f66bfd44", "is_disabled": 0, "lat": 38.89907616666667, "rental_uris": {"ios": "https://dc.lft.to/lastmile_qr_scan", "android": "https://dc.lft.to/lastmile_qr_scan"}, "is_reserved": 0, "lon": -77.03323783333333, "fusion_lat": 0.0, "name": "8b3de1bb7db1c25e42c0c2a9f66bfd44"}, {"type": "electric_scooter", "fusion_lon": 0.0, "bike_id": "61f7001e0fb9afdae32f655549c04646", "is_disabled": 0, "lat": 38.92335033333333, "rental_uris": {"ios": "https://dc.lft.to/lastmile_qr_scan", "android": "https://dc.lft.to/lastmile_qr_scan"}, "is_reserved": 0, "lon": -77.0365805, "fusion_lat": 0.0, "name": "61f7001e0fb9afdae32f655549c04646"}, {"type": "electric_scooter", "fusion_lon": 0.0, "bike_id": "c4ee02dc21f788c85c9057408e53d185", "is_disabled": 0, "lat": 38.954299166666665, "rental_uris": {"ios": "https://dc.lft.to/lastmile_qr_scan", "android": "https://dc.lft.to/lastmile_qr_scan"}, "is_reserved": 0, "lon": -77.01848866666667, "fusion_lat": 0.0, "name": "c4ee02dc21f788c85c9057408e53d185"}, {"type": "electric_scooter", "fusion_lon": 0.0, "bike_id": "75305041d8ac3751e94c4d4e94a70bea", "is_disabled": 0, "lat": 38.94622483333333, "rental_uris": {"ios": "https://dc.lft.to/lastmile_qr_scan", "android": "https://dc.lft.to/lastmile_qr_scan"}, "is_reserved": 0, "lon": -77.03056316666667, "fusion_lat": 0.0, "name": "75305041d8ac3751e94c4d4e94a70bea"}, {"type": "electric_scooter", "fusion_lon": 0.0, "bike_id": "d276914dfa98016c327df089a72134f5", "is_disabled": 0, "lat": 38.90730416666667, "rental_uris": {"ios": "https://dc.lft.to/lastmile_qr_scan", "android": "https://dc.lft.to/lastmile_qr_scan"}, "is_reserved": 0, "lon": -77.05326383333333, "fusion_lat": 0.0, "name": "d276914dfa98016c327df089a72134f5"}, {"type": "electric_scooter", "fusion_lon": 0.0, "bike_id": "5555726e7b4e712f6f79951af3146fb3", "is_disabled": 0, "lat": 38.917672333333336, "rental_uris": {"ios": "https://dc.lft.to/lastmile_qr_scan", "android": "https://dc.lft.to/lastmile_qr_scan"}, "is_reserved": 0, "lon": -77.023404, "fusion_lat": 0.0, "name": "5555726e7b4e712f6f79951af3146fb3"}, {"type": "electric_scooter", "fusion_lon": 0.0, "bike_id": "420a65f2bf7272a571ec50fb0f5771f5", "is_disabled": 0, "lat": 38.924036, "rental_uris": {"ios": "https://dc.lft.to/lastmile_qr_scan", "android": "https://dc.lft.to/lastmile_qr_scan"}, "is_reserved": 0, "lon": -77.04210883333333, "fusion_lat": 0.0, "name": "420a65f2bf7272a571ec50fb0f5771f5"}, {"type": "electric_scooter", "fusion_lon": 0.0, "bike_id": "e5933db666f5784a4ec28599ae1bd4f9", "is_disabled": 0, "lat": 38.90820033333333, "rental_uris": {"ios": "https://dc.lft.to/lastmile_qr_scan", "android": "https://dc.lft.to/lastmile_qr_scan"}, "is_reserved": 0, "lon": -77.03907733333334, "fusion_lat": 0.0, "name": "e5933db666f5784a4ec28599ae1bd4f9"}, {"type": "electric_scooter", "fusion_lon": 0.0, "bike_id": "07005f4675435e675865c842a551c6bf", "is_disabled": 0, "lat": 38.90266483333333, "rental_uris": {"ios": "https://dc.lft.to/lastmile_qr_scan", "android": "https://dc.lft.to/lastmile_qr_scan"}, "is_reserved": 0, "lon": -77.0032265, "fusion_lat": 0.0, "name": "07005f4675435e675865c842a551c6bf"}, {"type": "electric_scooter", "fusion_lon": 0.0, "bike_id": "ed8113ffcdf9f2e96cb5f1497ce2ca33", "is_disabled": 0, "lat": 38.905674833333336, "rental_uris": {"ios": "https://dc.lft.to/lastmile_qr_scan", "android": "https://dc.lft.to/lastmile_qr_scan"}, "is_reserved": 0, "lon": -77.04041583333333, "fusion_lat": 0.0, "name": "ed8113ffcdf9f2e96cb5f1497ce2ca33"}, {"type": "electric_scooter", "fusion_lon": 0.0, "bike_id": "c37ee7d11c4bb90e3812ef99fe1de75c", "is_disabled": 0, "lat": 38.91960233333333, "rental_uris": {"ios": "https://dc.lft.to/lastmile_qr_scan", "android": "https://dc.lft.to/lastmile_qr_scan"}, "is_reserved": 0, "lon": -77.016784, "fusion_lat": 0.0, "name": "c37ee7d11c4bb90e3812ef99fe1de75c"}, {"type": "electric_scooter", "fusion_lon": 0.0, "bike_id": "ab6a43a27707c31695bf13281104dc97", "is_disabled": 0, "lat": 38.89696716666667, "rental_uris": {"ios": "https://dc.lft.to/lastmile_qr_scan", "android": "https://dc.lft.to/lastmile_qr_scan"}, "is_reserved": 0, "lon": -77.04328083333333, "fusion_lat": 0.0, "name": "ab6a43a27707c31695bf13281104dc97"}, {"type": "electric_scooter", "fusion_lon": 0.0, "bike_id": "2afad1ef2be8b2387af6ee26c5fe8b23", "is_disabled": 0, "lat": 38.911202333333335, "rental_uris": {"ios": "https://dc.lft.to/lastmile_qr_scan", "android": "https://dc.lft.to/lastmile_qr_scan"}, "is_reserved": 0, "lon": -77.04368433333333, "fusion_lat": 0.0, "name": "2afad1ef2be8b2387af6ee26c5fe8b23"}, {"type": "electric_scooter", "fusion_lon": 0.0, "bike_id": "8a8b5e0d241c3453fe5c6c465f600100", "is_disabled": 0, "lat": 38.927042, "rental_uris": {"ios": "https://dc.lft.to/lastmile_qr_scan", "android": "https://dc.lft.to/lastmile_qr_scan"}, "is_reserved": 0, "lon": -77.023483, "fusion_lat": 0.0, "name": "8a8b5e0d241c3453fe5c6c465f600100"}, {"type": "electric_scooter", "fusion_lon": 0.0, "bike_id": "f9ba2f109a1e81e40456c02923d6279b", "is_disabled": 0, "lat": 38.9144065, "rental_uris": {"ios": "https://dc.lft.to/lastmile_qr_scan", "android": "https://dc.lft.to/lastmile_qr_scan"}, "is_reserved": 0, "lon": -77.04172933333334, "fusion_lat": 0.0, "name": "f9ba2f109a1e81e40456c02923d6279b"}, {"type": "electric_scooter", "fusion_lon": 0.0, "bike_id": "8522c60ad08d1d76182c9338dc168390", "is_disabled": 0, "lat": 38.91794566666667, "rental_uris": {"ios": "https://dc.lft.to/lastmile_qr_scan", "android": "https://dc.lft.to/lastmile_qr_scan"}, "is_reserved": 0, "lon": -77.02717416666667, "fusion_lat": 0.0, "name": "8522c60ad08d1d76182c9338dc168390"}, {"type": "electric_scooter", "fusion_lon": 0.0, "bike_id": "6f3beb92c0ac8a831ea84be40340888e", "is_disabled": 0, "lat": 38.90956333333333, "rental_uris": {"ios": "https://dc.lft.to/lastmile_qr_scan", "android": "https://dc.lft.to/lastmile_qr_scan"}, "is_reserved": 0, "lon": -77.04630516666667, "fusion_lat": 0.0, "name": "6f3beb92c0ac8a831ea84be40340888e"}, {"type": "electric_scooter", "fusion_lon": 0.0, "bike_id": "b936369f21d739c2c37956264832f70d", "is_disabled": 0, "lat": 38.916225, "rental_uris": {"ios": "https://dc.lft.to/lastmile_qr_scan", "android": "https://dc.lft.to/lastmile_qr_scan"}, "is_reserved": 0, "lon": -77.03632533333334, "fusion_lat": 0.0, "name": "b936369f21d739c2c37956264832f70d"}, {"type": "electric_scooter", "fusion_lon": 0.0, "bike_id": "375802f395e226ae77c2485dfd4ce45e", "is_disabled": 0, "lat": 38.90390633333333, "rental_uris": {"ios": "https://dc.lft.to/lastmile_qr_scan", "android": "https://dc.lft.to/lastmile_qr_scan"}, "is_reserved": 0, "lon": -77.03794383333333, "fusion_lat": 0.0, "name": "375802f395e226ae77c2485dfd4ce45e"}, {"type": "electric_scooter", "fusion_lon": 0.0, "bike_id": "7327c693f0fea9eeb30557c78a28274a", "is_disabled": 0, "lat": 38.9035395, "rental_uris": {"ios": "https://dc.lft.to/lastmile_qr_scan", "android": "https://dc.lft.to/lastmile_qr_scan"}, "is_reserved": 0, "lon": -77.03419333333333, "fusion_lat": 0.0, "name": "7327c693f0fea9eeb30557c78a28274a"}, {"type": "electric_scooter", "fusion_lon": 0.0, "bike_id": "f2e410473c5a6ccf6b9c49d8e78f2f94", "is_disabled": 0, "lat": 38.948314333333336, "rental_uris": {"ios": "https://dc.lft.to/lastmile_qr_scan", "android": "https://dc.lft.to/lastmile_qr_scan"}, "is_reserved": 0, "lon": -77.02560633333333, "fusion_lat": 0.0, "name": "f2e410473c5a6ccf6b9c49d8e78f2f94"}, {"type": "electric_scooter", "fusion_lon": 0.0, "bike_id": "0c075e6d3ae7aaea00d1b55c7acd740a", "is_disabled": 0, "lat": 38.8922305, "rental_uris": {"ios": "https://dc.lft.to/lastmile_qr_scan", "android": "https://dc.lft.to/lastmile_qr_scan"}, "is_reserved": 0, "lon": -77.0262505, "fusion_lat": 0.0, "name": "0c075e6d3ae7aaea00d1b55c7acd740a"}, {"type": "electric_scooter", "fusion_lon": 0.0, "bike_id": "ac9a48181126712db7ba388c4d0d5c5a", "is_disabled": 0, "lat": 38.896295, "rental_uris": {"ios": "https://dc.lft.to/lastmile_qr_scan", "android": "https://dc.lft.to/lastmile_qr_scan"}, "is_reserved": 0, "lon": -77.032019, "fusion_lat": 0.0, "name": "ac9a48181126712db7ba388c4d0d5c5a"}, {"type": "electric_scooter", "fusion_lon": 0.0, "bike_id": "23f14ed47b98e2007f7059bc6f7d3c4c", "is_disabled": 0, "lat": 38.90734533333333, "rental_uris": {"ios": "https://dc.lft.to/lastmile_qr_scan", "android": "https://dc.lft.to/lastmile_qr_scan"}, "is_reserved": 0, "lon": -77.0438195, "fusion_lat": 0.0, "name": "23f14ed47b98e2007f7059bc6f7d3c4c"}, {"type": "electric_scooter", "fusion_lon": 0.0, "bike_id": "ed0b999a89200d1036bec15a2aaf2ae7", "is_disabled": 0, "lat": 38.8943885, "rental_uris": {"ios": "https://dc.lft.to/lastmile_qr_scan", "android": "https://dc.lft.to/lastmile_qr_scan"}, "is_reserved": 0, "lon": -76.98083933333334, "fusion_lat": 0.0, "name": "ed0b999a89200d1036bec15a2aaf2ae7"}, {"type": "electric_scooter", "fusion_lon": 0.0, "bike_id": "2aac08d7d885df3152da2378f9ee2957", "is_disabled": 0, "lat": 38.86658083333333, "rental_uris": {"ios": "https://dc.lft.to/lastmile_qr_scan", "android": "https://dc.lft.to/lastmile_qr_scan"}, "is_reserved": 0, "lon": -76.98886166666666, "fusion_lat": 0.0, "name": "2aac08d7d885df3152da2378f9ee2957"}, {"type": "electric_scooter", "fusion_lon": 0.0, "bike_id": "6ceb8eb1fdd619efb47e2e32e48fc5c4", "is_disabled": 0, "lat": 38.928809333333334, "rental_uris": {"ios": "https://dc.lft.to/lastmile_qr_scan", "android": "https://dc.lft.to/lastmile_qr_scan"}, "is_reserved": 0, "lon": -77.02659333333334, "fusion_lat": 0.0, "name": "6ceb8eb1fdd619efb47e2e32e48fc5c4"}, {"type": "electric_scooter", "fusion_lon": 0.0, "bike_id": "b34182d2315ecc30f20cf41196835466", "is_disabled": 0, "lat": 38.91945166666667, "rental_uris": {"ios": "https://dc.lft.to/lastmile_qr_scan", "android": "https://dc.lft.to/lastmile_qr_scan"}, "is_reserved": 0, "lon": -77.01776766666667, "fusion_lat": 0.0, "name": "b34182d2315ecc30f20cf41196835466"}, {"type": "electric_scooter", "fusion_lon": 0.0, "bike_id": "dcd5162880150cb48458928c2414837f", "is_disabled": 0, "lat": 38.8776225, "rental_uris": {"ios": "https://dc.lft.to/lastmile_qr_scan", "android": "https://dc.lft.to/lastmile_qr_scan"}, "is_reserved": 0, "lon": -76.99407183333334, "fusion_lat": 0.0, "name": "dcd5162880150cb48458928c2414837f"}, {"type": "electric_scooter", "fusion_lon": 0.0, "bike_id": "c1eb64212b58f169caf77daddbb0da1c", "is_disabled": 0, "lat": 38.893495, "rental_uris": {"ios": "https://dc.lft.to/lastmile_qr_scan", "android": "https://dc.lft.to/lastmile_qr_scan"}, "is_reserved": 0, "lon": -76.95230916666667, "fusion_lat": 0.0, "name": "c1eb64212b58f169caf77daddbb0da1c"}, {"type": "electric_scooter", "fusion_lon": 0.0, "bike_id": "591adee480b34db448cb0b715de9020d", "is_disabled": 0, "lat": 38.89727216666667, "rental_uris": {"ios": "https://dc.lft.to/lastmile_qr_scan", "android": "https://dc.lft.to/lastmile_qr_scan"}, "is_reserved": 0, "lon": -77.01908733333333, "fusion_lat": 0.0, "name": "591adee480b34db448cb0b715de9020d"}, {"type": "electric_bike", "fusion_lon": 0.0, "bike_id": "fcfc742aa1c020656eea3e4191dfebb1", "is_disabled": 0, "lat": 38.84682466666667, "rental_uris": {"ios": "https://dc.lft.to/lastmile_qr_scan", "android": "https://dc.lft.to/lastmile_qr_scan"}, "is_reserved": 0, "lon": -76.98280483333333, "fusion_lat": 0.0, "name": "fcfc742aa1c020656eea3e4191dfebb1"}, {"type": "electric_bike", "fusion_lon": 0.0, "bike_id": "222444c649c0416a3c1de0eacd83069a", "is_disabled": 0, "lat": 38.935688999999996, "rental_uris": {"ios": "https://dc.lft.to/lastmile_qr_scan", "android": "https://dc.lft.to/lastmile_qr_scan"}, "is_reserved": 0, "lon": -77.10609, "fusion_lat": 0.0, "name": "222444c649c0416a3c1de0eacd83069a"}, {"type": "electric_scooter", "fusion_lon": 0.0, "bike_id": "f9cedf4e68607dcba3e35a85174fd615", "is_disabled": 0, "lat": 38.91266916666667, "rental_uris": {"ios": "https://dc.lft.to/lastmile_qr_scan", "android": "https://dc.lft.to/lastmile_qr_scan"}, "is_reserved": 0, "lon": -77.0415505, "fusion_lat": 0.0, "name": "f9cedf4e68607dcba3e35a85174fd615"}, {"type": "electric_scooter", "fusion_lon": 0.0, "bike_id": "0b51a166be4bc97a900fabed1b65ae7b", "is_disabled": 0, "lat": 38.904445833333334, "rental_uris": {"ios": "https://dc.lft.to/lastmile_qr_scan", "android": "https://dc.lft.to/lastmile_qr_scan"}, "is_reserved": 0, "lon": -77.05791516666666, "fusion_lat": 0.0, "name": "0b51a166be4bc97a900fabed1b65ae7b"}, {"type": "electric_scooter", "fusion_lon": 0.0, "bike_id": "41272b0fcd935c0fc696ec94cb214ab9", "is_disabled": 0, "lat": 38.9083315, "rental_uris": {"ios": "https://dc.lft.to/lastmile_qr_scan", "android": "https://dc.lft.to/lastmile_qr_scan"}, "is_reserved": 0, "lon": -77.03373966666666, "fusion_lat": 0.0, "name": "41272b0fcd935c0fc696ec94cb214ab9"}, {"type": "electric_scooter", "fusion_lon": 0.0, "bike_id": "3a7c5451716dcc4fbe25e9a988df5180", "is_disabled": 0, "lat": 38.918209833333336, "rental_uris": {"ios": "https://dc.lft.to/lastmile_qr_scan", "android": "https://dc.lft.to/lastmile_qr_scan"}, "is_reserved": 0, "lon": -77.03253883333333, "fusion_lat": 0.0, "name": "3a7c5451716dcc4fbe25e9a988df5180"}, {"type": "electric_scooter", "fusion_lon": 0.0, "bike_id": "5284be5b68b321d4ed67cbfe43f037c6", "is_disabled": 0, "lat": 38.907641, "rental_uris": {"ios": "https://dc.lft.to/lastmile_qr_scan", "android": "https://dc.lft.to/lastmile_qr_scan"}, "is_reserved": 0, "lon": -77.0032295, "fusion_lat": 0.0, "name": "5284be5b68b321d4ed67cbfe43f037c6"}, {"type": "electric_scooter", "fusion_lon": 0.0, "bike_id": "97f66556264e486ca1cc9a1686b4cec3", "is_disabled": 0, "lat": 38.921714333333334, "rental_uris": {"ios": "https://dc.lft.to/lastmile_qr_scan", "android": "https://dc.lft.to/lastmile_qr_scan"}, "is_reserved": 0, "lon": -77.04140383333333, "fusion_lat": 0.0, "name": "97f66556264e486ca1cc9a1686b4cec3"}, {"type": "electric_scooter", "fusion_lon": 0.0, "bike_id": "28aaf63618f7a1d83a7231a59feef8b6", "is_disabled": 0, "lat": 38.92018, "rental_uris": {"ios": "https://dc.lft.to/lastmile_qr_scan", "android": "https://dc.lft.to/lastmile_qr_scan"}, "is_reserved": 0, "lon": -76.995726, "fusion_lat": 0.0, "name": "28aaf63618f7a1d83a7231a59feef8b6"}, {"type": "electric_scooter", "fusion_lon": 0.0, "bike_id": "aa2281aca34d13576b50e81e6a5933f1", "is_disabled": 0, "lat": 38.892692833333335, "rental_uris": {"ios": "https://dc.lft.to/lastmile_qr_scan", "android": "https://dc.lft.to/lastmile_qr_scan"}, "is_reserved": 0, "lon": -77.04204566666667, "fusion_lat": 0.0, "name": "aa2281aca34d13576b50e81e6a5933f1"}, {"type": "electric_scooter", "fusion_lon": 0.0, "bike_id": "85c71be4f55b4cd8e3310506d6a8ccd2", "is_disabled": 0, "lat": 38.919576666666664, "rental_uris": {"ios": "https://dc.lft.to/lastmile_qr_scan", "android": "https://dc.lft.to/lastmile_qr_scan"}, "is_reserved": 0, "lon": -77.048559, "fusion_lat": 0.0, "name": "85c71be4f55b4cd8e3310506d6a8ccd2"}, {"type": "electric_scooter", "fusion_lon": 0.0, "bike_id": "3cdd06c0a12d3d629f0c582d486106f1", "is_disabled": 0, "lat": 38.9384915, "rental_uris": {"ios": "https://dc.lft.to/lastmile_qr_scan", "android": "https://dc.lft.to/lastmile_qr_scan"}, "is_reserved": 0, "lon": -77.03391666666667, "fusion_lat": 0.0, "name": "3cdd06c0a12d3d629f0c582d486106f1"}, {"type": "electric_scooter", "fusion_lon": 0.0, "bike_id": "2d8553866644adcfc9e6573f9bda17ba", "is_disabled": 0, "lat": 38.9002865, "rental_uris": {"ios": "https://dc.lft.to/lastmile_qr_scan", "android": "https://dc.lft.to/lastmile_qr_scan"}, "is_reserved": 0, "lon": -76.99646716666666, "fusion_lat": 0.0, "name": "2d8553866644adcfc9e6573f9bda17ba"}, {"type": "electric_scooter", "fusion_lon": 0.0, "bike_id": "80d2ff1778c53fe20db51d944ffca763", "is_disabled": 0, "lat": 38.897597, "rental_uris": {"ios": "https://dc.lft.to/lastmile_qr_scan", "android": "https://dc.lft.to/lastmile_qr_scan"}, "is_reserved": 0, "lon": -76.92585866666667, "fusion_lat": 0.0, "name": "80d2ff1778c53fe20db51d944ffca763"}, {"type": "electric_scooter", "fusion_lon": 0.0, "bike_id": "4db19f8a1b422e5f970345ba44d06421", "is_disabled": 0, "lat": 38.9178475, "rental_uris": {"ios": "https://dc.lft.to/lastmile_qr_scan", "android": "https://dc.lft.to/lastmile_qr_scan"}, "is_reserved": 0, "lon": -77.04271066666666, "fusion_lat": 0.0, "name": "4db19f8a1b422e5f970345ba44d06421"}, {"type": "electric_scooter", "fusion_lon": 0.0, "bike_id": "8a498edf883915134ad9e17a9ce5c6e6", "is_disabled": 0, "lat": 38.89222616666667, "rental_uris": {"ios": "https://dc.lft.to/lastmile_qr_scan", "android": "https://dc.lft.to/lastmile_qr_scan"}, "is_reserved": 0, "lon": -77.03126666666667, "fusion_lat": 0.0, "name": "8a498edf883915134ad9e17a9ce5c6e6"}, {"type": "electric_scooter", "fusion_lon": 0.0, "bike_id": "a3e4ca6a135ec5f8afd18c7a710ccaca", "is_disabled": 0, "lat": 38.952738, "rental_uris": {"ios": "https://dc.lft.to/lastmile_qr_scan", "android": "https://dc.lft.to/lastmile_qr_scan"}, "is_reserved": 0, "lon": -77.036491, "fusion_lat": 0.0, "name": "a3e4ca6a135ec5f8afd18c7a710ccaca"}, {"type": "electric_scooter", "fusion_lon": 0.0, "bike_id": "030599eeef38262bc872628daa452fef", "is_disabled": 0, "lat": 38.8941295, "rental_uris": {"ios": "https://dc.lft.to/lastmile_qr_scan", "android": "https://dc.lft.to/lastmile_qr_scan"}, "is_reserved": 0, "lon": -77.02203833333333, "fusion_lat": 0.0, "name": "030599eeef38262bc872628daa452fef"}, {"type": "electric_scooter", "fusion_lon": 0.0, "bike_id": "93eabc77fc89d42cc8c76300946e022c", "is_disabled": 0, "lat": 38.884475, "rental_uris": {"ios": "https://dc.lft.to/lastmile_qr_scan", "android": "https://dc.lft.to/lastmile_qr_scan"}, "is_reserved": 0, "lon": -76.94220833333333, "fusion_lat": 0.0, "name": "93eabc77fc89d42cc8c76300946e022c"}, {"type": "electric_scooter", "fusion_lon": 0.0, "bike_id": "7e8bedc6365ab17f6584bf1795cc581c", "is_disabled": 0, "lat": 38.927018, "rental_uris": {"ios": "https://dc.lft.to/lastmile_qr_scan", "android": "https://dc.lft.to/lastmile_qr_scan"}, "is_reserved": 0, "lon": -77.02385316666667, "fusion_lat": 0.0, "name": "7e8bedc6365ab17f6584bf1795cc581c"}, {"type": "electric_bike", "fusion_lon": 0.0, "bike_id": "3110a70b4dce1e1ef9d4c0a278b48f08", "is_disabled": 0, "lat": 38.935491166666665, "rental_uris": {"ios": "https://dc.lft.to/lastmile_qr_scan", "android": "https://dc.lft.to/lastmile_qr_scan"}, "is_reserved": 0, "lon": -77.08235583333334, "fusion_lat": 0.0, "name": "3110a70b4dce1e1ef9d4c0a278b48f08"}, {"type": "electric_scooter", "fusion_lon": 0.0, "bike_id": "953a4fd0eeb6dcf48c7136a1fe8c1316", "is_disabled": 0, "lat": 38.921025666666665, "rental_uris": {"ios": "https://dc.lft.to/lastmile_qr_scan", "android": "https://dc.lft.to/lastmile_qr_scan"}, "is_reserved": 0, "lon": -77.02533433333333, "fusion_lat": 0.0, "name": "953a4fd0eeb6dcf48c7136a1fe8c1316"}, {"type": "electric_scooter", "fusion_lon": 0.0, "bike_id": "2495a943142b89c226fbaf261c13f8f6", "is_disabled": 0, "lat": 38.9219295, "rental_uris": {"ios": "https://dc.lft.to/lastmile_qr_scan", "android": "https://dc.lft.to/lastmile_qr_scan"}, "is_reserved": 0, "lon": -77.046979, "fusion_lat": 0.0, "name": "2495a943142b89c226fbaf261c13f8f6"}, {"type": "electric_scooter", "fusion_lon": 0.0, "bike_id": "67acfde5fef1164abffaffbf074e620c", "is_disabled": 0, "lat": 38.90552066666667, "rental_uris": {"ios": "https://dc.lft.to/lastmile_qr_scan", "android": "https://dc.lft.to/lastmile_qr_scan"}, "is_reserved": 0, "lon": -77.04659, "fusion_lat": 0.0, "name": "67acfde5fef1164abffaffbf074e620c"}, {"type": "electric_scooter", "fusion_lon": 0.0, "bike_id": "4c2713c51c19cb20bc85ca3bf2366e90", "is_disabled": 0, "lat": 38.903752, "rental_uris": {"ios": "https://dc.lft.to/lastmile_qr_scan", "android": "https://dc.lft.to/lastmile_qr_scan"}, "is_reserved": 0, "lon": -76.99508133333333, "fusion_lat": 0.0, "name": "4c2713c51c19cb20bc85ca3bf2366e90"}, {"type": "electric_scooter", "fusion_lon": 0.0, "bike_id": "658bc764d61d1e231ec6706f4318bfb3", "is_disabled": 0, "lat": 38.92407766666667, "rental_uris": {"ios": "https://dc.lft.to/lastmile_qr_scan", "android": "https://dc.lft.to/lastmile_qr_scan"}, "is_reserved": 0, "lon": -77.05193966666667, "fusion_lat": 0.0, "name": "658bc764d61d1e231ec6706f4318bfb3"},