{"data": {"bikes": [{"is_disabled": 0, "is_reserved": 0, "fusion_lat": 0.0, "lat": 38.9131525, "fusion_lon": 0.0, "rental_uris": {"ios": "https://dc.lft.to/lastmile_qr_scan", "android": "https://dc.lft.to/lastmile_qr_scan"}, "lon": -77.01436116666666, "bike_id": "e4252a776d30dff217ff3747b1108cbd", "type": "electric_scooter", "name": "e4252a776d30dff217ff3747b1108cbd"}, {"is_disabled": 0, "is_reserved": 0, "fusion_lat": 0.0, "lat": 38.80016483333333, "fusion_lon": 0.0, "rental_uris": {"ios": "https://dc.lft.to/lastmile_qr_scan", "android": "https://dc.lft.to/lastmile_qr_scan"}, "lon": -77.12998066666667, "bike_id": "bfb7fd36463ee99c57f46aaeaf1669e1", "type": "electric_bike", "name": "bfb7fd36463ee99c57f46aaeaf1669e1"}, {"is_disabled": 0, "is_reserved": 0, "fusion_lat": 0.0, "lat": 38.905630333333335, "fusion_lon": 0.0, "rental_uris": {"ios": "https://dc.lft.to/lastmile_qr_scan", "android": "https://dc.lft.to/lastmile_qr_scan"}, "lon": -77.00565666666667, "bike_id": "01629faa3444848f4e3d07925373021b", "type": "electric_scooter", "name": "01629faa3444848f4e3d07925373021b"}, {"is_disabled": 0, "is_reserved": 0, "fusion_lat": 0.0, "lat": 38.89944033333333, "fusion_lon": 0.0, "rental_uris": {"ios": "https://dc.lft.to/lastmile_qr_scan", "android": "https://dc.lft.to/lastmile_qr_scan"}, "lon": -77.03224733333333, "bike_id": "75ce4cea458c23cc58c03c07c079571a", "type": "electric_scooter", "name": "75ce4cea458c23cc58c03c07c079571a"}, {"is_disabled": 0, "is_reserved": 0, "fusion_lat": 0.0, "lat": 38.9005435, "fusion_lon": 0.0, "rental_uris": {"ios": "https://dc.lft.to/lastmile_qr_scan", "android": "https://dc.lft.to/lastmile_qr_scan"}, "lon": -76.986956, "bike_id": "0b57219cfb1f6bb81c1e3782e8ccfdfb", "type": "electric_scooter", "name": "0b57219cfb1f6bb81c1e3782e8ccfdfb"}, {"is_disabled": 0, "is_reserved": 0, "fusion_lat": 0.0, "lat": 38.862670666666666, "fusion_lon": 0.0, "rental_uris": {"ios": "https://dc.lft.to/lastmile_qr_scan", "android": "https://dc.lft.to/lastmile_qr_scan"}, "lon": -77.08931583333333, "bike_id": "aacea895e264aef197cdb06c5e74659d", "type": "electric_bike", "name": "aacea895e264aef197cdb06c5e74659d"}, {"is_disabled": 0, "is_reserved": 0, "fusion_lat": 0.0, "lat": 38.923220666666666, "fusion_lon": 0.0, "rental_uris": {"ios": "https://dc.lft.to/lastmile_qr_scan", "android": "https://dc.lft.to/lastmile_qr_scan"}, "lon": -77.07299116666667, "bike_id": "fa2d77b57fa0faef5296a0f515a18be4", "type": "electric_scooter", "name": "fa2d77b57fa0faef5296a0f515a18be4"}, {"is_disabled": 0, "is_reserved": 0, "fusion_lat": 0.0, "lat": 38.908773333333336, "fusion_lon": 0.0, "rental_uris": {"ios": "https://dc.lft.to/lastmile_qr_scan", "android": "https://dc.lft.to/lastmile_qr_scan"}, "lon": -77.04335683333333, "bike_id": "6e271f335f259513ed375dc2a8bcccb9", "type": "electric_scooter", "name": "6e271f335f259513ed375dc2a8bcccb9"}, {"is_disabled": 0, "is_reserved": 0, "fusion_lat": 0.0, "lat": 38.918158, "fusion_lon": 0.0, "rental_uris": {"ios": "https://dc.lft.to/lastmile_qr_scan", "android": "https://dc.lft.to/lastmile_qr_scan"}, "lon": -77.03448166666666, "bike_id": "b1bc00a840da3866a357398efa75c839", "type": "electric_scooter", "name": "b1bc00a840da3866a357398efa75c839"}, {"is_disabled": 0, "is_reserved": 0, "fusion_lat": 0.0, "lat": 38.91822366666667, "fusion_lon": 0.0, "rental_uris": {"ios": "https://dc.lft.to/lastmile_qr_scan", "android": "https://dc.lft.to/lastmile_qr_scan"}, "lon": -77.04502083333334, "bike_id": "11d65120d3aeaef8bac1f642d73ecdd1", "type": "electric_scooter", "name": "11d65120d3aeaef8bac1f642d73ecdd1"}, {"is_disabled": 0, "is_reserved": 0, "fusion_lat": 0.0, "lat": 38.892489, "fusion_lon": 0.0, "rental_uris": {"ios": "https://dc.lft.to/lastmile_qr_scan", "android": "https://dc.lft.to/lastmile_qr_scan"}, "lon": -77.04655383333333, "bike_id": "09c5f7a43edb218b6865e63853931a34", "type": "electric_scooter", "name": "09c5f7a43edb218b6865e63853931a34"}, {"is_disabled": 0, "is_reserved": 0, "fusion_lat": 0.0, "lat": 38.905255833333335, "fusion_lon": 0.0, "rental_uris": {"ios": "https://dc.lft.to/lastmile_qr_scan", "android": "https://dc.lft.to/lastmile_qr_scan"}, "lon": -77.06268816666666, "bike_id": "2031483a8f80d53f89332e69b15ef625", "type": "electric_bike", "name": "2031483a8f80d53f89332e69b15ef625"}, {"is_disabled": 0, "is_reserved": 0, "fusion_lat": 0.0, "lat": 38.936140333333334, "fusion_lon": 0.0, "rental_uris": {"ios": "https://dc.lft.to/lastmile_qr_scan", "android": "https://dc.lft.to/lastmile_qr_scan"}, "lon": -77.03787383333334, "bike_id": "1d710814f78a2e2e67e3f9f73938c8ad", "type": "electric_scooter", "name": "1d710814f78a2e2e67e3f9f73938c8ad"}, {"is_disabled": 0, "is_reserved": 0, "fusion_lat": 0.0, "lat": 38.933607, "fusion_lon": 0.0, "rental_uris": {"ios": "https://dc.lft.to/lastmile_qr_scan", "android": "https://dc.lft.to/lastmile_qr_scan"}, "lon": -77.02403866666667, "bike_id": "b42567eecd39fc11011e03c0114b1482", "type": "electric_scooter", "name": "b42567eecd39fc11011e03c0114b1482"}, {"is_disabled": 0, "is_reserved": 0, "fusion_lat": 0.0, "lat": 38.905099666666665, "fusion_lon": 0.0, "rental_uris": {"ios": "https://dc.lft.to/lastmile_qr_scan", "android": "https://dc.lft.to/lastmile_qr_scan"}, "lon": -77.02944083333334, "bike_id": "e63dd740d58bd93395ce967c57884836", "type": "electric_scooter", "name": "e63dd740d58bd93395ce967c57884836"}, {"is_disabled": 0, "is_reserved": 0, "fusion_lat": 0.0, "lat": 38.93711283333333, "fusion_lon": 0.0, "rental_uris": {"ios": "https://dc.lft.to/lastmile_qr_scan", "android": "https://dc.lft.to/lastmile_qr_scan"}, "lon": -77.02382133333333, "bike_id": "5fdefe0cd73d4713cc1a03525aba89b7", "type": "electric_scooter", "name": "5fdefe0cd73d4713cc1a03525aba89b7"}, {"is_disabled": 0, "is_reserved": 0, "fusion_lat": 0.0, "lat": 38.8756325, "fusion_lon": 0.0, "rental_uris": {"ios": "https://dc.lft.to/lastmile_qr_scan", "android": "https://dc.lft.to/lastmile_qr_scan"}, "lon": -77.00586866666667, "bike_id": "aef1ef3fea29beb1a334231acd9c9616", "type": "electric_scooter", "name": "aef1ef3fea29beb1a334231acd9c9616"}, {"is_disabled": 0, "is_reserved": 0, "fusion_lat": 0.0, "lat": 38.9231685, "fusion_lon": 0.0, "rental_uris": {"ios": "https://dc.lft.to/lastmile_qr_scan", "android": "https://dc.lft.to/lastmile_qr_scan"}, "lon": -77.03809283333334, "bike_id": "7f9cfc257798f529eb29e8d5c1d7f358", "type": "electric_bike", "name": "7f9cfc257798f529eb29e8d5c1d7f358"}, {"is_disabled": 0, "is_reserved": 0, "fusion_lat": 0.0, "lat": 38.8999975, "fusion_lon": 0.0, "rental_uris": {"ios": "https://dc.lft.to/lastmile_qr_scan", "android": "https://dc.lft.to/lastmile_qr_scan"}, "lon": -77.0523835, "bike_id": "3c42604d872971142dd3f102db76dce3", "type": "electric_scooter", "name": "3c42604d872971142dd3f102db76dce3"}, {"is_disabled": 0, "is_reserved": 0, "fusion_lat": 0.0, "lat": 38.91921, "fusion_lon": 0.0, "rental_uris": {"ios": "https://dc.lft.to/lastmile_qr_scan", "android": "https://dc.lft.to/lastmile_qr_scan"}, "lon": -77.0310295, "bike_id": "87f3addda13b0e398f8022d082f6f956", "type": "electric_scooter", "name": "87f3addda13b0e398f8022d082f6f956"}, {"is_disabled": 0, "is_reserved": 0, "fusion_lat": 0.0, "lat": 38.92325133333333, "fusion_lon": 0.0, "rental_uris": {"ios": "https://dc.lft.to/lastmile_qr_scan", "android": "https://dc.lft.to/lastmile_qr_scan"}, "lon": -77.02963883333334, "bike_id": "9a1b975e5b319bd967611ba404ed413a", "type": "electric_scooter", "name": "9a1b975e5b319bd967611ba404ed413a"}, {"is_disabled": 0, "is_reserved": 0, "fusion_lat": 0.0, "lat": 38.924106333333334, "fusion_lon": 0.0, "rental_uris": {"ios": "https://dc.lft.to/lastmile_qr_scan", "android": "https://dc.lft.to/lastmile_qr_scan"}, "lon": -77.0271495, "bike_id": "25df79481658d0873b193b7dd6fab70e", "type": "electric_scooter", "name": "25df79481658d0873b193b7dd6fab70e"}, {"is_disabled": 0, "is_reserved": 0, "fusion_lat": 0.0, "lat": 38.917807833333335, "fusion_lon": 0.0, "rental_uris": {"ios": "https://dc.lft.to/lastmile_qr_scan", "android": "https://dc.lft.to/lastmile_qr_scan"}, "lon": -77.02307866666666, "bike_id": "ec7fbab7caf1bcbbec055d30f9f8df9e", "type": "electric_scooter", "name": "ec7fbab7caf1bcbbec055d30f9f8df9e"}, {"is_disabled": 0, "is_reserved": 0, "fusion_lat": 0.0, "lat": 38.9171025, "fusion_lon": 0.0, "rental_uris": {"ios": "https://dc.lft.to/lastmile_qr_scan", "android": "https://dc.lft.to/lastmile_qr_scan"}, "lon": -77.0386575, "bike_id": "faef9d3872a5e6f2de2b09f1f6945fdb", "type": "electric_scooter", "name": "faef9d3872a5e6f2de2b09f1f6945fdb"}, {"is_disabled": 0, "is_reserved": 0, "fusion_lat": 0.0, "lat": 38.887348, "fusion_lon": 0.0, "rental_uris": {"ios": "https://dc.lft.to/lastmile_qr_scan", "android": "https://dc.lft.to/lastmile_qr_scan"}, "lon": -77.02203966666667, "bike_id": "adb34faef9c40479f9aa82eb0bda0883", "type": "electric_scooter", "name": "adb34faef9c40479f9aa82eb0bda0883"}, {"is_disabled": 0, "is_reserved": 0, "fusion_lat": 0.0, "lat": 38.8579225, "fusion_lon": 0.0, "rental_uris": {"ios": "https://dc.lft.to/lastmile_qr_scan", "android": "https://dc.lft.to/lastmile_qr_scan"}, "lon": -76.98750366666667, "bike_id": "2db65ce1071f7ac03c4721b6bd4ffd46", "type": "electric_bike", "name": "2db65ce1071f7ac03c4721b6bd4ffd46"}, {"is_disabled": 0, "is_reserved": 0, "fusion_lat": 0.0, "lat": 38.921937, "fusion_lon": 0.0, "rental_uris": {"ios": "https://dc.lft.to/lastmile_qr_scan", "android": "https://dc.lft.to/lastmile_qr_scan"}, "lon": -77.03792, "bike_id": "aa3a994d8f615831d776cfd0399d28d6", "type": "electric_scooter", "name": "aa3a994d8f615831d776cfd0399d28d6"}, {"is_disabled": 0, "is_reserved": 0, "fusion_lat": 0.0, "lat": 38.923118333333335, "fusion_lon": 0.0, "rental_uris": {"ios": "https://dc.lft.to/lastmile_qr_scan", "android": "https://dc.lft.to/lastmile_qr_scan"}, "lon": -77.027944, "bike_id": "e81e3029aa9bb68f6781b66cbdaf7fa0", "type": "electric_scooter", "name": "e81e3029aa9bb68f6781b66cbdaf7fa0"}, {"is_disabled": 0, "is_reserved": 0, "fusion_lat": 0.0, "lat": 38.91961166666667, "fusion_lon": 0.0, "rental_uris": {"ios": "https://dc.lft.to/lastmile_qr_scan", "android": "https://dc.lft.to/lastmile_qr_scan"}, "lon": -77.04246016666667, "bike_id": "ba9b5a8eac8d2876505c7f314fceec33", "type": "electric_scooter", "name": "ba9b5a8eac8d2876505c7f314fceec33"}, {"is_disabled": 0, "is_reserved": 0, "fusion_lat": 0.0, "lat": 38.91114, "fusion_lon": 0.0, "rental_uris": {"ios": "https://dc.lft.to/lastmile_qr_scan", "android": "https://dc.lft.to/lastmile_qr_scan"}, "lon": -77.03862633333334, "bike_id": "d961cb9e52fdde86ed746a5cb4be4529", "type": "electric_scooter", "name": "d961cb9e52fdde86ed746a5cb4be4529"}, {"is_disabled": 0, "is_reserved": 0, "fusion_lat": 0.0, "lat": 38.914546666666666, "fusion_lon": 0.0, "rental_uris": {"ios": "https://dc.lft.to/lastmile_qr_scan", "android": "https://dc.lft.to/lastmile_qr_scan"}, "lon": -77.021974, "bike_id": "cba7a79d8bd925a299e26e606833b952", "type": "electric_scooter", "name": "cba7a79d8bd925a299e26e606833b952"}, {"is_disabled": 0, "is_reserved": 0, "fusion_lat": 0.0, "lat": 38.8048215, "fusion_lon": 0.0, "rental_uris": {"ios": "https://dc.lft.to/lastmile_qr_scan", "android": "https://dc.lft.to/lastmile_qr_scan"}, "lon": -76.99106866666666, "bike_id": "1ef64736c573b5174eb73ca10482d443", "type": "electric_bike", "name": "1ef64736c573b5174eb73ca10482d443"}, {"is_disabled": 0, "is_reserved": 0, "fusion_lat": 0.0, "lat": 38.9007755, "fusion_lon": 0.0, "rental_uris": {"ios": "https://dc.lft.to/lastmile_qr_scan", "android": "https://dc.lft.to/lastmile_qr_scan"}, "lon": -77.05030783333333, "bike_id": "6b0a8070f16a5048a789da276435e933", "type": "electric_scooter", "name": "6b0a8070f16a5048a789da276435e933"}, {"is_disabled": 0, "is_reserved": 0, "fusion_lat": 0.0, "lat": 38.913504333333336, "fusion_lon": 0.0, "rental_uris": {"ios": "https://dc.lft.to/lastmile_qr_scan", "android": "https://dc.lft.to/lastmile_qr_scan"}, "lon": -77.03197833333333, "bike_id": "729f5a8ca86809ec7f59bd3a0e41a6aa", "type": "electric_scooter", "name": "729f5a8ca86809ec7f59bd3a0e41a6aa"}, {"is_disabled": 0, "is_reserved": 0, "fusion_lat": 0.0, "lat": 38.9588395, "fusion_lon": 0.0, "rental_uris": {"ios": "https://dc.lft.to/lastmile_qr_scan", "android": "https://dc.lft.to/lastmile_qr_scan"}, "lon": -76.9809785, "bike_id": "3e8810700c3e5a184bea50c17251187a", "type": "electric_bike", "name": "3e8810700c3e5a184bea50c17251187a"}, {"is_disabled": 0, "is_reserved": 0, "fusion_lat": 0.0, "lat": 38.90186766666667, "fusion_lon": 0.0, "rental_uris": {"ios": "https://dc.lft.to/lastmile_qr_scan", "android": "https://dc.lft.to/lastmile_qr_scan"}, "lon": -77.05084966666666, "bike_id": "b1286f68081902d30b62da97eea15311", "type": "electric_scooter", "name": "b1286f68081902d30b62da97eea15311"}, {"is_disabled": 0, "is_reserved": 0, "fusion_lat": 0.0, "lat": 38.9134925, "fusion_lon": 0.0, "rental_uris": {"ios": "https://dc.lft.to/lastmile_qr_scan", "android": "https://dc.lft.to/lastmile_qr_scan"}, "lon": -77.0319565, "bike_id": "f099edb33c0e31cc966f5ba69ddac438", "type": "electric_scooter", "name": "f099edb33c0e31cc966f5ba69ddac438"}, {"is_disabled": 0, "is_reserved": 0, "fusion_lat": 0.0, "lat": 38.90867166666666, "fusion_lon": 0.0, "rental_uris": {"ios": "https://dc.lft.to/lastmile_qr_scan", "android": "https://dc.lft.to/lastmile_qr_scan"}, "lon": -77.085846, "bike_id": "5243120a2b2d4bddd6a6b8afd40231b9", "type": "electric_scooter", "name": "5243120a2b2d4bddd6a6b8afd40231b9"}, {"is_disabled": 0, "is_reserved": 0, "fusion_lat": 0.0, "lat": 38.929628666666666, "fusion_lon": 0.0, "rental_uris": {"ios": "https://dc.lft.to/lastmile_qr_scan", "android": "https://dc.lft.to/lastmile_qr_scan"}, "lon": -77.04194233333334, "bike_id": "1816cc871760a0370beca12eadbf9e8c", "type": "electric_scooter", "name": "1816cc871760a0370beca12eadbf9e8c"}, {"is_disabled": 0, "is_reserved": 0, "fusion_lat": 0.0, "lat": 38.9472095, "fusion_lon": 0.0, "rental_uris": {"ios": "https://dc.lft.to/lastmile_qr_scan", "android": "https://dc.lft.to/lastmile_qr_scan"}, "lon": -77.02349716666667, "bike_id": "30878103e83f448ec1f39948de6ab17c", "type": "electric_scooter", "name": "30878103e83f448ec1f39948de6ab17c"}, {"is_disabled": 0, "is_reserved": 0, "fusion_lat": 0.0, "lat": 38.91779966666667, "fusion_lon": 0.0, "rental_uris": {"ios": "https://dc.lft.to/lastmile_qr_scan", "android": "https://dc.lft.to/lastmile_qr_scan"}, "lon": -77.0246665, "bike_id": "d8b80404e422bab5bb901a0c3fc13825", "type": "electric_scooter", "name": "d8b80404e422bab5bb901a0c3fc13825"}, {"is_disabled": 0, "is_reserved": 0, "fusion_lat": 0.0, "lat": 38.895867333333335, "fusion_lon": 0.0, "rental_uris": {"ios": "https://dc.lft.to/lastmile_qr_scan", "android": "https://dc.lft.to/lastmile_qr_scan"}, "lon": -77.02506233333334, "bike_id": "441d452dfd85fade3c4cc997592044b4", "type": "electric_scooter", "name": "441d452dfd85fade3c4cc997592044b4"}, {"is_disabled": 0, "is_reserved": 0, "fusion_lat": 0.0, "lat": 38.908538666666665, "fusion_lon": 0.0, "rental_uris": {"ios": "https://dc.lft.to/lastmile_qr_scan", "android": "https://dc.lft.to/lastmile_qr_scan"}, "lon": -77.04817133333333, "bike_id": "2cb84f6489dd6cd997e9cedf7dbc780e", "type": "electric_scooter", "name": "2cb84f6489dd6cd997e9cedf7dbc780e"}, {"is_disabled": 0, "is_reserved": 0, "fusion_lat": 0.0, "lat": 38.920897, "fusion_lon": 0.0, "rental_uris": {"ios": "https://dc.lft.to/lastmile_qr_scan", "android": "https://dc.lft.to/lastmile_qr_scan"}, "lon": -77.0225215, "bike_id": "c6827331f439ed62877335b1ce3a4f16", "type": "electric_scooter", "name": "c6827331f439ed62877335b1ce3a4f16"}, {"is_disabled": 0, "is_reserved": 0, "fusion_lat": 0.0, "lat": 38.899612833333336, "fusion_lon": 0.0, "rental_uris": {"ios": "https://dc.lft.to/lastmile_qr_scan", "android": "https://dc.lft.to/lastmile_qr_scan"}, "lon": -77.01613216666667, "bike_id": "5da0bbd6da76d8852ce90bb096d0ba8c", "type": "electric_scooter", "name": "5da0bbd6da76d8852ce90bb096d0ba8c"}, {"is_disabled": 0, "is_reserved": 0, "fusion_lat": 0.0, "lat": 38.9268525, "fusion_lon": 0.0, "rental_uris": {"ios": "https://dc.lft.to/lastmile_qr_scan", "android": "https://dc.lft.to/lastmile_qr_scan"}, "lon": -77.02282033333333, "bike_id": "4bd80f5d797692ca2c89288fecadf2d4", "type": "electric_scooter", "name": "4bd80f5d797692ca2c89288fecadf2d4"}, {"is_disabled": 0, "is_reserved": 0, "fusion_lat": 0.0, "lat": 38.91563283333333, "fusion_lon": 0.0, "rental_uris": {"ios": "https://dc.lft.to/lastmile_qr_scan", "android": "https://dc.lft.to/lastmile_qr_scan"}, "lon": -77.02164683333334, "bike_id": "24744e2ceaabffe9d4c9e61d4ed6fb6e", "type": "electric_scooter", "name": "24744e2ceaabffe9d4c9e61d4ed6fb6e"}, {"is_disabled": 0, "is_reserved": 0, "fusion_lat": 0.0, "lat": 38.91951533333334, "fusion_lon": 0.0, "rental_uris": {"ios": "https://dc.lft.to/lastmile_qr_scan", "android": "https://dc.lft.to/lastmile_qr_scan"}, "lon": -77.01379316666667, "bike_id": "8970cd101714f1cec7e8d24b093c8955", "type": "electric_scooter", "name": "8970cd101714f1cec7e8d24b093c8955"}, {"is_disabled": 0, "is_reserved": 0, "fusion_lat": 0.0, "lat": 38.910629, "fusion_lon": 0.0, "rental_uris": {"ios": "https://dc.lft.to/lastmile_qr_scan", "android": "https://dc.lft.to/lastmile_qr_scan"}, "lon": -77.01981733333334, "bike_id": "85090200b231015bf0a2e22616fe10d9", "type": "electric_scooter", "name": "85090200b231015bf0a2e22616fe10d9"}, {"is_disabled": 0, "is_reserved": 0, "fusion_lat": 0.0, "lat": 38.929045333333335, "fusion_lon": 0.0, "rental_uris": {"ios": "https://dc.lft.to/lastmile_qr_scan", "android": "https://dc.lft.to/lastmile_qr_scan"}, "lon": -77.05977766666666, "bike_id": "ff28799d5b507451c7fc8aa25762068c", "type": "electric_scooter", "name": "ff28799d5b507451c7fc8aa25762068c"}, {"is_disabled": 0, "is_reserved": 0, "fusion_lat": 0.0, "lat": 38.89196616666667, "fusion_lon": 0.0, "rental_uris": {"ios": "https://dc.lft.to/lastmile_qr_scan", "android": "https://dc.lft.to/lastmile_qr_scan"}, "lon": -77.02229, "bike_id": "730d837dfd80c111f74b43a506146226", "type": "electric_scooter", "name": "730d837dfd80c111f74b43a506146226"}, {"is_disabled": 0, "is_reserved": 0, "fusion_lat": 0.0, "lat": 38.91896216666667, "fusion_lon": 0.0, "rental_uris": {"ios": "https://dc.lft.to/lastmile_qr_scan", "android": "https://dc.lft.to/lastmile_qr_scan"}, "lon": -77.02508483333334, "bike_id": "fe24b7753bfebf15e5e7cc81e9205872", "type": "electric_scooter", "name": "fe24b7753bfebf15e5e7cc81e9205872"}, {"is_disabled": 0, "is_reserved": 0, "fusion_lat": 0.0, "lat": 38.92292333333333, "fusion_lon": 0.0, "rental_uris": {"ios": "https://dc.lft.to/lastmile_qr_scan", "android": "https://dc.lft.to/lastmile_qr_scan"}, "lon": -77.04146733333333, "bike_id": "87e0eeb10eac770c9ae0295cf03aeff1", "type": "electric_scooter", "name": "87e0eeb10eac770c9ae0295cf03aeff1"}, {"is_disabled": 0, "is_reserved": 0, "fusion_lat": 0.0, "lat": 38.901465, "fusion_lon": 0.0, "rental_uris": {"ios": "https://dc.lft.to/lastmile_qr_scan", "android": "https://dc.lft.to/lastmile_qr_scan"}, "lon": -76.974086, "bike_id": "d2106a03f565744aa0909bd3bf26c6b7", "type": "electric_scooter", "name": "d2106a03f565744aa0909bd3bf26c6b7"}, {"is_disabled": 0, "is_reserved": 0, "fusion_lat": 0.0, "lat": 38.92867733333333, "fusion_lon": 0.0, "rental_uris": {"ios": "https://dc.lft.to/lastmile_qr_scan", "android": "https://dc.lft.to/lastmile_qr_scan"}, "lon": -77.0565025, "bike_id": "8e7b0616aee27dc9e1a5d9dc1e5c16e1", "type": "electric_scooter", "name": "8e7b0616aee27dc9e1a5d9dc1e5c16e1"}, {"is_disabled": 0, "is_reserved": 0, "fusion_lat": 0.0, "lat": 38.922597, "fusion_lon": 0.0, "rental_uris": {"ios": "https://dc.lft.to/lastmile_qr_scan", "android": "https://dc.lft.to/lastmile_qr_scan"}, "lon": -77.0727785, "bike_id": "1e4aa3c0224d5de8616184cc02c61c38", "type": "electric_scooter", "name": "1e4aa3c0224d5de8616184cc02c61c38"}, {"is_disabled": 0, "is_reserved": 0, "fusion_lat": 0.0, "lat": 38.880382, "fusion_lon": 0.0, "rental_uris": {"ios": "https://dc.lft.to/lastmile_qr_scan", "android": "https://dc.lft.to/lastmile_qr_scan"}, "lon": -76.92719666666666, "bike_id": "aee162b78ae8d09fee0554db3a25e0f3", "type": "electric_scooter", "name": "aee162b78ae8d09fee0554db3a25e0f3"}, {"is_disabled": 0, "is_reserved": 0, "fusion_lat": 0.0, "lat": 38.90198183333333, "fusion_lon": 0.0, "rental_uris": {"ios": "https://dc.lft.to/lastmile_qr_scan", "android": "https://dc.lft.to/lastmile_qr_scan"}, "lon": -77.02192166666667, "bike_id": "f59acb826a9800a652c26340070bd479", "type": "electric_scooter", "name": "f59acb826a9800a652c26340070bd479"}, {"is_disabled": 0, "is_reserved": 0, "fusion_lat": 0.0, "lat": 38.91567666666667, "fusion_lon": 0.0, "rental_uris": {"ios": "https://dc.lft.to/lastmile_qr_scan", "android": "https://dc.lft.to/lastmile_qr_scan"}, "lon": -77.0199735, "bike_id": "a3c1c776e3e55ea3d994364ac2f9c4ee", "type": "electric_scooter", "name": "a3c1c776e3e55ea3d994364ac2f9c4ee"}, {"is_disabled": 0, "is_reserved": 0, "fusion_lat": 0.0, "lat": 38.8923325, "fusion_lon": 0.0, "rental_uris": {"ios": "https://dc.lft.to/lastmile_qr_scan", "android": "https://dc.lft.to/lastmile_qr_scan"}, "lon": -77.03161866666666, "bike_id": "14ba9fcce79d87b743b292d20143e2f6", "type": "electric_scooter", "name": "14ba9fcce79d87b743b292d20143e2f6"}, {"is_disabled": 0, "is_reserved": 0, "fusion_lat": 0.0, "lat": 38.898962833333336, "fusion_lon": 0.0, "rental_uris": {"ios": "https://dc.lft.to/lastmile_qr_scan", "android": "https://dc.lft.to/lastmile_qr_scan"}, "lon": -76.93391733333333, "bike_id": "6636cf9235097a473dded1af2b8a22a7", "type": "electric_scooter", "name": "6636cf9235097a473dded1af2b8a22a7"}, {"is_disabled": 0, "is_reserved": 0, "fusion_lat": 0.0, "lat": 38.90570916666667, "fusion_lon": 0.0, "rental_uris": {"ios": "https://dc.lft.to/lastmile_qr_scan", "android": "https://dc.lft.to/lastmile_qr_scan"}, "lon": -77.04861983333333, "bike_id": "15f6707bb0cbbf1b7397fe4b7a0c9d6d", "type": "electric_scooter", "name": "15f6707bb0cbbf1b7397fe4b7a0c9d6d"}, {"is_disabled": 0, "is_reserved": 0, "fusion_lat": 0.0, "lat": 38.829230333333335, "fusion_lon": 0.0, "rental_uris": {"ios": "https://dc.lft.to/lastmile_qr_scan", "android": "https://dc.lft.to/lastmile_qr_scan"}, "lon": -77.068715, "bike_id": "ae0ee460ecd859c4c53d525326ee71a0", "type": "electric_bike", "name": "ae0ee460ecd859c4c53d525326ee71a0"}, {"is_disabled": 0, "is_reserved": 0, "fusion_lat": 0.0, "lat": 38.92360433333333, "fusion_lon": 0.0, "rental_uris": {"ios": "https://dc.lft.to/lastmile_qr_scan", "android": "https://dc.lft.to/lastmile_qr_scan"}, "lon": -77.0431625, "bike_id": "2b5b0ae55890d2df87a94168ffdf29ec", "type": "electric_scooter", "name": "2b5b0ae55890d2df87a94168ffdf29ec"}, {"is_disabled": 0, "is_reserved": 0, "fusion_lat": 0.0, "lat": 38.87668716666667, "fusion_lon": 0.0, "rental_uris": {"ios": "https://dc.lft.to/lastmile_qr_scan", "android": "https://dc.lft.to/lastmile_qr_scan"}, "lon": -77.01442066666667, "bike_id": "1b996d21a17dd0e852d0ac94006932cb", "type": "electric_bike", "name": "1b996d21a17dd0e852d0ac94006932cb"}, {"is_disabled": 0, "is_reserved": 0, "fusion_lat": 0.0, "lat": 38.9507705, "fusion_lon": 0.0, "rental_uris": {"ios": "https://dc.lft.to/lastmile_qr_scan", "android": "https://dc.lft.to/lastmile_qr_scan"}, "lon": -77.01190333333334, "bike_id": "472133ddccf01d521f2d39352b0ae717", "type": "electric_bike", "name": "472133ddccf01d521f2d39352b0ae717"}, {"is_disabled": 0, "is_reserved": 0, "fusion_lat": 0.0, "lat": 38.84859, "fusion_lon": 0.0, "rental_uris": {"ios": "https://dc.lft.to/lastmile_qr_scan", "android": "https://dc.lft.to/lastmile_qr_scan"}, "lon": -77.06827633333333, "bike_id": "430f0d433e91a9f8bc498522a92a7356", "type": "electric_bike", "name": "430f0d433e91a9f8bc498522a92a7356"}, {"is_disabled": 0, "is_reserved": 0, "fusion_lat": 0.0, "lat": 38.89743466666667, "fusion_lon": 0.0, "rental_uris": {"ios": "https://dc.lft.to/lastmile_qr_scan", "android": "https://dc.lft.to/lastmile_qr_scan"}, "lon": -76.99218016666667, "bike_id": "09cd31548f7a63d58d64f6e67559cba1", "type": "electric_bike", "name": "09cd31548f7a63d58d64f6e67559cba1"}, {"is_disabled": 0, "is_reserved": 0, "fusion_lat": 0.0, "lat": 38.897029, "fusion_lon": 0.0, "rental_uris": {"ios": "https://dc.lft.to/lastmile_qr_scan", "android": "https://dc.lft.to/lastmile_qr_scan"}, "lon": -77.02773516666667, "bike_id": "097297ca515036aa5db50aad58737073", "type": "electric_scooter", "name": "097297ca515036aa5db50aad58737073"}, {"is_disabled": 0, "is_reserved": 0, "fusion_lat": 0.0, "lat": 38.91956666666667, "fusion_lon": 0.0, "rental_uris": {"ios": "https://dc.lft.to/lastmile_qr_scan", "android": "https://dc.lft.to/lastmile_qr_scan"}, "lon": -77.07867533333334, "bike_id": "5d5a8db575833eea53797503a88381f2", "type": "electric_scooter", "name": "5d5a8db575833eea53797503a88381f2"}, {"is_disabled": 0, "is_reserved": 0, "fusion_lat": 0.0, "lat": 38.92088666666667, "fusion_lon": 0.0, "rental_uris": {"ios": "https://dc.lft.to/lastmile_qr_scan", "android": "https://dc.lft.to/lastmile_qr_scan"}, "lon": -77.032197, "bike_id": "943d4c2486e840823b0ad0b0a5bf80c1", "type": "electric_scooter", "name": "943d4c2486e840823b0ad0b0a5bf80c1"}, {"is_disabled": 0, "is_reserved": 0, "fusion_lat": 0.0, "lat": 38.90732083333333, "fusion_lon": 0.0, "rental_uris": {"ios": "https://dc.lft.to/lastmile_qr_scan", "android": "https://dc.lft.to/lastmile_qr_scan"}, "lon": -77.00136533333334, "bike_id": "be3dc7aec0de0ebc7381606b69710d43", "type": "electric_scooter", "name": "be3dc7aec0de0ebc7381606b69710d43"}, {"is_disabled": 0, "is_reserved": 0, "fusion_lat": 0.0, "lat": 38.928999, "fusion_lon": 0.0, "rental_uris": {"ios": "https://dc.lft.to/lastmile_qr_scan", "android": "https://dc.lft.to/lastmile_qr_scan"}, "lon": -77.03231233333334, "bike_id": "33205cd34477a0b132ac8707185c97dc", "type": "electric_scooter", "name": "33205cd34477a0b132ac8707185c97dc"}, {"is_disabled": 0, "is_reserved": 0, "fusion_lat": 0.0, "lat": 38.917135, "fusion_lon": 0.0, "rental_uris": {"ios": "https://dc.lft.to/lastmile_qr_scan", "android": "https://dc.lft.to/lastmile_qr_scan"}, "lon": -77.038572, "bike_id": "d4bd2748b161e4de302588b0ce3717ae", "type": "electric_scooter", "name": "d4bd2748b161e4de302588b0ce3717ae"}, {"is_disabled": 0, "is_reserved": 0, "fusion_lat": 0.0, "lat": 38.87950033333333, "fusion_lon": 0.0, "rental_uris": {"ios": "https://dc.lft.to/lastmile_qr_scan", "android": "https://dc.lft.to/lastmile_qr_scan"}, "lon": -77.00795216666667, "bike_id": "b1fd026d244b7128ef6efd963b1f3e0e", "type": "electric_scooter", "name": "b1fd026d244b7128ef6efd963b1f3e0e"}, {"is_disabled": 0, "is_reserved": 0, "fusion_lat": 0.0, "lat": 38.92088066666667, "fusion_lon": 0.0, "rental_uris": {"ios": "https://dc.lft.to/lastmile_qr_scan", "android": "https://dc.lft.to/lastmile_qr_scan"}, "lon": -77.01800666666666, "bike_id": "a3725e2d4d7d7cb8a8babe917852f20a", "type": "electric_scooter", "name": "a3725e2d4d7d7cb8a8babe917852f20a"}, {"is_disabled": 0, "is_reserved": 0, "fusion_lat": 0.0, "lat": 38.92839933333333, "fusion_lon": 0.0, "rental_uris": {"ios": "https://dc.lft.to/lastmile_qr_scan", "android": "https://dc.lft.to/lastmile_qr_scan"}, "lon": -77.0372265, "bike_id": "910efad4f688906d77846a7989e695ad", "type": "electric_scooter", "name": "910efad4f688906d77846a7989e695ad"}, {"is_disabled": 0, "is_reserved": 0, "fusion_lat": 0.0, "lat": 38.9260425, "fusion_lon": 0.0, "rental_uris": {"ios": "https://dc.lft.to/lastmile_qr_scan", "android": "https://dc.lft.to/lastmile_qr_scan"}, "lon": -77.0796425, "bike_id": "c382d935fbeb15362bb2ef3115b894ea", "type": "electric_scooter", "name": "c382d935fbeb15362bb2ef3115b894ea"}, {"is_disabled": 0, "is_reserved": 0, "fusion_lat": 0.0, "lat": 38.914206, "fusion_lon": 0.0, "rental_uris": {"ios": "https://dc.lft.to/lastmile_qr_scan", "android": "https://dc.lft.to/lastmile_qr_scan"}, "lon": -77.03175983333334, "bike_id": "c3dab5bb0f57d66f989dcb765bcc8b15", "type": "electric_scooter", "name": "c3dab5bb0f57d66f989dcb765bcc8b15"}, {"is_disabled": 0, "is_reserved": 0, "fusion_lat": 0.0, "lat": 38.90668933333333, "fusion_lon": 0.0, "rental_uris": {"ios": "https://dc.lft.to/lastmile_qr_scan", "android": "https://dc.lft.to/lastmile_qr_scan"}, "lon": -77.027013, "bike_id": "b1ebdb232d12b2a3554fa0e96144848d", "type": "electric_scooter", "name": "b1ebdb232d12b2a3554fa0e96144848d"}, {"is_disabled": 0, "is_reserved": 0, "fusion_lat": 0.0, "lat": 38.90431683333333, "fusion_lon": 0.0, "rental_uris": {"ios": "https://dc.lft.to/lastmile_qr_scan", "android": "https://dc.lft.to/lastmile_qr_scan"}, "lon": -77.03111166666666, "bike_id": "8e1168f2074912cbe10bf0320813c68b", "type": "electric_scooter", "name": "8e1168f2074912cbe10bf0320813c68b"}, {"is_disabled": 0, "is_reserved": 0, "fusion_lat": 0.0, "lat": 38.90788966666667, "fusion_lon": 0.0, "rental_uris": {"ios": "https://dc.lft.to/lastmile_qr_scan", "android": "https://dc.lft.to/lastmile_qr_scan"}, "lon": -77.04499583333333, "bike_id": "75083dde711d6c73fd03ddcf4f9c9614", "type": "electric_scooter", "name": "75083dde711d6c73fd03ddcf4f9c9614"}, {"is_disabled": 0, "is_reserved": 0, "fusion_lat": 0.0, "lat": 38.9165875, "fusion_lon": 0.0, "rental_uris": {"ios": "https://dc.lft.to/lastmile_qr_scan", "android": "https://dc.lft.to/lastmile_qr_scan"}, "lon": -77.03847216666666, "bike_id": "0c33e56efb8fe94cb943fc552c1248ef", "type": "electric_scooter", "name": "0c33e56efb8fe94cb943fc552c1248ef"}, {"is_disabled": 0, "is_reserved": 0, "fusion_lat": 0.0, "lat": 38.94330433333333, "fusion_lon": 0.0, "rental_uris": {"ios": "https://dc.lft.to/lastmile_qr_scan", "android": "https://dc.lft.to/lastmile_qr_scan"}, "lon": -77.02691266666666, "bike_id": "ba66b3521644534b337f30f564c863ac", "type": "electric_scooter", "name": "ba66b3521644534b337f30f564c863ac"}, {"is_disabled": 0, "is_reserved": 0, "fusion_lat": 0.0, "lat": 38.9051705, "fusion_lon": 0.0, "rental_uris": {"ios": "https://dc.lft.to/lastmile_qr_scan", "android": "https://dc.lft.to/lastmile_qr_scan"}, "lon": -76.95194183333334, "bike_id": "58070a101e2c6caf9622f3a5623461aa", "type": "electric_scooter", "name": "58070a101e2c6caf9622f3a5623461aa"}, {"is_disabled": 0, "is_reserved": 0, "fusion_lat": 0.0, "lat": 38.91409866666667, "fusion_lon": 0.0, "rental_uris": {"ios": "https://dc.lft.to/lastmile_qr_scan", "android": "https://dc.lft.to/lastmile_qr_scan"}, "lon": -77.05203383333334, "bike_id": "563a0ac41db912d889d0af26195886bf", "type": "electric_scooter", "name": "563a0ac41db912d889d0af26195886bf"}, {"is_disabled": 0, "is_reserved": 0, "fusion_lat": 0.0, "lat": 38.88621783333333, "fusion_lon": 0.0, "rental_uris": {"ios": "https://dc.lft.to/lastmile_qr_scan", "android": "https://dc.lft.to/lastmile_qr_scan"}, "lon": -76.926353, "bike_id": "711c3d1dcc7f7c6194808381d27f9a78", "type": "electric_scooter", "name": "711c3d1dcc7f7c6194808381d27f9a78"}, {"is_disabled": 0, "is_reserved": 0, "fusion_lat": 0.0, "lat": 38.92354433333333, "fusion_lon": 0.0, "rental_uris": {"ios": "https://dc.lft.to/lastmile_qr_scan", "android": "https://dc.lft.to/lastmile_qr_scan"}, "lon": -77.021264, "bike_id": "f796fa7a1e06700b3dd99ea378cc29d0", "type": "electric_scooter", "name": "f796fa7a1e06700b3dd99ea378cc29d0"}, {"is_disabled": 0, "is_reserved": 0, "fusion_lat": 0.0, "lat": 38.89987333333333, "fusion_lon": 0.0, "rental_uris": {"ios": "https://dc.lft.to/lastmile_qr_scan", "android": "https://dc.lft.to/lastmile_qr_scan"}, "lon": -77.02693083333334, "bike_id": "2df925581f1e95a06fbe13c171dc2194", "type": "electric_scooter", "name": "2df925581f1e95a06fbe13c171dc2194"}, {"is_disabled": 0, "is_reserved": 0, "fusion_lat": 0.0, "lat": 38.93068983333333, "fusion_lon": 0.0, "rental_uris": {"ios": "https://dc.lft.to/lastmile_qr_scan", "android": "https://dc.lft.to/lastmile_qr_scan"}, "lon": -77.04055716666667, "bike_id": "311009b1ce6c3cb099ffa70517294c79", "type": "electric_scooter", "name": "311009b1ce6c3cb099ffa70517294c79"}, {"is_disabled": 0, "is_reserved": 0, "fusion_lat": 0.0, "lat": 38.9260095, "fusion_lon": 0.0, "rental_uris": {"ios": "https://dc.lft.to/lastmile_qr_scan", "android": "https://dc.lft.to/lastmile_qr_scan"}, "lon": -77.05308733333334, "bike_id": "a3f21ee6c2f84cd3960d81396caa8a5f", "type": "electric_scooter", "name": "a3f21ee6c2f84cd3960d81396caa8a5f"}, {"is_disabled": 0, "is_reserved": 0, "fusion_lat": 0.0, "lat": 38.914727, "fusion_lon": 0.0, "rental_uris": {"ios": "https://dc.lft.to/lastmile_qr_scan", "android": "https://dc.lft.to/lastmile_qr_scan"}, "lon": -77.00910333333333, "bike_id": "cc50dd9e0e67d9c6482069f38692ec00", "type": "electric_scooter", "name": "cc50dd9e0e67d9c6482069f38692ec00"}, {"is_disabled": 0, "is_reserved": 0, "fusion_lat": 0.0, "lat": 38.914610333333336, "fusion_lon": 0.0, "rental_uris": {"ios": "https://dc.lft.to/lastmile_qr_scan", "android": "https://dc.lft.to/lastmile_qr_scan"}, "lon": -77.03182466666667, "bike_id": "41dc52a3fb1cf0ca391415e20dab21b7", "type": "electric_scooter", "name": "41dc52a3fb1cf0ca391415e20dab21b7"}, {"is_disabled": 0, "is_reserved": 0, "fusion_lat": 0.0, "lat": 39.026443666666665, "fusion_lon": 0.0, "rental_uris": {"ios": "https://dc.lft.to/lastmile_qr_scan", "android": "https://dc.lft.to/lastmile_qr_scan"}, "lon": -77.03685866666666, "bike_id": "e58a11e1fc80a9a876f48a224f352efc", "type": "electric_bike", "name": "e58a11e1fc80a9a876f48a224f352efc"}, {"is_disabled": 0, "is_reserved": 0, "fusion_lat": 0.0, "lat": 38.930211, "fusion_lon": 0.0, "rental_uris": {"ios": "https://dc.lft.to/lastmile_qr_scan", "android": "https://dc.lft.to/lastmile_qr_scan"}, "lon": -77.02324133333333, "bike_id": "3e09b6425fcdc4495fa3632326f29870", "type": "electric_scooter", "name": "3e09b6425fcdc4495fa3632326f29870"}, {"is_disabled": 0, "is_reserved": 0, "fusion_lat": 0.0, "lat": 38.8829455, "fusion_lon": 0.0, "rental_uris": {"ios": "https://dc.lft.to/lastmile_qr_scan", "android": "https://dc.lft.to/lastmile_qr_scan"}, "lon": -76.93493216666667, "bike_id": "c743fb8edb181bac6c8e48b5111bb387", "type": "electric_scooter", "name": "c743fb8edb181bac6c8e48b5111bb387"}, {"is_disabled": 0, "is_reserved": 0, "fusion_lat": 0.0, "lat": 38.892448, "fusion_lon": 0.0, "rental_uris": {"ios": "https://dc.lft.to/lastmile_qr_scan", "android": "https://dc.lft.to/lastmile_qr_scan"}, "lon": -77.04645333333333, "bike_id": "7de4db119ba9786d68516cf3d3dd992e", "type": "electric_scooter", "name": "7de4db119ba9786d68516cf3d3dd992e"}, {"is_disabled": 0, "is_reserved": 0, "fusion_lat": 0.0, "lat": 38.91350666666666, "fusion_lon": 0.0, "rental_uris": {"ios": "https://dc.lft.to/lastmile_qr_scan", "android": "https://dc.lft.to/lastmile_qr_scan"}, "lon": -77.063993, "bike_id": "61d0f7ea651da1d4ef02737e873e4ef4", "type": "electric_scooter", "name": "61d0f7ea651da1d4ef02737e873e4ef4"}, {"is_disabled": 0, "is_reserved": 0, "fusion_lat": 0.0, "lat": 38.90174, "fusion_lon": 0.0, "rental_uris": {"ios": "https://dc.lft.to/lastmile_qr_scan", "android": "https://dc.lft.to/lastmile_qr_scan"}, "lon": -76.980789, "bike_id": "cf723327d234eefced2fe2be8847e82d", "type": "electric_scooter", "name": "cf723327d234eefced2fe2be8847e82d"}, {"is_disabled": 0, "is_reserved": 0, "fusion_lat": 0.0, "lat": 38.88600133333333, "fusion_lon": 0.0, "rental_uris": {"ios": "https://dc.lft.to/lastmile_qr_scan", "android": "https://dc.lft.to/lastmile_qr_scan"}, "lon": -77.00076816666666, "bike_id": "d914cacbe99925df0be77d78e7e8e53e", "type": "electric_bike", "name": "d914cacbe99925df0be77d78e7e8e53e"}, {"is_disabled": 0, "is_reserved": 0, "fusion_lat": 0.0, "lat": 38.91451466666667, "fusion_lon": 0.0, "rental_uris": {"ios": "https://dc.lft.to/lastmile_qr_scan", "android": "https://dc.lft.to/lastmile_qr_scan"}, "lon": -76.97278066666667, "bike_id": "7be8f703d7e5a85243ae9950d4b73cda", "type": "electric_bike", "name": "7be8f703d7e5a85243ae9950d4b73cda"}, {"is_disabled": 0, "is_reserved": 0, "fusion_lat": 0.0, "lat": 38.924374, "fusion_lon": 0.0, "rental_uris": {"ios": "https://dc.lft.to/lastmile_qr_scan", "android": "https://dc.lft.to/lastmile_qr_scan"}, "lon": -77.020064, "bike_id": "1c8e4e11e6b5293b2e079bf37b5a0039", "type": "electric_scooter", "name": "1c8e4e11e6b5293b2e079bf37b5a0039"}, {"is_disabled": 0, "is_reserved": 0, "fusion_lat": 0.0, "lat": 39.034721833333336, "fusion_lon": 0.0, "rental_uris": {"ios": "https://dc.lft.to/lastmile_qr_scan", "android": "https://dc.lft.to/lastmile_qr_scan"}, "lon": -77.01656333333334, "bike_id": "af4b054911c7eda583e37e7f38f25261", "type": "electric_bike", "name": "af4b054911c7eda583e37e7f38f25261"}, {"is_disabled": 0, "is_reserved": 0, "fusion_lat": 0.0, "lat": 39.08471633333333, "fusion_lon": 0.0, "rental_uris": {"ios": "https://dc.lft.to/lastmile_qr_scan", "android": "https://dc.lft.to/lastmile_qr_scan"}, "lon": -76.95062116666666, "bike_id": "43a4254269eb7f32c393e5a01f876737", "type": "electric_bike", "name": "43a4254269eb7f32c393e5a01f876737"}, {"is_disabled": 0, "is_reserved": 0, "fusion_lat": 0.0, "lat": 38.921634, "fusion_lon": 0.0, "rental_uris": {"ios": "https://dc.lft.to/lastmile_qr_scan", "android": "https://dc.lft.to/lastmile_qr_scan"}, "lon": -77.04006633333333, "bike_id": "adf1961485dacc2b98db77f4ddcbdae4", "type": "electric_scooter", "name": "adf1961485dacc2b98db77f4ddcbdae4"}, {"is_disabled": 0, "is_reserved": 0, "fusion_lat": 0.0, "lat": 38.89197033333333, "fusion_lon": 0.0, "rental_uris": {"ios": "https://dc.lft.to/lastmile_qr_scan", "android": "https://dc.lft.to/lastmile_qr_scan"}, "lon": -77.0247115, "bike_id": "a9aac396c42705c638746c3a0faa7d8c", "type": "electric_scooter", "name": "a9aac396c42705c638746c3a0faa7d8c"}, {"is_disabled": 0, "is_reserved": 0, "fusion_lat": 0.0, "lat": 38.953515833333334, "fusion_lon": 0.0, "rental_uris": {"ios": "https://dc.lft.to/lastmile_qr_scan", "android": "https://dc.lft.to/lastmile_qr_scan"}, "lon": -77.081447, "bike_id": "13d6b3deb871b04ed7e676712ed9eb8b", "type": "electric_scooter", "name": "13d6b3deb871b04ed7e676712ed9eb8b"}, {"is_disabled": 0, "is_reserved": 0, "fusion_lat": 0.0, "lat": 38.91414283333334, "fusion_lon": 0.0, "rental_uris": {"ios": "https://dc.lft.to/lastmile_qr_scan", "android": "https://dc.lft.to/lastmile_qr_scan"}, "lon": -77.0223145, "bike_id": "ccbe940d3e916f14bf1b2c2148e54946", "type": "electric_scooter", "name": "ccbe940d3e916f14bf1b2c2148e54946"}, {"is_disabled": 0, "is_reserved": 0, "fusion_lat": 0.0, "lat": 38.9174905, "fusion_lon": 0.0, "rental_uris": {"ios": "https://dc.lft.to/lastmile_qr_scan", "android": "https://dc.lft.to/lastmile_qr_scan"}, "lon": -77.0320035, "bike_id": "6e2a5b7f408658ce6fae996b8819df4e", "type": "electric_scooter", "name": "6e2a5b7f408658ce6fae996b8819df4e"}, {"is_disabled": 0, "is_reserved": 0, "fusion_lat": 0.0, "lat": 38.933555, "fusion_lon": 0.0, "rental_uris": {"ios": "https://dc.lft.to/lastmile_qr_scan", "android": "https://dc.lft.to/lastmile_qr_scan"}, "lon": -77.0236305, "bike_id": "63904a7b695e638f9860ff8ac0e958ac", "type": "electric_scooter", "name": "63904a7b695e638f9860ff8ac0e958ac"}, {"is_disabled": 0, "is_reserved": 0, "fusion_lat": 0.0, "lat": 38.89630066666667, "fusion_lon": 0.0, "rental_uris": {"ios": "https://dc.lft.to/lastmile_qr_scan", "android": "https://dc.lft.to/lastmile_qr_scan"}, "lon": -77.02384866666667, "bike_id": "c78347a79cb60005a608935c182d624c", "type": "electric_scooter", "name": "c78347a79cb60005a608935c182d624c"}, {"is_disabled": 0, "is_reserved": 0, "fusion_lat": 0.0, "lat": 38.89799416666666, "fusion_lon": 0.0, "rental_uris": {"ios": "https://dc.lft.to/lastmile_qr_scan", "android": "https://dc.lft.to/lastmile_qr_scan"}, "lon": -76.97180916666667, "bike_id": "e2f9e3187e637521891d15941469765d", "type": "electric_scooter", "name": "e2f9e3187e637521891d15941469765d"}, {"is_disabled": 0, "is_reserved": 0, "fusion_lat": 0.0, "lat": 38.902377666666666, "fusion_lon": 0.0, "rental_uris": {"ios": "https://dc.lft.to/lastmile_qr_scan", "android": "https://dc.lft.to/lastmile_qr_scan"}, "lon": -77.01905933333333, "bike_id": "ee6f54d140c0140527627d15ff8b767f", "type": "electric_scooter", "name": "ee6f54d140c0140527627d15ff8b767f"}, {"is_disabled": 0, "is_reserved": 0, "fusion_lat": 0.0, "lat": 38.909797166666664, "fusion_lon": 0.0, "rental_uris": {"ios": "https://dc.lft.to/lastmile_qr_scan", "android": "https://dc.lft.to/lastmile_qr_scan"}, "lon": -77.03179733333333, "bike_id": "3f9fe2b29dd7e6e002749995f9094cf7", "type": "electric_scooter", "name": "3f9fe2b29dd7e6e002749995f9094cf7"}, {"is_disabled": 0, "is_reserved": 0, "fusion_lat": 0.0, "lat": 38.9181425, "fusion_lon": 0.0, "rental_uris": {"ios": "https://dc.lft.to/lastmile_qr_scan", "android": "https://dc.lft.to/lastmile_qr_scan"}, "lon": -77.02476566666667, "bike_id": "e2511707f75f30562715142a597fc595", "type": "electric_scooter", "name": "e2511707f75f30562715142a597fc595"}, {"is_disabled": 0, "is_reserved": 0, "fusion_lat": 0.0, "lat": 38.891734166666666, "fusion_lon": 0.0, "rental_uris": {"ios": "https://dc.lft.to/lastmile_qr_scan", "android": "https://dc.lft.to/lastmile_qr_scan"}, "lon": -77.01559533333334, "bike_id": "cbbbcaa6dbbeacec5829d1f669a7f61c", "type": "electric_scooter", "name": "cbbbcaa6dbbeacec5829d1f669a7f61c"}, {"is_disabled": 0, "is_reserved": 0, "fusion_lat": 0.0, "lat": 38.91288616666667, "fusion_lon": 0.0, "rental_uris": {"ios": "https://dc.lft.to/lastmile_qr_scan", "android": "https://dc.lft.to/lastmile_qr_scan"}, "lon": -77.02305016666666, "bike_id": "657224a64200be21d2ea5816da5f5f9b", "type": "electric_scooter", "name": "657224a64200be21d2ea5816da5f5f9b"}, {"is_disabled": 0, "is_reserved": 0, "fusion_lat": 0.0, "lat": 38.92062, "fusion_lon": 0.0, "rental_uris": {"ios": "https://dc.lft.to/lastmile_qr_scan", "android": "https://dc.lft.to/lastmile_qr_scan"}, "lon": -77.03332916666666, "bike_id": "8f2b66ea312ea3d99b5d5032d6161431", "type": "electric_scooter", "name": "8f2b66ea312ea3d99b5d5032d6161431"}, {"is_disabled": 0, "is_reserved": 0, "fusion_lat": 0.0, "lat": 38.911084, "fusion_lon": 0.0, "rental_uris": {"ios": "https://dc.lft.to/lastmile_qr_scan", "android": "https://dc.lft.to/lastmile_qr_scan"}, "lon": -77.03823266666667, "bike_id": "7484260d41d2fa0f75bdc2311270c87f", "type": "electric_scooter", "name": "7484260d41d2fa0f75bdc2311270c87f"}, {"is_disabled": 0, "is_reserved": 0, "fusion_lat": 0.0, "lat": 38.906272, "fusion_lon": 0.0, "rental_uris": {"ios": "https://dc.lft.to/lastmile_qr_scan", "android": "https://dc.lft.to/lastmile_qr_scan"}, "lon": -77.04166066666667, "bike_id": "279013147fb134fb2cdc2dfde3ece346", "type": "electric_scooter", "name": "279013147fb134fb2cdc2dfde3ece346"}, {"is_disabled": 0, "is_reserved": 0, "fusion_lat": 0.0, "lat": 38.909418, "fusion_lon": 0.0, "rental_uris": {"ios": "https://dc.lft.to/lastmile_qr_scan", "android": "https://dc.lft.to/lastmile_qr_scan"}, "lon": -76.999039, "bike_id": "67deb025f1f578acf6df8a04d5807072", "type": "electric_scooter", "name": "67deb025f1f578acf6df8a04d5807072"}, {"is_disabled": 0, "is_reserved": 0, "fusion_lat": 0.0, "lat": 38.9027375, "fusion_lon": 0.0, "rental_uris": {"ios": "https://dc.lft.to/lastmile_qr_scan", "android": "https://dc.lft.to/lastmile_qr_scan"}, "lon": -77.03066066666666, "bike_id": "6eeeb286fdf0401d70f8a05bdad755f8", "type": "electric_scooter", "name": "6eeeb286fdf0401d70f8a05bdad755f8"}, {"is_disabled": 0, "is_reserved": 0, "fusion_lat": 0.0, "lat": 38.891760166666664, "fusion_lon": 0.0, "rental_uris": {"ios": "https://dc.lft.to/lastmile_qr_scan", "android": "https://dc.lft.to/lastmile_qr_scan"}, "lon": -77.01548316666667, "bike_id": "82a90c4cef3033a63faec9b8102bbc88", "type": "electric_scooter", "name": "82a90c4cef3033a63faec9b8102bbc88"}, {"is_disabled": 0, "is_reserved": 0, "fusion_lat": 0.0, "lat": 38.925645, "fusion_lon": 0.0, "rental_uris": {"ios": "https://dc.lft.to/lastmile_qr_scan", "android": "https://dc.lft.to/lastmile_qr_scan"}, "lon": -77.03138633333333, "bike_id": "78435128fc664092b9242ba7f133d985", "type": "electric_scooter", "name": "78435128fc664092b9242ba7f133d985"}, {"is_disabled": 0, "is_reserved": 0, "fusion_lat": 0.0, "lat": 38.915486333333334, "fusion_lon": 0.0, "rental_uris": {"ios": "https://dc.lft.to/lastmile_qr_scan", "android": "https://dc.lft.to/lastmile_qr_scan"}, "lon": -77.0509305, "bike_id": "c462973abe2be9b52fbb56fadc57ab42", "type": "electric_scooter", "name": "c462973abe2be9b52fbb56fadc57ab42"}, {"is_disabled": 0, "is_reserved": 0, "fusion_lat": 0.0, "lat": 38.889677, "fusion_lon": 0.0, "rental_uris": {"ios": "https://dc.lft.to/lastmile_qr_scan", "android": "https://dc.lft.to/lastmile_qr_scan"}, "lon": -76.9803325, "bike_id": "146538c8ba3cc2258392aff40431ad1e", "type": "electric_scooter", "name": "146538c8ba3cc2258392aff40431ad1e"}, {"is_disabled": 0, "is_reserved": 0, "fusion_lat": 0.0, "lat": 38.932761666666664, "fusion_lon": 0.0, "rental_uris": {"ios": "https://dc.lft.to/lastmile_qr_scan", "android": "https://dc.lft.to/lastmile_qr_scan"}, "lon": -77.02100233333333, "bike_id": "d70708614f83a026816675637a6e1897", "type": "electric_scooter", "name": "d70708614f83a026816675637a6e1897"}, {"is_disabled": 0, "is_reserved": 0, "fusion_lat": 0.0, "lat": 38.92232, "fusion_lon": 0.0, "rental_uris": {"ios": "https://dc.lft.to/lastmile_qr_scan", "android": "https://dc.lft.to/lastmile_qr_scan"}, "lon": -77.0388485, "bike_id": "c66422b05062adc03b00420c76232ab7", "type": "electric_scooter", "name": "c66422b05062adc03b00420c76232ab7"}, {"is_disabled": 0, "is_reserved": 0, "fusion_lat": 0.0, "lat": 38.88488, "fusion_lon": 0.0, "rental_uris": {"ios": "https://dc.lft.to/lastmile_qr_scan", "android": "https://dc.lft.to/lastmile_qr_scan"}, "lon": -77.03471316666666, "bike_id": "f35d73b55bae2b3efd0f5abb6c5bd91e", "type": "electric_scooter", "name": "f35d73b55bae2b3efd0f5abb6c5bd91e"}, {"is_disabled": 0, "is_reserved": 0, "fusion_lat": 0.0, "lat": 38.91995216666667, "fusion_lon": 0.0, "rental_uris": {"ios": "https://dc.lft.to/lastmile_qr_scan", "android": "https://dc.lft.to/lastmile_qr_scan"}, "lon": -77.02161566666666, "bike_id": "788159df52afd39c979d9be8937fa6b5", "type": "electric_scooter", "name": "788159df52afd39c979d9be8937fa6b5"}, {"is_disabled": 0, "is_reserved": 0, "fusion_lat": 0.0, "lat": 38.846713333333334, "fusion_lon": 0.0, "rental_uris": {"ios": "https://dc.lft.to/lastmile_qr_scan", "android": "https://dc.lft.to/lastmile_qr_scan"}, "lon": -77.13931666666667, "bike_id": "7d9d12368101c4fee94c56eadff07b5a", "type": "electric_bike", "name": "7d9d12368101c4fee94c56eadff07b5a"}, {"is_disabled": 0, "is_reserved": 0, "fusion_lat": 0.0, "lat": 38.91466116666667, "fusion_lon": 0.0, "rental_uris": {"ios": "https://dc.lft.to/lastmile_qr_scan", "android": "https://dc.lft.to/lastmile_qr_scan"}, "lon": -77.01793566666667, "bike_id": "dc1e5e55b5ab3d0d0852519683436932", "type": "electric_scooter", "name": "dc1e5e55b5ab3d0d0852519683436932"}, {"is_disabled": 0, "is_reserved": 0, "fusion_lat": 0.0, "lat": 38.89980383333334, "fusion_lon": 0.0, "rental_uris": {"ios": "https://dc.lft.to/lastmile_qr_scan", "android": "https://dc.lft.to/lastmile_qr_scan"}, "lon": -77.0238285, "bike_id": "951d4cf8744351d4b218afa335cb2b8f", "type": "electric_scooter", "name": "951d4cf8744351d4b218afa335cb2b8f"}, {"is_disabled": 0, "is_reserved": 0, "fusion_lat": 0.0, "lat": 38.91420933333333, "fusion_lon": 0.0, "rental_uris": {"ios": "https://dc.lft.to/lastmile_qr_scan", "android": "https://dc.lft.to/lastmile_qr_scan"}, "lon": -77.02225133333333, "bike_id": "6ba6c5be8bedf9bc0a2ddcc0af8cf28e", "type": "electric_scooter", "name": "6ba6c5be8bedf9bc0a2ddcc0af8cf28e"}, {"is_disabled": 0, "is_reserved": 0, "fusion_lat": 0.0, "lat": 38.91120733333333, "fusion_lon": 0.0, "rental_uris": {"ios": "https://dc.lft.to/lastmile_qr_scan", "android": "https://dc.lft.to/lastmile_qr_scan"}, "lon": -77.03827983333333, "bike_id": "8de8221bcb245d698fa31e0f9a165560", "type": "electric_scooter", "name": "8de8221bcb245d698fa31e0f9a165560"}, {"is_disabled": 0, "is_reserved": 0, "fusion_lat": 0.0, "lat": 38.912952, "fusion_lon": 0.0, "rental_uris": {"ios": "https://dc.lft.to/lastmile_qr_scan", "android": "https://dc.lft.to/lastmile_qr_scan"}, "lon": -76.93748833333333, "bike_id": "4113f6e69daee92602271e2e8bcebb5e", "type": "electric_scooter", "name": "4113f6e69daee92602271e2e8bcebb5e"}, {"is_disabled": 0, "is_reserved": 0, "fusion_lat": 0.0, "lat": 38.90927716666667, "fusion_lon": 0.0, "rental_uris": {"ios": "https://dc.lft.to/lastmile_qr_scan", "android": "https://dc.lft.to/lastmile_qr_scan"}, "lon": -77.0231885, "bike_id": "ec2585ad788e29e59386023fd9e1d483", "type": "electric_scooter", "name": "ec2585ad788e29e59386023fd9e1d483"}, {"is_disabled": 0, "is_reserved": 0, "fusion_lat": 0.0, "lat": 38.898421, "fusion_lon": 0.0, "rental_uris": {"ios": "https://dc.lft.to/lastmile_qr_scan", "android": "https://dc.lft.to/lastmile_qr_scan"}, "lon": -76.9810505, "bike_id": "68cf762ca8252ee883adf84a70448ad0", "type": "electric_scooter", "name": "68cf762ca8252ee883adf84a70448ad0"}, {"is_disabled": 0, "is_reserved": 0, "fusion_lat": 0.0, "lat": 38.8993655, "fusion_lon": 0.0, "rental_uris": {"ios": "https://dc.lft.to/lastmile_qr_scan", "android": "https://dc.lft.to/lastmile_qr_scan"}, "lon": -76.93761583333334, "bike_id": "0e7591b0b39f8ec83d75aa122af98979", "type": "electric_scooter", "name": "0e7591b0b39f8ec83d75aa122af98979"}, {"is_disabled": 0, "is_reserved": 0, "fusion_lat": 0.0, "lat": 38.89629466666667, "fusion_lon": 0.0, "rental_uris": {"ios": "https://dc.lft.to/lastmile_qr_scan", "android": "https://dc.lft.to/lastmile_qr_scan"}, "lon": -77.04330983333334, "bike_id": "28562bcab634ed73f933ff608fecf806", "type": "electric_scooter", "name": "28562bcab634ed73f933ff608fecf806"}, {"is_disabled": 0, "is_reserved": 0, "fusion_lat": 0.0, "lat": 38.89242516666667, "fusion_lon": 0.0, "rental_uris": {"ios": "https://dc.lft.to/lastmile_qr_scan", "android": "https://dc.lft.to/lastmile_qr_scan"}, "lon": -77.02797916666667, "bike_id": "646b24073821b8ad670e255f5bbbfd7f", "type": "electric_scooter", "name": "646b24073821b8ad670e255f5bbbfd7f"}, {"is_disabled": 0, "is_reserved": 0, "fusion_lat": 0.0, "lat": 38.900092666666666, "fusion_lon": 0.0, "rental_uris": {"ios": "https://dc.lft.to/lastmile_qr_scan", "android": "https://dc.lft.to/lastmile_qr_scan"}, "lon": -76.99820133333333, "bike_id": "fe326272e8b18d93f18d45b1e917c4fe", "type": "electric_scooter", "name": "fe326272e8b18d93f18d45b1e917c4fe"}, {"is_disabled": 0, "is_reserved": 0, "fusion_lat": 0.0, "lat": 38.9451045, "fusion_lon": 0.0, "rental_uris": {"ios": "https://dc.lft.to/lastmile_qr_scan", "android": "https://dc.lft.to/lastmile_qr_scan"}, "lon": -77.00669666666667, "bike_id": "b02f239cfbe86adb95c900aeb42bc091", "type": "electric_bike", "name": "b02f239cfbe86adb95c900aeb42bc091"}, {"is_disabled": 0, "is_reserved": 0, "fusion_lat": 0.0, "lat": 38.8839535, "fusion_lon": 0.0, "rental_uris": {"ios": "https://dc.lft.to/lastmile_qr_scan", "android": "https://dc.lft.to/lastmile_qr_scan"}, "lon": -77.0317315, "bike_id": "acb2937a5fb1e18fb47c2bf62ae397b2", "type": "electric_scooter", "name": "acb2937a5fb1e18fb47c2bf62ae397b2"}, {"is_disabled": 0, "is_reserved": 0, "fusion_lat": 0.0, "lat": 38.915522833333334, "fusion_lon": 0.0, "rental_uris": {"ios": "https://dc.lft.to/lastmile_qr_scan", "android": "https://dc.lft.to/lastmile_qr_scan"}, "lon": -77.041777, "bike_id": "a2e3a8c504fc74b57d324eb1521dac67", "type": "electric_scooter", "name": "a2e3a8c504fc74b57d324eb1521dac67"}, {"is_disabled": 0, "is_reserved": 0, "fusion_lat": 0.0, "lat": 38.897299333333336, "fusion_lon": 0.0, "rental_uris": {"ios": "https://dc.lft.to/lastmile_qr_scan", "android": "https://dc.lft.to/lastmile_qr_scan"}, "lon": -77.0335005, "bike_id": "2e4c6a36b70642997ec2179e3900e299", "type": "electric_scooter", "name": "2e4c6a36b70642997ec2179e3900e299"}, {"is_disabled": 0, "is_reserved": 0, "fusion_lat": 0.0, "lat": 38.956012666666666, "fusion_lon": 0.0, "rental_uris": {"ios": "https://dc.lft.to/lastmile_qr_scan", "android": "https://dc.lft.to/lastmile_qr_scan"}, "lon": -77.0100705, "bike_id": "5552ed7f4deed022a580938d18f4c18e", "type": "electric_bike", "name": "5552ed7f4deed022a580938d18f4c18e"}, {"is_disabled": 0, "is_reserved": 0, "fusion_lat": 0.0, "lat": 38.961853833333336, "fusion_lon": 0.0, "rental_uris": {"ios": "https://dc.lft.to/lastmile_qr_scan", "android": "https://dc.lft.to/lastmile_qr_scan"}, "lon": -77.0989845, "bike_id": "7cea072bbce67f86de0d2a295523101d", "type": "electric_bike", "name": "7cea072bbce67f86de0d2a295523101d"}, {"is_disabled": 0, "is_reserved": 0, "fusion_lat": 0.0, "lat": 38.8769595, "fusion_lon": 0.0, "rental_uris": {"ios": "https://dc.lft.to/lastmile_qr_scan", "android": "https://dc.lft.to/lastmile_qr_scan"}, "lon": -77.01667916666666, "bike_id": "0f213342cef78ae673e295c828a0710a", "type": "electric_scooter", "name": "0f213342cef78ae673e295c828a0710a"}, {"is_disabled": 0, "is_reserved": 0, "fusion_lat": 0.0, "lat": 38.896831166666665, "fusion_lon": 0.0, "rental_uris": {"ios": "https://dc.lft.to/lastmile_qr_scan", "android": "https://dc.lft.to/lastmile_qr_scan"}, "lon": -77.02393233333333, "bike_id": "b6b1fb71586b48a05373d13352e2e3b8", "type": "electric_scooter", "name": "b6b1fb71586b48a05373d13352e2e3b8"}, {"is_disabled": 0, "is_reserved": 0, "fusion_lat": 0.0, "lat": 38.89222516666667, "fusion_lon": 0.0, "rental_uris": {"ios": "https://dc.lft.to/lastmile_qr_scan", "android": "https://dc.lft.to/lastmile_qr_scan"}, "lon": -77.046851, "bike_id": "63d81e5eb4c52480ff1f25e44a11d1ce", "type": "electric_scooter", "name": "63d81e5eb4c52480ff1f25e44a11d1ce"}, {"is_disabled": 0, "is_reserved": 0, "fusion_lat": 0.0, "lat": 38.915569, "fusion_lon": 0.0, "rental_uris": {"ios": "https://dc.lft.to/lastmile_qr_scan", "android": "https://dc.lft.to/lastmile_qr_scan"}, "lon": -77.03148366666667, "bike_id": "5f9776a479cabf11769f194dbc86f223", "type": "electric_scooter", "name": "5f9776a479cabf11769f194dbc86f223"}, {"is_disabled": 0, "is_reserved": 0, "fusion_lat": 0.0, "lat": 38.92514333333333, "fusion_lon": 0.0, "rental_uris": {"ios": "https://dc.lft.to/lastmile_qr_scan", "android": "https://dc.lft.to/lastmile_qr_scan"}, "lon": -77.02959733333333, "bike_id": "c5749050c4c79cd68cab701be3bf4808", "type": "electric_scooter", "name": "c5749050c4c79cd68cab701be3bf4808"}, {"is_disabled": 0, "is_reserved": 0, "fusion_lat": 0.0, "lat": 38.893289333333335, "fusion_lon": 0.0, "rental_uris": {"ios": "https://dc.lft.to/lastmile_qr_scan", "android": "https://dc.lft.to/lastmile_qr_scan"}, "lon": -76.928792, "bike_id": "9b665ea03ebe8007f1fae1c2d0a7ba87", "type": "electric_scooter", "name": "9b665ea03ebe8007f1fae1c2d0a7ba87"}, {"is_disabled": 0, "is_reserved": 0, "fusion_lat": 0.0, "lat": 38.90564783333333, "fusion_lon": 0.0, "rental_uris": {"ios": "https://dc.lft.to/lastmile_qr_scan", "android": "https://dc.lft.to/lastmile_qr_scan"}, "lon": -77.002533, "bike_id": "dacdc56d21c7970b277767c11775abc2", "type": "electric_scooter", "name": "dacdc56d21c7970b277767c11775abc2"}, {"is_disabled": 0, "is_reserved": 0, "fusion_lat": 0.0, "lat": 38.91321333333333, "fusion_lon": 0.0, "rental_uris": {"ios": "https://dc.lft.to/lastmile_qr_scan", "android": "https://dc.lft.to/lastmile_qr_scan"}, "lon": -77.03170783333333, "bike_id": "d5e3c5c46b008abac6599e94b04f8654", "type": "electric_scooter", "name": "d5e3c5c46b008abac6599e94b04f8654"}, {"is_disabled": 0, "is_reserved": 0, "fusion_lat": 0.0, "lat": 38.88374533333333, "fusion_lon": 0.0, "rental_uris": {"ios": "https://dc.lft.to/lastmile_qr_scan", "android": "https://dc.lft.to/lastmile_qr_scan"}, "lon": -76.92369533333333, "bike_id": "7bc33a1383f352d2ffeffd07c60c6c83", "type": "electric_bike", "name": "7bc33a1383f352d2ffeffd07c60c6c83"}, {"is_disabled": 0, "is_reserved": 0, "fusion_lat": 0.0, "lat": 38.8838815, "fusion_lon": 0.0, "rental_uris": {"ios": "https://dc.lft.to/lastmile_qr_scan", "android": "https://dc.lft.to/lastmile_qr_scan"}, "lon": -76.93045233333333, "bike_id": "bfd9396a74f644f1d4fb244d69a0af99", "type": "electric_scooter", "name": "bfd9396a74f644f1d4fb244d69a0af99"}, {"is_disabled": 0, "is_reserved": 0, "fusion_lat": 0.0, "lat": 38.91569, "fusion_lon": 0.0, "rental_uris": {"ios": "https://dc.lft.to/lastmile_qr_scan", "android": "https://dc.lft.to/lastmile_qr_scan"}, "lon": -77.0230065, "bike_id": "e820a24be67dffc4a9f4c8433514107b", "type": "electric_scooter", "name": "e820a24be67dffc4a9f4c8433514107b"}, {"is_disabled": 0, "is_reserved": 0, "fusion_lat": 0.0, "lat": 38.934767666666666, "fusion_lon": 0.0, "rental_uris": {"ios": "https://dc.lft.to/lastmile_qr_scan", "android": "https://dc.lft.to/lastmile_qr_scan"}, "lon": -77.03414583333333, "bike_id": "a559fbfd58a62305d844f972b68ea871", "type": "electric_scooter", "name": "a559fbfd58a62305d844f972b68ea871"}, {"is_disabled": 0, "is_reserved": 0, "fusion_lat": 0.0, "lat": 39.08427483333333, "fusion_lon": 0.0, "rental_uris": {"ios": "https://dc.lft.to/lastmile_qr_scan", "android": "https://dc.lft.to/lastmile_qr_scan"}, "lon": -76.951401, "bike_id": "2de92ddf3da20b0f51d52e3f8d4c4490", "type": "electric_bike", "name": "2de92ddf3da20b0f51d52e3f8d4c4490"}, {"is_disabled": 0, "is_reserved": 0, "fusion_lat": 0.0, "lat": 38.931941, "fusion_lon": 0.0, "rental_uris": {"ios": "https://dc.lft.to/lastmile_qr_scan", "android": "https://dc.lft.to/lastmile_qr_scan"}, "lon": -77.037478, "bike_id": "a826d0205e55443580370b43938761dd", "type": "electric_scooter", "name": "a826d0205e55443580370b43938761dd"}, {"is_disabled": 0, "is_reserved": 0, "fusion_lat": 0.0, "lat": 38.920681333333334, "fusion_lon": 0.0, "rental_uris": {"ios": "https://dc.lft.to/lastmile_qr_scan", "android": "https://dc.lft.to/lastmile_qr_scan"}, "lon": -77.0241655, "bike_id": "d9561c2f67b18e5deab8059e4486f143", "type": "electric_scooter", "name": "d9561c2f67b18e5deab8059e4486f143"}, {"is_disabled": 0, "is_reserved": 0, "fusion_lat": 0.0, "lat": 38.917053, "fusion_lon": 0.0, "rental_uris": {"ios": "https://dc.lft.to/lastmile_qr_scan", "android": "https://dc.lft.to/lastmile_qr_scan"}, "lon": -77.0412635, "bike_id": "e456c75870f5130ba5b4393e2e1bbb7f", "type": "electric_scooter", "name": "e456c75870f5130ba5b4393e2e1bbb7f"}, {"is_disabled": 0, "is_reserved": 0, "fusion_lat": 0.0, "lat": 38.92325533333333, "fusion_lon": 0.0, "rental_uris": {"ios": "https://dc.lft.to/lastmile_qr_scan", "android": "https://dc.lft.to/lastmile_qr_scan"}, "lon": -77.03664766666667, "bike_id": "9b2f1d7646e534a4bdcfc88f2b247181", "type": "electric_scooter", "name": "9b2f1d7646e534a4bdcfc88f2b247181"}, {"is_disabled": 0, "is_reserved": 0, "fusion_lat": 0.0, "lat": 38.92874316666666, "fusion_lon": 0.0, "rental_uris": {"ios": "https://dc.lft.to/lastmile_qr_scan", "android": "https://dc.lft.to/lastmile_qr_scan"}, "lon": -77.03824133333333, "bike_id": "b19a89cafb09c9330d57fe36b967338a", "type": "electric_scooter", "name": "b19a89cafb09c9330d57fe36b967338a"}, {"is_disabled": 0, "is_reserved": 0, "fusion_lat": 0.0, "lat": 38.92176833333333, "fusion_lon": 0.0, "rental_uris": {"ios": "https://dc.lft.to/lastmile_qr_scan", "android": "https://dc.lft.to/lastmile_qr_scan"}, "lon": -77.02105016666667, "bike_id": "3c518b3bb126933d0ac4ba30b98b7cb4", "type": "electric_scooter", "name": "3c518b3bb126933d0ac4ba30b98b7cb4"}, {"is_disabled": 0, "is_reserved": 0, "fusion_lat": 0.0, "lat": 38.9097995, "fusion_lon": 0.0, "rental_uris": {"ios": "https://dc.lft.to/lastmile_qr_scan", "android": "https://dc.lft.to/lastmile_qr_scan"}, "lon": -77.02415166666667, "bike_id": "f822d7183ad5e5d563b36d427a7e6929", "type": "electric_scooter", "name": "f822d7183ad5e5d563b36d427a7e6929"}, {"is_disabled": 0, "is_reserved": 0, "fusion_lat": 0.0, "lat": 38.95703, "fusion_lon": 0.0, "rental_uris": {"ios": "https://dc.lft.to/lastmile_qr_scan", "android": "https://dc.lft.to/lastmile_qr_scan"}, "lon": -77.35969883333334, "bike_id": "b6cb3e4d34c57d3ad196921f0f3577e6", "type": "electric_bike", "name": "b6cb3e4d34c57d3ad196921f0f3577e6"}, {"is_disabled": 0, "is_reserved": 0, "fusion_lat": 0.0, "lat": 38.859046166666666, "fusion_lon": 0.0, "rental_uris": {"ios": "https://dc.lft.to/lastmile_qr_scan", "android": "https://dc.lft.to/lastmile_qr_scan"}, "lon": -77.09555033333334, "bike_id": "9889555b2bcb0922c17889afecf1687f", "type": "electric_bike", "name": "9889555b2bcb0922c17889afecf1687f"}, {"is_disabled": 0, "is_reserved": 0, "fusion_lat": 0.0, "lat": 38.905807, "fusion_lon": 0.0, "rental_uris": {"ios": "https://dc.lft.to/lastmile_qr_scan", "android": "https://dc.lft.to/lastmile_qr_scan"}, "lon": -77.02177283333333, "bike_id": "cebbe24ca8b8b7d2ff7c12faa37b9849", "type": "electric_scooter", "name": "cebbe24ca8b8b7d2ff7c12faa37b9849"}, {"is_disabled": 0, "is_reserved": 0, "fusion_lat": 0.0, "lat": 38.91415633333333, "fusion_lon": 0.0, "rental_uris": {"ios": "https://dc.lft.to/lastmile_qr_scan", "android": "https://dc.lft.to/lastmile_qr_scan"}, "lon": -77.02213583333334, "bike_id": "8fd0cc37aea4d0c1bad5835b5aa58988", "type": "electric_scooter", "name": "8fd0cc37aea4d0c1bad5835b5aa58988"}, {"is_disabled": 0, "is_reserved": 0, "fusion_lat": 0.0, "lat": 38.89927516666667, "fusion_lon": 0.0, "rental_uris": {"ios": "https://dc.lft.to/lastmile_qr_scan", "android": "https://dc.lft.to/lastmile_qr_scan"}, "lon": -77.03236433333333, "bike_id": "e5322944576d73e331b74c2c1b0df116", "type": "electric_scooter", "name": "e5322944576d73e331b74c2c1b0df116"}, {"is_disabled": 0, "is_reserved": 0, "fusion_lat": 0.0, "lat": 38.9062095, "fusion_lon": 0.0, "rental_uris": {"ios": "https://dc.lft.to/lastmile_qr_scan", "android": "https://dc.lft.to/lastmile_qr_scan"}, "lon": -76.986652, "bike_id": "8c58abe01f154e4ebb82e527ee03ab47", "type": "electric_scooter", "name": "8c58abe01f154e4ebb82e527ee03ab47"}, {"is_disabled": 0, "is_reserved": 0, "fusion_lat": 0.0, "lat": 38.871632166666664, "fusion_lon": 0.0, "rental_uris": {"ios": "https://dc.lft.to/lastmile_qr_scan", "android": "https://dc.lft.to/lastmile_qr_scan"}, "lon": -77.01359833333333, "bike_id": "e239848fec35cc60db086450293efb70", "type": "electric_scooter", "name": "e239848fec35cc60db086450293efb70"}, {"is_disabled": 0, "is_reserved": 0, "fusion_lat": 0.0, "lat": 38.88422966666667, "fusion_lon": 0.0, "rental_uris": {"ios": "https://dc.lft.to/lastmile_qr_scan", "android": "https://dc.lft.to/lastmile_qr_scan"}, "lon": -77.02916883333333, "bike_id": "0174d92fc919571c35d09c15feb1ca28", "type": "electric_scooter", "name": "0174d92fc919571c35d09c15feb1ca28"}, {"is_disabled": 0, "is_reserved": 0, "fusion_lat": 0.0, "lat": 38.923619333333335, "fusion_lon": 0.0, "rental_uris": {"ios": "https://dc.lft.to/lastmile_qr_scan", "android": "https://dc.lft.to/lastmile_qr_scan"}, "lon": -77.0337075, "bike_id": "817aca15b0650edfe406ef84a8465455", "type": "electric_scooter", "name": "817aca15b0650edfe406ef84a8465455"}, {"is_disabled": 0, "is_reserved": 0, "fusion_lat": 0.0, "lat": 38.8803895, "fusion_lon": 0.0, "rental_uris": {"ios": "https://dc.lft.to/lastmile_qr_scan", "android": "https://dc.lft.to/lastmile_qr_scan"}, "lon": -76.927211, "bike_id": "7554dc3ad12b91d76ec281b800adb552", "type": "electric_scooter", "name": "7554dc3ad12b91d76ec281b800adb552"}, {"is_disabled": 0, "is_reserved": 0, "fusion_lat": 0.0, "lat": 38.93032633333333, "fusion_lon": 0.0, "rental_uris": {"ios": "https://dc.lft.to/lastmile_qr_scan", "android": "https://dc.lft.to/lastmile_qr_scan"}, "lon": -77.06070866666667, "bike_id": "9984326d519807dd7737e7017feacca5", "type": "electric_scooter", "name": "9984326d519807dd7737e7017feacca5"}, {"is_disabled": 0, "is_reserved": 0, "fusion_lat": 0.0, "lat": 38.9144745, "fusion_lon": 0.0, "rental_uris": {"ios": "https://dc.lft.to/lastmile_qr_scan", "android": "https://dc.lft.to/lastmile_qr_scan"}, "lon": -77.02286183333334, "bike_id": "99d13c804c963429cdff2d023e775fce", "type": "electric_scooter", "name": "99d13c804c963429cdff2d023e775fce"}, {"is_disabled": 0, "is_reserved": 0, "fusion_lat": 0.0, "lat": 38.93170966666667, "fusion_lon": 0.0, "rental_uris": {"ios": "https://dc.lft.to/lastmile_qr_scan", "android": "https://dc.lft.to/lastmile_qr_scan"}, "lon": -77.02814083333334, "bike_id": "53e2def1a80e67807f3f43f66753a42f", "type": "electric_scooter", "name": "53e2def1a80e67807f3f43f66753a42f"}, {"is_disabled": 0, "is_reserved": 0, "fusion_lat": 0.0, "lat": 38.900245166666664, "fusion_lon": 0.0, "rental_uris": {"ios": "https://dc.lft.to/lastmile_qr_scan", "android": "https://dc.lft.to/lastmile_qr_scan"}, "lon": -77.00206883333334, "bike_id": "e3ff974c77a07b97f5f21347d9dc5a81", "type": "electric_scooter", "name": "e3ff974c77a07b97f5f21347d9dc5a81"}, {"is_disabled": 0, "is_reserved": 0, "fusion_lat": 0.0, "lat": 38.8757485, "fusion_lon": 0.0, "rental_uris": {"ios": "https://dc.lft.to/lastmile_qr_scan", "android": "https://dc.lft.to/lastmile_qr_scan"}, "lon": -77.23406883333334, "bike_id": "4a1488b14e7663b5230a4b39fdb4ba05", "type": "electric_bike", "name": "4a1488b14e7663b5230a4b39fdb4ba05"}, {"is_disabled": 0, "is_reserved": 0, "fusion_lat": 0.0, "lat": 38.92034233333333, "fusion_lon": 0.0, "rental_uris": {"ios": "https://dc.lft.to/lastmile_qr_scan", "android": "https://dc.lft.to/lastmile_qr_scan"}, "lon": -77.04719333333334, "bike_id": "30fba31b8099bbe9be1119480635a60f", "type": "electric_scooter", "name": "30fba31b8099bbe9be1119480635a60f"}, {"is_disabled": 0, "is_reserved": 0, "fusion_lat": 0.0, "lat": 38.870637, "fusion_lon": 0.0, "rental_uris": {"ios": "https://dc.lft.to/lastmile_qr_scan", "android": "https://dc.lft.to/lastmile_qr_scan"}, "lon": -76.9797505, "bike_id": "eb800852e71fa9942c8c8301c68ef0c0", "type": "electric_scooter", "name": "eb800852e71fa9942c8c8301c68ef0c0"}, {"is_disabled": 0, "is_reserved": 0, "fusion_lat": 0.0, "lat": 38.90223266666667, "fusion_lon": 0.0, "rental_uris": {"ios": "https://dc.lft.to/lastmile_qr_scan", "android": "https://dc.lft.to/lastmile_qr_scan"}, "lon": -77.05118233333333, "bike_id": "ea1320030db76beb9f5b2ba6890531fe", "type": "electric_scooter", "name": "ea1320030db76beb9f5b2ba6890531fe"}, {"is_disabled": 0, "is_reserved": 0, "fusion_lat": 0.0, "lat": 38.89753866666667, "fusion_lon": 0.0, "rental_uris": {"ios": "https://dc.lft.to/lastmile_qr_scan", "android": "https://dc.lft.to/lastmile_qr_scan"}, "lon": -77.05485616666667, "bike_id": "81f2690576e79e9904128d6198f2eee6", "type": "electric_scooter", "name": "81f2690576e79e9904128d6198f2eee6"}, {"is_disabled": 0, "is_reserved": 0, "fusion_lat": 0.0, "lat": 38.917907666666665, "fusion_lon": 0.0, "rental_uris": {"ios": "https://dc.lft.to/lastmile_qr_scan", "android": "https://dc.lft.to/lastmile_qr_scan"}, "lon": -77.03641233333333, "bike_id": "7fc349f7fff243b5e121511e3614b7d7", "type": "electric_scooter", "name": "7fc349f7fff243b5e121511e3614b7d7"}, {"is_disabled": 0, "is_reserved": 0, "fusion_lat": 0.0, "lat": 38.85935933333333, "fusion_lon": 0.0, "rental_uris": {"ios": "https://dc.lft.to/lastmile_qr_scan", "android": "https://dc.lft.to/lastmile_qr_scan"}, "lon": -76.98676916666666, "bike_id": "7aaa652e47d828bf0163958504fe238e", "type": "electric_scooter", "name": "7aaa652e47d828bf0163958504fe238e"}, {"is_disabled": 0, "is_reserved": 0, "fusion_lat": 0.0, "lat": 38.92091833333333, "fusion_lon": 0.0, "rental_uris": {"ios": "https://dc.lft.to/lastmile_qr_scan", "android": "https://dc.lft.to/lastmile_qr_scan"}, "lon": -77.04102, "bike_id": "4591d96b8e464e927860a7850753f1bc", "type": "electric_scooter", "name": "4591d96b8e464e927860a7850753f1bc"}, {"is_disabled": 0, "is_reserved": 0, "fusion_lat": 0.0, "lat": 38.89684583333333, "fusion_lon": 0.0, "rental_uris": {"ios": "https://dc.lft.to/lastmile_qr_scan", "android": "https://dc.lft.to/lastmile_qr_scan"}, "lon": -76.939054, "bike_id": "2ab01f2fe54de7e54ca90610c694428b", "type": "electric_scooter", "name": "2ab01f2fe54de7e54ca90610c694428b"}, {"is_disabled": 0, "is_reserved": 0, "fusion_lat": 0.0, "lat": 38.9180375, "fusion_lon": 0.0, "rental_uris": {"ios": "https://dc.lft.to/lastmile_qr_scan", "android": "https://dc.lft.to/lastmile_qr_scan"}, "lon": -77.0371255, "bike_id": "415b6269d3934611636f92aa3751f4ec", "type": "electric_scooter", "name": "415b6269d3934611636f92aa3751f4ec"}, {"is_disabled": 0, "is_reserved": 0, "fusion_lat": 0.0, "lat": 38.91835483333333, "fusion_lon": 0.0, "rental_uris": {"ios": "https://dc.lft.to/lastmile_qr_scan", "android": "https://dc.lft.to/lastmile_qr_scan"}, "lon": -77.03910583333334, "bike_id": "1b288ce3b7282e2cf96158c8d442c575", "type": "electric_scooter", "name": "1b288ce3b7282e2cf96158c8d442c575"}, {"is_disabled": 0, "is_reserved": 0, "fusion_lat": 0.0, "lat": 38.947363833333334, "fusion_lon": 0.0, "rental_uris": {"ios": "https://dc.lft.to/lastmile_qr_scan", "android": "https://dc.lft.to/lastmile_qr_scan"}, "lon": -76.99582433333333, "bike_id": "1e39edc90838ac6c62f28501382e401b", "type": "electric_bike", "name": "1e39edc90838ac6c62f28501382e401b"}, {"is_disabled": 0, "is_reserved": 0, "fusion_lat": 0.0, "lat": 38.953390166666665, "fusion_lon": 0.0, "rental_uris": {"ios": "https://dc.lft.to/lastmile_qr_scan", "android": "https://dc.lft.to/lastmile_qr_scan"}, "lon": -76.982586, "bike_id": "932811ad2d8240d6cad6608c2295b94c", "type": "electric_bike", "name": "932811ad2d8240d6cad6608c2295b94c"}, {"is_disabled": 0, "is_reserved": 0, "fusion_lat": 0.0, "lat": 38.91807266666667, "fusion_lon": 0.0, "rental_uris": {"ios": "https://dc.lft.to/lastmile_qr_scan", "android": "https://dc.lft.to/lastmile_qr_scan"}, "lon": -77.03436316666667, "bike_id": "6ceef15a9a3a3f47a64fb0ca3f020849", "type": "electric_scooter", "name": "6ceef15a9a3a3f47a64fb0ca3f020849"}, {"is_disabled": 0, "is_reserved": 0, "fusion_lat": 0.0, "lat": 38.9167325, "fusion_lon": 0.0, "rental_uris": {"ios": "https://dc.lft.to/lastmile_qr_scan", "android": "https://dc.lft.to/lastmile_qr_scan"}, "lon": -77.036413, "bike_id": "96aabdb4906e7e69f99939c7d87de806", "type": "electric_scooter", "name": "96aabdb4906e7e69f99939c7d87de806"}, {"is_disabled": 0, "is_reserved": 0, "fusion_lat": 0.0, "lat": 38.88768566666667, "fusion_lon": 0.0, "rental_uris": {"ios": "https://dc.lft.to/lastmile_qr_scan", "android": "https://dc.lft.to/lastmile_qr_scan"}, "lon": -77.014627, "bike_id": "e13b128394afd27fb384da25b33aef91", "type": "electric_scooter", "name": "e13b128394afd27fb384da25b33aef91"}, {"is_disabled": 0, "is_reserved": 0, "fusion_lat": 0.0, "lat": 38.958804666666666, "fusion_lon": 0.0, "rental_uris": {"ios": "https://dc.lft.to/lastmile_qr_scan", "android": "https://dc.lft.to/lastmile_qr_scan"}, "lon": -77.01407533333334, "bike_id": "1e4eadf3ff45f438aac70be708532c66", "type": "electric_bike", "name": "1e4eadf3ff45f438aac70be708532c66"}, {"is_disabled": 0, "is_reserved": 0, "fusion_lat": 0.0, "lat": 38.92326933333333, "fusion_lon": 0.0, "rental_uris": {"ios": "https://dc.lft.to/lastmile_qr_scan", "android": "https://dc.lft.to/lastmile_qr_scan"}, "lon": -77.036632, "bike_id": "50058ef62df885bfe4075b39144d1787", "type": "electric_scooter", "name": "50058ef62df885bfe4075b39144d1787"}, {"is_disabled": 0, "is_reserved": 0, "fusion_lat": 0.0, "lat": 38.9568565, "fusion_lon": 0.0, "rental_uris": {"ios": "https://dc.lft.to/lastmile_qr_scan", "android": "https://dc.lft.to/lastmile_qr_scan"}, "lon": -77.02219366666667, "bike_id": "f76d26ae8dcec809b5b112b41ca7b08e", "type": "electric_scooter", "name": "f76d26ae8dcec809b5b112b41ca7b08e"}, {"is_disabled": 0, "is_reserved": 0, "fusion_lat": 0.0, "lat": 38.878869333333334, "fusion_lon": 0.0, "rental_uris": {"ios": "https://dc.lft.to/lastmile_qr_scan", "android": "https://dc.lft.to/lastmile_qr_scan"}, "lon": -76.96542983333333, "bike_id": "1ae28f9269874dfa918a969d5606f6b0", "type": "electric_scooter", "name": "1ae28f9269874dfa918a969d5606f6b0"}, {"is_disabled": 0, "is_reserved": 0, "fusion_lat": 0.0, "lat": 38.9016445, "fusion_lon": 0.0, "rental_uris": {"ios": "https://dc.lft.to/lastmile_qr_scan", "android": "https://dc.lft.to/lastmile_qr_scan"}, "lon": -77.053408, "bike_id": "e648b0891dfda049e6ad14a47713812a", "type": "electric_scooter", "name": "e648b0891dfda049e6ad14a47713812a"}, {"is_disabled": 0, "is_reserved": 0, "fusion_lat": 0.0, "lat": 38.91989816666667, "fusion_lon": 0.0, "rental_uris": {"ios": "https://dc.lft.to/lastmile_qr_scan", "android": "https://dc.lft.to/lastmile_qr_scan"}, "lon": -77.01787333333333, "bike_id": "8cfdc759125365999fdfcd27640f7083", "type": "electric_scooter", "name": "8cfdc759125365999fdfcd27640f7083"}, {"is_disabled": 0, "is_reserved": 0, "fusion_lat": 0.0, "lat": 38.91717416666667, "fusion_lon": 0.0, "rental_uris": {"ios": "https://dc.lft.to/lastmile_qr_scan", "android": "https://dc.lft.to/lastmile_qr_scan"}, "lon": -77.03467616666667, "bike_id": "811b9fb342750a17b13c4b9395093ee3", "type": "electric_scooter", "name": "811b9fb342750a17b13c4b9395093ee3"}, {"is_disabled": 0, "is_reserved": 0, "fusion_lat": 0.0, "lat": 38.917859166666666, "fusion_lon": 0.0, "rental_uris": {"ios": "https://dc.lft.to/lastmile_qr_scan", "android": "https://dc.lft.to/lastmile_qr_scan"}, "lon": -77.0231625, "bike_id": "bbad6dc9d0feb53beceeacdce8db287f", "type": "electric_scooter", "name": "bbad6dc9d0feb53beceeacdce8db287f"}, {"is_disabled": 0, "is_reserved": 0, "fusion_lat": 0.0, "lat": 38.9319515, "fusion_lon": 0.0, "rental_uris": {"ios": "https://dc.lft.to/lastmile_qr_scan", "android": "https://dc.lft.to/lastmile_qr_scan"}, "lon": -77.02351416666667, "bike_id": "2fee71dc7b72ba3f0db551a581e2bc6d", "type": "electric_scooter", "name": "2fee71dc7b72ba3f0db551a581e2bc6d"}, {"is_disabled": 0, "is_reserved": 0, "fusion_lat": 0.0, "lat": 38.91907466666667, "fusion_lon": 0.0, "rental_uris": {"ios": "https://dc.lft.to/lastmile_qr_scan", "android": "https://dc.lft.to/lastmile_qr_scan"}, "lon": -77.0118035, "bike_id": "fe709c94ef1db7e847bfa4f4dd7c5e71", "type": "electric_scooter", "name": "fe709c94ef1db7e847bfa4f4dd7c5e71"}, {"is_disabled": 0, "is_reserved": 0, "fusion_lat": 0.0, "lat": 38.89621983333333, "fusion_lon": 0.0, "rental_uris": {"ios": "https://dc.lft.to/lastmile_qr_scan", "android": "https://dc.lft.to/lastmile_qr_scan"}, "lon": -76.90750266666667, "bike_id": "4c26671213a786489aa88a19fd0e6497", "type": "electric_bike", "name": "4c26671213a786489aa88a19fd0e6497"}, {"is_disabled": 0, "is_reserved": 0, "fusion_lat": 0.0, "lat": 38.922555, "fusion_lon": 0.0, "rental_uris": {"ios": "https://dc.lft.to/lastmile_qr_scan", "android": "https://dc.lft.to/lastmile_qr_scan"}, "lon": -77.03425283333333, "bike_id": "2d1cf8a637a09ffd8016d3843dd3faab", "type": "electric_scooter", "name": "2d1cf8a637a09ffd8016d3843dd3faab"}, {"is_disabled": 0, "is_reserved": 0, "fusion_lat": 0.0, "lat": 38.939788666666665, "fusion_lon": 0.0, "rental_uris": {"ios": "https://dc.lft.to/lastmile_qr_scan", "android": "https://dc.lft.to/lastmile_qr_scan"}, "lon": -77.02890616666667, "bike_id": "602b20dd96916de9a29805e83643cc21", "type": "electric_scooter", "name": "602b20dd96916de9a29805e83643cc21"}, {"is_disabled": 0, "is_reserved": 0, "fusion_lat": 0.0, "lat": 38.916965, "fusion_lon": 0.0, "rental_uris": {"ios": "https://dc.lft.to/lastmile_qr_scan", "android": "https://dc.lft.to/lastmile_qr_scan"}, "lon": -77.037726, "bike_id": "0be408f0ef7e94779d12f8ecaf79114e", "type": "electric_scooter", "name": "0be408f0ef7e94779d12f8ecaf79114e"}, {"is_disabled": 0, "is_reserved": 0, "fusion_lat": 0.0, "lat": 38.873097, "fusion_lon": 0.0, "rental_uris": {"ios": "https://dc.lft.to/lastmile_qr_scan", "android": "https://dc.lft.to/lastmile_qr_scan"}, "lon": -77.00602, "bike_id": "cbe1ca1a54a3974acf9e152f7da0d782", "type": "electric_scooter", "name": "cbe1ca1a54a3974acf9e152f7da0d782"}, {"is_disabled": 0, "is_reserved": 0, "fusion_lat": 0.0, "lat": 38.92380716666667, "fusion_lon": 0.0, "rental_uris": {"ios": "https://dc.lft.to/lastmile_qr_scan", "android": "https://dc.lft.to/lastmile_qr_scan"}, "lon": -77.0403325, "bike_id": "102ffb0d0155b976716b619302127957", "type": "electric_scooter", "name": "102ffb0d0155b976716b619302127957"}, {"is_disabled": 0, "is_reserved": 0, "fusion_lat": 0.0, "lat": 38.92136516666667, "fusion_lon": 0.0, "rental_uris": {"ios": "https://dc.lft.to/lastmile_qr_scan", "android": "https://dc.lft.to/lastmile_qr_scan"}, "lon": -77.05160916666667, "bike_id": "0663615ae8b73badf1ea64def2bd8094", "type": "electric_scooter", "name": "0663615ae8b73badf1ea64def2bd8094"}, {"is_disabled": 0, "is_reserved": 0, "fusion_lat": 0.0, "lat": 38.905822, "fusion_lon": 0.0, "rental_uris": {"ios": "https://dc.lft.to/lastmile_qr_scan", "android": "https://dc.lft.to/lastmile_qr_scan"}, "lon": -77.02178633333334, "bike_id": "6b35e14b9501e6b26349d1b7a532e2ab", "type": "electric_scooter", "name": "6b35e14b9501e6b26349d1b7a532e2ab"}, {"is_disabled": 0, "is_reserved": 0, "fusion_lat": 0.0, "lat": 38.9089455, "fusion_lon": 0.0, "rental_uris": {"ios": "https://dc.lft.to/lastmile_qr_scan", "android": "https://dc.lft.to/lastmile_qr_scan"}, "lon": -77.04399866666667, "bike_id": "53e3cf0b43d83d8937ce4e706d704161", "type": "electric_scooter", "name": "53e3cf0b43d83d8937ce4e706d704161"}, {"is_disabled": 0, "is_reserved": 0, "fusion_lat": 0.0, "lat": 38.90457, "fusion_lon": 0.0, "rental_uris": {"ios": "https://dc.lft.to/lastmile_qr_scan", "android": "https://dc.lft.to/lastmile_qr_scan"}, "lon": -76.932719, "bike_id": "77f00cc73d3f1f36c7f0ecaadbbc0ecd", "type": "electric_scooter", "name": "77f00cc73d3f1f36c7f0ecaadbbc0ecd"}, {"is_disabled": 0, "is_reserved": 0, "fusion_lat": 0.0, "lat": 38.9028385, "fusion_lon": 0.0, "rental_uris": {"ios": "https://dc.lft.to/lastmile_qr_scan", "android": "https://dc.lft.to/lastmile_qr_scan"}, "lon": -77.02771766666666, "bike_id": "210aab80aeb108d50c09277ca4040b39", "type": "electric_scooter", "name": "210aab80aeb108d50c09277ca4040b39"}, {"is_disabled": 0, "is_reserved": 0, "fusion_lat": 0.0, "lat": 38.92051266666667, "fusion_lon": 0.0, "rental_uris": {"ios": "https://dc.lft.to/lastmile_qr_scan", "android": "https://dc.lft.to/lastmile_qr_scan"}, "lon": -77.0339015, "bike_id": "437bd0d361b53c3a21f792b40394a65f", "type": "electric_scooter", "name": "437bd0d361b53c3a21f792b40394a65f"}, {"is_disabled": 0, "is_reserved": 0, "fusion_lat": 0.0, "lat": 38.967778333333335, "fusion_lon": 0.0, "rental_uris": {"ios": "https://dc.lft.to/lastmile_qr_scan", "android": "https://dc.lft.to/lastmile_qr_scan"}, "lon": -76.99650666666666, "bike_id": "7d881f4f35ee296f6374296f20fe33ba", "type": "electric_bike", "name": "7d881f4f35ee296f6374296f20fe33ba"}, {"is_disabled": 0, "is_reserved": 0, "fusion_lat": 0.0, "lat": 38.93903016666667, "fusion_lon": 0.0, "rental_uris": {"ios": "https://dc.lft.to/lastmile_qr_scan", "android": "https://dc.lft.to/lastmile_qr_scan"}, "lon": -77.03278616666667, "bike_id": "eba5e7d8311ea3ea066c5aedd9b56449", "type": "electric_scooter", "name": "eba5e7d8311ea3ea066c5aedd9b56449"}, {"is_disabled": 0, "is_reserved": 0, "fusion_lat": 0.0, "lat": 38.9112305, "fusion_lon": 0.0, "rental_uris": {"ios": "https://dc.lft.to/lastmile_qr_scan", "android": "https://dc.lft.to/lastmile_qr_scan"}, "lon": -76.99743983333333, "bike_id": "685c90d8dc45c1cd9a60f96466ae8953", "type": "electric_scooter", "name": "685c90d8dc45c1cd9a60f96466ae8953"}, {"is_disabled": 0, "is_reserved": 0, "fusion_lat": 0.0, "lat": 38.93862516666667, "fusion_lon": 0.0, "rental_uris": {"ios": "https://dc.lft.to/lastmile_qr_scan", "android": "https://dc.lft.to/lastmile_qr_scan"}, "lon": -77.02592216666666, "bike_id": "62ee24d2262ed1d1cf050003109f2252", "type": "electric_scooter", "name": "62ee24d2262ed1d1cf050003109f2252"}, {"is_disabled": 0, "is_reserved": 0, "fusion_lat": 0.0, "lat": 38.892225833333335, "fusion_lon": 0.0, "rental_uris": {"ios": "https://dc.lft.to/lastmile_qr_scan", "android": "https://dc.lft.to/lastmile_qr_scan"}, "lon": -77.04681066666667, "bike_id": "c5d2deb688783bb32694adb4f301f836", "type": "electric_scooter", "name": "c5d2deb688783bb32694adb4f301f836"}, {"is_disabled": 0, "is_reserved": 0, "fusion_lat": 0.0, "lat": 38.962274666666666, "fusion_lon": 0.0, "rental_uris": {"ios": "https://dc.lft.to/lastmile_qr_scan", "android": "https://dc.lft.to/lastmile_qr_scan"}, "lon": -77.02628483333334, "bike_id": "15f3de532762149acbd1b24da99a269d", "type": "electric_bike", "name": "15f3de532762149acbd1b24da99a269d"}, {"is_disabled": 0, "is_reserved": 0, "fusion_lat": 0.0, "lat": 38.9244445, "fusion_lon": 0.0, "rental_uris": {"ios": "https://dc.lft.to/lastmile_qr_scan", "android": "https://dc.lft.to/lastmile_qr_scan"}, "lon": -77.02033316666666, "bike_id": "62c9aa1c5c47a9524e3d00bfcdbb533a", "type": "electric_scooter", "name": "62c9aa1c5c47a9524e3d00bfcdbb533a"}, {"is_disabled": 0, "is_reserved": 0, "fusion_lat": 0.0, "lat": 38.92272333333333, "fusion_lon": 0.0, "rental_uris": {"ios": "https://dc.lft.to/lastmile_qr_scan", "android": "https://dc.lft.to/lastmile_qr_scan"}, "lon": -77.02966133333334, "bike_id": "742d3f1094bdb34ec1950678f3bfe8c0", "type": "electric_scooter", "name": "742d3f1094bdb34ec1950678f3bfe8c0"}, {"is_disabled": 0, "is_reserved": 0, "fusion_lat": 0.0, "lat": 38.92363, "fusion_lon": 0.0, "rental_uris": {"ios": "https://dc.lft.to/lastmile_qr_scan", "android": "https://dc.lft.to/lastmile_qr_scan"}, "lon": -77.0019635, "bike_id": "9b1aa26d51fca02ead7eb45235adb52d", "type": "electric_scooter", "name": "9b1aa26d51fca02ead7eb45235adb52d"}, {"is_disabled": 0, "is_reserved": 0, "fusion_lat": 0.0, "lat": 38.883356666666664, "fusion_lon": 0.0, "rental_uris": {"ios": "https://dc.lft.to/lastmile_qr_scan", "android": "https://dc.lft.to/lastmile_qr_scan"}, "lon": -77.01754916666667, "bike_id": "358f2a617d8e26cda07192cd1dd6767e", "type": "electric_scooter", "name": "358f2a617d8e26cda07192cd1dd6767e"}, {"is_disabled": 0, "is_reserved": 0, "fusion_lat": 0.0, "lat": 38.907602, "fusion_lon": 0.0, "rental_uris": {"ios": "https://dc.lft.to/lastmile_qr_scan", "android": "https://dc.lft.to/lastmile_qr_scan"}, "lon": -77.04504683333333, "bike_id": "441e1016facf4e3416dc759c08397180", "type": "electric_scooter", "name": "441e1016facf4e3416dc759c08397180"}, {"is_disabled": 0, "is_reserved": 0, "fusion_lat": 0.0, "lat": 38.900234, "fusion_lon": 0.0, "rental_uris": {"ios": "https://dc.lft.to/lastmile_qr_scan", "android": "https://dc.lft.to/lastmile_qr_scan"}, "lon": -77.01204683333333, "bike_id": "0b89121c5092c5ea5239ada33b1cc9ce", "type": "electric_scooter", "name": "0b89121c5092c5ea5239ada33b1cc9ce"}, {"is_disabled": 0, "is_reserved": 0, "fusion_lat": 0.0, "lat": 38.870803, "fusion_lon": 0.0, "rental_uris": {"ios": "https://dc.lft.to/lastmile_qr_scan", "android": "https://dc.lft.to/lastmile_qr_scan"}, "lon": -77.010793, "bike_id": "beef7a9b5e11f32c98de316eaa3f423a", "type": "electric_scooter", "name": "beef7a9b5e11f32c98de316eaa3f423a"}, {"is_disabled": 0, "is_reserved": 0, "fusion_lat": 0.0, "lat": 38.91917633333333, "fusion_lon": 0.0, "rental_uris": {"ios": "https://dc.lft.to/lastmile_qr_scan", "android": "https://dc.lft.to/lastmile_qr_scan"}, "lon": -77.0341985, "bike_id": "3b1a5b17939a6d5fb23ce8e0f12d1b62", "type": "electric_scooter", "name": "3b1a5b17939a6d5fb23ce8e0f12d1b62"}, {"is_disabled": 0, "is_reserved": 0, "fusion_lat": 0.0, "lat": 38.91990416666667, "fusion_lon": 0.0, "rental_uris": {"ios": "https://dc.lft.to/lastmile_qr_scan", "android": "https://dc.lft.to/lastmile_qr_scan"}, "lon": -77.032422, "bike_id": "7a6e5ba9bc6ac5f7ca8cc2d8a9e528d1", "type": "electric_scooter", "name": "7a6e5ba9bc6ac5f7ca8cc2d8a9e528d1"}, {"is_disabled": 0, "is_reserved": 0, "fusion_lat": 0.0, "lat": 38.80733516666667, "fusion_lon": 0.0, "rental_uris": {"ios": "https://dc.lft.to/lastmile_qr_scan", "android": "https://dc.lft.to/lastmile_qr_scan"}, "lon": -76.992615, "bike_id": "7151e0c8365557c93e82601d008c17f5", "type": "electric_bike", "name": "7151e0c8365557c93e82601d008c17f5"}, {"is_disabled": 0, "is_reserved": 0, "fusion_lat": 0.0, "lat": 38.93349216666667, "fusion_lon": 0.0, "rental_uris": {"ios": "https://dc.lft.to/lastmile_qr_scan", "android": "https://dc.lft.to/lastmile_qr_scan"}, "lon": -77.05932283333334, "bike_id": "87c89e009c8e9374dd040f93622af51b", "type": "electric_scooter", "name": "87c89e009c8e9374dd040f93622af51b"}, {"is_disabled": 0, "is_reserved": 0, "fusion_lat": 0.0, "lat": 38.89941483333333, "fusion_lon": 0.0, "rental_uris": {"ios": "https://dc.lft.to/lastmile_qr_scan", "android": "https://dc.lft.to/lastmile_qr_scan"}, "lon": -77.047983, "bike_id": "bb27b86c27f851a0a91b2b4ca3ae56a1", "type": "electric_scooter", "name": "bb27b86c27f851a0a91b2b4ca3ae56a1"}, {"is_disabled": 0, "is_reserved": 0, "fusion_lat": 0.0, "lat": 38.901742666666664, "fusion_lon": 0.0, "rental_uris": {"ios": "https://dc.lft.to/lastmile_qr_scan", "android": "https://dc.lft.to/lastmile_qr_scan"}, "lon": -77.023765, "bike_id": "ebc0ba53f0bea6bfce7f86e7deaec605", "type": "electric_scooter", "name": "ebc0ba53f0bea6bfce7f86e7deaec605"}, {"is_disabled": 0, "is_reserved": 0, "fusion_lat": 0.0, "lat": 38.92504233333333, "fusion_lon": 0.0, "rental_uris": {"ios": "https://dc.lft.to/lastmile_qr_scan", "android": "https://dc.lft.to/lastmile_qr_scan"}, "lon": -77.02355783333333, "bike_id": "680ebf6847d6059fd44f81d8da1d199c", "type": "electric_scooter", "name": "680ebf6847d6059fd44f81d8da1d199c"}, {"is_disabled": 0, "is_reserved": 0, "fusion_lat": 0.0, "lat": 38.9175695, "fusion_lon": 0.0, "rental_uris": {"ios": "https://dc.lft.to/lastmile_qr_scan", "android": "https://dc.lft.to/lastmile_qr_scan"}, "lon": -77.03881433333333, "bike_id": "1c7c53a2aa2a7631a9a5c727ad88fd7d", "type": "electric_scooter", "name": "1c7c53a2aa2a7631a9a5c727ad88fd7d"}, {"is_disabled": 0, "is_reserved": 0, "fusion_lat": 0.0, "lat": 38.902569, "fusion_lon": 0.0, "rental_uris": {"ios": "https://dc.lft.to/lastmile_qr_scan", "android": "https://dc.lft.to/lastmile_qr_scan"}, "lon": -77.02681116666666, "bike_id": "15b0b5a85f5d8ff9e96db1e48ad2565f", "type": "electric_scooter", "name": "15b0b5a85f5d8ff9e96db1e48ad2565f"}, {"is_disabled": 0, "is_reserved": 0, "fusion_lat": 0.0, "lat": 38.921594166666665, "fusion_lon": 0.0, "rental_uris": {"ios": "https://dc.lft.to/lastmile_qr_scan", "android": "https://dc.lft.to/lastmile_qr_scan"}, "lon": -77.04012083333333, "bike_id": "fd9c1b694dddc9311e0a2ed44bb0b35e", "type": "electric_scooter", "name": "fd9c1b694dddc9311e0a2ed44bb0b35e"}, {"is_disabled": 0, "is_reserved": 0, "fusion_lat": 0.0, "lat": 38.92147516666667, "fusion_lon": 0.0, "rental_uris": {"ios": "https://dc.lft.to/lastmile_qr_scan", "android": "https://dc.lft.to/lastmile_qr_scan"}, "lon": -77.03507116666667, "bike_id": "6002f2b89b9c33ca88c8ef4d65178ade", "type": "electric_scooter", "name": "6002f2b89b9c33ca88c8ef4d65178ade"}, {"is_disabled": 0, "is_reserved": 0, "fusion_lat": 0.0, "lat": 38.9103065, "fusion_lon": 0.0, "rental_uris": {"ios": "https://dc.lft.to/lastmile_qr_scan", "android": "https://dc.lft.to/lastmile_qr_scan"}, "lon": -76.92333383333333, "bike_id": "99d1114e6bc6b30cdc217b534d9a3339", "type": "electric_bike", "name": "99d1114e6bc6b30cdc217b534d9a3339"}, {"is_disabled": 0, "is_reserved": 0, "fusion_lat": 0.0, "lat": 38.955896, "fusion_lon": 0.0, "rental_uris": {"ios": "https://dc.lft.to/lastmile_qr_scan", "android": "https://dc.lft.to/lastmile_qr_scan"}, "lon": -77.02803816666666, "bike_id": "e774f3d330365afa36a76d7bdb21c7c0", "type": "electric_scooter", "name": "e774f3d330365afa36a76d7bdb21c7c0"}, {"is_disabled": 0, "is_reserved": 0, "fusion_lat": 0.0, "lat": 38.90724183333333, "fusion_lon": 0.0, "rental_uris": {"ios": "https://dc.lft.to/lastmile_qr_scan", "android": "https://dc.lft.to/lastmile_qr_scan"}, "lon": -77.02728633333334, "bike_id": "a57b92342c630081c13fd46272c745e7", "type": "electric_scooter", "name": "a57b92342c630081c13fd46272c745e7"}, {"is_disabled": 0, "is_reserved": 0, "fusion_lat": 0.0, "lat": 38.951407833333334, "fusion_lon": 0.0, "rental_uris": {"ios": "https://dc.lft.to/lastmile_qr_scan", "android": "https://dc.lft.to/lastmile_qr_scan"}, "lon": -76.96621183333333, "bike_id": "63589cb28bfc16c461801ddc77ccff7a", "type": "electric_bike", "name": "63589cb28bfc16c461801ddc77ccff7a"}, {"is_disabled": 0, "is_reserved": 0, "fusion_lat": 0.0, "lat": 38.857852333333334, "fusion_lon": 0.0, "rental_uris": {"ios": "https://dc.lft.to/lastmile_qr_scan", "android": "https://dc.lft.to/lastmile_qr_scan"}, "lon": -77.09961733333333, "bike_id": "f087cf6262d190b3b2011062ec06b7cd", "type": "electric_bike", "name": "f087cf6262d190b3b2011062ec06b7cd"}, {"is_disabled": 0, "is_reserved": 0, "fusion_lat": 0.0, "lat": 38.90672683333333, "fusion_lon": 0.0, "rental_uris": {"ios": "https://dc.lft.to/lastmile_qr_scan", "android": "https://dc.lft.to/lastmile_qr_scan"}, "lon": -77.02704183333333, "bike_id": "69ac9f3d4c53483d65ac56a3abbafae3", "type": "electric_scooter", "name": "69ac9f3d4c53483d65ac56a3abbafae3"}, {"is_disabled": 0, "is_reserved": 0, "fusion_lat": 0.0, "lat": 38.95698633333333, "fusion_lon": 0.0, "rental_uris": {"ios": "https://dc.lft.to/lastmile_qr_scan", "android": "https://dc.lft.to/lastmile_qr_scan"}, "lon": -77.0222135, "bike_id": "0bce06af2717c00d344804a9e989c666", "type": "electric_bike", "name": "0bce06af2717c00d344804a9e989c666"}, {"is_disabled": 0, "is_reserved": 0, "fusion_lat": 0.0, "lat": 38.8921905, "fusion_lon": 0.0, "rental_uris": {"ios": "https://dc.lft.to/lastmile_qr_scan", "android": "https://dc.lft.to/lastmile_qr_scan"}, "lon": -77.03343166666667, "bike_id": "2a0b725114d76a4960204087cd652733", "type": "electric_scooter", "name": "2a0b725114d76a4960204087cd652733"}, {"is_disabled": 0, "is_reserved": 0, "fusion_lat": 0.0, "lat": 38.949515, "fusion_lon": 0.0, "rental_uris": {"ios": "https://dc.lft.to/lastmile_qr_scan", "android": "https://dc.lft.to/lastmile_qr_scan"}, "lon": -77.067437, "bike_id": "4f83778cb1b0b538a1ca851c209dd551", "type": "electric_scooter", "name": "4f83778cb1b0b538a1ca851c209dd551"}, {"is_disabled": 0, "is_reserved": 0, "fusion_lat": 0.0, "lat": 38.9073395, "fusion_lon": 0.0, "rental_uris": {"ios": "https://dc.lft.to/lastmile_qr_scan", "android": "https://dc.lft.to/lastmile_qr_scan"}, "lon": -77.028003, "bike_id": "7722d0adcd7a9aee24ffe4dac19cb5a1", "type": "electric_scooter", "name": "7722d0adcd7a9aee24ffe4dac19cb5a1"}, {"is_disabled": 0, "is_reserved": 0, "fusion_lat": 0.0, "lat": 38.91421916666667, "fusion_lon": 0.0, "rental_uris": {"ios": "https://dc.lft.to/lastmile_qr_scan", "android": "https://dc.lft.to/lastmile_qr_scan"}, "lon": -77.031771, "bike_id": "403619e99dca1da7b1db050b20ef2e42", "type": "electric_scooter", "name": "403619e99dca1da7b1db050b20ef2e42"}, {"is_disabled": 0, "is_reserved": 0, "fusion_lat": 0.0, "lat": 38.957301666666666, "fusion_lon": 0.0, "rental_uris": {"ios": "https://dc.lft.to/lastmile_qr_scan", "android": "https://dc.lft.to/lastmile_qr_scan"}, "lon": -77.02400433333334, "bike_id": "1425a8b76bf94d61fbd75e2faf23ef23", "type": "electric_scooter", "name": "1425a8b76bf94d61fbd75e2faf23ef23"}, {"is_disabled": 0, "is_reserved": 0, "fusion_lat": 0.0, "lat": 38.91708533333333, "fusion_lon": 0.0, "rental_uris": {"ios": "https://dc.lft.to/lastmile_qr_scan", "android": "https://dc.lft.to/lastmile_qr_scan"}, "lon": -77.03854083333333, "bike_id": "e97a59b4322330488c146b053d35c506", "type": "electric_scooter", "name": "e97a59b4322330488c146b053d35c506"}, {"is_disabled": 0, "is_reserved": 0, "fusion_lat": 0.0, "lat": 38.951727166666664, "fusion_lon": 0.0, "rental_uris": {"ios": "https://dc.lft.to/lastmile_qr_scan", "android": "https://dc.lft.to/lastmile_qr_scan"}, "lon": -77.0184745, "bike_id": "891640ce3c604a59e362777de4589e00", "type": "electric_scooter", "name": "891640ce3c604a59e362777de4589e00"}, {"is_disabled": 0, "is_reserved": 0, "fusion_lat": 0.0, "lat": 38.827721, "fusion_lon": 0.0, "rental_uris": {"ios": "https://dc.lft.to/lastmile_qr_scan", "android": "https://dc.lft.to/lastmile_qr_scan"}, "lon": -77.0601475, "bike_id": "678fca0acc1cbc3fcef7a83280d89d50", "type": "electric_bike", "name": "678fca0acc1cbc3fcef7a83280d89d50"}, {"is_disabled": 0, "is_reserved": 0, "fusion_lat": 0.0, "lat": 38.907324333333335, "fusion_lon": 0.0, "rental_uris": {"ios": "https://dc.lft.to/lastmile_qr_scan", "android": "https://dc.lft.to/lastmile_qr_scan"}, "lon": -77.03213183333334, "bike_id": "d94940af7a4828dc72c5923ad2bf11a9", "type": "electric_scooter", "name": "d94940af7a4828dc72c5923ad2bf11a9"}, {"is_disabled": 0, "is_reserved": 0, "fusion_lat": 0.0, "lat": 38.95732433333333, "fusion_lon": 0.0, "rental_uris": {"ios": "https://dc.lft.to/lastmile_qr_scan", "android": "https://dc.lft.to/lastmile_qr_scan"}, "lon": -77.02397216666667, "bike_id": "b105f1aed299cdb1c8e48506a27d63a6", "type": "electric_scooter", "name": "b105f1aed299cdb1c8e48506a27d63a6"}, {"is_disabled": 0, "is_reserved": 0, "fusion_lat": 0.0, "lat": 38.92234366666667, "fusion_lon": 0.0, "rental_uris": {"ios": "https://dc.lft.to/lastmile_qr_scan", "android": "https://dc.lft.to/lastmile_qr_scan"}, "lon": -77.03519, "bike_id": "3a8ff63ae82e9bbd3eeafc2f33428817", "type": "electric_scooter", "name": "3a8ff63ae82e9bbd3eeafc2f33428817"}, {"is_disabled": 0, "is_reserved": 0, "fusion_lat": 0.0, "lat": 38.8621525, "fusion_lon": 0.0, "rental_uris": {"ios": "https://dc.lft.to/lastmile_qr_scan", "android": "https://dc.lft.to/lastmile_qr_scan"}, "lon": -76.99478033333334, "bike_id": "9fa45e78ad5d5ea3b336b383de83ba6e", "type": "electric_scooter", "name": "9fa45e78ad5d5ea3b336b383de83ba6e"}, {"is_disabled": 0, "is_reserved": 0, "fusion_lat": 0.0, "lat": 38.925609333333334, "fusion_lon": 0.0, "rental_uris": {"ios": "https://dc.lft.to/lastmile_qr_scan", "android": "https://dc.lft.to/lastmile_qr_scan"}, "lon": -77.02270766666666, "bike_id": "f5d90aeadf859102686b58954bdfa8cd", "type": "electric_scooter", "name": "f5d90aeadf859102686b58954bdfa8cd"}, {"is_disabled": 0, "is_reserved": 0, "fusion_lat": 0.0, "lat": 38.91261983333333, "fusion_lon": 0.0, "rental_uris": {"ios": "https://dc.lft.to/lastmile_qr_scan", "android": "https://dc.lft.to/lastmile_qr_scan"}, "lon": -77.01906016666666, "bike_id": "5be0239ebf3feddfb928cc275b16a553", "type": "electric_scooter", "name": "5be0239ebf3feddfb928cc275b16a553"}, {"is_disabled": 0, "is_reserved": 0, "fusion_lat": 0.0, "lat": 38.9206625, "fusion_lon": 0.0, "rental_uris": {"ios": "https://dc.lft.to/lastmile_qr_scan", "android": "https://dc.lft.to/lastmile_qr_scan"}, "lon": -77.02834966666667, "bike_id": "12ad28f24c3c96fd4232dbc862b19664", "type": "electric_scooter", "name": "12ad28f24c3c96fd4232dbc862b19664"}, {"is_disabled": 0, "is_reserved": 0, "fusion_lat": 0.0, "lat": 39.005342166666665, "fusion_lon": 0.0, "rental_uris": {"ios": "https://dc.lft.to/lastmile_qr_scan", "android": "https://dc.lft.to/lastmile_qr_scan"}, "lon": -77.10398283333333, "bike_id": "d33e666f7ad33ea97a310c54807ef15a", "type": "electric_bike", "name": "d33e666f7ad33ea97a310c54807ef15a"}, {"is_disabled": 0, "is_reserved": 0, "fusion_lat": 0.0, "lat": 38.90704316666667, "fusion_lon": 0.0, "rental_uris": {"ios": "https://dc.lft.to/lastmile_qr_scan", "android": "https://dc.lft.to/lastmile_qr_scan"}, "lon": -77.04642766666667, "bike_id": "c59597f979e70c4053ba0deb7e9455a0", "type": "electric_scooter", "name": "c59597f979e70c4053ba0deb7e9455a0"}, {"is_disabled": 0, "is_reserved": 0, "fusion_lat": 0.0, "lat": 38.915715, "fusion_lon": 0.0, "rental_uris": {"ios": "https://dc.lft.to/lastmile_qr_scan", "android": "https://dc.lft.to/lastmile_qr_scan"}, "lon": -77.036602, "bike_id": "7c30906de0b1a1e8a132ddafe59590e8", "type": "electric_scooter", "name": "7c30906de0b1a1e8a132ddafe59590e8"}, {"is_disabled": 0, "is_reserved": 0, "fusion_lat": 0.0, "lat": 38.97365766666667, "fusion_lon": 0.0, "rental_uris": {"ios": "https://dc.lft.to/lastmile_qr_scan", "android": "https://dc.lft.to/lastmile_qr_scan"}, "lon": -77.01860733333334, "bike_id": "19a58690463d79fe449c893b1f0b10c4", "type": "electric_scooter", "name": "19a58690463d79fe449c893b1f0b10c4"}, {"is_disabled": 0, "is_reserved": 0, "fusion_lat": 0.0, "lat": 38.88106116666667, "fusion_lon": 0.0, "rental_uris": {"ios": "https://dc.lft.to/lastmile_qr_scan", "android": "https://dc.lft.to/lastmile_qr_scan"}, "lon": -77.01238383333333, "bike_id": "dfc14d98169e310ffd5531d08657f450", "type": "electric_scooter", "name": "dfc14d98169e310ffd5531d08657f450"}, {"is_disabled": 0, "is_reserved": 0, "fusion_lat": 0.0, "lat": 38.965542666666664, "fusion_lon": 0.0, "rental_uris": {"ios": "https://dc.lft.to/lastmile_qr_scan", "android": "https://dc.lft.to/lastmile_qr_scan"}, "lon": -77.0281985, "bike_id": "7997359d5c506ec9d7cac43bdb882f4b", "type": "electric_bike", "name": "7997359d5c506ec9d7cac43bdb882f4b"}, {"is_disabled": 0, "is_reserved": 0, "fusion_lat": 0.0, "lat": 38.88519016666667, "fusion_lon": 0.0, "rental_uris": {"ios": "https://dc.lft.to/lastmile_qr_scan", "android": "https://dc.lft.to/lastmile_qr_scan"}, "lon": -76.99611666666667, "bike_id": "9148a798f2b61e59a3346ebd16241741", "type": "electric_scooter", "name": "9148a798f2b61e59a3346ebd16241741"}, {"is_disabled": 0, "is_reserved": 0, "fusion_lat": 0.0, "lat": 38.922406, "fusion_lon": 0.0, "rental_uris": {"ios": "https://dc.lft.to/lastmile_qr_scan", "android": "https://dc.lft.to/lastmile_qr_scan"}, "lon": -77.030724, "bike_id": "18cfddde3a4595b39b2e4b7c449bb482", "type": "electric_scooter", "name": "18cfddde3a4595b39b2e4b7c449bb482"}, {"is_disabled": 0, "is_reserved": 0, "fusion_lat": 0.0, "lat": 38.9369985, "fusion_lon": 0.0, "rental_uris": {"ios": "https://dc.lft.to/lastmile_qr_scan", "android": "https://dc.lft.to/lastmile_qr_scan"}, "lon": -77.0568105, "bike_id": "53df4a02a20e69631d0f7d571ad728e9", "type": "electric_scooter", "name": "53df4a02a20e69631d0f7d571ad728e9"}, {"is_disabled": 0, "is_reserved": 0, "fusion_lat": 0.0, "lat": 38.965066, "fusion_lon": 0.0, "rental_uris": {"ios": "https://dc.lft.to/lastmile_qr_scan", "android": "https://dc.lft.to/lastmile_qr_scan"}, "lon": -77.03362966666667, "bike_id": "1cf44fec1af5cea221cbe46dec65cc6c", "type": "electric_bike", "name": "1cf44fec1af5cea221cbe46dec65cc6c"}, {"is_disabled": 0, "is_reserved": 0, "fusion_lat": 0.0, "lat": 38.89955766666667, "fusion_lon": 0.0, "rental_uris": {"ios": "https://dc.lft.to/lastmile_qr_scan", "android": "https://dc.lft.to/lastmile_qr_scan"}, "lon": -77.015952, "bike_id": "e8b03c207d8b0410324e9672aa089795", "type": "electric_scooter", "name": "e8b03c207d8b0410324e9672aa089795"}, {"is_disabled": 0, "is_reserved": 0, "fusion_lat": 0.0, "lat": 38.9230865, "fusion_lon": 0.0, "rental_uris": {"ios": "https://dc.lft.to/lastmile_qr_scan", "android": "https://dc.lft.to/lastmile_qr_scan"}, "lon": -77.04123583333333, "bike_id": "fe6b098b4add2447b24a499ba6c083b4", "type": "electric_bike", "name": "fe6b098b4add2447b24a499ba6c083b4"}, {"is_disabled": 0, "is_reserved": 0, "fusion_lat": 0.0, "lat": 38.9232005, "fusion_lon": 0.0, "rental_uris": {"ios": "https://dc.lft.to/lastmile_qr_scan", "android": "https://dc.lft.to/lastmile_qr_scan"}, "lon": -77.02962366666667, "bike_id": "9fb1b475a5260723390de56581e89818", "type": "electric_scooter", "name": "9fb1b475a5260723390de56581e89818"}, {"is_disabled": 0, "is_reserved": 0, "fusion_lat": 0.0, "lat": 38.93524383333333, "fusion_lon": 0.0, "rental_uris": {"ios": "https://dc.lft.to/lastmile_qr_scan", "android": "https://dc.lft.to/lastmile_qr_scan"}, "lon": -77.03813183333334, "bike_id": "cff17e1b9042ad8713c4bf4b64d509f2", "type": "electric_scooter", "name": "cff17e1b9042ad8713c4bf4b64d509f2"}, {"is_disabled": 0, "is_reserved": 0, "fusion_lat": 0.0, "lat": 38.9338765, "fusion_lon": 0.0, "rental_uris": {"ios": "https://dc.lft.to/lastmile_qr_scan", "android": "https://dc.lft.to/lastmile_qr_scan"}, "lon": -77.02071783333334, "bike_id": "0a85e355a483708600aaae179605934d", "type": "electric_scooter", "name": "0a85e355a483708600aaae179605934d"}, {"is_disabled": 0, "is_reserved": 0, "fusion_lat": 0.0, "lat": 38.886593166666664, "fusion_lon": 0.0, "rental_uris": {"ios": "https://dc.lft.to/lastmile_qr_scan", "android": "https://dc.lft.to/lastmile_qr_scan"}, "lon": -77.03390333333333, "bike_id": "b5b4d92bbd504401182eeee0457df4b4", "type": "electric_scooter", "name": "b5b4d92bbd504401182eeee0457df4b4"}, {"is_disabled": 0, "is_reserved": 0, "fusion_lat": 0.0, "lat": 38.91567583333333, "fusion_lon": 0.0, "rental_uris": {"ios": "https://dc.lft.to/lastmile_qr_scan", "android": "https://dc.lft.to/lastmile_qr_scan"},