{"data": {"bikes": [{"lat": 38.9661, "fusion_lat": 0.0, "type": "electric_scooter", "bike_id": "254793dff681f096a7f5c04609114515", "rental_uris": {"ios": "https://dc.lft.to/lastmile_qr_scan", "android": "https://dc.lft.to/lastmile_qr_scan"}, "fusion_lon": 0.0, "lon": -77.020084, "name": "254793dff681f096a7f5c04609114515", "is_reserved": 0, "is_disabled": 0}, {"lat": 38.89598183333333, "fusion_lat": 0.0, "type": "electric_scooter", "bike_id": "80bcf31dc5037003077dd47ffa60ca21", "rental_uris": {"ios": "https://dc.lft.to/lastmile_qr_scan", "android": "https://dc.lft.to/lastmile_qr_scan"}, "fusion_lon": 0.0, "lon": -77.00916766666667, "name": "80bcf31dc5037003077dd47ffa60ca21", "is_reserved": 0, "is_disabled": 0}, {"lat": 38.914584166666664, "fusion_lat": 0.0, "type": "electric_bike", "bike_id": "a61840f86470e9acfbb5fcadb6037521", "rental_uris": {"ios": "https://dc.lft.to/lastmile_qr_scan", "android": "https://dc.lft.to/lastmile_qr_scan"}, "fusion_lon": 0.0, "lon": -76.9725365, "name": "a61840f86470e9acfbb5fcadb6037521", "is_reserved": 0, "is_disabled": 0}, {"lat": 38.90785616666667, "fusion_lat": 0.0, "type": "electric_scooter", "bike_id": "f453ee45e28943935ed86d833b661e41", "rental_uris": {"ios": "https://dc.lft.to/lastmile_qr_scan", "android": "https://dc.lft.to/lastmile_qr_scan"}, "fusion_lon": 0.0, "lon": -77.06417283333333, "name": "f453ee45e28943935ed86d833b661e41", "is_reserved": 0, "is_disabled": 0}, {"lat": 38.9214245, "fusion_lat": 0.0, "type": "electric_scooter", "bike_id": "3ffb52b8ed373ba93619b99a34b35b07", "rental_uris": {"ios": "https://dc.lft.to/lastmile_qr_scan", "android": "https://dc.lft.to/lastmile_qr_scan"}, "fusion_lon": 0.0, "lon": -77.04368033333333, "name": "3ffb52b8ed373ba93619b99a34b35b07", "is_reserved": 0, "is_disabled": 0}, {"lat": 38.899276666666665, "fusion_lat": 0.0, "type": "electric_scooter", "bike_id": "fb795e9bca3fe4154132099bf8ffcf5b", "rental_uris": {"ios": "https://dc.lft.to/lastmile_qr_scan", "android": "https://dc.lft.to/lastmile_qr_scan"}, "fusion_lon": 0.0, "lon": -77.0127335, "name": "fb795e9bca3fe4154132099bf8ffcf5b", "is_reserved": 0, "is_disabled": 0}, {"lat": 38.895352333333335, "fusion_lat": 0.0, "type": "electric_scooter", "bike_id": "42e74ae3077b0714bc11f070fee08ac8", "rental_uris": {"ios": "https://dc.lft.to/lastmile_qr_scan", "android": "https://dc.lft.to/lastmile_qr_scan"}, "fusion_lon": 0.0, "lon": -77.00359983333334, "name": "42e74ae3077b0714bc11f070fee08ac8", "is_reserved": 0, "is_disabled": 0}, {"lat": 38.8874375, "fusion_lat": 0.0, "type": "electric_scooter", "bike_id": "f33c2593d153ff37744f2a71a514be8c", "rental_uris": {"ios": "https://dc.lft.to/lastmile_qr_scan", "android": "https://dc.lft.to/lastmile_qr_scan"}, "fusion_lon": 0.0, "lon": -77.0256905, "name": "f33c2593d153ff37744f2a71a514be8c", "is_reserved": 0, "is_disabled": 0}, {"lat": 38.83625116666666, "fusion_lat": 0.0, "type": "electric_bike", "bike_id": "0c8f747e67b232208b42cce525567d07", "rental_uris": {"ios": "https://dc.lft.to/lastmile_qr_scan", "android": "https://dc.lft.to/lastmile_qr_scan"}, "fusion_lon": 0.0, "lon": -77.069467, "name": "0c8f747e67b232208b42cce525567d07", "is_reserved": 0, "is_disabled": 0}, {"lat": 38.906658166666666, "fusion_lat": 0.0, "type": "electric_scooter", "bike_id": "313a8c6bc9291e35fd2a46bc34e2ea68", "rental_uris": {"ios": "https://dc.lft.to/lastmile_qr_scan", "android": "https://dc.lft.to/lastmile_qr_scan"}, "fusion_lon": 0.0, "lon": -77.00967083333333, "name": "313a8c6bc9291e35fd2a46bc34e2ea68", "is_reserved": 0, "is_disabled": 0}, {"lat": 38.950868166666666, "fusion_lat": 0.0, "type": "electric_scooter", "bike_id": "08ad5a07b1a449aa74b207cc0431b118", "rental_uris": {"ios": "https://dc.lft.to/lastmile_qr_scan", "android": "https://dc.lft.to/lastmile_qr_scan"}, "fusion_lon": 0.0, "lon": -77.0270775, "name": "08ad5a07b1a449aa74b207cc0431b118", "is_reserved": 0, "is_disabled": 0}, {"lat": 38.9346225, "fusion_lat": 0.0, "type": "electric_scooter", "bike_id": "bcd20ea4257977d1b66d62982306878e", "rental_uris": {"ios": "https://dc.lft.to/lastmile_qr_scan", "android": "https://dc.lft.to/lastmile_qr_scan"}, "fusion_lon": 0.0, "lon": -77.0277925, "name": "bcd20ea4257977d1b66d62982306878e", "is_reserved": 0, "is_disabled": 0}, {"lat": 38.93025433333333, "fusion_lat": 0.0, "type": "electric_scooter", "bike_id": "7026e987bf32b57dd6d8668f8b4b097e", "rental_uris": {"ios": "https://dc.lft.to/lastmile_qr_scan", "android": "https://dc.lft.to/lastmile_qr_scan"}, "fusion_lon": 0.0, "lon": -77.02965716666667, "name": "7026e987bf32b57dd6d8668f8b4b097e", "is_reserved": 0, "is_disabled": 0}, {"lat": 38.91276366666666, "fusion_lat": 0.0, "type": "electric_scooter", "bike_id": "19e0347b76424e1b1a46db046397f538", "rental_uris": {"ios": "https://dc.lft.to/lastmile_qr_scan", "android": "https://dc.lft.to/lastmile_qr_scan"}, "fusion_lon": 0.0, "lon": -77.04509116666667, "name": "19e0347b76424e1b1a46db046397f538", "is_reserved": 0, "is_disabled": 0}, {"lat": 38.897733333333335, "fusion_lat": 0.0, "type": "electric_scooter", "bike_id": "c2b6099f303596271bc5ced0b886c119", "rental_uris": {"ios": "https://dc.lft.to/lastmile_qr_scan", "android": "https://dc.lft.to/lastmile_qr_scan"}, "fusion_lon": 0.0, "lon": -77.031709, "name": "c2b6099f303596271bc5ced0b886c119", "is_reserved": 0, "is_disabled": 0}, {"lat": 38.937721, "fusion_lat": 0.0, "type": "electric_scooter", "bike_id": "143ef0107b86c7b0674dceb93bd49e16", "rental_uris": {"ios": "https://dc.lft.to/lastmile_qr_scan", "android": "https://dc.lft.to/lastmile_qr_scan"}, "fusion_lon": 0.0, "lon": -77.02354133333333, "name": "143ef0107b86c7b0674dceb93bd49e16", "is_reserved": 0, "is_disabled": 0}, {"lat": 38.90254783333334, "fusion_lat": 0.0, "type": "electric_scooter", "bike_id": "aeb3b419de8eef1d7a708fd55bb6f1ec", "rental_uris": {"ios": "https://dc.lft.to/lastmile_qr_scan", "android": "https://dc.lft.to/lastmile_qr_scan"}, "fusion_lon": 0.0, "lon": -77.0458325, "name": "aeb3b419de8eef1d7a708fd55bb6f1ec", "is_reserved": 0, "is_disabled": 0}, {"lat": 38.936385666666666, "fusion_lat": 0.0, "type": "electric_scooter", "bike_id": "cbb7b6b6be3a062a45f1ce5603f6b874", "rental_uris": {"ios": "https://dc.lft.to/lastmile_qr_scan", "android": "https://dc.lft.to/lastmile_qr_scan"}, "fusion_lon": 0.0, "lon": -77.0368675, "name": "cbb7b6b6be3a062a45f1ce5603f6b874", "is_reserved": 0, "is_disabled": 0}, {"lat": 38.870319333333335, "fusion_lat": 0.0, "type": "electric_bike", "bike_id": "46d17cd3c5477ad6feccf035dd9e42e1", "rental_uris": {"ios": "https://dc.lft.to/lastmile_qr_scan", "android": "https://dc.lft.to/lastmile_qr_scan"}, "fusion_lon": 0.0, "lon": -77.2290665, "name": "46d17cd3c5477ad6feccf035dd9e42e1", "is_reserved": 0, "is_disabled": 0}, {"lat": 38.9097195, "fusion_lat": 0.0, "type": "electric_scooter", "bike_id": "965b456b62a89b80d01c6ea01b3946d6", "rental_uris": {"ios": "https://dc.lft.to/lastmile_qr_scan", "android": "https://dc.lft.to/lastmile_qr_scan"}, "fusion_lon": 0.0, "lon": -77.0319585, "name": "965b456b62a89b80d01c6ea01b3946d6", "is_reserved": 0, "is_disabled": 0}, {"lat": 38.89246, "fusion_lat": 0.0, "type": "electric_scooter", "bike_id": "17712613722c26274aa930cfdef1bd43", "rental_uris": {"ios": "https://dc.lft.to/lastmile_qr_scan", "android": "https://dc.lft.to/lastmile_qr_scan"}, "fusion_lon": 0.0, "lon": -77.00350216666666, "name": "17712613722c26274aa930cfdef1bd43", "is_reserved": 0, "is_disabled": 0}, {"lat": 38.887538166666666, "fusion_lat": 0.0, "type": "electric_scooter", "bike_id": "024b99a6fc12bc4c59d004ce33f45173", "rental_uris": {"ios": "https://dc.lft.to/lastmile_qr_scan", "android": "https://dc.lft.to/lastmile_qr_scan"}, "fusion_lon": 0.0, "lon": -76.99607766666666, "name": "024b99a6fc12bc4c59d004ce33f45173", "is_reserved": 0, "is_disabled": 0}, {"lat": 38.90235633333333, "fusion_lat": 0.0, "type": "electric_scooter", "bike_id": "fd93c3e6f78ec227789f61c33ee5d860", "rental_uris": {"ios": "https://dc.lft.to/lastmile_qr_scan", "android": "https://dc.lft.to/lastmile_qr_scan"}, "fusion_lon": 0.0, "lon": -77.002069, "name": "fd93c3e6f78ec227789f61c33ee5d860", "is_reserved": 0, "is_disabled": 0}, {"lat": 38.912237833333336, "fusion_lat": 0.0, "type": "electric_scooter", "bike_id": "d385b600c42635922a5f391345335b17", "rental_uris": {"ios": "https://dc.lft.to/lastmile_qr_scan", "android": "https://dc.lft.to/lastmile_qr_scan"}, "fusion_lon": 0.0, "lon": -77.04488, "name": "d385b600c42635922a5f391345335b17", "is_reserved": 0, "is_disabled": 0}, {"lat": 38.91028333333333, "fusion_lat": 0.0, "type": "electric_scooter", "bike_id": "c64066ec57b17ebc8e888e2cd73fed70", "rental_uris": {"ios": "https://dc.lft.to/lastmile_qr_scan", "android": "https://dc.lft.to/lastmile_qr_scan"}, "fusion_lon": 0.0, "lon": -77.033097, "name": "c64066ec57b17ebc8e888e2cd73fed70", "is_reserved": 0, "is_disabled": 0}, {"lat": 38.936966, "fusion_lat": 0.0, "type": "electric_scooter", "bike_id": "245b561cc422171746f7d03baf494771", "rental_uris": {"ios": "https://dc.lft.to/lastmile_qr_scan", "android": "https://dc.lft.to/lastmile_qr_scan"}, "fusion_lon": 0.0, "lon": -77.05599616666667, "name": "245b561cc422171746f7d03baf494771", "is_reserved": 0, "is_disabled": 0}, {"lat": 38.93529316666667, "fusion_lat": 0.0, "type": "electric_scooter", "bike_id": "dee0fee4153aff1adcc0f5026cf12cae", "rental_uris": {"ios": "https://dc.lft.to/lastmile_qr_scan", "android": "https://dc.lft.to/lastmile_qr_scan"}, "fusion_lon": 0.0, "lon": -77.03471616666667, "name": "dee0fee4153aff1adcc0f5026cf12cae", "is_reserved": 0, "is_disabled": 0}, {"lat": 38.83609416666667, "fusion_lat": 0.0, "type": "electric_bike", "bike_id": "ce249298904f541b08e026c9eb15fa49", "rental_uris": {"ios": "https://dc.lft.to/lastmile_qr_scan", "android": "https://dc.lft.to/lastmile_qr_scan"}, "fusion_lon": 0.0, "lon": -77.00384866666667, "name": "ce249298904f541b08e026c9eb15fa49", "is_reserved": 0, "is_disabled": 0}, {"lat": 38.9156115, "fusion_lat": 0.0, "type": "electric_scooter", "bike_id": "88f24334a433597d2e8ff66c1dcc3ff4", "rental_uris": {"ios": "https://dc.lft.to/lastmile_qr_scan", "android": "https://dc.lft.to/lastmile_qr_scan"}, "fusion_lon": 0.0, "lon": -77.0196755, "name": "88f24334a433597d2e8ff66c1dcc3ff4", "is_reserved": 0, "is_disabled": 0}, {"lat": 38.93554533333333, "fusion_lat": 0.0, "type": "electric_scooter", "bike_id": "6c67b32deec6907a8868059a1c8db351", "rental_uris": {"ios": "https://dc.lft.to/lastmile_qr_scan", "android": "https://dc.lft.to/lastmile_qr_scan"}, "fusion_lon": 0.0, "lon": -77.074612, "name": "6c67b32deec6907a8868059a1c8db351", "is_reserved": 0, "is_disabled": 0}, {"lat": 38.84843633333333, "fusion_lat": 0.0, "type": "electric_bike", "bike_id": "4064e76f2d571fd13b0e53d842926801", "rental_uris": {"ios": "https://dc.lft.to/lastmile_qr_scan", "android": "https://dc.lft.to/lastmile_qr_scan"}, "fusion_lon": 0.0, "lon": -77.0848565, "name": "4064e76f2d571fd13b0e53d842926801", "is_reserved": 0, "is_disabled": 0}, {"lat": 38.90696366666667, "fusion_lat": 0.0, "type": "electric_scooter", "bike_id": "f94d1481ab4a02006bcfaf7ce4ef224d", "rental_uris": {"ios": "https://dc.lft.to/lastmile_qr_scan", "android": "https://dc.lft.to/lastmile_qr_scan"}, "fusion_lon": 0.0, "lon": -77.04171433333333, "name": "f94d1481ab4a02006bcfaf7ce4ef224d", "is_reserved": 0, "is_disabled": 0}, {"lat": 38.905621, "fusion_lat": 0.0, "type": "electric_scooter", "bike_id": "99b73dea53ecd61a1f44617844f5f63c", "rental_uris": {"ios": "https://dc.lft.to/lastmile_qr_scan", "android": "https://dc.lft.to/lastmile_qr_scan"}, "fusion_lon": 0.0, "lon": -77.02585816666667, "name": "99b73dea53ecd61a1f44617844f5f63c", "is_reserved": 0, "is_disabled": 0}, {"lat": 38.87184283333333, "fusion_lat": 0.0, "type": "electric_scooter", "bike_id": "5218ec8118d6f1696d282c2214d89cbd", "rental_uris": {"ios": "https://dc.lft.to/lastmile_qr_scan", "android": "https://dc.lft.to/lastmile_qr_scan"}, "fusion_lon": 0.0, "lon": -77.00645116666666, "name": "5218ec8118d6f1696d282c2214d89cbd", "is_reserved": 0, "is_disabled": 0}, {"lat": 38.90641866666667, "fusion_lat": 0.0, "type": "electric_scooter", "bike_id": "c46aa8f38dcb95b676fe430cd610d4c2", "rental_uris": {"ios": "https://dc.lft.to/lastmile_qr_scan", "android": "https://dc.lft.to/lastmile_qr_scan"}, "fusion_lon": 0.0, "lon": -77.01766333333333, "name": "c46aa8f38dcb95b676fe430cd610d4c2", "is_reserved": 0, "is_disabled": 0}, {"lat": 38.884981, "fusion_lat": 0.0, "type": "electric_scooter", "bike_id": "92acd6e26f2485c05245d4f7c6c8bfb3", "rental_uris": {"ios": "https://dc.lft.to/lastmile_qr_scan", "android": "https://dc.lft.to/lastmile_qr_scan"}, "fusion_lon": 0.0, "lon": -77.029735, "name": "92acd6e26f2485c05245d4f7c6c8bfb3", "is_reserved": 0, "is_disabled": 0}, {"lat": 38.87973866666667, "fusion_lat": 0.0, "type": "electric_bike", "bike_id": "a79cd35d332cc01dc3695571c8aa90d7", "rental_uris": {"ios": "https://dc.lft.to/lastmile_qr_scan", "android": "https://dc.lft.to/lastmile_qr_scan"}, "fusion_lon": 0.0, "lon": -76.9848365, "name": "a79cd35d332cc01dc3695571c8aa90d7", "is_reserved": 0, "is_disabled": 0}, {"lat": 38.90253233333333, "fusion_lat": 0.0, "type": "electric_scooter", "bike_id": "5cb295b6799aae963e45d8f12f6e82b5", "rental_uris": {"ios": "https://dc.lft.to/lastmile_qr_scan", "android": "https://dc.lft.to/lastmile_qr_scan"}, "fusion_lon": 0.0, "lon": -77.03570116666667, "name": "5cb295b6799aae963e45d8f12f6e82b5", "is_reserved": 0, "is_disabled": 0}, {"lat": 38.927954666666665, "fusion_lat": 0.0, "type": "electric_scooter", "bike_id": "34978d46544dd77e46086d98187c2337", "rental_uris": {"ios": "https://dc.lft.to/lastmile_qr_scan", "android": "https://dc.lft.to/lastmile_qr_scan"}, "fusion_lon": 0.0, "lon": -77.01553383333334, "name": "34978d46544dd77e46086d98187c2337", "is_reserved": 0, "is_disabled": 0}, {"lat": 38.900346166666665, "fusion_lat": 0.0, "type": "electric_scooter", "bike_id": "51db20fad740bfa5b5138fc944a996be", "rental_uris": {"ios": "https://dc.lft.to/lastmile_qr_scan", "android": "https://dc.lft.to/lastmile_qr_scan"}, "fusion_lon": 0.0, "lon": -77.01215416666666, "name": "51db20fad740bfa5b5138fc944a996be", "is_reserved": 0, "is_disabled": 0}, {"lat": 38.9563935, "fusion_lat": 0.0, "type": "electric_bike", "bike_id": "c311dcfa9fd7dc113d0298b2aaeb883a", "rental_uris": {"ios": "https://dc.lft.to/lastmile_qr_scan", "android": "https://dc.lft.to/lastmile_qr_scan"}, "fusion_lon": 0.0, "lon": -76.93871633333333, "name": "c311dcfa9fd7dc113d0298b2aaeb883a", "is_reserved": 0, "is_disabled": 0}, {"lat": 38.907658833333336, "fusion_lat": 0.0, "type": "electric_scooter", "bike_id": "d529cb854c27e7161b7e56df67076dba", "rental_uris": {"ios": "https://dc.lft.to/lastmile_qr_scan", "android": "https://dc.lft.to/lastmile_qr_scan"}, "fusion_lon": 0.0, "lon": -77.00046883333333, "name": "d529cb854c27e7161b7e56df67076dba", "is_reserved": 0, "is_disabled": 0}, {"lat": 38.916373, "fusion_lat": 0.0, "type": "electric_scooter", "bike_id": "15a3eb0d8b64e21736e9b7776d5d97f7", "rental_uris": {"ios": "https://dc.lft.to/lastmile_qr_scan", "android": "https://dc.lft.to/lastmile_qr_scan"}, "fusion_lon": 0.0, "lon": -77.02228733333334, "name": "15a3eb0d8b64e21736e9b7776d5d97f7", "is_reserved": 0, "is_disabled": 0}, {"lat": 38.905106, "fusion_lat": 0.0, "type": "electric_scooter", "bike_id": "f91d01382773cd93846d0942b0a654de", "rental_uris": {"ios": "https://dc.lft.to/lastmile_qr_scan", "android": "https://dc.lft.to/lastmile_qr_scan"}, "fusion_lon": 0.0, "lon": -77.06468483333333, "name": "f91d01382773cd93846d0942b0a654de", "is_reserved": 0, "is_disabled": 0}, {"lat": 38.918104, "fusion_lat": 0.0, "type": "electric_scooter", "bike_id": "65ce1e2b92a83e7699915d02a905edb5", "rental_uris": {"ios": "https://dc.lft.to/lastmile_qr_scan", "android": "https://dc.lft.to/lastmile_qr_scan"}, "fusion_lon": 0.0, "lon": -77.03470783333333, "name": "65ce1e2b92a83e7699915d02a905edb5", "is_reserved": 0, "is_disabled": 0}, {"lat": 38.910961, "fusion_lat": 0.0, "type": "electric_scooter", "bike_id": "d3151d93199f537705fd3e9a01cf2975", "rental_uris": {"ios": "https://dc.lft.to/lastmile_qr_scan", "android": "https://dc.lft.to/lastmile_qr_scan"}, "fusion_lon": 0.0, "lon": -77.044985, "name": "d3151d93199f537705fd3e9a01cf2975", "is_reserved": 0, "is_disabled": 0}, {"lat": 38.922359166666666, "fusion_lat": 0.0, "type": "electric_scooter", "bike_id": "8324c23de2a806fc2f0269e1d945f267", "rental_uris": {"ios": "https://dc.lft.to/lastmile_qr_scan", "android": "https://dc.lft.to/lastmile_qr_scan"}, "fusion_lon": 0.0, "lon": -77.01826816666667, "name": "8324c23de2a806fc2f0269e1d945f267", "is_reserved": 0, "is_disabled": 0}, {"lat": 38.910038166666666, "fusion_lat": 0.0, "type": "electric_scooter", "bike_id": "0984bebaa3a0aaf7e63ff1fac3503928", "rental_uris": {"ios": "https://dc.lft.to/lastmile_qr_scan", "android": "https://dc.lft.to/lastmile_qr_scan"}, "fusion_lon": 0.0, "lon": -77.0343995, "name": "0984bebaa3a0aaf7e63ff1fac3503928", "is_reserved": 0, "is_disabled": 0}, {"lat": 38.90027416666667, "fusion_lat": 0.0, "type": "electric_scooter", "bike_id": "d2d2385bf2f7418726f79005646c3fcd", "rental_uris": {"ios": "https://dc.lft.to/lastmile_qr_scan", "android": "https://dc.lft.to/lastmile_qr_scan"}, "fusion_lon": 0.0, "lon": -76.9976815, "name": "d2d2385bf2f7418726f79005646c3fcd", "is_reserved": 0, "is_disabled": 0}, {"lat": 38.93905566666667, "fusion_lat": 0.0, "type": "electric_scooter", "bike_id": "ad77f6da382764bd69a75448396ddd25", "rental_uris": {"ios": "https://dc.lft.to/lastmile_qr_scan", "android": "https://dc.lft.to/lastmile_qr_scan"}, "fusion_lon": 0.0, "lon": -77.0249135, "name": "ad77f6da382764bd69a75448396ddd25", "is_reserved": 0, "is_disabled": 0}, {"lat": 38.9042925, "fusion_lat": 0.0, "type": "electric_scooter", "bike_id": "9d225d1e5ed618ee4fd6d2902553026f", "rental_uris": {"ios": "https://dc.lft.to/lastmile_qr_scan", "android": "https://dc.lft.to/lastmile_qr_scan"}, "fusion_lon": 0.0, "lon": -76.98356066666666, "name": "9d225d1e5ed618ee4fd6d2902553026f", "is_reserved": 0, "is_disabled": 0}, {"lat": 38.92343916666667, "fusion_lat": 0.0, "type": "electric_scooter", "bike_id": "b3a922b7a2e7daf06aaeec8637dfe3e8", "rental_uris": {"ios": "https://dc.lft.to/lastmile_qr_scan", "android": "https://dc.lft.to/lastmile_qr_scan"}, "fusion_lon": 0.0, "lon": -77.0517795, "name": "b3a922b7a2e7daf06aaeec8637dfe3e8", "is_reserved": 0, "is_disabled": 0}, {"lat": 38.955282833333335, "fusion_lat": 0.0, "type": "electric_bike", "bike_id": "3f8ae46e8d20cec55cd7197b3e649051", "rental_uris": {"ios": "https://dc.lft.to/lastmile_qr_scan", "android": "https://dc.lft.to/lastmile_qr_scan"}, "fusion_lon": 0.0, "lon": -77.02218533333334, "name": "3f8ae46e8d20cec55cd7197b3e649051", "is_reserved": 0, "is_disabled": 0}, {"lat": 38.89645816666667, "fusion_lat": 0.0, "type": "electric_scooter", "bike_id": "bd00212b179d8e209a2dffd8dbf5824f", "rental_uris": {"ios": "https://dc.lft.to/lastmile_qr_scan", "android": "https://dc.lft.to/lastmile_qr_scan"}, "fusion_lon": 0.0, "lon": -77.009247, "name": "bd00212b179d8e209a2dffd8dbf5824f", "is_reserved": 0, "is_disabled": 0}, {"lat": 38.901345, "fusion_lat": 0.0, "type": "electric_scooter", "bike_id": "59c157f85292e2695c0110a56cf542bc", "rental_uris": {"ios": "https://dc.lft.to/lastmile_qr_scan", "android": "https://dc.lft.to/lastmile_qr_scan"}, "fusion_lon": 0.0, "lon": -77.04423783333333, "name": "59c157f85292e2695c0110a56cf542bc", "is_reserved": 0, "is_disabled": 0}, {"lat": 38.9171195, "fusion_lat": 0.0, "type": "electric_scooter", "bike_id": "b2df9778aaf256bb092bc9a61e1d7414", "rental_uris": {"ios": "https://dc.lft.to/lastmile_qr_scan", "android": "https://dc.lft.to/lastmile_qr_scan"}, "fusion_lon": 0.0, "lon": -77.02426866666667, "name": "b2df9778aaf256bb092bc9a61e1d7414", "is_reserved": 0, "is_disabled": 0}, {"lat": 38.894707833333335, "fusion_lat": 0.0, "type": "electric_scooter", "bike_id": "a4b9aefe38384bf46357074c0bebce1e", "rental_uris": {"ios": "https://dc.lft.to/lastmile_qr_scan", "android": "https://dc.lft.to/lastmile_qr_scan"}, "fusion_lon": 0.0, "lon": -77.02256916666667, "name": "a4b9aefe38384bf46357074c0bebce1e", "is_reserved": 0, "is_disabled": 0}, {"lat": 38.91745733333333, "fusion_lat": 0.0, "type": "electric_scooter", "bike_id": "8bb3cfd0a98eb65dac835605839dc60f", "rental_uris": {"ios": "https://dc.lft.to/lastmile_qr_scan", "android": "https://dc.lft.to/lastmile_qr_scan"}, "fusion_lon": 0.0, "lon": -77.03190183333334, "name": "8bb3cfd0a98eb65dac835605839dc60f", "is_reserved": 0, "is_disabled": 0}, {"lat": 38.9072525, "fusion_lat": 0.0, "type": "electric_scooter", "bike_id": "cc738dbdffe6699d23e7d9cc14fd5bf0", "rental_uris": {"ios": "https://dc.lft.to/lastmile_qr_scan", "android": "https://dc.lft.to/lastmile_qr_scan"}, "fusion_lon": 0.0, "lon": -77.04243333333334, "name": "cc738dbdffe6699d23e7d9cc14fd5bf0", "is_reserved": 0, "is_disabled": 0}, {"lat": 38.92753733333333, "fusion_lat": 0.0, "type": "electric_scooter", "bike_id": "af76531f733907625e9cc4df8b8e493a", "rental_uris": {"ios": "https://dc.lft.to/lastmile_qr_scan", "android": "https://dc.lft.to/lastmile_qr_scan"}, "fusion_lon": 0.0, "lon": -77.02146883333333, "name": "af76531f733907625e9cc4df8b8e493a", "is_reserved": 0, "is_disabled": 0}, {"lat": 38.91474766666666, "fusion_lat": 0.0, "type": "electric_scooter", "bike_id": "141f53c6894ff04871e9680b0f004a6f", "rental_uris": {"ios": "https://dc.lft.to/lastmile_qr_scan", "android": "https://dc.lft.to/lastmile_qr_scan"}, "fusion_lon": 0.0, "lon": -77.04615016666666, "name": "141f53c6894ff04871e9680b0f004a6f", "is_reserved": 0, "is_disabled": 0}, {"lat": 38.89728483333333, "fusion_lat": 0.0, "type": "electric_scooter", "bike_id": "032d5167391a161eb7973659c7ca1d68", "rental_uris": {"ios": "https://dc.lft.to/lastmile_qr_scan", "android": "https://dc.lft.to/lastmile_qr_scan"}, "fusion_lon": 0.0, "lon": -77.05528983333333, "name": "032d5167391a161eb7973659c7ca1d68", "is_reserved": 0, "is_disabled": 0}, {"lat": 38.905235, "fusion_lat": 0.0, "type": "electric_scooter", "bike_id": "ec5084d57f7e8f9de377399339061f7f", "rental_uris": {"ios": "https://dc.lft.to/lastmile_qr_scan", "android": "https://dc.lft.to/lastmile_qr_scan"}, "fusion_lon": 0.0, "lon": -77.06448266666666, "name": "ec5084d57f7e8f9de377399339061f7f", "is_reserved": 0, "is_disabled": 0}, {"lat": 38.90969333333334, "fusion_lat": 0.0, "type": "electric_scooter", "bike_id": "4b8285098bc4526673f3ad8ae5f77606", "rental_uris": {"ios": "https://dc.lft.to/lastmile_qr_scan", "android": "https://dc.lft.to/lastmile_qr_scan"}, "fusion_lon": 0.0, "lon": -77.04876483333334, "name": "4b8285098bc4526673f3ad8ae5f77606", "is_reserved": 0, "is_disabled": 0}, {"lat": 38.91919816666667, "fusion_lat": 0.0, "type": "electric_scooter", "bike_id": "f37a0445cd2bd7cd61ce8721e28da51d", "rental_uris": {"ios": "https://dc.lft.to/lastmile_qr_scan", "android": "https://dc.lft.to/lastmile_qr_scan"}, "fusion_lon": 0.0, "lon": -77.034284, "name": "f37a0445cd2bd7cd61ce8721e28da51d", "is_reserved": 0, "is_disabled": 0}, {"lat": 38.877041166666665, "fusion_lat": 0.0, "type": "electric_scooter", "bike_id": "2154f0bb268ac1867ffac5d7a57ba424", "rental_uris": {"ios": "https://dc.lft.to/lastmile_qr_scan", "android": "https://dc.lft.to/lastmile_qr_scan"}, "fusion_lon": 0.0, "lon": -76.99699966666667, "name": "2154f0bb268ac1867ffac5d7a57ba424", "is_reserved": 0, "is_disabled": 0}, {"lat": 38.92026633333333, "fusion_lat": 0.0, "type": "electric_scooter", "bike_id": "3918e195fe65ebdc00157e28951dd678", "rental_uris": {"ios": "https://dc.lft.to/lastmile_qr_scan", "android": "https://dc.lft.to/lastmile_qr_scan"}, "fusion_lon": 0.0, "lon": -77.07153083333333, "name": "3918e195fe65ebdc00157e28951dd678", "is_reserved": 0, "is_disabled": 0}, {"lat": 38.922526500000004, "fusion_lat": 0.0, "type": "electric_scooter", "bike_id": "4c47e60fbc86fb0eca121e43f16e2bb5", "rental_uris": {"ios": "https://dc.lft.to/lastmile_qr_scan", "android": "https://dc.lft.to/lastmile_qr_scan"}, "fusion_lon": 0.0, "lon": -77.0191295, "name": "4c47e60fbc86fb0eca121e43f16e2bb5", "is_reserved": 0, "is_disabled": 0}, {"lat": 38.892156, "fusion_lat": 0.0, "type": "electric_scooter", "bike_id": "691e7781c2a6204db4330878f332d2f2", "rental_uris": {"ios": "https://dc.lft.to/lastmile_qr_scan", "android": "https://dc.lft.to/lastmile_qr_scan"}, "fusion_lon": 0.0, "lon": -77.02629333333333, "name": "691e7781c2a6204db4330878f332d2f2", "is_reserved": 0, "is_disabled": 0}, {"lat": 38.91652533333333, "fusion_lat": 0.0, "type": "electric_scooter", "bike_id": "770121acbaeaa68e9cc6bd71d8a76710", "rental_uris": {"ios": "https://dc.lft.to/lastmile_qr_scan", "android": "https://dc.lft.to/lastmile_qr_scan"}, "fusion_lon": 0.0, "lon": -77.04171366666667, "name": "770121acbaeaa68e9cc6bd71d8a76710", "is_reserved": 0, "is_disabled": 0}, {"lat": 38.887661, "fusion_lat": 0.0, "type": "electric_scooter", "bike_id": "911a2d96982f7e1bbdb69aac17feb188", "rental_uris": {"ios": "https://dc.lft.to/lastmile_qr_scan", "android": "https://dc.lft.to/lastmile_qr_scan"}, "fusion_lon": 0.0, "lon": -77.02237933333333, "name": "911a2d96982f7e1bbdb69aac17feb188", "is_reserved": 0, "is_disabled": 0}, {"lat": 38.92445816666667, "fusion_lat": 0.0, "type": "electric_scooter", "bike_id": "2589cb08b2605d3c8c2bf51ce9abfcb8", "rental_uris": {"ios": "https://dc.lft.to/lastmile_qr_scan", "android": "https://dc.lft.to/lastmile_qr_scan"}, "fusion_lon": 0.0, "lon": -77.02146416666666, "name": "2589cb08b2605d3c8c2bf51ce9abfcb8", "is_reserved": 0, "is_disabled": 0}, {"lat": 38.90309583333333, "fusion_lat": 0.0, "type": "electric_scooter", "bike_id": "acb897019761585f9adb9ae92a34b703", "rental_uris": {"ios": "https://dc.lft.to/lastmile_qr_scan", "android": "https://dc.lft.to/lastmile_qr_scan"}, "fusion_lon": 0.0, "lon": -76.97796466666667, "name": "acb897019761585f9adb9ae92a34b703", "is_reserved": 0, "is_disabled": 0}, {"lat": 38.896079, "fusion_lat": 0.0, "type": "electric_scooter", "bike_id": "947b4e3765697e99b6d66d1281437ff5", "rental_uris": {"ios": "https://dc.lft.to/lastmile_qr_scan", "android": "https://dc.lft.to/lastmile_qr_scan"}, "fusion_lon": 0.0, "lon": -77.00218833333334, "name": "947b4e3765697e99b6d66d1281437ff5", "is_reserved": 0, "is_disabled": 0}, {"lat": 38.87221533333334, "fusion_lat": 0.0, "type": "electric_scooter", "bike_id": "43264fd159d0bc938ec1683263206a7f", "rental_uris": {"ios": "https://dc.lft.to/lastmile_qr_scan", "android": "https://dc.lft.to/lastmile_qr_scan"}, "fusion_lon": 0.0, "lon": -77.01224083333334, "name": "43264fd159d0bc938ec1683263206a7f", "is_reserved": 0, "is_disabled": 0}, {"lat": 38.95087, "fusion_lat": 0.0, "type": "electric_scooter", "bike_id": "8d7182da2285a68e28449949c19ff128", "rental_uris": {"ios": "https://dc.lft.to/lastmile_qr_scan", "android": "https://dc.lft.to/lastmile_qr_scan"}, "fusion_lon": 0.0, "lon": -77.03158916666666, "name": "8d7182da2285a68e28449949c19ff128", "is_reserved": 0, "is_disabled": 0}, {"lat": 38.903847166666665, "fusion_lat": 0.0, "type": "electric_scooter", "bike_id": "ef39b1a46d20f9e7aec77f3b15d9f3b2", "rental_uris": {"ios": "https://dc.lft.to/lastmile_qr_scan", "android": "https://dc.lft.to/lastmile_qr_scan"}, "fusion_lon": 0.0, "lon": -77.06808883333333, "name": "ef39b1a46d20f9e7aec77f3b15d9f3b2", "is_reserved": 0, "is_disabled": 0}, {"lat": 38.926012166666666, "fusion_lat": 0.0, "type": "electric_scooter", "bike_id": "0f76e875679f127af7ab08f28f009792", "rental_uris": {"ios": "https://dc.lft.to/lastmile_qr_scan", "android": "https://dc.lft.to/lastmile_qr_scan"}, "fusion_lon": 0.0, "lon": -77.021616, "name": "0f76e875679f127af7ab08f28f009792", "is_reserved": 0, "is_disabled": 0}, {"lat": 38.90445733333333, "fusion_lat": 0.0, "type": "electric_scooter", "bike_id": "367d3bae8a55cffc9e22af67cb815a81", "rental_uris": {"ios": "https://dc.lft.to/lastmile_qr_scan", "android": "https://dc.lft.to/lastmile_qr_scan"}, "fusion_lon": 0.0, "lon": -77.05851233333334, "name": "367d3bae8a55cffc9e22af67cb815a81", "is_reserved": 0, "is_disabled": 0}, {"lat": 38.89684333333334, "fusion_lat": 0.0, "type": "electric_bike", "bike_id": "1b44bf59981f54326ae1750e479a404b", "rental_uris": {"ios": "https://dc.lft.to/lastmile_qr_scan", "android": "https://dc.lft.to/lastmile_qr_scan"}, "fusion_lon": 0.0, "lon": -77.00603383333333, "name": "1b44bf59981f54326ae1750e479a404b", "is_reserved": 0, "is_disabled": 0}, {"lat": 38.924981833333334, "fusion_lat": 0.0, "type": "electric_scooter", "bike_id": "1792a9d524341d99962565704ba96b8b", "rental_uris": {"ios": "https://dc.lft.to/lastmile_qr_scan", "android": "https://dc.lft.to/lastmile_qr_scan"}, "fusion_lon": 0.0, "lon": -77.024016, "name": "1792a9d524341d99962565704ba96b8b", "is_reserved": 0, "is_disabled": 0}, {"lat": 38.91564366666667, "fusion_lat": 0.0, "type": "electric_scooter", "bike_id": "0aa5784de427e54371d61f0d4c5edd7e", "rental_uris": {"ios": "https://dc.lft.to/lastmile_qr_scan", "android": "https://dc.lft.to/lastmile_qr_scan"}, "fusion_lon": 0.0, "lon": -77.031985, "name": "0aa5784de427e54371d61f0d4c5edd7e", "is_reserved": 0, "is_disabled": 0}, {"lat": 38.8482395, "fusion_lat": 0.0, "type": "electric_bike", "bike_id": "1700e5234be439b7587694fdd1efc528", "rental_uris": {"ios": "https://dc.lft.to/lastmile_qr_scan", "android": "https://dc.lft.to/lastmile_qr_scan"}, "fusion_lon": 0.0, "lon": -77.07909033333334, "name": "1700e5234be439b7587694fdd1efc528", "is_reserved": 0, "is_disabled": 0}, {"lat": 38.902678, "fusion_lat": 0.0, "type": "electric_scooter", "bike_id": "72ab0a0747c9afbddc105a794523960a", "rental_uris": {"ios": "https://dc.lft.to/lastmile_qr_scan", "android": "https://dc.lft.to/lastmile_qr_scan"}, "fusion_lon": 0.0, "lon": -77.03859866666667, "name": "72ab0a0747c9afbddc105a794523960a", "is_reserved": 0, "is_disabled": 0}, {"lat": 38.9273895, "fusion_lat": 0.0, "type": "electric_scooter", "bike_id": "febb2db56fc524fa72fe320e5f0cd43a", "rental_uris": {"ios": "https://dc.lft.to/lastmile_qr_scan", "android": "https://dc.lft.to/lastmile_qr_scan"}, "fusion_lon": 0.0, "lon": -77.03264166666666, "name": "febb2db56fc524fa72fe320e5f0cd43a", "is_reserved": 0, "is_disabled": 0}, {"lat": 38.88256066666667, "fusion_lat": 0.0, "type": "electric_scooter", "bike_id": "ab478f2c896468b7191a4293b33df999", "rental_uris": {"ios": "https://dc.lft.to/lastmile_qr_scan", "android": "https://dc.lft.to/lastmile_qr_scan"}, "fusion_lon": 0.0, "lon": -76.996123, "name": "ab478f2c896468b7191a4293b33df999", "is_reserved": 0, "is_disabled": 0}, {"lat": 38.90017666666667, "fusion_lat": 0.0, "type": "electric_scooter", "bike_id": "37f4ce930dce389ac09b9905d54ab0ea", "rental_uris": {"ios": "https://dc.lft.to/lastmile_qr_scan", "android": "https://dc.lft.to/lastmile_qr_scan"}, "fusion_lon": 0.0, "lon": -77.00154966666666, "name": "37f4ce930dce389ac09b9905d54ab0ea", "is_reserved": 0, "is_disabled": 0}, {"lat": 38.90775683333333, "fusion_lat": 0.0, "type": "electric_scooter", "bike_id": "9cd2a9c735c2264fe4921e148a487934", "rental_uris": {"ios": "https://dc.lft.to/lastmile_qr_scan", "android": "https://dc.lft.to/lastmile_qr_scan"}, "fusion_lon": 0.0, "lon": -77.029501, "name": "9cd2a9c735c2264fe4921e148a487934", "is_reserved": 0, "is_disabled": 0}, {"lat": 38.862115, "fusion_lat": 0.0, "type": "electric_scooter", "bike_id": "98210975eef1d6f09a7fe8aec38f702d", "rental_uris": {"ios": "https://dc.lft.to/lastmile_qr_scan", "android": "https://dc.lft.to/lastmile_qr_scan"}, "fusion_lon": 0.0, "lon": -76.99445, "name": "98210975eef1d6f09a7fe8aec38f702d", "is_reserved": 0, "is_disabled": 0}, {"lat": 38.917122166666665, "fusion_lat": 0.0, "type": "electric_scooter", "bike_id": "7c1183efa28e30dbc6c4c42ac5715d4a", "rental_uris": {"ios": "https://dc.lft.to/lastmile_qr_scan", "android": "https://dc.lft.to/lastmile_qr_scan"}, "fusion_lon": 0.0, "lon": -77.0242625, "name": "7c1183efa28e30dbc6c4c42ac5715d4a", "is_reserved": 0, "is_disabled": 0}, {"lat": 38.899514333333336, "fusion_lat": 0.0, "type": "electric_scooter", "bike_id": "fcb8b00108c58e6308d9802ee7154f8d", "rental_uris": {"ios": "https://dc.lft.to/lastmile_qr_scan", "android": "https://dc.lft.to/lastmile_qr_scan"}, "fusion_lon": 0.0, "lon": -77.0450945, "name": "fcb8b00108c58e6308d9802ee7154f8d", "is_reserved": 0, "is_disabled": 0}, {"lat": 38.948833, "fusion_lat": 0.0, "type": "electric_scooter", "bike_id": "77fb1c76822be098258501dc8170f5e3", "rental_uris": {"ios": "https://dc.lft.to/lastmile_qr_scan", "android": "https://dc.lft.to/lastmile_qr_scan"}, "fusion_lon": 0.0, "lon": -77.01858383333334, "name": "77fb1c76822be098258501dc8170f5e3", "is_reserved": 0, "is_disabled": 0}, {"lat": 38.90727566666666, "fusion_lat": 0.0, "type": "electric_scooter", "bike_id": "668a2eb80372b10e396dea43989b19c5", "rental_uris": {"ios": "https://dc.lft.to/lastmile_qr_scan", "android": "https://dc.lft.to/lastmile_qr_scan"}, "fusion_lon": 0.0, "lon": -77.0112995, "name": "668a2eb80372b10e396dea43989b19c5", "is_reserved": 0, "is_disabled": 0}, {"lat": 38.924196, "fusion_lat": 0.0, "type": "electric_scooter", "bike_id": "d473db058992fbef849575927be81726", "rental_uris": {"ios": "https://dc.lft.to/lastmile_qr_scan", "android": "https://dc.lft.to/lastmile_qr_scan"}, "fusion_lon": 0.0, "lon": -77.02031616666666, "name": "d473db058992fbef849575927be81726", "is_reserved": 0, "is_disabled": 0}, {"lat": 38.877083999999996, "fusion_lat": 0.0, "type": "electric_scooter", "bike_id": "2fc79d5167388dd5cc356b5ad5932128", "rental_uris": {"ios": "https://dc.lft.to/lastmile_qr_scan", "android": "https://dc.lft.to/lastmile_qr_scan"}, "fusion_lon": 0.0, "lon": -77.01763416666667, "name": "2fc79d5167388dd5cc356b5ad5932128", "is_reserved": 0, "is_disabled": 0}, {"lat": 38.90005816666667, "fusion_lat": 0.0, "type": "electric_scooter", "bike_id": "259bb91086ff5008bbd69a04dc37c39b", "rental_uris": {"ios": "https://dc.lft.to/lastmile_qr_scan", "android": "https://dc.lft.to/lastmile_qr_scan"}, "fusion_lon": 0.0, "lon": -77.0065955, "name": "259bb91086ff5008bbd69a04dc37c39b", "is_reserved": 0, "is_disabled": 0}, {"lat": 38.911976833333334, "fusion_lat": 0.0, "type": "electric_scooter", "bike_id": "a82f00e57281a7551f33d11660920bfc", "rental_uris": {"ios": "https://dc.lft.to/lastmile_qr_scan", "android": "https://dc.lft.to/lastmile_qr_scan"}, "fusion_lon": 0.0, "lon": -77.04540333333334, "name": "a82f00e57281a7551f33d11660920bfc", "is_reserved": 0, "is_disabled": 0}, {"lat": 38.937673833333335, "fusion_lat": 0.0, "type": "electric_scooter", "bike_id": "16cc0fcc22ba397d39e934178d6cf91e", "rental_uris": {"ios": "https://dc.lft.to/lastmile_qr_scan", "android": "https://dc.lft.to/lastmile_qr_scan"}, "fusion_lon": 0.0, "lon": -77.03289516666666, "name": "16cc0fcc22ba397d39e934178d6cf91e", "is_reserved": 0, "is_disabled": 0}, {"lat": 38.92261383333334, "fusion_lat": 0.0, "type": "electric_scooter", "bike_id": "260bc6717f6d582fa385e1cbde93de62", "rental_uris": {"ios": "https://dc.lft.to/lastmile_qr_scan", "android": "https://dc.lft.to/lastmile_qr_scan"}, "fusion_lon": 0.0, "lon": -77.0296755, "name": "260bc6717f6d582fa385e1cbde93de62", "is_reserved": 0, "is_disabled": 0}, {"lat": 38.897549833333336, "fusion_lat": 0.0, "type": "electric_scooter", "bike_id": "c54821344fe373296bb7d6cdef564db2", "rental_uris": {"ios": "https://dc.lft.to/lastmile_qr_scan", "android": "https://dc.lft.to/lastmile_qr_scan"}, "fusion_lon": 0.0, "lon": -76.98645433333333, "name": "c54821344fe373296bb7d6cdef564db2", "is_reserved": 0, "is_disabled": 0}, {"lat": 38.9011105, "fusion_lat": 0.0, "type": "electric_scooter", "bike_id": "30b8c5df5ee39e4999bdb5efec92694f", "rental_uris": {"ios": "https://dc.lft.to/lastmile_qr_scan", "android": "https://dc.lft.to/lastmile_qr_scan"}, "fusion_lon": 0.0, "lon": -77.0255155, "name": "30b8c5df5ee39e4999bdb5efec92694f", "is_reserved": 0, "is_disabled": 0}, {"lat": 38.90750416666667, "fusion_lat": 0.0, "type": "electric_scooter", "bike_id": "22d7d941dbf5e515fcfed7e39acf503d", "rental_uris": {"ios": "https://dc.lft.to/lastmile_qr_scan", "android": "https://dc.lft.to/lastmile_qr_scan"}, "fusion_lon": 0.0, "lon": -77.02591716666667, "name": "22d7d941dbf5e515fcfed7e39acf503d", "is_reserved": 0, "is_disabled": 0}, {"lat": 38.906693833333335, "fusion_lat": 0.0, "type": "electric_scooter", "bike_id": "06f6a6090fc4410424d6f9e7646cb363", "rental_uris": {"ios": "https://dc.lft.to/lastmile_qr_scan", "android": "https://dc.lft.to/lastmile_qr_scan"}, "fusion_lon": 0.0, "lon": -77.02714333333333, "name": "06f6a6090fc4410424d6f9e7646cb363", "is_reserved": 0, "is_disabled": 0}, {"lat": 38.8967115, "fusion_lat": 0.0, "type": "electric_scooter", "bike_id": "8587bb0ea4c5cb7b4d6fa7d668d5c4ac", "rental_uris": {"ios": "https://dc.lft.to/lastmile_qr_scan", "android": "https://dc.lft.to/lastmile_qr_scan"}, "fusion_lon": 0.0, "lon": -76.932095, "name": "8587bb0ea4c5cb7b4d6fa7d668d5c4ac", "is_reserved": 0, "is_disabled": 0}, {"lat": 38.90163733333333, "fusion_lat": 0.0, "type": "electric_scooter", "bike_id": "f74687e45beb71a8ec67404b75c7254f", "rental_uris": {"ios": "https://dc.lft.to/lastmile_qr_scan", "android": "https://dc.lft.to/lastmile_qr_scan"}, "fusion_lon": 0.0, "lon": -77.02706116666667, "name": "f74687e45beb71a8ec67404b75c7254f", "is_reserved": 0, "is_disabled": 0}, {"lat": 38.9083555, "fusion_lat": 0.0, "type": "electric_scooter", "bike_id": "d1dcff42ab6e0bbeedb70de83d15246a", "rental_uris": {"ios": "https://dc.lft.to/lastmile_qr_scan", "android": "https://dc.lft.to/lastmile_qr_scan"}, "fusion_lon": 0.0, "lon": -77.02395033333333, "name": "d1dcff42ab6e0bbeedb70de83d15246a", "is_reserved": 0, "is_disabled": 0}, {"lat": 38.900273, "fusion_lat": 0.0, "type": "electric_scooter", "bike_id": "b83231f7e230f95334cfd4f17dc6b034", "rental_uris": {"ios": "https://dc.lft.to/lastmile_qr_scan", "android": "https://dc.lft.to/lastmile_qr_scan"}, "fusion_lon": 0.0, "lon": -77.0399295, "name": "b83231f7e230f95334cfd4f17dc6b034", "is_reserved": 0, "is_disabled": 0}, {"lat": 38.8876335, "fusion_lat": 0.0, "type": "electric_scooter", "bike_id": "e39c618b56af113f9ffc05cafef9500d", "rental_uris": {"ios": "https://dc.lft.to/lastmile_qr_scan", "android": "https://dc.lft.to/lastmile_qr_scan"}, "fusion_lon": 0.0, "lon": -76.98685983333333, "name": "e39c618b56af113f9ffc05cafef9500d", "is_reserved": 0, "is_disabled": 0}, {"lat": 38.8971355, "fusion_lat": 0.0, "type": "electric_scooter", "bike_id": "5edac4bdd9bd04823cc6b1117b69c01f", "rental_uris": {"ios": "https://dc.lft.to/lastmile_qr_scan", "android": "https://dc.lft.to/lastmile_qr_scan"}, "fusion_lon": 0.0, "lon": -77.00804583333333, "name": "5edac4bdd9bd04823cc6b1117b69c01f", "is_reserved": 0, "is_disabled": 0}, {"lat": 38.90074766666667, "fusion_lat": 0.0, "type": "electric_scooter", "bike_id": "134c3540d954884142e671fa826feab5", "rental_uris": {"ios": "https://dc.lft.to/lastmile_qr_scan", "android": "https://dc.lft.to/lastmile_qr_scan"}, "fusion_lon": 0.0, "lon": -77.04474483333334, "name": "134c3540d954884142e671fa826feab5", "is_reserved": 0, "is_disabled": 0}, {"lat": 38.9201205, "fusion_lat": 0.0, "type": "electric_scooter", "bike_id": "16b00f2ac1bfae5700e0c18769884295", "rental_uris": {"ios": "https://dc.lft.to/lastmile_qr_scan", "android": "https://dc.lft.to/lastmile_qr_scan"}, "fusion_lon": 0.0, "lon": -77.0218405, "name": "16b00f2ac1bfae5700e0c18769884295", "is_reserved": 0, "is_disabled": 0}, {"lat": 38.88541133333333, "fusion_lat": 0.0, "type": "electric_scooter", "bike_id": "74c29cdc21d50fff2aa98d9277c89aae", "rental_uris": {"ios": "https://dc.lft.to/lastmile_qr_scan", "android": "https://dc.lft.to/lastmile_qr_scan"}, "fusion_lon": 0.0, "lon": -76.97889533333333, "name": "74c29cdc21d50fff2aa98d9277c89aae", "is_reserved": 0, "is_disabled": 0}, {"lat": 38.89981016666667, "fusion_lat": 0.0, "type": "electric_scooter", "bike_id": "2603018936a0cfab2a2776b36057e3bb", "rental_uris": {"ios": "https://dc.lft.to/lastmile_qr_scan", "android": "https://dc.lft.to/lastmile_qr_scan"}, "fusion_lon": 0.0, "lon": -76.98557066666666, "name": "2603018936a0cfab2a2776b36057e3bb", "is_reserved": 0, "is_disabled": 0}, {"lat": 38.92543166666667, "fusion_lat": 0.0, "type": "electric_scooter", "bike_id": "6377378a5c6e45cfa09f303c2e73fa78", "rental_uris": {"ios": "https://dc.lft.to/lastmile_qr_scan", "android": "https://dc.lft.to/lastmile_qr_scan"}, "fusion_lon": 0.0, "lon": -77.0387205, "name": "6377378a5c6e45cfa09f303c2e73fa78", "is_reserved": 0, "is_disabled": 0}, {"lat": 38.914705, "fusion_lat": 0.0, "type": "electric_scooter", "bike_id": "23204f83305379543b4ca54d7552b475", "rental_uris": {"ios": "https://dc.lft.to/lastmile_qr_scan", "android": "https://dc.lft.to/lastmile_qr_scan"}, "fusion_lon": 0.0, "lon": -77.03208816666667, "name": "23204f83305379543b4ca54d7552b475", "is_reserved": 0, "is_disabled": 0}, {"lat": 38.909178833333335, "fusion_lat": 0.0, "type": "electric_scooter", "bike_id": "d37c60d1bc10ca0e39f6e585ad940372", "rental_uris": {"ios": "https://dc.lft.to/lastmile_qr_scan", "android": "https://dc.lft.to/lastmile_qr_scan"}, "fusion_lon": 0.0, "lon": -77.0395575, "name": "d37c60d1bc10ca0e39f6e585ad940372", "is_reserved": 0, "is_disabled": 0}, {"lat": 38.92444716666667, "fusion_lat": 0.0, "type": "electric_scooter", "bike_id": "a34fe95f45ebcf7e89c7c26bf4451643", "rental_uris": {"ios": "https://dc.lft.to/lastmile_qr_scan", "android": "https://dc.lft.to/lastmile_qr_scan"}, "fusion_lon": 0.0, "lon": -77.04024816666667, "name": "a34fe95f45ebcf7e89c7c26bf4451643", "is_reserved": 0, "is_disabled": 0}, {"lat": 38.922519333333334, "fusion_lat": 0.0, "type": "electric_scooter", "bike_id": "38030304e08a5097160f4c451197ee9b", "rental_uris": {"ios": "https://dc.lft.to/lastmile_qr_scan", "android": "https://dc.lft.to/lastmile_qr_scan"}, "fusion_lon": 0.0, "lon": -77.0211175, "name": "38030304e08a5097160f4c451197ee9b", "is_reserved": 0, "is_disabled": 0}, {"lat": 38.8901345, "fusion_lat": 0.0, "type": "electric_scooter", "bike_id": "a3a25174f7f854f95aef5c18c463dfd0", "rental_uris": {"ios": "https://dc.lft.to/lastmile_qr_scan", "android": "https://dc.lft.to/lastmile_qr_scan"}, "fusion_lon": 0.0, "lon": -76.93738716666667, "name": "a3a25174f7f854f95aef5c18c463dfd0", "is_reserved": 0, "is_disabled": 0}, {"lat": 38.897886, "fusion_lat": 0.0, "type": "electric_scooter", "bike_id": "d46cb82eea58e6078ba1b008f4fd735d", "rental_uris": {"ios": "https://dc.lft.to/lastmile_qr_scan", "android": "https://dc.lft.to/lastmile_qr_scan"}, "fusion_lon": 0.0, "lon": -77.00915133333334, "name": "d46cb82eea58e6078ba1b008f4fd735d", "is_reserved": 0, "is_disabled": 0}, {"lat": 38.96468733333333, "fusion_lat": 0.0, "type": "electric_bike", "bike_id": "1af936e2cf676ef2162f7c102db07b4d", "rental_uris": {"ios": "https://dc.lft.to/lastmile_qr_scan", "android": "https://dc.lft.to/lastmile_qr_scan"}, "fusion_lon": 0.0, "lon": -77.03567, "name": "1af936e2cf676ef2162f7c102db07b4d", "is_reserved": 0, "is_disabled": 0}, {"lat": 38.9222935, "fusion_lat": 0.0, "type": "electric_scooter", "bike_id": "e057465b3994a8041c02f5947db5e072", "rental_uris": {"ios": "https://dc.lft.to/lastmile_qr_scan", "android": "https://dc.lft.to/lastmile_qr_scan"}, "fusion_lon": 0.0, "lon": -77.0211565, "name": "e057465b3994a8041c02f5947db5e072", "is_reserved": 0, "is_disabled": 0}, {"lat": 38.909546666666664, "fusion_lat": 0.0, "type": "electric_scooter", "bike_id": "1fc7a934cf0a9e59dc18ad7427ef77d8", "rental_uris": {"ios": "https://dc.lft.to/lastmile_qr_scan", "android": "https://dc.lft.to/lastmile_qr_scan"}, "fusion_lon": 0.0, "lon": -77.044199, "name": "1fc7a934cf0a9e59dc18ad7427ef77d8", "is_reserved": 0, "is_disabled": 0}, {"lat": 38.922554166666664, "fusion_lat": 0.0, "type": "electric_scooter", "bike_id": "9b18765788f64394b326406c9c76c044", "rental_uris": {"ios": "https://dc.lft.to/lastmile_qr_scan", "android": "https://dc.lft.to/lastmile_qr_scan"}, "fusion_lon": 0.0, "lon": -77.0211235, "name": "9b18765788f64394b326406c9c76c044", "is_reserved": 0, "is_disabled": 0}, {"lat": 38.9112915, "fusion_lat": 0.0, "type": "electric_scooter", "bike_id": "c9df2dfa4cfee94bb41925f2c231e6a1", "rental_uris": {"ios": "https://dc.lft.to/lastmile_qr_scan", "android": "https://dc.lft.to/lastmile_qr_scan"}, "fusion_lon": 0.0, "lon": -77.03756833333334, "name": "c9df2dfa4cfee94bb41925f2c231e6a1", "is_reserved": 0, "is_disabled": 0}, {"lat": 38.884108166666664, "fusion_lat": 0.0, "type": "electric_scooter", "bike_id": "0b07f636230a177c088aec87a4955fa2", "rental_uris": {"ios": "https://dc.lft.to/lastmile_qr_scan", "android": "https://dc.lft.to/lastmile_qr_scan"}, "fusion_lon": 0.0, "lon": -76.94210783333334, "name": "0b07f636230a177c088aec87a4955fa2", "is_reserved": 0, "is_disabled": 0}, {"lat": 38.9234335, "fusion_lat": 0.0, "type": "electric_scooter", "bike_id": "99f7084a96a4e13776ac6bad3704eb30", "rental_uris": {"ios": "https://dc.lft.to/lastmile_qr_scan", "android": "https://dc.lft.to/lastmile_qr_scan"}, "fusion_lon": 0.0, "lon": -77.051733, "name": "99f7084a96a4e13776ac6bad3704eb30", "is_reserved": 0, "is_disabled": 0}, {"lat": 38.887302, "fusion_lat": 0.0, "type": "electric_scooter", "bike_id": "d3003f30a3361921ca30fe413c8d0872", "rental_uris": {"ios": "https://dc.lft.to/lastmile_qr_scan", "android": "https://dc.lft.to/lastmile_qr_scan"}, "fusion_lon": 0.0, "lon": -76.9835955, "name": "d3003f30a3361921ca30fe413c8d0872", "is_reserved": 0, "is_disabled": 0}, {"lat": 38.9024055, "fusion_lat": 0.0, "type": "electric_scooter", "bike_id": "c0e5e5a82070cb61b6165960c7400730", "rental_uris": {"ios": "https://dc.lft.to/lastmile_qr_scan", "android": "https://dc.lft.to/lastmile_qr_scan"}, "fusion_lon": 0.0, "lon": -77.05344933333333, "name": "c0e5e5a82070cb61b6165960c7400730", "is_reserved": 0, "is_disabled": 0}, {"lat": 38.906376, "fusion_lat": 0.0, "type": "electric_scooter", "bike_id": "a3b4b46b3882588b875bf67041cfa68d", "rental_uris": {"ios": "https://dc.lft.to/lastmile_qr_scan", "android": "https://dc.lft.to/lastmile_qr_scan"}, "fusion_lon": 0.0, "lon": -77.03847133333333, "name": "a3b4b46b3882588b875bf67041cfa68d", "is_reserved": 0, "is_disabled": 0}, {"lat": 38.91089733333333, "fusion_lat": 0.0, "type": "electric_scooter", "bike_id": "752140cb3f1521e8ee30a7fe0afd2e14", "rental_uris": {"ios": "https://dc.lft.to/lastmile_qr_scan", "android": "https://dc.lft.to/lastmile_qr_scan"}, "fusion_lon": 0.0, "lon": -77.07347566666667, "name": "752140cb3f1521e8ee30a7fe0afd2e14", "is_reserved": 0, "is_disabled": 0}, {"lat": 38.913948500000004, "fusion_lat": 0.0, "type": "electric_scooter", "bike_id": "9fbca861d13ab03602715088d768d1a2", "rental_uris": {"ios": "https://dc.lft.to/lastmile_qr_scan", "android": "https://dc.lft.to/lastmile_qr_scan"}, "fusion_lon": 0.0, "lon": -77.03210283333334, "name": "9fbca861d13ab03602715088d768d1a2", "is_reserved": 0, "is_disabled": 0}, {"lat": 38.924616666666665, "fusion_lat": 0.0, "type": "electric_scooter", "bike_id": "63d7d38e03b1d3485297f93b81c7bda5", "rental_uris": {"ios": "https://dc.lft.to/lastmile_qr_scan", "android": "https://dc.lft.to/lastmile_qr_scan"}, "fusion_lon": 0.0, "lon": -77.02247216666666, "name": "63d7d38e03b1d3485297f93b81c7bda5", "is_reserved": 0, "is_disabled": 0}, {"lat": 38.91911316666667, "fusion_lat": 0.0, "type": "electric_scooter", "bike_id": "903fe9628e9af2433d4690642515bfd1", "rental_uris": {"ios": "https://dc.lft.to/lastmile_qr_scan", "android": "https://dc.lft.to/lastmile_qr_scan"}, "fusion_lon": 0.0, "lon": -77.044833, "name": "903fe9628e9af2433d4690642515bfd1", "is_reserved": 0, "is_disabled": 0}, {"lat": 38.90384433333333, "fusion_lat": 0.0, "type": "electric_scooter", "bike_id": "af2f8b6790e3a06a985d6d58c046eeed", "rental_uris": {"ios": "https://dc.lft.to/lastmile_qr_scan", "android": "https://dc.lft.to/lastmile_qr_scan"}, "fusion_lon": 0.0, "lon": -76.98953816666666, "name": "af2f8b6790e3a06a985d6d58c046eeed", "is_reserved": 0, "is_disabled": 0}, {"lat": 38.90107966666667, "fusion_lat": 0.0, "type": "electric_scooter", "bike_id": "47b4a80a94d2c7e984ac9cf78c8ab088", "rental_uris": {"ios": "https://dc.lft.to/lastmile_qr_scan", "android": "https://dc.lft.to/lastmile_qr_scan"}, "fusion_lon": 0.0, "lon": -77.04995566666666, "name": "47b4a80a94d2c7e984ac9cf78c8ab088", "is_reserved": 0, "is_disabled": 0}, {"lat": 38.92417666666667, "fusion_lat": 0.0, "type": "electric_scooter", "bike_id": "60b6ee5d9dc476d4b83bd0b3b612f3ce", "rental_uris": {"ios": "https://dc.lft.to/lastmile_qr_scan", "android": "https://dc.lft.to/lastmile_qr_scan"}, "fusion_lon": 0.0, "lon": -77.057597, "name": "60b6ee5d9dc476d4b83bd0b3b612f3ce", "is_reserved": 0, "is_disabled": 0}, {"lat": 38.931624, "fusion_lat": 0.0, "type": "electric_scooter", "bike_id": "b634b511d43068bd7b82f0d79927e09e", "rental_uris": {"ios": "https://dc.lft.to/lastmile_qr_scan", "android": "https://dc.lft.to/lastmile_qr_scan"}, "fusion_lon": 0.0, "lon": -77.03502783333333, "name": "b634b511d43068bd7b82f0d79927e09e", "is_reserved": 0, "is_disabled": 0}, {"lat": 38.9320395, "fusion_lat": 0.0, "type": "electric_scooter", "bike_id": "0516c4a82090b70d09be8a9dd6ffe745", "rental_uris": {"ios": "https://dc.lft.to/lastmile_qr_scan", "android": "https://dc.lft.to/lastmile_qr_scan"}, "fusion_lon": 0.0, "lon": -77.03502133333333, "name": "0516c4a82090b70d09be8a9dd6ffe745", "is_reserved": 0, "is_disabled": 0}, {"lat": 38.79982566666666, "fusion_lat": 0.0, "type": "electric_bike", "bike_id": "0ea928107440e44cf3a2158cbd2b1d41", "rental_uris": {"ios": "https://dc.lft.to/lastmile_qr_scan", "android": "https://dc.lft.to/lastmile_qr_scan"}, "fusion_lon": 0.0, "lon": -77.12984466666667, "name": "0ea928107440e44cf3a2158cbd2b1d41", "is_reserved": 0, "is_disabled": 0}, {"lat": 38.912538166666664, "fusion_lat": 0.0, "type": "electric_scooter", "bike_id": "6ed60063f58529af9e04791f08406c86", "rental_uris": {"ios": "https://dc.lft.to/lastmile_qr_scan", "android": "https://dc.lft.to/lastmile_qr_scan"}, "fusion_lon": 0.0, "lon": -77.04458666666666, "name": "6ed60063f58529af9e04791f08406c86", "is_reserved": 0, "is_disabled": 0}, {"lat": 38.921763166666665, "fusion_lat": 0.0, "type": "electric_scooter", "bike_id": "af24d851104914bfcd487cf300f8b0b2", "rental_uris": {"ios": "https://dc.lft.to/lastmile_qr_scan", "android": "https://dc.lft.to/lastmile_qr_scan"}, "fusion_lon": 0.0, "lon": -77.04186566666667, "name": "af24d851104914bfcd487cf300f8b0b2", "is_reserved": 0, "is_disabled": 0}, {"lat": 38.91712883333334, "fusion_lat": 0.0, "type": "electric_scooter", "bike_id": "5b6e5347a760ebb37cefb1a42bc8d17b", "rental_uris": {"ios": "https://dc.lft.to/lastmile_qr_scan", "android": "https://dc.lft.to/lastmile_qr_scan"}, "fusion_lon": 0.0, "lon": -77.0385905, "name": "5b6e5347a760ebb37cefb1a42bc8d17b", "is_reserved": 0, "is_disabled": 0}, {"lat": 38.93037133333333, "fusion_lat": 0.0, "type": "electric_scooter", "bike_id": "7a689ecca031edff25beec02d7aa98b6", "rental_uris": {"ios": "https://dc.lft.to/lastmile_qr_scan", "android": "https://dc.lft.to/lastmile_qr_scan"}, "fusion_lon": 0.0, "lon": -77.0347975, "name": "7a689ecca031edff25beec02d7aa98b6", "is_reserved": 0, "is_disabled": 0}, {"lat": 38.900639166666664, "fusion_lat": 0.0, "type": "electric_scooter", "bike_id": "750a40617cebcc1247ef092ee8a04dca", "rental_uris": {"ios": "https://dc.lft.to/lastmile_qr_scan", "android": "https://dc.lft.to/lastmile_qr_scan"}, "fusion_lon": 0.0, "lon": -77.04530733333333, "name": "750a40617cebcc1247ef092ee8a04dca", "is_reserved": 0, "is_disabled": 0}, {"lat": 38.86334216666667, "fusion_lat": 0.0, "type": "electric_bike", "bike_id": "7379e71d923dd832ac0587f72760b1d5", "rental_uris": {"ios": "https://dc.lft.to/lastmile_qr_scan", "android": "https://dc.lft.to/lastmile_qr_scan"}, "fusion_lon": 0.0, "lon": -76.987211, "name": "7379e71d923dd832ac0587f72760b1d5", "is_reserved": 0, "is_disabled": 0}, {"lat": 38.848584833333334, "fusion_lat": 0.0, "type": "electric_bike", "bike_id": "1856aabc891eee55855ad8851422d932", "rental_uris": {"ios": "https://dc.lft.to/lastmile_qr_scan", "android": "https://dc.lft.to/lastmile_qr_scan"}, "fusion_lon": 0.0, "lon": -77.099054, "name": "1856aabc891eee55855ad8851422d932", "is_reserved": 0, "is_disabled": 0}, {"lat": 38.89964033333333, "fusion_lat": 0.0, "type": "electric_bike", "bike_id": "5bf99b9f286f644efdffb9d0f5607918", "rental_uris": {"ios": "https://dc.lft.to/lastmile_qr_scan", "android": "https://dc.lft.to/lastmile_qr_scan"}, "fusion_lon": 0.0, "lon": -76.98679966666667, "name": "5bf99b9f286f644efdffb9d0f5607918", "is_reserved": 0, "is_disabled": 0}, {"lat": 38.924640833333335, "fusion_lat": 0.0, "type": "electric_scooter", "bike_id": "6a238e3b3879edb2a6746bf684b72954", "rental_uris": {"ios": "https://dc.lft.to/lastmile_qr_scan", "android": "https://dc.lft.to/lastmile_qr_scan"}, "fusion_lon": 0.0, "lon": -77.05236483333333, "name": "6a238e3b3879edb2a6746bf684b72954", "is_reserved": 0, "is_disabled": 0}, {"lat": 38.88646416666667, "fusion_lat": 0.0, "type": "electric_scooter", "bike_id": "a3ebc4d500c911c7b4c7bf04ed4c432d", "rental_uris": {"ios": "https://dc.lft.to/lastmile_qr_scan", "android": "https://dc.lft.to/lastmile_qr_scan"}, "fusion_lon": 0.0, "lon": -77.01983516666667, "name": "a3ebc4d500c911c7b4c7bf04ed4c432d", "is_reserved": 0, "is_disabled": 0}, {"lat": 38.90299, "fusion_lat": 0.0, "type": "electric_scooter", "bike_id": "489e97041fb937d793eb343a3c2f4008", "rental_uris": {"ios": "https://dc.lft.to/lastmile_qr_scan", "android": "https://dc.lft.to/lastmile_qr_scan"}, "fusion_lon": 0.0, "lon": -77.0433215, "name": "489e97041fb937d793eb343a3c2f4008", "is_reserved": 0, "is_disabled": 0}, {"lat": 38.91677033333333, "fusion_lat": 0.0, "type": "electric_scooter", "bike_id": "63bd9a4aff50513c4b6d5df6ee591695", "rental_uris": {"ios": "https://dc.lft.to/lastmile_qr_scan", "android": "https://dc.lft.to/lastmile_qr_scan"}, "fusion_lon": 0.0, "lon": -76.9803345, "name": "63bd9a4aff50513c4b6d5df6ee591695", "is_reserved": 0, "is_disabled": 0}, {"lat": 38.902227833333335, "fusion_lat": 0.0, "type": "electric_scooter", "bike_id": "a85ec4d2c661a9030ccf02af042c39bd", "rental_uris": {"ios": "https://dc.lft.to/lastmile_qr_scan", "android": "https://dc.lft.to/lastmile_qr_scan"}, "fusion_lon": 0.0, "lon": -77.03212383333333, "name": "a85ec4d2c661a9030ccf02af042c39bd", "is_reserved": 0, "is_disabled": 0}, {"lat": 38.927449, "fusion_lat": 0.0, "type": "electric_scooter", "bike_id": "4f0b81debb8c700a5fda02d42ca57ba1", "rental_uris": {"ios": "https://dc.lft.to/lastmile_qr_scan", "android": "https://dc.lft.to/lastmile_qr_scan"}, "fusion_lon": 0.0, "lon": -77.02256633333333, "name": "4f0b81debb8c700a5fda02d42ca57ba1", "is_reserved": 0, "is_disabled": 0}, {"lat": 38.90240466666667, "fusion_lat": 0.0, "type": "electric_scooter", "bike_id": "fe551f726fa5c02a50c371dd48bedad0", "rental_uris": {"ios": "https://dc.lft.to/lastmile_qr_scan", "android": "https://dc.lft.to/lastmile_qr_scan"}, "fusion_lon": 0.0, "lon": -77.017124, "name": "fe551f726fa5c02a50c371dd48bedad0", "is_reserved": 0, "is_disabled": 0}, {"lat": 38.9103935, "fusion_lat": 0.0, "type": "electric_scooter", "bike_id": "e1619f9c92ec7eb96b35c3af1a7eb5d2", "rental_uris": {"ios": "https://dc.lft.to/lastmile_qr_scan", "android": "https://dc.lft.to/lastmile_qr_scan"}, "fusion_lon": 0.0, "lon": -77.04356633333333, "name": "e1619f9c92ec7eb96b35c3af1a7eb5d2", "is_reserved": 0, "is_disabled": 0}, {"lat": 38.92423483333334, "fusion_lat": 0.0, "type": "electric_scooter", "bike_id": "a4bbde81bf164f73a3ce8333bb220f09", "rental_uris": {"ios": "https://dc.lft.to/lastmile_qr_scan", "android": "https://dc.lft.to/lastmile_qr_scan"}, "fusion_lon": 0.0, "lon": -77.02009933333333, "name": "a4bbde81bf164f73a3ce8333bb220f09", "is_reserved": 0, "is_disabled": 0}, {"lat": 38.846090333333336, "fusion_lat": 0.0, "type": "electric_bike", "bike_id": "b1b2d03390329fa09506f76a35ac70d4", "rental_uris": {"ios": "https://dc.lft.to/lastmile_qr_scan", "android": "https://dc.lft.to/lastmile_qr_scan"}, "fusion_lon": 0.0, "lon": -76.969155, "name": "b1b2d03390329fa09506f76a35ac70d4", "is_reserved": 0, "is_disabled": 0}, {"lat": 38.872309, "fusion_lat": 0.0, "type": "electric_scooter", "bike_id": "18f84ebeab793fbfc9a4e5d1ab8a1954", "rental_uris": {"ios": "https://dc.lft.to/lastmile_qr_scan", "android": "https://dc.lft.to/lastmile_qr_scan"}, "fusion_lon": 0.0, "lon": -77.0057945, "name": "18f84ebeab793fbfc9a4e5d1ab8a1954", "is_reserved": 0, "is_disabled": 0}, {"lat": 38.898512333333336, "fusion_lat": 0.0, "type": "electric_scooter", "bike_id": "094e0f6c566ec754c043a06c3d8fca5b", "rental_uris": {"ios": "https://dc.lft.to/lastmile_qr_scan", "android": "https://dc.lft.to/lastmile_qr_scan"}, "fusion_lon": 0.0, "lon": -77.04114316666667, "name": "094e0f6c566ec754c043a06c3d8fca5b", "is_reserved": 0, "is_disabled": 0}, {"lat": 38.954278333333335, "fusion_lat": 0.0, "type": "electric_scooter", "bike_id": "8a10fb08c646e9a1708e6fea6d28b36a", "rental_uris": {"ios": "https://dc.lft.to/lastmile_qr_scan", "android": "https://dc.lft.to/lastmile_qr_scan"}, "fusion_lon": 0.0, "lon": -77.0185305, "name": "8a10fb08c646e9a1708e6fea6d28b36a", "is_reserved": 0, "is_disabled": 0}, {"lat": 38.903204333333335, "fusion_lat": 0.0, "type": "electric_scooter", "bike_id": "2603e20a179b6e4d831c496967eabfd4", "rental_uris": {"ios": "https://dc.lft.to/lastmile_qr_scan", "android": "https://dc.lft.to/lastmile_qr_scan"}, "fusion_lon": 0.0, "lon": -77.0502215, "name": "2603e20a179b6e4d831c496967eabfd4", "is_reserved": 0, "is_disabled": 0}, {"lat": 38.894742, "fusion_lat": 0.0, "type": "electric_scooter", "bike_id": "243bc615d707484e36f38c8a96a35683", "rental_uris": {"ios": "https://dc.lft.to/lastmile_qr_scan", "android": "https://dc.lft.to/lastmile_qr_scan"}, "fusion_lon": 0.0, "lon": -76.98601483333333, "name": "243bc615d707484e36f38c8a96a35683", "is_reserved": 0, "is_disabled": 0}, {"lat": 38.89218066666667, "fusion_lat": 0.0, "type": "electric_scooter", "bike_id": "e9cdb28865f1044740e148aeff22497b", "rental_uris": {"ios": "https://dc.lft.to/lastmile_qr_scan", "android": "https://dc.lft.to/lastmile_qr_scan"}, "fusion_lon": 0.0, "lon": -77.04325483333334, "name": "e9cdb28865f1044740e148aeff22497b", "is_reserved": 0, "is_disabled": 0}, {"lat": 38.9409875, "fusion_lat": 0.0, "type": "electric_scooter", "bike_id": "755c76fc99e6fa752146051e6bf3e943", "rental_uris": {"ios": "https://dc.lft.to/lastmile_qr_scan", "android": "https://dc.lft.to/lastmile_qr_scan"}, "fusion_lon": 0.0, "lon": -77.02636866666667, "name": "755c76fc99e6fa752146051e6bf3e943", "is_reserved": 0, "is_disabled": 0}, {"lat": 38.899107, "fusion_lat": 0.0, "type": "electric_scooter", "bike_id": "26b1a76ac91f32a469c60b2bc261f8fb", "rental_uris": {"ios": "https://dc.lft.to/lastmile_qr_scan", "android": "https://dc.lft.to/lastmile_qr_scan"}, "fusion_lon": 0.0, "lon": -77.013862, "name": "26b1a76ac91f32a469c60b2bc261f8fb", "is_reserved": 0, "is_disabled": 0}, {"lat": 38.909474833333334, "fusion_lat": 0.0, "type": "electric_scooter", "bike_id": "04b610586a2f28d8a0cb6b21a6a09dab", "rental_uris": {"ios": "https://dc.lft.to/lastmile_qr_scan", "android": "https://dc.lft.to/lastmile_qr_scan"}, "fusion_lon": 0.0, "lon": -77.02713, "name": "04b610586a2f28d8a0cb6b21a6a09dab", "is_reserved": 0, "is_disabled": 0}, {"lat": 38.892308166666666, "fusion_lat": 0.0, "type": "electric_scooter", "bike_id": "506947eec48f4d5439782b05fb232fb6", "rental_uris": {"ios": "https://dc.lft.to/lastmile_qr_scan", "android": "https://dc.lft.to/lastmile_qr_scan"}, "fusion_lon": 0.0, "lon": -77.05002033333334, "name": "506947eec48f4d5439782b05fb232fb6", "is_reserved": 0, "is_disabled": 0}, {"lat": 38.99495966666667, "fusion_lat": 0.0, "type": "electric_bike", "bike_id": "f97822b36b843413c90fdbf23a395674", "rental_uris": {"ios": "https://dc.lft.to/lastmile_qr_scan", "android": "https://dc.lft.to/lastmile_qr_scan"}, "fusion_lon": 0.0, "lon": -77.07791866666666, "name": "f97822b36b843413c90fdbf23a395674", "is_reserved": 0, "is_disabled": 0}, {"lat": 38.917947166666664, "fusion_lat": 0.0, "type": "electric_scooter", "bike_id": "b1749a16aad0d94e7d2d8433ab673a3e", "rental_uris": {"ios": "https://dc.lft.to/lastmile_qr_scan", "android": "https://dc.lft.to/lastmile_qr_scan"}, "fusion_lon": 0.0, "lon": -77.02710716666667, "name": "b1749a16aad0d94e7d2d8433ab673a3e", "is_reserved": 0, "is_disabled": 0}, {"lat": 38.956522166666666, "fusion_lat": 0.0, "type": "electric_scooter", "bike_id": "2426fb0d39b6b4f0f3dd46ecb2751abc", "rental_uris": {"ios": "https://dc.lft.to/lastmile_qr_scan", "android": "https://dc.lft.to/lastmile_qr_scan"}, "fusion_lon": 0.0, "lon": -77.01967566666667, "name": "2426fb0d39b6b4f0f3dd46ecb2751abc", "is_reserved": 0, "is_disabled": 0}, {"lat": 38.91797066666667, "fusion_lat": 0.0, "type": "electric_scooter", "bike_id": "4153bcf7002254636e1cdbd48fa5653d", "rental_uris": {"ios": "https://dc.lft.to/lastmile_qr_scan", "android": "https://dc.lft.to/lastmile_qr_scan"}, "fusion_lon": 0.0, "lon": -77.02707483333333, "name": "4153bcf7002254636e1cdbd48fa5653d", "is_reserved": 0, "is_disabled": 0}, {"lat": 38.897771166666665, "fusion_lat": 0.0, "type": "electric_scooter", "bike_id": "2c04f0fd09ba44c5eeeb346c984a174c", "rental_uris": {"ios": "https://dc.lft.to/lastmile_qr_scan", "android": "https://dc.lft.to/lastmile_qr_scan"}, "fusion_lon": 0.0, "lon": -77.05476666666667, "name": "2c04f0fd09ba44c5eeeb346c984a174c", "is_reserved": 0, "is_disabled": 0}, {"lat": 38.9104725, "fusion_lat": 0.0, "type": "electric_scooter", "bike_id": "aa0305ab8092faffb2b397a931c20756", "rental_uris": {"ios": "https://dc.lft.to/lastmile_qr_scan", "android": "https://dc.lft.to/lastmile_qr_scan"}, "fusion_lon": 0.0, "lon": -77.04347833333334, "name": "aa0305ab8092faffb2b397a931c20756", "is_reserved": 0, "is_disabled": 0}, {"lat": 38.91689783333333, "fusion_lat": 0.0, "type": "electric_scooter", "bike_id": "052a7b9e895a3beaa6c1691826611df2", "rental_uris": {"ios": "https://dc.lft.to/lastmile_qr_scan", "android": "https://dc.lft.to/lastmile_qr_scan"}, "fusion_lon": 0.0, "lon": -77.0299415, "name": "052a7b9e895a3beaa6c1691826611df2", "is_reserved": 0, "is_disabled": 0}, {"lat": 38.89600383333333, "fusion_lat": 0.0, "type": "electric_scooter", "bike_id": "c11ed989443cf66325a59b649e06dcfa", "rental_uris": {"ios": "https://dc.lft.to/lastmile_qr_scan", "android": "https://dc.lft.to/lastmile_qr_scan"}, "fusion_lon": 0.0, "lon": -77.00928016666667, "name": "c11ed989443cf66325a59b649e06dcfa", "is_reserved": 0, "is_disabled": 0}, {"lat": 38.92767883333333, "fusion_lat": 0.0, "type": "electric_scooter", "bike_id": "ac4e8c3cb3951eee12233688519e9182", "rental_uris": {"ios": "https://dc.lft.to/lastmile_qr_scan", "android": "https://dc.lft.to/lastmile_qr_scan"}, "fusion_lon": 0.0, "lon": -77.032496, "name": "ac4e8c3cb3951eee12233688519e9182", "is_reserved": 0, "is_disabled": 0}, {"lat": 38.922391, "fusion_lat": 0.0, "type": "electric_scooter", "bike_id": "2a09002fd7d0932e6e61cbdb04dcdfdf", "rental_uris": {"ios": "https://dc.lft.to/lastmile_qr_scan", "android": "https://dc.lft.to/lastmile_qr_scan"}, "fusion_lon": 0.0, "lon": -77.0731755, "name": "2a09002fd7d0932e6e61cbdb04dcdfdf", "is_reserved": 0, "is_disabled": 0}, {"lat": 38.8922225, "fusion_lat": 0.0, "type": "electric_scooter", "bike_id": "21a3232270f866a307666fded6045b56", "rental_uris": {"ios": "https://dc.lft.to/lastmile_qr_scan", "android": "https://dc.lft.to/lastmile_qr_scan"}, "fusion_lon": 0.0, "lon": -77.0278545, "name": "21a3232270f866a307666fded6045b56", "is_reserved": 0, "is_disabled": 0}, {"lat": 38.902143, "fusion_lat": 0.0, "type": "electric_scooter", "bike_id": "394322913e2e90e3f5c70b513c58b34a", "rental_uris": {"ios": "https://dc.lft.to/lastmile_qr_scan", "android": "https://dc.lft.to/lastmile_qr_scan"}, "fusion_lon": 0.0, "lon": -77.0237505, "name": "394322913e2e90e3f5c70b513c58b34a", "is_reserved": 0, "is_disabled": 0}, {"lat": 38.92876716666667, "fusion_lat": 0.0, "type": "electric_scooter", "bike_id": "0f97a37dee39c2d05ce15c215b1806ee", "rental_uris": {"ios": "https://dc.lft.to/lastmile_qr_scan", "android": "https://dc.lft.to/lastmile_qr_scan"}, "fusion_lon": 0.0, "lon": -77.03283083333334, "name": "0f97a37dee39c2d05ce15c215b1806ee", "is_reserved": 0, "is_disabled": 0}, {"lat": 38.887279666666664, "fusion_lat": 0.0, "type": "electric_scooter", "bike_id": "3f8dbcb633dab3051f356c5cb8a5c331", "rental_uris": {"ios": "https://dc.lft.to/lastmile_qr_scan", "android": "https://dc.lft.to/lastmile_qr_scan"}, "fusion_lon": 0.0, "lon": -77.02382966666667, "name": "3f8dbcb633dab3051f356c5cb8a5c331", "is_reserved": 0, "is_disabled": 0}, {"lat": 38.90044316666667, "fusion_lat": 0.0, "type": "electric_scooter", "bike_id": "003554556e3106aa4e60a80b8f8b6226", "rental_uris": {"ios": "https://dc.lft.to/lastmile_qr_scan", "android": "https://dc.lft.to/lastmile_qr_scan"}, "fusion_lon": 0.0, "lon": -77.02204966666666, "name": "003554556e3106aa4e60a80b8f8b6226", "is_reserved": 0, "is_disabled": 0}, {"lat": 38.9567215, "fusion_lat": 0.0, "type": "electric_scooter", "bike_id": "5a2aece41dcc8f518555f921423ecde3", "rental_uris": {"ios": "https://dc.lft.to/lastmile_qr_scan", "android": "https://dc.lft.to/lastmile_qr_scan"}, "fusion_lon": 0.0, "lon": -77.013568, "name": "5a2aece41dcc8f518555f921423ecde3", "is_reserved": 0, "is_disabled": 0}, {"lat": 38.925421666666665, "fusion_lat": 0.0, "type": "electric_scooter", "bike_id": "8cc6c673a4e4f01bf66c3d329a6d7a0a", "rental_uris": {"ios": "https://dc.lft.to/lastmile_qr_scan", "android": "https://dc.lft.to/lastmile_qr_scan"}, "fusion_lon": 0.0, "lon": -77.03877166666666, "name": "8cc6c673a4e4f01bf66c3d329a6d7a0a", "is_reserved": 0, "is_disabled": 0}, {"lat": 38.91691766666667, "fusion_lat": 0.0, "type": "electric_scooter", "bike_id": "62c34982d9be5309d4e25493a0142d66", "rental_uris": {"ios": "https://dc.lft.to/lastmile_qr_scan", "android": "https://dc.lft.to/lastmile_qr_scan"}, "fusion_lon": 0.0, "lon": -77.02488766666667, "name": "62c34982d9be5309d4e25493a0142d66", "is_reserved": 0, "is_disabled": 0}, {"lat": 38.915439166666665, "fusion_lat": 0.0, "type": "electric_scooter", "bike_id": "7b78863b19f1a2c52ef86612c7d20032", "rental_uris": {"ios": "https://dc.lft.to/lastmile_qr_scan", "android": "https://dc.lft.to/lastmile_qr_scan"}, "fusion_lon": 0.0, "lon": -76.98364116666667, "name": "7b78863b19f1a2c52ef86612c7d20032", "is_reserved": 0, "is_disabled": 0}, {"lat": 38.92495016666667, "fusion_lat": 0.0, "type": "electric_scooter", "bike_id": "e5d7867c67260a823d07dd0be27636f7", "rental_uris": {"ios": "https://dc.lft.to/lastmile_qr_scan", "android": "https://dc.lft.to/lastmile_qr_scan"}, "fusion_lon": 0.0, "lon": -77.03919533333334, "name": "e5d7867c67260a823d07dd0be27636f7", "is_reserved": 0, "is_disabled": 0}, {"lat": 38.9520065, "fusion_lat": 0.0, "type": "electric_scooter", "bike_id": "0d8072c5432ed460e70a9b040f4e7385", "rental_uris": {"ios": "https://dc.lft.to/lastmile_qr_scan", "android": "https://dc.lft.to/lastmile_qr_scan"}, "fusion_lon": 0.0, "lon": -77.0273045, "name": "0d8072c5432ed460e70a9b040f4e7385", "is_reserved": 0, "is_disabled": 0}, {"lat": 38.89576133333333, "fusion_lat": 0.0, "type": "electric_scooter", "bike_id": "fbd26868d10ae7ac592b496a13de7950", "rental_uris": {"ios": "https://dc.lft.to/lastmile_qr_scan", "android": "https://dc.lft.to/lastmile_qr_scan"}, "fusion_lon": 0.0, "lon": -77.0217705, "name": "fbd26868d10ae7ac592b496a13de7950", "is_reserved": 0, "is_disabled": 0}, {"lat": 38.91792916666667, "fusion_lat": 0.0, "type": "electric_scooter", "bike_id": "848f8e424e9afc058c54a721b009732f", "rental_uris": {"ios": "https://dc.lft.to/lastmile_qr_scan", "android": "https://dc.lft.to/lastmile_qr_scan"}, "fusion_lon": 0.0, "lon": -77.04157833333333, "name": "848f8e424e9afc058c54a721b009732f", "is_reserved": 0, "is_disabled": 0}, {"lat": 38.961280333333335, "fusion_lat": 0.0, "type": "electric_bike", "bike_id": "aa1915b7580010fdb6902405090cdcec", "rental_uris": {"ios": "https://dc.lft.to/lastmile_qr_scan", "android": "https://dc.lft.to/lastmile_qr_scan"}, "fusion_lon": 0.0, "lon": -77.03277516666667, "name": "aa1915b7580010fdb6902405090cdcec", "is_reserved": 0, "is_disabled": 0}, {"lat": 38.91804616666667, "fusion_lat": 0.0, "type": "electric_scooter", "bike_id": "bc5bd020f47514e0a7640087cb73313b", "rental_uris": {"ios": "https://dc.lft.to/lastmile_qr_scan", "android": "https://dc.lft.to/lastmile_qr_scan"}, "fusion_lon": 0.0, "lon": -77.0256155, "name": "bc5bd020f47514e0a7640087cb73313b", "is_reserved": 0, "is_disabled": 0}, {"lat": 38.92323833333333, "fusion_lat": 0.0, "type": "electric_scooter", "bike_id": "f654afee206b84372baeb08193996387", "rental_uris": {"ios": "https://dc.lft.to/lastmile_qr_scan", "android": "https://dc.lft.to/lastmile_qr_scan"}, "fusion_lon": 0.0, "lon": -77.02968283333334, "name": "f654afee206b84372baeb08193996387", "is_reserved": 0, "is_disabled": 0}, {"lat": 38.933255, "fusion_lat": 0.0, "type": "electric_scooter", "bike_id": "eef9a8fdc2186cdd921e1a8831fed188", "rental_uris": {"ios": "https://dc.lft.to/lastmile_qr_scan", "android": "https://dc.lft.to/lastmile_qr_scan"}, "fusion_lon": 0.0, "lon": -77.029246, "name": "eef9a8fdc2186cdd921e1a8831fed188", "is_reserved": 0, "is_disabled": 0}, {"lat": 38.9240475, "fusion_lat": 0.0, "type": "electric_scooter", "bike_id": "5cddfa7b000484d423618d7ea6d15d56", "rental_uris": {"ios": "https://dc.lft.to/lastmile_qr_scan", "android": "https://dc.lft.to/lastmile_qr_scan"}, "fusion_lon": 0.0, "lon": -77.0207735, "name": "5cddfa7b000484d423618d7ea6d15d56", "is_reserved": 0, "is_disabled": 0}, {"lat": 38.919881333333336, "fusion_lat": 0.0, "type": "electric_scooter", "bike_id": "d52b7777c7591f58e3d691b59e73a3bb", "rental_uris": {"ios": "https://dc.lft.to/lastmile_qr_scan", "android": "https://dc.lft.to/lastmile_qr_scan"}, "fusion_lon": 0.0, "lon": -77.01797916666666, "name": "d52b7777c7591f58e3d691b59e73a3bb", "is_reserved": 0, "is_disabled": 0}, {"lat": 38.874270833333334, "fusion_lat": 0.0, "type": "electric_scooter", "bike_id": "4c5651d28b3c087ac6697758caf9488b", "rental_uris": {"ios": "https://dc.lft.to/lastmile_qr_scan", "android": "https://dc.lft.to/lastmile_qr_scan"}, "fusion_lon": 0.0, "lon": -77.00062683333333, "name": "4c5651d28b3c087ac6697758caf9488b", "is_reserved": 0, "is_disabled": 0}, {"lat": 38.91362383333333, "fusion_lat": 0.0, "type": "electric_scooter", "bike_id": "8cb3fc77f559949b66a6e24a42b8bbe4", "rental_uris": {"ios": "https://dc.lft.to/lastmile_qr_scan", "android": "https://dc.lft.to/lastmile_qr_scan"}, "fusion_lon": 0.0, "lon": -77.01997683333333, "name": "8cb3fc77f559949b66a6e24a42b8bbe4", "is_reserved": 0, "is_disabled": 0}, {"lat": 38.9073055, "fusion_lat": 0.0, "type": "electric_scooter", "bike_id": "df6386f78d1e089cff7ee38f5e503479", "rental_uris": {"ios": "https://dc.lft.to/lastmile_qr_scan", "android": "https://dc.lft.to/lastmile_qr_scan"}, "fusion_lon": 0.0, "lon": -77.04293933333334, "name": "df6386f78d1e089cff7ee38f5e503479", "is_reserved": 0, "is_disabled": 0}, {"lat": 38.90835833333333, "fusion_lat": 0.0, "type": "electric_scooter", "bike_id": "9b3a927a787b9793d1f40b090a21b389", "rental_uris": {"ios": "https://dc.lft.to/lastmile_qr_scan", "android": "https://dc.lft.to/lastmile_qr_scan"}, "fusion_lon": 0.0, "lon": -77.063863, "name": "9b3a927a787b9793d1f40b090a21b389", "is_reserved": 0, "is_disabled": 0}, {"lat": 38.89840516666667, "fusion_lat": 0.0, "type": "electric_scooter", "bike_id": "6ed0ddb7d55813be3538c210d670aef9", "rental_uris": {"ios": "https://dc.lft.to/lastmile_qr_scan", "android": "https://dc.lft.to/lastmile_qr_scan"}, "fusion_lon": 0.0, "lon": -77.00747216666667, "name": "6ed0ddb7d55813be3538c210d670aef9", "is_reserved": 0, "is_disabled": 0}, {"lat": 38.90970316666667, "fusion_lat": 0.0, "type": "electric_scooter", "bike_id": "b12856dac396c004cc791af9136d7e62", "rental_uris": {"ios": "https://dc.lft.to/lastmile_qr_scan", "android": "https://dc.lft.to/lastmile_qr_scan"}, "fusion_lon": 0.0, "lon": -77.03867633333333, "name": "b12856dac396c004cc791af9136d7e62", "is_reserved": 0, "is_disabled": 0}, {"lat": 38.899666833333335, "fusion_lat": 0.0, "type": "electric_scooter", "bike_id": "c34c9c9bf9f80b7a9a2f27abe2e7cddd", "rental_uris": {"ios": "https://dc.lft.to/lastmile_qr_scan", "android": "https://dc.lft.to/lastmile_qr_scan"}, "fusion_lon": 0.0, "lon": -77.04720766666667, "name": "c34c9c9bf9f80b7a9a2f27abe2e7cddd", "is_reserved": 0, "is_disabled": 0}, {"lat": 38.917007166666664, "fusion_lat": 0.0, "type": "electric_scooter", "bike_id": "66c8af8959f95c995c9a6adf15324861", "rental_uris": {"ios": "https://dc.lft.to/lastmile_qr_scan", "android": "https://dc.lft.to/lastmile_qr_scan"}, "fusion_lon": 0.0, "lon": -77.0299275, "name": "66c8af8959f95c995c9a6adf15324861", "is_reserved": 0, "is_disabled": 0}, {"lat": 38.92454716666667, "fusion_lat": 0.0, "type": "electric_scooter", "bike_id": "1900098936eca1b663ded58bb04aa9f6", "rental_uris": {"ios": "https://dc.lft.to/lastmile_qr_scan", "android": "https://dc.lft.to/lastmile_qr_scan"}, "fusion_lon": 0.0, "lon": -77.02166966666667, "name": "1900098936eca1b663ded58bb04aa9f6", "is_reserved": 0, "is_disabled": 0}, {"lat": 38.90202583333333, "fusion_lat": 0.0, "type": "electric_scooter", "bike_id": "068f934ca33dd170e802cac9d4a4979d", "rental_uris": {"ios": "https://dc.lft.to/lastmile_qr_scan", "android": "https://dc.lft.to/lastmile_qr_scan"}, "fusion_lon": 0.0, "lon": -77.02376783333334, "name": "068f934ca33dd170e802cac9d4a4979d", "is_reserved": 0, "is_disabled": 0}, {"lat": 38.912662, "fusion_lat": 0.0, "type": "electric_scooter", "bike_id": "d1e626a9cb2505498a38731b1ea91136", "rental_uris": {"ios": "https://dc.lft.to/lastmile_qr_scan", "android": "https://dc.lft.to/lastmile_qr_scan"}, "fusion_lon": 0.0, "lon": -77.03867566666666, "name": "d1e626a9cb2505498a38731b1ea91136", "is_reserved": 0, "is_disabled": 0}, {"lat": 38.918149666666665, "fusion_lat": 0.0, "type": "electric_scooter", "bike_id": "1b85937706e188d0d2e30ba33ea65a71", "rental_uris": {"ios": "https://dc.lft.to/lastmile_qr_scan", "android": "https://dc.lft.to/lastmile_qr_scan"}, "fusion_lon": 0.0, "lon": -77.03463916666666, "name": "1b85937706e188d0d2e30ba33ea65a71", "is_reserved": 0, "is_disabled": 0}, {"lat": 38.9063545, "fusion_lat": 0.0, "type": "electric_scooter", "bike_id": "1bb27f4cf0d781221476141165f94d41", "rental_uris": {"ios": "https://dc.lft.to/lastmile_qr_scan", "android": "https://dc.lft.to/lastmile_qr_scan"}, "fusion_lon": 0.0, "lon": -77.00591933333334, "name": "1bb27f4cf0d781221476141165f94d41", "is_reserved": 0, "is_disabled": 0}, {"lat": 38.9432575, "fusion_lat": 0.0, "type": "electric_scooter", "bike_id": "81a9bda20ea91f31f549564f09d7d0b8", "rental_uris": {"ios": "https://dc.lft.to/lastmile_qr_scan", "android": "https://dc.lft.to/lastmile_qr_scan"}, "fusion_lon": 0.0, "lon": -77.07627283333333, "name": "81a9bda20ea91f31f549564f09d7d0b8", "is_reserved": 0, "is_disabled": 0}, {"lat": 38.91711433333333, "fusion_lat": 0.0, "type": "electric_scooter", "bike_id": "98cdafc13051cbfaae76b69d1de878ee", "rental_uris": {"ios": "https://dc.lft.to/lastmile_qr_scan", "android": "https://dc.lft.to/lastmile_qr_scan"}, "fusion_lon": 0.0, "lon": -77.03855566666667, "name": "98cdafc13051cbfaae76b69d1de878ee", "is_reserved": 0, "is_disabled": 0}, {"lat": 38.917838333333336, "fusion_lat": 0.0, "type": "electric_scooter", "bike_id": "2d471790c84a927bf40b05d8ff56300c", "rental_uris": {"ios": "https://dc.lft.to/lastmile_qr_scan", "android": "https://dc.lft.to/lastmile_qr_scan"}, "fusion_lon": 0.0, "lon": -77.03209, "name": "2d471790c84a927bf40b05d8ff56300c", "is_reserved": 0, "is_disabled": 0}, {"lat": 38.9450275, "fusion_lat": 0.0, "type": "electric_scooter", "bike_id": "ad35c4226524da50a9cdfa9ab8c1c409", "rental_uris": {"ios": "https://dc.lft.to/lastmile_qr_scan", "android": "https://dc.lft.to/lastmile_qr_scan"}, "fusion_lon": 0.0, "lon": -77.03836733333333, "name": "ad35c4226524da50a9cdfa9ab8c1c409", "is_reserved": 0, "is_disabled": 0}, {"lat": 38.89716516666667, "fusion_lat": 0.0, "type": "electric_scooter", "bike_id": "db8fef2d09b65740da4f19fea2a51c71", "rental_uris": {"ios": "https://dc.lft.to/lastmile_qr_scan", "android": "https://dc.lft.to/lastmile_qr_scan"}, "fusion_lon": 0.0, "lon": -77.0079815, "name": "db8fef2d09b65740da4f19fea2a51c71", "is_reserved": 0, "is_disabled": 0}, {"lat": 38.97349633333333, "fusion_lat": 0.0, "type": "electric_scooter", "bike_id": "723a4c310b8e900b220e60795284c081", "rental_uris": {"ios": "https://dc.lft.to/lastmile_qr_scan", "android": "https://dc.lft.to/lastmile_qr_scan"}, "fusion_lon": 0.0, "lon": -77.0278965, "name": "723a4c310b8e900b220e60795284c081", "is_reserved": 0, "is_disabled": 0}, {"lat": 38.911729333333334, "fusion_lat": 0.0, "type": "electric_scooter", "bike_id": "3ee446921797b6b483e14d387326ae64", "rental_uris": {"ios": "https://dc.lft.to/lastmile_qr_scan", "android": "https://dc.lft.to/lastmile_qr_scan"}, "fusion_lon": 0.0, "lon": -77.03185066666667, "name": "3ee446921797b6b483e14d387326ae64", "is_reserved": 0, "is_disabled": 0}, {"lat": 38.915916333333335, "fusion_lat": 0.0, "type": "electric_scooter", "bike_id": "8a3503395e7f6f8fbb36e304e98f6678", "rental_uris": {"ios": "https://dc.lft.to/lastmile_qr_scan", "android": "https://dc.lft.to/lastmile_qr_scan"}, "fusion_lon": 0.0, "lon": -77.03189383333333, "name": "8a3503395e7f6f8fbb36e304e98f6678", "is_reserved": 0, "is_disabled": 0}, {"lat": 38.9191085, "fusion_lat": 0.0, "type": "electric_scooter", "bike_id": "210623ee62b724ff835478daeb58327d", "rental_uris": {"ios": "https://dc.lft.to/lastmile_qr_scan", "android": "https://dc.lft.to/lastmile_qr_scan"}, "fusion_lon": 0.0, "lon": -77.04460983333334, "name": "210623ee62b724ff835478daeb58327d", "is_reserved": 0, "is_disabled": 0}, {"lat": 38.906375, "fusion_lat": 0.0, "type": "electric_scooter", "bike_id": "ca2d92dc2d5436ae67a9b918a2424b4e", "rental_uris": {"ios": "https://dc.lft.to/lastmile_qr_scan", "android": "https://dc.lft.to/lastmile_qr_scan"}, "fusion_lon": 0.0, "lon": -77.0389505, "name": "ca2d92dc2d5436ae67a9b918a2424b4e", "is_reserved": 0, "is_disabled": 0}, {"lat": 38.9127905, "fusion_lat": 0.0, "type": "electric_scooter", "bike_id": "b0469ef38db6806676c1dbd45059a946", "rental_uris": {"ios": "https://dc.lft.to/lastmile_qr_scan", "android": "https://dc.lft.to/lastmile_qr_scan"}, "fusion_lon": 0.0, "lon": -77.04508183333333, "name": "b0469ef38db6806676c1dbd45059a946", "is_reserved": 0, "is_disabled": 0}, {"lat": 38.90572816666667, "fusion_lat": 0.0, "type": "electric_scooter", "bike_id": "0ac8b50a84289cc44999035cddb7dc9a", "rental_uris": {"ios": "https://dc.lft.to/lastmile_qr_scan", "android": "https://dc.lft.to/lastmile_qr_scan"}, "fusion_lon": 0.0, "lon": -77.0184995, "name": "0ac8b50a84289cc44999035cddb7dc9a", "is_reserved": 0, "is_disabled": 0}, {"lat": 38.8991235, "fusion_lat": 0.0, "type": "electric_scooter", "bike_id": "3a2a9088979bc204236c39b75ace21ad", "rental_uris": {"ios": "https://dc.lft.to/lastmile_qr_scan", "android": "https://dc.lft.to/lastmile_qr_scan"}, "fusion_lon": 0.0, "lon": -77.05001666666666, "name": "3a2a9088979bc204236c39b75ace21ad", "is_reserved": 0, "is_disabled": 0}, {"lat": 38.89825583333333, "fusion_lat": 0.0, "type": "electric_scooter", "bike_id": "0bf055012cf070d45b3e1934b3e26bfe", "rental_uris": {"ios": "https://dc.lft.to/lastmile_qr_scan", "android": "https://dc.lft.to/lastmile_qr_scan"}, "fusion_lon": 0.0, "lon": -77.0154485, "name": "0bf055012cf070d45b3e1934b3e26bfe", "is_reserved": 0, "is_disabled": 0}, {"lat": 38.886268666666666, "fusion_lat": 0.0, "type": "electric_scooter", "bike_id": "855e14102ba44e30922cacb965514aed", "rental_uris": {"ios": "https://dc.lft.to/lastmile_qr_scan", "android": "https://dc.lft.to/lastmile_qr_scan"}, "fusion_lon": 0.0, "lon": -76.9258625, "name": "855e14102ba44e30922cacb965514aed", "is_reserved": 0, "is_disabled": 0}, {"lat": 38.878645, "fusion_lat": 0.0, "type": "electric_scooter", "bike_id": "f0b68f8141d38edeb51c315470028a53", "rental_uris": {"ios": "https://dc.lft.to/lastmile_qr_scan", "android": "https://dc.lft.to/lastmile_qr_scan"}, "fusion_lon": 0.0, "lon": -76.96260433333333, "name": "f0b68f8141d38edeb51c315470028a53", "is_reserved": 0, "is_disabled": 0}, {"lat": 38.91957166666667, "fusion_lat": 0.0, "type": "electric_scooter", "bike_id": "0fab955a31a39fbd508d6c7b4a2e5b62", "rental_uris": {"ios": "https://dc.lft.to/lastmile_qr_scan", "android": "https://dc.lft.to/lastmile_qr_scan"}, "fusion_lon": 0.0, "lon": -77.03374016666666, "name": "0fab955a31a39fbd508d6c7b4a2e5b62", "is_reserved": 0, "is_disabled": 0}, {"lat": 38.897947, "fusion_lat": 0.0, "type": "electric_scooter", "bike_id": "7d270eca69caf27a2dd73d56ac35d0b8", "rental_uris": {"ios": "https://dc.lft.to/lastmile_qr_scan", "android": "https://dc.lft.to/lastmile_qr_scan"}, "fusion_lon": 0.0, "lon": -77.01199016666666, "name": "7d270eca69caf27a2dd73d56ac35d0b8", "is_reserved": 0, "is_disabled": 0}, {"lat": 38.92866583333333, "fusion_lat": 0.0, "type": "electric_scooter", "bike_id": "6a5fb9244016e23d09c8f51873791e56", "rental_uris": {"ios": "https://dc.lft.to/lastmile_qr_scan", "android": "https://dc.lft.to/lastmile_qr_scan"}, "fusion_lon": 0.0, "lon": -77.03232616666666, "name": "6a5fb9244016e23d09c8f51873791e56", "is_reserved": 0, "is_disabled": 0}, {"lat": 38.894862, "fusion_lat": 0.0, "type": "electric_scooter", "bike_id": "9f786af7621f1f35239b3bc8a78d7e1f", "rental_uris": {"ios": "https://dc.lft.to/lastmile_qr_scan", "android": "https://dc.lft.to/lastmile_qr_scan"}, "fusion_lon": 0.0, "lon": -77.0107685, "name": "9f786af7621f1f35239b3bc8a78d7e1f", "is_reserved": 0, "is_disabled": 0}, {"lat": 38.930958333333336, "fusion_lat": 0.0, "type": "electric_scooter", "bike_id": "50aa5ff980b329da3e86a29d9b2d484f", "rental_uris": {"ios": "https://dc.lft.to/lastmile_qr_scan", "android": "https://dc.lft.to/lastmile_qr_scan"}, "fusion_lon": 0.0, "lon": -77.0245995, "name": "50aa5ff980b329da3e86a29d9b2d484f", "is_reserved": 0, "is_disabled": 0}, {"lat": 38.920520833333335, "fusion_lat": 0.0, "type": "electric_scooter", "bike_id": "2007edeff95bc4520d5efbf0fa752029", "rental_uris": {"ios": "https://dc.lft.to/lastmile_qr_scan", "android": "https://dc.lft.to/lastmile_qr_scan"}, "fusion_lon": 0.0, "lon": -77.0005675, "name": "2007edeff95bc4520d5efbf0fa752029", "is_reserved": 0, "is_disabled": 0}, {"lat": 38.91359816666667, "fusion_lat": 0.0, "type": "electric_scooter", "bike_id": "5793ad3b91538eb233e7e98629a94e87", "rental_uris": {"ios": "https://dc.lft.to/lastmile_qr_scan", "android": "https://dc.lft.to/lastmile_qr_scan"}, "fusion_lon": 0.0, "lon": -77.02004183333334, "name": "5793ad3b91538eb233e7e98629a94e87", "is_reserved": 0, "is_disabled": 0}, {"lat": 38.903949, "fusion_lat": 0.0, "type": "electric_scooter", "bike_id": "78726f479814b366666541794be78867", "rental_uris": {"ios": "https://dc.lft.to/lastmile_qr_scan", "android": "https://dc.lft.to/lastmile_qr_scan"}, "fusion_lon": 0.0, "lon": -77.00584, "name": "78726f479814b366666541794be78867", "is_reserved": 0, "is_disabled": 0}, {"lat": 38.910871666666665, "fusion_lat": 0.0, "type": "electric_scooter", "bike_id": "2165bf7f3c49db5f799b2eadbc3ca1f0", "rental_uris": {"ios": "https://dc.lft.to/lastmile_qr_scan", "android": "https://dc.lft.to/lastmile_qr_scan"}, "fusion_lon": 0.0, "lon": -77.04479016666667, "name": "2165bf7f3c49db5f799b2eadbc3ca1f0", "is_reserved": 0, "is_disabled": 0}, {"lat": 38.9037455, "fusion_lat": 0.0, "type": "electric_scooter", "bike_id": "cbcd2953a03761a0d5e79ce27c4675d8", "rental_uris": {"ios": "https://dc.lft.to/lastmile_qr_scan", "android": "https://dc.lft.to/lastmile_qr_scan"}, "fusion_lon": 0.0, "lon": -77.03885883333334, "name": "cbcd2953a03761a0d5e79ce27c4675d8", "is_reserved": 0, "is_disabled": 0}, {"lat": 38.87091483333333, "fusion_lat": 0.0, "type": "electric_scooter", "bike_id": "8f73a169e389d4381d6609c2d8948d99", "rental_uris": {"ios": "https://dc.lft.to/lastmile_qr_scan", "android": "https://dc.lft.to/lastmile_qr_scan"}, "fusion_lon": 0.0, "lon": -76.94206516666667, "name": "8f73a169e389d4381d6609c2d8948d99", "is_reserved": 0, "is_disabled": 0}, {"lat": 38.916836, "fusion_lat": 0.0, "type": "electric_scooter", "bike_id": "2d96bd8b6bb2c67ebf95e059da305efb", "rental_uris": {"ios": "https://dc.lft.to/lastmile_qr_scan", "android": "https://dc.lft.to/lastmile_qr_scan"}, "fusion_lon": 0.0, "lon": -77.02975416666666, "name": "2d96bd8b6bb2c67ebf95e059da305efb", "is_reserved": 0, "is_disabled": 0}, {"lat": 38.906754, "fusion_lat": 0.0, "type": "electric_scooter", "bike_id": "038160ab7df529d1bd641bbdf52697a8", "rental_uris": {"ios": "https://dc.lft.to/lastmile_qr_scan", "android": "https://dc.lft.to/lastmile_qr_scan"}, "fusion_lon": 0.0, "lon": -77.03795883333333, "name": "038160ab7df529d1bd641bbdf52697a8", "is_reserved": 0, "is_disabled": 0}, {"lat": 38.91797066666667, "fusion_lat": 0.0, "type": "electric_scooter", "bike_id": "d5da2755898a5deaf14de0267381e04a", "rental_uris": {"ios": "https://dc.lft.to/lastmile_qr_scan", "android": "https://dc.lft.to/lastmile_qr_scan"}, "fusion_lon": 0.0, "lon": -77.0401605, "name": "d5da2755898a5deaf14de0267381e04a", "is_reserved": 0, "is_disabled": 0}, {"lat": 38.8396835, "fusion_lat": 0.0, "type": "electric_bike", "bike_id": "9982d478c78489c7120cac8239dd8498", "rental_uris": {"ios": "https://dc.lft.to/lastmile_qr_scan", "android": "https://dc.lft.to/lastmile_qr_scan"}, "fusion_lon": 0.0, "lon": -76.97738783333334, "name": "9982d478c78489c7120cac8239dd8498", "is_reserved": 0, "is_disabled": 0}, {"lat": 38.92237133333333, "fusion_lat": 0.0, "type": "electric_scooter", "bike_id": "dbd7a5a35348b740737d91adc7573657", "rental_uris": {"ios": "https://dc.lft.to/lastmile_qr_scan", "android": "https://dc.lft.to/lastmile_qr_scan"}, "fusion_lon": 0.0, "lon": -77.04494233333334, "name": "dbd7a5a35348b740737d91adc7573657", "is_reserved": 0, "is_disabled": 0}, {"lat": 38.895353, "fusion_lat": 0.0, "type": "electric_scooter", "bike_id": "1b8e37fcad86ddf159b48ebf1b725465", "rental_uris": {"ios": "https://dc.lft.to/lastmile_qr_scan", "android": "https://dc.lft.to/lastmile_qr_scan"}, "fusion_lon": 0.0, "lon": -77.0465225, "name": "1b8e37fcad86ddf159b48ebf1b725465", "is_reserved": 0, "is_disabled": 0}, {"lat": 38.91928166666667, "fusion_lat": 0.0, "type": "electric_scooter", "bike_id": "0af542dc2f3db24069e815d8c12a3e00", "rental_uris": {"ios": "https://dc.lft.to/lastmile_qr_scan", "android": "https://dc.lft.to/lastmile_qr_scan"}, "fusion_lon": 0.0, "lon": -76.99949233333334, "name": "0af542dc2f3db24069e815d8c12a3e00", "is_reserved": 0, "is_disabled": 0}, {"lat": 38.89247433333333, "fusion_lat": 0.0, "type": "electric_scooter", "bike_id": "85e6424444b012f197256cdd6768029c", "rental_uris": {"ios": "https://dc.lft.to/lastmile_qr_scan", "android": "https://dc.lft.to/lastmile_qr_scan"}, "fusion_lon": 0.0, "lon": -76.98837766666666, "name": "85e6424444b012f197256cdd6768029c", "is_reserved": 0, "is_disabled": 0}, {"lat": 38.91026516666667, "fusion_lat": 0.0, "type": "electric_scooter", "bike_id": "26df13731f4aeee42c32c515d536e8e1", "rental_uris": {"ios": "https://dc.lft.to/lastmile_qr_scan", "android": "https://dc.lft.to/lastmile_qr_scan"}, "fusion_lon": 0.0, "lon": -77.02939033333334, "name": "26df13731f4aeee42c32c515d536e8e1", "is_reserved": 0, "is_disabled": 0}, {"lat": 39.00480833333334, "fusion_lat": 0.0, "type": "electric_bike", "bike_id": "5c0611ae72f4c7074de15c8b5c0a2310", "rental_uris": {"ios": "https://dc.lft.to/lastmile_qr_scan", "android": "https://dc.lft.to/lastmile_qr_scan"}, "fusion_lon": 0.0, "lon": -77.02189083333333, "name": "5c0611ae72f4c7074de15c8b5c0a2310", "is_reserved": 0, "is_disabled": 0}, {"lat": 38.901713, "fusion_lat": 0.0, "type": "electric_scooter", "bike_id": "28435fce3c0d6d6e8ec45bcb021ddc8c", "rental_uris": {"ios": "https://dc.lft.to/lastmile_qr_scan", "android": "https://dc.lft.to/lastmile_qr_scan"}, "fusion_lon": 0.0, "lon": -77.01610483333333, "name": "28435fce3c0d6d6e8ec45bcb021ddc8c", "is_reserved": 0, "is_disabled": 0}, {"lat": 38.92436883333333, "fusion_lat": 0.0, "type": "electric_scooter", "bike_id": "63c49c3862702389618fc6a6de733771", "rental_uris": {"ios": "https://dc.lft.to/lastmile_qr_scan", "android": "https://dc.lft.to/lastmile_qr_scan"}, "fusion_lon": 0.0, "lon": -77.020308, "name": "63c49c3862702389618fc6a6de733771", "is_reserved": 0, "is_disabled": 0}, {"lat": 38.892220333333334, "fusion_lat": 0.0, "type": "electric_scooter", "bike_id": "5acaeaefb31bcda363d20873d76829fd", "rental_uris": {"ios": "https://dc.lft.to/lastmile_qr_scan", "android": "https://dc.lft.to/lastmile_qr_scan"}, "fusion_lon": 0.0, "lon": -77.04201283333333, "name": "5acaeaefb31bcda363d20873d76829fd", "is_reserved": 0, "is_disabled": 0}, {"lat": 38.92332116666667, "fusion_lat": 0.0, "type": "electric_scooter", "bike_id": "2e5c1781e63bafbb0e4faa85408b97a0", "rental_uris": {"ios": "https://dc.lft.to/lastmile_qr_scan", "android": "https://dc.lft.to/lastmile_qr_scan"}, "fusion_lon": 0.0, "lon": -77.05681933333334, "name": "2e5c1781e63bafbb0e4faa85408b97a0", "is_reserved": 0, "is_disabled": 0}, {"lat": 38.82789366666667, "fusion_lat": 0.0, "type": "electric_bike", "bike_id": "6a1211ae9b7f4241bfe8fb7e6652e51e", "rental_uris": {"ios": "https://dc.lft.to/lastmile_qr_scan", "android": "https://dc.lft.to/lastmile_qr_scan"}, "fusion_lon": 0.0, "lon": -77.124909, "name": "6a1211ae9b7f4241bfe8fb7e6652e51e", "is_reserved": 0, "is_disabled": 0}, {"lat": 38.92893633333333, "fusion_lat": 0.0, "type": "electric_scooter", "bike_id": "5f856b469243be854311adb465a784dc", "rental_uris": {"ios": "https://dc.lft.to/lastmile_qr_scan", "android": "https://dc.lft.to/lastmile_qr_scan"}, "fusion_lon": 0.0, "lon": -77.03267666666666, "name": "5f856b469243be854311adb465a784dc", "is_reserved": 0, "is_disabled": 0}, {"lat": 38.876126, "fusion_lat": 0.0, "type": "electric_scooter", "bike_id": "b4795a9ceef10054cf3c86c403c79ac0", "rental_uris": {"ios": "https://dc.lft.to/lastmile_qr_scan", "android": "https://dc.lft.to/lastmile_qr_scan"}, "fusion_lon": 0.0, "lon": -76.96547166666667, "name": "b4795a9ceef10054cf3c86c403c79ac0", "is_reserved": 0, "is_disabled": 0}, {"lat": 38.938367166666666, "fusion_lat": 0.0, "type": "electric_scooter", "bike_id": "4201792cf535d248342fd24f65788662", "rental_uris": {"ios": "https://dc.lft.to/lastmile_qr_scan", "android": "https://dc.lft.to/lastmile_qr_scan"}, "fusion_lon": 0.0, "lon": -77.03388833333334, "name": "4201792cf535d248342fd24f65788662", "is_reserved": 0, "is_disabled": 0}, {"lat": 38.871578166666666, "fusion_lat": 0.0, "type": "electric_scooter", "bike_id": "0f09960ac81be06a85d48bbe4da2a8fc", "rental_uris": {"ios": "https://dc.lft.to/lastmile_qr_scan", "android": "https://dc.lft.to/lastmile_qr_scan"}, "fusion_lon": 0.0, "lon": -77.013593, "name": "0f09960ac81be06a85d48bbe4da2a8fc", "is_reserved": 0, "is_disabled": 0}, {"lat": 38.91506366666667, "fusion_lat": 0.0, "type": "electric_scooter", "bike_id": "208c26a30c111daf43602b32fd614bd6", "rental_uris": {"ios": "https://dc.lft.to/lastmile_qr_scan", "android": "https://dc.lft.to/lastmile_qr_scan"}, "fusion_lon": 0.0, "lon": -77.0157515, "name": "208c26a30c111daf43602b32fd614bd6", "is_reserved": 0, "is_disabled": 0}, {"lat": 38.9112365, "fusion_lat": 0.0, "type": "electric_scooter", "bike_id": "3387694fb71d25966cac23ab9f7ecb42", "rental_uris": {"ios": "https://dc.lft.to/lastmile_qr_scan", "android": "https://dc.lft.to/lastmile_qr_scan"}, "fusion_lon": 0.0, "lon": -77.04549533333333, "name": "3387694fb71d25966cac23ab9f7ecb42", "is_reserved": 0, "is_disabled": 0}, {"lat": 38.900156, "fusion_lat": 0.0, "type": "electric_scooter", "bike_id": "2d96f7191ce986a8440c1644b226a8ff", "rental_uris": {"ios": "https://dc.lft.to/lastmile_qr_scan", "android": "https://dc.lft.to/lastmile_qr_scan"}, "fusion_lon": 0.0, "lon": -77.0160855, "name": "2d96f7191ce986a8440c1644b226a8ff", "is_reserved": 0, "is_disabled": 0}, {"lat": 38.92227883333334, "fusion_lat": 0.0, "type": "electric_scooter", "bike_id": "ecc856cef0edf3796d10ae5073ba4ba2", "rental_uris": {"ios": "https://dc.lft.to/lastmile_qr_scan", "android": "https://dc.lft.to/lastmile_qr_scan"}, "fusion_lon": 0.0, "lon": -77.02216116666666, "name": "ecc856cef0edf3796d10ae5073ba4ba2", "is_reserved": 0, "is_disabled": 0}, {"lat": 38.92464, "fusion_lat": 0.0, "type": "electric_scooter", "bike_id": "4af5eadd4e942e5596b2ce0d16354c30", "rental_uris": {"ios": "https://dc.lft.to/lastmile_qr_scan", "android": "https://dc.lft.to/lastmile_qr_scan"}, "fusion_lon": 0.0, "lon": -77.05241966666667, "name": "4af5eadd4e942e5596b2ce0d16354c30", "is_reserved": 0, "is_disabled": 0}, {"lat": 38.8440475, "fusion_lat": 0.0, "type": "electric_scooter", "bike_id": "d201db52064aea422a7213060038a3c5", "rental_uris": {"ios": "https://dc.lft.to/lastmile_qr_scan", "android": "https://dc.lft.to/lastmile_qr_scan"}, "fusion_lon": 0.0, "lon": -76.99150433333334, "name": "d201db52064aea422a7213060038a3c5", "is_reserved": 0, "is_disabled": 0}, {"lat": 38.91589033333333, "fusion_lat": 0.0, "type": "electric_scooter", "bike_id": "9185fe1a7eef1b2a85fca50d7f2584dc", "rental_uris": {"ios": "https://dc.lft.to/lastmile_qr_scan", "android": "https://dc.lft.to/lastmile_qr_scan"}, "fusion_lon": 0.0, "lon": -77.01720583333334, "name": "9185fe1a7eef1b2a85fca50d7f2584dc", "is_reserved": 0, "is_disabled": 0}, {"lat": 38.904232, "fusion_lat": 0.0, "type": "electric_scooter", "bike_id": "9dfc6502687077d7f85c0ecf465b3dfd", "rental_uris": {"ios": "https://dc.lft.to/lastmile_qr_scan", "android": "https://dc.lft.to/lastmile_qr_scan"}, "fusion_lon": 0.0, "lon": -76.999424, "name": "9dfc6502687077d7f85c0ecf465b3dfd", "is_reserved": 0, "is_disabled": 0}, {"lat": 38.921761833333335, "fusion_lat": 0.0, "type": "electric_scooter", "bike_id": "15f023c68f7bd8499efabc62206f2e7c", "rental_uris": {"ios": "https://dc.lft.to/lastmile_qr_scan", "android": "https://dc.lft.to/lastmile_qr_scan"}, "fusion_lon": 0.0, "lon": -77.0422835, "name": "15f023c68f7bd8499efabc62206f2e7c", "is_reserved": 0, "is_disabled": 0}, {"lat": 38.892185, "fusion_lat": 0.0, "type": "electric_scooter", "bike_id": "5f7933aa427f8a7eeeb39e507a65fd9a", "rental_uris": {"ios": "https://dc.lft.to/lastmile_qr_scan", "android": "https://dc.lft.to/lastmile_qr_scan"}, "fusion_lon": 0.0, "lon": -77.02663183333334, "name": "5f7933aa427f8a7eeeb39e507a65fd9a", "is_reserved": 0, "is_disabled": 0}, {"lat": 38.926002, "fusion_lat": 0.0, "type": "electric_bike", "bike_id": "e3b82ed67e91081d973df53d975f37f4", "rental_uris": {"ios": "https://dc.lft.to/lastmile_qr_scan", "android": "https://dc.lft.to/lastmile_qr_scan"}, "fusion_lon": 0.0, "lon": -77.2102575, "name": "e3b82ed67e91081d973df53d975f37f4", "is_reserved": 0, "is_disabled": 0}, {"lat": 38.92056616666667, "fusion_lat": 0.0, "type": "electric_scooter", "bike_id": "e2c6d831bde1e7ea21323e46f2eb528c", "rental_uris": {"ios": "https://dc.lft.to/lastmile_qr_scan", "android": "https://dc.lft.to/lastmile_qr_scan"}, "fusion_lon": 0.0, "lon": -77.03196416666667, "name": "e2c6d831bde1e7ea21323e46f2eb528c", "is_reserved": 0, "is_disabled": 0}, {"lat": 38.906069, "fusion_lat": 0.0, "type": "electric_scooter", "bike_id": "ba348ae4f1725ce802ea52e89a794577", "rental_uris": {"ios": "https://dc.lft.to/lastmile_qr_scan", "android": "https://dc.lft.to/lastmile_qr_scan"}, "fusion_lon": 0.0, "lon": -77.06379183333334, "name": "ba348ae4f1725ce802ea52e89a794577", "is_reserved": 0, "is_disabled": 0}, {"lat": 38.91557816666667, "fusion_lat": 0.0, "type": "electric_scooter", "bike_id": "13183acb8affddb1b75c6f7f04ade2e8", "rental_uris": {"ios": "https://dc.lft.to/lastmile_qr_scan", "android": "https://dc.lft.to/lastmile_qr_scan"}, "fusion_lon": 0.0, "lon": -77.028454, "name": "13183acb8affddb1b75c6f7f04ade2e8", "is_reserved": 0, "is_disabled": 0}, {"lat": 38.8621585, "fusion_lat": 0.0, "type": "electric_scooter", "bike_id": "68fecfd6ca2e05b7bb602f0ab1739562", "rental_uris": {"ios": "https://dc.lft.to/lastmile_qr_scan", "android": "https://dc.lft.to/lastmile_qr_scan"}, "fusion_lon": 0.0, "lon": -76.99488883333333, "name": "68fecfd6ca2e05b7bb602f0ab1739562", "is_reserved": 0, "is_disabled": 0}, {"lat": 38.91395983333334, "fusion_lat": 0.0, "type": "electric_scooter", "bike_id": "9959fea1f2daa91b8491b47549489ac7", "rental_uris": {"ios": "https://dc.lft.to/lastmile_qr_scan", "android": "https://dc.lft.to/lastmile_qr_scan"}, "fusion_lon": 0.0, "lon": -77.03211716666667, "name": "9959fea1f2daa91b8491b47549489ac7", "is_reserved": 0, "is_disabled": 0}, {"lat": 38.87522533333333, "fusion_lat": 0.0, "type": "electric_scooter", "bike_id": "efa5fb106ed0f4e92cfeac9421ea5127", "rental_uris": {"ios": "https://dc.lft.to/lastmile_qr_scan", "android": "https://dc.lft.to/lastmile_qr_scan"}, "fusion_lon": 0.0, "lon": -77.00047866666667, "name": "efa5fb106ed0f4e92cfeac9421ea5127", "is_reserved": 0, "is_disabled": 0}, {"lat": 38.901317666666664, "fusion_lat": 0.0, "type": "electric_scooter", "bike_id": "d08c7fe9bda6fddf7c6e7e30d88b7eca", "rental_uris": {"ios": "https://dc.lft.to/lastmile_qr_scan", "android": "https://dc.lft.to/lastmile_qr_scan"}, "fusion_lon": 0.0, "lon": -77.04419416666667, "name": "d08c7fe9bda6fddf7c6e7e30d88b7eca", "is_reserved": 0, "is_disabled": 0}, {"lat": 38.9246645, "fusion_lat": 0.0, "type": "electric_scooter", "bike_id": "4d49e78bf7237b44074e3cff1e390033", "rental_uris": {"ios": "https://dc.lft.to/lastmile_qr_scan", "android": "https://dc.lft.to/lastmile_qr_scan"}, "fusion_lon": 0.0, "lon": -77.0393405, "name": "4d49e78bf7237b44074e3cff1e390033", "is_reserved": 0, "is_disabled": 0}, {"lat": 38.876802, "fusion_lat": 0.0, "type": "electric_scooter", "bike_id": "19252e60a0a0f598e28f52c6091df6d0", "rental_uris": {"ios": "https://dc.lft.to/lastmile_qr_scan", "android": "https://dc.lft.to/lastmile_qr_scan"}, "fusion_lon": 0.0, "lon": -77.00686516666667, "name": "19252e60a0a0f598e28f52c6091df6d0", "is_reserved": 0, "is_disabled": 0}, {"lat": 38.88121, "fusion_lat": 0.0, "type": "electric_scooter", "bike_id": "fb70b351ec2e37f354d80580fce5988a", "rental_uris": {"ios": "https://dc.lft.to/lastmile_qr_scan", "android": "https://dc.lft.to/lastmile_qr_scan"}, "fusion_lon": 0.0, "lon": -77.0174275, "name": "fb70b351ec2e37f354d80580fce5988a", "is_reserved": 0, "is_disabled": 0}, {"lat": 38.90206833333333, "fusion_lat": 0.0, "type": "electric_scooter", "bike_id": "be594db8c3610ea30953fd55aa041b1a", "rental_uris": {"ios": "https://dc.lft.to/lastmile_qr_scan", "android": "https://dc.lft.to/lastmile_qr_scan"}, "fusion_lon": 0.0, "lon": -77.021235, "name": "be594db8c3610ea30953fd55aa041b1a", "is_reserved": 0, "is_disabled": 0}, {"lat": 38.887671166666664, "fusion_lat": 0.0, "type": "electric_scooter", "bike_id": "ba2d49dcdf2b58f2cccbea09b67069e4", "rental_uris": {"ios": "https://dc.lft.to/lastmile_qr_scan", "android": "https://dc.lft.to/lastmile_qr_scan"}, "fusion_lon": 0.0, "lon": -77.02238683333333, "name": "ba2d49dcdf2b58f2cccbea09b67069e4", "is_reserved": 0, "is_disabled": 0}, {"lat": 38.92264216666667, "fusion_lat": 0.0, "type": "electric_scooter", "bike_id": "3fb01bf58a748e5d662a26361be652d4", "rental_uris": {"ios": "https://dc.lft.to/lastmile_qr_scan", "android": "https://dc.lft.to/lastmile_qr_scan"}, "fusion_lon": 0.0, "lon": -77.02441883333333, "name": "3fb01bf58a748e5d662a26361be652d4", "is_reserved": 0, "is_disabled": 0}, {"lat": 38.91496183333334, "fusion_lat": 0.0, "type": "electric_scooter", "bike_id": "60d5c1f02eec8ab7811d105658501428", "rental_uris": {"ios": "https://dc.lft.to/lastmile_qr_scan", "android": "https://dc.lft.to/lastmile_qr_scan"}, "fusion_lon": 0.0, "lon": -76.9836785, "name": "60d5c1f02eec8ab7811d105658501428", "is_reserved": 0, "is_disabled": 0}, {"lat": 38.93628833333333, "fusion_lat": 0.0, "type": "electric_scooter", "bike_id": "cf6e83edd4741680d4a6337fb6f22d3e", "rental_uris": {"ios": "https://dc.lft.to/lastmile_qr_scan", "android": "https://dc.lft.to/lastmile_qr_scan"}, "fusion_lon": 0.0, "lon": -77.058803, "name": "cf6e83edd4741680d4a6337fb6f22d3e", "is_reserved": 0, "is_disabled": 0}, {"lat": 38.90990433333333, "fusion_lat": 0.0, "type": "electric_scooter", "bike_id": "cb9c4ec7a6a23fcccd73bbd12764cc17", "rental_uris": {"ios": "https://dc.lft.to/lastmile_qr_scan", "android": "https://dc.lft.to/lastmile_qr_scan"},