{"data": {"bikes": [{"lon": -77.039462, "bike_id": "847a6a6d12ee398d82e9bf4977709c4c", "lat": 38.89883416666667, "fusion_lon": 0.0, "fusion_lat": 0.0, "type": "electric_scooter", "name": "847a6a6d12ee398d82e9bf4977709c4c", "is_disabled": 0, "rental_uris": {"ios": "https://dc.lft.to/lastmile_qr_scan", "android": "https://dc.lft.to/lastmile_qr_scan"}, "is_reserved": 0}, {"lon": -76.98904733333333, "bike_id": "4d923326a9fd35695768109673b3ff1a", "lat": 38.86667466666667, "fusion_lon": 0.0, "fusion_lat": 0.0, "type": "electric_scooter", "name": "4d923326a9fd35695768109673b3ff1a", "is_disabled": 0, "rental_uris": {"ios": "https://dc.lft.to/lastmile_qr_scan", "android": "https://dc.lft.to/lastmile_qr_scan"}, "is_reserved": 0}, {"lon": -77.02552433333334, "bike_id": "1ef29ff549ca558ae68f152743b9fc07", "lat": 38.930771666666665, "fusion_lon": 0.0, "fusion_lat": 0.0, "type": "electric_scooter", "name": "1ef29ff549ca558ae68f152743b9fc07", "is_disabled": 0, "rental_uris": {"ios": "https://dc.lft.to/lastmile_qr_scan", "android": "https://dc.lft.to/lastmile_qr_scan"}, "is_reserved": 0}, {"lon": -77.04338, "bike_id": "fc7e964414ceaf61f030739b11e726e9", "lat": 38.911105166666665, "fusion_lon": 0.0, "fusion_lat": 0.0, "type": "electric_scooter", "name": "fc7e964414ceaf61f030739b11e726e9", "is_disabled": 0, "rental_uris": {"ios": "https://dc.lft.to/lastmile_qr_scan", "android": "https://dc.lft.to/lastmile_qr_scan"}, "is_reserved": 0}, {"lon": -77.00524083333333, "bike_id": "2f0171288e41ab567782e4260c8a5f23", "lat": 38.8754465, "fusion_lon": 0.0, "fusion_lat": 0.0, "type": "electric_scooter", "name": "2f0171288e41ab567782e4260c8a5f23", "is_disabled": 0, "rental_uris": {"ios": "https://dc.lft.to/lastmile_qr_scan", "android": "https://dc.lft.to/lastmile_qr_scan"}, "is_reserved": 0}, {"lon": -77.108388, "bike_id": "6dfe0d16fbd933e3f1edb4ec5ea42782", "lat": 38.8120125, "fusion_lon": 0.0, "fusion_lat": 0.0, "type": "electric_bike", "name": "6dfe0d16fbd933e3f1edb4ec5ea42782", "is_disabled": 0, "rental_uris": {"ios": "https://dc.lft.to/lastmile_qr_scan", "android": "https://dc.lft.to/lastmile_qr_scan"}, "is_reserved": 0}, {"lon": -76.98080783333333, "bike_id": "6582728f9c696eedbc0fb10d0b9f811c", "lat": 38.9071185, "fusion_lon": 0.0, "fusion_lat": 0.0, "type": "electric_scooter", "name": "6582728f9c696eedbc0fb10d0b9f811c", "is_disabled": 0, "rental_uris": {"ios": "https://dc.lft.to/lastmile_qr_scan", "android": "https://dc.lft.to/lastmile_qr_scan"}, "is_reserved": 0}, {"lon": -77.02688033333334, "bike_id": "813b7a1b2e5a6957c22d943dd64b96fb", "lat": 38.90627883333333, "fusion_lon": 0.0, "fusion_lat": 0.0, "type": "electric_scooter", "name": "813b7a1b2e5a6957c22d943dd64b96fb", "is_disabled": 0, "rental_uris": {"ios": "https://dc.lft.to/lastmile_qr_scan", "android": "https://dc.lft.to/lastmile_qr_scan"}, "is_reserved": 0}, {"lon": -77.02785933333334, "bike_id": "a44e6588cc4d46201ee1cfc6810dd742", "lat": 38.894, "fusion_lon": 0.0, "fusion_lat": 0.0, "type": "electric_scooter", "name": "a44e6588cc4d46201ee1cfc6810dd742", "is_disabled": 0, "rental_uris": {"ios": "https://dc.lft.to/lastmile_qr_scan", "android": "https://dc.lft.to/lastmile_qr_scan"}, "is_reserved": 0}, {"lon": -77.03578383333333, "bike_id": "470a71836fce0510a9c613a670f1de57", "lat": 38.917808, "fusion_lon": 0.0, "fusion_lat": 0.0, "type": "electric_scooter", "name": "470a71836fce0510a9c613a670f1de57", "is_disabled": 0, "rental_uris": {"ios": "https://dc.lft.to/lastmile_qr_scan", "android": "https://dc.lft.to/lastmile_qr_scan"}, "is_reserved": 0}, {"lon": -76.990035, "bike_id": "7a12b975c1e748cde633037b40b8087b", "lat": 38.8650685, "fusion_lon": 0.0, "fusion_lat": 0.0, "type": "electric_scooter", "name": "7a12b975c1e748cde633037b40b8087b", "is_disabled": 0, "rental_uris": {"ios": "https://dc.lft.to/lastmile_qr_scan", "android": "https://dc.lft.to/lastmile_qr_scan"}, "is_reserved": 0}, {"lon": -77.02783666666667, "bike_id": "14b1cfe104b98b3aa7119bec1c9bf253", "lat": 38.930117833333334, "fusion_lon": 0.0, "fusion_lat": 0.0, "type": "electric_scooter", "name": "14b1cfe104b98b3aa7119bec1c9bf253", "is_disabled": 0, "rental_uris": {"ios": "https://dc.lft.to/lastmile_qr_scan", "android": "https://dc.lft.to/lastmile_qr_scan"}, "is_reserved": 0}, {"lon": -77.02426883333334, "bike_id": "a6b995e04cea3b7ea15eb7d7f085cffd", "lat": 38.884147, "fusion_lon": 0.0, "fusion_lat": 0.0, "type": "electric_scooter", "name": "a6b995e04cea3b7ea15eb7d7f085cffd", "is_disabled": 0, "rental_uris": {"ios": "https://dc.lft.to/lastmile_qr_scan", "android": "https://dc.lft.to/lastmile_qr_scan"}, "is_reserved": 0}, {"lon": -77.04162183333334, "bike_id": "d2fa98eb6b27e9d998b6db32bbf269b8", "lat": 38.91255116666667, "fusion_lon": 0.0, "fusion_lat": 0.0, "type": "electric_scooter", "name": "d2fa98eb6b27e9d998b6db32bbf269b8", "is_disabled": 0, "rental_uris": {"ios": "https://dc.lft.to/lastmile_qr_scan", "android": "https://dc.lft.to/lastmile_qr_scan"}, "is_reserved": 0}, {"lon": -77.03824, "bike_id": "40d79c8acf9744d7dc0d001e2ffae5da", "lat": 38.9127265, "fusion_lon": 0.0, "fusion_lat": 0.0, "type": "electric_scooter", "name": "40d79c8acf9744d7dc0d001e2ffae5da", "is_disabled": 0, "rental_uris": {"ios": "https://dc.lft.to/lastmile_qr_scan", "android": "https://dc.lft.to/lastmile_qr_scan"}, "is_reserved": 0}, {"lon": -77.0480655, "bike_id": "e7cfa5f94af678645e94e42afe5f6e7b", "lat": 38.9140555, "fusion_lon": 0.0, "fusion_lat": 0.0, "type": "electric_scooter", "name": "e7cfa5f94af678645e94e42afe5f6e7b", "is_disabled": 0, "rental_uris": {"ios": "https://dc.lft.to/lastmile_qr_scan", "android": "https://dc.lft.to/lastmile_qr_scan"}, "is_reserved": 0}, {"lon": -77.04181683333333, "bike_id": "92d6c6305e301a619b5e5e83399ff936", "lat": 38.89224383333333, "fusion_lon": 0.0, "fusion_lat": 0.0, "type": "electric_scooter", "name": "92d6c6305e301a619b5e5e83399ff936", "is_disabled": 0, "rental_uris": {"ios": "https://dc.lft.to/lastmile_qr_scan", "android": "https://dc.lft.to/lastmile_qr_scan"}, "is_reserved": 0}, {"lon": -76.98538283333333, "bike_id": "6cccd0be3b1c8686c7275eec01c27adf", "lat": 38.907839833333334, "fusion_lon": 0.0, "fusion_lat": 0.0, "type": "electric_scooter", "name": "6cccd0be3b1c8686c7275eec01c27adf", "is_disabled": 0, "rental_uris": {"ios": "https://dc.lft.to/lastmile_qr_scan", "android": "https://dc.lft.to/lastmile_qr_scan"}, "is_reserved": 0}, {"lon": -76.9823735, "bike_id": "2ba38748aec5a86e35630c7f831a4b92", "lat": 38.88863683333334, "fusion_lon": 0.0, "fusion_lat": 0.0, "type": "electric_scooter", "name": "2ba38748aec5a86e35630c7f831a4b92", "is_disabled": 0, "rental_uris": {"ios": "https://dc.lft.to/lastmile_qr_scan", "android": "https://dc.lft.to/lastmile_qr_scan"}, "is_reserved": 0}, {"lon": -77.06487783333333, "bike_id": "9fd75d85a3068a3c9ef3d90f5bfae44d", "lat": 38.9290865, "fusion_lon": 0.0, "fusion_lat": 0.0, "type": "electric_scooter", "name": "9fd75d85a3068a3c9ef3d90f5bfae44d", "is_disabled": 0, "rental_uris": {"ios": "https://dc.lft.to/lastmile_qr_scan", "android": "https://dc.lft.to/lastmile_qr_scan"}, "is_reserved": 0}, {"lon": -77.03055516666667, "bike_id": "0d8b5e1324300002a10b4105d21be1e1", "lat": 38.90805683333333, "fusion_lon": 0.0, "fusion_lat": 0.0, "type": "electric_scooter", "name": "0d8b5e1324300002a10b4105d21be1e1", "is_disabled": 0, "rental_uris": {"ios": "https://dc.lft.to/lastmile_qr_scan", "android": "https://dc.lft.to/lastmile_qr_scan"}, "is_reserved": 0}, {"lon": -77.03350716666667, "bike_id": "11b1c7caed79550edc50d9bfdc9c1d54", "lat": 38.92343316666667, "fusion_lon": 0.0, "fusion_lat": 0.0, "type": "electric_scooter", "name": "11b1c7caed79550edc50d9bfdc9c1d54", "is_disabled": 0, "rental_uris": {"ios": "https://dc.lft.to/lastmile_qr_scan", "android": "https://dc.lft.to/lastmile_qr_scan"}, "is_reserved": 0}, {"lon": -77.03589816666667, "bike_id": "9898018cf7c8738f122f05b4a859c010", "lat": 38.909763, "fusion_lon": 0.0, "fusion_lat": 0.0, "type": "electric_scooter", "name": "9898018cf7c8738f122f05b4a859c010", "is_disabled": 0, "rental_uris": {"ios": "https://dc.lft.to/lastmile_qr_scan", "android": "https://dc.lft.to/lastmile_qr_scan"}, "is_reserved": 0}, {"lon": -77.05001483333334, "bike_id": "c2b4c8f7486ae807f6531dd8fb2c2376", "lat": 38.90069483333333, "fusion_lon": 0.0, "fusion_lat": 0.0, "type": "electric_scooter", "name": "c2b4c8f7486ae807f6531dd8fb2c2376", "is_disabled": 0, "rental_uris": {"ios": "https://dc.lft.to/lastmile_qr_scan", "android": "https://dc.lft.to/lastmile_qr_scan"}, "is_reserved": 0}, {"lon": -77.04997, "bike_id": "390f4c355304296bc4722ce0ac83546b", "lat": 38.899770833333335, "fusion_lon": 0.0, "fusion_lat": 0.0, "type": "electric_scooter", "name": "390f4c355304296bc4722ce0ac83546b", "is_disabled": 0, "rental_uris": {"ios": "https://dc.lft.to/lastmile_qr_scan", "android": "https://dc.lft.to/lastmile_qr_scan"}, "is_reserved": 0}, {"lon": -76.97661433333333, "bike_id": "ab74b6a4d9e1cdcd8d569e8e39bb3039", "lat": 38.89876866666667, "fusion_lon": 0.0, "fusion_lat": 0.0, "type": "electric_bike", "name": "ab74b6a4d9e1cdcd8d569e8e39bb3039", "is_disabled": 0, "rental_uris": {"ios": "https://dc.lft.to/lastmile_qr_scan", "android": "https://dc.lft.to/lastmile_qr_scan"}, "is_reserved": 0}, {"lon": -77.0439145, "bike_id": "16caeaa1a03dd48e41c025a8b5556c85", "lat": 38.9056885, "fusion_lon": 0.0, "fusion_lat": 0.0, "type": "electric_scooter", "name": "16caeaa1a03dd48e41c025a8b5556c85", "is_disabled": 0, "rental_uris": {"ios": "https://dc.lft.to/lastmile_qr_scan", "android": "https://dc.lft.to/lastmile_qr_scan"}, "is_reserved": 0}, {"lon": -77.061283, "bike_id": "7182ce054788d2e4902cea36a6190024", "lat": 38.943548666666665, "fusion_lon": 0.0, "fusion_lat": 0.0, "type": "electric_scooter", "name": "7182ce054788d2e4902cea36a6190024", "is_disabled": 0, "rental_uris": {"ios": "https://dc.lft.to/lastmile_qr_scan", "android": "https://dc.lft.to/lastmile_qr_scan"}, "is_reserved": 0}, {"lon": -77.02524783333334, "bike_id": "49c295f267805ac48ada2bdcb63ac200", "lat": 38.92075283333333, "fusion_lon": 0.0, "fusion_lat": 0.0, "type": "electric_scooter", "name": "49c295f267805ac48ada2bdcb63ac200", "is_disabled": 0, "rental_uris": {"ios": "https://dc.lft.to/lastmile_qr_scan", "android": "https://dc.lft.to/lastmile_qr_scan"}, "is_reserved": 0}, {"lon": -77.02426666666666, "bike_id": "fded5714b8443aa2d48d699c5bf4e741", "lat": 38.92285666666667, "fusion_lon": 0.0, "fusion_lat": 0.0, "type": "electric_scooter", "name": "fded5714b8443aa2d48d699c5bf4e741", "is_disabled": 0, "rental_uris": {"ios": "https://dc.lft.to/lastmile_qr_scan", "android": "https://dc.lft.to/lastmile_qr_scan"}, "is_reserved": 0}, {"lon": -77.02716616666666, "bike_id": "d4bf85b0c66ae0bca041518e9c781b15", "lat": 38.90255116666667, "fusion_lon": 0.0, "fusion_lat": 0.0, "type": "electric_scooter", "name": "d4bf85b0c66ae0bca041518e9c781b15", "is_disabled": 0, "rental_uris": {"ios": "https://dc.lft.to/lastmile_qr_scan", "android": "https://dc.lft.to/lastmile_qr_scan"}, "is_reserved": 0}, {"lon": -77.03000516666667, "bike_id": "ddb213dbfcdf99974a0626e98fc010e9", "lat": 39.0419645, "fusion_lon": 0.0, "fusion_lat": 0.0, "type": "electric_bike", "name": "ddb213dbfcdf99974a0626e98fc010e9", "is_disabled": 0, "rental_uris": {"ios": "https://dc.lft.to/lastmile_qr_scan", "android": "https://dc.lft.to/lastmile_qr_scan"}, "is_reserved": 0}, {"lon": -77.077876, "bike_id": "5d2dc1437169a5a064b0d932f6c60465", "lat": 38.996060666666665, "fusion_lon": 0.0, "fusion_lat": 0.0, "type": "electric_bike", "name": "5d2dc1437169a5a064b0d932f6c60465", "is_disabled": 0, "rental_uris": {"ios": "https://dc.lft.to/lastmile_qr_scan", "android": "https://dc.lft.to/lastmile_qr_scan"}, "is_reserved": 0}, {"lon": -77.032017, "bike_id": "c1520aa9ff560a7a1081570c91f5d1b4", "lat": 38.91921333333333, "fusion_lon": 0.0, "fusion_lat": 0.0, "type": "electric_scooter", "name": "c1520aa9ff560a7a1081570c91f5d1b4", "is_disabled": 0, "rental_uris": {"ios": "https://dc.lft.to/lastmile_qr_scan", "android": "https://dc.lft.to/lastmile_qr_scan"}, "is_reserved": 0}, {"lon": -77.028144, "bike_id": "223b2a73a179d2b2dc3f3b33c2ce3000", "lat": 38.911351833333335, "fusion_lon": 0.0, "fusion_lat": 0.0, "type": "electric_scooter", "name": "223b2a73a179d2b2dc3f3b33c2ce3000", "is_disabled": 0, "rental_uris": {"ios": "https://dc.lft.to/lastmile_qr_scan", "android": "https://dc.lft.to/lastmile_qr_scan"}, "is_reserved": 0}, {"lon": -77.00188433333334, "bike_id": "9ed9623fb67d9c5f09521923e4af657c", "lat": 38.891003, "fusion_lon": 0.0, "fusion_lat": 0.0, "type": "electric_scooter", "name": "9ed9623fb67d9c5f09521923e4af657c", "is_disabled": 0, "rental_uris": {"ios": "https://dc.lft.to/lastmile_qr_scan", "android": "https://dc.lft.to/lastmile_qr_scan"}, "is_reserved": 0}, {"lon": -77.02439333333334, "bike_id": "6b64cf147738acc0348c8de7448dbf5f", "lat": 38.9380045, "fusion_lon": 0.0, "fusion_lat": 0.0, "type": "electric_scooter", "name": "6b64cf147738acc0348c8de7448dbf5f", "is_disabled": 0, "rental_uris": {"ios": "https://dc.lft.to/lastmile_qr_scan", "android": "https://dc.lft.to/lastmile_qr_scan"}, "is_reserved": 0}, {"lon": -77.019697, "bike_id": "7b99cb063239849cfb829058b9db45e8", "lat": 38.88598983333333, "fusion_lon": 0.0, "fusion_lat": 0.0, "type": "electric_scooter", "name": "7b99cb063239849cfb829058b9db45e8", "is_disabled": 0, "rental_uris": {"ios": "https://dc.lft.to/lastmile_qr_scan", "android": "https://dc.lft.to/lastmile_qr_scan"}, "is_reserved": 0}, {"lon": -77.07594116666667, "bike_id": "465523822691770b941c5a29b797163c", "lat": 38.91219383333333, "fusion_lon": 0.0, "fusion_lat": 0.0, "type": "electric_scooter", "name": "465523822691770b941c5a29b797163c", "is_disabled": 0, "rental_uris": {"ios": "https://dc.lft.to/lastmile_qr_scan", "android": "https://dc.lft.to/lastmile_qr_scan"}, "is_reserved": 0}, {"lon": -77.03282966666667, "bike_id": "86b53e6081df684ecbe75163de76dd15", "lat": 38.937624666666665, "fusion_lon": 0.0, "fusion_lat": 0.0, "type": "electric_scooter", "name": "86b53e6081df684ecbe75163de76dd15", "is_disabled": 0, "rental_uris": {"ios": "https://dc.lft.to/lastmile_qr_scan", "android": "https://dc.lft.to/lastmile_qr_scan"}, "is_reserved": 0}, {"lon": -76.994564, "bike_id": "b3b105d5414f756520f9d7b578e924cf", "lat": 38.903718, "fusion_lon": 0.0, "fusion_lat": 0.0, "type": "electric_scooter", "name": "b3b105d5414f756520f9d7b578e924cf", "is_disabled": 0, "rental_uris": {"ios": "https://dc.lft.to/lastmile_qr_scan", "android": "https://dc.lft.to/lastmile_qr_scan"}, "is_reserved": 0}, {"lon": -77.021945, "bike_id": "01775f30ae12a68498ff2355ceb1b063", "lat": 38.91477183333333, "fusion_lon": 0.0, "fusion_lat": 0.0, "type": "electric_scooter", "name": "01775f30ae12a68498ff2355ceb1b063", "is_disabled": 0, "rental_uris": {"ios": "https://dc.lft.to/lastmile_qr_scan", "android": "https://dc.lft.to/lastmile_qr_scan"}, "is_reserved": 0}, {"lon": -76.98843833333333, "bike_id": "05e42fd25afd3a32557dcefe6bde051a", "lat": 38.842703, "fusion_lon": 0.0, "fusion_lat": 0.0, "type": "electric_bike", "name": "05e42fd25afd3a32557dcefe6bde051a", "is_disabled": 0, "rental_uris": {"ios": "https://dc.lft.to/lastmile_qr_scan", "android": "https://dc.lft.to/lastmile_qr_scan"}, "is_reserved": 0}, {"lon": -76.98523466666667, "bike_id": "cbeab34407bb7bc5bc2218feb5af430b", "lat": 38.866876500000004, "fusion_lon": 0.0, "fusion_lat": 0.0, "type": "electric_scooter", "name": "cbeab34407bb7bc5bc2218feb5af430b", "is_disabled": 0, "rental_uris": {"ios": "https://dc.lft.to/lastmile_qr_scan", "android": "https://dc.lft.to/lastmile_qr_scan"}, "is_reserved": 0}, {"lon": -77.072359, "bike_id": "820ca8bea70dbb88f1597f3282b08e23", "lat": 38.89888633333333, "fusion_lon": 0.0, "fusion_lat": 0.0, "type": "electric_scooter", "name": "820ca8bea70dbb88f1597f3282b08e23", "is_disabled": 0, "rental_uris": {"ios": "https://dc.lft.to/lastmile_qr_scan", "android": "https://dc.lft.to/lastmile_qr_scan"}, "is_reserved": 0}, {"lon": -77.03865066666667, "bike_id": "6ade873a3580a9ba1aa8197fe17466d2", "lat": 38.91265883333333, "fusion_lon": 0.0, "fusion_lat": 0.0, "type": "electric_scooter", "name": "6ade873a3580a9ba1aa8197fe17466d2", "is_disabled": 0, "rental_uris": {"ios": "https://dc.lft.to/lastmile_qr_scan", "android": "https://dc.lft.to/lastmile_qr_scan"}, "is_reserved": 0}, {"lon": -77.01457966666666, "bike_id": "4641e904475991830b101b48f04394da", "lat": 38.919247666666664, "fusion_lon": 0.0, "fusion_lat": 0.0, "type": "electric_scooter", "name": "4641e904475991830b101b48f04394da", "is_disabled": 0, "rental_uris": {"ios": "https://dc.lft.to/lastmile_qr_scan", "android": "https://dc.lft.to/lastmile_qr_scan"}, "is_reserved": 0}, {"lon": -77.0280435, "bike_id": "27e9683ad616130607bf5e1a59c95efb", "lat": 38.914252833333336, "fusion_lon": 0.0, "fusion_lat": 0.0, "type": "electric_scooter", "name": "27e9683ad616130607bf5e1a59c95efb", "is_disabled": 0, "rental_uris": {"ios": "https://dc.lft.to/lastmile_qr_scan", "android": "https://dc.lft.to/lastmile_qr_scan"}, "is_reserved": 0}, {"lon": -77.03213516666666, "bike_id": "80d13d62c31598440e586c491a005ba3", "lat": 38.892192, "fusion_lon": 0.0, "fusion_lat": 0.0, "type": "electric_scooter", "name": "80d13d62c31598440e586c491a005ba3", "is_disabled": 0, "rental_uris": {"ios": "https://dc.lft.to/lastmile_qr_scan", "android": "https://dc.lft.to/lastmile_qr_scan"}, "is_reserved": 0}, {"lon": -77.05489216666666, "bike_id": "4daea9034c74dd0b6cdafc7d9d92e310", "lat": 38.9042735, "fusion_lon": 0.0, "fusion_lat": 0.0, "type": "electric_scooter", "name": "4daea9034c74dd0b6cdafc7d9d92e310", "is_disabled": 0, "rental_uris": {"ios": "https://dc.lft.to/lastmile_qr_scan", "android": "https://dc.lft.to/lastmile_qr_scan"}, "is_reserved": 0}, {"lon": -76.97237833333334, "bike_id": "42898a969fe3e6ab372554a50926c4b7", "lat": 38.903438666666666, "fusion_lon": 0.0, "fusion_lat": 0.0, "type": "electric_scooter", "name": "42898a969fe3e6ab372554a50926c4b7", "is_disabled": 0, "rental_uris": {"ios": "https://dc.lft.to/lastmile_qr_scan", "android": "https://dc.lft.to/lastmile_qr_scan"}, "is_reserved": 0}, {"lon": -77.015277, "bike_id": "045ef2e9677bc3dac925482f36e72a94", "lat": 38.9025075, "fusion_lon": 0.0, "fusion_lat": 0.0, "type": "electric_scooter", "name": "045ef2e9677bc3dac925482f36e72a94", "is_disabled": 0, "rental_uris": {"ios": "https://dc.lft.to/lastmile_qr_scan", "android": "https://dc.lft.to/lastmile_qr_scan"}, "is_reserved": 0}, {"lon": -77.02389133333334, "bike_id": "b547978dad28bf5c4272229373550599", "lat": 38.92077616666667, "fusion_lon": 0.0, "fusion_lat": 0.0, "type": "electric_scooter", "name": "b547978dad28bf5c4272229373550599", "is_disabled": 0, "rental_uris": {"ios": "https://dc.lft.to/lastmile_qr_scan", "android": "https://dc.lft.to/lastmile_qr_scan"}, "is_reserved": 0}, {"lon": -77.06782533333333, "bike_id": "c0fd37813cd3decfcd87a97deafbda0f", "lat": 38.90453016666667, "fusion_lon": 0.0, "fusion_lat": 0.0, "type": "electric_scooter", "name": "c0fd37813cd3decfcd87a97deafbda0f", "is_disabled": 0, "rental_uris": {"ios": "https://dc.lft.to/lastmile_qr_scan", "android": "https://dc.lft.to/lastmile_qr_scan"}, "is_reserved": 0}, {"lon": -77.13098666666667, "bike_id": "7b64b67452ce1560b1ecac3912c59ec1", "lat": 39.024358, "fusion_lon": 0.0, "fusion_lat": 0.0, "type": "electric_bike", "name": "7b64b67452ce1560b1ecac3912c59ec1", "is_disabled": 0, "rental_uris": {"ios": "https://dc.lft.to/lastmile_qr_scan", "android": "https://dc.lft.to/lastmile_qr_scan"}, "is_reserved": 0}, {"lon": -77.01862466666667, "bike_id": "556ac2432c187454f0c1684c2790956c", "lat": 38.903685833333334, "fusion_lon": 0.0, "fusion_lat": 0.0, "type": "electric_scooter", "name": "556ac2432c187454f0c1684c2790956c", "is_disabled": 0, "rental_uris": {"ios": "https://dc.lft.to/lastmile_qr_scan", "android": "https://dc.lft.to/lastmile_qr_scan"}, "is_reserved": 0}, {"lon": -77.03853666666667, "bike_id": "ef0f147b3c4cd174d52b5d7216b782a2", "lat": 38.915476166666664, "fusion_lon": 0.0, "fusion_lat": 0.0, "type": "electric_scooter", "name": "ef0f147b3c4cd174d52b5d7216b782a2", "is_disabled": 0, "rental_uris": {"ios": "https://dc.lft.to/lastmile_qr_scan", "android": "https://dc.lft.to/lastmile_qr_scan"}, "is_reserved": 0}, {"lon": -76.99596116666666, "bike_id": "400beddf463e6da2829cef6af299188b", "lat": 38.88430283333334, "fusion_lon": 0.0, "fusion_lat": 0.0, "type": "electric_scooter", "name": "400beddf463e6da2829cef6af299188b", "is_disabled": 0, "rental_uris": {"ios": "https://dc.lft.to/lastmile_qr_scan", "android": "https://dc.lft.to/lastmile_qr_scan"}, "is_reserved": 0}, {"lon": -77.04170566666667, "bike_id": "88b6385af95b2886b65465802e26c64f", "lat": 38.9179225, "fusion_lon": 0.0, "fusion_lat": 0.0, "type": "electric_scooter", "name": "88b6385af95b2886b65465802e26c64f", "is_disabled": 0, "rental_uris": {"ios": "https://dc.lft.to/lastmile_qr_scan", "android": "https://dc.lft.to/lastmile_qr_scan"}, "is_reserved": 0}, {"lon": -77.04691466666667, "bike_id": "308d2b63d561184dd3281d46f1a9ec47", "lat": 38.9053165, "fusion_lon": 0.0, "fusion_lat": 0.0, "type": "electric_scooter", "name": "308d2b63d561184dd3281d46f1a9ec47", "is_disabled": 0, "rental_uris": {"ios": "https://dc.lft.to/lastmile_qr_scan", "android": "https://dc.lft.to/lastmile_qr_scan"}, "is_reserved": 0}, {"lon": -77.032649, "bike_id": "6a53699a770996faa821a6994f61e403", "lat": 38.92542616666667, "fusion_lon": 0.0, "fusion_lat": 0.0, "type": "electric_scooter", "name": "6a53699a770996faa821a6994f61e403", "is_disabled": 0, "rental_uris": {"ios": "https://dc.lft.to/lastmile_qr_scan", "android": "https://dc.lft.to/lastmile_qr_scan"}, "is_reserved": 0}, {"lon": -77.025119, "bike_id": "1cab9bf0b238166654580bf5c99402aa", "lat": 38.9191425, "fusion_lon": 0.0, "fusion_lat": 0.0, "type": "electric_scooter", "name": "1cab9bf0b238166654580bf5c99402aa", "is_disabled": 0, "rental_uris": {"ios": "https://dc.lft.to/lastmile_qr_scan", "android": "https://dc.lft.to/lastmile_qr_scan"}, "is_reserved": 0}, {"lon": -77.01922, "bike_id": "f0f5dd394652e6da8e147a20033401e0", "lat": 38.9221675, "fusion_lon": 0.0, "fusion_lat": 0.0, "type": "electric_scooter", "name": "f0f5dd394652e6da8e147a20033401e0", "is_disabled": 0, "rental_uris": {"ios": "https://dc.lft.to/lastmile_qr_scan", "android": "https://dc.lft.to/lastmile_qr_scan"}, "is_reserved": 0}, {"lon": -77.02701816666666, "bike_id": "34c6cd65cab71764fcbd269b9662c7b0", "lat": 38.91678183333333, "fusion_lon": 0.0, "fusion_lat": 0.0, "type": "electric_scooter", "name": "34c6cd65cab71764fcbd269b9662c7b0", "is_disabled": 0, "rental_uris": {"ios": "https://dc.lft.to/lastmile_qr_scan", "android": "https://dc.lft.to/lastmile_qr_scan"}, "is_reserved": 0}, {"lon": -77.09073016666666, "bike_id": "249ca1071f8017de5e4ff6745191d6c8", "lat": 38.978527166666666, "fusion_lon": 0.0, "fusion_lat": 0.0, "type": "electric_bike", "name": "249ca1071f8017de5e4ff6745191d6c8", "is_disabled": 0, "rental_uris": {"ios": "https://dc.lft.to/lastmile_qr_scan", "android": "https://dc.lft.to/lastmile_qr_scan"}, "is_reserved": 0}, {"lon": -77.03227833333334, "bike_id": "2e8a50e695dccdfaf56793df2e01fc8c", "lat": 38.897266, "fusion_lon": 0.0, "fusion_lat": 0.0, "type": "electric_scooter", "name": "2e8a50e695dccdfaf56793df2e01fc8c", "is_disabled": 0, "rental_uris": {"ios": "https://dc.lft.to/lastmile_qr_scan", "android": "https://dc.lft.to/lastmile_qr_scan"}, "is_reserved": 0}, {"lon": -77.078233, "bike_id": "a131792075e07b0832188b5b38ed6476", "lat": 38.923702166666665, "fusion_lon": 0.0, "fusion_lat": 0.0, "type": "electric_scooter", "name": "a131792075e07b0832188b5b38ed6476", "is_disabled": 0, "rental_uris": {"ios": "https://dc.lft.to/lastmile_qr_scan", "android": "https://dc.lft.to/lastmile_qr_scan"}, "is_reserved": 0}, {"lon": -77.03349266666666, "bike_id": "a6d10bb50bad9eef66e6a7a4731bb25a", "lat": 38.903115666666665, "fusion_lon": 0.0, "fusion_lat": 0.0, "type": "electric_scooter", "name": "a6d10bb50bad9eef66e6a7a4731bb25a", "is_disabled": 0, "rental_uris": {"ios": "https://dc.lft.to/lastmile_qr_scan", "android": "https://dc.lft.to/lastmile_qr_scan"}, "is_reserved": 0}, {"lon": -77.07298216666666, "bike_id": "4646c6b651afae0d4753a18237c5ece4", "lat": 38.922754166666664, "fusion_lon": 0.0, "fusion_lat": 0.0, "type": "electric_scooter", "name": "4646c6b651afae0d4753a18237c5ece4", "is_disabled": 0, "rental_uris": {"ios": "https://dc.lft.to/lastmile_qr_scan", "android": "https://dc.lft.to/lastmile_qr_scan"}, "is_reserved": 0}, {"lon": -77.03196966666667, "bike_id": "e787bd8c19aa5cf87726c2c0ab1ed36a", "lat": 38.91202466666667, "fusion_lon": 0.0, "fusion_lat": 0.0, "type": "electric_scooter", "name": "e787bd8c19aa5cf87726c2c0ab1ed36a", "is_disabled": 0, "rental_uris": {"ios": "https://dc.lft.to/lastmile_qr_scan", "android": "https://dc.lft.to/lastmile_qr_scan"}, "is_reserved": 0}, {"lon": -76.987995, "bike_id": "dde2ea50a22a69bd46f5244814c780fa", "lat": 38.892367166666666, "fusion_lon": 0.0, "fusion_lat": 0.0, "type": "electric_scooter", "name": "dde2ea50a22a69bd46f5244814c780fa", "is_disabled": 0, "rental_uris": {"ios": "https://dc.lft.to/lastmile_qr_scan", "android": "https://dc.lft.to/lastmile_qr_scan"}, "is_reserved": 0}, {"lon": -77.04111, "bike_id": "7479e6699fe2273f07fa9a23353d33cc", "lat": 38.91553, "fusion_lon": 0.0, "fusion_lat": 0.0, "type": "electric_scooter", "name": "7479e6699fe2273f07fa9a23353d33cc", "is_disabled": 0, "rental_uris": {"ios": "https://dc.lft.to/lastmile_qr_scan", "android": "https://dc.lft.to/lastmile_qr_scan"}, "is_reserved": 0}, {"lon": -77.00576966666667, "bike_id": "e128d65e4e75e3939b531a7ca0801ca6", "lat": 38.829962, "fusion_lon": 0.0, "fusion_lat": 0.0, "type": "electric_scooter", "name": "e128d65e4e75e3939b531a7ca0801ca6", "is_disabled": 0, "rental_uris": {"ios": "https://dc.lft.to/lastmile_qr_scan", "android": "https://dc.lft.to/lastmile_qr_scan"}, "is_reserved": 0}, {"lon": -77.02217283333333, "bike_id": "ec2c23eb9ab328b48cfcd4401b50724a", "lat": 38.93548933333334, "fusion_lon": 0.0, "fusion_lat": 0.0, "type": "electric_scooter", "name": "ec2c23eb9ab328b48cfcd4401b50724a", "is_disabled": 0, "rental_uris": {"ios": "https://dc.lft.to/lastmile_qr_scan", "android": "https://dc.lft.to/lastmile_qr_scan"}, "is_reserved": 0}, {"lon": -77.03655733333333, "bike_id": "2b08d6e32b6901c9c057a679f7b5f102", "lat": 38.918126, "fusion_lon": 0.0, "fusion_lat": 0.0, "type": "electric_scooter", "name": "2b08d6e32b6901c9c057a679f7b5f102", "is_disabled": 0, "rental_uris": {"ios": "https://dc.lft.to/lastmile_qr_scan", "android": "https://dc.lft.to/lastmile_qr_scan"}, "is_reserved": 0}, {"lon": -77.02683416666666, "bike_id": "cbce8f8b0ef7f52b40bc974abec6a2a0", "lat": 38.918167833333335, "fusion_lon": 0.0, "fusion_lat": 0.0, "type": "electric_scooter", "name": "cbce8f8b0ef7f52b40bc974abec6a2a0", "is_disabled": 0, "rental_uris": {"ios": "https://dc.lft.to/lastmile_qr_scan", "android": "https://dc.lft.to/lastmile_qr_scan"}, "is_reserved": 0}, {"lon": -77.0323175, "bike_id": "203a63baf890912a07109cfe6deb9ff3", "lat": 38.92988616666667, "fusion_lon": 0.0, "fusion_lat": 0.0, "type": "electric_scooter", "name": "203a63baf890912a07109cfe6deb9ff3", "is_disabled": 0, "rental_uris": {"ios": "https://dc.lft.to/lastmile_qr_scan", "android": "https://dc.lft.to/lastmile_qr_scan"}, "is_reserved": 0}, {"lon": -77.09466633333334, "bike_id": "192091a3b32c96ec56bfe0bdd48e144e", "lat": 38.869408666666665, "fusion_lon": 0.0, "fusion_lat": 0.0, "type": "electric_bike", "name": "192091a3b32c96ec56bfe0bdd48e144e", "is_disabled": 0, "rental_uris": {"ios": "https://dc.lft.to/lastmile_qr_scan", "android": "https://dc.lft.to/lastmile_qr_scan"}, "is_reserved": 0}, {"lon": -77.025093, "bike_id": "c32b3cca1953be485c51b907cdc7b8df", "lat": 38.92050583333334, "fusion_lon": 0.0, "fusion_lat": 0.0, "type": "electric_scooter", "name": "c32b3cca1953be485c51b907cdc7b8df", "is_disabled": 0, "rental_uris": {"ios": "https://dc.lft.to/lastmile_qr_scan", "android": "https://dc.lft.to/lastmile_qr_scan"}, "is_reserved": 0}, {"lon": -76.98147133333333, "bike_id": "3b9dd6d3381418518762f329459375de", "lat": 38.90566466666667, "fusion_lon": 0.0, "fusion_lat": 0.0, "type": "electric_scooter", "name": "3b9dd6d3381418518762f329459375de", "is_disabled": 0, "rental_uris": {"ios": "https://dc.lft.to/lastmile_qr_scan", "android": "https://dc.lft.to/lastmile_qr_scan"}, "is_reserved": 0}, {"lon": -77.02963233333334, "bike_id": "82f5dab5b6003a632464965936dc08b4", "lat": 38.90839733333333, "fusion_lon": 0.0, "fusion_lat": 0.0, "type": "electric_bike", "name": "82f5dab5b6003a632464965936dc08b4", "is_disabled": 0, "rental_uris": {"ios": "https://dc.lft.to/lastmile_qr_scan", "android": "https://dc.lft.to/lastmile_qr_scan"}, "is_reserved": 0}, {"lon": -77.04349433333333, "bike_id": "b722638bb23c5126146b7331413c1932", "lat": 38.912157666666666, "fusion_lon": 0.0, "fusion_lat": 0.0, "type": "electric_scooter", "name": "b722638bb23c5126146b7331413c1932", "is_disabled": 0, "rental_uris": {"ios": "https://dc.lft.to/lastmile_qr_scan", "android": "https://dc.lft.to/lastmile_qr_scan"}, "is_reserved": 0}, {"lon": -77.0238805, "bike_id": "bef1395305640b43198472d525321e3b", "lat": 38.91147816666667, "fusion_lon": 0.0, "fusion_lat": 0.0, "type": "electric_scooter", "name": "bef1395305640b43198472d525321e3b", "is_disabled": 0, "rental_uris": {"ios": "https://dc.lft.to/lastmile_qr_scan", "android": "https://dc.lft.to/lastmile_qr_scan"}, "is_reserved": 0}, {"lon": -77.05563783333334, "bike_id": "dc22028035d72a02fce2148979cda1cc", "lat": 38.930374, "fusion_lon": 0.0, "fusion_lat": 0.0, "type": "electric_scooter", "name": "dc22028035d72a02fce2148979cda1cc", "is_disabled": 0, "rental_uris": {"ios": "https://dc.lft.to/lastmile_qr_scan", "android": "https://dc.lft.to/lastmile_qr_scan"}, "is_reserved": 0}, {"lon": -77.10523033333334, "bike_id": "6047aa29a6866bac2b73c63f047aa996", "lat": 38.873729, "fusion_lon": 0.0, "fusion_lat": 0.0, "type": "electric_bike", "name": "6047aa29a6866bac2b73c63f047aa996", "is_disabled": 0, "rental_uris": {"ios": "https://dc.lft.to/lastmile_qr_scan", "android": "https://dc.lft.to/lastmile_qr_scan"}, "is_reserved": 0}, {"lon": -77.04266616666666, "bike_id": "73d524e0ee482d998b12de3cd6c3442d", "lat": 38.900296, "fusion_lon": 0.0, "fusion_lat": 0.0, "type": "electric_scooter", "name": "73d524e0ee482d998b12de3cd6c3442d", "is_disabled": 0, "rental_uris": {"ios": "https://dc.lft.to/lastmile_qr_scan", "android": "https://dc.lft.to/lastmile_qr_scan"}, "is_reserved": 0}, {"lon": -77.04161533333334, "bike_id": "a6df004cd98e012b72fbc647a827ae00", "lat": 38.919812666666665, "fusion_lon": 0.0, "fusion_lat": 0.0, "type": "electric_scooter", "name": "a6df004cd98e012b72fbc647a827ae00", "is_disabled": 0, "rental_uris": {"ios": "https://dc.lft.to/lastmile_qr_scan", "android": "https://dc.lft.to/lastmile_qr_scan"}, "is_reserved": 0}, {"lon": -77.04479533333334, "bike_id": "0342cb0c22f24e7be0486cbce1bee9b3", "lat": 38.89240983333333, "fusion_lon": 0.0, "fusion_lat": 0.0, "type": "electric_scooter", "name": "0342cb0c22f24e7be0486cbce1bee9b3", "is_disabled": 0, "rental_uris": {"ios": "https://dc.lft.to/lastmile_qr_scan", "android": "https://dc.lft.to/lastmile_qr_scan"}, "is_reserved": 0}, {"lon": -77.03276983333333, "bike_id": "559ed674f82c20c5a3a50b2aa72d5bff", "lat": 38.94151166666666, "fusion_lon": 0.0, "fusion_lat": 0.0, "type": "electric_scooter", "name": "559ed674f82c20c5a3a50b2aa72d5bff", "is_disabled": 0, "rental_uris": {"ios": "https://dc.lft.to/lastmile_qr_scan", "android": "https://dc.lft.to/lastmile_qr_scan"}, "is_reserved": 0}, {"lon": -77.02414116666667, "bike_id": "19d0639a26b25c7ffe1db7ecde1a4c22", "lat": 38.934151, "fusion_lon": 0.0, "fusion_lat": 0.0, "type": "electric_bike", "name": "19d0639a26b25c7ffe1db7ecde1a4c22", "is_disabled": 0, "rental_uris": {"ios": "https://dc.lft.to/lastmile_qr_scan", "android": "https://dc.lft.to/lastmile_qr_scan"}, "is_reserved": 0}, {"lon": -76.97533583333333, "bike_id": "479b30224e699ed347401c915ea7fa58", "lat": 38.903274333333336, "fusion_lon": 0.0, "fusion_lat": 0.0, "type": "electric_bike", "name": "479b30224e699ed347401c915ea7fa58", "is_disabled": 0, "rental_uris": {"ios": "https://dc.lft.to/lastmile_qr_scan", "android": "https://dc.lft.to/lastmile_qr_scan"}, "is_reserved": 0}, {"lon": -77.11780316666666, "bike_id": "142b23f2c6b1721141633dbf13f4b15f", "lat": 39.054932, "fusion_lon": 0.0, "fusion_lat": 0.0, "type": "electric_bike", "name": "142b23f2c6b1721141633dbf13f4b15f", "is_disabled": 0, "rental_uris": {"ios": "https://dc.lft.to/lastmile_qr_scan", "android": "https://dc.lft.to/lastmile_qr_scan"}, "is_reserved": 0}, {"lon": -77.016625, "bike_id": "d993550d2096a7d201bcb8b350bc2b8e", "lat": 38.917382833333335, "fusion_lon": 0.0, "fusion_lat": 0.0, "type": "electric_scooter", "name": "d993550d2096a7d201bcb8b350bc2b8e", "is_disabled": 0, "rental_uris": {"ios": "https://dc.lft.to/lastmile_qr_scan", "android": "https://dc.lft.to/lastmile_qr_scan"}, "is_reserved": 0}, {"lon": -77.04870483333333, "bike_id": "aeadf3c847c85575acedbf258b212f19", "lat": 38.904707333333334, "fusion_lon": 0.0, "fusion_lat": 0.0, "type": "electric_bike", "name": "aeadf3c847c85575acedbf258b212f19", "is_disabled": 0, "rental_uris": {"ios": "https://dc.lft.to/lastmile_qr_scan", "android": "https://dc.lft.to/lastmile_qr_scan"}, "is_reserved": 0}, {"lon": -77.03608283333334, "bike_id": "6c885313e144ee0d232568f25820f661", "lat": 38.923232166666665, "fusion_lon": 0.0, "fusion_lat": 0.0, "type": "electric_scooter", "name": "6c885313e144ee0d232568f25820f661", "is_disabled": 0, "rental_uris": {"ios": "https://dc.lft.to/lastmile_qr_scan", "android": "https://dc.lft.to/lastmile_qr_scan"}, "is_reserved": 0}, {"lon": -76.99012133333333, "bike_id": "80d3eb53b797bfd98fc353d9aded9fea", "lat": 38.88272116666667, "fusion_lon": 0.0, "fusion_lat": 0.0, "type": "electric_scooter", "name": "80d3eb53b797bfd98fc353d9aded9fea", "is_disabled": 0, "rental_uris": {"ios": "https://dc.lft.to/lastmile_qr_scan", "android": "https://dc.lft.to/lastmile_qr_scan"}, "is_reserved": 0}, {"lon": -76.93187983333334, "bike_id": "7df699925bea426574a91c72664e5cf0", "lat": 38.89874183333333, "fusion_lon": 0.0, "fusion_lat": 0.0, "type": "electric_scooter", "name": "7df699925bea426574a91c72664e5cf0", "is_disabled": 0, "rental_uris": {"ios": "https://dc.lft.to/lastmile_qr_scan", "android": "https://dc.lft.to/lastmile_qr_scan"}, "is_reserved": 0}, {"lon": -77.003745, "bike_id": "600e842ba7917401e4cf7d42d7177cd6", "lat": 38.8973205, "fusion_lon": 0.0, "fusion_lat": 0.0, "type": "electric_scooter", "name": "600e842ba7917401e4cf7d42d7177cd6", "is_disabled": 0, "rental_uris": {"ios": "https://dc.lft.to/lastmile_qr_scan", "android": "https://dc.lft.to/lastmile_qr_scan"}, "is_reserved": 0}, {"lon": -76.980358, "bike_id": "b2611821799bb472652bd7d43d3afb6f", "lat": 38.88967666666667, "fusion_lon": 0.0, "fusion_lat": 0.0, "type": "electric_scooter", "name": "b2611821799bb472652bd7d43d3afb6f", "is_disabled": 0, "rental_uris": {"ios": "https://dc.lft.to/lastmile_qr_scan", "android": "https://dc.lft.to/lastmile_qr_scan"}, "is_reserved": 0}, {"lon": -76.92202316666666, "bike_id": "5e64707c18222503ba4557be7572af3a", "lat": 38.894983333333336, "fusion_lon": 0.0, "fusion_lat": 0.0, "type": "electric_bike", "name": "5e64707c18222503ba4557be7572af3a", "is_disabled": 0, "rental_uris": {"ios": "https://dc.lft.to/lastmile_qr_scan", "android": "https://dc.lft.to/lastmile_qr_scan"}, "is_reserved": 0}, {"lon": -77.03274566666667, "bike_id": "1d0d7b65758312c016b596ede4e3fa11", "lat": 38.90730383333333, "fusion_lon": 0.0, "fusion_lat": 0.0, "type": "electric_scooter", "name": "1d0d7b65758312c016b596ede4e3fa11", "is_disabled": 0, "rental_uris": {"ios": "https://dc.lft.to/lastmile_qr_scan", "android": "https://dc.lft.to/lastmile_qr_scan"}, "is_reserved": 0}, {"lon": -76.9839595, "bike_id": "4eabb8bc3a40fde44a8b6c90f24686e7", "lat": 38.866428666666664, "fusion_lon": 0.0, "fusion_lat": 0.0, "type": "electric_scooter", "name": "4eabb8bc3a40fde44a8b6c90f24686e7", "is_disabled": 0, "rental_uris": {"ios": "https://dc.lft.to/lastmile_qr_scan", "android": "https://dc.lft.to/lastmile_qr_scan"}, "is_reserved": 0}, {"lon": -77.07900783333334, "bike_id": "5e9390f1b2e92f15ad0b816adbf115a0", "lat": 38.83934583333333, "fusion_lon": 0.0, "fusion_lat": 0.0, "type": "electric_bike", "name": "5e9390f1b2e92f15ad0b816adbf115a0", "is_disabled": 0, "rental_uris": {"ios": "https://dc.lft.to/lastmile_qr_scan", "android": "https://dc.lft.to/lastmile_qr_scan"}, "is_reserved": 0}, {"lon": -77.014956, "bike_id": "97962ee5270c0556fcd4742d1a4936ca", "lat": 38.917608, "fusion_lon": 0.0, "fusion_lat": 0.0, "type": "electric_scooter", "name": "97962ee5270c0556fcd4742d1a4936ca", "is_disabled": 0, "rental_uris": {"ios": "https://dc.lft.to/lastmile_qr_scan", "android": "https://dc.lft.to/lastmile_qr_scan"}, "is_reserved": 0}, {"lon": -77.08003383333333, "bike_id": "632797a23360bcebf3819d3a3cf10477", "lat": 38.96487783333333, "fusion_lon": 0.0, "fusion_lat": 0.0, "type": "electric_scooter", "name": "632797a23360bcebf3819d3a3cf10477", "is_disabled": 0, "rental_uris": {"ios": "https://dc.lft.to/lastmile_qr_scan", "android": "https://dc.lft.to/lastmile_qr_scan"}, "is_reserved": 0}, {"lon": -77.03606083333334, "bike_id": "3d89478fa4ef8f816db8c646b71b33c6", "lat": 38.9348605, "fusion_lon": 0.0, "fusion_lat": 0.0, "type": "electric_scooter", "name": "3d89478fa4ef8f816db8c646b71b33c6", "is_disabled": 0, "rental_uris": {"ios": "https://dc.lft.to/lastmile_qr_scan", "android": "https://dc.lft.to/lastmile_qr_scan"}, "is_reserved": 0}, {"lon": -77.02398933333333, "bike_id": "3ea4f7dd6ea2a9bc05d38ffac8b38f16", "lat": 38.914311, "fusion_lon": 0.0, "fusion_lat": 0.0, "type": "electric_scooter", "name": "3ea4f7dd6ea2a9bc05d38ffac8b38f16", "is_disabled": 0, "rental_uris": {"ios": "https://dc.lft.to/lastmile_qr_scan", "android": "https://dc.lft.to/lastmile_qr_scan"}, "is_reserved": 0}, {"lon": -77.02729133333334, "bike_id": "0df5c497f701ad63ac7567053051b987", "lat": 38.943847, "fusion_lon": 0.0, "fusion_lat": 0.0, "type": "electric_scooter", "name": "0df5c497f701ad63ac7567053051b987", "is_disabled": 0, "rental_uris": {"ios": "https://dc.lft.to/lastmile_qr_scan", "android": "https://dc.lft.to/lastmile_qr_scan"}, "is_reserved": 0}, {"lon": -77.03142366666667, "bike_id": "ef109a9113c3f9b85a01dc949965d110", "lat": 38.92954916666667, "fusion_lon": 0.0, "fusion_lat": 0.0, "type": "electric_scooter", "name": "ef109a9113c3f9b85a01dc949965d110", "is_disabled": 0, "rental_uris": {"ios": "https://dc.lft.to/lastmile_qr_scan", "android": "https://dc.lft.to/lastmile_qr_scan"}, "is_reserved": 0}, {"lon": -77.04342266666667, "bike_id": "0b8e59232186354ae0118d6a680a71e6", "lat": 38.933286833333334, "fusion_lon": 0.0, "fusion_lat": 0.0, "type": "electric_scooter", "name": "0b8e59232186354ae0118d6a680a71e6", "is_disabled": 0, "rental_uris": {"ios": "https://dc.lft.to/lastmile_qr_scan", "android": "https://dc.lft.to/lastmile_qr_scan"}, "is_reserved": 0}, {"lon": -77.04162833333334, "bike_id": "1442f66c0f3e3aaf5c0ad7ba2b00c2be", "lat": 38.898951833333335, "fusion_lon": 0.0, "fusion_lat": 0.0, "type": "electric_scooter", "name": "1442f66c0f3e3aaf5c0ad7ba2b00c2be", "is_disabled": 0, "rental_uris": {"ios": "https://dc.lft.to/lastmile_qr_scan", "android": "https://dc.lft.to/lastmile_qr_scan"}, "is_reserved": 0}, {"lon": -77.03075683333333, "bike_id": "e51c2a45fc2990451910b760eb14a1cc", "lat": 38.88036066666667, "fusion_lon": 0.0, "fusion_lat": 0.0, "type": "electric_scooter", "name": "e51c2a45fc2990451910b760eb14a1cc", "is_disabled": 0, "rental_uris": {"ios": "https://dc.lft.to/lastmile_qr_scan", "android": "https://dc.lft.to/lastmile_qr_scan"}, "is_reserved": 0}, {"lon": -77.00043483333333, "bike_id": "55cac6b5e4e53cfa399d9de55dffd2bc", "lat": 38.90807266666667, "fusion_lon": 0.0, "fusion_lat": 0.0, "type": "electric_scooter", "name": "55cac6b5e4e53cfa399d9de55dffd2bc", "is_disabled": 0, "rental_uris": {"ios": "https://dc.lft.to/lastmile_qr_scan", "android": "https://dc.lft.to/lastmile_qr_scan"}, "is_reserved": 0}, {"lon": -77.01579383333333, "bike_id": "b262fe317c9ffcf634d071fb7b98fc0d", "lat": 38.876630166666665, "fusion_lon": 0.0, "fusion_lat": 0.0, "type": "electric_scooter", "name": "b262fe317c9ffcf634d071fb7b98fc0d", "is_disabled": 0, "rental_uris": {"ios": "https://dc.lft.to/lastmile_qr_scan", "android": "https://dc.lft.to/lastmile_qr_scan"}, "is_reserved": 0}, {"lon": -77.01786266666667, "bike_id": "ffec22cb48e1662f382d3ab146ee6afb", "lat": 38.920384166666665, "fusion_lon": 0.0, "fusion_lat": 0.0, "type": "electric_scooter", "name": "ffec22cb48e1662f382d3ab146ee6afb", "is_disabled": 0, "rental_uris": {"ios": "https://dc.lft.to/lastmile_qr_scan", "android": "https://dc.lft.to/lastmile_qr_scan"}, "is_reserved": 0}, {"lon": -77.026908, "bike_id": "9f12a19e2c5738d465e45e6a5bae6966", "lat": 38.9122685, "fusion_lon": 0.0, "fusion_lat": 0.0, "type": "electric_scooter", "name": "9f12a19e2c5738d465e45e6a5bae6966", "is_disabled": 0, "rental_uris": {"ios": "https://dc.lft.to/lastmile_qr_scan", "android": "https://dc.lft.to/lastmile_qr_scan"}, "is_reserved": 0}, {"lon": -77.03832416666667, "bike_id": "c0518e34c2b1dfec0ec20001e65924b2", "lat": 38.908744666666664, "fusion_lon": 0.0, "fusion_lat": 0.0, "type": "electric_scooter", "name": "c0518e34c2b1dfec0ec20001e65924b2", "is_disabled": 0, "rental_uris": {"ios": "https://dc.lft.to/lastmile_qr_scan", "android": "https://dc.lft.to/lastmile_qr_scan"}, "is_reserved": 0}, {"lon": -77.011281, "bike_id": "429a6bcee3e6ace13d5e838c922f4c10", "lat": 38.9000595, "fusion_lon": 0.0, "fusion_lat": 0.0, "type": "electric_scooter", "name": "429a6bcee3e6ace13d5e838c922f4c10", "is_disabled": 0, "rental_uris": {"ios": "https://dc.lft.to/lastmile_qr_scan", "android": "https://dc.lft.to/lastmile_qr_scan"}, "is_reserved": 0}, {"lon": -77.0329665, "bike_id": "99f81e3d7ee95734be0e2a27734fca9d", "lat": 38.901421166666665, "fusion_lon": 0.0, "fusion_lat": 0.0, "type": "electric_scooter", "name": "99f81e3d7ee95734be0e2a27734fca9d", "is_disabled": 0, "rental_uris": {"ios": "https://dc.lft.to/lastmile_qr_scan", "android": "https://dc.lft.to/lastmile_qr_scan"}, "is_reserved": 0}, {"lon": -77.01205366666667, "bike_id": "c3d4511b0128598447e2c7749a56eefa", "lat": 38.88545833333333, "fusion_lon": 0.0, "fusion_lat": 0.0, "type": "electric_scooter", "name": "c3d4511b0128598447e2c7749a56eefa", "is_disabled": 0, "rental_uris": {"ios": "https://dc.lft.to/lastmile_qr_scan", "android": "https://dc.lft.to/lastmile_qr_scan"}, "is_reserved": 0}, {"lon": -77.030883, "bike_id": "d539f48b3ffe475c6b1e72de1ced0d18", "lat": 38.91911283333334, "fusion_lon": 0.0, "fusion_lat": 0.0, "type": "electric_scooter", "name": "d539f48b3ffe475c6b1e72de1ced0d18", "is_disabled": 0, "rental_uris": {"ios": "https://dc.lft.to/lastmile_qr_scan", "android": "https://dc.lft.to/lastmile_qr_scan"}, "is_reserved": 0}, {"lon": -76.98945283333333, "bike_id": "a759f97f5b37a56d88f5403d8c0ed0ea", "lat": 38.86553933333333, "fusion_lon": 0.0, "fusion_lat": 0.0, "type": "electric_scooter", "name": "a759f97f5b37a56d88f5403d8c0ed0ea", "is_disabled": 0, "rental_uris": {"ios": "https://dc.lft.to/lastmile_qr_scan", "android": "https://dc.lft.to/lastmile_qr_scan"}, "is_reserved": 0}, {"lon": -77.00311116666667, "bike_id": "6a31a533fb19c6c7b7360af0fae304d4", "lat": 38.91160966666666, "fusion_lon": 0.0, "fusion_lat": 0.0, "type": "electric_bike", "name": "6a31a533fb19c6c7b7360af0fae304d4", "is_disabled": 0, "rental_uris": {"ios": "https://dc.lft.to/lastmile_qr_scan", "android": "https://dc.lft.to/lastmile_qr_scan"}, "is_reserved": 0}, {"lon": -77.0448475, "bike_id": "3685e811089a4a3fd09e0a5287fd5585", "lat": 38.90859583333334, "fusion_lon": 0.0, "fusion_lat": 0.0, "type": "electric_scooter", "name": "3685e811089a4a3fd09e0a5287fd5585", "is_disabled": 0, "rental_uris": {"ios": "https://dc.lft.to/lastmile_qr_scan", "android": "https://dc.lft.to/lastmile_qr_scan"}, "is_reserved": 0}, {"lon": -77.03111866666667, "bike_id": "a9b265ca03578c92149ad2a310463fb0", "lat": 38.8873795, "fusion_lon": 0.0, "fusion_lat": 0.0, "type": "electric_scooter", "name": "a9b265ca03578c92149ad2a310463fb0", "is_disabled": 0, "rental_uris": {"ios": "https://dc.lft.to/lastmile_qr_scan", "android": "https://dc.lft.to/lastmile_qr_scan"}, "is_reserved": 0}, {"lon": -77.05013933333333, "bike_id": "665bce9f89304d3e88db3c601d82b3db", "lat": 38.90504383333333, "fusion_lon": 0.0, "fusion_lat": 0.0, "type": "electric_scooter", "name": "665bce9f89304d3e88db3c601d82b3db", "is_disabled": 0, "rental_uris": {"ios": "https://dc.lft.to/lastmile_qr_scan", "android": "https://dc.lft.to/lastmile_qr_scan"}, "is_reserved": 0}, {"lon": -76.97530433333333, "bike_id": "17738ecf5630e81a49342a454867dd45", "lat": 38.92228683333333, "fusion_lon": 0.0, "fusion_lat": 0.0, "type": "electric_scooter", "name": "17738ecf5630e81a49342a454867dd45", "is_disabled": 0, "rental_uris": {"ios": "https://dc.lft.to/lastmile_qr_scan", "android": "https://dc.lft.to/lastmile_qr_scan"}, "is_reserved": 0}, {"lon": -77.03272366666667, "bike_id": "48523c958b5a5196f66ff9ac23babcc0", "lat": 38.919946333333336, "fusion_lon": 0.0, "fusion_lat": 0.0, "type": "electric_scooter", "name": "48523c958b5a5196f66ff9ac23babcc0", "is_disabled": 0, "rental_uris": {"ios": "https://dc.lft.to/lastmile_qr_scan", "android": "https://dc.lft.to/lastmile_qr_scan"}, "is_reserved": 0}, {"lon": -77.04086816666667, "bike_id": "b5f3ffea2a76be6e4cb544aacc20f22c", "lat": 38.915606833333335, "fusion_lon": 0.0, "fusion_lat": 0.0, "type": "electric_scooter", "name": "b5f3ffea2a76be6e4cb544aacc20f22c", "is_disabled": 0, "rental_uris": {"ios": "https://dc.lft.to/lastmile_qr_scan", "android": "https://dc.lft.to/lastmile_qr_scan"}, "is_reserved": 0}, {"lon": -77.00710883333333, "bike_id": "e3626572006e4c87c7953bdb4b9b1b08", "lat": 38.905622666666666, "fusion_lon": 0.0, "fusion_lat": 0.0, "type": "electric_scooter", "name": "e3626572006e4c87c7953bdb4b9b1b08", "is_disabled": 0, "rental_uris": {"ios": "https://dc.lft.to/lastmile_qr_scan", "android": "https://dc.lft.to/lastmile_qr_scan"}, "is_reserved": 0}, {"lon": -77.03835966666666, "bike_id": "c3b90d9acab8f0e6d78db919a10f9725", "lat": 38.9066385, "fusion_lon": 0.0, "fusion_lat": 0.0, "type": "electric_scooter", "name": "c3b90d9acab8f0e6d78db919a10f9725", "is_disabled": 0, "rental_uris": {"ios": "https://dc.lft.to/lastmile_qr_scan", "android": "https://dc.lft.to/lastmile_qr_scan"}, "is_reserved": 0}, {"lon": -77.02167783333333, "bike_id": "f12e4642ff031c9cc3847f7901bb3df3", "lat": 38.9429445, "fusion_lon": 0.0, "fusion_lat": 0.0, "type": "electric_scooter", "name": "f12e4642ff031c9cc3847f7901bb3df3", "is_disabled": 0, "rental_uris": {"ios": "https://dc.lft.to/lastmile_qr_scan", "android": "https://dc.lft.to/lastmile_qr_scan"}, "is_reserved": 0}, {"lon": -77.03658383333334, "bike_id": "e3a9718d7998e93a05849959306e0f83", "lat": 38.936002, "fusion_lon": 0.0, "fusion_lat": 0.0, "type": "electric_scooter", "name": "e3a9718d7998e93a05849959306e0f83", "is_disabled": 0, "rental_uris": {"ios": "https://dc.lft.to/lastmile_qr_scan", "android": "https://dc.lft.to/lastmile_qr_scan"}, "is_reserved": 0}, {"lon": -77.03176966666666, "bike_id": "0c86b5806f0f879f9a93745f2652dff4", "lat": 38.8919945, "fusion_lon": 0.0, "fusion_lat": 0.0, "type": "electric_scooter", "name": "0c86b5806f0f879f9a93745f2652dff4", "is_disabled": 0, "rental_uris": {"ios": "https://dc.lft.to/lastmile_qr_scan", "android": "https://dc.lft.to/lastmile_qr_scan"}, "is_reserved": 0}, {"lon": -76.98894016666667, "bike_id": "8984c6818628be363b3d88eaac1f7baa", "lat": 38.9134665, "fusion_lon": 0.0, "fusion_lat": 0.0, "type": "electric_scooter", "name": "8984c6818628be363b3d88eaac1f7baa", "is_disabled": 0, "rental_uris": {"ios": "https://dc.lft.to/lastmile_qr_scan", "android": "https://dc.lft.to/lastmile_qr_scan"}, "is_reserved": 0}, {"lon": -77.02584133333333, "bike_id": "525ccb9072860b913674982a736bea47", "lat": 38.91492066666667, "fusion_lon": 0.0, "fusion_lat": 0.0, "type": "electric_scooter", "name": "525ccb9072860b913674982a736bea47", "is_disabled": 0, "rental_uris": {"ios": "https://dc.lft.to/lastmile_qr_scan", "android": "https://dc.lft.to/lastmile_qr_scan"}, "is_reserved": 0}, {"lon": -77.0318185, "bike_id": "b2037890d2abc866e1f7132098b5664b", "lat": 38.91826566666667, "fusion_lon": 0.0, "fusion_lat": 0.0, "type": "electric_scooter", "name": "b2037890d2abc866e1f7132098b5664b", "is_disabled": 0, "rental_uris": {"ios": "https://dc.lft.to/lastmile_qr_scan", "android": "https://dc.lft.to/lastmile_qr_scan"}, "is_reserved": 0}, {"lon": -77.01345816666667, "bike_id": "d89f49b619983f811ca78bda15024bbe", "lat": 38.912790333333334, "fusion_lon": 0.0, "fusion_lat": 0.0, "type": "electric_scooter", "name": "d89f49b619983f811ca78bda15024bbe", "is_disabled": 0, "rental_uris": {"ios": "https://dc.lft.to/lastmile_qr_scan", "android": "https://dc.lft.to/lastmile_qr_scan"}, "is_reserved": 0}, {"lon": -77.04334766666666, "bike_id": "7bc666455afb7695257118c4a9ba5ecc", "lat": 38.913269, "fusion_lon": 0.0, "fusion_lat": 0.0, "type": "electric_scooter", "name": "7bc666455afb7695257118c4a9ba5ecc", "is_disabled": 0, "rental_uris": {"ios": "https://dc.lft.to/lastmile_qr_scan", "android": "https://dc.lft.to/lastmile_qr_scan"}, "is_reserved": 0}, {"lon": -77.028282, "bike_id": "35a944eba72c0c7bb776694c63938cb8", "lat": 38.90231966666666, "fusion_lon": 0.0, "fusion_lat": 0.0, "type": "electric_scooter", "name": "35a944eba72c0c7bb776694c63938cb8", "is_disabled": 0, "rental_uris": {"ios": "https://dc.lft.to/lastmile_qr_scan", "android": "https://dc.lft.to/lastmile_qr_scan"}, "is_reserved": 0}, {"lon": -77.03381216666666, "bike_id": "91cb08fcda409e5913169064a37fae1e", "lat": 38.9026475, "fusion_lon": 0.0, "fusion_lat": 0.0, "type": "electric_scooter", "name": "91cb08fcda409e5913169064a37fae1e", "is_disabled": 0, "rental_uris": {"ios": "https://dc.lft.to/lastmile_qr_scan", "android": "https://dc.lft.to/lastmile_qr_scan"}, "is_reserved": 0}, {"lon": -77.03741716666667, "bike_id": "d483be54e37be903b5afd14edfd49bd8", "lat": 38.918056, "fusion_lon": 0.0, "fusion_lat": 0.0, "type": "electric_scooter", "name": "d483be54e37be903b5afd14edfd49bd8", "is_disabled": 0, "rental_uris": {"ios": "https://dc.lft.to/lastmile_qr_scan", "android": "https://dc.lft.to/lastmile_qr_scan"}, "is_reserved": 0}, {"lon": -77.04332166666667, "bike_id": "c5b8de7d367f7ce664420df489a4c63d", "lat": 38.89222766666666, "fusion_lon": 0.0, "fusion_lat": 0.0, "type": "electric_scooter", "name": "c5b8de7d367f7ce664420df489a4c63d", "is_disabled": 0, "rental_uris": {"ios": "https://dc.lft.to/lastmile_qr_scan", "android": "https://dc.lft.to/lastmile_qr_scan"}, "is_reserved": 0}, {"lon": -77.01984733333333, "bike_id": "a8f32cd28de92c80ca4235845dded9f0", "lat": 38.883806166666666, "fusion_lon": 0.0, "fusion_lat": 0.0, "type": "electric_scooter", "name": "a8f32cd28de92c80ca4235845dded9f0", "is_disabled": 0, "rental_uris": {"ios": "https://dc.lft.to/lastmile_qr_scan", "android": "https://dc.lft.to/lastmile_qr_scan"}, "is_reserved": 0}, {"lon": -76.99002116666666, "bike_id": "51c36800d99c39efd98c5fb28277d37d", "lat": 38.865077166666666, "fusion_lon": 0.0, "fusion_lat": 0.0, "type": "electric_scooter", "name": "51c36800d99c39efd98c5fb28277d37d", "is_disabled": 0, "rental_uris": {"ios": "https://dc.lft.to/lastmile_qr_scan", "android": "https://dc.lft.to/lastmile_qr_scan"}, "is_reserved": 0}, {"lon": -77.0370625, "bike_id": "ea707ceb374a26ae39b262215eaf5b27", "lat": 38.935266666666664, "fusion_lon": 0.0, "fusion_lat": 0.0, "type": "electric_scooter", "name": "ea707ceb374a26ae39b262215eaf5b27", "is_disabled": 0, "rental_uris": {"ios": "https://dc.lft.to/lastmile_qr_scan", "android": "https://dc.lft.to/lastmile_qr_scan"}, "is_reserved": 0}, {"lon": -76.993726, "bike_id": "cf22c280b1f93c42e9cd0d1e866d207e", "lat": 38.879688333333334, "fusion_lon": 0.0, "fusion_lat": 0.0, "type": "electric_scooter", "name": "cf22c280b1f93c42e9cd0d1e866d207e", "is_disabled": 0, "rental_uris": {"ios": "https://dc.lft.to/lastmile_qr_scan", "android": "https://dc.lft.to/lastmile_qr_scan"}, "is_reserved": 0}, {"lon": -76.9890425, "bike_id": "563b5be29b52d7390be11960d5d44478", "lat": 38.86665333333333, "fusion_lon": 0.0, "fusion_lat": 0.0, "type": "electric_scooter", "name": "563b5be29b52d7390be11960d5d44478", "is_disabled": 0, "rental_uris": {"ios": "https://dc.lft.to/lastmile_qr_scan", "android": "https://dc.lft.to/lastmile_qr_scan"}, "is_reserved": 0}, {"lon": -77.00925766666667, "bike_id": "7c489ce71c89f8a019ce321ca40cb9a1", "lat": 38.8960945, "fusion_lon": 0.0, "fusion_lat": 0.0, "type": "electric_scooter", "name": "7c489ce71c89f8a019ce321ca40cb9a1", "is_disabled": 0, "rental_uris": {"ios": "https://dc.lft.to/lastmile_qr_scan", "android": "https://dc.lft.to/lastmile_qr_scan"}, "is_reserved": 0}, {"lon": -77.02893433333334, "bike_id": "24a1dc8580d149c916229f466fb41d2c", "lat": 38.9170645, "fusion_lon": 0.0, "fusion_lat": 0.0, "type": "electric_bike", "name": "24a1dc8580d149c916229f466fb41d2c", "is_disabled": 0, "rental_uris": {"ios": "https://dc.lft.to/lastmile_qr_scan", "android": "https://dc.lft.to/lastmile_qr_scan"}, "is_reserved": 0}, {"lon": -76.998189, "bike_id": "e3710edffc450808b85726b2060ba647", "lat": 38.900221333333334, "fusion_lon": 0.0, "fusion_lat": 0.0, "type": "electric_scooter", "name": "e3710edffc450808b85726b2060ba647", "is_disabled": 0, "rental_uris": {"ios": "https://dc.lft.to/lastmile_qr_scan", "android": "https://dc.lft.to/lastmile_qr_scan"}, "is_reserved": 0}, {"lon": -77.03124733333334, "bike_id": "4d7255470e89f9574d57c72193d9eb0a", "lat": 38.9236905, "fusion_lon": 0.0, "fusion_lat": 0.0, "type": "electric_scooter", "name": "4d7255470e89f9574d57c72193d9eb0a", "is_disabled": 0, "rental_uris": {"ios": "https://dc.lft.to/lastmile_qr_scan", "android": "https://dc.lft.to/lastmile_qr_scan"}, "is_reserved": 0}, {"lon": -77.02732666666667, "bike_id": "7b7f22d0fbe762d358c7fcd645712aa0", "lat": 38.89721083333333, "fusion_lon": 0.0, "fusion_lat": 0.0, "type": "electric_scooter", "name": "7b7f22d0fbe762d358c7fcd645712aa0", "is_disabled": 0, "rental_uris": {"ios": "https://dc.lft.to/lastmile_qr_scan", "android": "https://dc.lft.to/lastmile_qr_scan"}, "is_reserved": 0}, {"lon": -77.03964516666667, "bike_id": "b08c9e4f63c1366599c4f64128b225d5", "lat": 38.89221666666667, "fusion_lon": 0.0, "fusion_lat": 0.0, "type": "electric_scooter", "name": "b08c9e4f63c1366599c4f64128b225d5", "is_disabled": 0, "rental_uris": {"ios": "https://dc.lft.to/lastmile_qr_scan", "android": "https://dc.lft.to/lastmile_qr_scan"}, "is_reserved": 0}, {"lon": -77.01882066666667, "bike_id": "3f4c2df7fbf4b386c4298c1a23475024", "lat": 38.90313233333333, "fusion_lon": 0.0, "fusion_lat": 0.0, "type": "electric_scooter", "name": "3f4c2df7fbf4b386c4298c1a23475024", "is_disabled": 0, "rental_uris": {"ios": "https://dc.lft.to/lastmile_qr_scan", "android": "https://dc.lft.to/lastmile_qr_scan"}, "is_reserved": 0}, {"lon": -77.0385675, "bike_id": "5ceb567122562b0ec0315ebafae51858", "lat": 38.915448833333336, "fusion_lon": 0.0, "fusion_lat": 0.0, "type": "electric_scooter", "name": "5ceb567122562b0ec0315ebafae51858", "is_disabled": 0, "rental_uris": {"ios": "https://dc.lft.to/lastmile_qr_scan", "android": "https://dc.lft.to/lastmile_qr_scan"}, "is_reserved": 0}, {"lon": -77.03810516666667, "bike_id": "f53fa3b833dfbf7ae080df85fa5441d6", "lat": 38.93097366666667, "fusion_lon": 0.0, "fusion_lat": 0.0, "type": "electric_scooter", "name": "f53fa3b833dfbf7ae080df85fa5441d6", "is_disabled": 0, "rental_uris": {"ios": "https://dc.lft.to/lastmile_qr_scan", "android": "https://dc.lft.to/lastmile_qr_scan"}, "is_reserved": 0}, {"lon": -77.0351355, "bike_id": "c50d1cd98c7adde022bb5c8d761a1a74", "lat": 38.92140533333333, "fusion_lon": 0.0, "fusion_lat": 0.0, "type": "electric_scooter", "name": "c50d1cd98c7adde022bb5c8d761a1a74", "is_disabled": 0, "rental_uris": {"ios": "https://dc.lft.to/lastmile_qr_scan", "android": "https://dc.lft.to/lastmile_qr_scan"}, "is_reserved": 0}, {"lon": -77.00914216666666, "bike_id": "3756a9fd0532ebce39d4e24ed3cd5558", "lat": 38.82786816666667, "fusion_lon": 0.0, "fusion_lat": 0.0, "type": "electric_bike", "name": "3756a9fd0532ebce39d4e24ed3cd5558", "is_disabled": 0, "rental_uris": {"ios": "https://dc.lft.to/lastmile_qr_scan", "android": "https://dc.lft.to/lastmile_qr_scan"}, "is_reserved": 0}, {"lon": -77.02112766666667, "bike_id": "dd60367f018b39a9462c4fa56fa2f3a8", "lat": 38.93696333333333, "fusion_lon": 0.0, "fusion_lat": 0.0, "type": "electric_scooter", "name": "dd60367f018b39a9462c4fa56fa2f3a8", "is_disabled": 0, "rental_uris": {"ios": "https://dc.lft.to/lastmile_qr_scan", "android": "https://dc.lft.to/lastmile_qr_scan"}, "is_reserved": 0}, {"lon": -77.0469045, "bike_id": "72181e5be866e6392aa641a5255773bc", "lat": 38.89219216666667, "fusion_lon": 0.0, "fusion_lat": 0.0, "type": "electric_scooter", "name": "72181e5be866e6392aa641a5255773bc", "is_disabled": 0, "rental_uris": {"ios": "https://dc.lft.to/lastmile_qr_scan", "android": "https://dc.lft.to/lastmile_qr_scan"}, "is_reserved": 0}, {"lon": -77.04687216666666, "bike_id": "b17177bc4ca28ae8a24712bd13bc3b40", "lat": 38.892222, "fusion_lon": 0.0, "fusion_lat": 0.0, "type": "electric_scooter", "name": "b17177bc4ca28ae8a24712bd13bc3b40", "is_disabled": 0, "rental_uris": {"ios": "https://dc.lft.to/lastmile_qr_scan", "android": "https://dc.lft.to/lastmile_qr_scan"}, "is_reserved": 0}, {"lon": -77.02973316666667, "bike_id": "fd2d80cc5beb9e04bea58a2e33015e43", "lat": 38.906696333333336, "fusion_lon": 0.0, "fusion_lat": 0.0, "type": "electric_scooter", "name": "fd2d80cc5beb9e04bea58a2e33015e43", "is_disabled": 0, "rental_uris": {"ios": "https://dc.lft.to/lastmile_qr_scan", "android": "https://dc.lft.to/lastmile_qr_scan"}, "is_reserved": 0}, {"lon": -76.95894666666666, "bike_id": "dafaff17d77770d5fb2b2ad10d8e2786", "lat": 38.89012483333333, "fusion_lon": 0.0, "fusion_lat": 0.0, "type": "electric_scooter", "name": "dafaff17d77770d5fb2b2ad10d8e2786", "is_disabled": 0, "rental_uris": {"ios": "https://dc.lft.to/lastmile_qr_scan", "android": "https://dc.lft.to/lastmile_qr_scan"}, "is_reserved": 0}, {"lon": -77.0243055, "bike_id": "3b370e646d949c95a700a7175fbb4c6d", "lat": 38.90433, "fusion_lon": 0.0, "fusion_lat": 0.0, "type": "electric_scooter", "name": "3b370e646d949c95a700a7175fbb4c6d", "is_disabled": 0, "rental_uris": {"ios": "https://dc.lft.to/lastmile_qr_scan", "android": "https://dc.lft.to/lastmile_qr_scan"}, "is_reserved": 0}, {"lon": -76.96362883333333, "bike_id": "4804de04f09926e4d5be6c33af4e4cb0", "lat": 38.9349835, "fusion_lon": 0.0, "fusion_lat": 0.0, "type": "electric_scooter", "name": "4804de04f09926e4d5be6c33af4e4cb0", "is_disabled": 0, "rental_uris": {"ios": "https://dc.lft.to/lastmile_qr_scan", "android": "https://dc.lft.to/lastmile_qr_scan"}, "is_reserved": 0}, {"lon": -77.03187, "bike_id": "9930e34b47249d303ac5ba0356e5ac5b", "lat": 38.892175, "fusion_lon": 0.0, "fusion_lat": 0.0, "type": "electric_scooter", "name": "9930e34b47249d303ac5ba0356e5ac5b", "is_disabled": 0, "rental_uris": {"ios": "https://dc.lft.to/lastmile_qr_scan", "android": "https://dc.lft.to/lastmile_qr_scan"}, "is_reserved": 0}, {"lon": -76.98943683333333, "bike_id": "d92799e5457859ef69e42170d1b93950", "lat": 38.867032, "fusion_lon": 0.0, "fusion_lat": 0.0, "type": "electric_bike", "name": "d92799e5457859ef69e42170d1b93950", "is_disabled": 0, "rental_uris": {"ios": "https://dc.lft.to/lastmile_qr_scan", "android": "https://dc.lft.to/lastmile_qr_scan"}, "is_reserved": 0}, {"lon": -77.031831, "bike_id": "38b340e5d5bd922cc1680841c6b238fc", "lat": 38.89219816666667, "fusion_lon": 0.0, "fusion_lat": 0.0, "type": "electric_scooter", "name": "38b340e5d5bd922cc1680841c6b238fc", "is_disabled": 0, "rental_uris": {"ios": "https://dc.lft.to/lastmile_qr_scan", "android": "https://dc.lft.to/lastmile_qr_scan"}, "is_reserved": 0}, {"lon": -77.03448966666667, "bike_id": "500ef0d9934616f425e5c9762f7d6d5f", "lat": 38.90572683333333, "fusion_lon": 0.0, "fusion_lat": 0.0, "type": "electric_scooter", "name": "500ef0d9934616f425e5c9762f7d6d5f", "is_disabled": 0, "rental_uris": {"ios": "https://dc.lft.to/lastmile_qr_scan", "android": "https://dc.lft.to/lastmile_qr_scan"}, "is_reserved": 0}, {"lon": -77.048968, "bike_id": "49d5f863f0989d93b356cfa1a291e63b", "lat": 38.892264833333336, "fusion_lon": 0.0, "fusion_lat": 0.0, "type": "electric_scooter", "name": "49d5f863f0989d93b356cfa1a291e63b", "is_disabled": 0, "rental_uris": {"ios": "https://dc.lft.to/lastmile_qr_scan", "android": "https://dc.lft.to/lastmile_qr_scan"}, "is_reserved": 0}, {"lon": -77.02220916666667, "bike_id": "0505b40af30a159dbfe44a9da92d44bd", "lat": 38.8921775, "fusion_lon": 0.0, "fusion_lat": 0.0, "type": "electric_scooter", "name": "0505b40af30a159dbfe44a9da92d44bd", "is_disabled": 0, "rental_uris": {"ios": "https://dc.lft.to/lastmile_qr_scan", "android": "https://dc.lft.to/lastmile_qr_scan"}, "is_reserved": 0}, {"lon": -77.02532733333334, "bike_id": "aa45d95f81dd583e74c88862f5732798", "lat": 38.92077283333333, "fusion_lon": 0.0, "fusion_lat": 0.0, "type": "electric_scooter", "name": "aa45d95f81dd583e74c88862f5732798", "is_disabled": 0, "rental_uris": {"ios": "https://dc.lft.to/lastmile_qr_scan", "android": "https://dc.lft.to/lastmile_qr_scan"}, "is_reserved": 0}, {"lon": -77.0263095, "bike_id": "93bcc7bdaf1da3aa0a4337bd128694da", "lat": 38.89972516666667, "fusion_lon": 0.0, "fusion_lat": 0.0, "type": "electric_scooter", "name": "93bcc7bdaf1da3aa0a4337bd128694da", "is_disabled": 0, "rental_uris": {"ios": "https://dc.lft.to/lastmile_qr_scan", "android": "https://dc.lft.to/lastmile_qr_scan"}, "is_reserved": 0}, {"lon": -77.00051433333333, "bike_id": "500edb8368570666695502c4b7d87aed", "lat": 38.8750795, "fusion_lon": 0.0, "fusion_lat": 0.0, "type": "electric_scooter", "name": "500edb8368570666695502c4b7d87aed", "is_disabled": 0, "rental_uris": {"ios": "https://dc.lft.to/lastmile_qr_scan", "android": "https://dc.lft.to/lastmile_qr_scan"}, "is_reserved": 0}, {"lon": -77.02622216666667, "bike_id": "cb186f9df6aff16b655918053ec10d65", "lat": 38.89221, "fusion_lon": 0.0, "fusion_lat": 0.0, "type": "electric_scooter", "name": "cb186f9df6aff16b655918053ec10d65", "is_disabled": 0, "rental_uris": {"ios": "https://dc.lft.to/lastmile_qr_scan", "android": "https://dc.lft.to/lastmile_qr_scan"}, "is_reserved": 0}, {"lon": -76.9859615, "bike_id": "dcfd3a2085c0640426acef6d0c88c3e7", "lat": 38.866846, "fusion_lon": 0.0, "fusion_lat": 0.0, "type": "electric_scooter", "name": "dcfd3a2085c0640426acef6d0c88c3e7", "is_disabled": 0, "rental_uris": {"ios": "https://dc.lft.to/lastmile_qr_scan", "android": "https://dc.lft.to/lastmile_qr_scan"}, "is_reserved": 0}, {"lon": -77.02092066666667, "bike_id": "699fc3c2f842d6845bc509fd9be9c0a8", "lat": 38.88181483333334, "fusion_lon": 0.0, "fusion_lat": 0.0, "type": "electric_scooter", "name": "699fc3c2f842d6845bc509fd9be9c0a8", "is_disabled": 0, "rental_uris": {"ios": "https://dc.lft.to/lastmile_qr_scan", "android": "https://dc.lft.to/lastmile_qr_scan"}, "is_reserved": 0}, {"lon": -77.04932216666667, "bike_id": "02fcd1eaf44e00292d4592c696f3e2b0", "lat": 38.902050833333334, "fusion_lon": 0.0, "fusion_lat": 0.0, "type": "electric_scooter", "name": "02fcd1eaf44e00292d4592c696f3e2b0", "is_disabled": 0, "rental_uris": {"ios": "https://dc.lft.to/lastmile_qr_scan", "android": "https://dc.lft.to/lastmile_qr_scan"}, "is_reserved": 0}, {"lon": -77.0349825, "bike_id": "397c557c9aa0a05aeaff8dfeb6ece8d6", "lat": 38.93275233333333, "fusion_lon": 0.0, "fusion_lat": 0.0, "type": "electric_scooter", "name": "397c557c9aa0a05aeaff8dfeb6ece8d6", "is_disabled": 0, "rental_uris": {"ios": "https://dc.lft.to/lastmile_qr_scan", "android": "https://dc.lft.to/lastmile_qr_scan"}, "is_reserved": 0}, {"lon": -77.02282733333334, "bike_id": "defb0455cd4347ccc3ae021031c95abf", "lat": 38.907845333333334, "fusion_lon": 0.0, "fusion_lat": 0.0, "type": "electric_scooter", "name": "defb0455cd4347ccc3ae021031c95abf", "is_disabled": 0, "rental_uris": {"ios": "https://dc.lft.to/lastmile_qr_scan", "android": "https://dc.lft.to/lastmile_qr_scan"}, "is_reserved": 0}, {"lon": -76.98191433333334, "bike_id": "a69b5d0569ebce90067ad100d99c9ca3", "lat": 38.96740416666667, "fusion_lon": 0.0, "fusion_lat": 0.0, "type": "electric_bike", "name": "a69b5d0569ebce90067ad100d99c9ca3", "is_disabled": 0, "rental_uris": {"ios": "https://dc.lft.to/lastmile_qr_scan", "android": "https://dc.lft.to/lastmile_qr_scan"}, "is_reserved": 0}, {"lon": -77.02971283333333, "bike_id": "c660b9d487c229813cf479f86f85e1da", "lat": 38.91454383333333, "fusion_lon": 0.0, "fusion_lat": 0.0, "type": "electric_scooter", "name": "c660b9d487c229813cf479f86f85e1da", "is_disabled": 0, "rental_uris": {"ios": "https://dc.lft.to/lastmile_qr_scan", "android": "https://dc.lft.to/lastmile_qr_scan"}, "is_reserved": 0}, {"lon": -77.028766, "bike_id": "1f49f23e98a23f0840ff26e4c644501b", "lat": 38.917123, "fusion_lon": 0.0, "fusion_lat": 0.0, "type": "electric_scooter", "name": "1f49f23e98a23f0840ff26e4c644501b", "is_disabled": 0, "rental_uris": {"ios": "https://dc.lft.to/lastmile_qr_scan", "android": "https://dc.lft.to/lastmile_qr_scan"}, "is_reserved": 0}, {"lon": -77.02486466666667, "bike_id": "56adb031c8669dd74ffaca6f2edc8ebf", "lat": 38.918699, "fusion_lon": 0.0, "fusion_lat": 0.0, "type": "electric_scooter", "name": "56adb031c8669dd74ffaca6f2edc8ebf", "is_disabled": 0, "rental_uris": {"ios": "https://dc.lft.to/lastmile_qr_scan", "android": "https://dc.lft.to/lastmile_qr_scan"}, "is_reserved": 0}, {"lon": -77.0375985, "bike_id": "1ccc26039c478089dc49534bda186d1b", "lat": 38.90784216666667, "fusion_lon": 0.0, "fusion_lat": 0.0, "type": "electric_scooter", "name": "1ccc26039c478089dc49534bda186d1b", "is_disabled": 0, "rental_uris": {"ios": "https://dc.lft.to/lastmile_qr_scan", "android": "https://dc.lft.to/lastmile_qr_scan"}, "is_reserved": 0}, {"lon": -77.06647016666666, "bike_id": "6a8980c43f70d5ebb626bd21ec5f472d", "lat": 38.90588783333333, "fusion_lon": 0.0, "fusion_lat": 0.0, "type": "electric_scooter", "name": "6a8980c43f70d5ebb626bd21ec5f472d", "is_disabled": 0, "rental_uris": {"ios": "https://dc.lft.to/lastmile_qr_scan", "android": "https://dc.lft.to/lastmile_qr_scan"}, "is_reserved": 0}, {"lon": -76.9983215, "bike_id": "3310afbded3d16659f6d99ab2c53e1be", "lat": 38.89453266666666, "fusion_lon": 0.0, "fusion_lat": 0.0, "type": "electric_scooter", "name": "3310afbded3d16659f6d99ab2c53e1be", "is_disabled": 0, "rental_uris": {"ios": "https://dc.lft.to/lastmile_qr_scan", "android": "https://dc.lft.to/lastmile_qr_scan"}, "is_reserved": 0}, {"lon": -77.02846866666667, "bike_id": "3e8774cf03bc18290114f388edebd4f9", "lat": 38.934130333333336, "fusion_lon": 0.0, "fusion_lat": 0.0, "type": "electric_scooter", "name": "3e8774cf03bc18290114f388edebd4f9", "is_disabled": 0, "rental_uris": {"ios": "https://dc.lft.to/lastmile_qr_scan", "android": "https://dc.lft.to/lastmile_qr_scan"}, "is_reserved": 0}, {"lon": -77.00199233333333, "bike_id": "bc318a3a73658098a4d980ab3077d07b", "lat": 38.9024085, "fusion_lon": 0.0, "fusion_lat": 0.0, "type": "electric_scooter", "name": "bc318a3a73658098a4d980ab3077d07b", "is_disabled": 0, "rental_uris": {"ios": "https://dc.lft.to/lastmile_qr_scan", "android": "https://dc.lft.to/lastmile_qr_scan"}, "is_reserved": 0}, {"lon": -77.01342833333334, "bike_id": "71df1c2b08f04cf05300c9e8ff61a4f9", "lat": 38.878172166666666, "fusion_lon": 0.0, "fusion_lat": 0.0, "type": "electric_scooter", "name": "71df1c2b08f04cf05300c9e8ff61a4f9", "is_disabled": 0, "rental_uris": {"ios": "https://dc.lft.to/lastmile_qr_scan", "android": "https://dc.lft.to/lastmile_qr_scan"}, "is_reserved": 0}, {"lon": -76.98527666666666, "bike_id": "2ddce476282cfc678e940fd7a9a6022e", "lat": 38.866929, "fusion_lon": 0.0, "fusion_lat": 0.0, "type": "electric_scooter", "name": "2ddce476282cfc678e940fd7a9a6022e", "is_disabled": 0, "rental_uris": {"ios": "https://dc.lft.to/lastmile_qr_scan", "android": "https://dc.lft.to/lastmile_qr_scan"}, "is_reserved": 0}, {"lon": -77.02314233333334, "bike_id": "de9c0ca0d5de24888130afdd9e594d21", "lat": 38.917131166666664, "fusion_lon": 0.0, "fusion_lat": 0.0, "type": "electric_scooter", "name": "de9c0ca0d5de24888130afdd9e594d21", "is_disabled": 0, "rental_uris": {"ios": "https://dc.lft.to/lastmile_qr_scan", "android": "https://dc.lft.to/lastmile_qr_scan"}, "is_reserved": 0}, {"lon": -77.02221916666667, "bike_id": "f38cb8153e5cf96f6c2bb60df863d034", "lat": 38.892200833333334, "fusion_lon": 0.0, "fusion_lat": 0.0, "type": "electric_scooter", "name": "f38cb8153e5cf96f6c2bb60df863d034", "is_disabled": 0, "rental_uris": {"ios": "https://dc.lft.to/lastmile_qr_scan", "android": "https://dc.lft.to/lastmile_qr_scan"}, "is_reserved": 0}, {"lon": -76.979313, "bike_id": "8a9a427923fc22e7537174ebde85c502", "lat": 38.90246533333333, "fusion_lon": 0.0, "fusion_lat": 0.0, "type": "electric_scooter", "name": "8a9a427923fc22e7537174ebde85c502", "is_disabled": 0, "rental_uris": {"ios": "https://dc.lft.to/lastmile_qr_scan", "android": "https://dc.lft.to/lastmile_qr_scan"}, "is_reserved": 0}, {"lon": -77.00557666666667, "bike_id": "a03169a0e89b0804ee53afd6995a8754", "lat": 38.87469516666667, "fusion_lon": 0.0, "fusion_lat": 0.0, "type": "electric_scooter", "name": "a03169a0e89b0804ee53afd6995a8754", "is_disabled": 0, "rental_uris": {"ios": "https://dc.lft.to/lastmile_qr_scan", "android": "https://dc.lft.to/lastmile_qr_scan"}, "is_reserved": 0}, {"lon": -77.0471695, "bike_id": "148df9184c35a1d97df6f5879373d2e5", "lat": 38.923127666666666, "fusion_lon": 0.0, "fusion_lat": 0.0, "type": "electric_scooter", "name": "148df9184c35a1d97df6f5879373d2e5", "is_disabled": 0, "rental_uris": {"ios": "https://dc.lft.to/lastmile_qr_scan", "android": "https://dc.lft.to/lastmile_qr_scan"}, "is_reserved": 0}, {"lon": -76.907429, "bike_id": "709e7ae34eb51cd246da8c7c86575d34", "lat": 38.89617233333333, "fusion_lon": 0.0, "fusion_lat": 0.0, "type": "electric_bike", "name": "709e7ae34eb51cd246da8c7c86575d34", "is_disabled": 0, "rental_uris": {"ios": "https://dc.lft.to/lastmile_qr_scan", "android": "https://dc.lft.to/lastmile_qr_scan"}, "is_reserved": 0}, {"lon": -77.03128983333333, "bike_id": "b435fd3a01dc3d7a4df16f4ade532525", "lat": 38.92031016666667, "fusion_lon": 0.0, "fusion_lat": 0.0, "type": "electric_scooter", "name": "b435fd3a01dc3d7a4df16f4ade532525", "is_disabled": 0, "rental_uris": {"ios": "https://dc.lft.to/lastmile_qr_scan", "android": "https://dc.lft.to/lastmile_qr_scan"}, "is_reserved": 0}, {"lon": -77.044714, "bike_id": "3d0ca459a62faf443a959fd7d906c55b", "lat": 38.9238785, "fusion_lon": 0.0, "fusion_lat": 0.0, "type": "electric_scooter", "name": "3d0ca459a62faf443a959fd7d906c55b", "is_disabled": 0, "rental_uris": {"ios": "https://dc.lft.to/lastmile_qr_scan", "android": "https://dc.lft.to/lastmile_qr_scan"}, "is_reserved": 0}, {"lon": -77.0434935, "bike_id": "06ed10dbf1751d5e0d4ef9e47feab860", "lat": 38.90690166666667, "fusion_lon": 0.0, "fusion_lat": 0.0, "type": "electric_scooter", "name": "06ed10dbf1751d5e0d4ef9e47feab860", "is_disabled": 0, "rental_uris": {"ios": "https://dc.lft.to/lastmile_qr_scan", "android": "https://dc.lft.to/lastmile_qr_scan"}, "is_reserved": 0}, {"lon": -77.03994133333333, "bike_id": "1976c5565e545e0181bf5fcc41bd0b98", "lat": 38.93330016666667, "fusion_lon": 0.0, "fusion_lat": 0.0, "type": "electric_scooter", "name": "1976c5565e545e0181bf5fcc41bd0b98", "is_disabled": 0, "rental_uris": {"ios": "https://dc.lft.to/lastmile_qr_scan", "android": "https://dc.lft.to/lastmile_qr_scan"}, "is_reserved": 0}, {"lon": -76.997969, "bike_id": "a5883f20a94506d2263c5165668c0657", "lat": 38.9085415, "fusion_lon": 0.0, "fusion_lat": 0.0, "type": "electric_scooter", "name": "a5883f20a94506d2263c5165668c0657", "is_disabled": 0, "rental_uris": {"ios": "https://dc.lft.to/lastmile_qr_scan", "android": "https://dc.lft.to/lastmile_qr_scan"}, "is_reserved": 0}, {"lon": -77.02273733333334, "bike_id": "d3a343fe9f1534e0eaf8753684b29f25", "lat": 38.916631833333334, "fusion_lon": 0.0, "fusion_lat": 0.0, "type": "electric_scooter", "name": "d3a343fe9f1534e0eaf8753684b29f25", "is_disabled": 0, "rental_uris": {"ios": "https://dc.lft.to/lastmile_qr_scan", "android": "https://dc.lft.to/lastmile_qr_scan"}, "is_reserved": 0}, {"lon": -77.02601366666667, "bike_id": "d504c648fe9c9ff593dbf6273b7dd4f7", "lat": 38.933822166666666, "fusion_lon": 0.0, "fusion_lat": 0.0, "type": "electric_scooter", "name": "d504c648fe9c9ff593dbf6273b7dd4f7", "is_disabled": 0, "rental_uris": {"ios": "https://dc.lft.to/lastmile_qr_scan", "android": "https://dc.lft.to/lastmile_qr_scan"}, "is_reserved": 0}, {"lon": -77.00135733333333, "bike_id": "f373e384e48b9cabeddb4dee1f5a8947", "lat": 38.8947845, "fusion_lon": 0.0, "fusion_lat": 0.0, "type": "electric_scooter", "name": "f373e384e48b9cabeddb4dee1f5a8947", "is_disabled": 0, "rental_uris": {"ios": "https://dc.lft.to/lastmile_qr_scan", "android": "https://dc.lft.to/lastmile_qr_scan"}, "is_reserved": 0}, {"lon": -76.92664233333333, "bike_id": "7c2be324fa592436aa7439c6f1823422", "lat": 38.88039916666666, "fusion_lon": 0.0, "fusion_lat": 0.0, "type": "electric_scooter", "name": "7c2be324fa592436aa7439c6f1823422", "is_disabled": 0, "rental_uris": {"ios": "https://dc.lft.to/lastmile_qr_scan", "android": "https://dc.lft.to/lastmile_qr_scan"}, "is_reserved": 0}, {"lon": -77.029721, "bike_id": "4b9e8a224489eff7f0c1c07d8a4ec594", "lat": 38.92444066666667, "fusion_lon": 0.0, "fusion_lat": 0.0, "type": "electric_scooter", "name": "4b9e8a224489eff7f0c1c07d8a4ec594", "is_disabled": 0, "rental_uris": {"ios": "https://dc.lft.to/lastmile_qr_scan", "android": "https://dc.lft.to/lastmile_qr_scan"}, "is_reserved": 0}, {"lon": -76.99912583333334, "bike_id": "0d18282ca10038807ba45c31f35ab495", "lat": 38.90916766666667, "fusion_lon": 0.0, "fusion_lat": 0.0, "type": "electric_scooter", "name": "0d18282ca10038807ba45c31f35ab495", "is_disabled": 0, "rental_uris": {"ios": "https://dc.lft.to/lastmile_qr_scan", "android": "https://dc.lft.to/lastmile_qr_scan"}, "is_reserved": 0}, {"lon": -77.03194816666667, "bike_id": "c288c6612cefe282a4daa85e1a8fd0ae", "lat": 38.90992216666667, "fusion_lon": 0.0, "fusion_lat": 0.0, "type": "electric_scooter", "name": "c288c6612cefe282a4daa85e1a8fd0ae", "is_disabled": 0, "rental_uris": {"ios": "https://dc.lft.to/lastmile_qr_scan", "android": "https://dc.lft.to/lastmile_qr_scan"}, "is_reserved": 0}, {"lon": -76.93739633333334, "bike_id": "c2473c614408ee4776d1688cec598b52", "lat": 38.89002166666667, "fusion_lon": 0.0, "fusion_lat": 0.0, "type": "electric_scooter", "name": "c2473c614408ee4776d1688cec598b52", "is_disabled": 0, "rental_uris": {"ios": "https://dc.lft.to/lastmile_qr_scan", "android": "https://dc.lft.to/lastmile_qr_scan"}, "is_reserved": 0}, {"lon": -77.034473, "bike_id": "b7d5316489fa0c3d6a9c6158937b91c1", "lat": 38.90812666666667, "fusion_lon": 0.0, "fusion_lat": 0.0, "type": "electric_scooter", "name": "b7d5316489fa0c3d6a9c6158937b91c1", "is_disabled": 0, "rental_uris": {"ios": "https://dc.lft.to/lastmile_qr_scan", "android": "https://dc.lft.to/lastmile_qr_scan"}, "is_reserved": 0}, {"lon": -77.0385695, "bike_id": "e7862489cbaf4506d69c203ffd9b73b6", "lat": 38.91543633333333, "fusion_lon": 0.0, "fusion_lat": 0.0, "type": "electric_scooter", "name": "e7862489cbaf4506d69c203ffd9b73b6", "is_disabled": 0, "rental_uris": {"ios": "https://dc.lft.to/lastmile_qr_scan", "android": "https://dc.lft.to/lastmile_qr_scan"}, "is_reserved": 0}, {"lon": -77.03469883333334, "bike_id": "9719312b196e2f9e3b8bf239370668d7", "lat": 38.917051, "fusion_lon": 0.0, "fusion_lat": 0.0, "type": "electric_scooter", "name": "9719312b196e2f9e3b8bf239370668d7", "is_disabled": 0, "rental_uris": {"ios": "https://dc.lft.to/lastmile_qr_scan", "android": "https://dc.lft.to/lastmile_qr_scan"}, "is_reserved": 0}, {"lon": -77.01713716666667, "bike_id": "9a1ed1ad5faf64a964ed4123eed3fad0", "lat": 38.909719333333335, "fusion_lon": 0.0, "fusion_lat": 0.0, "type": "electric_scooter", "name": "9a1ed1ad5faf64a964ed4123eed3fad0", "is_disabled": 0, "rental_uris": {"ios": "https://dc.lft.to/lastmile_qr_scan", "android": "https://dc.lft.to/lastmile_qr_scan"}, "is_reserved": 0}, {"lon": -77.04512083333333, "bike_id": "e550a5d6c52a8fa7237b4d1dc6c65d3d", "lat": 38.903646, "fusion_lon": 0.0, "fusion_lat": 0.0, "type": "electric_scooter", "name": "e550a5d6c52a8fa7237b4d1dc6c65d3d", "is_disabled": 0, "rental_uris": {"ios": "https://dc.lft.to/lastmile_qr_scan", "android": "https://dc.lft.to/lastmile_qr_scan"}, "is_reserved": 0}, {"lon": -77.025164, "bike_id": "b954cac9d08a69e9af1526549d179bb2", "lat": 38.9124415, "fusion_lon": 0.0, "fusion_lat": 0.0, "type": "electric_scooter", "name": "b954cac9d08a69e9af1526549d179bb2", "is_disabled": 0, "rental_uris": {"ios": "https://dc.lft.to/lastmile_qr_scan", "android": "https://dc.lft.to/lastmile_qr_scan"}, "is_reserved": 0}, {"lon": -76.96522433333334, "bike_id": "ccb613047b54ea3dba0cee509ebe8ef9", "lat": 38.8762795, "fusion_lon": 0.0, "fusion_lat": 0.0, "type": "electric_scooter", "name": "ccb613047b54ea3dba0cee509ebe8ef9", "is_disabled": 0, "rental_uris": {"ios": "https://dc.lft.to/lastmile_qr_scan", "android": "https://dc.lft.to/lastmile_qr_scan"}, "is_reserved": 0}, {"lon": -77.04163583333333, "bike_id": "ecbb4ef88269c039a71635846fa30827", "lat": 38.91975, "fusion_lon": 0.0, "fusion_lat": 0.0, "type": "electric_scooter", "name": "ecbb4ef88269c039a71635846fa30827", "is_disabled": 0, "rental_uris": {"ios": "https://dc.lft.to/lastmile_qr_scan", "android": "https://dc.lft.to/lastmile_qr_scan"}, "is_reserved": 0}, {"lon": -77.00593066666667, "bike_id": "de9ad5f1b2ce1016259eb1887692e630", "lat": 38.871846833333336, "fusion_lon": 0.0, "fusion_lat": 0.0, "type": "electric_scooter", "name": "de9ad5f1b2ce1016259eb1887692e630", "is_disabled": 0, "rental_uris": {"ios": "https://dc.lft.to/lastmile_qr_scan", "android": "https://dc.lft.to/lastmile_qr_scan"}, "is_reserved": 0}, {"lon": -76.98491766666666, "bike_id": "de74c453e3d58a4719880d127a378567", "lat": 38.878364, "fusion_lon": 0.0, "fusion_lat": 0.0, "type": "electric_scooter", "name": "de74c453e3d58a4719880d127a378567", "is_disabled": 0, "rental_uris": {"ios": "https://dc.lft.to/lastmile_qr_scan", "android": "https://dc.lft.to/lastmile_qr_scan"}, "is_reserved": 0}, {"lon": -77.02172066666667, "bike_id": "f3231ba470c922205a622ba62c5de28f", "lat": 38.88718933333333, "fusion_lon": 0.0, "fusion_lat": 0.0, "type": "electric_scooter", "name": "f3231ba470c922205a622ba62c5de28f", "is_disabled": 0, "rental_uris": {"ios": "https://dc.lft.to/lastmile_qr_scan", "android": "https://dc.lft.to/lastmile_qr_scan"}, "is_reserved": 0}, {"lon": -77.0331915, "bike_id": "25b97e7db09cc8616acc8db3bc15c0b9", "lat": 38.928732333333336, "fusion_lon": 0.0, "fusion_lat": 0.0, "type": "electric_scooter", "name": "25b97e7db09cc8616acc8db3bc15c0b9", "is_disabled": 0, "rental_uris": {"ios": "https://dc.lft.to/lastmile_qr_scan", "android": "https://dc.lft.to/lastmile_qr_scan"}, "is_reserved": 0}, {"lon": -77.02362583333333, "bike_id": "f70fc0146de506b3d2f6a72189fe537a", "lat": 38.89218283333334, "fusion_lon": 0.0, "fusion_lat": 0.0, "type": "electric_scooter", "name": "f70fc0146de506b3d2f6a72189fe537a", "is_disabled": 0, "rental_uris": {"ios": "https://dc.lft.to/lastmile_qr_scan", "android": "https://dc.lft.to/lastmile_qr_scan"}, "is_reserved": 0}, {"lon": -77.06006, "bike_id": "031c71f101220bb0649049f3eadc8a68", "lat": 38.9011465, "fusion_lon": 0.0, "fusion_lat": 0.0, "type": "electric_scooter", "name": "031c71f101220bb0649049f3eadc8a68", "is_disabled": 0, "rental_uris": {"ios": "https://dc.lft.to/lastmile_qr_scan", "android": "https://dc.lft.to/lastmile_qr_scan"}, "is_reserved": 0}, {"lon": -77.05046233333333, "bike_id": "f8b542b5eec85c363a34f4902b0701fc", "lat": 38.92361283333334, "fusion_lon": 0.0, "fusion_lat": 0.0, "type": "electric_scooter", "name": "f8b542b5eec85c363a34f4902b0701fc", "is_disabled": 0, "rental_uris": {"ios": "https://dc.lft.to/lastmile_qr_scan", "android": "https://dc.lft.to/lastmile_qr_scan"}, "is_reserved": 0}, {"lon": -77.00786733333334, "bike_id": "286d75ddb88181fb63e45b84b3bb5373", "lat": 38.905699, "fusion_lon": 0.0, "fusion_lat": 0.0, "type": "electric_scooter", "name": "286d75ddb88181fb63e45b84b3bb5373", "is_disabled": 0, "rental_uris": {"ios": "https://dc.lft.to/lastmile_qr_scan", "android": "https://dc.lft.to/lastmile_qr_scan"}, "is_reserved": 0}, {"lon": -77.03176166666667, "bike_id": "c4dcb3ba1589f0aa7017c294d73d0f95", "lat": 38.91637016666667, "fusion_lon": 0.0, "fusion_lat": 0.0, "type": "electric_scooter", "name": "c4dcb3ba1589f0aa7017c294d73d0f95", "is_disabled": 0, "rental_uris": {"ios": "https://dc.lft.to/lastmile_qr_scan", "android": "https://dc.lft.to/lastmile_qr_scan"}, "is_reserved": 0}, {"lon": -77.0326545, "bike_id": "a29fe810261d17bb38fc057afa23a307", "lat": 38.93773483333333, "fusion_lon": 0.0, "fusion_lat": 0.0, "type": "electric_scooter", "name": "a29fe810261d17bb38fc057afa23a307", "is_disabled": 0, "rental_uris": {"ios": "https://dc.lft.to/lastmile_qr_scan", "android": "https://dc.lft.to/lastmile_qr_scan"}, "is_reserved": 0}, {"lon": -77.05928633333333, "bike_id": "e716c0514ffa0c786a51eaad478d7250", "lat": 38.90375233333334, "fusion_lon": 0.0, "fusion_lat": 0.0, "type": "electric_bike", "name": "e716c0514ffa0c786a51eaad478d7250", "is_disabled": 0, "rental_uris": {"ios": "https://dc.lft.to/lastmile_qr_scan", "android": "https://dc.lft.to/lastmile_qr_scan"}, "is_reserved": 0}, {"lon": -76.98906616666666, "bike_id": "143edee20c21d7aa88356af38fd37e01", "lat": 38.866689, "fusion_lon": 0.0, "fusion_lat": 0.0, "type": "electric_scooter", "name": "143edee20c21d7aa88356af38fd37e01", "is_disabled": 0, "rental_uris": {"ios": "https://dc.lft.to/lastmile_qr_scan", "android": "https://dc.lft.to/lastmile_qr_scan"}, "is_reserved": 0}, {"lon": -77.03463866666667, "bike_id": "915a85ab076e8ff2c2c2d58d8b53eaf1", "lat": 38.9087115, "fusion_lon": 0.0, "fusion_lat": 0.0, "type": "electric_scooter", "name": "915a85ab076e8ff2c2c2d58d8b53eaf1", "is_disabled": 0, "rental_uris": {"ios": "https://dc.lft.to/lastmile_qr_scan", "android": "https://dc.lft.to/lastmile_qr_scan"}, "is_reserved": 0}, {"lon": -77.04484216666667, "bike_id": "3fa1e12a4c898e04a66fd4ff00849a61", "lat": 38.91356416666667, "fusion_lon": 0.0, "fusion_lat": 0.0, "type": "electric_scooter", "name": "3fa1e12a4c898e04a66fd4ff00849a61", "is_disabled": 0, "rental_uris": {"ios": "https://dc.lft.to/lastmile_qr_scan", "android": "https://dc.lft.to/lastmile_qr_scan"}, "is_reserved": 0}, {"lon": -77.018966, "bike_id": "b70bfa95b3864e83511effd629777c23", "lat": 38.908953, "fusion_lon": 0.0, "fusion_lat": 0.0, "type": "electric_scooter", "name": "b70bfa95b3864e83511effd629777c23", "is_disabled": 0, "rental_uris": {"ios": "https://dc.lft.to/lastmile_qr_scan", "android": "https://dc.lft.to/lastmile_qr_scan"}, "is_reserved": 0}, {"lon": -77.04665333333334, "bike_id": "2786e408e059ef961383f6233f1485a1", "lat": 38.9078225, "fusion_lon": 0.0, "fusion_lat": 0.0, "type": "electric_scooter", "name": "2786e408e059ef961383f6233f1485a1", "is_disabled": 0, "rental_uris": {"ios": "https://dc.lft.to/lastmile_qr_scan", "android": "https://dc.lft.to/lastmile_qr_scan"}, "is_reserved": 0}, {"lon": -76.99519599999999, "bike_id": "8340bbaa80f46e732cb5fe99570d1712", "lat": 38.891717166666666, "fusion_lon": 0.0, "fusion_lat": 0.0, "type": "electric_scooter", "name": "8340bbaa80f46e732cb5fe99570d1712", "is_disabled": 0, "rental_uris": {"ios": "https://dc.lft.to/lastmile_qr_scan", "android": "https://dc.lft.to/lastmile_qr_scan"}, "is_reserved": 0}, {"lon": -77.027295, "bike_id": "7f8bd36a66324a90b3250958e45e3128", "lat": 38.894589833333335, "fusion_lon": 0.0, "fusion_lat": 0.0, "type": "electric_scooter", "name": "7f8bd36a66324a90b3250958e45e3128", "is_disabled": 0, "rental_uris": {"ios": "https://dc.lft.to/lastmile_qr_scan", "android": "https://dc.lft.to/lastmile_qr_scan"}, "is_reserved": 0}, {"lon": -77.0326415, "bike_id": "d129b84f5e0e91c4c187d99994a3ba21", "lat": 38.9388715, "fusion_lon": 0.0, "fusion_lat": 0.0, "type": "electric_scooter", "name": "d129b84f5e0e91c4c187d99994a3ba21", "is_disabled": 0, "rental_uris": {"ios": "https://dc.lft.to/lastmile_qr_scan", "android": "https://dc.lft.to/lastmile_qr_scan"}, "is_reserved": 0}, {"lon": -76.98668866666667, "bike_id": "0074578889fd5c81fa2853f6ccc19845", "lat": 38.867247, "fusion_lon": 0.0, "fusion_lat": 0.0, "type": "electric_scooter", "name": "0074578889fd5c81fa2853f6ccc19845", "is_disabled": 0, "rental_uris": {"ios": "https://dc.lft.to/lastmile_qr_scan", "android": "https://dc.lft.to/lastmile_qr_scan"}, "is_reserved": 0}, {"lon": -76.99365933333333, "bike_id": "1bf6436e6531f54f8accc95a10ae76ad", "lat": 38.90005383333333, "fusion_lon": 0.0, "fusion_lat": 0.0, "type": "electric_bike", "name": "1bf6436e6531f54f8accc95a10ae76ad", "is_disabled": 0, "rental_uris": {"ios": "https://dc.lft.to/lastmile_qr_scan", "android": "https://dc.lft.to/lastmile_qr_scan"}, "is_reserved": 0}, {"lon": -77.02741866666666, "bike_id": "8257e370768c85ad48913d4d07e66dc9", "lat": 38.881471166666664, "fusion_lon": 0.0, "fusion_lat": 0.0, "type": "electric_scooter", "name": "8257e370768c85ad48913d4d07e66dc9", "is_disabled": 0, "rental_uris": {"ios": "https://dc.lft.to/lastmile_qr_scan", "android": "https://dc.lft.to/lastmile_qr_scan"}, "is_reserved": 0}, {"lon": -77.027094, "bike_id": "ff172cab7ebcd9ad5b6f3c6989cdcf83", "lat": 38.95089316666667, "fusion_lon": 0.0, "fusion_lat": 0.0, "type": "electric_scooter", "name": "ff172cab7ebcd9ad5b6f3c6989cdcf83", "is_disabled": 0, "rental_uris": {"ios": "https://dc.lft.to/lastmile_qr_scan", "android": "https://dc.lft.to/lastmile_qr_scan"}, "is_reserved": 0}, {"lon": -77.04362933333333, "bike_id": "33838e94413d56a954b64c78ece988a0", "lat": 38.92100283333333, "fusion_lon": 0.0, "fusion_lat": 0.0, "type": "electric_scooter", "name": "33838e94413d56a954b64c78ece988a0", "is_disabled": 0, "rental_uris": {"ios": "https://dc.lft.to/lastmile_qr_scan", "android": "https://dc.lft.to/lastmile_qr_scan"}, "is_reserved": 0}, {"lon": -77.03096666666667, "bike_id": "9f08255ca91eadea953e6a985238edf2", "lat": 38.918097333333336, "fusion_lon": 0.0, "fusion_lat": 0.0, "type": "electric_scooter", "name": "9f08255ca91eadea953e6a985238edf2", "is_disabled": 0, "rental_uris": {"ios": "https://dc.lft.to/lastmile_qr_scan", "android": "https://dc.lft.to/lastmile_qr_scan"}, "is_reserved": 0}, {"lon": -77.16624783333333, "bike_id": "c669b3e833f7fe32f65dea4b80e59751", "lat": 38.88837516666667, "fusion_lon": 0.0, "fusion_lat": 0.0, "type": "electric_bike", "name": "c669b3e833f7fe32f65dea4b80e59751", "is_disabled": 0, "rental_uris": {"ios": "https://dc.lft.to/lastmile_qr_scan", "android": "https://dc.lft.to/lastmile_qr_scan"}, "is_reserved": 0}, {"lon": -77.04274366666667, "bike_id": "3e4e2ce41c49948584947b00fd485d9c", "lat": 38.90425, "fusion_lon": 0.0, "fusion_lat": 0.0, "type": "electric_scooter", "name": "3e4e2ce41c49948584947b00fd485d9c", "is_disabled": 0, "rental_uris": {"ios": "https://dc.lft.to/lastmile_qr_scan", "android": "https://dc.lft.to/lastmile_qr_scan"}, "is_reserved": 0}, {"lon": -77.03996533333333, "bike_id": "610c8c6536e8e63ab9c4beb928445976", "lat": 38.93275083333333, "fusion_lon": 0.0, "fusion_lat": 0.0, "type": "electric_scooter", "name": "610c8c6536e8e63ab9c4beb928445976", "is_disabled": 0, "rental_uris": {"ios": "https://dc.lft.to/lastmile_qr_scan", "android": "https://dc.lft.to/lastmile_qr_scan"}, "is_reserved": 0}, {"lon": -77.03009933333334, "bike_id": "b4cb534d81f22b37e227cc6c14ff008b", "lat": 38.925727, "fusion_lon": 0.0, "fusion_lat": 0.0, "type": "electric_scooter", "name": "b4cb534d81f22b37e227cc6c14ff008b", "is_disabled": 0, "rental_uris": {"ios": "https://dc.lft.to/lastmile_qr_scan", "android": "https://dc.lft.to/lastmile_qr_scan"}, "is_reserved": 0}, {"lon": -77.02470733333334, "bike_id": "4d083e08631399cbe658d60b0fe8a396", "lat": 38.93710816666667, "fusion_lon": 0.0, "fusion_lat": 0.0, "type": "electric_scooter", "name": "4d083e08631399cbe658d60b0fe8a396", "is_disabled": 0, "rental_uris": {"ios": "https://dc.lft.to/lastmile_qr_scan", "android": "https://dc.lft.to/lastmile_qr_scan"}, "is_reserved": 0}, {"lon": -76.97516616666667, "bike_id": "af0e86a917288dde640acdd2007dba79", "lat": 38.9669885, "fusion_lon": 0.0, "fusion_lat": 0.0, "type": "electric_bike", "name": "af0e86a917288dde640acdd2007dba79", "is_disabled": 0, "rental_uris": {"ios": "https://dc.lft.to/lastmile_qr_scan", "android": "https://dc.lft.to/lastmile_qr_scan"}, "is_reserved": 0}, {"lon": -76.99684833333333, "bike_id": "32dcd1f04e4d1c38e2144c9ae38cf2bf", "lat": 38.860183666666664, "fusion_lon": 0.0, "fusion_lat": 0.0, "type": "electric_scooter", "name": "32dcd1f04e4d1c38e2144c9ae38cf2bf", "is_disabled": 0, "rental_uris": {"ios": "https://dc.lft.to/lastmile_qr_scan", "android": "https://dc.lft.to/lastmile_qr_scan"}, "is_reserved": 0}, {"lon": -77.03222616666666, "bike_id": "3f4ecdb1d17647d0a664efdd1221675f", "lat": 38.89733716666667, "fusion_lon": 0.0, "fusion_lat": 0.0, "type": "electric_scooter", "name": "3f4ecdb1d17647d0a664efdd1221675f", "is_disabled": 0, "rental_uris": {"ios": "https://dc.lft.to/lastmile_qr_scan", "android": "https://dc.lft.to/lastmile_qr_scan"}, "is_reserved": 0}, {"lon": -77.082869, "bike_id": "4121342d454f9ed1fee71dbf134d2024", "lat": 38.93577416666667, "fusion_lon": 0.0, "fusion_lat": 0.0, "type": "electric_scooter", "name": "4121342d454f9ed1fee71dbf134d2024", "is_disabled": 0, "rental_uris": {"ios": "https://dc.lft.to/lastmile_qr_scan", "android": "https://dc.lft.to/lastmile_qr_scan"}, "is_reserved": 0}, {"lon": -77.04069683333333, "bike_id": "8a88b13738d7ff4ecb15abd57badf926", "lat": 38.907183, "fusion_lon": 0.0, "fusion_lat": 0.0, "type": "electric_scooter", "name": "8a88b13738d7ff4ecb15abd57badf926", "is_disabled": 0, "rental_uris": {"ios": "https://dc.lft.to/lastmile_qr_scan", "android": "https://dc.lft.to/lastmile_qr_scan"}, "is_reserved": 0}, {"lon": -77.03456, "bike_id": "86e24c3c2436aedddbff30580cdd90d9", "lat": 38.918137, "fusion_lon": 0.0, "fusion_lat": 0.0, "type": "electric_scooter", "name": "86e24c3c2436aedddbff30580cdd90d9", "is_disabled": 0, "rental_uris": {"ios": "https://dc.lft.to/lastmile_qr_scan", "android": "https://dc.lft.to/lastmile_qr_scan"}, "is_reserved": 0}, {"lon": -77.05054533333333, "bike_id": "6d4992cf1329d829068c8bdaf19fac84", "lat": 38.9005415, "fusion_lon": 0.0, "fusion_lat": 0.0, "type": "electric_scooter", "name": "6d4992cf1329d829068c8bdaf19fac84", "is_disabled": 0, "rental_uris": {"ios": "https://dc.lft.to/lastmile_qr_scan", "android": "https://dc.lft.to/lastmile_qr_scan"}, "is_reserved": 0}, {"lon": -77.02372666666666, "bike_id": "f346072aa2c4717245dcf4142531f178", "lat": 38.892200333333335, "fusion_lon": 0.0, "fusion_lat": 0.0, "type": "electric_scooter", "name": "f346072aa2c4717245dcf4142531f178", "is_disabled": 0, "rental_uris": {"ios": "https://dc.lft.to/lastmile_qr_scan", "android": "https://dc.lft.to/lastmile_qr_scan"}, "is_reserved": 0}, {"lon": -77.02084183333334, "bike_id": "f3ba2fa844676c88850025b673246c95", "lat": 38.957505, "fusion_lon": 0.0, "fusion_lat": 0.0, "type": "electric_scooter", "name": "f3ba2fa844676c88850025b673246c95", "is_disabled": 0, "rental_uris": {"ios": "https://dc.lft.to/lastmile_qr_scan", "android": "https://dc.lft.to/lastmile_qr_scan"}, "is_reserved": 0}, {"lon": -77.01831883333334, "bike_id": "bed7feda81d8026ced68e865141ee779", "lat": 38.902792166666664, "fusion_lon": 0.0, "fusion_lat": 0.0, "type": "electric_scooter", "name": "bed7feda81d8026ced68e865141ee779", "is_disabled": 0, "rental_uris": {"ios": "https://dc.lft.to/lastmile_qr_scan", "android": "https://dc.lft.to/lastmile_qr_scan"}, "is_reserved": 0}, {"lon": -77.0320415, "bike_id": "0f06f6fc7bf44e84258788a4293529d2", "lat": 38.915001333333336, "fusion_lon": 0.0, "fusion_lat": 0.0, "type": "electric_scooter", "name": "0f06f6fc7bf44e84258788a4293529d2", "is_disabled": 0, "rental_uris": {"ios": "https://dc.lft.to/lastmile_qr_scan", "android": "https://dc.lft.to/lastmile_qr_scan"}, "is_reserved": 0}, {"lon": -76.99648866666666, "bike_id": "b3f1692bba062312798d4cce578137fa", "lat": 38.988212, "fusion_lon": 0.0, "fusion_lat": 0.0, "type": "electric_bike", "name": "b3f1692bba062312798d4cce578137fa", "is_disabled": 0, "rental_uris": {"ios": "https://dc.lft.to/lastmile_qr_scan", "android": "https://dc.lft.to/lastmile_qr_scan"}, "is_reserved": 0}, {"lon": -77.0385635, "bike_id": "bdb4a29e45d61e79b81951a288e5ec29", "lat": 38.911786166666666, "fusion_lon": 0.0, "fusion_lat": 0.0, "type": "electric_scooter", "name": "bdb4a29e45d61e79b81951a288e5ec29", "is_disabled": 0, "rental_uris": {"ios": "https://dc.lft.to/lastmile_qr_scan", "android": "https://dc.lft.to/lastmile_qr_scan"}, "is_reserved": 0}, {"lon": -77.032414, "bike_id": "806946bc8a60fda5529920bb9cc1de33", "lat": 38.92870416666667, "fusion_lon": 0.0, "fusion_lat": 0.0, "type": "electric_scooter", "name": "806946bc8a60fda5529920bb9cc1de33", "is_disabled": 0, "rental_uris": {"ios": "https://dc.lft.to/lastmile_qr_scan", "android": "https://dc.lft.to/lastmile_qr_scan"}, "is_reserved": 0}, {"lon": -77.02658366666667, "bike_id": "750da47b1e03e6a450ce8e8d048f69a5", "lat": 38.9277685, "fusion_lon": 0.0, "fusion_lat": 0.0, "type": "electric_scooter", "name": "750da47b1e03e6a450ce8e8d048f69a5", "is_disabled": 0, "rental_uris": {"ios": "https://dc.lft.to/lastmile_qr_scan", "android": "https://dc.lft.to/lastmile_qr_scan"}, "is_reserved": 0}, {"lon": -77.05057083333334, "bike_id": "37c868d91d5726f92ec46169b5e43055", "lat": 38.900516, "fusion_lon": 0.0, "fusion_lat": 0.0, "type": "electric_scooter", "name": "37c868d91d5726f92ec46169b5e43055", "is_disabled": 0, "rental_uris": {"ios": "https://dc.lft.to/lastmile_qr_scan", "android": "https://dc.lft.to/lastmile_qr_scan"}, "is_reserved": 0}, {"lon": -77.0019645, "bike_id": "9de484badda19a6048ef017cb2ffe283", "lat": 38.902399333333335, "fusion_lon": 0.0, "fusion_lat": 0.0, "type": "electric_scooter", "name": "9de484badda19a6048ef017cb2ffe283", "is_disabled": 0, "rental_uris": {"ios": "https://dc.lft.to/lastmile_qr_scan", "android": "https://dc.lft.to/lastmile_qr_scan"}, "is_reserved": 0}, {"lon": -77.03658333333334, "bike_id": "57c3aaffa6d69d35ae154d18b53b9312", "lat": 38.92141916666667, "fusion_lon": 0.0, "fusion_lat": 0.0, "type": "electric_scooter", "name": "57c3aaffa6d69d35ae154d18b53b9312", "is_disabled": 0, "rental_uris": {"ios": "https://dc.lft.to/lastmile_qr_scan", "android": "https://dc.lft.to/lastmile_qr_scan"}, "is_reserved": 0}, {"lon": -77.03879483333333, "bike_id": "267eca5505241d03e16d74e4e77ab9b9", "lat": 38.929655833333335, "fusion_lon": 0.0, "fusion_lat": 0.0, "type": "electric_scooter", "name": "267eca5505241d03e16d74e4e77ab9b9", "is_disabled": 0, "rental_uris": {"ios": "https://dc.lft.to/lastmile_qr_scan", "android": "https://dc.lft.to/lastmile_qr_scan"}, "is_reserved": 0}, {"lon": -77.05436383333333, "bike_id": "4574efbbd16788775e26d2871df436cb", "lat": 38.836821, "fusion_lon": 0.0, "fusion_lat": 0.0, "type": "electric_bike", "name": "4574efbbd16788775e26d2871df436cb", "is_disabled": 0, "rental_uris": {"ios": "https://dc.lft.to/lastmile_qr_scan", "android": "https://dc.lft.to/lastmile_qr_scan"}, "is_reserved": 0}, {"lon": -77.0003565, "bike_id": "ce6f98673f81665b0042a168644480fe", "lat": 38.967925666666666, "fusion_lon": 0.0, "fusion_lat": 0.0, "type": "electric_bike", "name": "ce6f98673f81665b0042a168644480fe", "is_disabled": 0, "rental_uris": {"ios": "https://dc.lft.to/lastmile_qr_scan", "android": "https://dc.lft.to/lastmile_qr_scan"}, "is_reserved": 0}, {"lon": -77.0319745, "bike_id": "ef533bac361abc6e00ee36c56e4d526a", "lat": 38.944099, "fusion_lon": 0.0, "fusion_lat": 0.0, "type": "electric_scooter", "name": "ef533bac361abc6e00ee36c56e4d526a", "is_disabled": 0, "rental_uris": {"ios": "https://dc.lft.to/lastmile_qr_scan", "android": "https://dc.lft.to/lastmile_qr_scan"}, "is_reserved": 0}, {"lon": -77.04557633333333, "bike_id": "072e8479dfbcf4c3a8e861ee337be4d5", "lat": 38.89606333333333, "fusion_lon": 0.0, "fusion_lat": 0.0, "type": "electric_scooter", "name": "072e8479dfbcf4c3a8e861ee337be4d5", "is_disabled": 0, "rental_uris": {"ios": "https://dc.lft.to/lastmile_qr_scan", "android": "https://dc.lft.to/lastmile_qr_scan"}, "is_reserved": 0}, {"lon": -77.03190783333334, "bike_id": "d6d3371d631682a901de354d22d27de4", "lat": 38.917463833333336, "fusion_lon": 0.0, "fusion_lat": 0.0, "type": "electric_scooter", "name": "d6d3371d631682a901de354d22d27de4", "is_disabled": 0, "rental_uris": {"ios": "https://dc.lft.to/lastmile_qr_scan", "android": "https://dc.lft.to/lastmile_qr_scan"}, "is_reserved": 0}, {"lon": -77.03801733333333, "bike_id": "517cb187d85e82414a39a45b19d29a48", "lat": 38.910363333333336, "fusion_lon": 0.0, "fusion_lat": 0.0, "type": "electric_scooter", "name": "517cb187d85e82414a39a45b19d29a48", "is_disabled": 0, "rental_uris": {"ios": "https://dc.lft.to/lastmile_qr_scan", "android": "https://dc.lft.to/lastmile_qr_scan"}, "is_reserved": 0}, {"lon": -77.03297683333334, "bike_id": "fa02ac98906cf5e0aa5021d69e1ab2e8", "lat": 38.9013505, "fusion_lon": 0.0, "fusion_lat": 0.0, "type": "electric_scooter", "name": "fa02ac98906cf5e0aa5021d69e1ab2e8", "is_disabled": 0, "rental_uris": {"ios": "https://dc.lft.to/lastmile_qr_scan", "android": "https://dc.lft.to/lastmile_qr_scan"}, "is_reserved": 0}, {"lon": -77.0270045, "bike_id": "bf1108d8ad0bda67540b433d3f8e46d0", "lat": 38.949924, "fusion_lon": 0.0, "fusion_lat": 0.0, "type": "electric_scooter", "name": "bf1108d8ad0bda67540b433d3f8e46d0", "is_disabled": 0, "rental_uris": {"ios": "https://dc.lft.to/lastmile_qr_scan", "android": "https://dc.lft.to/lastmile_qr_scan"}, "is_reserved": 0}, {"lon": -77.02368483333333, "bike_id": "0d3cb1e5fe753061ca42b196e392648b", "lat": 38.92052533333333, "fusion_lon": 0.0, "fusion_lat": 0.0, "type": "electric_scooter", "name": "0d3cb1e5fe753061ca42b196e392648b", "is_disabled": 0, "rental_uris": {"ios": "https://dc.lft.to/lastmile_qr_scan", "android": "https://dc.lft.to/lastmile_qr_scan"}, "is_reserved": 0}, {"lon": -77.03273166666666, "bike_id": "8983db630d86f5f2d861e59244d0726c", "lat": 38.940914666666664, "fusion_lon": 0.0, "fusion_lat": 0.0, "type": "electric_bike", "name": "8983db630d86f5f2d861e59244d0726c", "is_disabled": 0, "rental_uris": {"ios": "https://dc.lft.to/lastmile_qr_scan", "android": "https://dc.lft.to/lastmile_qr_scan"}, "is_reserved": 0}, {"lon": -77.04153283333333, "bike_id": "f3e86cc897aed0bb6d9110b99f6ee8d3", "lat": 38.918128833333334, "fusion_lon": 0.0, "fusion_lat": 0.0, "type": "electric_scooter", "name": "f3e86cc897aed0bb6d9110b99f6ee8d3", "is_disabled": 0, "rental_uris": {"ios": "https://dc.lft.to/lastmile_qr_scan", "android": "https://dc.lft.to/lastmile_qr_scan"}, "is_reserved": 0}, {"lon": -77.0191525, "bike_id": "e1a7005cd9ad7ad78b88a5bfce53a0bb", "lat": 38.902376333333336, "fusion_lon": 0.0, "fusion_lat": 0.0, "type": "electric_scooter", "name": "e1a7005cd9ad7ad78b88a5bfce53a0bb", "is_disabled": 0, "rental_uris": {"ios": "https://dc.lft.to/lastmile_qr_scan", "android": "https://dc.lft.to/lastmile_qr_scan"}, "is_reserved": 0}, {"lon": -77.02986183333333, "bike_id": "4460742080c462123bd29d71a1e87fb8", "lat": 38.90709716666667, "fusion_lon": 0.0, "fusion_lat": 0.0, "type": "electric_scooter", "name": "4460742080c462123bd29d71a1e87fb8", "is_disabled": 0, "rental_uris": {"ios": "https://dc.lft.to/lastmile_qr_scan", "android": "https://dc.lft.to/lastmile_qr_scan"}, "is_reserved": 0}, {"lon": -77.0346965, "bike_id": "a2720aee30c1d05920b83d83506b68b8", "lat": 38.9072515, "fusion_lon": 0.0, "fusion_lat": 0.0, "type": "electric_scooter", "name": "a2720aee30c1d05920b83d83506b68b8", "is_disabled": 0, "rental_uris": {"ios": "https://dc.lft.to/lastmile_qr_scan", "android": "https://dc.lft.to/lastmile_qr_scan"}, "is_reserved": 0},