{"data": {"bikes": [{"rental_uris": {"android": "https://dc.lft.to/lastmile_qr_scan", "ios": "https://dc.lft.to/lastmile_qr_scan"}, "is_reserved": 0, "is_disabled": 0, "name": "7c38632eb8bc3aad92a9c7d00c5a2063", "bike_id": "7c38632eb8bc3aad92a9c7d00c5a2063", "fusion_lat": 0.0, "lon": -76.93219533333334, "type": "electric_scooter", "fusion_lon": 0.0, "lat": 38.88847883333333}, {"rental_uris": {"android": "https://dc.lft.to/lastmile_qr_scan", "ios": "https://dc.lft.to/lastmile_qr_scan"}, "is_reserved": 0, "is_disabled": 0, "name": "650b847b6eacd1b946fa5217997c3070", "bike_id": "650b847b6eacd1b946fa5217997c3070", "fusion_lat": 0.0, "lon": -77.04946983333333, "type": "electric_scooter", "fusion_lon": 0.0, "lat": 38.9054505}, {"rental_uris": {"android": "https://dc.lft.to/lastmile_qr_scan", "ios": "https://dc.lft.to/lastmile_qr_scan"}, "is_reserved": 0, "is_disabled": 0, "name": "8b6acb27a57f38102abe6db57d51fa2e", "bike_id": "8b6acb27a57f38102abe6db57d51fa2e", "fusion_lat": 0.0, "lon": -77.03869216666666, "type": "electric_scooter", "fusion_lon": 0.0, "lat": 38.9215155}, {"rental_uris": {"android": "https://dc.lft.to/lastmile_qr_scan", "ios": "https://dc.lft.to/lastmile_qr_scan"}, "is_reserved": 0, "is_disabled": 0, "name": "48fb47c197b8e80e99d19b8bf5c63f8f", "bike_id": "48fb47c197b8e80e99d19b8bf5c63f8f", "fusion_lat": 0.0, "lon": -77.0286735, "type": "electric_bike", "fusion_lon": 0.0, "lat": 38.92131766666667}, {"rental_uris": {"android": "https://dc.lft.to/lastmile_qr_scan", "ios": "https://dc.lft.to/lastmile_qr_scan"}, "is_reserved": 0, "is_disabled": 0, "name": "7082de7d389f9b590a33e9ae8142c202", "bike_id": "7082de7d389f9b590a33e9ae8142c202", "fusion_lat": 0.0, "lon": -77.05169683333334, "type": "electric_scooter", "fusion_lon": 0.0, "lat": 38.9032365}, {"rental_uris": {"android": "https://dc.lft.to/lastmile_qr_scan", "ios": "https://dc.lft.to/lastmile_qr_scan"}, "is_reserved": 0, "is_disabled": 0, "name": "33f683054b23063ba08b4d74b1811885", "bike_id": "33f683054b23063ba08b4d74b1811885", "fusion_lat": 0.0, "lon": -76.97331833333334, "type": "electric_scooter", "fusion_lon": 0.0, "lat": 38.86533383333333}, {"rental_uris": {"android": "https://dc.lft.to/lastmile_qr_scan", "ios": "https://dc.lft.to/lastmile_qr_scan"}, "is_reserved": 0, "is_disabled": 0, "name": "dbc097e029708fd0ff873b85e034d4c2", "bike_id": "dbc097e029708fd0ff873b85e034d4c2", "fusion_lat": 0.0, "lon": -77.02489533333333, "type": "electric_scooter", "fusion_lon": 0.0, "lat": 38.94183316666667}, {"rental_uris": {"android": "https://dc.lft.to/lastmile_qr_scan", "ios": "https://dc.lft.to/lastmile_qr_scan"}, "is_reserved": 0, "is_disabled": 0, "name": "ba9bb82950c39389eeaa5260ddc25008", "bike_id": "ba9bb82950c39389eeaa5260ddc25008", "fusion_lat": 0.0, "lon": -77.04356933333334, "type": "electric_scooter", "fusion_lon": 0.0, "lat": 38.906184}, {"rental_uris": {"android": "https://dc.lft.to/lastmile_qr_scan", "ios": "https://dc.lft.to/lastmile_qr_scan"}, "is_reserved": 0, "is_disabled": 0, "name": "accad79d5f0c6f4246f5a87a3e0c92ef", "bike_id": "accad79d5f0c6f4246f5a87a3e0c92ef", "fusion_lat": 0.0, "lon": -76.99070116666667, "type": "electric_bike", "fusion_lon": 0.0, "lat": 38.898085333333334}, {"rental_uris": {"android": "https://dc.lft.to/lastmile_qr_scan", "ios": "https://dc.lft.to/lastmile_qr_scan"}, "is_reserved": 0, "is_disabled": 0, "name": "970aa5583f8600313677634b57659a85", "bike_id": "970aa5583f8600313677634b57659a85", "fusion_lat": 0.0, "lon": -77.01062133333333, "type": "electric_scooter", "fusion_lon": 0.0, "lat": 38.919115166666664}, {"rental_uris": {"android": "https://dc.lft.to/lastmile_qr_scan", "ios": "https://dc.lft.to/lastmile_qr_scan"}, "is_reserved": 0, "is_disabled": 0, "name": "1cf4026d8079b0c62b9fd545d29de8f7", "bike_id": "1cf4026d8079b0c62b9fd545d29de8f7", "fusion_lat": 0.0, "lon": -76.99663166666667, "type": "electric_bike", "fusion_lon": 0.0, "lat": 38.96766816666667}, {"rental_uris": {"android": "https://dc.lft.to/lastmile_qr_scan", "ios": "https://dc.lft.to/lastmile_qr_scan"}, "is_reserved": 0, "is_disabled": 0, "name": "f71937c8172b8c8e90c040fc4ba94903", "bike_id": "f71937c8172b8c8e90c040fc4ba94903", "fusion_lat": 0.0, "lon": -77.025663, "type": "electric_scooter", "fusion_lon": 0.0, "lat": 38.941970166666664}, {"rental_uris": {"android": "https://dc.lft.to/lastmile_qr_scan", "ios": "https://dc.lft.to/lastmile_qr_scan"}, "is_reserved": 0, "is_disabled": 0, "name": "5fa0bb81e58b3eb4d82d684cfb8ce7fc", "bike_id": "5fa0bb81e58b3eb4d82d684cfb8ce7fc", "fusion_lat": 0.0, "lon": -76.9996685, "type": "electric_scooter", "fusion_lon": 0.0, "lat": 38.90698716666667}, {"rental_uris": {"android": "https://dc.lft.to/lastmile_qr_scan", "ios": "https://dc.lft.to/lastmile_qr_scan"}, "is_reserved": 0, "is_disabled": 0, "name": "501b7767bc1d34d2516a06aff3b2f66f", "bike_id": "501b7767bc1d34d2516a06aff3b2f66f", "fusion_lat": 0.0, "lon": -77.04200416666667, "type": "electric_scooter", "fusion_lon": 0.0, "lat": 38.92263333333333}, {"rental_uris": {"android": "https://dc.lft.to/lastmile_qr_scan", "ios": "https://dc.lft.to/lastmile_qr_scan"}, "is_reserved": 0, "is_disabled": 0, "name": "d9970cb18f911b6710a4ac6690180547", "bike_id": "d9970cb18f911b6710a4ac6690180547", "fusion_lat": 0.0, "lon": -77.01331783333333, "type": "electric_scooter", "fusion_lon": 0.0, "lat": 38.912488833333335}, {"rental_uris": {"android": "https://dc.lft.to/lastmile_qr_scan", "ios": "https://dc.lft.to/lastmile_qr_scan"}, "is_reserved": 0, "is_disabled": 0, "name": "38d5465fce59b9e8876af859fabc5b68", "bike_id": "38d5465fce59b9e8876af859fabc5b68", "fusion_lat": 0.0, "lon": -77.0319385, "type": "electric_scooter", "fusion_lon": 0.0, "lat": 38.90735516666667}, {"rental_uris": {"android": "https://dc.lft.to/lastmile_qr_scan", "ios": "https://dc.lft.to/lastmile_qr_scan"}, "is_reserved": 0, "is_disabled": 0, "name": "bead8b150ee0fde57468ac61898573d5", "bike_id": "bead8b150ee0fde57468ac61898573d5", "fusion_lat": 0.0, "lon": -77.03703433333334, "type": "electric_scooter", "fusion_lon": 0.0, "lat": 38.9262895}, {"rental_uris": {"android": "https://dc.lft.to/lastmile_qr_scan", "ios": "https://dc.lft.to/lastmile_qr_scan"}, "is_reserved": 0, "is_disabled": 0, "name": "0e2b79337a947df0112cd9bb1140f771", "bike_id": "0e2b79337a947df0112cd9bb1140f771", "fusion_lat": 0.0, "lon": -76.95532416666667, "type": "electric_scooter", "fusion_lon": 0.0, "lat": 38.88782366666667}, {"rental_uris": {"android": "https://dc.lft.to/lastmile_qr_scan", "ios": "https://dc.lft.to/lastmile_qr_scan"}, "is_reserved": 0, "is_disabled": 0, "name": "c44dfc4f8d26fb3a1504438ffe14556b", "bike_id": "c44dfc4f8d26fb3a1504438ffe14556b", "fusion_lat": 0.0, "lon": -77.016555, "type": "electric_scooter", "fusion_lon": 0.0, "lat": 38.94209383333333}, {"rental_uris": {"android": "https://dc.lft.to/lastmile_qr_scan", "ios": "https://dc.lft.to/lastmile_qr_scan"}, "is_reserved": 0, "is_disabled": 0, "name": "1439464fc7f0201fb37a4a376830ab6f", "bike_id": "1439464fc7f0201fb37a4a376830ab6f", "fusion_lat": 0.0, "lon": -77.04337416666667, "type": "electric_scooter", "fusion_lon": 0.0, "lat": 38.9054705}, {"rental_uris": {"android": "https://dc.lft.to/lastmile_qr_scan", "ios": "https://dc.lft.to/lastmile_qr_scan"}, "is_reserved": 0, "is_disabled": 0, "name": "9e4228359539bb0d75b8c32b028b0b54", "bike_id": "9e4228359539bb0d75b8c32b028b0b54", "fusion_lat": 0.0, "lon": -77.044384, "type": "electric_scooter", "fusion_lon": 0.0, "lat": 38.905724166666666}, {"rental_uris": {"android": "https://dc.lft.to/lastmile_qr_scan", "ios": "https://dc.lft.to/lastmile_qr_scan"}, "is_reserved": 0, "is_disabled": 0, "name": "7dbfe7763b8977b9c94f0552824c0aad", "bike_id": "7dbfe7763b8977b9c94f0552824c0aad", "fusion_lat": 0.0, "lon": -77.07030833333333, "type": "electric_bike", "fusion_lon": 0.0, "lat": 38.90530533333333}, {"rental_uris": {"android": "https://dc.lft.to/lastmile_qr_scan", "ios": "https://dc.lft.to/lastmile_qr_scan"}, "is_reserved": 0, "is_disabled": 0, "name": "a3b721d236dbf269b407ee66208a49b5", "bike_id": "a3b721d236dbf269b407ee66208a49b5", "fusion_lat": 0.0, "lon": -77.00343433333333, "type": "electric_scooter", "fusion_lon": 0.0, "lat": 38.87679766666667}, {"rental_uris": {"android": "https://dc.lft.to/lastmile_qr_scan", "ios": "https://dc.lft.to/lastmile_qr_scan"}, "is_reserved": 0, "is_disabled": 0, "name": "ccbe14afb7c586ed32e162935860f932", "bike_id": "ccbe14afb7c586ed32e162935860f932", "fusion_lat": 0.0, "lon": -77.04640733333333, "type": "electric_scooter", "fusion_lon": 0.0, "lat": 38.89219466666667}, {"rental_uris": {"android": "https://dc.lft.to/lastmile_qr_scan", "ios": "https://dc.lft.to/lastmile_qr_scan"}, "is_reserved": 0, "is_disabled": 0, "name": "7e7fff463b67d8e976197f2e99bc0a45", "bike_id": "7e7fff463b67d8e976197f2e99bc0a45", "fusion_lat": 0.0, "lon": -77.0409465, "type": "electric_scooter", "fusion_lon": 0.0, "lat": 38.901080666666665}, {"rental_uris": {"android": "https://dc.lft.to/lastmile_qr_scan", "ios": "https://dc.lft.to/lastmile_qr_scan"}, "is_reserved": 0, "is_disabled": 0, "name": "581dcd3a0e719670a740331363759074", "bike_id": "581dcd3a0e719670a740331363759074", "fusion_lat": 0.0, "lon": -77.02665366666666, "type": "electric_scooter", "fusion_lon": 0.0, "lat": 38.93102966666667}, {"rental_uris": {"android": "https://dc.lft.to/lastmile_qr_scan", "ios": "https://dc.lft.to/lastmile_qr_scan"}, "is_reserved": 0, "is_disabled": 0, "name": "975a71c25fe3100449c42b7586fd71bd", "bike_id": "975a71c25fe3100449c42b7586fd71bd", "fusion_lat": 0.0, "lon": -77.0282835, "type": "electric_scooter", "fusion_lon": 0.0, "lat": 38.938813333333336}, {"rental_uris": {"android": "https://dc.lft.to/lastmile_qr_scan", "ios": "https://dc.lft.to/lastmile_qr_scan"}, "is_reserved": 0, "is_disabled": 0, "name": "3a3d2edb8f9bc363553e14390e0e3d0c", "bike_id": "3a3d2edb8f9bc363553e14390e0e3d0c", "fusion_lat": 0.0, "lon": -77.02801066666666, "type": "electric_scooter", "fusion_lon": 0.0, "lat": 38.89840366666667}, {"rental_uris": {"android": "https://dc.lft.to/lastmile_qr_scan", "ios": "https://dc.lft.to/lastmile_qr_scan"}, "is_reserved": 0, "is_disabled": 0, "name": "12ba9bee0e71e9137855d19d0ea2bfe1", "bike_id": "12ba9bee0e71e9137855d19d0ea2bfe1", "fusion_lat": 0.0, "lon": -77.0315255, "type": "electric_bike", "fusion_lon": 0.0, "lat": 38.9170615}, {"rental_uris": {"android": "https://dc.lft.to/lastmile_qr_scan", "ios": "https://dc.lft.to/lastmile_qr_scan"}, "is_reserved": 0, "is_disabled": 0, "name": "91948bebdef25b068f42d12b8e768f5e", "bike_id": "91948bebdef25b068f42d12b8e768f5e", "fusion_lat": 0.0, "lon": -76.99041833333334, "type": "electric_bike", "fusion_lon": 0.0, "lat": 38.93825533333333}, {"rental_uris": {"android": "https://dc.lft.to/lastmile_qr_scan", "ios": "https://dc.lft.to/lastmile_qr_scan"}, "is_reserved": 0, "is_disabled": 0, "name": "ff197247fbf9e565699e3ef972e54649", "bike_id": "ff197247fbf9e565699e3ef972e54649", "fusion_lat": 0.0, "lon": -77.02876516666667, "type": "electric_scooter", "fusion_lon": 0.0, "lat": 38.91708233333333}, {"rental_uris": {"android": "https://dc.lft.to/lastmile_qr_scan", "ios": "https://dc.lft.to/lastmile_qr_scan"}, "is_reserved": 0, "is_disabled": 0, "name": "068be2ef1110ba16145e85d7e99caa4f", "bike_id": "068be2ef1110ba16145e85d7e99caa4f", "fusion_lat": 0.0, "lon": -77.0385945, "type": "electric_scooter", "fusion_lon": 0.0, "lat": 38.91717283333333}, {"rental_uris": {"android": "https://dc.lft.to/lastmile_qr_scan", "ios": "https://dc.lft.to/lastmile_qr_scan"}, "is_reserved": 0, "is_disabled": 0, "name": "2abd0106a8ba1df1a5dfaf6be47ea5ba", "bike_id": "2abd0106a8ba1df1a5dfaf6be47ea5ba", "fusion_lat": 0.0, "lon": -77.02368983333334, "type": "electric_scooter", "fusion_lon": 0.0, "lat": 38.900369}, {"rental_uris": {"android": "https://dc.lft.to/lastmile_qr_scan", "ios": "https://dc.lft.to/lastmile_qr_scan"}, "is_reserved": 0, "is_disabled": 0, "name": "af8549269b0e02aadbece2b4199cefd1", "bike_id": "af8549269b0e02aadbece2b4199cefd1", "fusion_lat": 0.0, "lon": -77.03870083333334, "type": "electric_scooter", "fusion_lon": 0.0, "lat": 38.906916}, {"rental_uris": {"android": "https://dc.lft.to/lastmile_qr_scan", "ios": "https://dc.lft.to/lastmile_qr_scan"}, "is_reserved": 0, "is_disabled": 0, "name": "cbf80917c8552f939c7c72924b5c3dfc", "bike_id": "cbf80917c8552f939c7c72924b5c3dfc", "fusion_lat": 0.0, "lon": -77.04693183333333, "type": "electric_scooter", "fusion_lon": 0.0, "lat": 38.89613533333333}, {"rental_uris": {"android": "https://dc.lft.to/lastmile_qr_scan", "ios": "https://dc.lft.to/lastmile_qr_scan"}, "is_reserved": 0, "is_disabled": 0, "name": "812fbdb8ccb169a4a46baa89aa4c898d", "bike_id": "812fbdb8ccb169a4a46baa89aa4c898d", "fusion_lat": 0.0, "lon": -77.0337755, "type": "electric_scooter", "fusion_lon": 0.0, "lat": 38.90144133333333}, {"rental_uris": {"android": "https://dc.lft.to/lastmile_qr_scan", "ios": "https://dc.lft.to/lastmile_qr_scan"}, "is_reserved": 0, "is_disabled": 0, "name": "fe4d136b870451cd20a0966eb85be677", "bike_id": "fe4d136b870451cd20a0966eb85be677", "fusion_lat": 0.0, "lon": -77.01611466666667, "type": "electric_scooter", "fusion_lon": 0.0, "lat": 38.8996225}, {"rental_uris": {"android": "https://dc.lft.to/lastmile_qr_scan", "ios": "https://dc.lft.to/lastmile_qr_scan"}, "is_reserved": 0, "is_disabled": 0, "name": "ab3b6049992226d78b6767d4c77cdb45", "bike_id": "ab3b6049992226d78b6767d4c77cdb45", "fusion_lat": 0.0, "lon": -76.98690233333333, "type": "electric_bike", "fusion_lon": 0.0, "lat": 38.94470366666667}, {"rental_uris": {"android": "https://dc.lft.to/lastmile_qr_scan", "ios": "https://dc.lft.to/lastmile_qr_scan"}, "is_reserved": 0, "is_disabled": 0, "name": "c3ec4471d0d2d3aa9eb73807c21c9509", "bike_id": "c3ec4471d0d2d3aa9eb73807c21c9509", "fusion_lat": 0.0, "lon": -77.012292, "type": "electric_scooter", "fusion_lon": 0.0, "lat": 38.914072833333336}, {"rental_uris": {"android": "https://dc.lft.to/lastmile_qr_scan", "ios": "https://dc.lft.to/lastmile_qr_scan"}, "is_reserved": 0, "is_disabled": 0, "name": "3b0f452574ad7129accf855262d18821", "bike_id": "3b0f452574ad7129accf855262d18821", "fusion_lat": 0.0, "lon": -77.00830166666667, "type": "electric_scooter", "fusion_lon": 0.0, "lat": 38.8765355}, {"rental_uris": {"android": "https://dc.lft.to/lastmile_qr_scan", "ios": "https://dc.lft.to/lastmile_qr_scan"}, "is_reserved": 0, "is_disabled": 0, "name": "ce7eb985c5eb2361d0fcdc3dfa76564e", "bike_id": "ce7eb985c5eb2361d0fcdc3dfa76564e", "fusion_lat": 0.0, "lon": -77.02736933333334, "type": "electric_scooter", "fusion_lon": 0.0, "lat": 38.898717}, {"rental_uris": {"android": "https://dc.lft.to/lastmile_qr_scan", "ios": "https://dc.lft.to/lastmile_qr_scan"}, "is_reserved": 0, "is_disabled": 0, "name": "d85a3e92c0933b53459b0bd1abed70e1", "bike_id": "d85a3e92c0933b53459b0bd1abed70e1", "fusion_lat": 0.0, "lon": -77.02406883333333, "type": "electric_scooter", "fusion_lon": 0.0, "lat": 38.90190233333333}, {"rental_uris": {"android": "https://dc.lft.to/lastmile_qr_scan", "ios": "https://dc.lft.to/lastmile_qr_scan"}, "is_reserved": 0, "is_disabled": 0, "name": "6d89986def9c87a791698123af273e7f", "bike_id": "6d89986def9c87a791698123af273e7f", "fusion_lat": 0.0, "lon": -77.06526566666666, "type": "electric_bike", "fusion_lon": 0.0, "lat": 38.99229116666667}, {"rental_uris": {"android": "https://dc.lft.to/lastmile_qr_scan", "ios": "https://dc.lft.to/lastmile_qr_scan"}, "is_reserved": 0, "is_disabled": 0, "name": "9abdec75e92941ebec459190126387ed", "bike_id": "9abdec75e92941ebec459190126387ed", "fusion_lat": 0.0, "lon": -77.024958, "type": "electric_scooter", "fusion_lon": 0.0, "lat": 38.92598566666667}, {"rental_uris": {"android": "https://dc.lft.to/lastmile_qr_scan", "ios": "https://dc.lft.to/lastmile_qr_scan"}, "is_reserved": 0, "is_disabled": 0, "name": "c052528a38792c57a41f99ac08b5a12f", "bike_id": "c052528a38792c57a41f99ac08b5a12f", "fusion_lat": 0.0, "lon": -77.03206516666667, "type": "electric_scooter", "fusion_lon": 0.0, "lat": 38.89234533333333}, {"rental_uris": {"android": "https://dc.lft.to/lastmile_qr_scan", "ios": "https://dc.lft.to/lastmile_qr_scan"}, "is_reserved": 0, "is_disabled": 0, "name": "fe4f52a9497568e134afe75c8d50c6b3", "bike_id": "fe4f52a9497568e134afe75c8d50c6b3", "fusion_lat": 0.0, "lon": -77.04655933333333, "type": "electric_scooter", "fusion_lon": 0.0, "lat": 38.909511}, {"rental_uris": {"android": "https://dc.lft.to/lastmile_qr_scan", "ios": "https://dc.lft.to/lastmile_qr_scan"}, "is_reserved": 0, "is_disabled": 0, "name": "ffbf9bd2a866541f8f32def557cd9062", "bike_id": "ffbf9bd2a866541f8f32def557cd9062", "fusion_lat": 0.0, "lon": -77.03396866666667, "type": "electric_scooter", "fusion_lon": 0.0, "lat": 38.94180033333333}, {"rental_uris": {"android": "https://dc.lft.to/lastmile_qr_scan", "ios": "https://dc.lft.to/lastmile_qr_scan"}, "is_reserved": 0, "is_disabled": 0, "name": "0bccc3ea77eadbaef56ef2492a6f4099", "bike_id": "0bccc3ea77eadbaef56ef2492a6f4099", "fusion_lat": 0.0, "lon": -77.00566916666666, "type": "electric_scooter", "fusion_lon": 0.0, "lat": 38.8850085}, {"rental_uris": {"android": "https://dc.lft.to/lastmile_qr_scan", "ios": "https://dc.lft.to/lastmile_qr_scan"}, "is_reserved": 0, "is_disabled": 0, "name": "7b30b164707c22f38d1f451babe204f2", "bike_id": "7b30b164707c22f38d1f451babe204f2", "fusion_lat": 0.0, "lon": -77.0345645, "type": "electric_scooter", "fusion_lon": 0.0, "lat": 38.90561983333333}, {"rental_uris": {"android": "https://dc.lft.to/lastmile_qr_scan", "ios": "https://dc.lft.to/lastmile_qr_scan"}, "is_reserved": 0, "is_disabled": 0, "name": "8abad581ad737b5a1df2de2c59892d6e", "bike_id": "8abad581ad737b5a1df2de2c59892d6e", "fusion_lat": 0.0, "lon": -77.021431, "type": "electric_scooter", "fusion_lon": 0.0, "lat": 38.904824166666664}, {"rental_uris": {"android": "https://dc.lft.to/lastmile_qr_scan", "ios": "https://dc.lft.to/lastmile_qr_scan"}, "is_reserved": 0, "is_disabled": 0, "name": "1fd227dd77ecd858f0bf66fd95c9880c", "bike_id": "1fd227dd77ecd858f0bf66fd95c9880c", "fusion_lat": 0.0, "lon": -77.021221, "type": "electric_scooter", "fusion_lon": 0.0, "lat": 38.923633333333335}, {"rental_uris": {"android": "https://dc.lft.to/lastmile_qr_scan", "ios": "https://dc.lft.to/lastmile_qr_scan"}, "is_reserved": 0, "is_disabled": 0, "name": "4d5cac6c48a94cbd2430d48c62c771d7", "bike_id": "4d5cac6c48a94cbd2430d48c62c771d7", "fusion_lat": 0.0, "lon": -77.032817, "type": "electric_scooter", "fusion_lon": 0.0, "lat": 38.90015066666667}, {"rental_uris": {"android": "https://dc.lft.to/lastmile_qr_scan", "ios": "https://dc.lft.to/lastmile_qr_scan"}, "is_reserved": 0, "is_disabled": 0, "name": "e9c12a344f3214ef5f50b23fe1dc218c", "bike_id": "e9c12a344f3214ef5f50b23fe1dc218c", "fusion_lat": 0.0, "lon": -77.04490333333334, "type": "electric_scooter", "fusion_lon": 0.0, "lat": 38.915154666666666}, {"rental_uris": {"android": "https://dc.lft.to/lastmile_qr_scan", "ios": "https://dc.lft.to/lastmile_qr_scan"}, "is_reserved": 0, "is_disabled": 0, "name": "c1ea3292703a4c96b26ae51e05989688", "bike_id": "c1ea3292703a4c96b26ae51e05989688", "fusion_lat": 0.0, "lon": -77.02699116666666, "type": "electric_scooter", "fusion_lon": 0.0, "lat": 38.94979166666667}, {"rental_uris": {"android": "https://dc.lft.to/lastmile_qr_scan", "ios": "https://dc.lft.to/lastmile_qr_scan"}, "is_reserved": 0, "is_disabled": 0, "name": "7753c8f3e00898186f1276e2af37a4b0", "bike_id": "7753c8f3e00898186f1276e2af37a4b0", "fusion_lat": 0.0, "lon": -77.02106583333334, "type": "electric_scooter", "fusion_lon": 0.0, "lat": 38.9270625}, {"rental_uris": {"android": "https://dc.lft.to/lastmile_qr_scan", "ios": "https://dc.lft.to/lastmile_qr_scan"}, "is_reserved": 0, "is_disabled": 0, "name": "016d00d07ce9bf41d5eabbb85dcfef86", "bike_id": "016d00d07ce9bf41d5eabbb85dcfef86", "fusion_lat": 0.0, "lon": -77.033398, "type": "electric_scooter", "fusion_lon": 0.0, "lat": 38.90286016666667}, {"rental_uris": {"android": "https://dc.lft.to/lastmile_qr_scan", "ios": "https://dc.lft.to/lastmile_qr_scan"}, "is_reserved": 0, "is_disabled": 0, "name": "fcee650eb564564b84a00c0231f5a43d", "bike_id": "fcee650eb564564b84a00c0231f5a43d", "fusion_lat": 0.0, "lon": -77.02028166666666, "type": "electric_scooter", "fusion_lon": 0.0, "lat": 38.92412916666667}, {"rental_uris": {"android": "https://dc.lft.to/lastmile_qr_scan", "ios": "https://dc.lft.to/lastmile_qr_scan"}, "is_reserved": 0, "is_disabled": 0, "name": "b06fcd412a2be495af0ed100175b91bc", "bike_id": "b06fcd412a2be495af0ed100175b91bc", "fusion_lat": 0.0, "lon": -77.0383095, "type": "electric_scooter", "fusion_lon": 0.0, "lat": 38.903344}, {"rental_uris": {"android": "https://dc.lft.to/lastmile_qr_scan", "ios": "https://dc.lft.to/lastmile_qr_scan"}, "is_reserved": 0, "is_disabled": 0, "name": "548e1408f3b2d7e66fe7506a20766425", "bike_id": "548e1408f3b2d7e66fe7506a20766425", "fusion_lat": 0.0, "lon": -77.028577, "type": "electric_scooter", "fusion_lon": 0.0, "lat": 38.935336}, {"rental_uris": {"android": "https://dc.lft.to/lastmile_qr_scan", "ios": "https://dc.lft.to/lastmile_qr_scan"}, "is_reserved": 0, "is_disabled": 0, "name": "5b276558810cef2321794baa9efbde83", "bike_id": "5b276558810cef2321794baa9efbde83", "fusion_lat": 0.0, "lon": -77.04226433333334, "type": "electric_scooter", "fusion_lon": 0.0, "lat": 38.899928}, {"rental_uris": {"android": "https://dc.lft.to/lastmile_qr_scan", "ios": "https://dc.lft.to/lastmile_qr_scan"}, "is_reserved": 0, "is_disabled": 0, "name": "3b5e03f1c63c2934dfba72715e7fb78f", "bike_id": "3b5e03f1c63c2934dfba72715e7fb78f", "fusion_lat": 0.0, "lon": -76.99503166666666, "type": "electric_scooter", "fusion_lon": 0.0, "lat": 38.862474}, {"rental_uris": {"android": "https://dc.lft.to/lastmile_qr_scan", "ios": "https://dc.lft.to/lastmile_qr_scan"}, "is_reserved": 0, "is_disabled": 0, "name": "5df4f0a5a3aec9bde4836ef6d7e8488a", "bike_id": "5df4f0a5a3aec9bde4836ef6d7e8488a", "fusion_lat": 0.0, "lon": -77.03348233333334, "type": "electric_scooter", "fusion_lon": 0.0, "lat": 38.9322005}, {"rental_uris": {"android": "https://dc.lft.to/lastmile_qr_scan", "ios": "https://dc.lft.to/lastmile_qr_scan"}, "is_reserved": 0, "is_disabled": 0, "name": "4cdb29899e3b5c7e398d7a019328829a", "bike_id": "4cdb29899e3b5c7e398d7a019328829a", "fusion_lat": 0.0, "lon": -77.02193483333333, "type": "electric_scooter", "fusion_lon": 0.0, "lat": 38.89633833333333}, {"rental_uris": {"android": "https://dc.lft.to/lastmile_qr_scan", "ios": "https://dc.lft.to/lastmile_qr_scan"}, "is_reserved": 0, "is_disabled": 0, "name": "9d8e5e750a8ff0b73d1f05c41662e899", "bike_id": "9d8e5e750a8ff0b73d1f05c41662e899", "fusion_lat": 0.0, "lon": -77.03213083333333, "type": "electric_scooter", "fusion_lon": 0.0, "lat": 38.91584533333333}, {"rental_uris": {"android": "https://dc.lft.to/lastmile_qr_scan", "ios": "https://dc.lft.to/lastmile_qr_scan"}, "is_reserved": 0, "is_disabled": 0, "name": "8c05d13f46ee324e782aca37ab4b0a18", "bike_id": "8c05d13f46ee324e782aca37ab4b0a18", "fusion_lat": 0.0, "lon": -77.05123166666667, "type": "electric_scooter", "fusion_lon": 0.0, "lat": 38.90646383333333}, {"rental_uris": {"android": "https://dc.lft.to/lastmile_qr_scan", "ios": "https://dc.lft.to/lastmile_qr_scan"}, "is_reserved": 0, "is_disabled": 0, "name": "54cb353eb66df8f6b9eccae22bf0fa33", "bike_id": "54cb353eb66df8f6b9eccae22bf0fa33", "fusion_lat": 0.0, "lon": -77.03358183333333, "type": "electric_scooter", "fusion_lon": 0.0, "lat": 38.89916816666667}, {"rental_uris": {"android": "https://dc.lft.to/lastmile_qr_scan", "ios": "https://dc.lft.to/lastmile_qr_scan"}, "is_reserved": 0, "is_disabled": 0, "name": "609053a3d2ed0f1f6c05474598f12497", "bike_id": "609053a3d2ed0f1f6c05474598f12497", "fusion_lat": 0.0, "lon": -77.02544983333334, "type": "electric_scooter", "fusion_lon": 0.0, "lat": 38.892014}, {"rental_uris": {"android": "https://dc.lft.to/lastmile_qr_scan", "ios": "https://dc.lft.to/lastmile_qr_scan"}, "is_reserved": 0, "is_disabled": 0, "name": "8e82a7cd6b3b354e0526a69ce4ebeff6", "bike_id": "8e82a7cd6b3b354e0526a69ce4ebeff6", "fusion_lat": 0.0, "lon": -77.03618083333333, "type": "electric_scooter", "fusion_lon": 0.0, "lat": 38.928547}, {"rental_uris": {"android": "https://dc.lft.to/lastmile_qr_scan", "ios": "https://dc.lft.to/lastmile_qr_scan"}, "is_reserved": 0, "is_disabled": 0, "name": "34463253ff4fc8c237d06021a7b8bf58", "bike_id": "34463253ff4fc8c237d06021a7b8bf58", "fusion_lat": 0.0, "lon": -77.04079566666667, "type": "electric_bike", "fusion_lon": 0.0, "lat": 38.83069616666667}, {"rental_uris": {"android": "https://dc.lft.to/lastmile_qr_scan", "ios": "https://dc.lft.to/lastmile_qr_scan"}, "is_reserved": 0, "is_disabled": 0, "name": "8fbc172b98bcf9d0135c563edfc5ecee", "bike_id": "8fbc172b98bcf9d0135c563edfc5ecee", "fusion_lat": 0.0, "lon": -77.01749766666667, "type": "electric_scooter", "fusion_lon": 0.0, "lat": 38.92053833333333}, {"rental_uris": {"android": "https://dc.lft.to/lastmile_qr_scan", "ios": "https://dc.lft.to/lastmile_qr_scan"}, "is_reserved": 0, "is_disabled": 0, "name": "4ba9ae8b4e438b4f13d2082851eb02ff", "bike_id": "4ba9ae8b4e438b4f13d2082851eb02ff", "fusion_lat": 0.0, "lon": -76.9911215, "type": "electric_scooter", "fusion_lon": 0.0, "lat": 38.9002725}, {"rental_uris": {"android": "https://dc.lft.to/lastmile_qr_scan", "ios": "https://dc.lft.to/lastmile_qr_scan"}, "is_reserved": 0, "is_disabled": 0, "name": "5d156ff9c7126d9c6812cbdb53ea316d", "bike_id": "5d156ff9c7126d9c6812cbdb53ea316d", "fusion_lat": 0.0, "lon": -77.02187616666667, "type": "electric_scooter", "fusion_lon": 0.0, "lat": 38.90194783333333}, {"rental_uris": {"android": "https://dc.lft.to/lastmile_qr_scan", "ios": "https://dc.lft.to/lastmile_qr_scan"}, "is_reserved": 0, "is_disabled": 0, "name": "dc54bb070122d162735f7b339d220169", "bike_id": "dc54bb070122d162735f7b339d220169", "fusion_lat": 0.0, "lon": -77.05042716666667, "type": "electric_scooter", "fusion_lon": 0.0, "lat": 38.923619333333335}, {"rental_uris": {"android": "https://dc.lft.to/lastmile_qr_scan", "ios": "https://dc.lft.to/lastmile_qr_scan"}, "is_reserved": 0, "is_disabled": 0, "name": "0504543d32260391bffa45348e2a6440", "bike_id": "0504543d32260391bffa45348e2a6440", "fusion_lat": 0.0, "lon": -77.01911533333333, "type": "electric_scooter", "fusion_lon": 0.0, "lat": 38.923745333333336}, {"rental_uris": {"android": "https://dc.lft.to/lastmile_qr_scan", "ios": "https://dc.lft.to/lastmile_qr_scan"}, "is_reserved": 0, "is_disabled": 0, "name": "2857a9ed4b4453f3ae616fc8e0492e1f", "bike_id": "2857a9ed4b4453f3ae616fc8e0492e1f", "fusion_lat": 0.0, "lon": -77.04355533333333, "type": "electric_scooter", "fusion_lon": 0.0, "lat": 38.8983725}, {"rental_uris": {"android": "https://dc.lft.to/lastmile_qr_scan", "ios": "https://dc.lft.to/lastmile_qr_scan"}, "is_reserved": 0, "is_disabled": 0, "name": "12bd98337aabbfdb826947b04ae6de39", "bike_id": "12bd98337aabbfdb826947b04ae6de39", "fusion_lat": 0.0, "lon": -77.01768066666666, "type": "electric_scooter", "fusion_lon": 0.0, "lat": 38.9004615}, {"rental_uris": {"android": "https://dc.lft.to/lastmile_qr_scan", "ios": "https://dc.lft.to/lastmile_qr_scan"}, "is_reserved": 0, "is_disabled": 0, "name": "10f54fef43908d901b198c86c805958d", "bike_id": "10f54fef43908d901b198c86c805958d", "fusion_lat": 0.0, "lon": -77.0267395, "type": "electric_scooter", "fusion_lon": 0.0, "lat": 38.8994925}, {"rental_uris": {"android": "https://dc.lft.to/lastmile_qr_scan", "ios": "https://dc.lft.to/lastmile_qr_scan"}, "is_reserved": 0, "is_disabled": 0, "name": "0601417878e27af11b475f62a7bc4f7e", "bike_id": "0601417878e27af11b475f62a7bc4f7e", "fusion_lat": 0.0, "lon": -77.0240745, "type": "electric_scooter", "fusion_lon": 0.0, "lat": 38.90185733333333}, {"rental_uris": {"android": "https://dc.lft.to/lastmile_qr_scan", "ios": "https://dc.lft.to/lastmile_qr_scan"}, "is_reserved": 0, "is_disabled": 0, "name": "c840268e74eb963396e53e0c95077b80", "bike_id": "c840268e74eb963396e53e0c95077b80", "fusion_lat": 0.0, "lon": -77.02966733333334, "type": "electric_scooter", "fusion_lon": 0.0, "lat": 38.89628416666667}, {"rental_uris": {"android": "https://dc.lft.to/lastmile_qr_scan", "ios": "https://dc.lft.to/lastmile_qr_scan"}, "is_reserved": 0, "is_disabled": 0, "name": "b50945626f23392db8c0b17921a3f966", "bike_id": "b50945626f23392db8c0b17921a3f966", "fusion_lat": 0.0, "lon": -77.01188016666667, "type": "electric_scooter", "fusion_lon": 0.0, "lat": 38.9001455}, {"rental_uris": {"android": "https://dc.lft.to/lastmile_qr_scan", "ios": "https://dc.lft.to/lastmile_qr_scan"}, "is_reserved": 0, "is_disabled": 0, "name": "94456419a3b298debce80ba48c1b5f57", "bike_id": "94456419a3b298debce80ba48c1b5f57", "fusion_lat": 0.0, "lon": -77.00088083333333, "type": "electric_scooter", "fusion_lon": 0.0, "lat": 38.92555}, {"rental_uris": {"android": "https://dc.lft.to/lastmile_qr_scan", "ios": "https://dc.lft.to/lastmile_qr_scan"}, "is_reserved": 0, "is_disabled": 0, "name": "0f25642b2af6e14a39b8d075b35d1f77", "bike_id": "0f25642b2af6e14a39b8d075b35d1f77", "fusion_lat": 0.0, "lon": -77.03186216666667, "type": "electric_scooter", "fusion_lon": 0.0, "lat": 38.901175}, {"rental_uris": {"android": "https://dc.lft.to/lastmile_qr_scan", "ios": "https://dc.lft.to/lastmile_qr_scan"}, "is_reserved": 0, "is_disabled": 0, "name": "cd80155cbae66a62d525a8df5501103b", "bike_id": "cd80155cbae66a62d525a8df5501103b", "fusion_lat": 0.0, "lon": -77.03477383333333, "type": "electric_scooter", "fusion_lon": 0.0, "lat": 38.902755666666664}, {"rental_uris": {"android": "https://dc.lft.to/lastmile_qr_scan", "ios": "https://dc.lft.to/lastmile_qr_scan"}, "is_reserved": 0, "is_disabled": 0, "name": "cebe3bd2284988a9401d41e3f38e42f8", "bike_id": "cebe3bd2284988a9401d41e3f38e42f8", "fusion_lat": 0.0, "lon": -77.03161783333333, "type": "electric_scooter", "fusion_lon": 0.0, "lat": 38.89787333333334}, {"rental_uris": {"android": "https://dc.lft.to/lastmile_qr_scan", "ios": "https://dc.lft.to/lastmile_qr_scan"}, "is_reserved": 0, "is_disabled": 0, "name": "ffc406ecceb4c4292a22497033b3e378", "bike_id": "ffc406ecceb4c4292a22497033b3e378", "fusion_lat": 0.0, "lon": -77.03831383333333, "type": "electric_scooter", "fusion_lon": 0.0, "lat": 38.911206166666666}, {"rental_uris": {"android": "https://dc.lft.to/lastmile_qr_scan", "ios": "https://dc.lft.to/lastmile_qr_scan"}, "is_reserved": 0, "is_disabled": 0, "name": "ea5f59a757050bd5820097a53968ceae", "bike_id": "ea5f59a757050bd5820097a53968ceae", "fusion_lat": 0.0, "lon": -77.04169566666667, "type": "electric_scooter", "fusion_lon": 0.0, "lat": 38.90588066666667}, {"rental_uris": {"android": "https://dc.lft.to/lastmile_qr_scan", "ios": "https://dc.lft.to/lastmile_qr_scan"}, "is_reserved": 0, "is_disabled": 0, "name": "ec9fcfcf83518bbb0833e062fc08787e", "bike_id": "ec9fcfcf83518bbb0833e062fc08787e", "fusion_lat": 0.0, "lon": -77.02696533333334, "type": "electric_scooter", "fusion_lon": 0.0, "lat": 38.9167635}, {"rental_uris": {"android": "https://dc.lft.to/lastmile_qr_scan", "ios": "https://dc.lft.to/lastmile_qr_scan"}, "is_reserved": 0, "is_disabled": 0, "name": "93eb66e7c2aee492ce7faebf5719fca6", "bike_id": "93eb66e7c2aee492ce7faebf5719fca6", "fusion_lat": 0.0, "lon": -77.02480833333334, "type": "electric_scooter", "fusion_lon": 0.0, "lat": 38.920657166666665}, {"rental_uris": {"android": "https://dc.lft.to/lastmile_qr_scan", "ios": "https://dc.lft.to/lastmile_qr_scan"}, "is_reserved": 0, "is_disabled": 0, "name": "bb1339d517e68c230c6a47d0ebfe66a8", "bike_id": "bb1339d517e68c230c6a47d0ebfe66a8", "fusion_lat": 0.0, "lon": -77.03372733333333, "type": "electric_scooter", "fusion_lon": 0.0, "lat": 38.9003895}, {"rental_uris": {"android": "https://dc.lft.to/lastmile_qr_scan", "ios": "https://dc.lft.to/lastmile_qr_scan"}, "is_reserved": 0, "is_disabled": 0, "name": "27d2dc887f06322cbfa761dc00803b97", "bike_id": "27d2dc887f06322cbfa761dc00803b97", "fusion_lat": 0.0, "lon": -77.0273395, "type": "electric_bike", "fusion_lon": 0.0, "lat": 38.896353500000004}, {"rental_uris": {"android": "https://dc.lft.to/lastmile_qr_scan", "ios": "https://dc.lft.to/lastmile_qr_scan"}, "is_reserved": 0, "is_disabled": 0, "name": "2e5763cf2015f406b6238e8bbfb7da4a", "bike_id": "2e5763cf2015f406b6238e8bbfb7da4a", "fusion_lat": 0.0, "lon": -77.06947416666667, "type": "electric_bike", "fusion_lon": 0.0, "lat": 38.836306666666665}, {"rental_uris": {"android": "https://dc.lft.to/lastmile_qr_scan", "ios": "https://dc.lft.to/lastmile_qr_scan"}, "is_reserved": 0, "is_disabled": 0, "name": "e1bb72cdcf7170122ed134cad57f42bc", "bike_id": "e1bb72cdcf7170122ed134cad57f42bc", "fusion_lat": 0.0, "lon": -76.97327816666666, "type": "electric_scooter", "fusion_lon": 0.0, "lat": 38.9040785}, {"rental_uris": {"android": "https://dc.lft.to/lastmile_qr_scan", "ios": "https://dc.lft.to/lastmile_qr_scan"}, "is_reserved": 0, "is_disabled": 0, "name": "3e7190bbdc8305cdabc66e259e2000ad", "bike_id": "3e7190bbdc8305cdabc66e259e2000ad", "fusion_lat": 0.0, "lon": -77.01349066666667, "type": "electric_scooter", "fusion_lon": 0.0, "lat": 38.94193633333333}, {"rental_uris": {"android": "https://dc.lft.to/lastmile_qr_scan", "ios": "https://dc.lft.to/lastmile_qr_scan"}, "is_reserved": 0, "is_disabled": 0, "name": "f472ad42b570abecbbdcf25a27e8f529", "bike_id": "f472ad42b570abecbbdcf25a27e8f529", "fusion_lat": 0.0, "lon": -77.04426066666667, "type": "electric_scooter", "fusion_lon": 0.0, "lat": 38.896039333333334}, {"rental_uris": {"android": "https://dc.lft.to/lastmile_qr_scan", "ios": "https://dc.lft.to/lastmile_qr_scan"}, "is_reserved": 0, "is_disabled": 0, "name": "ee9074bbfe7fbb495851cf7496fccef5", "bike_id": "ee9074bbfe7fbb495851cf7496fccef5", "fusion_lat": 0.0, "lon": -77.03827316666667, "type": "electric_scooter", "fusion_lon": 0.0, "lat": 38.90680966666667}, {"rental_uris": {"android": "https://dc.lft.to/lastmile_qr_scan", "ios": "https://dc.lft.to/lastmile_qr_scan"}, "is_reserved": 0, "is_disabled": 0, "name": "c91a91b7143111182781f4ff006209ea", "bike_id": "c91a91b7143111182781f4ff006209ea", "fusion_lat": 0.0, "lon": -77.04592633333333, "type": "electric_scooter", "fusion_lon": 0.0, "lat": 38.902710166666665}, {"rental_uris": {"android": "https://dc.lft.to/lastmile_qr_scan", "ios": "https://dc.lft.to/lastmile_qr_scan"}, "is_reserved": 0, "is_disabled": 0, "name": "24c314cd4fba01528b86e32e228f0181", "bike_id": "24c314cd4fba01528b86e32e228f0181", "fusion_lat": 0.0, "lon": -77.05819166666667, "type": "electric_scooter", "fusion_lon": 0.0, "lat": 38.935291666666664}, {"rental_uris": {"android": "https://dc.lft.to/lastmile_qr_scan", "ios": "https://dc.lft.to/lastmile_qr_scan"}, "is_reserved": 0, "is_disabled": 0, "name": "b45642d0a227e30234c36920db80d054", "bike_id": "b45642d0a227e30234c36920db80d054", "fusion_lat": 0.0, "lon": -77.00019116666667, "type": "electric_scooter", "fusion_lon": 0.0, "lat": 38.919803}, {"rental_uris": {"android": "https://dc.lft.to/lastmile_qr_scan", "ios": "https://dc.lft.to/lastmile_qr_scan"}, "is_reserved": 0, "is_disabled": 0, "name": "dfe81fdf0ece567998128525d833057f", "bike_id": "dfe81fdf0ece567998128525d833057f", "fusion_lat": 0.0, "lon": -77.02447, "type": "electric_scooter", "fusion_lon": 0.0, "lat": 38.949753333333334}, {"rental_uris": {"android": "https://dc.lft.to/lastmile_qr_scan", "ios": "https://dc.lft.to/lastmile_qr_scan"}, "is_reserved": 0, "is_disabled": 0, "name": "9e91a1be04bdbad4d0d0c770b3477417", "bike_id": "9e91a1be04bdbad4d0d0c770b3477417", "fusion_lat": 0.0, "lon": -77.0246495, "type": "electric_scooter", "fusion_lon": 0.0, "lat": 38.95785266666667}, {"rental_uris": {"android": "https://dc.lft.to/lastmile_qr_scan", "ios": "https://dc.lft.to/lastmile_qr_scan"}, "is_reserved": 0, "is_disabled": 0, "name": "9d3eaee3f31d3b9de59b33acc437a534", "bike_id": "9d3eaee3f31d3b9de59b33acc437a534", "fusion_lat": 0.0, "lon": -76.98360616666666, "type": "electric_scooter", "fusion_lon": 0.0, "lat": 38.88733333333333}, {"rental_uris": {"android": "https://dc.lft.to/lastmile_qr_scan", "ios": "https://dc.lft.to/lastmile_qr_scan"}, "is_reserved": 0, "is_disabled": 0, "name": "557bfbbaaeaa93f00098451e1a5aea1b", "bike_id": "557bfbbaaeaa93f00098451e1a5aea1b", "fusion_lat": 0.0, "lon": -77.03076533333333, "type": "electric_scooter", "fusion_lon": 0.0, "lat": 38.898271}, {"rental_uris": {"android": "https://dc.lft.to/lastmile_qr_scan", "ios": "https://dc.lft.to/lastmile_qr_scan"}, "is_reserved": 0, "is_disabled": 0, "name": "20298af5f8b5e604fc2c4d45f95d0e7c", "bike_id": "20298af5f8b5e604fc2c4d45f95d0e7c", "fusion_lat": 0.0, "lon": -77.03163016666667, "type": "electric_scooter", "fusion_lon": 0.0, "lat": 38.892200833333334}, {"rental_uris": {"android": "https://dc.lft.to/lastmile_qr_scan", "ios": "https://dc.lft.to/lastmile_qr_scan"}, "is_reserved": 0, "is_disabled": 0, "name": "68ae91e77ee09fb9cada1bc9b6af8fdf", "bike_id": "68ae91e77ee09fb9cada1bc9b6af8fdf", "fusion_lat": 0.0, "lon": -77.02821, "type": "electric_scooter", "fusion_lon": 0.0, "lat": 38.887381166666664}, {"rental_uris": {"android": "https://dc.lft.to/lastmile_qr_scan", "ios": "https://dc.lft.to/lastmile_qr_scan"}, "is_reserved": 0, "is_disabled": 0, "name": "1204a0ac71257f181880037d397eb632", "bike_id": "1204a0ac71257f181880037d397eb632", "fusion_lat": 0.0, "lon": -76.92501033333333, "type": "electric_scooter", "fusion_lon": 0.0, "lat": 38.88600733333333}, {"rental_uris": {"android": "https://dc.lft.to/lastmile_qr_scan", "ios": "https://dc.lft.to/lastmile_qr_scan"}, "is_reserved": 0, "is_disabled": 0, "name": "4d0283e38598eca6b8d0ae3c03e624f5", "bike_id": "4d0283e38598eca6b8d0ae3c03e624f5", "fusion_lat": 0.0, "lon": -77.06453033333334, "type": "electric_scooter", "fusion_lon": 0.0, "lat": 38.94882583333333}, {"rental_uris": {"android": "https://dc.lft.to/lastmile_qr_scan", "ios": "https://dc.lft.to/lastmile_qr_scan"}, "is_reserved": 0, "is_disabled": 0, "name": "94d2c1607e6e041f69c302b43b073e05", "bike_id": "94d2c1607e6e041f69c302b43b073e05", "fusion_lat": 0.0, "lon": -77.050806, "type": "electric_scooter", "fusion_lon": 0.0, "lat": 38.911371333333335}, {"rental_uris": {"android": "https://dc.lft.to/lastmile_qr_scan", "ios": "https://dc.lft.to/lastmile_qr_scan"}, "is_reserved": 0, "is_disabled": 0, "name": "b2418dcd65a986a37e9a2f9f17d1fed4", "bike_id": "b2418dcd65a986a37e9a2f9f17d1fed4", "fusion_lat": 0.0, "lon": -77.0450005, "type": "electric_scooter", "fusion_lon": 0.0, "lat": 38.89226166666667}, {"rental_uris": {"android": "https://dc.lft.to/lastmile_qr_scan", "ios": "https://dc.lft.to/lastmile_qr_scan"}, "is_reserved": 0, "is_disabled": 0, "name": "773cea78c36684b0c58b9f71f74f9762", "bike_id": "773cea78c36684b0c58b9f71f74f9762", "fusion_lat": 0.0, "lon": -77.01334, "type": "electric_scooter", "fusion_lon": 0.0, "lat": 38.90053266666666}, {"rental_uris": {"android": "https://dc.lft.to/lastmile_qr_scan", "ios": "https://dc.lft.to/lastmile_qr_scan"}, "is_reserved": 0, "is_disabled": 0, "name": "01484cefde02c4b9085c27d6db9475af", "bike_id": "01484cefde02c4b9085c27d6db9475af", "fusion_lat": 0.0, "lon": -77.01688616666667, "type": "electric_scooter", "fusion_lon": 0.0, "lat": 38.90643133333333}, {"rental_uris": {"android": "https://dc.lft.to/lastmile_qr_scan", "ios": "https://dc.lft.to/lastmile_qr_scan"}, "is_reserved": 0, "is_disabled": 0, "name": "3f6e77cb18cc7df344b1f2d0deea71f0", "bike_id": "3f6e77cb18cc7df344b1f2d0deea71f0", "fusion_lat": 0.0, "lon": -77.02824166666667, "type": "electric_scooter", "fusion_lon": 0.0, "lat": 38.90268616666667}, {"rental_uris": {"android": "https://dc.lft.to/lastmile_qr_scan", "ios": "https://dc.lft.to/lastmile_qr_scan"}, "is_reserved": 0, "is_disabled": 0, "name": "198cc9cf4c21c122471e9f4c2c7e3899", "bike_id": "198cc9cf4c21c122471e9f4c2c7e3899", "fusion_lat": 0.0, "lon": -77.0400735, "type": "electric_scooter", "fusion_lon": 0.0, "lat": 38.90999266666667}, {"rental_uris": {"android": "https://dc.lft.to/lastmile_qr_scan", "ios": "https://dc.lft.to/lastmile_qr_scan"}, "is_reserved": 0, "is_disabled": 0, "name": "0e6e8996bec541029cef343428f2dee8", "bike_id": "0e6e8996bec541029cef343428f2dee8", "fusion_lat": 0.0, "lon": -77.001413, "type": "electric_scooter", "fusion_lon": 0.0, "lat": 38.884323}, {"rental_uris": {"android": "https://dc.lft.to/lastmile_qr_scan", "ios": "https://dc.lft.to/lastmile_qr_scan"}, "is_reserved": 0, "is_disabled": 0, "name": "9b1c79ef9e3ae86ae73af637b360af19", "bike_id": "9b1c79ef9e3ae86ae73af637b360af19", "fusion_lat": 0.0, "lon": -77.023753, "type": "electric_scooter", "fusion_lon": 0.0, "lat": 38.879327}, {"rental_uris": {"android": "https://dc.lft.to/lastmile_qr_scan", "ios": "https://dc.lft.to/lastmile_qr_scan"}, "is_reserved": 0, "is_disabled": 0, "name": "a867ee1b0d96f1f4b32d56eef6d520ec", "bike_id": "a867ee1b0d96f1f4b32d56eef6d520ec", "fusion_lat": 0.0, "lon": -76.9872715, "type": "electric_bike", "fusion_lon": 0.0, "lat": 38.863369}, {"rental_uris": {"android": "https://dc.lft.to/lastmile_qr_scan", "ios": "https://dc.lft.to/lastmile_qr_scan"}, "is_reserved": 0, "is_disabled": 0, "name": "a34ed35dc55e6b6a1325f038baafe18e", "bike_id": "a34ed35dc55e6b6a1325f038baafe18e", "fusion_lat": 0.0, "lon": -77.0434325, "type": "electric_scooter", "fusion_lon": 0.0, "lat": 38.905180333333334}, {"rental_uris": {"android": "https://dc.lft.to/lastmile_qr_scan", "ios": "https://dc.lft.to/lastmile_qr_scan"}, "is_reserved": 0, "is_disabled": 0, "name": "5bc43258f9ad9d5c8fde6ba36cbc8a91", "bike_id": "5bc43258f9ad9d5c8fde6ba36cbc8a91", "fusion_lat": 0.0, "lon": -76.98882983333333, "type": "electric_scooter", "fusion_lon": 0.0, "lat": 38.9020665}, {"rental_uris": {"android": "https://dc.lft.to/lastmile_qr_scan", "ios": "https://dc.lft.to/lastmile_qr_scan"}, "is_reserved": 0, "is_disabled": 0, "name": "535a829f3e8a64228836f5815bacb036", "bike_id": "535a829f3e8a64228836f5815bacb036", "fusion_lat": 0.0, "lon": -77.01654233333333, "type": "electric_scooter", "fusion_lon": 0.0, "lat": 38.88114366666667}, {"rental_uris": {"android": "https://dc.lft.to/lastmile_qr_scan", "ios": "https://dc.lft.to/lastmile_qr_scan"}, "is_reserved": 0, "is_disabled": 0, "name": "1e2a24bc2ca52f65904b0a9c3d17804f", "bike_id": "1e2a24bc2ca52f65904b0a9c3d17804f", "fusion_lat": 0.0, "lon": -76.99516833333334, "type": "electric_scooter", "fusion_lon": 0.0, "lat": 38.8837505}, {"rental_uris": {"android": "https://dc.lft.to/lastmile_qr_scan", "ios": "https://dc.lft.to/lastmile_qr_scan"}, "is_reserved": 0, "is_disabled": 0, "name": "cb7013f1d16aa148b8d43489a6be8ac7", "bike_id": "cb7013f1d16aa148b8d43489a6be8ac7", "fusion_lat": 0.0, "lon": -77.039535, "type": "electric_scooter", "fusion_lon": 0.0, "lat": 38.9002275}, {"rental_uris": {"android": "https://dc.lft.to/lastmile_qr_scan", "ios": "https://dc.lft.to/lastmile_qr_scan"}, "is_reserved": 0, "is_disabled": 0, "name": "fdb9868c72aa465a9ac401bfe338e752", "bike_id": "fdb9868c72aa465a9ac401bfe338e752", "fusion_lat": 0.0, "lon": -77.0279355, "type": "electric_scooter", "fusion_lon": 0.0, "lat": 38.923194}, {"rental_uris": {"android": "https://dc.lft.to/lastmile_qr_scan", "ios": "https://dc.lft.to/lastmile_qr_scan"}, "is_reserved": 0, "is_disabled": 0, "name": "ae0255479bd6e8f45b8389ef9cfd9a71", "bike_id": "ae0255479bd6e8f45b8389ef9cfd9a71", "fusion_lat": 0.0, "lon": -76.986158, "type": "electric_scooter", "fusion_lon": 0.0, "lat": 38.938279}, {"rental_uris": {"android": "https://dc.lft.to/lastmile_qr_scan", "ios": "https://dc.lft.to/lastmile_qr_scan"}, "is_reserved": 0, "is_disabled": 0, "name": "587da33bd58052a3642903d8f9cd1270", "bike_id": "587da33bd58052a3642903d8f9cd1270", "fusion_lat": 0.0, "lon": -76.99517483333334, "type": "electric_scooter", "fusion_lon": 0.0, "lat": 38.883736666666664}, {"rental_uris": {"android": "https://dc.lft.to/lastmile_qr_scan", "ios": "https://dc.lft.to/lastmile_qr_scan"}, "is_reserved": 0, "is_disabled": 0, "name": "9b7d9c1894e8249b2795fc8835233d8e", "bike_id": "9b7d9c1894e8249b2795fc8835233d8e", "fusion_lat": 0.0, "lon": -76.987431, "type": "electric_scooter", "fusion_lon": 0.0, "lat": 38.879645333333336}, {"rental_uris": {"android": "https://dc.lft.to/lastmile_qr_scan", "ios": "https://dc.lft.to/lastmile_qr_scan"}, "is_reserved": 0, "is_disabled": 0, "name": "dc397c504d1b5a0d6a46529f04e6300c", "bike_id": "dc397c504d1b5a0d6a46529f04e6300c", "fusion_lat": 0.0, "lon": -77.01387833333334, "type": "electric_scooter", "fusion_lon": 0.0, "lat": 38.878928}, {"rental_uris": {"android": "https://dc.lft.to/lastmile_qr_scan", "ios": "https://dc.lft.to/lastmile_qr_scan"}, "is_reserved": 0, "is_disabled": 0, "name": "2e44dd5684823a4aaf4fb972128ad82f", "bike_id": "2e44dd5684823a4aaf4fb972128ad82f", "fusion_lat": 0.0, "lon": -77.03077883333333, "type": "electric_scooter", "fusion_lon": 0.0, "lat": 38.899894}, {"rental_uris": {"android": "https://dc.lft.to/lastmile_qr_scan", "ios": "https://dc.lft.to/lastmile_qr_scan"}, "is_reserved": 0, "is_disabled": 0, "name": "2cb593e9f07e85e83b0afcc7bf0d345d", "bike_id": "2cb593e9f07e85e83b0afcc7bf0d345d", "fusion_lat": 0.0, "lon": -77.04469033333334, "type": "electric_scooter", "fusion_lon": 0.0, "lat": 38.89884516666667}, {"rental_uris": {"android": "https://dc.lft.to/lastmile_qr_scan", "ios": "https://dc.lft.to/lastmile_qr_scan"}, "is_reserved": 0, "is_disabled": 0, "name": "dd541d82db52355f9ea6927b5d26144d", "bike_id": "dd541d82db52355f9ea6927b5d26144d", "fusion_lat": 0.0, "lon": -77.00139933333334, "type": "electric_scooter", "fusion_lon": 0.0, "lat": 38.907712333333336}, {"rental_uris": {"android": "https://dc.lft.to/lastmile_qr_scan", "ios": "https://dc.lft.to/lastmile_qr_scan"}, "is_reserved": 0, "is_disabled": 0, "name": "333e3297297057dd937575ae5a79e4cf", "bike_id": "333e3297297057dd937575ae5a79e4cf", "fusion_lat": 0.0, "lon": -77.02395316666667, "type": "electric_scooter", "fusion_lon": 0.0, "lat": 38.89517416666666}, {"rental_uris": {"android": "https://dc.lft.to/lastmile_qr_scan", "ios": "https://dc.lft.to/lastmile_qr_scan"}, "is_reserved": 0, "is_disabled": 0, "name": "c9cccdb7f460c374d179314c6d6b6db1", "bike_id": "c9cccdb7f460c374d179314c6d6b6db1", "fusion_lat": 0.0, "lon": -77.02165566666666, "type": "electric_scooter", "fusion_lon": 0.0, "lat": 38.92495783333333}, {"rental_uris": {"android": "https://dc.lft.to/lastmile_qr_scan", "ios": "https://dc.lft.to/lastmile_qr_scan"}, "is_reserved": 0, "is_disabled": 0, "name": "19e52f92cbc720270aefaf665abefc98", "bike_id": "19e52f92cbc720270aefaf665abefc98", "fusion_lat": 0.0, "lon": -77.04327466666666, "type": "electric_scooter", "fusion_lon": 0.0, "lat": 38.89222433333333}, {"rental_uris": {"android": "https://dc.lft.to/lastmile_qr_scan", "ios": "https://dc.lft.to/lastmile_qr_scan"}, "is_reserved": 0, "is_disabled": 0, "name": "2ab6cb29a461ed353d9e85d53d585840", "bike_id": "2ab6cb29a461ed353d9e85d53d585840", "fusion_lat": 0.0, "lon": -77.00195016666666, "type": "electric_scooter", "fusion_lon": 0.0, "lat": 38.902363333333334}, {"rental_uris": {"android": "https://dc.lft.to/lastmile_qr_scan", "ios": "https://dc.lft.to/lastmile_qr_scan"}, "is_reserved": 0, "is_disabled": 0, "name": "9f2e8c0484ea9b667bc6a881365a32dc", "bike_id": "9f2e8c0484ea9b667bc6a881365a32dc", "fusion_lat": 0.0, "lon": -77.04031783333333, "type": "electric_scooter", "fusion_lon": 0.0, "lat": 38.90156}, {"rental_uris": {"android": "https://dc.lft.to/lastmile_qr_scan", "ios": "https://dc.lft.to/lastmile_qr_scan"}, "is_reserved": 0, "is_disabled": 0, "name": "7e065548b060166eb18f29ee4164a11d", "bike_id": "7e065548b060166eb18f29ee4164a11d", "fusion_lat": 0.0, "lon": -77.02808, "type": "electric_scooter", "fusion_lon": 0.0, "lat": 38.881783666666664}, {"rental_uris": {"android": "https://dc.lft.to/lastmile_qr_scan", "ios": "https://dc.lft.to/lastmile_qr_scan"}, "is_reserved": 0, "is_disabled": 0, "name": "28202334fd54dec13e203661d13d7cd0", "bike_id": "28202334fd54dec13e203661d13d7cd0", "fusion_lat": 0.0, "lon": -77.0131265, "type": "electric_scooter", "fusion_lon": 0.0, "lat": 38.89707116666666}, {"rental_uris": {"android": "https://dc.lft.to/lastmile_qr_scan", "ios": "https://dc.lft.to/lastmile_qr_scan"}, "is_reserved": 0, "is_disabled": 0, "name": "354e01741de94c1570288053e00e8d33", "bike_id": "354e01741de94c1570288053e00e8d33", "fusion_lat": 0.0, "lon": -77.042085, "type": "electric_scooter", "fusion_lon": 0.0, "lat": 38.92297533333333}, {"rental_uris": {"android": "https://dc.lft.to/lastmile_qr_scan", "ios": "https://dc.lft.to/lastmile_qr_scan"}, "is_reserved": 0, "is_disabled": 0, "name": "9918d6b8569fa30e61110c699de709bc", "bike_id": "9918d6b8569fa30e61110c699de709bc", "fusion_lat": 0.0, "lon": -77.04760816666666, "type": "electric_scooter", "fusion_lon": 0.0, "lat": 38.9054605}, {"rental_uris": {"android": "https://dc.lft.to/lastmile_qr_scan", "ios": "https://dc.lft.to/lastmile_qr_scan"}, "is_reserved": 0, "is_disabled": 0, "name": "0620222a4f6f9a74d08c24cb442862f0", "bike_id": "0620222a4f6f9a74d08c24cb442862f0", "fusion_lat": 0.0, "lon": -77.03450833333333, "type": "electric_scooter", "fusion_lon": 0.0, "lat": 38.922210666666665}, {"rental_uris": {"android": "https://dc.lft.to/lastmile_qr_scan", "ios": "https://dc.lft.to/lastmile_qr_scan"}, "is_reserved": 0, "is_disabled": 0, "name": "4b9a5ccd526abc25303d811acdc9de0a", "bike_id": "4b9a5ccd526abc25303d811acdc9de0a", "fusion_lat": 0.0, "lon": -77.04131483333333, "type": "electric_scooter", "fusion_lon": 0.0, "lat": 38.922602}, {"rental_uris": {"android": "https://dc.lft.to/lastmile_qr_scan", "ios": "https://dc.lft.to/lastmile_qr_scan"}, "is_reserved": 0, "is_disabled": 0, "name": "06af1a84fb30c0cda50ba52632dfbb38", "bike_id": "06af1a84fb30c0cda50ba52632dfbb38", "fusion_lat": 0.0, "lon": -77.0853375, "type": "electric_bike", "fusion_lon": 0.0, "lat": 38.85667316666667}, {"rental_uris": {"android": "https://dc.lft.to/lastmile_qr_scan", "ios": "https://dc.lft.to/lastmile_qr_scan"}, "is_reserved": 0, "is_disabled": 0, "name": "5ed5488501223c00daf4abf6e6c80262", "bike_id": "5ed5488501223c00daf4abf6e6c80262", "fusion_lat": 0.0, "lon": -77.0450935, "type": "electric_bike", "fusion_lon": 0.0, "lat": 38.90336033333333}, {"rental_uris": {"android": "https://dc.lft.to/lastmile_qr_scan", "ios": "https://dc.lft.to/lastmile_qr_scan"}, "is_reserved": 0, "is_disabled": 0, "name": "766161760d9578af10371f188e0969c2", "bike_id": "766161760d9578af10371f188e0969c2", "fusion_lat": 0.0, "lon": -77.0079575, "type": "electric_scooter", "fusion_lon": 0.0, "lat": 38.95244433333333}, {"rental_uris": {"android": "https://dc.lft.to/lastmile_qr_scan", "ios": "https://dc.lft.to/lastmile_qr_scan"}, "is_reserved": 0, "is_disabled": 0, "name": "dbd0f6f9c3ed26b72735a3e7bbb23cd3", "bike_id": "dbd0f6f9c3ed26b72735a3e7bbb23cd3", "fusion_lat": 0.0, "lon": -77.00713916666666, "type": "electric_scooter", "fusion_lon": 0.0, "lat": 38.88492166666666}, {"rental_uris": {"android": "https://dc.lft.to/lastmile_qr_scan", "ios": "https://dc.lft.to/lastmile_qr_scan"}, "is_reserved": 0, "is_disabled": 0, "name": "5f3ff3865d74ab52dd1608573cd4993a", "bike_id": "5f3ff3865d74ab52dd1608573cd4993a", "fusion_lat": 0.0, "lon": -77.01993533333334, "type": "electric_scooter", "fusion_lon": 0.0, "lat": 38.87602966666667}, {"rental_uris": {"android": "https://dc.lft.to/lastmile_qr_scan", "ios": "https://dc.lft.to/lastmile_qr_scan"}, "is_reserved": 0, "is_disabled": 0, "name": "353f716f161cb2cec66fcf7d4aaaf048", "bike_id": "353f716f161cb2cec66fcf7d4aaaf048", "fusion_lat": 0.0, "lon": -77.00158583333334, "type": "electric_scooter", "fusion_lon": 0.0, "lat": 38.91907033333333}, {"rental_uris": {"android": "https://dc.lft.to/lastmile_qr_scan", "ios": "https://dc.lft.to/lastmile_qr_scan"}, "is_reserved": 0, "is_disabled": 0, "name": "6020e798fe00822b7faef58d25564f8d", "bike_id": "6020e798fe00822b7faef58d25564f8d", "fusion_lat": 0.0, "lon": -77.03077116666667, "type": "electric_scooter", "fusion_lon": 0.0, "lat": 38.899835333333336}, {"rental_uris": {"android": "https://dc.lft.to/lastmile_qr_scan", "ios": "https://dc.lft.to/lastmile_qr_scan"}, "is_reserved": 0, "is_disabled": 0, "name": "d11bdbe91b581bdccd54b52aa900b16b", "bike_id": "d11bdbe91b581bdccd54b52aa900b16b", "fusion_lat": 0.0, "lon": -77.04495433333334, "type": "electric_scooter", "fusion_lon": 0.0, "lat": 38.902351}, {"rental_uris": {"android": "https://dc.lft.to/lastmile_qr_scan", "ios": "https://dc.lft.to/lastmile_qr_scan"}, "is_reserved": 0, "is_disabled": 0, "name": "94664676ab5539ebbde1d48c87272bbf", "bike_id": "94664676ab5539ebbde1d48c87272bbf", "fusion_lat": 0.0, "lon": -77.03787216666667, "type": "electric_scooter", "fusion_lon": 0.0, "lat": 38.925506666666664}, {"rental_uris": {"android": "https://dc.lft.to/lastmile_qr_scan", "ios": "https://dc.lft.to/lastmile_qr_scan"}, "is_reserved": 0, "is_disabled": 0, "name": "33af15450e78ee94bbd82a283d558388", "bike_id": "33af15450e78ee94bbd82a283d558388", "fusion_lat": 0.0, "lon": -77.01959283333333, "type": "electric_scooter", "fusion_lon": 0.0, "lat": 38.923274}, {"rental_uris": {"android": "https://dc.lft.to/lastmile_qr_scan", "ios": "https://dc.lft.to/lastmile_qr_scan"}, "is_reserved": 0, "is_disabled": 0, "name": "4006f098db91babda99b318519571d6e", "bike_id": "4006f098db91babda99b318519571d6e", "fusion_lat": 0.0, "lon": -77.052625, "type": "electric_scooter", "fusion_lon": 0.0, "lat": 38.9256455}, {"rental_uris": {"android": "https://dc.lft.to/lastmile_qr_scan", "ios": "https://dc.lft.to/lastmile_qr_scan"}, "is_reserved": 0, "is_disabled": 0, "name": "9d15290f1fd0f8ced380403cd4064ea9", "bike_id": "9d15290f1fd0f8ced380403cd4064ea9", "fusion_lat": 0.0, "lon": -77.12838416666666, "type": "electric_bike", "fusion_lon": 0.0, "lat": 38.80054916666667}, {"rental_uris": {"android": "https://dc.lft.to/lastmile_qr_scan", "ios": "https://dc.lft.to/lastmile_qr_scan"}, "is_reserved": 0, "is_disabled": 0, "name": "84fdb466f722d143acc53f567e9b3787", "bike_id": "84fdb466f722d143acc53f567e9b3787", "fusion_lat": 0.0, "lon": -77.035963, "type": "electric_scooter", "fusion_lon": 0.0, "lat": 38.916943333333336}, {"rental_uris": {"android": "https://dc.lft.to/lastmile_qr_scan", "ios": "https://dc.lft.to/lastmile_qr_scan"}, "is_reserved": 0, "is_disabled": 0, "name": "294dc26846ce72caf954f2fa33532bd4", "bike_id": "294dc26846ce72caf954f2fa33532bd4", "fusion_lat": 0.0, "lon": -77.024098, "type": "electric_scooter", "fusion_lon": 0.0, "lat": 38.91100266666667}, {"rental_uris": {"android": "https://dc.lft.to/lastmile_qr_scan", "ios": "https://dc.lft.to/lastmile_qr_scan"}, "is_reserved": 0, "is_disabled": 0, "name": "1e4cb4a5249b18388f7a8941b7cea36c", "bike_id": "1e4cb4a5249b18388f7a8941b7cea36c", "fusion_lat": 0.0, "lon": -76.97751783333334, "type": "electric_bike", "fusion_lon": 0.0, "lat": 38.8648615}, {"rental_uris": {"android": "https://dc.lft.to/lastmile_qr_scan", "ios": "https://dc.lft.to/lastmile_qr_scan"}, "is_reserved": 0, "is_disabled": 0, "name": "74128ea99bb753c4c7c2776f6b66f383", "bike_id": "74128ea99bb753c4c7c2776f6b66f383", "fusion_lat": 0.0, "lon": -77.02707716666667, "type": "electric_scooter", "fusion_lon": 0.0, "lat": 38.90074083333333}, {"rental_uris": {"android": "https://dc.lft.to/lastmile_qr_scan", "ios": "https://dc.lft.to/lastmile_qr_scan"}, "is_reserved": 0, "is_disabled": 0, "name": "df493d3f9495ab4b14e1c83c784ceccb", "bike_id": "df493d3f9495ab4b14e1c83c784ceccb", "fusion_lat": 0.0, "lon": -77.02192233333334, "type": "electric_scooter", "fusion_lon": 0.0, "lat": 38.90001733333333}, {"rental_uris": {"android": "https://dc.lft.to/lastmile_qr_scan", "ios": "https://dc.lft.to/lastmile_qr_scan"}, "is_reserved": 0, "is_disabled": 0, "name": "ab3f246f6f669b075cd5c841bcf8dee4", "bike_id": "ab3f246f6f669b075cd5c841bcf8dee4", "fusion_lat": 0.0, "lon": -77.02218966666666, "type": "electric_scooter", "fusion_lon": 0.0, "lat": 38.9261235}, {"rental_uris": {"android": "https://dc.lft.to/lastmile_qr_scan", "ios": "https://dc.lft.to/lastmile_qr_scan"}, "is_reserved": 0, "is_disabled": 0, "name": "257a3c81375e88a3c6da7c849fdb2d1d", "bike_id": "257a3c81375e88a3c6da7c849fdb2d1d", "fusion_lat": 0.0, "lon": -77.062571, "type": "electric_bike", "fusion_lon": 0.0, "lat": 38.806340666666664}, {"rental_uris": {"android": "https://dc.lft.to/lastmile_qr_scan", "ios": "https://dc.lft.to/lastmile_qr_scan"}, "is_reserved": 0, "is_disabled": 0, "name": "ded59434a7cd059c469cdc871d465416", "bike_id": "ded59434a7cd059c469cdc871d465416", "fusion_lat": 0.0, "lon": -77.01958133333333, "type": "electric_scooter", "fusion_lon": 0.0, "lat": 38.923253333333335}, {"rental_uris": {"android": "https://dc.lft.to/lastmile_qr_scan", "ios": "https://dc.lft.to/lastmile_qr_scan"}, "is_reserved": 0, "is_disabled": 0, "name": "7a7e2e728c126fa6606a5308f8a02efc", "bike_id": "7a7e2e728c126fa6606a5308f8a02efc", "fusion_lat": 0.0, "lon": -77.07568316666666, "type": "electric_scooter", "fusion_lon": 0.0, "lat": 38.90749266666667}, {"rental_uris": {"android": "https://dc.lft.to/lastmile_qr_scan", "ios": "https://dc.lft.to/lastmile_qr_scan"}, "is_reserved": 0, "is_disabled": 0, "name": "92faa1488fa1b54c25b7ca8004cbe6bd", "bike_id": "92faa1488fa1b54c25b7ca8004cbe6bd", "fusion_lat": 0.0, "lon": -77.007981, "type": "electric_scooter", "fusion_lon": 0.0, "lat": 38.92672316666667}, {"rental_uris": {"android": "https://dc.lft.to/lastmile_qr_scan", "ios": "https://dc.lft.to/lastmile_qr_scan"}, "is_reserved": 0, "is_disabled": 0, "name": "98f34f0af4e25b3edb6c1e09f7cf07f8", "bike_id": "98f34f0af4e25b3edb6c1e09f7cf07f8", "fusion_lat": 0.0, "lon": -77.0322405, "type": "electric_scooter", "fusion_lon": 0.0, "lat": 38.89666733333333}, {"rental_uris": {"android": "https://dc.lft.to/lastmile_qr_scan", "ios": "https://dc.lft.to/lastmile_qr_scan"}, "is_reserved": 0, "is_disabled": 0, "name": "1425ca6286cd1e9e0ca697e050024a5f", "bike_id": "1425ca6286cd1e9e0ca697e050024a5f", "fusion_lat": 0.0, "lon": -77.0282615, "type": "electric_scooter", "fusion_lon": 0.0, "lat": 38.9027075}, {"rental_uris": {"android": "https://dc.lft.to/lastmile_qr_scan", "ios": "https://dc.lft.to/lastmile_qr_scan"}, "is_reserved": 0, "is_disabled": 0, "name": "da28cb9cee425273e4b3fe563de26b7e", "bike_id": "da28cb9cee425273e4b3fe563de26b7e", "fusion_lat": 0.0, "lon": -77.0206215, "type": "electric_scooter", "fusion_lon": 0.0, "lat": 38.92364883333333}, {"rental_uris": {"android": "https://dc.lft.to/lastmile_qr_scan", "ios": "https://dc.lft.to/lastmile_qr_scan"}, "is_reserved": 0, "is_disabled": 0, "name": "c37830a4cbf56a29ee559f49703442cd", "bike_id": "c37830a4cbf56a29ee559f49703442cd", "fusion_lat": 0.0, "lon": -77.04640183333333, "type": "electric_scooter", "fusion_lon": 0.0, "lat": 38.903444666666665}, {"rental_uris": {"android": "https://dc.lft.to/lastmile_qr_scan", "ios": "https://dc.lft.to/lastmile_qr_scan"}, "is_reserved": 0, "is_disabled": 0, "name": "974643d1fdd2514231332e8de439014c", "bike_id": "974643d1fdd2514231332e8de439014c", "fusion_lat": 0.0, "lon": -77.02305766666667, "type": "electric_scooter", "fusion_lon": 0.0, "lat": 38.90001016666667}, {"rental_uris": {"android": "https://dc.lft.to/lastmile_qr_scan", "ios": "https://dc.lft.to/lastmile_qr_scan"}, "is_reserved": 0, "is_disabled": 0, "name": "977b25f99827143c1adf75b512d782e7", "bike_id": "977b25f99827143c1adf75b512d782e7", "fusion_lat": 0.0, "lon": -77.03208933333333, "type": "electric_scooter", "fusion_lon": 0.0, "lat": 38.91651316666667}, {"rental_uris": {"android": "https://dc.lft.to/lastmile_qr_scan", "ios": "https://dc.lft.to/lastmile_qr_scan"}, "is_reserved": 0, "is_disabled": 0, "name": "530bc4540bf74b494d4ff8c2d83f2fd2", "bike_id": "530bc4540bf74b494d4ff8c2d83f2fd2", "fusion_lat": 0.0, "lon": -77.039405, "type": "electric_scooter", "fusion_lon": 0.0, "lat": 38.90149533333334}, {"rental_uris": {"android": "https://dc.lft.to/lastmile_qr_scan", "ios": "https://dc.lft.to/lastmile_qr_scan"}, "is_reserved": 0, "is_disabled": 0, "name": "7373e3505470f54a2f2c2e18b94d6351", "bike_id": "7373e3505470f54a2f2c2e18b94d6351", "fusion_lat": 0.0, "lon": -76.917195, "type": "electric_bike", "fusion_lon": 0.0, "lat": 38.880302}, {"rental_uris": {"android": "https://dc.lft.to/lastmile_qr_scan", "ios": "https://dc.lft.to/lastmile_qr_scan"}, "is_reserved": 0, "is_disabled": 0, "name": "a65e8d64027e75032b092357b778dd57", "bike_id": "a65e8d64027e75032b092357b778dd57", "fusion_lat": 0.0, "lon": -77.02583733333333, "type": "electric_scooter", "fusion_lon": 0.0, "lat": 38.926776}, {"rental_uris": {"android": "https://dc.lft.to/lastmile_qr_scan", "ios": "https://dc.lft.to/lastmile_qr_scan"}, "is_reserved": 0, "is_disabled": 0, "name": "d2a1c34ee43de15056066c521a380e8e", "bike_id": "d2a1c34ee43de15056066c521a380e8e", "fusion_lat": 0.0, "lon": -77.0329855, "type": "electric_scooter", "fusion_lon": 0.0, "lat": 38.956175333333334}, {"rental_uris": {"android": "https://dc.lft.to/lastmile_qr_scan", "ios": "https://dc.lft.to/lastmile_qr_scan"}, "is_reserved": 0, "is_disabled": 0, "name": "3a8d56f4c4a440954d18aaa4b2f2ebfc", "bike_id": "3a8d56f4c4a440954d18aaa4b2f2ebfc", "fusion_lat": 0.0, "lon": -77.0233735, "type": "electric_scooter", "fusion_lon": 0.0, "lat": 38.92232333333333}, {"rental_uris": {"android": "https://dc.lft.to/lastmile_qr_scan", "ios": "https://dc.lft.to/lastmile_qr_scan"}, "is_reserved": 0, "is_disabled": 0, "name": "620a850eff00d86fae1fcd78958e4eb5", "bike_id": "620a850eff00d86fae1fcd78958e4eb5", "fusion_lat": 0.0, "lon": -77.033378, "type": "electric_bike", "fusion_lon": 0.0, "lat": 38.89904516666667}, {"rental_uris": {"android": "https://dc.lft.to/lastmile_qr_scan", "ios": "https://dc.lft.to/lastmile_qr_scan"}, "is_reserved": 0, "is_disabled": 0, "name": "87ad63c11c037204f96192e9d7a68f86", "bike_id": "87ad63c11c037204f96192e9d7a68f86", "fusion_lat": 0.0, "lon": -77.03208483333333, "type": "electric_scooter", "fusion_lon": 0.0, "lat": 38.892371833333335}, {"rental_uris": {"android": "https://dc.lft.to/lastmile_qr_scan", "ios": "https://dc.lft.to/lastmile_qr_scan"}, "is_reserved": 0, "is_disabled": 0, "name": "3810e380eadf07cc0cbf018005395766", "bike_id": "3810e380eadf07cc0cbf018005395766", "fusion_lat": 0.0, "lon": -77.04617966666666, "type": "electric_scooter", "fusion_lon": 0.0, "lat": 38.9164325}, {"rental_uris": {"android": "https://dc.lft.to/lastmile_qr_scan", "ios": "https://dc.lft.to/lastmile_qr_scan"}, "is_reserved": 0, "is_disabled": 0, "name": "457181896e3daa78cca44b023dd7e3ad", "bike_id": "457181896e3daa78cca44b023dd7e3ad", "fusion_lat": 0.0, "lon": -77.0199315, "type": "electric_scooter", "fusion_lon": 0.0, "lat": 38.88594366666667}, {"rental_uris": {"android": "https://dc.lft.to/lastmile_qr_scan", "ios": "https://dc.lft.to/lastmile_qr_scan"}, "is_reserved": 0, "is_disabled": 0, "name": "1982c0e8e18e54fb87fb57a2686eea5c", "bike_id": "1982c0e8e18e54fb87fb57a2686eea5c", "fusion_lat": 0.0, "lon": -77.03298066666666, "type": "electric_scooter", "fusion_lon": 0.0, "lat": 38.956140166666664}, {"rental_uris": {"android": "https://dc.lft.to/lastmile_qr_scan", "ios": "https://dc.lft.to/lastmile_qr_scan"}, "is_reserved": 0, "is_disabled": 0, "name": "2e71472dcafd77ef85e7b5cfe7e0303b", "bike_id": "2e71472dcafd77ef85e7b5cfe7e0303b", "fusion_lat": 0.0, "lon": -77.053508, "type": "electric_scooter", "fusion_lon": 0.0, "lat": 38.903817}, {"rental_uris": {"android": "https://dc.lft.to/lastmile_qr_scan", "ios": "https://dc.lft.to/lastmile_qr_scan"}, "is_reserved": 0, "is_disabled": 0, "name": "09f8be77b6da86d2e92e2c2b36a03c03", "bike_id": "09f8be77b6da86d2e92e2c2b36a03c03", "fusion_lat": 0.0, "lon": -77.01338466666667, "type": "electric_scooter", "fusion_lon": 0.0, "lat": 38.926403666666666}, {"rental_uris": {"android": "https://dc.lft.to/lastmile_qr_scan", "ios": "https://dc.lft.to/lastmile_qr_scan"}, "is_reserved": 0, "is_disabled": 0, "name": "c260cfa0c03a25b85d647c61ecc481d6", "bike_id": "c260cfa0c03a25b85d647c61ecc481d6", "fusion_lat": 0.0, "lon": -77.02114866666666, "type": "electric_scooter", "fusion_lon": 0.0, "lat": 38.9179525}, {"rental_uris": {"android": "https://dc.lft.to/lastmile_qr_scan", "ios": "https://dc.lft.to/lastmile_qr_scan"}, "is_reserved": 0, "is_disabled": 0, "name": "91fe0741960ec0f5bd6ad4cde2cfce66", "bike_id": "91fe0741960ec0f5bd6ad4cde2cfce66", "fusion_lat": 0.0, "lon": -77.0226495, "type": "electric_scooter", "fusion_lon": 0.0, "lat": 38.92418033333333}, {"rental_uris": {"android": "https://dc.lft.to/lastmile_qr_scan", "ios": "https://dc.lft.to/lastmile_qr_scan"}, "is_reserved": 0, "is_disabled": 0, "name": "f5ae5945bee4c2e72dd8158bb69ffef0", "bike_id": "f5ae5945bee4c2e72dd8158bb69ffef0", "fusion_lat": 0.0, "lon": -77.03463683333334, "type": "electric_scooter", "fusion_lon": 0.0, "lat": 38.91580283333333}, {"rental_uris": {"android": "https://dc.lft.to/lastmile_qr_scan", "ios": "https://dc.lft.to/lastmile_qr_scan"}, "is_reserved": 0, "is_disabled": 0, "name": "5d0f5fce8d037953809b6c2c73712ddc", "bike_id": "5d0f5fce8d037953809b6c2c73712ddc", "fusion_lat": 0.0, "lon": -77.02976816666667, "type": "electric_scooter", "fusion_lon": 0.0, "lat": 38.91708933333334}, {"rental_uris": {"android": "https://dc.lft.to/lastmile_qr_scan", "ios": "https://dc.lft.to/lastmile_qr_scan"}, "is_reserved": 0, "is_disabled": 0, "name": "f7d665658c3f21366d606b7fa6b91199", "bike_id": "f7d665658c3f21366d606b7fa6b91199", "fusion_lat": 0.0, "lon": -77.00052866666667, "type": "electric_scooter", "fusion_lon": 0.0, "lat": 38.878810666666666}, {"rental_uris": {"android": "https://dc.lft.to/lastmile_qr_scan", "ios": "https://dc.lft.to/lastmile_qr_scan"}, "is_reserved": 0, "is_disabled": 0, "name": "7056414affaea827e7a0692ceda28031", "bike_id": "7056414affaea827e7a0692ceda28031", "fusion_lat": 0.0, "lon": -77.04135183333334, "type": "electric_scooter", "fusion_lon": 0.0, "lat": 38.90267466666667}, {"rental_uris": {"android": "https://dc.lft.to/lastmile_qr_scan", "ios": "https://dc.lft.to/lastmile_qr_scan"}, "is_reserved": 0, "is_disabled": 0, "name": "36e2c9785b61143cb968e6eea94078fc", "bike_id": "36e2c9785b61143cb968e6eea94078fc", "fusion_lat": 0.0, "lon": -77.011917, "type": "electric_scooter", "fusion_lon": 0.0, "lat": 38.900267166666666}, {"rental_uris": {"android": "https://dc.lft.to/lastmile_qr_scan", "ios": "https://dc.lft.to/lastmile_qr_scan"}, "is_reserved": 0, "is_disabled": 0, "name": "e651f30c50a49fee45c5ae0aeae8c1a9", "bike_id": "e651f30c50a49fee45c5ae0aeae8c1a9", "fusion_lat": 0.0, "lon": -77.02157216666667, "type": "electric_scooter", "fusion_lon": 0.0, "lat": 38.926008333333336}, {"rental_uris": {"android": "https://dc.lft.to/lastmile_qr_scan", "ios": "https://dc.lft.to/lastmile_qr_scan"}, "is_reserved": 0, "is_disabled": 0, "name": "e8e580b467091f51ebd67a92ac3ba057", "bike_id": "e8e580b467091f51ebd67a92ac3ba057", "fusion_lat": 0.0, "lon": -77.03210466666667, "type": "electric_scooter", "fusion_lon": 0.0, "lat": 38.89237166666667}, {"rental_uris": {"android": "https://dc.lft.to/lastmile_qr_scan", "ios": "https://dc.lft.to/lastmile_qr_scan"}, "is_reserved": 0, "is_disabled": 0, "name": "13a8e52e2e4864c774c96cf2b421bbb7", "bike_id": "13a8e52e2e4864c774c96cf2b421bbb7", "fusion_lat": 0.0, "lon": -76.94460716666667, "type": "electric_scooter", "fusion_lon": 0.0, "lat": 38.89029883333333}, {"rental_uris": {"android": "https://dc.lft.to/lastmile_qr_scan", "ios": "https://dc.lft.to/lastmile_qr_scan"}, "is_reserved": 0, "is_disabled": 0, "name": "8e2e9941dfef3cfc68c73bdf0762031d", "bike_id": "8e2e9941dfef3cfc68c73bdf0762031d", "fusion_lat": 0.0, "lon": -77.05005066666666, "type": "electric_scooter", "fusion_lon": 0.0, "lat": 38.892275}, {"rental_uris": {"android": "https://dc.lft.to/lastmile_qr_scan", "ios": "https://dc.lft.to/lastmile_qr_scan"}, "is_reserved": 0, "is_disabled": 0, "name": "ab00eae8968ac12923afec60e9adaa0e", "bike_id": "ab00eae8968ac12923afec60e9adaa0e", "fusion_lat": 0.0, "lon": -77.00325366666667, "type": "electric_scooter", "fusion_lon": 0.0, "lat": 38.893671499999996}, {"rental_uris": {"android": "https://dc.lft.to/lastmile_qr_scan", "ios": "https://dc.lft.to/lastmile_qr_scan"}, "is_reserved": 0, "is_disabled": 0, "name": "4e454bd89aa94890df0bc9da3f6f816d", "bike_id": "4e454bd89aa94890df0bc9da3f6f816d", "fusion_lat": 0.0, "lon": -77.025036, "type": "electric_scooter", "fusion_lon": 0.0, "lat": 38.919404}, {"rental_uris": {"android": "https://dc.lft.to/lastmile_qr_scan", "ios": "https://dc.lft.to/lastmile_qr_scan"}, "is_reserved": 0, "is_disabled": 0, "name": "de2870bda43328c5a30fdf06a5f824d7", "bike_id": "de2870bda43328c5a30fdf06a5f824d7", "fusion_lat": 0.0, "lon": -77.03670133333334, "type": "electric_scooter", "fusion_lon": 0.0, "lat": 38.902901166666666}, {"rental_uris": {"android": "https://dc.lft.to/lastmile_qr_scan", "ios": "https://dc.lft.to/lastmile_qr_scan"}, "is_reserved": 0, "is_disabled": 0, "name": "a78a066c2f50450e412b7d07bee3c788", "bike_id": "a78a066c2f50450e412b7d07bee3c788", "fusion_lat": 0.0, "lon": -77.0279325, "type": "electric_scooter", "fusion_lon": 0.0, "lat": 38.93075833333333}, {"rental_uris": {"android": "https://dc.lft.to/lastmile_qr_scan", "ios": "https://dc.lft.to/lastmile_qr_scan"}, "is_reserved": 0, "is_disabled": 0, "name": "85dac19e5c6a7a592896ddde8f85532c", "bike_id": "85dac19e5c6a7a592896ddde8f85532c", "fusion_lat": 0.0, "lon": -77.00156233333334, "type": "electric_scooter", "fusion_lon": 0.0, "lat": 38.82132333333333}, {"rental_uris": {"android": "https://dc.lft.to/lastmile_qr_scan", "ios": "https://dc.lft.to/lastmile_qr_scan"}, "is_reserved": 0, "is_disabled": 0, "name": "15e3dde7b92881a7cb312222d265d076", "bike_id": "15e3dde7b92881a7cb312222d265d076", "fusion_lat": 0.0, "lon": -76.95154083333334, "type": "electric_bike", "fusion_lon": 0.0, "lat": 39.08444633333333}, {"rental_uris": {"android": "https://dc.lft.to/lastmile_qr_scan", "ios": "https://dc.lft.to/lastmile_qr_scan"}, "is_reserved": 0, "is_disabled": 0, "name": "a08217b0a5b94a987bdab6b7b8bcba8d", "bike_id": "a08217b0a5b94a987bdab6b7b8bcba8d", "fusion_lat": 0.0, "lon": -77.00293933333333, "type": "electric_scooter", "fusion_lon": 0.0, "lat": 38.89202516666667}, {"rental_uris": {"android": "https://dc.lft.to/lastmile_qr_scan", "ios": "https://dc.lft.to/lastmile_qr_scan"}, "is_reserved": 0, "is_disabled": 0, "name": "eb991495e21d0b01ca8ffadadd496fd2", "bike_id": "eb991495e21d0b01ca8ffadadd496fd2", "fusion_lat": 0.0, "lon": -77.03057366666667, "type": "electric_scooter", "fusion_lon": 0.0, "lat": 38.89842866666667}, {"rental_uris": {"android": "https://dc.lft.to/lastmile_qr_scan", "ios": "https://dc.lft.to/lastmile_qr_scan"}, "is_reserved": 0, "is_disabled": 0, "name": "eb219aec9a4f57853ec6dd0d6617b2fe", "bike_id": "eb219aec9a4f57853ec6dd0d6617b2fe", "fusion_lat": 0.0, "lon": -77.01213833333334, "type": "electric_scooter", "fusion_lon": 0.0, "lat": 38.91821783333333}, {"rental_uris": {"android": "https://dc.lft.to/lastmile_qr_scan", "ios": "https://dc.lft.to/lastmile_qr_scan"}, "is_reserved": 0, "is_disabled": 0, "name": "a03751d0ae065688d3e7fbe916e03fb3", "bike_id": "a03751d0ae065688d3e7fbe916e03fb3", "fusion_lat": 0.0, "lon": -77.00293533333334, "type": "electric_scooter", "fusion_lon": 0.0, "lat": 38.90361983333333}, {"rental_uris": {"android": "https://dc.lft.to/lastmile_qr_scan", "ios": "https://dc.lft.to/lastmile_qr_scan"}, "is_reserved": 0, "is_disabled": 0, "name": "1a92e849d08cebfab2217ceda9b28681", "bike_id": "1a92e849d08cebfab2217ceda9b28681", "fusion_lat": 0.0, "lon": -77.06426116666667, "type": "electric_scooter", "fusion_lon": 0.0, "lat": 38.93565866666667}, {"rental_uris": {"android": "https://dc.lft.to/lastmile_qr_scan", "ios": "https://dc.lft.to/lastmile_qr_scan"}, "is_reserved": 0, "is_disabled": 0, "name": "6046abb8a9870e553f7daf4e75b0f37e", "bike_id": "6046abb8a9870e553f7daf4e75b0f37e", "fusion_lat": 0.0, "lon": -76.93599233333333, "type": "electric_scooter", "fusion_lon": 0.0, "lat": 38.90945933333333}, {"rental_uris": {"android": "https://dc.lft.to/lastmile_qr_scan", "ios": "https://dc.lft.to/lastmile_qr_scan"}, "is_reserved": 0, "is_disabled": 0, "name": "90a1a443275af7bad5837cecd36425e4", "bike_id": "90a1a443275af7bad5837cecd36425e4", "fusion_lat": 0.0, "lon": -77.0271815, "type": "electric_scooter", "fusion_lon": 0.0, "lat": 38.89650533333333}, {"rental_uris": {"android": "https://dc.lft.to/lastmile_qr_scan", "ios": "https://dc.lft.to/lastmile_qr_scan"}, "is_reserved": 0, "is_disabled": 0, "name": "126bc55613d3df8129877ee3c6b93587", "bike_id": "126bc55613d3df8129877ee3c6b93587", "fusion_lat": 0.0, "lon": -76.9928185, "type": "electric_bike", "fusion_lon": 0.0, "lat": 38.972611666666666}, {"rental_uris": {"android": "https://dc.lft.to/lastmile_qr_scan", "ios": "https://dc.lft.to/lastmile_qr_scan"}, "is_reserved": 0, "is_disabled": 0, "name": "ce6db2058b7f25e26a8853bb00c593c9", "bike_id": "ce6db2058b7f25e26a8853bb00c593c9", "fusion_lat": 0.0, "lon": -77.02880366666666, "type": "electric_scooter", "fusion_lon": 0.0, "lat": 38.9135025}, {"rental_uris": {"android": "https://dc.lft.to/lastmile_qr_scan", "ios": "https://dc.lft.to/lastmile_qr_scan"}, "is_reserved": 0, "is_disabled": 0, "name": "e9eead0ea365ec8cf0159189946df4ba", "bike_id": "e9eead0ea365ec8cf0159189946df4ba", "fusion_lat": 0.0, "lon": -77.03279683333334, "type": "electric_scooter", "fusion_lon": 0.0, "lat": 38.93252233333333}, {"rental_uris": {"android": "https://dc.lft.to/lastmile_qr_scan", "ios": "https://dc.lft.to/lastmile_qr_scan"}, "is_reserved": 0, "is_disabled": 0, "name": "e93c6b018bf920240430e998165e19e2", "bike_id": "e93c6b018bf920240430e998165e19e2", "fusion_lat": 0.0, "lon": -76.99701033333334, "type": "electric_bike", "fusion_lon": 0.0, "lat": 38.838607}, {"rental_uris": {"android": "https://dc.lft.to/lastmile_qr_scan", "ios": "https://dc.lft.to/lastmile_qr_scan"}, "is_reserved": 0, "is_disabled": 0, "name": "75f4d1aee00266899f4786d4f047cda3", "bike_id": "75f4d1aee00266899f4786d4f047cda3", "fusion_lat": 0.0, "lon": -77.02585783333333, "type": "electric_scooter", "fusion_lon": 0.0, "lat": 38.9036385}, {"rental_uris": {"android": "https://dc.lft.to/lastmile_qr_scan", "ios": "https://dc.lft.to/lastmile_qr_scan"}, "is_reserved": 0, "is_disabled": 0, "name": "3ad96a871957548cefacea309e265a77", "bike_id": "3ad96a871957548cefacea309e265a77", "fusion_lat": 0.0, "lon": -77.0212145, "type": "electric_scooter", "fusion_lon": 0.0, "lat": 38.91738483333334}, {"rental_uris": {"android": "https://dc.lft.to/lastmile_qr_scan", "ios": "https://dc.lft.to/lastmile_qr_scan"}, "is_reserved": 0, "is_disabled": 0, "name": "a6f80a2062d5e7cbbc8dddd08c065e4c", "bike_id": "a6f80a2062d5e7cbbc8dddd08c065e4c", "fusion_lat": 0.0, "lon": -77.04158116666666, "type": "electric_scooter", "fusion_lon": 0.0, "lat": 38.917175666666665}, {"rental_uris": {"android": "https://dc.lft.to/lastmile_qr_scan", "ios": "https://dc.lft.to/lastmile_qr_scan"}, "is_reserved": 0, "is_disabled": 0, "name": "22c1240f6729699c9f2280ebb19ca3a8", "bike_id": "22c1240f6729699c9f2280ebb19ca3a8", "fusion_lat": 0.0, "lon": -76.99517616666667, "type": "electric_scooter", "fusion_lon": 0.0, "lat": 38.902604}, {"rental_uris": {"android": "https://dc.lft.to/lastmile_qr_scan", "ios": "https://dc.lft.to/lastmile_qr_scan"}, "is_reserved": 0, "is_disabled": 0, "name": "8b1e1395d9f42e6bd6eb0337d4871695", "bike_id": "8b1e1395d9f42e6bd6eb0337d4871695", "fusion_lat": 0.0, "lon": -77.034448, "type": "electric_scooter", "fusion_lon": 0.0, "lat": 38.905136}, {"rental_uris": {"android": "https://dc.lft.to/lastmile_qr_scan", "ios": "https://dc.lft.to/lastmile_qr_scan"}, "is_reserved": 0, "is_disabled": 0, "name": "c1c7a6da923c601597a19c31ea0f050f", "bike_id": "c1c7a6da923c601597a19c31ea0f050f", "fusion_lat": 0.0, "lon": -77.02139616666666, "type": "electric_scooter", "fusion_lon": 0.0, "lat": 38.894207333333334}, {"rental_uris": {"android": "https://dc.lft.to/lastmile_qr_scan", "ios": "https://dc.lft.to/lastmile_qr_scan"}, "is_reserved": 0, "is_disabled": 0, "name": "b8bb76deba28d9b8b7e024f9e39a80a1", "bike_id": "b8bb76deba28d9b8b7e024f9e39a80a1", "fusion_lat": 0.0, "lon": -77.02483416666666, "type": "electric_scooter", "fusion_lon": 0.0, "lat": 38.9207205}, {"rental_uris": {"android": "https://dc.lft.to/lastmile_qr_scan", "ios": "https://dc.lft.to/lastmile_qr_scan"}, "is_reserved": 0, "is_disabled": 0, "name": "8003600d903280a7d67354b17dd8afaa", "bike_id": "8003600d903280a7d67354b17dd8afaa", "fusion_lat": 0.0, "lon": -77.043433, "type": "electric_scooter", "fusion_lon": 0.0, "lat": 38.89948316666667}, {"rental_uris": {"android": "https://dc.lft.to/lastmile_qr_scan", "ios": "https://dc.lft.to/lastmile_qr_scan"}, "is_reserved": 0, "is_disabled": 0, "name": "3aaa063e27225e4550ba1230177919ed", "bike_id": "3aaa063e27225e4550ba1230177919ed", "fusion_lat": 0.0, "lon": -77.04623933333333, "type": "electric_scooter", "fusion_lon": 0.0, "lat": 38.90215116666667}, {"rental_uris": {"android": "https://dc.lft.to/lastmile_qr_scan", "ios": "https://dc.lft.to/lastmile_qr_scan"}, "is_reserved": 0, "is_disabled": 0, "name": "717c4ac4ed8d5e209fc39bc8f47d5f11", "bike_id": "717c4ac4ed8d5e209fc39bc8f47d5f11", "fusion_lat": 0.0, "lon": -77.021048, "type": "electric_scooter", "fusion_lon": 0.0, "lat": 38.905614666666665}, {"rental_uris": {"android": "https://dc.lft.to/lastmile_qr_scan", "ios": "https://dc.lft.to/lastmile_qr_scan"}, "is_reserved": 0, "is_disabled": 0, "name": "c1321e26d5cc9c110363ef2db5642e6c", "bike_id": "c1321e26d5cc9c110363ef2db5642e6c", "fusion_lat": 0.0, "lon": -76.99725733333334, "type": "electric_scooter", "fusion_lon": 0.0, "lat": 38.9102215}, {"rental_uris": {"android": "https://dc.lft.to/lastmile_qr_scan", "ios": "https://dc.lft.to/lastmile_qr_scan"}, "is_reserved": 0, "is_disabled": 0, "name": "73f42ea465f2a1eaab1f4d45f5392d06", "bike_id": "73f42ea465f2a1eaab1f4d45f5392d06", "fusion_lat": 0.0, "lon": -77.04006633333333, "type": "electric_scooter", "fusion_lon": 0.0, "lat": 38.899315666666666}, {"rental_uris": {"android": "https://dc.lft.to/lastmile_qr_scan", "ios": "https://dc.lft.to/lastmile_qr_scan"}, "is_reserved": 0, "is_disabled": 0, "name": "e0c868e616a27accb5e408d3ee9f1e5c", "bike_id": "e0c868e616a27accb5e408d3ee9f1e5c", "fusion_lat": 0.0, "lon": -77.04443566666667, "type": "electric_scooter", "fusion_lon": 0.0, "lat": 38.9101145}, {"rental_uris": {"android": "https://dc.lft.to/lastmile_qr_scan", "ios": "https://dc.lft.to/lastmile_qr_scan"}, "is_reserved": 0, "is_disabled": 0, "name": "24124be522f487bbcaa29f8448ad496b", "bike_id": "24124be522f487bbcaa29f8448ad496b", "fusion_lat": 0.0, "lon": -76.98580716666666, "type": "electric_scooter", "fusion_lon": 0.0, "lat": 38.90035}, {"rental_uris": {"android": "https://dc.lft.to/lastmile_qr_scan", "ios": "https://dc.lft.to/lastmile_qr_scan"}, "is_reserved": 0, "is_disabled": 0, "name": "17bb37cea55f3fb3feb4c0cabd9abe98", "bike_id": "17bb37cea55f3fb3feb4c0cabd9abe98", "fusion_lat": 0.0, "lon": -77.03756933333334, "type": "electric_scooter", "fusion_lon": 0.0, "lat": 38.92885366666667}, {"rental_uris": {"android": "https://dc.lft.to/lastmile_qr_scan", "ios": "https://dc.lft.to/lastmile_qr_scan"}, "is_reserved": 0, "is_disabled": 0, "name": "b15d147ee4320eabdc6b630f03b5583c", "bike_id": "b15d147ee4320eabdc6b630f03b5583c", "fusion_lat": 0.0, "lon": -77.05597833333333, "type": "electric_scooter", "fusion_lon": 0.0, "lat": 38.894237}, {"rental_uris": {"android": "https://dc.lft.to/lastmile_qr_scan", "ios": "https://dc.lft.to/lastmile_qr_scan"}, "is_reserved": 0, "is_disabled": 0, "name": "c6eac5e3f43c74d7a04c832fb801e68f", "bike_id": "c6eac5e3f43c74d7a04c832fb801e68f", "fusion_lat": 0.0, "lon": -77.01334466666667, "type": "electric_scooter", "fusion_lon": 0.0, "lat": 38.8812325}, {"rental_uris": {"android": "https://dc.lft.to/lastmile_qr_scan", "ios": "https://dc.lft.to/lastmile_qr_scan"}, "is_reserved": 0, "is_disabled": 0, "name": "af7f455af0ae7f2f5b9dc7808756b463", "bike_id": "af7f455af0ae7f2f5b9dc7808756b463", "fusion_lat": 0.0, "lon": -77.08318233333334, "type": "electric_bike", "fusion_lon": 0.0, "lat": 38.9334615}, {"rental_uris": {"android": "https://dc.lft.to/lastmile_qr_scan", "ios": "https://dc.lft.to/lastmile_qr_scan"}, "is_reserved": 0, "is_disabled": 0, "name": "e945d0f88ddd43152e1e30a504c69768", "bike_id": "e945d0f88ddd43152e1e30a504c69768", "fusion_lat": 0.0, "lon": -77.03009983333334, "type": "electric_scooter", "fusion_lon": 0.0, "lat": 38.89539383333333}, {"rental_uris": {"android": "https://dc.lft.to/lastmile_qr_scan", "ios": "https://dc.lft.to/lastmile_qr_scan"}, "is_reserved": 0, "is_disabled": 0, "name": "af72a33129a35318772e6cc34a7738b4", "bike_id": "af72a33129a35318772e6cc34a7738b4", "fusion_lat": 0.0, "lon": -77.031695, "type": "electric_scooter", "fusion_lon": 0.0, "lat": 38.89469966666667}, {"rental_uris": {"android": "https://dc.lft.to/lastmile_qr_scan", "ios": "https://dc.lft.to/lastmile_qr_scan"}, "is_reserved": 0, "is_disabled": 0, "name": "f69fd956c68c6fa842a3d6d4a9739bad", "bike_id": "f69fd956c68c6fa842a3d6d4a9739bad", "fusion_lat": 0.0, "lon": -76.996957, "type": "electric_scooter", "fusion_lon": 0.0, "lat": 38.8843405}, {"rental_uris": {"android": "https://dc.lft.to/lastmile_qr_scan", "ios": "https://dc.lft.to/lastmile_qr_scan"}, "is_reserved": 0, "is_disabled": 0, "name": "416788f998482b413795a9bf3330be4f", "bike_id": "416788f998482b413795a9bf3330be4f", "fusion_lat": 0.0, "lon": -77.00204116666667, "type": "electric_scooter", "fusion_lon": 0.0, "lat": 38.89216616666667}, {"rental_uris": {"android": "https://dc.lft.to/lastmile_qr_scan", "ios": "https://dc.lft.to/lastmile_qr_scan"}, "is_reserved": 0, "is_disabled": 0, "name": "f6713a000cc224e49c4c7585ab166155", "bike_id": "f6713a000cc224e49c4c7585ab166155", "fusion_lat": 0.0, "lon": -77.0461275, "type": "electric_scooter", "fusion_lon": 0.0, "lat": 38.91570166666666}, {"rental_uris": {"android": "https://dc.lft.to/lastmile_qr_scan", "ios": "https://dc.lft.to/lastmile_qr_scan"}, "is_reserved": 0, "is_disabled": 0, "name": "c0bf851636c0cade136683b8c96d9ce2", "bike_id": "c0bf851636c0cade136683b8c96d9ce2", "fusion_lat": 0.0, "lon": -77.0033145, "type": "electric_scooter", "fusion_lon": 0.0, "lat": 38.89362333333333}, {"rental_uris": {"android": "https://dc.lft.to/lastmile_qr_scan", "ios": "https://dc.lft.to/lastmile_qr_scan"}, "is_reserved": 0, "is_disabled": 0, "name": "2e77d00e1111a9e27482fcd9a2d8ace4", "bike_id": "2e77d00e1111a9e27482fcd9a2d8ace4", "fusion_lat": 0.0, "lon": -77.023324, "type": "electric_scooter", "fusion_lon": 0.0, "lat": 38.930520666666666}, {"rental_uris": {"android": "https://dc.lft.to/lastmile_qr_scan", "ios": "https://dc.lft.to/lastmile_qr_scan"}, "is_reserved": 0, "is_disabled": 0, "name": "cba0e7ca26510fc6a54402d88ec11130", "bike_id": "cba0e7ca26510fc6a54402d88ec11130", "fusion_lat": 0.0, "lon": -77.02373166666666, "type": "electric_scooter", "fusion_lon": 0.0, "lat": 38.90220883333333}, {"rental_uris": {"android": "https://dc.lft.to/lastmile_qr_scan", "ios": "https://dc.lft.to/lastmile_qr_scan"}, "is_reserved": 0, "is_disabled": 0, "name": "137e9fd2b948a052fb05099d1b065901", "bike_id": "137e9fd2b948a052fb05099d1b065901", "fusion_lat": 0.0, "lon": -77.04212633333333, "type": "electric_scooter", "fusion_lon": 0.0, "lat": 38.9092315}, {"rental_uris": {"android": "https://dc.lft.to/lastmile_qr_scan", "ios": "https://dc.lft.to/lastmile_qr_scan"}, "is_reserved": 0, "is_disabled": 0, "name": "b2b195e58a38ba25ee82b9873ccb973a", "bike_id": "b2b195e58a38ba25ee82b9873ccb973a", "fusion_lat": 0.0, "lon": -76.99835916666666, "type": "electric_scooter", "fusion_lon": 0.0, "lat": 38.9008165}, {"rental_uris": {"android": "https://dc.lft.to/lastmile_qr_scan", "ios": "https://dc.lft.to/lastmile_qr_scan"}, "is_reserved": 0, "is_disabled": 0, "name": "a36a7aa1f3992acfbc94a74c44aabd41", "bike_id": "a36a7aa1f3992acfbc94a74c44aabd41", "fusion_lat": 0.0, "lon": -77.063622, "type": "electric_scooter", "fusion_lon": 0.0, "lat": 38.9201965}, {"rental_uris": {"android": "https://dc.lft.to/lastmile_qr_scan", "ios": "https://dc.lft.to/lastmile_qr_scan"}, "is_reserved": 0, "is_disabled": 0, "name": "b13d3007c3eab8b8a361740b635d26ac", "bike_id": "b13d3007c3eab8b8a361740b635d26ac", "fusion_lat": 0.0, "lon": -77.02344666666667, "type": "electric_scooter", "fusion_lon": 0.0, "lat": 38.9419965}, {"rental_uris": {"android": "https://dc.lft.to/lastmile_qr_scan", "ios": "https://dc.lft.to/lastmile_qr_scan"}, "is_reserved": 0, "is_disabled": 0, "name": "4ab1d411180b296cf05bdf120230d637", "bike_id": "4ab1d411180b296cf05bdf120230d637", "fusion_lat": 0.0, "lon": -77.024153, "type": "electric_scooter", "fusion_lon": 0.0, "lat": 38.8922135}, {"rental_uris": {"android": "https://dc.lft.to/lastmile_qr_scan", "ios": "https://dc.lft.to/lastmile_qr_scan"}, "is_reserved": 0, "is_disabled": 0, "name": "9436f56874b1aa76c51e16a3b3344a49", "bike_id": "9436f56874b1aa76c51e16a3b3344a49", "fusion_lat": 0.0, "lon": -77.0061395, "type": "electric_scooter", "fusion_lon": 0.0, "lat": 38.87544366666667}, {"rental_uris": {"android": "https://dc.lft.to/lastmile_qr_scan", "ios": "https://dc.lft.to/lastmile_qr_scan"}, "is_reserved": 0, "is_disabled": 0, "name": "680f361ceb1fe2d24f03f35236edaf68", "bike_id": "680f361ceb1fe2d24f03f35236edaf68", "fusion_lat": 0.0, "lon": -77.02596733333333, "type": "electric_scooter", "fusion_lon": 0.0, "lat": 38.896368}, {"rental_uris": {"android": "https://dc.lft.to/lastmile_qr_scan", "ios": "https://dc.lft.to/lastmile_qr_scan"}, "is_reserved": 0, "is_disabled": 0, "name": "2e2662f411df604cbebffeb1971e940a", "bike_id": "2e2662f411df604cbebffeb1971e940a", "fusion_lat": 0.0, "lon": -77.03561683333334, "type": "electric_scooter", "fusion_lon": 0.0, "lat": 38.924814166666664}, {"rental_uris": {"android": "https://dc.lft.to/lastmile_qr_scan", "ios": "https://dc.lft.to/lastmile_qr_scan"}, "is_reserved": 0, "is_disabled": 0, "name": "8fbd65e6152d126e70faabb98c2b55f7", "bike_id": "8fbd65e6152d126e70faabb98c2b55f7", "fusion_lat": 0.0, "lon": -77.027877, "type": "electric_scooter", "fusion_lon": 0.0, "lat": 38.8982865}, {"rental_uris": {"android": "https://dc.lft.to/lastmile_qr_scan", "ios": "https://dc.lft.to/lastmile_qr_scan"}, "is_reserved": 0, "is_disabled": 0, "name": "76f4f4e9852c31ce3268d137703902b9", "bike_id": "76f4f4e9852c31ce3268d137703902b9", "fusion_lat": 0.0, "lon": -77.0383775, "type": "electric_scooter", "fusion_lon": 0.0, "lat": 38.90409183333333}, {"rental_uris": {"android": "https://dc.lft.to/lastmile_qr_scan", "ios": "https://dc.lft.to/lastmile_qr_scan"}, "is_reserved": 0, "is_disabled": 0, "name": "929d2a44c1eae3394f20595935c549fa", "bike_id": "929d2a44c1eae3394f20595935c549fa", "fusion_lat": 0.0, "lon": -77.05490983333334, "type": "electric_scooter", "fusion_lon": 0.0, "lat": 38.9084285}, {"rental_uris": {"android": "https://dc.lft.to/lastmile_qr_scan", "ios": "https://dc.lft.to/lastmile_qr_scan"}, "is_reserved": 0, "is_disabled": 0, "name": "842abb244a5c6c079168577cdef45f4f", "bike_id": "842abb244a5c6c079168577cdef45f4f", "fusion_lat": 0.0, "lon": -77.03212933333333, "type": "electric_scooter", "fusion_lon": 0.0, "lat": 38.920645}, {"rental_uris": {"android": "https://dc.lft.to/lastmile_qr_scan", "ios": "https://dc.lft.to/lastmile_qr_scan"}, "is_reserved": 0, "is_disabled": 0, "name": "d77ffeda47c16509aee5714e68347574", "bike_id": "d77ffeda47c16509aee5714e68347574", "fusion_lat": 0.0, "lon": -77.04877816666666, "type": "electric_scooter", "fusion_lon": 0.0, "lat": 38.9102565}, {"rental_uris": {"android": "https://dc.lft.to/lastmile_qr_scan", "ios": "https://dc.lft.to/lastmile_qr_scan"}, "is_reserved": 0, "is_disabled": 0, "name": "5189f963662a8a2319cad0fd0f323c12", "bike_id": "5189f963662a8a2319cad0fd0f323c12", "fusion_lat": 0.0, "lon": -77.0215615, "type": "electric_scooter", "fusion_lon": 0.0, "lat": 38.926044}, {"rental_uris": {"android": "https://dc.lft.to/lastmile_qr_scan", "ios": "https://dc.lft.to/lastmile_qr_scan"}, "is_reserved": 0, "is_disabled": 0, "name": "a505b2142084ade293b15d364e208e43", "bike_id": "a505b2142084ade293b15d364e208e43", "fusion_lat": 0.0, "lon": -77.08721033333333, "type": "electric_bike", "fusion_lon": 0.0, "lat": 38.8624165}, {"rental_uris": {"android": "https://dc.lft.to/lastmile_qr_scan", "ios": "https://dc.lft.to/lastmile_qr_scan"}, "is_reserved": 0, "is_disabled": 0, "name": "1b82019657d6b090a5737507bef9cb03", "bike_id": "1b82019657d6b090a5737507bef9cb03", "fusion_lat": 0.0, "lon": -76.9820765, "type": "electric_bike", "fusion_lon": 0.0, "lat": 38.98508866666667}, {"rental_uris": {"android": "https://dc.lft.to/lastmile_qr_scan", "ios": "https://dc.lft.to/lastmile_qr_scan"}, "is_reserved": 0, "is_disabled": 0, "name": "e237331f8c35e73e59f5980af85139ca", "bike_id": "e237331f8c35e73e59f5980af85139ca", "fusion_lat": 0.0, "lon": -77.02023983333333, "type": "electric_scooter", "fusion_lon": 0.0, "lat": 38.9244905}, {"rental_uris": {"android": "https://dc.lft.to/lastmile_qr_scan", "ios": "https://dc.lft.to/lastmile_qr_scan"}, "is_reserved": 0, "is_disabled": 0, "name": "3afe71fad5977f56d2b7692d4e094ad2", "bike_id": "3afe71fad5977f56d2b7692d4e094ad2", "fusion_lat": 0.0, "lon": -76.92965333333333, "type": "electric_scooter", "fusion_lon": 0.0, "lat": 38.89631966666666}, {"rental_uris": {"android": "https://dc.lft.to/lastmile_qr_scan", "ios": "https://dc.lft.to/lastmile_qr_scan"}, "is_reserved": 0, "is_disabled": 0, "name": "c786697d32f45e20d08cbb88cd7864fa", "bike_id": "c786697d32f45e20d08cbb88cd7864fa", "fusion_lat": 0.0, "lon": -77.00626283333334, "type": "electric_scooter", "fusion_lon": 0.0, "lat": 38.87173666666666}, {"rental_uris": {"android": "https://dc.lft.to/lastmile_qr_scan", "ios": "https://dc.lft.to/lastmile_qr_scan"}, "is_reserved": 0, "is_disabled": 0, "name": "5653b89e66309e1274a11caefe66e9c3", "bike_id": "5653b89e66309e1274a11caefe66e9c3", "fusion_lat": 0.0, "lon": -77.046214, "type": "electric_scooter", "fusion_lon": 0.0, "lat": 38.893567}, {"rental_uris": {"android": "https://dc.lft.to/lastmile_qr_scan", "ios": "https://dc.lft.to/lastmile_qr_scan"}, "is_reserved": 0, "is_disabled": 0, "name": "a4ec17e2339d58520b4b48bc32de5e0f", "bike_id": "a4ec17e2339d58520b4b48bc32de5e0f", "fusion_lat": 0.0, "lon": -77.00167716666667, "type": "electric_bike", "fusion_lon": 0.0, "lat": 38.887559333333336}, {"rental_uris": {"android": "https://dc.lft.to/lastmile_qr_scan", "ios": "https://dc.lft.to/lastmile_qr_scan"}, "is_reserved": 0, "is_disabled": 0, "name": "d47652af36a6eca114d638a0ee5fe30e", "bike_id": "d47652af36a6eca114d638a0ee5fe30e", "fusion_lat": 0.0, "lon": -77.00340466666667, "type": "electric_scooter", "fusion_lon": 0.0, "lat": 38.886372333333334}, {"rental_uris": {"android": "https://dc.lft.to/lastmile_qr_scan", "ios": "https://dc.lft.to/lastmile_qr_scan"}, "is_reserved": 0, "is_disabled": 0, "name": "fecf12064c738704b45954cad0b780a6", "bike_id": "fecf12064c738704b45954cad0b780a6", "fusion_lat": 0.0, "lon": -77.129316, "type": "electric_bike", "fusion_lon": 0.0, "lat": 38.86578}, {"rental_uris": {"android": "https://dc.lft.to/lastmile_qr_scan", "ios": "https://dc.lft.to/lastmile_qr_scan"}, "is_reserved": 0, "is_disabled": 0, "name": "f356a6f4e0309ad2e04e39c24575e3f0", "bike_id": "f356a6f4e0309ad2e04e39c24575e3f0", "fusion_lat": 0.0, "lon": -77.04460983333334, "type": "electric_scooter", "fusion_lon": 0.0, "lat": 38.90271333333333}, {"rental_uris": {"android": "https://dc.lft.to/lastmile_qr_scan", "ios": "https://dc.lft.to/lastmile_qr_scan"}, "is_reserved": 0, "is_disabled": 0, "name": "bd409a62bf12488496ff6d8de1632c3f", "bike_id": "bd409a62bf12488496ff6d8de1632c3f", "fusion_lat": 0.0, "lon": -77.0290375, "type": "electric_scooter", "fusion_lon": 0.0, "lat": 38.89994433333333}, {"rental_uris": {"android": "https://dc.lft.to/lastmile_qr_scan", "ios": "https://dc.lft.to/lastmile_qr_scan"}, "is_reserved": 0, "is_disabled": 0, "name": "e93e8b974ef3d2211a06e363f000f53b", "bike_id": "e93e8b974ef3d2211a06e363f000f53b", "fusion_lat": 0.0, "lon": -77.027834, "type": "electric_scooter", "fusion_lon": 0.0, "lat": 38.929550166666665}, {"rental_uris": {"android": "https://dc.lft.to/lastmile_qr_scan", "ios": "https://dc.lft.to/lastmile_qr_scan"}, "is_reserved": 0, "is_disabled": 0, "name": "019fc07c50312c9b9ea05363bb1a8199", "bike_id": "019fc07c50312c9b9ea05363bb1a8199", "fusion_lat": 0.0, "lon": -77.03336416666667, "type": "electric_scooter", "fusion_lon": 0.0, "lat": 38.90249033333333}, {"rental_uris": {"android": "https://dc.lft.to/lastmile_qr_scan", "ios": "https://dc.lft.to/lastmile_qr_scan"}, "is_reserved": 0, "is_disabled": 0, "name": "2e4f4ef1d5b4e3e82fcc0a0049d12da6", "bike_id": "2e4f4ef1d5b4e3e82fcc0a0049d12da6", "fusion_lat": 0.0, "lon": -77.0272535, "type": "electric_scooter", "fusion_lon": 0.0, "lat": 38.8986545}, {"rental_uris": {"android": "https://dc.lft.to/lastmile_qr_scan", "ios": "https://dc.lft.to/lastmile_qr_scan"}, "is_reserved": 0, "is_disabled": 0, "name": "f51837fa11123e94e13ca4dcf6925db0", "bike_id": "f51837fa11123e94e13ca4dcf6925db0", "fusion_lat": 0.0, "lon": -76.99473633333334, "type": "electric_scooter", "fusion_lon": 0.0, "lat": 38.86235516666667}, {"rental_uris": {"android": "https://dc.lft.to/lastmile_qr_scan", "ios": "https://dc.lft.to/lastmile_qr_scan"}, "is_reserved": 0, "is_disabled": 0, "name": "06fc168048ef52453372f788be6d7162", "bike_id": "06fc168048ef52453372f788be6d7162", "fusion_lat": 0.0, "lon": -77.0167105, "type": "electric_scooter", "fusion_lon": 0.0, "lat": 38.92042466666667}, {"rental_uris": {"android": "https://dc.lft.to/lastmile_qr_scan", "ios": "https://dc.lft.to/lastmile_qr_scan"}, "is_reserved": 0, "is_disabled": 0, "name": "45c6c19925e1a61523b4331f32bd93a4", "bike_id": "45c6c19925e1a61523b4331f32bd93a4", "fusion_lat": 0.0, "lon": -77.04497533333333, "type": "electric_scooter", "fusion_lon": 0.0, "lat": 38.90006266666666}, {"rental_uris": {"android": "https://dc.lft.to/lastmile_qr_scan", "ios": "https://dc.lft.to/lastmile_qr_scan"}, "is_reserved": 0, "is_disabled": 0, "name": "7f5d885c5c4815bcee276a3da7ab9c6a", "bike_id": "7f5d885c5c4815bcee276a3da7ab9c6a", "fusion_lat": 0.0, "lon": -76.99573216666667, "type": "electric_scooter", "fusion_lon": 0.0, "lat": 38.9003}, {"rental_uris": {"android": "https://dc.lft.to/lastmile_qr_scan", "ios": "https://dc.lft.to/lastmile_qr_scan"}, "is_reserved": 0, "is_disabled": 0, "name": "282bad9a76825b41783d457e53342867", "bike_id": "282bad9a76825b41783d457e53342867", "fusion_lat": 0.0, "lon": -77.0041465, "type": "electric_bike", "fusion_lon": 0.0, "lat": 38.98522166666667}, {"rental_uris": {"android": "https://dc.lft.to/lastmile_qr_scan", "ios": "https://dc.lft.to/lastmile_qr_scan"}, "is_reserved": 0, "is_disabled": 0, "name": "3a6c620d25ecdab6478b90c0551d756c", "bike_id": "3a6c620d25ecdab6478b90c0551d756c", "fusion_lat": 0.0, "lon": -77.02483266666667, "type": "electric_scooter", "fusion_lon": 0.0, "lat": 38.90169383333333}, {"rental_uris": {"android": "https://dc.lft.to/lastmile_qr_scan", "ios": "https://dc.lft.to/lastmile_qr_scan"}, "is_reserved": 0, "is_disabled": 0, "name": "b5573558cdd77d75142cd3549159a638", "bike_id": "b5573558cdd77d75142cd3549159a638", "fusion_lat": 0.0, "lon": -77.02073716666666, "type": "electric_scooter", "fusion_lon": 0.0, "lat": 38.926983166666666}, {"rental_uris": {"android": "https://dc.lft.to/lastmile_qr_scan", "ios": "https://dc.lft.to/lastmile_qr_scan"}, "is_reserved": 0, "is_disabled": 0, "name": "4d0c2f84beb9b1677e21fa4dec56e0b1", "bike_id": "4d0c2f84beb9b1677e21fa4dec56e0b1", "fusion_lat": 0.0, "lon": -77.0215895, "type": "electric_scooter", "fusion_lon": 0.0, "lat": 38.9260705}, {"rental_uris": {"android": "https://dc.lft.to/lastmile_qr_scan", "ios": "https://dc.lft.to/lastmile_qr_scan"}, "is_reserved": 0, "is_disabled": 0, "name": "8fa76c6c7880c59488f1c442b9144202", "bike_id": "8fa76c6c7880c59488f1c442b9144202", "fusion_lat": 0.0, "lon": -77.04681416666666, "type": "electric_scooter", "fusion_lon": 0.0, "lat": 38.89963}, {"rental_uris": {"android": "https://dc.lft.to/lastmile_qr_scan", "ios": "https://dc.lft.to/lastmile_qr_scan"}, "is_reserved": 0, "is_disabled": 0, "name": "da24cedae6b8d5189d351f6d3e1c791f", "bike_id": "da24cedae6b8d5189d351f6d3e1c791f", "fusion_lat": 0.0, "lon": -76.99909516666666, "type": "electric_bike", "fusion_lon": 0.0, "lat": 38.86447916666667}, {"rental_uris": {"android": "https://dc.lft.to/lastmile_qr_scan", "ios": "https://dc.lft.to/lastmile_qr_scan"}, "is_reserved": 0, "is_disabled": 0, "name": "6d00379af448b73d57eee0a8052eda27", "bike_id": "6d00379af448b73d57eee0a8052eda27", "fusion_lat": 0.0, "lon": -76.930169, "type": "electric_scooter", "fusion_lon": 0.0, "lat": 38.901339}, {"rental_uris": {"android": "https://dc.lft.to/lastmile_qr_scan", "ios": "https://dc.lft.to/lastmile_qr_scan"}, "is_reserved": 0, "is_disabled": 0, "name": "0775f86045db482bd372fe9c670a06b7", "bike_id": "0775f86045db482bd372fe9c670a06b7", "fusion_lat": 0.0, "lon": -77.01962216666666, "type": "electric_scooter", "fusion_lon": 0.0, "lat": 38.93425466666667}, {"rental_uris": {"android": "https://dc.lft.to/lastmile_qr_scan", "ios": "https://dc.lft.to/lastmile_qr_scan"}, "is_reserved": 0, "is_disabled": 0, "name": "0054b8668fb667c41b8ee4580dead374", "bike_id": "0054b8668fb667c41b8ee4580dead374", "fusion_lat": 0.0, "lon": -77.01946083333333, "type": "electric_scooter", "fusion_lon": 0.0, "lat": 38.92423}, {"rental_uris": {"android": "https://dc.lft.to/lastmile_qr_scan", "ios": "https://dc.lft.to/lastmile_qr_scan"}, "is_reserved": 0, "is_disabled": 0, "name": "aff61b2131d320a0ba72ee39f911ba89", "bike_id": "aff61b2131d320a0ba72ee39f911ba89", "fusion_lat": 0.0, "lon": -77.05904633333333, "type": "electric_scooter", "fusion_lon": 0.0, "lat": 38.9289655}, {"rental_uris": {"android": "https://dc.lft.to/lastmile_qr_scan", "ios": "https://dc.lft.to/lastmile_qr_scan"}, "is_reserved": 0, "is_disabled": 0, "name": "bd2e20b47d8f13fc8b887e573cfc6476", "bike_id": "bd2e20b47d8f13fc8b887e573cfc6476", "fusion_lat": 0.0, "lon": -77.02610533333333, "type": "electric_scooter", "fusion_lon": 0.0, "lat": 38.95182333333333}, {"rental_uris": {"android": "https://dc.lft.to/lastmile_qr_scan", "ios": "https://dc.lft.to/lastmile_qr_scan"}, "is_reserved": 0, "is_disabled": 0, "name": "3a5eaa49ff2b93150b110deb1849434c", "bike_id": "3a5eaa49ff2b93150b110deb1849434c", "fusion_lat": 0.0, "lon": -77.01629666666666, "type": "electric_scooter", "fusion_lon": 0.0, "lat": 38.900595333333335}, {"rental_uris": {"android": "https://dc.lft.to/lastmile_qr_scan", "ios": "https://dc.lft.to/lastmile_qr_scan"}, "is_reserved": 0, "is_disabled": 0, "name": "2f01e4341c85d003cdbea9400ba3820f", "bike_id": "2f01e4341c85d003cdbea9400ba3820f", "fusion_lat": 0.0, "lon": -77.0328145, "type": "electric_scooter", "fusion_lon": 0.0, "lat": 38.93252283333333}, {"rental_uris": {"android": "https://dc.lft.to/lastmile_qr_scan", "ios": "https://dc.lft.to/lastmile_qr_scan"}, "is_reserved": 0, "is_disabled": 0, "name": "91c9ab0773e7aa2ffa112a89f428c0a4", "bike_id": "91c9ab0773e7aa2ffa112a89f428c0a4", "fusion_lat": 0.0, "lon": -77.03305533333334, "type": "electric_scooter", "fusion_lon": 0.0, "lat": 38.92746916666667}, {"rental_uris": {"android": "https://dc.lft.to/lastmile_qr_scan", "ios": "https://dc.lft.to/lastmile_qr_scan"}, "is_reserved": 0, "is_disabled": 0, "name": "5a07f67d8c6505152e1dec70d216f36a", "bike_id": "5a07f67d8c6505152e1dec70d216f36a", "fusion_lat": 0.0, "lon": -77.0622745, "type": "electric_scooter", "fusion_lon": 0.0, "lat": 38.91152133333333}, {"rental_uris": {"android": "https://dc.lft.to/lastmile_qr_scan", "ios": "https://dc.lft.to/lastmile_qr_scan"}, "is_reserved": 0, "is_disabled": 0, "name": "fc708be186a59a7e81624e419f537c5d", "bike_id": "fc708be186a59a7e81624e419f537c5d", "fusion_lat": 0.0, "lon": -76.987443, "type": "electric_scooter", "fusion_lon": 0.0, "lat": 38.879618}, {"rental_uris": {"android": "https://dc.lft.to/lastmile_qr_scan", "ios": "https://dc.lft.to/lastmile_qr_scan"}, "is_reserved": 0, "is_disabled": 0, "name": "8c034a607555f9fc42bfa5cb658ff18b", "bike_id": "8c034a607555f9fc42bfa5cb658ff18b", "fusion_lat": 0.0, "lon": -77.0358455, "type": "electric_bike", "fusion_lon": 0.0, "lat": 38.992272166666666}, {"rental_uris": {"android": "https://dc.lft.to/lastmile_qr_scan", "ios": "https://dc.lft.to/lastmile_qr_scan"},