{"data": {"bikes": [{"rental_uris": {"ios": "https://dc.lft.to/lastmile_qr_scan", "android": "https://dc.lft.to/lastmile_qr_scan"}, "fusion_lat": 0.0, "name": "1ed749a2161db019f3a70fe6e77b1cd2", "bike_id": "1ed749a2161db019f3a70fe6e77b1cd2", "is_disabled": 0, "type": "electric_scooter", "lat": 38.917038833333336, "lon": -77.036702, "is_reserved": 0, "fusion_lon": 0.0}, {"rental_uris": {"ios": "https://dc.lft.to/lastmile_qr_scan", "android": "https://dc.lft.to/lastmile_qr_scan"}, "fusion_lat": 0.0, "name": "4d863dd330e45284eba58e98409cb5d7", "bike_id": "4d863dd330e45284eba58e98409cb5d7", "is_disabled": 0, "type": "electric_scooter", "lat": 38.93154333333333, "lon": -77.01868116666667, "is_reserved": 0, "fusion_lon": 0.0}, {"rental_uris": {"ios": "https://dc.lft.to/lastmile_qr_scan", "android": "https://dc.lft.to/lastmile_qr_scan"}, "fusion_lat": 0.0, "name": "5823f0b601df70b71abeeca003e3e924", "bike_id": "5823f0b601df70b71abeeca003e3e924", "is_disabled": 0, "type": "electric_scooter", "lat": 38.902569, "lon": -77.0284355, "is_reserved": 0, "fusion_lon": 0.0}, {"rental_uris": {"ios": "https://dc.lft.to/lastmile_qr_scan", "android": "https://dc.lft.to/lastmile_qr_scan"}, "fusion_lat": 0.0, "name": "3b8f0b7ef8286f4b981f95e276853668", "bike_id": "3b8f0b7ef8286f4b981f95e276853668", "is_disabled": 0, "type": "electric_scooter", "lat": 38.934283, "lon": -77.05768416666666, "is_reserved": 0, "fusion_lon": 0.0}, {"rental_uris": {"ios": "https://dc.lft.to/lastmile_qr_scan", "android": "https://dc.lft.to/lastmile_qr_scan"}, "fusion_lat": 0.0, "name": "df886b3760f889d2f47176236a046373", "bike_id": "df886b3760f889d2f47176236a046373", "is_disabled": 0, "type": "electric_scooter", "lat": 38.8921965, "lon": -77.04803916666667, "is_reserved": 0, "fusion_lon": 0.0}, {"rental_uris": {"ios": "https://dc.lft.to/lastmile_qr_scan", "android": "https://dc.lft.to/lastmile_qr_scan"}, "fusion_lat": 0.0, "name": "05ddb3c4d414f2525a86a0f26a116920", "bike_id": "05ddb3c4d414f2525a86a0f26a116920", "is_disabled": 0, "type": "electric_scooter", "lat": 38.881302833333336, "lon": -76.933027, "is_reserved": 0, "fusion_lon": 0.0}, {"rental_uris": {"ios": "https://dc.lft.to/lastmile_qr_scan", "android": "https://dc.lft.to/lastmile_qr_scan"}, "fusion_lat": 0.0, "name": "91629d4fd08b86c49f2675d47110a7fc", "bike_id": "91629d4fd08b86c49f2675d47110a7fc", "is_disabled": 0, "type": "electric_bike", "lat": 38.972253333333335, "lon": -76.99344733333334, "is_reserved": 0, "fusion_lon": 0.0}, {"rental_uris": {"ios": "https://dc.lft.to/lastmile_qr_scan", "android": "https://dc.lft.to/lastmile_qr_scan"}, "fusion_lat": 0.0, "name": "814b3e5a612ea99605562d93c494b33c", "bike_id": "814b3e5a612ea99605562d93c494b33c", "is_disabled": 0, "type": "electric_scooter", "lat": 38.93967966666666, "lon": -77.03256883333333, "is_reserved": 0, "fusion_lon": 0.0}, {"rental_uris": {"ios": "https://dc.lft.to/lastmile_qr_scan", "android": "https://dc.lft.to/lastmile_qr_scan"}, "fusion_lat": 0.0, "name": "163fe478373ec9791e1787dcbf4e5817", "bike_id": "163fe478373ec9791e1787dcbf4e5817", "is_disabled": 0, "type": "electric_scooter", "lat": 38.85428133333333, "lon": -76.97172683333334, "is_reserved": 0, "fusion_lon": 0.0}, {"rental_uris": {"ios": "https://dc.lft.to/lastmile_qr_scan", "android": "https://dc.lft.to/lastmile_qr_scan"}, "fusion_lat": 0.0, "name": "bb8ceaba98c8c8d8d2e58c38d92b6a8b", "bike_id": "bb8ceaba98c8c8d8d2e58c38d92b6a8b", "is_disabled": 0, "type": "electric_scooter", "lat": 38.883642, "lon": -76.99503083333333, "is_reserved": 0, "fusion_lon": 0.0}, {"rental_uris": {"ios": "https://dc.lft.to/lastmile_qr_scan", "android": "https://dc.lft.to/lastmile_qr_scan"}, "fusion_lat": 0.0, "name": "ede383bd4527f069da85e557decc9db0", "bike_id": "ede383bd4527f069da85e557decc9db0", "is_disabled": 0, "type": "electric_scooter", "lat": 38.91842416666667, "lon": -77.021968, "is_reserved": 0, "fusion_lon": 0.0}, {"rental_uris": {"ios": "https://dc.lft.to/lastmile_qr_scan", "android": "https://dc.lft.to/lastmile_qr_scan"}, "fusion_lat": 0.0, "name": "8f56839fc3f3ace7d840c6ab6869a0c7", "bike_id": "8f56839fc3f3ace7d840c6ab6869a0c7", "is_disabled": 0, "type": "electric_scooter", "lat": 38.9083215, "lon": -76.99677566666666, "is_reserved": 0, "fusion_lon": 0.0}, {"rental_uris": {"ios": "https://dc.lft.to/lastmile_qr_scan", "android": "https://dc.lft.to/lastmile_qr_scan"}, "fusion_lat": 0.0, "name": "67b0324353cdd92e1370de5b0cfe9eff", "bike_id": "67b0324353cdd92e1370de5b0cfe9eff", "is_disabled": 0, "type": "electric_scooter", "lat": 38.932037666666666, "lon": -77.03851883333333, "is_reserved": 0, "fusion_lon": 0.0}, {"rental_uris": {"ios": "https://dc.lft.to/lastmile_qr_scan", "android": "https://dc.lft.to/lastmile_qr_scan"}, "fusion_lat": 0.0, "name": "4d82996060d157d9a2995425588ddf80", "bike_id": "4d82996060d157d9a2995425588ddf80", "is_disabled": 0, "type": "electric_scooter", "lat": 38.928076, "lon": -77.053957, "is_reserved": 0, "fusion_lon": 0.0}, {"rental_uris": {"ios": "https://dc.lft.to/lastmile_qr_scan", "android": "https://dc.lft.to/lastmile_qr_scan"}, "fusion_lat": 0.0, "name": "ae1e537992428c4f0d026d1158990731", "bike_id": "ae1e537992428c4f0d026d1158990731", "is_disabled": 0, "type": "electric_scooter", "lat": 38.909419166666666, "lon": -77.05933983333334, "is_reserved": 0, "fusion_lon": 0.0}, {"rental_uris": {"ios": "https://dc.lft.to/lastmile_qr_scan", "android": "https://dc.lft.to/lastmile_qr_scan"}, "fusion_lat": 0.0, "name": "f8dc32e2f9193a600b2327db342e1fd8", "bike_id": "f8dc32e2f9193a600b2327db342e1fd8", "is_disabled": 0, "type": "electric_scooter", "lat": 38.917126833333334, "lon": -77.03883716666667, "is_reserved": 0, "fusion_lon": 0.0}, {"rental_uris": {"ios": "https://dc.lft.to/lastmile_qr_scan", "android": "https://dc.lft.to/lastmile_qr_scan"}, "fusion_lat": 0.0, "name": "b7f813d4b5105e2821876e5755ac8bf6", "bike_id": "b7f813d4b5105e2821876e5755ac8bf6", "is_disabled": 0, "type": "electric_scooter", "lat": 38.91800283333333, "lon": -77.03132183333334, "is_reserved": 0, "fusion_lon": 0.0}, {"rental_uris": {"ios": "https://dc.lft.to/lastmile_qr_scan", "android": "https://dc.lft.to/lastmile_qr_scan"}, "fusion_lat": 0.0, "name": "01299dfdfff104fa4d60d588e3ac1857", "bike_id": "01299dfdfff104fa4d60d588e3ac1857", "is_disabled": 0, "type": "electric_scooter", "lat": 38.907222166666664, "lon": -77.0331045, "is_reserved": 0, "fusion_lon": 0.0}, {"rental_uris": {"ios": "https://dc.lft.to/lastmile_qr_scan", "android": "https://dc.lft.to/lastmile_qr_scan"}, "fusion_lat": 0.0, "name": "ba1e13a338972692f31b7c487311bfb4", "bike_id": "ba1e13a338972692f31b7c487311bfb4", "is_disabled": 0, "type": "electric_scooter", "lat": 38.918554, "lon": -77.04172033333333, "is_reserved": 0, "fusion_lon": 0.0}, {"rental_uris": {"ios": "https://dc.lft.to/lastmile_qr_scan", "android": "https://dc.lft.to/lastmile_qr_scan"}, "fusion_lat": 0.0, "name": "530a9b6f44de0f67d04347a48ffe6403", "bike_id": "530a9b6f44de0f67d04347a48ffe6403", "is_disabled": 0, "type": "electric_scooter", "lat": 38.893490666666665, "lon": -77.04139683333334, "is_reserved": 0, "fusion_lon": 0.0}, {"rental_uris": {"ios": "https://dc.lft.to/lastmile_qr_scan", "android": "https://dc.lft.to/lastmile_qr_scan"}, "fusion_lat": 0.0, "name": "d0b0efce9ecba7469b044853fb40738b", "bike_id": "d0b0efce9ecba7469b044853fb40738b", "is_disabled": 0, "type": "electric_scooter", "lat": 38.933496, "lon": -77.08585116666667, "is_reserved": 0, "fusion_lon": 0.0}, {"rental_uris": {"ios": "https://dc.lft.to/lastmile_qr_scan", "android": "https://dc.lft.to/lastmile_qr_scan"}, "fusion_lat": 0.0, "name": "b8ba5f033b4fe518766b1603429f87f5", "bike_id": "b8ba5f033b4fe518766b1603429f87f5", "is_disabled": 0, "type": "electric_scooter", "lat": 38.90035066666667, "lon": -76.99383166666667, "is_reserved": 0, "fusion_lon": 0.0}, {"rental_uris": {"ios": "https://dc.lft.to/lastmile_qr_scan", "android": "https://dc.lft.to/lastmile_qr_scan"}, "fusion_lat": 0.0, "name": "68544b262f4a295be5f574c7cb0ebc03", "bike_id": "68544b262f4a295be5f574c7cb0ebc03", "is_disabled": 0, "type": "electric_scooter", "lat": 38.89213383333333, "lon": -77.03176483333333, "is_reserved": 0, "fusion_lon": 0.0}, {"rental_uris": {"ios": "https://dc.lft.to/lastmile_qr_scan", "android": "https://dc.lft.to/lastmile_qr_scan"}, "fusion_lat": 0.0, "name": "0e2d5e8479e1a03c25adfedafc2e49c9", "bike_id": "0e2d5e8479e1a03c25adfedafc2e49c9", "is_disabled": 0, "type": "electric_scooter", "lat": 38.91808066666667, "lon": -77.03182816666667, "is_reserved": 0, "fusion_lon": 0.0}, {"rental_uris": {"ios": "https://dc.lft.to/lastmile_qr_scan", "android": "https://dc.lft.to/lastmile_qr_scan"}, "fusion_lat": 0.0, "name": "1768a1c7540b772f21f6ebe7463b709e", "bike_id": "1768a1c7540b772f21f6ebe7463b709e", "is_disabled": 0, "type": "electric_scooter", "lat": 38.93509866666667, "lon": -77.03272233333334, "is_reserved": 0, "fusion_lon": 0.0}, {"rental_uris": {"ios": "https://dc.lft.to/lastmile_qr_scan", "android": "https://dc.lft.to/lastmile_qr_scan"}, "fusion_lat": 0.0, "name": "70531ed7529d92b5bab5723bb187f6f5", "bike_id": "70531ed7529d92b5bab5723bb187f6f5", "is_disabled": 0, "type": "electric_scooter", "lat": 38.84432483333333, "lon": -76.9970725, "is_reserved": 0, "fusion_lon": 0.0}, {"rental_uris": {"ios": "https://dc.lft.to/lastmile_qr_scan", "android": "https://dc.lft.to/lastmile_qr_scan"}, "fusion_lat": 0.0, "name": "7c7dc024bc177ab5ca681d096c501b9a", "bike_id": "7c7dc024bc177ab5ca681d096c501b9a", "is_disabled": 0, "type": "electric_scooter", "lat": 38.937764666666666, "lon": -77.032624, "is_reserved": 0, "fusion_lon": 0.0}, {"rental_uris": {"ios": "https://dc.lft.to/lastmile_qr_scan", "android": "https://dc.lft.to/lastmile_qr_scan"}, "fusion_lat": 0.0, "name": "acc2a2904f7140022b4e5eefff67e875", "bike_id": "acc2a2904f7140022b4e5eefff67e875", "is_disabled": 0, "type": "electric_scooter", "lat": 38.90055516666666, "lon": -77.00759783333334, "is_reserved": 0, "fusion_lon": 0.0}, {"rental_uris": {"ios": "https://dc.lft.to/lastmile_qr_scan", "android": "https://dc.lft.to/lastmile_qr_scan"}, "fusion_lat": 0.0, "name": "4087fabd64bce87200e93dfe88fd6082", "bike_id": "4087fabd64bce87200e93dfe88fd6082", "is_disabled": 0, "type": "electric_scooter", "lat": 38.8922235, "lon": -77.04335066666667, "is_reserved": 0, "fusion_lon": 0.0}, {"rental_uris": {"ios": "https://dc.lft.to/lastmile_qr_scan", "android": "https://dc.lft.to/lastmile_qr_scan"}, "fusion_lat": 0.0, "name": "35afb72c74b39a0bd247631be08798f9", "bike_id": "35afb72c74b39a0bd247631be08798f9", "is_disabled": 0, "type": "electric_scooter", "lat": 38.9102895, "lon": -77.04833316666667, "is_reserved": 0, "fusion_lon": 0.0}, {"rental_uris": {"ios": "https://dc.lft.to/lastmile_qr_scan", "android": "https://dc.lft.to/lastmile_qr_scan"}, "fusion_lat": 0.0, "name": "aa818a69ce6b836e1e680f078eed1195", "bike_id": "aa818a69ce6b836e1e680f078eed1195", "is_disabled": 0, "type": "electric_scooter", "lat": 38.96667, "lon": -77.0215835, "is_reserved": 0, "fusion_lon": 0.0}, {"rental_uris": {"ios": "https://dc.lft.to/lastmile_qr_scan", "android": "https://dc.lft.to/lastmile_qr_scan"}, "fusion_lat": 0.0, "name": "ba7413be1dd9ca28c6ada1f29ba8f949", "bike_id": "ba7413be1dd9ca28c6ada1f29ba8f949", "is_disabled": 0, "type": "electric_scooter", "lat": 38.91430166666667, "lon": -77.02808783333333, "is_reserved": 0, "fusion_lon": 0.0}, {"rental_uris": {"ios": "https://dc.lft.to/lastmile_qr_scan", "android": "https://dc.lft.to/lastmile_qr_scan"}, "fusion_lat": 0.0, "name": "ca72dab2beb6eb6b55568f6c2c8458da", "bike_id": "ca72dab2beb6eb6b55568f6c2c8458da", "is_disabled": 0, "type": "electric_scooter", "lat": 38.91691566666667, "lon": -77.02599466666666, "is_reserved": 0, "fusion_lon": 0.0}, {"rental_uris": {"ios": "https://dc.lft.to/lastmile_qr_scan", "android": "https://dc.lft.to/lastmile_qr_scan"}, "fusion_lat": 0.0, "name": "1348b8af1c199281df0de106c2a1c52f", "bike_id": "1348b8af1c199281df0de106c2a1c52f", "is_disabled": 0, "type": "electric_scooter", "lat": 38.866945, "lon": -76.980822, "is_reserved": 0, "fusion_lon": 0.0}, {"rental_uris": {"ios": "https://dc.lft.to/lastmile_qr_scan", "android": "https://dc.lft.to/lastmile_qr_scan"}, "fusion_lat": 0.0, "name": "ac11bc70ed6894f2e9d1f989bf0e8daa", "bike_id": "ac11bc70ed6894f2e9d1f989bf0e8daa", "is_disabled": 0, "type": "electric_scooter", "lat": 38.88136866666667, "lon": -77.016524, "is_reserved": 0, "fusion_lon": 0.0}, {"rental_uris": {"ios": "https://dc.lft.to/lastmile_qr_scan", "android": "https://dc.lft.to/lastmile_qr_scan"}, "fusion_lat": 0.0, "name": "eef558bf037d4423972d601985f058df", "bike_id": "eef558bf037d4423972d601985f058df", "is_disabled": 0, "type": "electric_scooter", "lat": 38.92576283333333, "lon": -77.02567833333333, "is_reserved": 0, "fusion_lon": 0.0}, {"rental_uris": {"ios": "https://dc.lft.to/lastmile_qr_scan", "android": "https://dc.lft.to/lastmile_qr_scan"}, "fusion_lat": 0.0, "name": "c02f313fb8acf7c825a7d27bceff816d", "bike_id": "c02f313fb8acf7c825a7d27bceff816d", "is_disabled": 0, "type": "electric_scooter", "lat": 38.92698683333333, "lon": -77.05232016666666, "is_reserved": 0, "fusion_lon": 0.0}, {"rental_uris": {"ios": "https://dc.lft.to/lastmile_qr_scan", "android": "https://dc.lft.to/lastmile_qr_scan"}, "fusion_lat": 0.0, "name": "ee7b12a8bb41ea50840213688aa31d58", "bike_id": "ee7b12a8bb41ea50840213688aa31d58", "is_disabled": 0, "type": "electric_scooter", "lat": 38.870800833333334, "lon": -76.96863816666666, "is_reserved": 0, "fusion_lon": 0.0}, {"rental_uris": {"ios": "https://dc.lft.to/lastmile_qr_scan", "android": "https://dc.lft.to/lastmile_qr_scan"}, "fusion_lat": 0.0, "name": "1e24ef3b52329c83ca5c52c16361a66f", "bike_id": "1e24ef3b52329c83ca5c52c16361a66f", "is_disabled": 0, "type": "electric_scooter", "lat": 38.908527, "lon": -77.04614333333333, "is_reserved": 0, "fusion_lon": 0.0}, {"rental_uris": {"ios": "https://dc.lft.to/lastmile_qr_scan", "android": "https://dc.lft.to/lastmile_qr_scan"}, "fusion_lat": 0.0, "name": "0966aafd4570865ac5634807986fedd3", "bike_id": "0966aafd4570865ac5634807986fedd3", "is_disabled": 0, "type": "electric_scooter", "lat": 38.863611166666665, "lon": -76.99058466666666, "is_reserved": 0, "fusion_lon": 0.0}, {"rental_uris": {"ios": "https://dc.lft.to/lastmile_qr_scan", "android": "https://dc.lft.to/lastmile_qr_scan"}, "fusion_lat": 0.0, "name": "ca65ba80b43335211df6148f24690ff1", "bike_id": "ca65ba80b43335211df6148f24690ff1", "is_disabled": 0, "type": "electric_scooter", "lat": 38.862398666666664, "lon": -76.99491733333333, "is_reserved": 0, "fusion_lon": 0.0}, {"rental_uris": {"ios": "https://dc.lft.to/lastmile_qr_scan", "android": "https://dc.lft.to/lastmile_qr_scan"}, "fusion_lat": 0.0, "name": "36bca4ea2790e83130b4dcf50c60ca40", "bike_id": "36bca4ea2790e83130b4dcf50c60ca40", "is_disabled": 0, "type": "electric_scooter", "lat": 38.844294833333336, "lon": -76.99780766666666, "is_reserved": 0, "fusion_lon": 0.0}, {"rental_uris": {"ios": "https://dc.lft.to/lastmile_qr_scan", "android": "https://dc.lft.to/lastmile_qr_scan"}, "fusion_lat": 0.0, "name": "92ead9a4f574b7df349858d47b3a6774", "bike_id": "92ead9a4f574b7df349858d47b3a6774", "is_disabled": 0, "type": "electric_scooter", "lat": 38.9168395, "lon": -77.02966666666667, "is_reserved": 0, "fusion_lon": 0.0}, {"rental_uris": {"ios": "https://dc.lft.to/lastmile_qr_scan", "android": "https://dc.lft.to/lastmile_qr_scan"}, "fusion_lat": 0.0, "name": "0998719c15c884d2e72b16759be42269", "bike_id": "0998719c15c884d2e72b16759be42269", "is_disabled": 0, "type": "electric_scooter", "lat": 38.914150666666664, "lon": -77.03997683333333, "is_reserved": 0, "fusion_lon": 0.0}, {"rental_uris": {"ios": "https://dc.lft.to/lastmile_qr_scan", "android": "https://dc.lft.to/lastmile_qr_scan"}, "fusion_lat": 0.0, "name": "58f55b2d7e5b915c2c9253467556d7d1", "bike_id": "58f55b2d7e5b915c2c9253467556d7d1", "is_disabled": 0, "type": "electric_scooter", "lat": 38.895461166666664, "lon": -77.0219555, "is_reserved": 0, "fusion_lon": 0.0}, {"rental_uris": {"ios": "https://dc.lft.to/lastmile_qr_scan", "android": "https://dc.lft.to/lastmile_qr_scan"}, "fusion_lat": 0.0, "name": "5d8882ed8466d7e479c1151c480a73df", "bike_id": "5d8882ed8466d7e479c1151c480a73df", "is_disabled": 0, "type": "electric_scooter", "lat": 38.92336233333333, "lon": -77.05052316666666, "is_reserved": 0, "fusion_lon": 0.0}, {"rental_uris": {"ios": "https://dc.lft.to/lastmile_qr_scan", "android": "https://dc.lft.to/lastmile_qr_scan"}, "fusion_lat": 0.0, "name": "69aa69090cc6f3ab6726a2fbd33cac10", "bike_id": "69aa69090cc6f3ab6726a2fbd33cac10", "is_disabled": 0, "type": "electric_scooter", "lat": 38.88504066666667, "lon": -77.015857, "is_reserved": 0, "fusion_lon": 0.0}, {"rental_uris": {"ios": "https://dc.lft.to/lastmile_qr_scan", "android": "https://dc.lft.to/lastmile_qr_scan"}, "fusion_lat": 0.0, "name": "58f95fca6851e189a4d2f6a67662ac42", "bike_id": "58f95fca6851e189a4d2f6a67662ac42", "is_disabled": 0, "type": "electric_scooter", "lat": 38.89223883333333, "lon": -77.0234665, "is_reserved": 0, "fusion_lon": 0.0}, {"rental_uris": {"ios": "https://dc.lft.to/lastmile_qr_scan", "android": "https://dc.lft.to/lastmile_qr_scan"}, "fusion_lat": 0.0, "name": "95d6f32d3c15da99177086924ce9877a", "bike_id": "95d6f32d3c15da99177086924ce9877a", "is_disabled": 0, "type": "electric_bike", "lat": 38.87372166666667, "lon": -76.97169116666667, "is_reserved": 0, "fusion_lon": 0.0}, {"rental_uris": {"ios": "https://dc.lft.to/lastmile_qr_scan", "android": "https://dc.lft.to/lastmile_qr_scan"}, "fusion_lat": 0.0, "name": "6b789d94f3fc2a791888b408f94b669b", "bike_id": "6b789d94f3fc2a791888b408f94b669b", "is_disabled": 0, "type": "electric_scooter", "lat": 38.89877416666667, "lon": -77.04349916666666, "is_reserved": 0, "fusion_lon": 0.0}, {"rental_uris": {"ios": "https://dc.lft.to/lastmile_qr_scan", "android": "https://dc.lft.to/lastmile_qr_scan"}, "fusion_lat": 0.0, "name": "eb89b3f856a2d65e6994ef91eb96db14", "bike_id": "eb89b3f856a2d65e6994ef91eb96db14", "is_disabled": 0, "type": "electric_scooter", "lat": 38.903616, "lon": -77.03867283333334, "is_reserved": 0, "fusion_lon": 0.0}, {"rental_uris": {"ios": "https://dc.lft.to/lastmile_qr_scan", "android": "https://dc.lft.to/lastmile_qr_scan"}, "fusion_lat": 0.0, "name": "0818d4860d28c23517eccab19cd06c38", "bike_id": "0818d4860d28c23517eccab19cd06c38", "is_disabled": 0, "type": "electric_scooter", "lat": 38.868286499999996, "lon": -76.977436, "is_reserved": 0, "fusion_lon": 0.0}, {"rental_uris": {"ios": "https://dc.lft.to/lastmile_qr_scan", "android": "https://dc.lft.to/lastmile_qr_scan"}, "fusion_lat": 0.0, "name": "6d03a6696a4bd8fee8f76bc6a2641059", "bike_id": "6d03a6696a4bd8fee8f76bc6a2641059", "is_disabled": 0, "type": "electric_scooter", "lat": 38.91133466666667, "lon": -77.0268985, "is_reserved": 0, "fusion_lon": 0.0}, {"rental_uris": {"ios": "https://dc.lft.to/lastmile_qr_scan", "android": "https://dc.lft.to/lastmile_qr_scan"}, "fusion_lat": 0.0, "name": "eadc0d4fa679649668c23d28003d1f2a", "bike_id": "eadc0d4fa679649668c23d28003d1f2a", "is_disabled": 0, "type": "electric_scooter", "lat": 38.90065, "lon": -77.05076533333333, "is_reserved": 0, "fusion_lon": 0.0}, {"rental_uris": {"ios": "https://dc.lft.to/lastmile_qr_scan", "android": "https://dc.lft.to/lastmile_qr_scan"}, "fusion_lat": 0.0, "name": "2ab8589b8b77899c828f23f538115e30", "bike_id": "2ab8589b8b77899c828f23f538115e30", "is_disabled": 0, "type": "electric_scooter", "lat": 38.89713166666667, "lon": -77.02670183333333, "is_reserved": 0, "fusion_lon": 0.0}, {"rental_uris": {"ios": "https://dc.lft.to/lastmile_qr_scan", "android": "https://dc.lft.to/lastmile_qr_scan"}, "fusion_lat": 0.0, "name": "32c8c45a653889d7703c70c358c51952", "bike_id": "32c8c45a653889d7703c70c358c51952", "is_disabled": 0, "type": "electric_scooter", "lat": 38.86716033333333, "lon": -76.987114, "is_reserved": 0, "fusion_lon": 0.0}, {"rental_uris": {"ios": "https://dc.lft.to/lastmile_qr_scan", "android": "https://dc.lft.to/lastmile_qr_scan"}, "fusion_lat": 0.0, "name": "bce457ff48bc6e8ee913364b127b81d8", "bike_id": "bce457ff48bc6e8ee913364b127b81d8", "is_disabled": 0, "type": "electric_bike", "lat": 38.93287483333334, "lon": -77.02845016666667, "is_reserved": 0, "fusion_lon": 0.0}, {"rental_uris": {"ios": "https://dc.lft.to/lastmile_qr_scan", "android": "https://dc.lft.to/lastmile_qr_scan"}, "fusion_lat": 0.0, "name": "cb88333568140b26ce6bdf262bb6ae2a", "bike_id": "cb88333568140b26ce6bdf262bb6ae2a", "is_disabled": 0, "type": "electric_scooter", "lat": 38.8924055, "lon": -77.046598, "is_reserved": 0, "fusion_lon": 0.0}, {"rental_uris": {"ios": "https://dc.lft.to/lastmile_qr_scan", "android": "https://dc.lft.to/lastmile_qr_scan"}, "fusion_lat": 0.0, "name": "e863b89d52b7aa61605fcaee3c4b330a", "bike_id": "e863b89d52b7aa61605fcaee3c4b330a", "is_disabled": 0, "type": "electric_scooter", "lat": 38.938874, "lon": -77.02485766666666, "is_reserved": 0, "fusion_lon": 0.0}, {"rental_uris": {"ios": "https://dc.lft.to/lastmile_qr_scan", "android": "https://dc.lft.to/lastmile_qr_scan"}, "fusion_lat": 0.0, "name": "354efe2ef1004053f082b52660149989", "bike_id": "354efe2ef1004053f082b52660149989", "is_disabled": 0, "type": "electric_scooter", "lat": 38.946223, "lon": -77.02514733333334, "is_reserved": 0, "fusion_lon": 0.0}, {"rental_uris": {"ios": "https://dc.lft.to/lastmile_qr_scan", "android": "https://dc.lft.to/lastmile_qr_scan"}, "fusion_lat": 0.0, "name": "84e50c021b0b4efe4013309b39fef197", "bike_id": "84e50c021b0b4efe4013309b39fef197", "is_disabled": 0, "type": "electric_scooter", "lat": 38.90540683333333, "lon": -77.03481383333333, "is_reserved": 0, "fusion_lon": 0.0}, {"rental_uris": {"ios": "https://dc.lft.to/lastmile_qr_scan", "android": "https://dc.lft.to/lastmile_qr_scan"}, "fusion_lat": 0.0, "name": "f5371aa72f0d841c126bd1417598ecf1", "bike_id": "f5371aa72f0d841c126bd1417598ecf1", "is_disabled": 0, "type": "electric_scooter", "lat": 38.92809666666667, "lon": -77.0539425, "is_reserved": 0, "fusion_lon": 0.0}, {"rental_uris": {"ios": "https://dc.lft.to/lastmile_qr_scan", "android": "https://dc.lft.to/lastmile_qr_scan"}, "fusion_lat": 0.0, "name": "b8c20f40597d8e8c8c766b36a41935da", "bike_id": "b8c20f40597d8e8c8c766b36a41935da", "is_disabled": 0, "type": "electric_scooter", "lat": 38.90967233333333, "lon": -77.04623083333334, "is_reserved": 0, "fusion_lon": 0.0}, {"rental_uris": {"ios": "https://dc.lft.to/lastmile_qr_scan", "android": "https://dc.lft.to/lastmile_qr_scan"}, "fusion_lat": 0.0, "name": "22e5c18e7d5efe6a1ba2a7d2eff0aa1f", "bike_id": "22e5c18e7d5efe6a1ba2a7d2eff0aa1f", "is_disabled": 0, "type": "electric_scooter", "lat": 38.923162, "lon": -77.0352505, "is_reserved": 0, "fusion_lon": 0.0}, {"rental_uris": {"ios": "https://dc.lft.to/lastmile_qr_scan", "android": "https://dc.lft.to/lastmile_qr_scan"}, "fusion_lat": 0.0, "name": "c7c6132cb5f36fbebfa30679ddff6234", "bike_id": "c7c6132cb5f36fbebfa30679ddff6234", "is_disabled": 0, "type": "electric_scooter", "lat": 38.92441566666667, "lon": -77.05203183333333, "is_reserved": 0, "fusion_lon": 0.0}, {"rental_uris": {"ios": "https://dc.lft.to/lastmile_qr_scan", "android": "https://dc.lft.to/lastmile_qr_scan"}, "fusion_lat": 0.0, "name": "740908e744fd7d3cd96a1fdefdd41c93", "bike_id": "740908e744fd7d3cd96a1fdefdd41c93", "is_disabled": 0, "type": "electric_scooter", "lat": 38.924209, "lon": -77.01953816666666, "is_reserved": 0, "fusion_lon": 0.0}, {"rental_uris": {"ios": "https://dc.lft.to/lastmile_qr_scan", "android": "https://dc.lft.to/lastmile_qr_scan"}, "fusion_lat": 0.0, "name": "ece409aedbe1c211b393251eb54dff79", "bike_id": "ece409aedbe1c211b393251eb54dff79", "is_disabled": 0, "type": "electric_scooter", "lat": 38.866995833333334, "lon": -76.987119, "is_reserved": 0, "fusion_lon": 0.0}, {"rental_uris": {"ios": "https://dc.lft.to/lastmile_qr_scan", "android": "https://dc.lft.to/lastmile_qr_scan"}, "fusion_lat": 0.0, "name": "bef03fdcf48222221eefe0733a221ccc", "bike_id": "bef03fdcf48222221eefe0733a221ccc", "is_disabled": 0, "type": "electric_scooter", "lat": 38.906262, "lon": -77.00585566666666, "is_reserved": 0, "fusion_lon": 0.0}, {"rental_uris": {"ios": "https://dc.lft.to/lastmile_qr_scan", "android": "https://dc.lft.to/lastmile_qr_scan"}, "fusion_lat": 0.0, "name": "3d2094a2dc415584e9a81f3ad70f9334", "bike_id": "3d2094a2dc415584e9a81f3ad70f9334", "is_disabled": 0, "type": "electric_scooter", "lat": 38.8933845, "lon": -76.93136066666666, "is_reserved": 0, "fusion_lon": 0.0}, {"rental_uris": {"ios": "https://dc.lft.to/lastmile_qr_scan", "android": "https://dc.lft.to/lastmile_qr_scan"}, "fusion_lat": 0.0, "name": "19c48a2e83897ef562cdfa8d085270ff", "bike_id": "19c48a2e83897ef562cdfa8d085270ff", "is_disabled": 0, "type": "electric_scooter", "lat": 38.90593883333333, "lon": -77.0400465, "is_reserved": 0, "fusion_lon": 0.0}, {"rental_uris": {"ios": "https://dc.lft.to/lastmile_qr_scan", "android": "https://dc.lft.to/lastmile_qr_scan"}, "fusion_lat": 0.0, "name": "e68bda2613155d87746e1440a07d5839", "bike_id": "e68bda2613155d87746e1440a07d5839", "is_disabled": 0, "type": "electric_scooter", "lat": 38.954267, "lon": -77.027651, "is_reserved": 0, "fusion_lon": 0.0}, {"rental_uris": {"ios": "https://dc.lft.to/lastmile_qr_scan", "android": "https://dc.lft.to/lastmile_qr_scan"}, "fusion_lat": 0.0, "name": "df8911e4f0e7958bbb991fcac86ecf38", "bike_id": "df8911e4f0e7958bbb991fcac86ecf38", "is_disabled": 0, "type": "electric_scooter", "lat": 38.886505, "lon": -77.01348433333334, "is_reserved": 0, "fusion_lon": 0.0}, {"rental_uris": {"ios": "https://dc.lft.to/lastmile_qr_scan", "android": "https://dc.lft.to/lastmile_qr_scan"}, "fusion_lat": 0.0, "name": "2b260c737ecad529d9b331ea22733ea1", "bike_id": "2b260c737ecad529d9b331ea22733ea1", "is_disabled": 0, "type": "electric_scooter", "lat": 38.923830333333335, "lon": -77.05751533333333, "is_reserved": 0, "fusion_lon": 0.0}, {"rental_uris": {"ios": "https://dc.lft.to/lastmile_qr_scan", "android": "https://dc.lft.to/lastmile_qr_scan"}, "fusion_lat": 0.0, "name": "dcad7d65b0442b290def2c7216bfa91f", "bike_id": "dcad7d65b0442b290def2c7216bfa91f", "is_disabled": 0, "type": "electric_scooter", "lat": 38.89368066666667, "lon": -77.04791616666667, "is_reserved": 0, "fusion_lon": 0.0}, {"rental_uris": {"ios": "https://dc.lft.to/lastmile_qr_scan", "android": "https://dc.lft.to/lastmile_qr_scan"}, "fusion_lat": 0.0, "name": "f93df88d68cac9dc943022a5283044c9", "bike_id": "f93df88d68cac9dc943022a5283044c9", "is_disabled": 0, "type": "electric_scooter", "lat": 38.9140175, "lon": -77.04394266666667, "is_reserved": 0, "fusion_lon": 0.0}, {"rental_uris": {"ios": "https://dc.lft.to/lastmile_qr_scan", "android": "https://dc.lft.to/lastmile_qr_scan"}, "fusion_lat": 0.0, "name": "98416f9bebc5a8c10941c95319f5647f", "bike_id": "98416f9bebc5a8c10941c95319f5647f", "is_disabled": 0, "type": "electric_scooter", "lat": 38.9186465, "lon": -77.0404345, "is_reserved": 0, "fusion_lon": 0.0}, {"rental_uris": {"ios": "https://dc.lft.to/lastmile_qr_scan", "android": "https://dc.lft.to/lastmile_qr_scan"}, "fusion_lat": 0.0, "name": "f0f3ec14a401f9cf37fe26a05488dd8d", "bike_id": "f0f3ec14a401f9cf37fe26a05488dd8d", "is_disabled": 0, "type": "electric_scooter", "lat": 38.94292566666667, "lon": -77.0217555, "is_reserved": 0, "fusion_lon": 0.0}, {"rental_uris": {"ios": "https://dc.lft.to/lastmile_qr_scan", "android": "https://dc.lft.to/lastmile_qr_scan"}, "fusion_lat": 0.0, "name": "19034333f866010ecf55b141498ffe2a", "bike_id": "19034333f866010ecf55b141498ffe2a", "is_disabled": 0, "type": "electric_bike", "lat": 38.89749533333333, "lon": -77.02937433333334, "is_reserved": 0, "fusion_lon": 0.0}, {"rental_uris": {"ios": "https://dc.lft.to/lastmile_qr_scan", "android": "https://dc.lft.to/lastmile_qr_scan"}, "fusion_lat": 0.0, "name": "bf300355f3d794e30afac8ac994e34ca", "bike_id": "bf300355f3d794e30afac8ac994e34ca", "is_disabled": 0, "type": "electric_scooter", "lat": 38.876264666666664, "lon": -76.9652665, "is_reserved": 0, "fusion_lon": 0.0}, {"rental_uris": {"ios": "https://dc.lft.to/lastmile_qr_scan", "android": "https://dc.lft.to/lastmile_qr_scan"}, "fusion_lat": 0.0, "name": "bb5509b78c498e39b92932659f57a190", "bike_id": "bb5509b78c498e39b92932659f57a190", "is_disabled": 0, "type": "electric_scooter", "lat": 38.90884783333333, "lon": -77.00575333333333, "is_reserved": 0, "fusion_lon": 0.0}, {"rental_uris": {"ios": "https://dc.lft.to/lastmile_qr_scan", "android": "https://dc.lft.to/lastmile_qr_scan"}, "fusion_lat": 0.0, "name": "73b67937eae089f2c4f555522bb5dca5", "bike_id": "73b67937eae089f2c4f555522bb5dca5", "is_disabled": 0, "type": "electric_scooter", "lat": 38.924138, "lon": -77.020065, "is_reserved": 0, "fusion_lon": 0.0}, {"rental_uris": {"ios": "https://dc.lft.to/lastmile_qr_scan", "android": "https://dc.lft.to/lastmile_qr_scan"}, "fusion_lat": 0.0, "name": "c037c9e035e836f66bb8683df49a37d4", "bike_id": "c037c9e035e836f66bb8683df49a37d4", "is_disabled": 0, "type": "electric_scooter", "lat": 38.9287305, "lon": -77.03361216666667, "is_reserved": 0, "fusion_lon": 0.0}, {"rental_uris": {"ios": "https://dc.lft.to/lastmile_qr_scan", "android": "https://dc.lft.to/lastmile_qr_scan"}, "fusion_lat": 0.0, "name": "8035c909cd2bd8cd8d1bec7c2d146a61", "bike_id": "8035c909cd2bd8cd8d1bec7c2d146a61", "is_disabled": 0, "type": "electric_scooter", "lat": 38.8544715, "lon": -76.98583916666666, "is_reserved": 0, "fusion_lon": 0.0}, {"rental_uris": {"ios": "https://dc.lft.to/lastmile_qr_scan", "android": "https://dc.lft.to/lastmile_qr_scan"}, "fusion_lat": 0.0, "name": "49ba412b5bba2f3c3dfed04d715e6a5c", "bike_id": "49ba412b5bba2f3c3dfed04d715e6a5c", "is_disabled": 0, "type": "electric_scooter", "lat": 38.90241616666667, "lon": -77.00198366666666, "is_reserved": 0, "fusion_lon": 0.0}, {"rental_uris": {"ios": "https://dc.lft.to/lastmile_qr_scan", "android": "https://dc.lft.to/lastmile_qr_scan"}, "fusion_lat": 0.0, "name": "6845be7457a26156fef2f27b5c78b7a0", "bike_id": "6845be7457a26156fef2f27b5c78b7a0", "is_disabled": 0, "type": "electric_scooter", "lat": 38.917214666666666, "lon": -77.03652316666667, "is_reserved": 0, "fusion_lon": 0.0}, {"rental_uris": {"ios": "https://dc.lft.to/lastmile_qr_scan", "android": "https://dc.lft.to/lastmile_qr_scan"}, "fusion_lat": 0.0, "name": "5dbf12667beecca288e2fc2b7896be9a", "bike_id": "5dbf12667beecca288e2fc2b7896be9a", "is_disabled": 0, "type": "electric_scooter", "lat": 38.91807266666667, "lon": -77.04171983333333, "is_reserved": 0, "fusion_lon": 0.0}, {"rental_uris": {"ios": "https://dc.lft.to/lastmile_qr_scan", "android": "https://dc.lft.to/lastmile_qr_scan"}, "fusion_lat": 0.0, "name": "ed168c8c4bd3d37ac34c8cccf0575164", "bike_id": "ed168c8c4bd3d37ac34c8cccf0575164", "is_disabled": 0, "type": "electric_scooter", "lat": 38.899081833333334, "lon": -77.04054416666666, "is_reserved": 0, "fusion_lon": 0.0}, {"rental_uris": {"ios": "https://dc.lft.to/lastmile_qr_scan", "android": "https://dc.lft.to/lastmile_qr_scan"}, "fusion_lat": 0.0, "name": "1348f484c2eea56f84fc7a5331d21150", "bike_id": "1348f484c2eea56f84fc7a5331d21150", "is_disabled": 0, "type": "electric_scooter", "lat": 38.947644, "lon": -77.07949483333333, "is_reserved": 0, "fusion_lon": 0.0}, {"rental_uris": {"ios": "https://dc.lft.to/lastmile_qr_scan", "android": "https://dc.lft.to/lastmile_qr_scan"}, "fusion_lat": 0.0, "name": "e71d469d84f473b002e28f45cc094fa3", "bike_id": "e71d469d84f473b002e28f45cc094fa3", "is_disabled": 0, "type": "electric_scooter", "lat": 38.90519616666667, "lon": -77.04077866666667, "is_reserved": 0, "fusion_lon": 0.0}, {"rental_uris": {"ios": "https://dc.lft.to/lastmile_qr_scan", "android": "https://dc.lft.to/lastmile_qr_scan"}, "fusion_lat": 0.0, "name": "75a3b84c6abe80861f77a0bc0c2b7394", "bike_id": "75a3b84c6abe80861f77a0bc0c2b7394", "is_disabled": 0, "type": "electric_scooter", "lat": 38.90507816666667, "lon": -77.05183633333333, "is_reserved": 0, "fusion_lon": 0.0}, {"rental_uris": {"ios": "https://dc.lft.to/lastmile_qr_scan", "android": "https://dc.lft.to/lastmile_qr_scan"}, "fusion_lat": 0.0, "name": "0f857fff3b2a9b4ca49f0cc4bddc2949", "bike_id": "0f857fff3b2a9b4ca49f0cc4bddc2949", "is_disabled": 0, "type": "electric_scooter", "lat": 38.90664183333333, "lon": -77.0271045, "is_reserved": 0, "fusion_lon": 0.0}, {"rental_uris": {"ios": "https://dc.lft.to/lastmile_qr_scan", "android": "https://dc.lft.to/lastmile_qr_scan"}, "fusion_lat": 0.0, "name": "3289395274dddd573971c44964623bd0", "bike_id": "3289395274dddd573971c44964623bd0", "is_disabled": 0, "type": "electric_scooter", "lat": 38.915621333333334, "lon": -77.022806, "is_reserved": 0, "fusion_lon": 0.0}, {"rental_uris": {"ios": "https://dc.lft.to/lastmile_qr_scan", "android": "https://dc.lft.to/lastmile_qr_scan"}, "fusion_lat": 0.0, "name": "98bcf95a1fbf75f2cd6bc059fa823bdb", "bike_id": "98bcf95a1fbf75f2cd6bc059fa823bdb", "is_disabled": 0, "type": "electric_scooter", "lat": 38.93439933333333, "lon": -77.02981266666667, "is_reserved": 0, "fusion_lon": 0.0}, {"rental_uris": {"ios": "https://dc.lft.to/lastmile_qr_scan", "android": "https://dc.lft.to/lastmile_qr_scan"}, "fusion_lat": 0.0, "name": "fdbcab6672bae7f35acc5f31530330ae", "bike_id": "fdbcab6672bae7f35acc5f31530330ae", "is_disabled": 0, "type": "electric_scooter", "lat": 38.91334716666667, "lon": -77.03189633333334, "is_reserved": 0, "fusion_lon": 0.0}, {"rental_uris": {"ios": "https://dc.lft.to/lastmile_qr_scan", "android": "https://dc.lft.to/lastmile_qr_scan"}, "fusion_lat": 0.0, "name": "f352a12ed1f73d006f2a65094d555e93", "bike_id": "f352a12ed1f73d006f2a65094d555e93", "is_disabled": 0, "type": "electric_scooter", "lat": 38.888155833333336, "lon": -77.01498666666667, "is_reserved": 0, "fusion_lon": 0.0}, {"rental_uris": {"ios": "https://dc.lft.to/lastmile_qr_scan", "android": "https://dc.lft.to/lastmile_qr_scan"}, "fusion_lat": 0.0, "name": "b8c6ab27f10031831888ded612a906f1", "bike_id": "b8c6ab27f10031831888ded612a906f1", "is_disabled": 0, "type": "electric_scooter", "lat": 38.866967833333334, "lon": -76.98708966666666, "is_reserved": 0, "fusion_lon": 0.0}, {"rental_uris": {"ios": "https://dc.lft.to/lastmile_qr_scan", "android": "https://dc.lft.to/lastmile_qr_scan"}, "fusion_lat": 0.0, "name": "db69e1ec17c074c79e5fb51b7b9366d8", "bike_id": "db69e1ec17c074c79e5fb51b7b9366d8", "is_disabled": 0, "type": "electric_bike", "lat": 38.953235666666664, "lon": -77.015748, "is_reserved": 0, "fusion_lon": 0.0}, {"rental_uris": {"ios": "https://dc.lft.to/lastmile_qr_scan", "android": "https://dc.lft.to/lastmile_qr_scan"}, "fusion_lat": 0.0, "name": "bb158308c48e8ae56f42a1089c50cd3b", "bike_id": "bb158308c48e8ae56f42a1089c50cd3b", "is_disabled": 0, "type": "electric_scooter", "lat": 38.881445, "lon": -77.0167165, "is_reserved": 0, "fusion_lon": 0.0}, {"rental_uris": {"ios": "https://dc.lft.to/lastmile_qr_scan", "android": "https://dc.lft.to/lastmile_qr_scan"}, "fusion_lat": 0.0, "name": "1a963001eef4f22ebb3689658a0bb687", "bike_id": "1a963001eef4f22ebb3689658a0bb687", "is_disabled": 0, "type": "electric_scooter", "lat": 38.92148733333333, "lon": -77.035112, "is_reserved": 0, "fusion_lon": 0.0}, {"rental_uris": {"ios": "https://dc.lft.to/lastmile_qr_scan", "android": "https://dc.lft.to/lastmile_qr_scan"}, "fusion_lat": 0.0, "name": "7be70c7580002defce61dffa7193e144", "bike_id": "7be70c7580002defce61dffa7193e144", "is_disabled": 0, "type": "electric_scooter", "lat": 38.8768855, "lon": -77.01756566666667, "is_reserved": 0, "fusion_lon": 0.0}, {"rental_uris": {"ios": "https://dc.lft.to/lastmile_qr_scan", "android": "https://dc.lft.to/lastmile_qr_scan"}, "fusion_lat": 0.0, "name": "8b047aac1c711ecf7d7df4d36d9ec2df", "bike_id": "8b047aac1c711ecf7d7df4d36d9ec2df", "is_disabled": 0, "type": "electric_scooter", "lat": 38.9216245, "lon": -76.9939295, "is_reserved": 0, "fusion_lon": 0.0}, {"rental_uris": {"ios": "https://dc.lft.to/lastmile_qr_scan", "android": "https://dc.lft.to/lastmile_qr_scan"}, "fusion_lat": 0.0, "name": "a6b4344e1db698bb15e6dddc976f0812", "bike_id": "a6b4344e1db698bb15e6dddc976f0812", "is_disabled": 0, "type": "electric_scooter", "lat": 38.943819166666664, "lon": -77.07708116666667, "is_reserved": 0, "fusion_lon": 0.0}, {"rental_uris": {"ios": "https://dc.lft.to/lastmile_qr_scan", "android": "https://dc.lft.to/lastmile_qr_scan"}, "fusion_lat": 0.0, "name": "31828a55138fec7780051f889f5d679f", "bike_id": "31828a55138fec7780051f889f5d679f", "is_disabled": 0, "type": "electric_scooter", "lat": 38.903575833333335, "lon": -77.03895933333334, "is_reserved": 0, "fusion_lon": 0.0}, {"rental_uris": {"ios": "https://dc.lft.to/lastmile_qr_scan", "android": "https://dc.lft.to/lastmile_qr_scan"}, "fusion_lat": 0.0, "name": "cabf7dd563dcb1497a03ada125b04b9f", "bike_id": "cabf7dd563dcb1497a03ada125b04b9f", "is_disabled": 0, "type": "electric_bike", "lat": 39.02934716666667, "lon": -77.04928766666667, "is_reserved": 0, "fusion_lon": 0.0}, {"rental_uris": {"ios": "https://dc.lft.to/lastmile_qr_scan", "android": "https://dc.lft.to/lastmile_qr_scan"}, "fusion_lat": 0.0, "name": "6c97a86893cd8e91e5695958db19e90e", "bike_id": "6c97a86893cd8e91e5695958db19e90e", "is_disabled": 0, "type": "electric_scooter", "lat": 38.9212425, "lon": -77.044287, "is_reserved": 0, "fusion_lon": 0.0}, {"rental_uris": {"ios": "https://dc.lft.to/lastmile_qr_scan", "android": "https://dc.lft.to/lastmile_qr_scan"}, "fusion_lat": 0.0, "name": "8a14480fc573d9d220c3b596f922d73d", "bike_id": "8a14480fc573d9d220c3b596f922d73d", "is_disabled": 0, "type": "electric_scooter", "lat": 38.907097, "lon": -77.00326883333334, "is_reserved": 0, "fusion_lon": 0.0}, {"rental_uris": {"ios": "https://dc.lft.to/lastmile_qr_scan", "android": "https://dc.lft.to/lastmile_qr_scan"}, "fusion_lat": 0.0, "name": "c8482513370c8eaff49f8999fa8064c3", "bike_id": "c8482513370c8eaff49f8999fa8064c3", "is_disabled": 0, "type": "electric_scooter", "lat": 38.87417283333333, "lon": -77.00066216666667, "is_reserved": 0, "fusion_lon": 0.0}, {"rental_uris": {"ios": "https://dc.lft.to/lastmile_qr_scan", "android": "https://dc.lft.to/lastmile_qr_scan"}, "fusion_lat": 0.0, "name": "3bca11be14bb00d4929937a02867eb2d", "bike_id": "3bca11be14bb00d4929937a02867eb2d", "is_disabled": 0, "type": "electric_scooter", "lat": 38.902655, "lon": -77.02815733333334, "is_reserved": 0, "fusion_lon": 0.0}, {"rental_uris": {"ios": "https://dc.lft.to/lastmile_qr_scan", "android": "https://dc.lft.to/lastmile_qr_scan"}, "fusion_lat": 0.0, "name": "900c8b0c161e77a908e678e1a66cb466", "bike_id": "900c8b0c161e77a908e678e1a66cb466", "is_disabled": 0, "type": "electric_bike", "lat": 38.922619166666664, "lon": -76.98155216666666, "is_reserved": 0, "fusion_lon": 0.0}, {"rental_uris": {"ios": "https://dc.lft.to/lastmile_qr_scan", "android": "https://dc.lft.to/lastmile_qr_scan"}, "fusion_lat": 0.0, "name": "8ca23804c58a42d43c55545eecb7da14", "bike_id": "8ca23804c58a42d43c55545eecb7da14", "is_disabled": 0, "type": "electric_scooter", "lat": 38.907094666666666, "lon": -77.02977716666666, "is_reserved": 0, "fusion_lon": 0.0}, {"rental_uris": {"ios": "https://dc.lft.to/lastmile_qr_scan", "android": "https://dc.lft.to/lastmile_qr_scan"}, "fusion_lat": 0.0, "name": "251295cdd227499bcf7cc1d333d20e13", "bike_id": "251295cdd227499bcf7cc1d333d20e13", "is_disabled": 0, "type": "electric_scooter", "lat": 38.9133835, "lon": -77.03171833333333, "is_reserved": 0, "fusion_lon": 0.0}, {"rental_uris": {"ios": "https://dc.lft.to/lastmile_qr_scan", "android": "https://dc.lft.to/lastmile_qr_scan"}, "fusion_lat": 0.0, "name": "533444c0d6e27874a5dc451e1e0ad9c6", "bike_id": "533444c0d6e27874a5dc451e1e0ad9c6", "is_disabled": 0, "type": "electric_scooter", "lat": 38.92145083333333, "lon": -77.03509583333333, "is_reserved": 0, "fusion_lon": 0.0}, {"rental_uris": {"ios": "https://dc.lft.to/lastmile_qr_scan", "android": "https://dc.lft.to/lastmile_qr_scan"}, "fusion_lat": 0.0, "name": "9c3b54580844522f7fda647b7590890e", "bike_id": "9c3b54580844522f7fda647b7590890e", "is_disabled": 0, "type": "electric_scooter", "lat": 38.89571566666667, "lon": -77.03209966666667, "is_reserved": 0, "fusion_lon": 0.0}, {"rental_uris": {"ios": "https://dc.lft.to/lastmile_qr_scan", "android": "https://dc.lft.to/lastmile_qr_scan"}, "fusion_lat": 0.0, "name": "65bee4ed5f894a3a179284b1c3dcea0e", "bike_id": "65bee4ed5f894a3a179284b1c3dcea0e", "is_disabled": 0, "type": "electric_scooter", "lat": 38.885816, "lon": -77.017702, "is_reserved": 0, "fusion_lon": 0.0}, {"rental_uris": {"ios": "https://dc.lft.to/lastmile_qr_scan", "android": "https://dc.lft.to/lastmile_qr_scan"}, "fusion_lat": 0.0, "name": "44e051bedf91544a23f7a98e2bf972bc", "bike_id": "44e051bedf91544a23f7a98e2bf972bc", "is_disabled": 0, "type": "electric_scooter", "lat": 38.9326945, "lon": -77.03488033333333, "is_reserved": 0, "fusion_lon": 0.0}, {"rental_uris": {"ios": "https://dc.lft.to/lastmile_qr_scan", "android": "https://dc.lft.to/lastmile_qr_scan"}, "fusion_lat": 0.0, "name": "88f8297c94f4e59bbf5695129cf72cbc", "bike_id": "88f8297c94f4e59bbf5695129cf72cbc", "is_disabled": 0, "type": "electric_scooter", "lat": 38.90285033333333, "lon": -77.03373416666666, "is_reserved": 0, "fusion_lon": 0.0}, {"rental_uris": {"ios": "https://dc.lft.to/lastmile_qr_scan", "android": "https://dc.lft.to/lastmile_qr_scan"}, "fusion_lat": 0.0, "name": "972440f114e4709cd2ce320f338fcfac", "bike_id": "972440f114e4709cd2ce320f338fcfac", "is_disabled": 0, "type": "electric_scooter", "lat": 38.918354, "lon": -77.022963, "is_reserved": 0, "fusion_lon": 0.0}, {"rental_uris": {"ios": "https://dc.lft.to/lastmile_qr_scan", "android": "https://dc.lft.to/lastmile_qr_scan"}, "fusion_lat": 0.0, "name": "d03e52a95dfbf2ebb1b01b6d21c85c6f", "bike_id": "d03e52a95dfbf2ebb1b01b6d21c85c6f", "is_disabled": 0, "type": "electric_scooter", "lat": 38.89219633333333, "lon": -77.04197266666667, "is_reserved": 0, "fusion_lon": 0.0}, {"rental_uris": {"ios": "https://dc.lft.to/lastmile_qr_scan", "android": "https://dc.lft.to/lastmile_qr_scan"}, "fusion_lat": 0.0, "name": "77b06c51de7ef072c544fd472436221d", "bike_id": "77b06c51de7ef072c544fd472436221d", "is_disabled": 0, "type": "electric_scooter", "lat": 38.90345333333333, "lon": -77.04512733333334, "is_reserved": 0, "fusion_lon": 0.0}, {"rental_uris": {"ios": "https://dc.lft.to/lastmile_qr_scan", "android": "https://dc.lft.to/lastmile_qr_scan"}, "fusion_lat": 0.0, "name": "12c21844feda31ec60c517f78e8b7ccb", "bike_id": "12c21844feda31ec60c517f78e8b7ccb", "is_disabled": 0, "type": "electric_scooter", "lat": 38.89898316666667, "lon": -77.03286016666667, "is_reserved": 0, "fusion_lon": 0.0}, {"rental_uris": {"ios": "https://dc.lft.to/lastmile_qr_scan", "android": "https://dc.lft.to/lastmile_qr_scan"}, "fusion_lat": 0.0, "name": "0f65c28fbb89bd57f25f7ef4dec6e8be", "bike_id": "0f65c28fbb89bd57f25f7ef4dec6e8be", "is_disabled": 0, "type": "electric_scooter", "lat": 38.878938833333336, "lon": -76.93525183333334, "is_reserved": 0, "fusion_lon": 0.0}, {"rental_uris": {"ios": "https://dc.lft.to/lastmile_qr_scan", "android": "https://dc.lft.to/lastmile_qr_scan"}, "fusion_lat": 0.0, "name": "e0a7e3d294aa507e8947b6b05507b91a", "bike_id": "e0a7e3d294aa507e8947b6b05507b91a", "is_disabled": 0, "type": "electric_scooter", "lat": 38.92090683333333, "lon": -77.036573, "is_reserved": 0, "fusion_lon": 0.0}, {"rental_uris": {"ios": "https://dc.lft.to/lastmile_qr_scan", "android": "https://dc.lft.to/lastmile_qr_scan"}, "fusion_lat": 0.0, "name": "a2f41382769eb5af8ff85bdfc6c00db2", "bike_id": "a2f41382769eb5af8ff85bdfc6c00db2", "is_disabled": 0, "type": "electric_bike", "lat": 38.90733516666667, "lon": -77.02959383333334, "is_reserved": 0, "fusion_lon": 0.0}, {"rental_uris": {"ios": "https://dc.lft.to/lastmile_qr_scan", "android": "https://dc.lft.to/lastmile_qr_scan"}, "fusion_lat": 0.0, "name": "d41ca478ac53fc3c712e7dba123aef29", "bike_id": "d41ca478ac53fc3c712e7dba123aef29", "is_disabled": 0, "type": "electric_scooter", "lat": 38.92339666666667, "lon": -77.05334866666666, "is_reserved": 0, "fusion_lon": 0.0}, {"rental_uris": {"ios": "https://dc.lft.to/lastmile_qr_scan", "android": "https://dc.lft.to/lastmile_qr_scan"}, "fusion_lat": 0.0, "name": "a01506bf6f305722f968c16a9791ed9a", "bike_id": "a01506bf6f305722f968c16a9791ed9a", "is_disabled": 0, "type": "electric_scooter", "lat": 38.921877333333335, "lon": -77.03795316666667, "is_reserved": 0, "fusion_lon": 0.0}, {"rental_uris": {"ios": "https://dc.lft.to/lastmile_qr_scan", "android": "https://dc.lft.to/lastmile_qr_scan"}, "fusion_lat": 0.0, "name": "649cecbad649b4ff2ec114a39144bb85", "bike_id": "649cecbad649b4ff2ec114a39144bb85", "is_disabled": 0, "type": "electric_scooter", "lat": 38.939689333333334, "lon": -77.03206666666667, "is_reserved": 0, "fusion_lon": 0.0}, {"rental_uris": {"ios": "https://dc.lft.to/lastmile_qr_scan", "android": "https://dc.lft.to/lastmile_qr_scan"}, "fusion_lat": 0.0, "name": "59bc5765ea951392f0634b668907e59b", "bike_id": "59bc5765ea951392f0634b668907e59b", "is_disabled": 0, "type": "electric_scooter", "lat": 38.882641166666666, "lon": -77.00367716666666, "is_reserved": 0, "fusion_lon": 0.0}, {"rental_uris": {"ios": "https://dc.lft.to/lastmile_qr_scan", "android": "https://dc.lft.to/lastmile_qr_scan"}, "fusion_lat": 0.0, "name": "f797b55ef64edda9d2f5706f56c89ef4", "bike_id": "f797b55ef64edda9d2f5706f56c89ef4", "is_disabled": 0, "type": "electric_scooter", "lat": 38.8984285, "lon": -77.00732566666667, "is_reserved": 0, "fusion_lon": 0.0}, {"rental_uris": {"ios": "https://dc.lft.to/lastmile_qr_scan", "android": "https://dc.lft.to/lastmile_qr_scan"}, "fusion_lat": 0.0, "name": "986d2c9a8940e3909df365ed669f06a8", "bike_id": "986d2c9a8940e3909df365ed669f06a8", "is_disabled": 0, "type": "electric_scooter", "lat": 38.903630166666666, "lon": -77.04831066666667, "is_reserved": 0, "fusion_lon": 0.0}, {"rental_uris": {"ios": "https://dc.lft.to/lastmile_qr_scan", "android": "https://dc.lft.to/lastmile_qr_scan"}, "fusion_lat": 0.0, "name": "534e5919016c91fbe8feb9d3040473bc", "bike_id": "534e5919016c91fbe8feb9d3040473bc", "is_disabled": 0, "type": "electric_scooter", "lat": 38.92808316666667, "lon": -77.02616916666666, "is_reserved": 0, "fusion_lon": 0.0}, {"rental_uris": {"ios": "https://dc.lft.to/lastmile_qr_scan", "android": "https://dc.lft.to/lastmile_qr_scan"}, "fusion_lat": 0.0, "name": "786bd097c6483f51fec9ece538b6f010", "bike_id": "786bd097c6483f51fec9ece538b6f010", "is_disabled": 0, "type": "electric_scooter", "lat": 38.94640883333334, "lon": -77.0310755, "is_reserved": 0, "fusion_lon": 0.0}, {"rental_uris": {"ios": "https://dc.lft.to/lastmile_qr_scan", "android": "https://dc.lft.to/lastmile_qr_scan"}, "fusion_lat": 0.0, "name": "7577614679a5062b1e86fce388f4261c", "bike_id": "7577614679a5062b1e86fce388f4261c", "is_disabled": 0, "type": "electric_scooter", "lat": 38.8921615, "lon": -77.03180583333334, "is_reserved": 0, "fusion_lon": 0.0}, {"rental_uris": {"ios": "https://dc.lft.to/lastmile_qr_scan", "android": "https://dc.lft.to/lastmile_qr_scan"}, "fusion_lat": 0.0, "name": "70ac03b5da14a530fc2a65f1a7d047ed", "bike_id": "70ac03b5da14a530fc2a65f1a7d047ed", "is_disabled": 0, "type": "electric_scooter", "lat": 38.909783, "lon": -76.99520883333334, "is_reserved": 0, "fusion_lon": 0.0}, {"rental_uris": {"ios": "https://dc.lft.to/lastmile_qr_scan", "android": "https://dc.lft.to/lastmile_qr_scan"}, "fusion_lat": 0.0, "name": "0e5726b5007584117414385852d26510", "bike_id": "0e5726b5007584117414385852d26510", "is_disabled": 0, "type": "electric_scooter", "lat": 38.907525166666666, "lon": -77.0001615, "is_reserved": 0, "fusion_lon": 0.0}, {"rental_uris": {"ios": "https://dc.lft.to/lastmile_qr_scan", "android": "https://dc.lft.to/lastmile_qr_scan"}, "fusion_lat": 0.0, "name": "b08bc8065dcaed63e97988f39b89f772", "bike_id": "b08bc8065dcaed63e97988f39b89f772", "is_disabled": 0, "type": "electric_scooter", "lat": 38.905250833333334, "lon": -77.04187733333333, "is_reserved": 0, "fusion_lon": 0.0}, {"rental_uris": {"ios": "https://dc.lft.to/lastmile_qr_scan", "android": "https://dc.lft.to/lastmile_qr_scan"}, "fusion_lat": 0.0, "name": "0ef8defbf4c4c9393ff369f22ddd0a37", "bike_id": "0ef8defbf4c4c9393ff369f22ddd0a37", "is_disabled": 0, "type": "electric_scooter", "lat": 38.909591, "lon": -77.046555, "is_reserved": 0, "fusion_lon": 0.0}, {"rental_uris": {"ios": "https://dc.lft.to/lastmile_qr_scan", "android": "https://dc.lft.to/lastmile_qr_scan"}, "fusion_lat": 0.0, "name": "dfe2aca7e45731452835c272bb782dda", "bike_id": "dfe2aca7e45731452835c272bb782dda", "is_disabled": 0, "type": "electric_scooter", "lat": 38.9170925, "lon": -77.03671133333333, "is_reserved": 0, "fusion_lon": 0.0}, {"rental_uris": {"ios": "https://dc.lft.to/lastmile_qr_scan", "android": "https://dc.lft.to/lastmile_qr_scan"}, "fusion_lat": 0.0, "name": "b67fe71e31162759b5ce8e3babc32b56", "bike_id": "b67fe71e31162759b5ce8e3babc32b56", "is_disabled": 0, "type": "electric_scooter", "lat": 38.901325, "lon": -77.04894616666667, "is_reserved": 0, "fusion_lon": 0.0}, {"rental_uris": {"ios": "https://dc.lft.to/lastmile_qr_scan", "android": "https://dc.lft.to/lastmile_qr_scan"}, "fusion_lat": 0.0, "name": "e0928a2e28ddc05debccdf2e931158ac", "bike_id": "e0928a2e28ddc05debccdf2e931158ac", "is_disabled": 0, "type": "electric_scooter", "lat": 38.91679933333333, "lon": -77.02970566666667, "is_reserved": 0, "fusion_lon": 0.0}, {"rental_uris": {"ios": "https://dc.lft.to/lastmile_qr_scan", "android": "https://dc.lft.to/lastmile_qr_scan"}, "fusion_lat": 0.0, "name": "db6d4d2e7e51d17b5485a3a6fc6644f6", "bike_id": "db6d4d2e7e51d17b5485a3a6fc6644f6", "is_disabled": 0, "type": "electric_scooter", "lat": 38.862145, "lon": -76.99482133333333, "is_reserved": 0, "fusion_lon": 0.0}, {"rental_uris": {"ios": "https://dc.lft.to/lastmile_qr_scan", "android": "https://dc.lft.to/lastmile_qr_scan"}, "fusion_lat": 0.0, "name": "9418e6d43fb80ac4bfd7c7693209b1ea", "bike_id": "9418e6d43fb80ac4bfd7c7693209b1ea", "is_disabled": 0, "type": "electric_scooter", "lat": 38.892249166666666, "lon": -77.02783266666667, "is_reserved": 0, "fusion_lon": 0.0}, {"rental_uris": {"ios": "https://dc.lft.to/lastmile_qr_scan", "android": "https://dc.lft.to/lastmile_qr_scan"}, "fusion_lat": 0.0, "name": "9872d866ad0d58fae351933f73b65f13", "bike_id": "9872d866ad0d58fae351933f73b65f13", "is_disabled": 0, "type": "electric_scooter", "lat": 38.92077716666667, "lon": -77.04213166666666, "is_reserved": 0, "fusion_lon": 0.0}, {"rental_uris": {"ios": "https://dc.lft.to/lastmile_qr_scan", "android": "https://dc.lft.to/lastmile_qr_scan"}, "fusion_lat": 0.0, "name": "55822c8ce0bef4222796953f4231e9ca", "bike_id": "55822c8ce0bef4222796953f4231e9ca", "is_disabled": 0, "type": "electric_scooter", "lat": 38.892203333333335, "lon": -77.02656816666666, "is_reserved": 0, "fusion_lon": 0.0}, {"rental_uris": {"ios": "https://dc.lft.to/lastmile_qr_scan", "android": "https://dc.lft.to/lastmile_qr_scan"}, "fusion_lat": 0.0, "name": "ff8a74794ba055635d5ae6662d4e7d94", "bike_id": "ff8a74794ba055635d5ae6662d4e7d94", "is_disabled": 0, "type": "electric_scooter", "lat": 38.92573633333333, "lon": -77.03742, "is_reserved": 0, "fusion_lon": 0.0}, {"rental_uris": {"ios": "https://dc.lft.to/lastmile_qr_scan", "android": "https://dc.lft.to/lastmile_qr_scan"}, "fusion_lat": 0.0, "name": "c23f877879fcb2be7267e6819fbbfcf0", "bike_id": "c23f877879fcb2be7267e6819fbbfcf0", "is_disabled": 0, "type": "electric_bike", "lat": 38.87150116666667, "lon": -76.93651583333333, "is_reserved": 0, "fusion_lon": 0.0}, {"rental_uris": {"ios": "https://dc.lft.to/lastmile_qr_scan", "android": "https://dc.lft.to/lastmile_qr_scan"}, "fusion_lat": 0.0, "name": "d54e8b78e4b0a39d4050581fc65bda4d", "bike_id": "d54e8b78e4b0a39d4050581fc65bda4d", "is_disabled": 0, "type": "electric_scooter", "lat": 38.87387583333334, "lon": -76.96601766666667, "is_reserved": 0, "fusion_lon": 0.0}, {"rental_uris": {"ios": "https://dc.lft.to/lastmile_qr_scan", "android": "https://dc.lft.to/lastmile_qr_scan"}, "fusion_lat": 0.0, "name": "385be11795704f6fcd8a26e69af57a40", "bike_id": "385be11795704f6fcd8a26e69af57a40", "is_disabled": 0, "type": "electric_scooter", "lat": 38.9250995, "lon": -77.00225266666666, "is_reserved": 0, "fusion_lon": 0.0}, {"rental_uris": {"ios": "https://dc.lft.to/lastmile_qr_scan", "android": "https://dc.lft.to/lastmile_qr_scan"}, "fusion_lat": 0.0, "name": "49a2c36fc75a6af37e0ab601485edd9b", "bike_id": "49a2c36fc75a6af37e0ab601485edd9b", "is_disabled": 0, "type": "electric_scooter", "lat": 38.87090966666667, "lon": -76.96865983333333, "is_reserved": 0, "fusion_lon": 0.0}, {"rental_uris": {"ios": "https://dc.lft.to/lastmile_qr_scan", "android": "https://dc.lft.to/lastmile_qr_scan"}, "fusion_lat": 0.0, "name": "535fb15ea73abbd7814c4880d0e9c548", "bike_id": "535fb15ea73abbd7814c4880d0e9c548", "is_disabled": 0, "type": "electric_scooter", "lat": 38.90667716666667, "lon": -77.027102, "is_reserved": 0, "fusion_lon": 0.0}, {"rental_uris": {"ios": "https://dc.lft.to/lastmile_qr_scan", "android": "https://dc.lft.to/lastmile_qr_scan"}, "fusion_lat": 0.0, "name": "bc0ff3e1a0828aded7bea94a3982a8d6", "bike_id": "bc0ff3e1a0828aded7bea94a3982a8d6", "is_disabled": 0, "type": "electric_scooter", "lat": 38.896053333333334, "lon": -77.02696266666666, "is_reserved": 0, "fusion_lon": 0.0}, {"rental_uris": {"ios": "https://dc.lft.to/lastmile_qr_scan", "android": "https://dc.lft.to/lastmile_qr_scan"}, "fusion_lat": 0.0, "name": "70977a12f1c26f525b9c43a6e6339064", "bike_id": "70977a12f1c26f525b9c43a6e6339064", "is_disabled": 0, "type": "electric_bike", "lat": 38.948342, "lon": -77.0063815, "is_reserved": 0, "fusion_lon": 0.0}, {"rental_uris": {"ios": "https://dc.lft.to/lastmile_qr_scan", "android": "https://dc.lft.to/lastmile_qr_scan"}, "fusion_lat": 0.0, "name": "5dff00ec0233f6e91b98d7c3350c61c8", "bike_id": "5dff00ec0233f6e91b98d7c3350c61c8", "is_disabled": 0, "type": "electric_scooter", "lat": 38.9313305, "lon": -77.0325835, "is_reserved": 0, "fusion_lon": 0.0}, {"rental_uris": {"ios": "https://dc.lft.to/lastmile_qr_scan", "android": "https://dc.lft.to/lastmile_qr_scan"}, "fusion_lat": 0.0, "name": "2bd133ec8ad3afee31ded65855fb0c6a", "bike_id": "2bd133ec8ad3afee31ded65855fb0c6a", "is_disabled": 0, "type": "electric_scooter", "lat": 38.89242266666667, "lon": -77.0466165, "is_reserved": 0, "fusion_lon": 0.0}, {"rental_uris": {"ios": "https://dc.lft.to/lastmile_qr_scan", "android": "https://dc.lft.to/lastmile_qr_scan"}, "fusion_lat": 0.0, "name": "d3a1dfc3e8dd679550fda11b6a59e048", "bike_id": "d3a1dfc3e8dd679550fda11b6a59e048", "is_disabled": 0, "type": "electric_scooter", "lat": 38.90421583333333, "lon": -77.03463, "is_reserved": 0, "fusion_lon": 0.0}, {"rental_uris": {"ios": "https://dc.lft.to/lastmile_qr_scan", "android": "https://dc.lft.to/lastmile_qr_scan"}, "fusion_lat": 0.0, "name": "6454b6b659cf2b1a7310b06f09a6c5c3", "bike_id": "6454b6b659cf2b1a7310b06f09a6c5c3", "is_disabled": 0, "type": "electric_scooter", "lat": 38.92124666666667, "lon": -77.04379133333333, "is_reserved": 0, "fusion_lon": 0.0}, {"rental_uris": {"ios": "https://dc.lft.to/lastmile_qr_scan", "android": "https://dc.lft.to/lastmile_qr_scan"}, "fusion_lat": 0.0, "name": "a9c263962d492910f9544176b65b3f25", "bike_id": "a9c263962d492910f9544176b65b3f25", "is_disabled": 0, "type": "electric_scooter", "lat": 38.9324325, "lon": -77.03866683333334, "is_reserved": 0, "fusion_lon": 0.0}, {"rental_uris": {"ios": "https://dc.lft.to/lastmile_qr_scan", "android": "https://dc.lft.to/lastmile_qr_scan"}, "fusion_lat": 0.0, "name": "1a5f3123d901e1de003d727b0b3bc282", "bike_id": "1a5f3123d901e1de003d727b0b3bc282", "is_disabled": 0, "type": "electric_scooter", "lat": 38.886396166666664, "lon": -77.00102566666666, "is_reserved": 0, "fusion_lon": 0.0}, {"rental_uris": {"ios": "https://dc.lft.to/lastmile_qr_scan", "android": "https://dc.lft.to/lastmile_qr_scan"}, "fusion_lat": 0.0, "name": "1e542c83b7abe2bf964e4ba0c24de2c5", "bike_id": "1e542c83b7abe2bf964e4ba0c24de2c5", "is_disabled": 0, "type": "electric_scooter", "lat": 38.91680366666667, "lon": -77.02330333333333, "is_reserved": 0, "fusion_lon": 0.0}, {"rental_uris": {"ios": "https://dc.lft.to/lastmile_qr_scan", "android": "https://dc.lft.to/lastmile_qr_scan"}, "fusion_lat": 0.0, "name": "2a9302a108ae6a463816ba21841b2bd0", "bike_id": "2a9302a108ae6a463816ba21841b2bd0", "is_disabled": 0, "type": "electric_scooter", "lat": 38.901794833333334, "lon": -77.01336433333333, "is_reserved": 0, "fusion_lon": 0.0}, {"rental_uris": {"ios": "https://dc.lft.to/lastmile_qr_scan", "android": "https://dc.lft.to/lastmile_qr_scan"}, "fusion_lat": 0.0, "name": "1d39256586441720ba3656e34117655d", "bike_id": "1d39256586441720ba3656e34117655d", "is_disabled": 0, "type": "electric_scooter", "lat": 38.912728, "lon": -77.036479, "is_reserved": 0, "fusion_lon": 0.0}, {"rental_uris": {"ios": "https://dc.lft.to/lastmile_qr_scan", "android": "https://dc.lft.to/lastmile_qr_scan"}, "fusion_lat": 0.0, "name": "896ca410da3e285902c6b430213b31ce", "bike_id": "896ca410da3e285902c6b430213b31ce", "is_disabled": 0, "type": "electric_scooter", "lat": 38.96166233333334, "lon": -77.02779633333333, "is_reserved": 0, "fusion_lon": 0.0}, {"rental_uris": {"ios": "https://dc.lft.to/lastmile_qr_scan", "android": "https://dc.lft.to/lastmile_qr_scan"}, "fusion_lat": 0.0, "name": "eb796178e0b054cea9e0a86d9b701bb7", "bike_id": "eb796178e0b054cea9e0a86d9b701bb7", "is_disabled": 0, "type": "electric_scooter", "lat": 38.918988, "lon": -77.032163, "is_reserved": 0, "fusion_lon": 0.0}, {"rental_uris": {"ios": "https://dc.lft.to/lastmile_qr_scan", "android": "https://dc.lft.to/lastmile_qr_scan"}, "fusion_lat": 0.0, "name": "432d76df47797b92b667201a856aaa7a", "bike_id": "432d76df47797b92b667201a856aaa7a", "is_disabled": 0, "type": "electric_scooter", "lat": 38.914042333333335, "lon": -77.03221816666667, "is_reserved": 0, "fusion_lon": 0.0}, {"rental_uris": {"ios": "https://dc.lft.to/lastmile_qr_scan", "android": "https://dc.lft.to/lastmile_qr_scan"}, "fusion_lat": 0.0, "name": "7a2f9a428d04f07fee6ee63014d3d833", "bike_id": "7a2f9a428d04f07fee6ee63014d3d833", "is_disabled": 0, "type": "electric_scooter", "lat": 38.87403283333333, "lon": -77.00575616666667, "is_reserved": 0, "fusion_lon": 0.0}, {"rental_uris": {"ios": "https://dc.lft.to/lastmile_qr_scan", "android": "https://dc.lft.to/lastmile_qr_scan"}, "fusion_lat": 0.0, "name": "f92a58894353b66b59960461f52e480c", "bike_id": "f92a58894353b66b59960461f52e480c", "is_disabled": 0, "type": "electric_bike", "lat": 38.83174783333333, "lon": -77.06695816666667, "is_reserved": 0, "fusion_lon": 0.0}, {"rental_uris": {"ios": "https://dc.lft.to/lastmile_qr_scan", "android": "https://dc.lft.to/lastmile_qr_scan"}, "fusion_lat": 0.0, "name": "fcea8274333452a84943b447f51eab64", "bike_id": "fcea8274333452a84943b447f51eab64", "is_disabled": 0, "type": "electric_bike", "lat": 38.9079155, "lon": -77.0473185, "is_reserved": 0, "fusion_lon": 0.0}, {"rental_uris": {"ios": "https://dc.lft.to/lastmile_qr_scan", "android": "https://dc.lft.to/lastmile_qr_scan"}, "fusion_lat": 0.0, "name": "dbf70efe5810b6b6bef2a9dfb3442b88", "bike_id": "dbf70efe5810b6b6bef2a9dfb3442b88", "is_disabled": 0, "type": "electric_scooter", "lat": 38.8532095, "lon": -76.980098, "is_reserved": 0, "fusion_lon": 0.0}, {"rental_uris": {"ios": "https://dc.lft.to/lastmile_qr_scan", "android": "https://dc.lft.to/lastmile_qr_scan"}, "fusion_lat": 0.0, "name": "3fbd6d1c23c7c8ebec478abfe63c52be", "bike_id": "3fbd6d1c23c7c8ebec478abfe63c52be", "is_disabled": 0, "type": "electric_scooter", "lat": 38.924833, "lon": -77.03501316666667, "is_reserved": 0, "fusion_lon": 0.0}, {"rental_uris": {"ios": "https://dc.lft.to/lastmile_qr_scan", "android": "https://dc.lft.to/lastmile_qr_scan"}, "fusion_lat": 0.0, "name": "89dc602b87d34588db136db508e01ecc", "bike_id": "89dc602b87d34588db136db508e01ecc", "is_disabled": 0, "type": "electric_scooter", "lat": 38.895869, "lon": -76.94840466666666, "is_reserved": 0, "fusion_lon": 0.0}, {"rental_uris": {"ios": "https://dc.lft.to/lastmile_qr_scan", "android": "https://dc.lft.to/lastmile_qr_scan"}, "fusion_lat": 0.0, "name": "557f2692ae928e05546de9c2b4e75a33", "bike_id": "557f2692ae928e05546de9c2b4e75a33", "is_disabled": 0, "type": "electric_scooter", "lat": 38.914087, "lon": -77.02897533333334, "is_reserved": 0, "fusion_lon": 0.0}, {"rental_uris": {"ios": "https://dc.lft.to/lastmile_qr_scan", "android": "https://dc.lft.to/lastmile_qr_scan"}, "fusion_lat": 0.0, "name": "eb1f596d9e8bbccd5b7bb3365843e37b", "bike_id": "eb1f596d9e8bbccd5b7bb3365843e37b", "is_disabled": 0, "type": "electric_scooter", "lat": 38.9012095, "lon": -77.044614, "is_reserved": 0, "fusion_lon": 0.0}, {"rental_uris": {"ios": "https://dc.lft.to/lastmile_qr_scan", "android": "https://dc.lft.to/lastmile_qr_scan"}, "fusion_lat": 0.0, "name": "b98c01bdaa2404bdf58ed1f7a6f63053", "bike_id": "b98c01bdaa2404bdf58ed1f7a6f63053", "is_disabled": 0, "type": "electric_scooter", "lat": 38.90008383333333, "lon": -76.99350216666667, "is_reserved": 0, "fusion_lon": 0.0}, {"rental_uris": {"ios": "https://dc.lft.to/lastmile_qr_scan", "android": "https://dc.lft.to/lastmile_qr_scan"}, "fusion_lat": 0.0, "name": "b2ca5e9357ac7880e27b0542e4b8ffa8", "bike_id": "b2ca5e9357ac7880e27b0542e4b8ffa8", "is_disabled": 0, "type": "electric_scooter", "lat": 38.887173, "lon": -77.01777733333333, "is_reserved": 0, "fusion_lon": 0.0}, {"rental_uris": {"ios": "https://dc.lft.to/lastmile_qr_scan", "android": "https://dc.lft.to/lastmile_qr_scan"}, "fusion_lat": 0.0, "name": "5839659e63559f5e3690c3d45451931d", "bike_id": "5839659e63559f5e3690c3d45451931d", "is_disabled": 0, "type": "electric_scooter", "lat": 38.90979033333333, "lon": -77.0440705, "is_reserved": 0, "fusion_lon": 0.0}, {"rental_uris": {"ios": "https://dc.lft.to/lastmile_qr_scan", "android": "https://dc.lft.to/lastmile_qr_scan"}, "fusion_lat": 0.0, "name": "6831762a878d40016972eb076f54575e", "bike_id": "6831762a878d40016972eb076f54575e", "is_disabled": 0, "type": "electric_scooter", "lat": 38.9143375, "lon": -77.02176216666666, "is_reserved": 0, "fusion_lon": 0.0}, {"rental_uris": {"ios": "https://dc.lft.to/lastmile_qr_scan", "android": "https://dc.lft.to/lastmile_qr_scan"}, "fusion_lat": 0.0, "name": "122240d0e94770fa816624051509c392", "bike_id": "122240d0e94770fa816624051509c392", "is_disabled": 0, "type": "electric_scooter", "lat": 38.8987965, "lon": -76.93174983333333, "is_reserved": 0, "fusion_lon": 0.0}, {"rental_uris": {"ios": "https://dc.lft.to/lastmile_qr_scan", "android": "https://dc.lft.to/lastmile_qr_scan"}, "fusion_lat": 0.0, "name": "2b75b5fac1a11f1d8c339b990f44a0e3", "bike_id": "2b75b5fac1a11f1d8c339b990f44a0e3", "is_disabled": 0, "type": "electric_scooter", "lat": 38.91872983333333, "lon": -77.0356655, "is_reserved": 0, "fusion_lon": 0.0}, {"rental_uris": {"ios": "https://dc.lft.to/lastmile_qr_scan", "android": "https://dc.lft.to/lastmile_qr_scan"}, "fusion_lat": 0.0, "name": "2a4ce8c6981f4ac38c30ce71b1b3e75b", "bike_id": "2a4ce8c6981f4ac38c30ce71b1b3e75b", "is_disabled": 0, "type": "electric_bike", "lat": 38.86210916666667, "lon": -76.99778266666667, "is_reserved": 0, "fusion_lon": 0.0}, {"rental_uris": {"ios": "https://dc.lft.to/lastmile_qr_scan", "android": "https://dc.lft.to/lastmile_qr_scan"}, "fusion_lat": 0.0, "name": "c72ffb87c5ec66e06e3896b060e9d8d4", "bike_id": "c72ffb87c5ec66e06e3896b060e9d8d4", "is_disabled": 0, "type": "electric_scooter", "lat": 38.9142375, "lon": -77.0392515, "is_reserved": 0, "fusion_lon": 0.0}, {"rental_uris": {"ios": "https://dc.lft.to/lastmile_qr_scan", "android": "https://dc.lft.to/lastmile_qr_scan"}, "fusion_lat": 0.0, "name": "a2a5a836099dbcb0d56a5a387a69b611", "bike_id": "a2a5a836099dbcb0d56a5a387a69b611", "is_disabled": 0, "type": "electric_scooter", "lat": 38.866494, "lon": -76.98511316666666, "is_reserved": 0, "fusion_lon": 0.0}, {"rental_uris": {"ios": "https://dc.lft.to/lastmile_qr_scan", "android": "https://dc.lft.to/lastmile_qr_scan"}, "fusion_lat": 0.0, "name": "143f79d664cab7eac394bc61bb76cce9", "bike_id": "143f79d664cab7eac394bc61bb76cce9", "is_disabled": 0, "type": "electric_scooter", "lat": 38.92856716666667, "lon": -77.03095733333333, "is_reserved": 0, "fusion_lon": 0.0}, {"rental_uris": {"ios": "https://dc.lft.to/lastmile_qr_scan", "android": "https://dc.lft.to/lastmile_qr_scan"}, "fusion_lat": 0.0, "name": "2cbca25185b7ec76d3996f9717337ee7", "bike_id": "2cbca25185b7ec76d3996f9717337ee7", "is_disabled": 0, "type": "electric_bike", "lat": 38.87951233333333, "lon": -77.01370866666667, "is_reserved": 0, "fusion_lon": 0.0}, {"rental_uris": {"ios": "https://dc.lft.to/lastmile_qr_scan", "android": "https://dc.lft.to/lastmile_qr_scan"}, "fusion_lat": 0.0, "name": "436e9a3902aa95458bc7044281f5c2b0", "bike_id": "436e9a3902aa95458bc7044281f5c2b0", "is_disabled": 0, "type": "electric_scooter", "lat": 38.8922715, "lon": -77.05003916666666, "is_reserved": 0, "fusion_lon": 0.0}, {"rental_uris": {"ios": "https://dc.lft.to/lastmile_qr_scan", "android": "https://dc.lft.to/lastmile_qr_scan"}, "fusion_lat": 0.0, "name": "77855df2e913f575e78257279c95b0bc", "bike_id": "77855df2e913f575e78257279c95b0bc", "is_disabled": 0, "type": "electric_scooter", "lat": 38.91501866666667, "lon": -77.02199733333333, "is_reserved": 0, "fusion_lon": 0.0}, {"rental_uris": {"ios": "https://dc.lft.to/lastmile_qr_scan", "android": "https://dc.lft.to/lastmile_qr_scan"}, "fusion_lat": 0.0, "name": "2e61bf0014e57235fd7e310cf9033ee2", "bike_id": "2e61bf0014e57235fd7e310cf9033ee2", "is_disabled": 0, "type": "electric_scooter", "lat": 38.92369083333333, "lon": -77.04313516666667, "is_reserved": 0, "fusion_lon": 0.0}, {"rental_uris": {"ios": "https://dc.lft.to/lastmile_qr_scan", "android": "https://dc.lft.to/lastmile_qr_scan"}, "fusion_lat": 0.0, "name": "2e2dbcf09c17734770e8634b641e8fbf", "bike_id": "2e2dbcf09c17734770e8634b641e8fbf", "is_disabled": 0, "type": "electric_scooter", "lat": 38.91817233333333, "lon": -77.041661, "is_reserved": 0, "fusion_lon": 0.0}, {"rental_uris": {"ios": "https://dc.lft.to/lastmile_qr_scan", "android": "https://dc.lft.to/lastmile_qr_scan"}, "fusion_lat": 0.0, "name": "7e6b34629d8827d5a27198166cfedc61", "bike_id": "7e6b34629d8827d5a27198166cfedc61", "is_disabled": 0, "type": "electric_scooter", "lat": 38.866613666666666, "lon": -76.98513016666666, "is_reserved": 0, "fusion_lon": 0.0}, {"rental_uris": {"ios": "https://dc.lft.to/lastmile_qr_scan", "android": "https://dc.lft.to/lastmile_qr_scan"}, "fusion_lat": 0.0, "name": "0f26322c9ee3ce3e997f315626a7d954", "bike_id": "0f26322c9ee3ce3e997f315626a7d954", "is_disabled": 0, "type": "electric_bike", "lat": 38.9441265, "lon": -77.03195533333333, "is_reserved": 0, "fusion_lon": 0.0}, {"rental_uris": {"ios": "https://dc.lft.to/lastmile_qr_scan", "android": "https://dc.lft.to/lastmile_qr_scan"}, "fusion_lat": 0.0, "name": "236f9c07da7e26b65c9754671c4f1670", "bike_id": "236f9c07da7e26b65c9754671c4f1670", "is_disabled": 0, "type": "electric_bike", "lat": 38.9555185, "lon": -76.93533716666667, "is_reserved": 0, "fusion_lon": 0.0}, {"rental_uris": {"ios": "https://dc.lft.to/lastmile_qr_scan", "android": "https://dc.lft.to/lastmile_qr_scan"}, "fusion_lat": 0.0, "name": "5aea5fd5bfaafb4bfe26278464dec2a8", "bike_id": "5aea5fd5bfaafb4bfe26278464dec2a8", "is_disabled": 0, "type": "electric_scooter", "lat": 38.8989975, "lon": -77.03283133333333, "is_reserved": 0, "fusion_lon": 0.0}, {"rental_uris": {"ios": "https://dc.lft.to/lastmile_qr_scan", "android": "https://dc.lft.to/lastmile_qr_scan"}, "fusion_lat": 0.0, "name": "9ad73ddd93206148986c110247b20785", "bike_id": "9ad73ddd93206148986c110247b20785", "is_disabled": 0, "type": "electric_scooter", "lat": 38.924141, "lon": -77.03553466666666, "is_reserved": 0, "fusion_lon": 0.0}, {"rental_uris": {"ios": "https://dc.lft.to/lastmile_qr_scan", "android": "https://dc.lft.to/lastmile_qr_scan"}, "fusion_lat": 0.0, "name": "75c87c1ad89971fdfe2e9478cbe3bc65", "bike_id": "75c87c1ad89971fdfe2e9478cbe3bc65", "is_disabled": 0, "type": "electric_scooter", "lat": 38.9052935, "lon": -77.05143533333333, "is_reserved": 0, "fusion_lon": 0.0}, {"rental_uris": {"ios": "https://dc.lft.to/lastmile_qr_scan", "android": "https://dc.lft.to/lastmile_qr_scan"}, "fusion_lat": 0.0, "name": "725132fab365185949a25cf7180393c2", "bike_id": "725132fab365185949a25cf7180393c2", "is_disabled": 0, "type": "electric_scooter", "lat": 38.891789333333335, "lon": -77.01582333333333, "is_reserved": 0, "fusion_lon": 0.0}, {"rental_uris": {"ios": "https://dc.lft.to/lastmile_qr_scan", "android": "https://dc.lft.to/lastmile_qr_scan"}, "fusion_lat": 0.0, "name": "3cb24c61024851e74fefb969d8464752", "bike_id": "3cb24c61024851e74fefb969d8464752", "is_disabled": 0, "type": "electric_scooter", "lat": 38.90741633333333, "lon": -77.003715, "is_reserved": 0, "fusion_lon": 0.0}, {"rental_uris": {"ios": "https://dc.lft.to/lastmile_qr_scan", "android": "https://dc.lft.to/lastmile_qr_scan"}, "fusion_lat": 0.0, "name": "7ded02766ae7cacab0a687b91339dbe4", "bike_id": "7ded02766ae7cacab0a687b91339dbe4", "is_disabled": 0, "type": "electric_scooter", "lat": 38.894982666666664, "lon": -76.94876333333333, "is_reserved": 0, "fusion_lon": 0.0}, {"rental_uris": {"ios": "https://dc.lft.to/lastmile_qr_scan", "android": "https://dc.lft.to/lastmile_qr_scan"}, "fusion_lat": 0.0, "name": "70d65404fe1381d7f0ddbb4504705cf5", "bike_id": "70d65404fe1381d7f0ddbb4504705cf5", "is_disabled": 0, "type": "electric_scooter", "lat": 38.90611666666667, "lon": -77.02596316666667, "is_reserved": 0, "fusion_lon": 0.0}, {"rental_uris": {"ios": "https://dc.lft.to/lastmile_qr_scan", "android": "https://dc.lft.to/lastmile_qr_scan"}, "fusion_lat": 0.0, "name": "0408f1bd7e9b0b5f5aff0716395d825e", "bike_id": "0408f1bd7e9b0b5f5aff0716395d825e", "is_disabled": 0, "type": "electric_scooter", "lat": 38.922675, "lon": -77.040246, "is_reserved": 0, "fusion_lon": 0.0}, {"rental_uris": {"ios": "https://dc.lft.to/lastmile_qr_scan", "android": "https://dc.lft.to/lastmile_qr_scan"}, "fusion_lat": 0.0, "name": "e9f67eb223c956ccb28785d0675b077c", "bike_id": "e9f67eb223c956ccb28785d0675b077c", "is_disabled": 0, "type": "electric_scooter", "lat": 38.91761616666667, "lon": -77.03206933333334, "is_reserved": 0, "fusion_lon": 0.0}, {"rental_uris": {"ios": "https://dc.lft.to/lastmile_qr_scan", "android": "https://dc.lft.to/lastmile_qr_scan"}, "fusion_lat": 0.0, "name": "8d2843fd09cab3e6499a0ddbec4aa938", "bike_id": "8d2843fd09cab3e6499a0ddbec4aa938", "is_disabled": 0, "type": "electric_bike", "lat": 38.819359166666665, "lon": -77.002046, "is_reserved": 0, "fusion_lon": 0.0}, {"rental_uris": {"ios": "https://dc.lft.to/lastmile_qr_scan", "android": "https://dc.lft.to/lastmile_qr_scan"}, "fusion_lat": 0.0, "name": "407ec538a0b638788966e279fe72466d", "bike_id": "407ec538a0b638788966e279fe72466d", "is_disabled": 0, "type": "electric_bike", "lat": 38.80498866666667, "lon": -77.041357, "is_reserved": 0, "fusion_lon": 0.0}, {"rental_uris": {"ios": "https://dc.lft.to/lastmile_qr_scan", "android": "https://dc.lft.to/lastmile_qr_scan"}, "fusion_lat": 0.0, "name": "ecbb0396fc245e551856d3e8861b730f", "bike_id": "ecbb0396fc245e551856d3e8861b730f", "is_disabled": 0, "type": "electric_scooter", "lat": 38.91129466666667, "lon": -77.02789966666667, "is_reserved": 0, "fusion_lon": 0.0}, {"rental_uris": {"ios": "https://dc.lft.to/lastmile_qr_scan", "android": "https://dc.lft.to/lastmile_qr_scan"}, "fusion_lat": 0.0, "name": "a904585f7896a80ca53b3afaa973cfa2", "bike_id": "a904585f7896a80ca53b3afaa973cfa2", "is_disabled": 0, "type": "electric_scooter", "lat": 38.926437166666666, "lon": -77.0251535, "is_reserved": 0, "fusion_lon": 0.0}, {"rental_uris": {"ios": "https://dc.lft.to/lastmile_qr_scan", "android": "https://dc.lft.to/lastmile_qr_scan"}, "fusion_lat": 0.0, "name": "604bc62462f41011402e507c4a166d46", "bike_id": "604bc62462f41011402e507c4a166d46", "is_disabled": 0, "type": "electric_scooter", "lat": 38.89999983333333, "lon": -77.00676833333333, "is_reserved": 0, "fusion_lon": 0.0}, {"rental_uris": {"ios": "https://dc.lft.to/lastmile_qr_scan", "android": "https://dc.lft.to/lastmile_qr_scan"}, "fusion_lat": 0.0, "name": "7fcf6e9fb72e8df5acb11fa442791ad3", "bike_id": "7fcf6e9fb72e8df5acb11fa442791ad3", "is_disabled": 0, "type": "electric_scooter", "lat": 38.90842033333333, "lon": -77.05493333333334, "is_reserved": 0, "fusion_lon": 0.0}, {"rental_uris": {"ios": "https://dc.lft.to/lastmile_qr_scan", "android": "https://dc.lft.to/lastmile_qr_scan"}, "fusion_lat": 0.0, "name": "955990c89b830595a743cffabde16846", "bike_id": "955990c89b830595a743cffabde16846", "is_disabled": 0, "type": "electric_scooter", "lat": 38.892197, "lon": -77.04365066666666, "is_reserved": 0, "fusion_lon": 0.0}, {"rental_uris": {"ios": "https://dc.lft.to/lastmile_qr_scan", "android": "https://dc.lft.to/lastmile_qr_scan"}, "fusion_lat": 0.0, "name": "062d495f8c6d39d8239baf2d005b4f13", "bike_id": "062d495f8c6d39d8239baf2d005b4f13", "is_disabled": 0, "type": "electric_scooter", "lat": 38.91754516666666, "lon": -77.02389783333334, "is_reserved": 0, "fusion_lon": 0.0}, {"rental_uris": {"ios": "https://dc.lft.to/lastmile_qr_scan", "android": "https://dc.lft.to/lastmile_qr_scan"}, "fusion_lat": 0.0, "name": "8153bbcc57f7074c87ac5f15f8001f23", "bike_id": "8153bbcc57f7074c87ac5f15f8001f23", "is_disabled": 0, "type": "electric_scooter", "lat": 38.91181916666667, "lon": -77.04842066666667, "is_reserved": 0, "fusion_lon": 0.0}, {"rental_uris": {"ios": "https://dc.lft.to/lastmile_qr_scan", "android": "https://dc.lft.to/lastmile_qr_scan"}, "fusion_lat": 0.0, "name": "4a8ca081b822136122887136a78fdcc3", "bike_id": "4a8ca081b822136122887136a78fdcc3", "is_disabled": 0, "type": "electric_scooter", "lat": 38.91546533333333, "lon": -77.02301366666667, "is_reserved": 0, "fusion_lon": 0.0}, {"rental_uris": {"ios": "https://dc.lft.to/lastmile_qr_scan", "android": "https://dc.lft.to/lastmile_qr_scan"}, "fusion_lat": 0.0, "name": "2b4a78044cef5c149523f75432b991d8", "bike_id": "2b4a78044cef5c149523f75432b991d8", "is_disabled": 0, "type": "electric_scooter", "lat": 38.92864933333333, "lon": -77.03239383333333, "is_reserved": 0, "fusion_lon": 0.0}, {"rental_uris": {"ios": "https://dc.lft.to/lastmile_qr_scan", "android": "https://dc.lft.to/lastmile_qr_scan"}, "fusion_lat": 0.0, "name": "6b4a8649564874c3fa9bd39943cdefc0", "bike_id": "6b4a8649564874c3fa9bd39943cdefc0", "is_disabled": 0, "type": "electric_scooter", "lat": 38.88652866666666, "lon": -77.01317966666667, "is_reserved": 0, "fusion_lon": 0.0}, {"rental_uris": {"ios": "https://dc.lft.to/lastmile_qr_scan", "android": "https://dc.lft.to/lastmile_qr_scan"}, "fusion_lat": 0.0, "name": "45c36cf2378fefc90c581c755b955e36", "bike_id": "45c36cf2378fefc90c581c755b955e36", "is_disabled": 0, "type": "electric_scooter", "lat": 38.92135483333333, "lon": -77.04135716666667, "is_reserved": 0, "fusion_lon": 0.0}, {"rental_uris": {"ios": "https://dc.lft.to/lastmile_qr_scan", "android": "https://dc.lft.to/lastmile_qr_scan"}, "fusion_lat": 0.0, "name": "f43b8b8cdc4a89d71c1123520991cc27", "bike_id": "f43b8b8cdc4a89d71c1123520991cc27", "is_disabled": 0, "type": "electric_bike", "lat": 38.85767, "lon": -76.98763116666666, "is_reserved": 0, "fusion_lon": 0.0}, {"rental_uris": {"ios": "https://dc.lft.to/lastmile_qr_scan", "android": "https://dc.lft.to/lastmile_qr_scan"}, "fusion_lat": 0.0, "name": "6e7cf6556f94d4dc733f5d73535f6b63", "bike_id": "6e7cf6556f94d4dc733f5d73535f6b63", "is_disabled": 0, "type": "electric_scooter", "lat": 38.885121833333336, "lon": -77.00243116666667, "is_reserved": 0, "fusion_lon": 0.0}, {"rental_uris": {"ios": "https://dc.lft.to/lastmile_qr_scan", "android": "https://dc.lft.to/lastmile_qr_scan"}, "fusion_lat": 0.0, "name": "1f3c29d894472295697af5600b504028", "bike_id": "1f3c29d894472295697af5600b504028", "is_disabled": 0, "type": "electric_scooter", "lat": 38.9063875, "lon": -77.00614816666666, "is_reserved": 0, "fusion_lon": 0.0}, {"rental_uris": {"ios": "https://dc.lft.to/lastmile_qr_scan", "android": "https://dc.lft.to/lastmile_qr_scan"}, "fusion_lat": 0.0, "name": "da40c6cfd7bb0e60ae8cff8336826061", "bike_id": "da40c6cfd7bb0e60ae8cff8336826061", "is_disabled": 0, "type": "electric_scooter", "lat": 38.89231733333333, "lon": -77.01366533333334, "is_reserved": 0, "fusion_lon": 0.0}, {"rental_uris": {"ios": "https://dc.lft.to/lastmile_qr_scan", "android": "https://dc.lft.to/lastmile_qr_scan"}, "fusion_lat": 0.0, "name": "df50e3768d598c192ecb1cb6db0f015f", "bike_id": "df50e3768d598c192ecb1cb6db0f015f", "is_disabled": 0, "type": "electric_scooter", "lat": 38.91629833333333, "lon": -77.02558466666666, "is_reserved": 0, "fusion_lon": 0.0}, {"rental_uris": {"ios": "https://dc.lft.to/lastmile_qr_scan", "android": "https://dc.lft.to/lastmile_qr_scan"}, "fusion_lat": 0.0, "name": "c2330e79bed4f8f18dc21b1a43c8fad3", "bike_id": "c2330e79bed4f8f18dc21b1a43c8fad3", "is_disabled": 0, "type": "electric_scooter", "lat": 38.961676833333335, "lon": -77.02805683333334, "is_reserved": 0, "fusion_lon": 0.0}, {"rental_uris": {"ios": "https://dc.lft.to/lastmile_qr_scan", "android": "https://dc.lft.to/lastmile_qr_scan"}, "fusion_lat": 0.0, "name": "e8d38116bd0451f37d4ee0dedc7beb17", "bike_id": "e8d38116bd0451f37d4ee0dedc7beb17", "is_disabled": 0, "type": "electric_scooter", "lat": 38.915634833333336, "lon": -77.03145916666666, "is_reserved": 0, "fusion_lon": 0.0}, {"rental_uris": {"ios": "https://dc.lft.to/lastmile_qr_scan", "android": "https://dc.lft.to/lastmile_qr_scan"}, "fusion_lat": 0.0, "name": "940572ba53ebf9d59acd672189a9954a", "bike_id": "940572ba53ebf9d59acd672189a9954a", "is_disabled": 0, "type": "electric_scooter", "lat": 38.92861466666667, "lon": -77.03302683333334, "is_reserved": 0, "fusion_lon": 0.0}, {"rental_uris": {"ios": "https://dc.lft.to/lastmile_qr_scan", "android": "https://dc.lft.to/lastmile_qr_scan"}, "fusion_lat": 0.0, "name": "083a1073e4e5cbee5a6e5cf9f6148b09", "bike_id": "083a1073e4e5cbee5a6e5cf9f6148b09", "is_disabled": 0, "type": "electric_bike", "lat": 39.0629525, "lon": -77.04980733333333, "is_reserved": 0, "fusion_lon": 0.0}, {"rental_uris": {"ios": "https://dc.lft.to/lastmile_qr_scan", "android": "https://dc.lft.to/lastmile_qr_scan"}, "fusion_lat": 0.0, "name": "e8c8868e7f6d6ed7f789e7e06c3a3b47", "bike_id": "e8c8868e7f6d6ed7f789e7e06c3a3b47", "is_disabled": 0, "type": "electric_scooter", "lat": 38.896187, "lon": -77.03168516666666, "is_reserved": 0, "fusion_lon": 0.0}, {"rental_uris": {"ios": "https://dc.lft.to/lastmile_qr_scan", "android": "https://dc.lft.to/lastmile_qr_scan"}, "fusion_lat": 0.0, "name": "c5eeaecae295d84c75e62eec4cf31ad8", "bike_id": "c5eeaecae295d84c75e62eec4cf31ad8", "is_disabled": 0, "type": "electric_scooter", "lat": 38.93889933333333, "lon": -77.02488133333334, "is_reserved": 0, "fusion_lon": 0.0}, {"rental_uris": {"ios": "https://dc.lft.to/lastmile_qr_scan", "android": "https://dc.lft.to/lastmile_qr_scan"}, "fusion_lat": 0.0, "name": "ff9c0d2ec086cb8275ab56d3dca5bd03", "bike_id": "ff9c0d2ec086cb8275ab56d3dca5bd03", "is_disabled": 0, "type": "electric_bike", "lat": 38.854178833333336, "lon": -77.12074, "is_reserved": 0, "fusion_lon": 0.0}, {"rental_uris": {"ios": "https://dc.lft.to/lastmile_qr_scan", "android": "https://dc.lft.to/lastmile_qr_scan"}, "fusion_lat": 0.0, "name": "c3fae97b03f6c588a60a61bdcf826f5e", "bike_id": "c3fae97b03f6c588a60a61bdcf826f5e", "is_disabled": 0, "type": "electric_scooter", "lat": 38.92979833333333, "lon": -77.032408, "is_reserved": 0, "fusion_lon": 0.0}, {"rental_uris": {"ios": "https://dc.lft.to/lastmile_qr_scan", "android": "https://dc.lft.to/lastmile_qr_scan"}, "fusion_lat": 0.0, "name": "56da135ce2e1e72d6798f9f22353eda9", "bike_id": "56da135ce2e1e72d6798f9f22353eda9", "is_disabled": 0, "type": "electric_scooter", "lat": 38.928028166666664, "lon": -77.05397233333333, "is_reserved": 0, "fusion_lon": 0.0}, {"rental_uris": {"ios": "https://dc.lft.to/lastmile_qr_scan", "android": "https://dc.lft.to/lastmile_qr_scan"}, "fusion_lat": 0.0, "name": "64aa5de55b1795540230cf2364151cfc", "bike_id": "64aa5de55b1795540230cf2364151cfc", "is_disabled": 0, "type": "electric_scooter", "lat": 38.905829833333335, "lon": -77.040934, "is_reserved": 0, "fusion_lon": 0.0}, {"rental_uris": {"ios": "https://dc.lft.to/lastmile_qr_scan", "android": "https://dc.lft.to/lastmile_qr_scan"}, "fusion_lat": 0.0, "name": "c38c70d609c6b0b37551b0dbe9405eb6", "bike_id": "c38c70d609c6b0b37551b0dbe9405eb6", "is_disabled": 0, "type": "electric_bike", "lat": 38.856082, "lon": -77.11246483333333, "is_reserved": 0, "fusion_lon": 0.0}, {"rental_uris": {"ios": "https://dc.lft.to/lastmile_qr_scan", "android": "https://dc.lft.to/lastmile_qr_scan"}, "fusion_lat": 0.0, "name": "5162a7e3cde93fb2f6c313ffb6257efd", "bike_id": "5162a7e3cde93fb2f6c313ffb6257efd", "is_disabled": 0, "type": "electric_scooter", "lat": 38.90122433333333, "lon": -77.00349316666667, "is_reserved": 0, "fusion_lon": 0.0}, {"rental_uris": {"ios": "https://dc.lft.to/lastmile_qr_scan", "android": "https://dc.lft.to/lastmile_qr_scan"}, "fusion_lat": 0.0, "name": "d829e53d813ab1eac8ac417fa1bedd17", "bike_id": "d829e53d813ab1eac8ac417fa1bedd17", "is_disabled": 0, "type": "electric_scooter", "lat": 38.9095795, "lon": -77.020084, "is_reserved": 0, "fusion_lon": 0.0}, {"rental_uris": {"ios": "https://dc.lft.to/lastmile_qr_scan", "android": "https://dc.lft.to/lastmile_qr_scan"}, "fusion_lat": 0.0, "name": "560e69e66261ba338a85f6ea330c472e", "bike_id": "560e69e66261ba338a85f6ea330c472e", "is_disabled": 0, "type": "electric_scooter", "lat": 38.91557516666667, "lon": -77.01727883333334, "is_reserved": 0, "fusion_lon": 0.0}, {"rental_uris": {"ios": "https://dc.lft.to/lastmile_qr_scan", "android": "https://dc.lft.to/lastmile_qr_scan"}, "fusion_lat": 0.0, "name": "39296fb702fbb967882711d844f72b56", "bike_id": "39296fb702fbb967882711d844f72b56", "is_disabled": 0, "type": "electric_scooter", "lat": 38.9195855, "lon": -77.0248545, "is_reserved": 0, "fusion_lon": 0.0}, {"rental_uris": {"ios": "https://dc.lft.to/lastmile_qr_scan", "android": "https://dc.lft.to/lastmile_qr_scan"}, "fusion_lat": 0.0, "name": "c9020cd0c482382dfb5e6bf3db4aa84d", "bike_id": "c9020cd0c482382dfb5e6bf3db4aa84d", "is_disabled": 0, "type": "electric_scooter", "lat": 38.919977333333335, "lon": -77.0328605, "is_reserved": 0, "fusion_lon": 0.0}, {"rental_uris": {"ios": "https://dc.lft.to/lastmile_qr_scan", "android": "https://dc.lft.to/lastmile_qr_scan"}, "fusion_lat": 0.0, "name": "d99e770d92d0e827665108c27dee5a19", "bike_id": "d99e770d92d0e827665108c27dee5a19", "is_disabled": 0, "type": "electric_scooter", "lat": 38.934071, "lon": -77.04163283333334, "is_reserved": 0, "fusion_lon": 0.0}, {"rental_uris": {"ios": "https://dc.lft.to/lastmile_qr_scan", "android": "https://dc.lft.to/lastmile_qr_scan"}, "fusion_lat": 0.0, "name": "ae46783f083850f327848249d8c599dc", "bike_id": "ae46783f083850f327848249d8c599dc", "is_disabled": 0, "type": "electric_bike", "lat": 38.909313833333336, "lon": -77.04412483333333, "is_reserved": 0, "fusion_lon": 0.0}, {"rental_uris": {"ios": "https://dc.lft.to/lastmile_qr_scan", "android": "https://dc.lft.to/lastmile_qr_scan"}, "fusion_lat": 0.0, "name": "7fc5f09e5ec4eef7b3fa67b8c1a6054d", "bike_id": "7fc5f09e5ec4eef7b3fa67b8c1a6054d", "is_disabled": 0, "type": "electric_scooter", "lat": 38.915516333333336, "lon": -77.02216216666666, "is_reserved": 0, "fusion_lon": 0.0}, {"rental_uris": {"ios": "https://dc.lft.to/lastmile_qr_scan", "android": "https://dc.lft.to/lastmile_qr_scan"}, "fusion_lat": 0.0, "name": "2177ec249b7ee9bc9ea45cf2c67557b0", "bike_id": "2177ec249b7ee9bc9ea45cf2c67557b0", "is_disabled": 0, "type": "electric_scooter", "lat": 38.94817233333333, "lon": -76.99906616666667, "is_reserved": 0, "fusion_lon": 0.0}, {"rental_uris": {"ios": "https://dc.lft.to/lastmile_qr_scan", "android": "https://dc.lft.to/lastmile_qr_scan"}, "fusion_lat": 0.0, "name": "1ada0f67959b5e110212507e60f46f0b", "bike_id": "1ada0f67959b5e110212507e60f46f0b", "is_disabled": 0, "type": "electric_scooter", "lat": 38.904295833333336, "lon": -77.05080583333333, "is_reserved": 0, "fusion_lon": 0.0}, {"rental_uris": {"ios": "https://dc.lft.to/lastmile_qr_scan", "android": "https://dc.lft.to/lastmile_qr_scan"}, "fusion_lat": 0.0, "name": "14066f0db41e38dd92260740ec8161ff", "bike_id": "14066f0db41e38dd92260740ec8161ff", "is_disabled": 0, "type": "electric_scooter", "lat": 38.910645333333335, "lon": -77.04482933333334, "is_reserved": 0, "fusion_lon": 0.0}, {"rental_uris": {"ios": "https://dc.lft.to/lastmile_qr_scan", "android": "https://dc.lft.to/lastmile_qr_scan"}, "fusion_lat": 0.0, "name": "77d6b9c4b0bee2f0ed48cbc94f573f03", "bike_id": "77d6b9c4b0bee2f0ed48cbc94f573f03", "is_disabled": 0, "type": "electric_scooter", "lat": 38.914784833333336, "lon": -77.022017, "is_reserved": 0, "fusion_lon": 0.0}, {"rental_uris": {"ios": "https://dc.lft.to/lastmile_qr_scan", "android": "https://dc.lft.to/lastmile_qr_scan"}, "fusion_lat": 0.0, "name": "1cff84c5fe315b917ee7c979a69fbaf5", "bike_id": "1cff84c5fe315b917ee7c979a69fbaf5", "is_disabled": 0, "type": "electric_scooter", "lat": 38.9068215, "lon": -77.03470383333334, "is_reserved": 0, "fusion_lon": 0.0}, {"rental_uris": {"ios": "https://dc.lft.to/lastmile_qr_scan", "android": "https://dc.lft.to/lastmile_qr_scan"}, "fusion_lat": 0.0, "name": "08a20de75f1ca017d0928694dd03c931", "bike_id": "08a20de75f1ca017d0928694dd03c931", "is_disabled": 0, "type": "electric_scooter", "lat": 38.892332, "lon": -77.04999733333334, "is_reserved": 0, "fusion_lon": 0.0}, {"rental_uris": {"ios": "https://dc.lft.to/lastmile_qr_scan", "android": "https://dc.lft.to/lastmile_qr_scan"}, "fusion_lat": 0.0, "name": "f70d6eda8adbcb65853064c5ebb12f85", "bike_id": "f70d6eda8adbcb65853064c5ebb12f85", "is_disabled": 0, "type": "electric_scooter", "lat": 38.916880166666665, "lon": -76.979462, "is_reserved": 0, "fusion_lon": 0.0}, {"rental_uris": {"ios": "https://dc.lft.to/lastmile_qr_scan", "android": "https://dc.lft.to/lastmile_qr_scan"}, "fusion_lat": 0.0, "name": "9910f5dc4e0eda6a74db5f6b059f5936", "bike_id": "9910f5dc4e0eda6a74db5f6b059f5936", "is_disabled": 0, "type": "electric_scooter", "lat": 38.9185785, "lon": -77.0322125, "is_reserved": 0, "fusion_lon": 0.0}, {"rental_uris": {"ios": "https://dc.lft.to/lastmile_qr_scan", "android": "https://dc.lft.to/lastmile_qr_scan"}, "fusion_lat": 0.0, "name": "bada7966e22dde3fa65cb333c18609ff", "bike_id": "bada7966e22dde3fa65cb333c18609ff", "is_disabled": 0, "type": "electric_scooter", "lat": 38.907303666666664, "lon": -77.03458283333333, "is_reserved": 0, "fusion_lon": 0.0}, {"rental_uris": {"ios": "https://dc.lft.to/lastmile_qr_scan", "android": "https://dc.lft.to/lastmile_qr_scan"}, "fusion_lat": 0.0, "name": "f92c2aeb4e3e98c159619c2a8a53d8de", "bike_id": "f92c2aeb4e3e98c159619c2a8a53d8de", "is_disabled": 0, "type": "electric_scooter", "lat": 38.8992095, "lon": -77.02818616666667, "is_reserved": 0, "fusion_lon": 0.0}, {"rental_uris": {"ios": "https://dc.lft.to/lastmile_qr_scan", "android": "https://dc.lft.to/lastmile_qr_scan"}, "fusion_lat": 0.0, "name": "025a1d1e121dd9b466814e6403542f73", "bike_id": "025a1d1e121dd9b466814e6403542f73", "is_disabled": 0, "type": "electric_bike", "lat": 38.870782166666665, "lon": -77.11056933333333, "is_reserved": 0, "fusion_lon": 0.0}, {"rental_uris": {"ios": "https://dc.lft.to/lastmile_qr_scan", "android": "https://dc.lft.to/lastmile_qr_scan"}, "fusion_lat": 0.0, "name": "d2b27981547cc84d12a92aee901b6f24", "bike_id": "d2b27981547cc84d12a92aee901b6f24", "is_disabled": 0, "type": "electric_bike", "lat": 38.92469033333333, "lon": -77.05767116666667, "is_reserved": 0, "fusion_lon": 0.0}, {"rental_uris": {"ios": "https://dc.lft.to/lastmile_qr_scan", "android": "https://dc.lft.to/lastmile_qr_scan"}, "fusion_lat": 0.0, "name": "6835da19b537bba867f2340e3e74c34a", "bike_id": "6835da19b537bba867f2340e3e74c34a", "is_disabled": 0, "type": "electric_scooter", "lat": 38.89511983333333, "lon": -76.9304505, "is_reserved": 0, "fusion_lon": 0.0}, {"rental_uris": {"ios": "https://dc.lft.to/lastmile_qr_scan", "android": "https://dc.lft.to/lastmile_qr_scan"}, "fusion_lat": 0.0, "name": "d4ff28383f1c062edd1b2501f407eeb6", "bike_id": "d4ff28383f1c062edd1b2501f407eeb6", "is_disabled": 0, "type": "electric_scooter", "lat": 38.9168835, "lon": -77.037673, "is_reserved": 0, "fusion_lon": 0.0}, {"rental_uris": {"ios": "https://dc.lft.to/lastmile_qr_scan", "android": "https://dc.lft.to/lastmile_qr_scan"}, "fusion_lat": 0.0, "name": "214c1ea5b4d899f0dc417832e48a620a", "bike_id": "214c1ea5b4d899f0dc417832e48a620a", "is_disabled": 0, "type": "electric_scooter", "lat": 38.902811, "lon": -77.05806116666666, "is_reserved": 0, "fusion_lon": 0.0}, {"rental_uris": {"ios": "https://dc.lft.to/lastmile_qr_scan", "android": "https://dc.lft.to/lastmile_qr_scan"}, "fusion_lat": 0.0, "name": "22d337d05f8b146a988bfd7741c8cbde", "bike_id": "22d337d05f8b146a988bfd7741c8cbde", "is_disabled": 0, "type": "electric_scooter", "lat": 38.93524466666667, "lon": -77.07283533333333, "is_reserved": 0, "fusion_lon": 0.0}, {"rental_uris": {"ios": "https://dc.lft.to/lastmile_qr_scan", "android": "https://dc.lft.to/lastmile_qr_scan"}, "fusion_lat": 0.0, "name": "7625a0b46d7b5d3f2e8e53f1213a51d7", "bike_id": "7625a0b46d7b5d3f2e8e53f1213a51d7", "is_disabled": 0, "type": "electric_scooter", "lat": 38.92395883333333, "lon": -77.02551466666667, "is_reserved": 0, "fusion_lon": 0.0}, {"rental_uris": {"ios": "https://dc.lft.to/lastmile_qr_scan", "android": "https://dc.lft.to/lastmile_qr_scan"}, "fusion_lat": 0.0, "name": "660f162ddd27690d0382cfc99f69692e", "bike_id": "660f162ddd27690d0382cfc99f69692e", "is_disabled": 0, "type": "electric_scooter", "lat": 38.90455266666667, "lon": -77.032581, "is_reserved": 0, "fusion_lon": 0.0}, {"rental_uris": {"ios": "https://dc.lft.to/lastmile_qr_scan", "android": "https://dc.lft.to/lastmile_qr_scan"}, "fusion_lat": 0.0, "name": "40251c0993555157f6c5001b6fe3dcd1", "bike_id": "40251c0993555157f6c5001b6fe3dcd1", "is_disabled": 0, "type": "electric_bike", "lat": 38.84026433333333, "lon": -76.97582866666667, "is_reserved": 0, "fusion_lon": 0.0}, {"rental_uris": {"ios": "https://dc.lft.to/lastmile_qr_scan", "android": "https://dc.lft.to/lastmile_qr_scan"}, "fusion_lat": 0.0, "name": "88726d7bab0a45d72b8c0fddd9bf608d", "bike_id": "88726d7bab0a45d72b8c0fddd9bf608d", "is_disabled": 0, "type": "electric_scooter", "lat": 38.891952833333335, "lon": -77.00309483333334, "is_reserved": 0, "fusion_lon": 0.0}, {"rental_uris": {"ios": "https://dc.lft.to/lastmile_qr_scan", "android": "https://dc.lft.to/lastmile_qr_scan"}, "fusion_lat": 0.0, "name": "7881dae6c08b18fc0d6770bfa3141011", "bike_id": "7881dae6c08b18fc0d6770bfa3141011", "is_disabled": 0, "type": "electric_scooter", "lat": 38.903506166666666, "lon": -77.011067, "is_reserved": 0, "fusion_lon": 0.0}, {"rental_uris": {"ios": "https://dc.lft.to/lastmile_qr_scan", "android": "https://dc.lft.to/lastmile_qr_scan"}, "fusion_lat": 0.0, "name": "7c22986000d196211bd72ccbb31c3bfc", "bike_id": "7c22986000d196211bd72ccbb31c3bfc", "is_disabled": 0, "type": "electric_bike", "lat": 38.9981425, "lon": -76.88372716666666, "is_reserved": 0, "fusion_lon": 0.0}, {"rental_uris": {"ios": "https://dc.lft.to/lastmile_qr_scan", "android": "https://dc.lft.to/lastmile_qr_scan"}, "fusion_lat": 0.0, "name": "432adefb2fdf2ababf5a74b3e4fbb58d", "bike_id": "432adefb2fdf2ababf5a74b3e4fbb58d", "is_disabled": 0, "type": "electric_scooter", "lat": 38.902383, "lon": -77.00201666666666, "is_reserved": 0, "fusion_lon": 0.0}, {"rental_uris": {"ios": "https://dc.lft.to/lastmile_qr_scan", "android": "https://dc.lft.to/lastmile_qr_scan"}, "fusion_lat": 0.0, "name": "98736769855006b4229f0d448deabbfd", "bike_id": "98736769855006b4229f0d448deabbfd", "is_disabled": 0, "type": "electric_scooter", "lat": 38.92917933333333, "lon": -77.03758366666666, "is_reserved": 0, "fusion_lon": 0.0}, {"rental_uris": {"ios": "https://dc.lft.to/lastmile_qr_scan", "android": "https://dc.lft.to/lastmile_qr_scan"}, "fusion_lat": 0.0, "name": "7b1605ed73089d2d5b0fbb9d0d01835d", "bike_id": "7b1605ed73089d2d5b0fbb9d0d01835d", "is_disabled": 0, "type": "electric_scooter", "lat": 38.9388815, "lon": -77.024877, "is_reserved": 0, "fusion_lon": 0.0}, {"rental_uris": {"ios": "https://dc.lft.to/lastmile_qr_scan", "android": "https://dc.lft.to/lastmile_qr_scan"}, "fusion_lat": 0.0, "name": "1e87942ec701014c877493158eb78625", "bike_id": "1e87942ec701014c877493158eb78625", "is_disabled": 0, "type": "electric_scooter", "lat": 38.901150666666666, "lon": -77.0337785, "is_reserved": 0, "fusion_lon": 0.0}, {"rental_uris": {"ios": "https://dc.lft.to/lastmile_qr_scan", "android": "https://dc.lft.to/lastmile_qr_scan"}, "fusion_lat": 0.0, "name": "0419391b97e743aa73de340bd07f9c76", "bike_id": "0419391b97e743aa73de340bd07f9c76", "is_disabled": 0, "type": "electric_bike", "lat": 38.91063583333333, "lon": -77.0090645, "is_reserved": 0, "fusion_lon": 0.0}, {"rental_uris": {"ios": "https://dc.lft.to/lastmile_qr_scan", "android": "https://dc.lft.to/lastmile_qr_scan"}, "fusion_lat": 0.0, "name": "231cdd64c1d71f862da5740240631f79", "bike_id": "231cdd64c1d71f862da5740240631f79", "is_disabled": 0, "type": "electric_bike", "lat": 38.96227483333333, "lon": -77.0262595, "is_reserved": 0, "fusion_lon": 0.0}, {"rental_uris": {"ios": "https://dc.lft.to/lastmile_qr_scan", "android": "https://dc.lft.to/lastmile_qr_scan"}, "fusion_lat": 0.0, "name": "f60e3ec668d8f9a5cf5704130fd90032", "bike_id": "f60e3ec668d8f9a5cf5704130fd90032", "is_disabled": 0, "type": "electric_scooter", "lat": 38.919576, "lon": -77.03218916666667, "is_reserved": 0, "fusion_lon": 0.0}, {"rental_uris": {"ios": "https://dc.lft.to/lastmile_qr_scan", "android": "https://dc.lft.to/lastmile_qr_scan"}, "fusion_lat": 0.0, "name": "4539f24b99621afead623f67b8fa1c6e", "bike_id": "4539f24b99621afead623f67b8fa1c6e", "is_disabled": 0, "type": "electric_scooter", "lat": 38.930710166666664, "lon": -77.031975, "is_reserved": 0, "fusion_lon": 0.0}, {"rental_uris": {"ios": "https://dc.lft.to/lastmile_qr_scan", "android": "https://dc.lft.to/lastmile_qr_scan"}, "fusion_lat": 0.0, "name": "c92ba5aa1ca5ad83f10d76d950b83de0", "bike_id": "c92ba5aa1ca5ad83f10d76d950b83de0", "is_disabled": 0, "type": "electric_scooter", "lat": 38.933681, "lon": -77.05717533333333, "is_reserved": 0, "fusion_lon": 0.0}, {"rental_uris": {"ios": "https://dc.lft.to/lastmile_qr_scan", "android": "https://dc.lft.to/lastmile_qr_scan"}, "fusion_lat": 0.0, "name": "f12469016998c0cc524799d2f3f5ca16", "bike_id": "f12469016998c0cc524799d2f3f5ca16", "is_disabled": 0, "type": "electric_scooter", "lat": 38.8955605, "lon": -77.02979783333333, "is_reserved": 0, "fusion_lon": 0.0}, {"rental_uris": {"ios": "https://dc.lft.to/lastmile_qr_scan", "android": "https://dc.lft.to/lastmile_qr_scan"}, "fusion_lat": 0.0, "name": "6af8fcd7b035109608b67a63a6a03ebb", "bike_id": "6af8fcd7b035109608b67a63a6a03ebb", "is_disabled": 0, "type": "electric_bike", "lat": 38.9491025, "lon": -76.97705216666667, "is_reserved": 0, "fusion_lon": 0.0}, {"rental_uris": {"ios": "https://dc.lft.to/lastmile_qr_scan", "android": "https://dc.lft.to/lastmile_qr_scan"}, "fusion_lat": 0.0, "name": "635f28722d0309845bac998adf226921", "bike_id": "635f28722d0309845bac998adf226921", "is_disabled": 0, "type": "electric_scooter", "lat": 38.92964833333333, "lon": -77.037902, "is_reserved": 0, "fusion_lon": 0.0}, {"rental_uris": {"ios": "https://dc.lft.to/lastmile_qr_scan", "android": "https://dc.lft.to/lastmile_qr_scan"}, "fusion_lat": 0.0, "name": "575802f64dd177cdf816e15c02978ab0", "bike_id": "575802f64dd177cdf816e15c02978ab0", "is_disabled": 0, "type": "electric_scooter", "lat": 38.92742366666667, "lon": -77.03286816666666, "is_reserved": 0, "fusion_lon": 0.0}, {"rental_uris": {"ios": "https://dc.lft.to/lastmile_qr_scan", "android": "https://dc.lft.to/lastmile_qr_scan"}, "fusion_lat": 0.0, "name": "3228fd84a29887a9ce9b89b586570d15", "bike_id": "3228fd84a29887a9ce9b89b586570d15", "is_disabled": 0, "type": "electric_scooter", "lat": 38.91915133333333, "lon": -77.02493883333334, "is_reserved": 0, "fusion_lon": 0.0}, {"rental_uris": {"ios": "https://dc.lft.to/lastmile_qr_scan", "android": "https://dc.lft.to/lastmile_qr_scan"}, "fusion_lat": 0.0, "name": "0500d450f88129509ccdfd544a9c8c38", "bike_id": "0500d450f88129509ccdfd544a9c8c38", "is_disabled": 0, "type": "electric_scooter", "lat": 38.91992283333333, "lon": -77.0328735, "is_reserved": 0, "fusion_lon": 0.0}, {"rental_uris": {"ios": "https://dc.lft.to/lastmile_qr_scan", "android": "https://dc.lft.to/lastmile_qr_scan"}, "fusion_lat": 0.0, "name": "e62703e65f232ff4c766990989843d21", "bike_id": "e62703e65f232ff4c766990989843d21", "is_disabled": 0, "type": "electric_scooter", "lat": 38.89831216666666, "lon": -77.03320716666667, "is_reserved": 0, "fusion_lon": 0.0}, {"rental_uris": {"ios": "https://dc.lft.to/lastmile_qr_scan", "android": "https://dc.lft.to/lastmile_qr_scan"}, "fusion_lat": 0.0, "name": "48909cfef2d0c57f03aee925b396aa50", "bike_id": "48909cfef2d0c57f03aee925b396aa50", "is_disabled": 0, "type": "electric_scooter", "lat": 38.890358666666664, "lon": -76.95142683333333, "is_reserved": 0, "fusion_lon": 0.0}, {"rental_uris": {"ios": "https://dc.lft.to/lastmile_qr_scan", "android": "https://dc.lft.to/lastmile_qr_scan"}, "fusion_lat": 0.0, "name": "7d213563059222a3aed43255f00ba0d4", "bike_id": "7d213563059222a3aed43255f00ba0d4", "is_disabled": 0, "type": "electric_scooter", "lat": 38.887283833333335, "lon": -77.015327, "is_reserved": 0, "fusion_lon": 0.0}, {"rental_uris": {"ios": "https://dc.lft.to/lastmile_qr_scan", "android": "https://dc.lft.to/lastmile_qr_scan"}, "fusion_lat": 0.0, "name": "106550c53a248166bd06ecb4b82ebd86", "bike_id": "106550c53a248166bd06ecb4b82ebd86", "is_disabled": 0, "type": "electric_scooter", "lat": 38.884054, "lon": -77.01536033333333, "is_reserved": 0, "fusion_lon": 0.0}, {"rental_uris": {"ios": "https://dc.lft.to/lastmile_qr_scan", "android": "https://dc.lft.to/lastmile_qr_scan"}, "fusion_lat": 0.0, "name": "da9c6461fb226a719d2918dee20f4769", "bike_id": "da9c6461fb226a719d2918dee20f4769", "is_disabled": 0, "type": "electric_scooter", "lat": 38.917810833333334, "lon": -77.03645116666667, "is_reserved": 0, "fusion_lon": 0.0}, {"rental_uris": {"ios": "https://dc.lft.to/lastmile_qr_scan", "android": "https://dc.lft.to/lastmile_qr_scan"}, "fusion_lat": 0.0, "name": "806446fc8be9dabc952cefee5689bd1e", "bike_id": "806446fc8be9dabc952cefee5689bd1e", "is_disabled": 0, "type": "electric_scooter", "lat": 38.90592133333333, "lon": -77.00596766666666, "is_reserved": 0, "fusion_lon": 0.0}, {"rental_uris": {"ios": "https://dc.lft.to/lastmile_qr_scan", "android": "https://dc.lft.to/lastmile_qr_scan"}, "fusion_lat": 0.0, "name": "d689fa1b3234aa7aa675bac98953c662", "bike_id": "d689fa1b3234aa7aa675bac98953c662", "is_disabled": 0, "type": "electric_scooter", "lat": 38.916044166666666, "lon": -77.03210683333333, "is_reserved": 0, "fusion_lon": 0.0}, {"rental_uris": {"ios": "https://dc.lft.to/lastmile_qr_scan", "android": "https://dc.lft.to/lastmile_qr_scan"}, "fusion_lat": 0.0, "name": "fe1baa6c11c42f652fd1462e1404a339", "bike_id": "fe1baa6c11c42f652fd1462e1404a339", "is_disabled": 0, "type": "electric_bike", "lat": 38.83744383333333, "lon": -77.09547616666667, "is_reserved": 0, "fusion_lon": 0.0}, {"rental_uris": {"ios": "https://dc.lft.to/lastmile_qr_scan", "android": "https://dc.lft.to/lastmile_qr_scan"}, "fusion_lat": 0.0, "name": "1fdeb09d7a92db380c3a734afa4cbdb4", "bike_id": "1fdeb09d7a92db380c3a734afa4cbdb4", "is_disabled": 0, "type": "electric_scooter", "lat": 38.901529833333335, "lon": -77.0435325, "is_reserved": 0, "fusion_lon": 0.0}, {"rental_uris": {"ios": "https://dc.lft.to/lastmile_qr_scan", "android": "https://dc.lft.to/lastmile_qr_scan"}, "fusion_lat": 0.0, "name": "47e43d7ef11af6064ddb3919fc91baa3", "bike_id": "47e43d7ef11af6064ddb3919fc91baa3", "is_disabled": 0, "type": "electric_scooter", "lat": 38.902454166666665, "lon": -77.04689, "is_reserved": 0, "fusion_lon": 0.0}, {"rental_uris": {"ios": "https://dc.lft.to/lastmile_qr_scan", "android": "https://dc.lft.to/lastmile_qr_scan"},