{"data": {"bikes": [{"lat": 38.909826333333335, "fusion_lat": 0.0, "type": "electric_scooter", "bike_id": "d61b8a3eee95e46a5d6cbf9413d4de85", "is_reserved": 0, "rental_uris": {"ios": "https://dc.lft.to/lastmile_qr_scan", "android": "https://dc.lft.to/lastmile_qr_scan"}, "is_disabled": 0, "lon": -77.021763, "name": "d61b8a3eee95e46a5d6cbf9413d4de85", "fusion_lon": 0.0}, {"lat": 38.90871283333333, "fusion_lat": 0.0, "type": "electric_scooter", "bike_id": "3f890359c695bd28cd1af9045f43f4a4", "is_reserved": 0, "rental_uris": {"ios": "https://dc.lft.to/lastmile_qr_scan", "android": "https://dc.lft.to/lastmile_qr_scan"}, "is_disabled": 0, "lon": -77.04735366666667, "name": "3f890359c695bd28cd1af9045f43f4a4", "fusion_lon": 0.0}, {"lat": 38.866287666666665, "fusion_lat": 0.0, "type": "electric_scooter", "bike_id": "c1f20e1922cfc60b017ad48c3c9ec9f3", "is_reserved": 0, "rental_uris": {"ios": "https://dc.lft.to/lastmile_qr_scan", "android": "https://dc.lft.to/lastmile_qr_scan"}, "is_disabled": 0, "lon": -76.98898166666666, "name": "c1f20e1922cfc60b017ad48c3c9ec9f3", "fusion_lon": 0.0}, {"lat": 38.902240166666665, "fusion_lat": 0.0, "type": "electric_scooter", "bike_id": "927dd9a347cb0b2f85680ba7b91e8e95", "is_reserved": 0, "rental_uris": {"ios": "https://dc.lft.to/lastmile_qr_scan", "android": "https://dc.lft.to/lastmile_qr_scan"}, "is_disabled": 0, "lon": -77.01723516666667, "name": "927dd9a347cb0b2f85680ba7b91e8e95", "fusion_lon": 0.0}, {"lat": 38.91819266666667, "fusion_lat": 0.0, "type": "electric_scooter", "bike_id": "731194db4de4400610069cde8fde6f93", "is_reserved": 0, "rental_uris": {"ios": "https://dc.lft.to/lastmile_qr_scan", "android": "https://dc.lft.to/lastmile_qr_scan"}, "is_disabled": 0, "lon": -77.00768616666667, "name": "731194db4de4400610069cde8fde6f93", "fusion_lon": 0.0}, {"lat": 38.9078555, "fusion_lat": 0.0, "type": "electric_scooter", "bike_id": "c750fd306d93a7c03241513754444cc0", "is_reserved": 0, "rental_uris": {"ios": "https://dc.lft.to/lastmile_qr_scan", "android": "https://dc.lft.to/lastmile_qr_scan"}, "is_disabled": 0, "lon": -77.029836, "name": "c750fd306d93a7c03241513754444cc0", "fusion_lon": 0.0}, {"lat": 38.911795, "fusion_lat": 0.0, "type": "electric_scooter", "bike_id": "f9c85742e0fbbd570c92fbd6c5666907", "is_reserved": 0, "rental_uris": {"ios": "https://dc.lft.to/lastmile_qr_scan", "android": "https://dc.lft.to/lastmile_qr_scan"}, "is_disabled": 0, "lon": -77.060937, "name": "f9c85742e0fbbd570c92fbd6c5666907", "fusion_lon": 0.0}, {"lat": 38.912696333333336, "fusion_lat": 0.0, "type": "electric_scooter", "bike_id": "6f9b148917d2825281a1efa2ed3414f8", "is_reserved": 0, "rental_uris": {"ios": "https://dc.lft.to/lastmile_qr_scan", "android": "https://dc.lft.to/lastmile_qr_scan"}, "is_disabled": 0, "lon": -77.0382655, "name": "6f9b148917d2825281a1efa2ed3414f8", "fusion_lon": 0.0}, {"lat": 38.8970505, "fusion_lat": 0.0, "type": "electric_scooter", "bike_id": "ed0dabf2d739be0c486d79969941628a", "is_reserved": 0, "rental_uris": {"ios": "https://dc.lft.to/lastmile_qr_scan", "android": "https://dc.lft.to/lastmile_qr_scan"}, "is_disabled": 0, "lon": -76.93001216666667, "name": "ed0dabf2d739be0c486d79969941628a", "fusion_lon": 0.0}, {"lat": 38.978842, "fusion_lat": 0.0, "type": "electric_bike", "bike_id": "62353b36285e74c0a4fb536076e1de8d", "is_reserved": 0, "rental_uris": {"ios": "https://dc.lft.to/lastmile_qr_scan", "android": "https://dc.lft.to/lastmile_qr_scan"}, "is_disabled": 0, "lon": -77.06030733333333, "name": "62353b36285e74c0a4fb536076e1de8d", "fusion_lon": 0.0}, {"lat": 38.9057675, "fusion_lat": 0.0, "type": "electric_scooter", "bike_id": "aec7964fe571d18d71999245c5785851", "is_reserved": 0, "rental_uris": {"ios": "https://dc.lft.to/lastmile_qr_scan", "android": "https://dc.lft.to/lastmile_qr_scan"}, "is_disabled": 0, "lon": -77.02207483333333, "name": "aec7964fe571d18d71999245c5785851", "fusion_lon": 0.0}, {"lat": 38.91242366666667, "fusion_lat": 0.0, "type": "electric_scooter", "bike_id": "a0bd609dabac0c78af0e1f233359557b", "is_reserved": 0, "rental_uris": {"ios": "https://dc.lft.to/lastmile_qr_scan", "android": "https://dc.lft.to/lastmile_qr_scan"}, "is_disabled": 0, "lon": -77.0341615, "name": "a0bd609dabac0c78af0e1f233359557b", "fusion_lon": 0.0}, {"lat": 38.905038166666664, "fusion_lat": 0.0, "type": "electric_scooter", "bike_id": "74d389e056eff28f060fc96fdfa5b53c", "is_reserved": 0, "rental_uris": {"ios": "https://dc.lft.to/lastmile_qr_scan", "android": "https://dc.lft.to/lastmile_qr_scan"}, "is_disabled": 0, "lon": -77.0610635, "name": "74d389e056eff28f060fc96fdfa5b53c", "fusion_lon": 0.0}, {"lat": 38.9014825, "fusion_lat": 0.0, "type": "electric_scooter", "bike_id": "dac66bfadd9e53fcd7f660488504b9e5", "is_reserved": 0, "rental_uris": {"ios": "https://dc.lft.to/lastmile_qr_scan", "android": "https://dc.lft.to/lastmile_qr_scan"}, "is_disabled": 0, "lon": -77.04323266666667, "name": "dac66bfadd9e53fcd7f660488504b9e5", "fusion_lon": 0.0}, {"lat": 38.944963666666666, "fusion_lat": 0.0, "type": "electric_scooter", "bike_id": "cf35c671e00c2b6ef7def058593e94d2", "is_reserved": 0, "rental_uris": {"ios": "https://dc.lft.to/lastmile_qr_scan", "android": "https://dc.lft.to/lastmile_qr_scan"}, "is_disabled": 0, "lon": -77.0261955, "name": "cf35c671e00c2b6ef7def058593e94d2", "fusion_lon": 0.0}, {"lat": 38.9166035, "fusion_lat": 0.0, "type": "electric_scooter", "bike_id": "b10c4538c394a6d46258d6dda9d53294", "is_reserved": 0, "rental_uris": {"ios": "https://dc.lft.to/lastmile_qr_scan", "android": "https://dc.lft.to/lastmile_qr_scan"}, "is_disabled": 0, "lon": -77.03444833333333, "name": "b10c4538c394a6d46258d6dda9d53294", "fusion_lon": 0.0}, {"lat": 38.92388116666667, "fusion_lat": 0.0, "type": "electric_scooter", "bike_id": "f9a3aef09ebfb2838bb2862660d0c1e0", "is_reserved": 0, "rental_uris": {"ios": "https://dc.lft.to/lastmile_qr_scan", "android": "https://dc.lft.to/lastmile_qr_scan"}, "is_disabled": 0, "lon": -77.0269295, "name": "f9a3aef09ebfb2838bb2862660d0c1e0", "fusion_lon": 0.0}, {"lat": 38.912947833333334, "fusion_lat": 0.0, "type": "electric_scooter", "bike_id": "a5f7a72a1393ce1a745f2a9acbc56cf4", "is_reserved": 0, "rental_uris": {"ios": "https://dc.lft.to/lastmile_qr_scan", "android": "https://dc.lft.to/lastmile_qr_scan"}, "is_disabled": 0, "lon": -77.01977483333333, "name": "a5f7a72a1393ce1a745f2a9acbc56cf4", "fusion_lon": 0.0}, {"lat": 38.900079833333336, "fusion_lat": 0.0, "type": "electric_scooter", "bike_id": "435a76fca4f77319ff687eaaa3beb8b2", "is_reserved": 0, "rental_uris": {"ios": "https://dc.lft.to/lastmile_qr_scan", "android": "https://dc.lft.to/lastmile_qr_scan"}, "is_disabled": 0, "lon": -76.97991833333333, "name": "435a76fca4f77319ff687eaaa3beb8b2", "fusion_lon": 0.0}, {"lat": 38.9172775, "fusion_lat": 0.0, "type": "electric_scooter", "bike_id": "98a67cec8c8fe851c7f5de2750229cc6", "is_reserved": 0, "rental_uris": {"ios": "https://dc.lft.to/lastmile_qr_scan", "android": "https://dc.lft.to/lastmile_qr_scan"}, "is_disabled": 0, "lon": -77.02502883333334, "name": "98a67cec8c8fe851c7f5de2750229cc6", "fusion_lon": 0.0}, {"lat": 38.90269166666667, "fusion_lat": 0.0, "type": "electric_scooter", "bike_id": "5a0fc6b2018de22927a7f0e58319ff51", "is_reserved": 0, "rental_uris": {"ios": "https://dc.lft.to/lastmile_qr_scan", "android": "https://dc.lft.to/lastmile_qr_scan"}, "is_disabled": 0, "lon": -77.01647266666667, "name": "5a0fc6b2018de22927a7f0e58319ff51", "fusion_lon": 0.0}, {"lat": 38.885054833333335, "fusion_lat": 0.0, "type": "electric_scooter", "bike_id": "47e56943b7ad4eef7171ea36316349c0", "is_reserved": 0, "rental_uris": {"ios": "https://dc.lft.to/lastmile_qr_scan", "android": "https://dc.lft.to/lastmile_qr_scan"}, "is_disabled": 0, "lon": -76.9770985, "name": "47e56943b7ad4eef7171ea36316349c0", "fusion_lon": 0.0}, {"lat": 38.9073035, "fusion_lat": 0.0, "type": "electric_scooter", "bike_id": "056113187b1d66b37e9fbdda89aae9e5", "is_reserved": 0, "rental_uris": {"ios": "https://dc.lft.to/lastmile_qr_scan", "android": "https://dc.lft.to/lastmile_qr_scan"}, "is_disabled": 0, "lon": -77.04174533333334, "name": "056113187b1d66b37e9fbdda89aae9e5", "fusion_lon": 0.0}, {"lat": 38.907826666666665, "fusion_lat": 0.0, "type": "electric_scooter", "bike_id": "6a4fbdc134799ec630898505adbb15a9", "is_reserved": 0, "rental_uris": {"ios": "https://dc.lft.to/lastmile_qr_scan", "android": "https://dc.lft.to/lastmile_qr_scan"}, "is_disabled": 0, "lon": -77.0203865, "name": "6a4fbdc134799ec630898505adbb15a9", "fusion_lon": 0.0}, {"lat": 38.8625345, "fusion_lat": 0.0, "type": "electric_scooter", "bike_id": "8e1cb6243974c8b66ec4a3e2b2c760dc", "is_reserved": 0, "rental_uris": {"ios": "https://dc.lft.to/lastmile_qr_scan", "android": "https://dc.lft.to/lastmile_qr_scan"}, "is_disabled": 0, "lon": -76.9926765, "name": "8e1cb6243974c8b66ec4a3e2b2c760dc", "fusion_lon": 0.0}, {"lat": 38.91258466666667, "fusion_lat": 0.0, "type": "electric_scooter", "bike_id": "f39e2a6a7b4379f9630384467d06cbab", "is_reserved": 0, "rental_uris": {"ios": "https://dc.lft.to/lastmile_qr_scan", "android": "https://dc.lft.to/lastmile_qr_scan"}, "is_disabled": 0, "lon": -77.0446635, "name": "f39e2a6a7b4379f9630384467d06cbab", "fusion_lon": 0.0}, {"lat": 38.908309, "fusion_lat": 0.0, "type": "electric_bike", "bike_id": "b6dc9d0b55bb9e75c309b932bdfb97b0", "is_reserved": 0, "rental_uris": {"ios": "https://dc.lft.to/lastmile_qr_scan", "android": "https://dc.lft.to/lastmile_qr_scan"}, "is_disabled": 0, "lon": -76.94159433333333, "name": "b6dc9d0b55bb9e75c309b932bdfb97b0", "fusion_lon": 0.0}, {"lat": 38.900709, "fusion_lat": 0.0, "type": "electric_scooter", "bike_id": "15fa374dec737d626f77d48b77e5ae76", "is_reserved": 0, "rental_uris": {"ios": "https://dc.lft.to/lastmile_qr_scan", "android": "https://dc.lft.to/lastmile_qr_scan"}, "is_disabled": 0, "lon": -77.04833083333334, "name": "15fa374dec737d626f77d48b77e5ae76", "fusion_lon": 0.0}, {"lat": 38.94897483333333, "fusion_lat": 0.0, "type": "electric_bike", "bike_id": "b5f6659bfa495cf0e059b7f0ea179609", "is_reserved": 0, "rental_uris": {"ios": "https://dc.lft.to/lastmile_qr_scan", "android": "https://dc.lft.to/lastmile_qr_scan"}, "is_disabled": 0, "lon": -76.963778, "name": "b5f6659bfa495cf0e059b7f0ea179609", "fusion_lon": 0.0}, {"lat": 38.89981083333333, "fusion_lat": 0.0, "type": "electric_scooter", "bike_id": "1b4e965e04f3965d9266cb5fa906aab1", "is_reserved": 0, "rental_uris": {"ios": "https://dc.lft.to/lastmile_qr_scan", "android": "https://dc.lft.to/lastmile_qr_scan"}, "is_disabled": 0, "lon": -77.02244816666666, "name": "1b4e965e04f3965d9266cb5fa906aab1", "fusion_lon": 0.0}, {"lat": 38.9251535, "fusion_lat": 0.0, "type": "electric_scooter", "bike_id": "b1966b5043c5e1baed50cc7a8fe70a9a", "is_reserved": 0, "rental_uris": {"ios": "https://dc.lft.to/lastmile_qr_scan", "android": "https://dc.lft.to/lastmile_qr_scan"}, "is_disabled": 0, "lon": -77.00222383333333, "name": "b1966b5043c5e1baed50cc7a8fe70a9a", "fusion_lon": 0.0}, {"lat": 38.884061, "fusion_lat": 0.0, "type": "electric_bike", "bike_id": "b485682a9d60d87ac1802092e6ca43ff", "is_reserved": 0, "rental_uris": {"ios": "https://dc.lft.to/lastmile_qr_scan", "android": "https://dc.lft.to/lastmile_qr_scan"}, "is_disabled": 0, "lon": -76.960531, "name": "b485682a9d60d87ac1802092e6ca43ff", "fusion_lon": 0.0}, {"lat": 38.905415166666664, "fusion_lat": 0.0, "type": "electric_scooter", "bike_id": "6530062f3d119f808bd3601b9fcc2205", "is_reserved": 0, "rental_uris": {"ios": "https://dc.lft.to/lastmile_qr_scan", "android": "https://dc.lft.to/lastmile_qr_scan"}, "is_disabled": 0, "lon": -77.06085683333333, "name": "6530062f3d119f808bd3601b9fcc2205", "fusion_lon": 0.0}, {"lat": 38.90684383333333, "fusion_lat": 0.0, "type": "electric_scooter", "bike_id": "f292f5beece6254669a594a34b4694b0", "is_reserved": 0, "rental_uris": {"ios": "https://dc.lft.to/lastmile_qr_scan", "android": "https://dc.lft.to/lastmile_qr_scan"}, "is_disabled": 0, "lon": -77.05327016666666, "name": "f292f5beece6254669a594a34b4694b0", "fusion_lon": 0.0}, {"lat": 38.90411483333333, "fusion_lat": 0.0, "type": "electric_scooter", "bike_id": "c39273602816e2068fdab15cfb77cb58", "is_reserved": 0, "rental_uris": {"ios": "https://dc.lft.to/lastmile_qr_scan", "android": "https://dc.lft.to/lastmile_qr_scan"}, "is_disabled": 0, "lon": -77.03275816666667, "name": "c39273602816e2068fdab15cfb77cb58", "fusion_lon": 0.0}, {"lat": 38.91035633333333, "fusion_lat": 0.0, "type": "electric_scooter", "bike_id": "029d764eb7a53ed9b366fe15ed566632", "is_reserved": 0, "rental_uris": {"ios": "https://dc.lft.to/lastmile_qr_scan", "android": "https://dc.lft.to/lastmile_qr_scan"}, "is_disabled": 0, "lon": -77.00758683333333, "name": "029d764eb7a53ed9b366fe15ed566632", "fusion_lon": 0.0}, {"lat": 38.88668166666667, "fusion_lat": 0.0, "type": "electric_bike", "bike_id": "275977c37eb78b745316b68e3e3f5629", "is_reserved": 0, "rental_uris": {"ios": "https://dc.lft.to/lastmile_qr_scan", "android": "https://dc.lft.to/lastmile_qr_scan"}, "is_disabled": 0, "lon": -77.16228533333333, "name": "275977c37eb78b745316b68e3e3f5629", "fusion_lon": 0.0}, {"lat": 38.9122505, "fusion_lat": 0.0, "type": "electric_scooter", "bike_id": "98a08dfcc51254e0b58d389f6c93960e", "is_reserved": 0, "rental_uris": {"ios": "https://dc.lft.to/lastmile_qr_scan", "android": "https://dc.lft.to/lastmile_qr_scan"}, "is_disabled": 0, "lon": -77.029539, "name": "98a08dfcc51254e0b58d389f6c93960e", "fusion_lon": 0.0}, {"lat": 38.901903, "fusion_lat": 0.0, "type": "electric_scooter", "bike_id": "7588063e2063c06fde44a99a21f7d2c4", "is_reserved": 0, "rental_uris": {"ios": "https://dc.lft.to/lastmile_qr_scan", "android": "https://dc.lft.to/lastmile_qr_scan"}, "is_disabled": 0, "lon": -77.01621966666667, "name": "7588063e2063c06fde44a99a21f7d2c4", "fusion_lon": 0.0}, {"lat": 38.862447, "fusion_lat": 0.0, "type": "electric_scooter", "bike_id": "0f6a5105c80d762093be2e0274e2db25", "is_reserved": 0, "rental_uris": {"ios": "https://dc.lft.to/lastmile_qr_scan", "android": "https://dc.lft.to/lastmile_qr_scan"}, "is_disabled": 0, "lon": -76.99495233333333, "name": "0f6a5105c80d762093be2e0274e2db25", "fusion_lon": 0.0}, {"lat": 38.90039383333333, "fusion_lat": 0.0, "type": "electric_scooter", "bike_id": "92deb85b653eb43d22f8d6b56ca101b0", "is_reserved": 0, "rental_uris": {"ios": "https://dc.lft.to/lastmile_qr_scan", "android": "https://dc.lft.to/lastmile_qr_scan"}, "is_disabled": 0, "lon": -77.01222733333333, "name": "92deb85b653eb43d22f8d6b56ca101b0", "fusion_lon": 0.0}, {"lat": 38.8666065, "fusion_lat": 0.0, "type": "electric_scooter", "bike_id": "191e19143cc6e8be9e2c1d10e6b9c3a3", "is_reserved": 0, "rental_uris": {"ios": "https://dc.lft.to/lastmile_qr_scan", "android": "https://dc.lft.to/lastmile_qr_scan"}, "is_disabled": 0, "lon": -76.98885983333334, "name": "191e19143cc6e8be9e2c1d10e6b9c3a3", "fusion_lon": 0.0}, {"lat": 38.849269, "fusion_lat": 0.0, "type": "electric_bike", "bike_id": "aa88e1bead48bd36ca58948dd810a221", "is_reserved": 0, "rental_uris": {"ios": "https://dc.lft.to/lastmile_qr_scan", "android": "https://dc.lft.to/lastmile_qr_scan"}, "is_disabled": 0, "lon": -77.0779065, "name": "aa88e1bead48bd36ca58948dd810a221", "fusion_lon": 0.0}, {"lat": 38.86516616666667, "fusion_lat": 0.0, "type": "electric_scooter", "bike_id": "24e487b423bb6377db6c6d91aac9ec06", "is_reserved": 0, "rental_uris": {"ios": "https://dc.lft.to/lastmile_qr_scan", "android": "https://dc.lft.to/lastmile_qr_scan"}, "is_disabled": 0, "lon": -76.973432, "name": "24e487b423bb6377db6c6d91aac9ec06", "fusion_lon": 0.0}, {"lat": 38.9447515, "fusion_lat": 0.0, "type": "electric_bike", "bike_id": "ac09a207bbdffcfee8b876ae5bec37c5", "is_reserved": 0, "rental_uris": {"ios": "https://dc.lft.to/lastmile_qr_scan", "android": "https://dc.lft.to/lastmile_qr_scan"}, "is_disabled": 0, "lon": -76.98688466666667, "name": "ac09a207bbdffcfee8b876ae5bec37c5", "fusion_lon": 0.0}, {"lat": 38.91620183333333, "fusion_lat": 0.0, "type": "electric_scooter", "bike_id": "0a91bc57d59a5d73782f5563738b9294", "is_reserved": 0, "rental_uris": {"ios": "https://dc.lft.to/lastmile_qr_scan", "android": "https://dc.lft.to/lastmile_qr_scan"}, "is_disabled": 0, "lon": -77.031755, "name": "0a91bc57d59a5d73782f5563738b9294", "fusion_lon": 0.0}, {"lat": 38.9041225, "fusion_lat": 0.0, "type": "electric_scooter", "bike_id": "35915333a8a5da15ee99cf3a902630b8", "is_reserved": 0, "rental_uris": {"ios": "https://dc.lft.to/lastmile_qr_scan", "android": "https://dc.lft.to/lastmile_qr_scan"}, "is_disabled": 0, "lon": -76.97333383333333, "name": "35915333a8a5da15ee99cf3a902630b8", "fusion_lon": 0.0}, {"lat": 38.89843883333333, "fusion_lat": 0.0, "type": "electric_scooter", "bike_id": "d1e2ab07127d4a4330982ce8a24bd43e", "is_reserved": 0, "rental_uris": {"ios": "https://dc.lft.to/lastmile_qr_scan", "android": "https://dc.lft.to/lastmile_qr_scan"}, "is_disabled": 0, "lon": -77.02188083333333, "name": "d1e2ab07127d4a4330982ce8a24bd43e", "fusion_lon": 0.0}, {"lat": 38.91030383333333, "fusion_lat": 0.0, "type": "electric_scooter", "bike_id": "99438d46992ccb4bfdd066c75b0a30eb", "is_reserved": 0, "rental_uris": {"ios": "https://dc.lft.to/lastmile_qr_scan", "android": "https://dc.lft.to/lastmile_qr_scan"}, "is_disabled": 0, "lon": -76.98666616666667, "name": "99438d46992ccb4bfdd066c75b0a30eb", "fusion_lon": 0.0}, {"lat": 38.9051855, "fusion_lat": 0.0, "type": "electric_scooter", "bike_id": "16256093130b11c4e1c8c1eae71df2b3", "is_reserved": 0, "rental_uris": {"ios": "https://dc.lft.to/lastmile_qr_scan", "android": "https://dc.lft.to/lastmile_qr_scan"}, "is_disabled": 0, "lon": -77.00137216666667, "name": "16256093130b11c4e1c8c1eae71df2b3", "fusion_lon": 0.0}, {"lat": 38.92545366666667, "fusion_lat": 0.0, "type": "electric_scooter", "bike_id": "2af2fe0b64641299397e4d03c67f2700", "is_reserved": 0, "rental_uris": {"ios": "https://dc.lft.to/lastmile_qr_scan", "android": "https://dc.lft.to/lastmile_qr_scan"}, "is_disabled": 0, "lon": -77.03298683333334, "name": "2af2fe0b64641299397e4d03c67f2700", "fusion_lon": 0.0}, {"lat": 38.90395866666667, "fusion_lat": 0.0, "type": "electric_scooter", "bike_id": "092e769b70041f2292b4921d40ca4757", "is_reserved": 0, "rental_uris": {"ios": "https://dc.lft.to/lastmile_qr_scan", "android": "https://dc.lft.to/lastmile_qr_scan"}, "is_disabled": 0, "lon": -77.06778933333334, "name": "092e769b70041f2292b4921d40ca4757", "fusion_lon": 0.0}, {"lat": 38.920862, "fusion_lat": 0.0, "type": "electric_scooter", "bike_id": "e0e16fa45d53cf1cef27748bc4aa2bb9", "is_reserved": 0, "rental_uris": {"ios": "https://dc.lft.to/lastmile_qr_scan", "android": "https://dc.lft.to/lastmile_qr_scan"}, "is_disabled": 0, "lon": -77.03872533333333, "name": "e0e16fa45d53cf1cef27748bc4aa2bb9", "fusion_lon": 0.0}, {"lat": 39.021030833333334, "fusion_lat": 0.0, "type": "electric_bike", "bike_id": "3f795508955e5734d03d6852c536f8ac", "is_reserved": 0, "rental_uris": {"ios": "https://dc.lft.to/lastmile_qr_scan", "android": "https://dc.lft.to/lastmile_qr_scan"}, "is_disabled": 0, "lon": -77.01240516666667, "name": "3f795508955e5734d03d6852c536f8ac", "fusion_lon": 0.0}, {"lat": 38.92235516666667, "fusion_lat": 0.0, "type": "electric_scooter", "bike_id": "301bfa3d925d908d09d0dcf5ba40626c", "is_reserved": 0, "rental_uris": {"ios": "https://dc.lft.to/lastmile_qr_scan", "android": "https://dc.lft.to/lastmile_qr_scan"}, "is_disabled": 0, "lon": -77.043158, "name": "301bfa3d925d908d09d0dcf5ba40626c", "fusion_lon": 0.0}, {"lat": 38.9301065, "fusion_lat": 0.0, "type": "electric_scooter", "bike_id": "f2037a1c70907395815b09336869b590", "is_reserved": 0, "rental_uris": {"ios": "https://dc.lft.to/lastmile_qr_scan", "android": "https://dc.lft.to/lastmile_qr_scan"}, "is_disabled": 0, "lon": -77.0552205, "name": "f2037a1c70907395815b09336869b590", "fusion_lon": 0.0}, {"lat": 38.97398466666667, "fusion_lat": 0.0, "type": "electric_bike", "bike_id": "19a0d49fa0708cc372de1860c2fe19ae", "is_reserved": 0, "rental_uris": {"ios": "https://dc.lft.to/lastmile_qr_scan", "android": "https://dc.lft.to/lastmile_qr_scan"}, "is_disabled": 0, "lon": -77.064507, "name": "19a0d49fa0708cc372de1860c2fe19ae", "fusion_lon": 0.0}, {"lat": 38.911393333333336, "fusion_lat": 0.0, "type": "electric_scooter", "bike_id": "ac9f9340db056fab6371dfbe42be077c", "is_reserved": 0, "rental_uris": {"ios": "https://dc.lft.to/lastmile_qr_scan", "android": "https://dc.lft.to/lastmile_qr_scan"}, "is_disabled": 0, "lon": -77.03839616666667, "name": "ac9f9340db056fab6371dfbe42be077c", "fusion_lon": 0.0}, {"lat": 38.92486383333333, "fusion_lat": 0.0, "type": "electric_scooter", "bike_id": "8e8a4c6324761e299a981f023160ead9", "is_reserved": 0, "rental_uris": {"ios": "https://dc.lft.to/lastmile_qr_scan", "android": "https://dc.lft.to/lastmile_qr_scan"}, "is_disabled": 0, "lon": -77.03181366666666, "name": "8e8a4c6324761e299a981f023160ead9", "fusion_lon": 0.0}, {"lat": 38.92775566666667, "fusion_lat": 0.0, "type": "electric_scooter", "bike_id": "68bbd4825dfbe16e8b5b8106159102f6", "is_reserved": 0, "rental_uris": {"ios": "https://dc.lft.to/lastmile_qr_scan", "android": "https://dc.lft.to/lastmile_qr_scan"}, "is_disabled": 0, "lon": -77.040569, "name": "68bbd4825dfbe16e8b5b8106159102f6", "fusion_lon": 0.0}, {"lat": 38.901428833333334, "fusion_lat": 0.0, "type": "electric_scooter", "bike_id": "fe4e61b6673d1f01c29c02fa9a05e143", "is_reserved": 0, "rental_uris": {"ios": "https://dc.lft.to/lastmile_qr_scan", "android": "https://dc.lft.to/lastmile_qr_scan"}, "is_disabled": 0, "lon": -77.02687033333333, "name": "fe4e61b6673d1f01c29c02fa9a05e143", "fusion_lon": 0.0}, {"lat": 38.89797016666667, "fusion_lat": 0.0, "type": "electric_scooter", "bike_id": "54142b70e10f2f019cac23af10d1020d", "is_reserved": 0, "rental_uris": {"ios": "https://dc.lft.to/lastmile_qr_scan", "android": "https://dc.lft.to/lastmile_qr_scan"}, "is_disabled": 0, "lon": -77.03368766666667, "name": "54142b70e10f2f019cac23af10d1020d", "fusion_lon": 0.0}, {"lat": 38.8793695, "fusion_lat": 0.0, "type": "electric_scooter", "bike_id": "3b25022f2f91300bab8fcb19342dfbfc", "is_reserved": 0, "rental_uris": {"ios": "https://dc.lft.to/lastmile_qr_scan", "android": "https://dc.lft.to/lastmile_qr_scan"}, "is_disabled": 0, "lon": -77.01468966666667, "name": "3b25022f2f91300bab8fcb19342dfbfc", "fusion_lon": 0.0}, {"lat": 38.90143033333333, "fusion_lat": 0.0, "type": "electric_scooter", "bike_id": "50151aab9810ab1996e405d42ae61887", "is_reserved": 0, "rental_uris": {"ios": "https://dc.lft.to/lastmile_qr_scan", "android": "https://dc.lft.to/lastmile_qr_scan"}, "is_disabled": 0, "lon": -76.92979066666666, "name": "50151aab9810ab1996e405d42ae61887", "fusion_lon": 0.0}, {"lat": 38.920739833333336, "fusion_lat": 0.0, "type": "electric_scooter", "bike_id": "6141f08a8e1c490231a53677f077dc8b", "is_reserved": 0, "rental_uris": {"ios": "https://dc.lft.to/lastmile_qr_scan", "android": "https://dc.lft.to/lastmile_qr_scan"}, "is_disabled": 0, "lon": -77.01674483333333, "name": "6141f08a8e1c490231a53677f077dc8b", "fusion_lon": 0.0}, {"lat": 38.909918833333336, "fusion_lat": 0.0, "type": "electric_scooter", "bike_id": "12d15f7400d5683477f99d77471a5fc7", "is_reserved": 0, "rental_uris": {"ios": "https://dc.lft.to/lastmile_qr_scan", "android": "https://dc.lft.to/lastmile_qr_scan"}, "is_disabled": 0, "lon": -77.03367683333333, "name": "12d15f7400d5683477f99d77471a5fc7", "fusion_lon": 0.0}, {"lat": 38.87942066666667, "fusion_lat": 0.0, "type": "electric_scooter", "bike_id": "4f018e3d40005c1ab1e52e31f9038ff4", "is_reserved": 0, "rental_uris": {"ios": "https://dc.lft.to/lastmile_qr_scan", "android": "https://dc.lft.to/lastmile_qr_scan"}, "is_disabled": 0, "lon": -77.0006475, "name": "4f018e3d40005c1ab1e52e31f9038ff4", "fusion_lon": 0.0}, {"lat": 38.899614, "fusion_lat": 0.0, "type": "electric_bike", "bike_id": "3b787c32c9564bd5175ce400ef8ac173", "is_reserved": 0, "rental_uris": {"ios": "https://dc.lft.to/lastmile_qr_scan", "android": "https://dc.lft.to/lastmile_qr_scan"}, "is_disabled": 0, "lon": -76.98679133333333, "name": "3b787c32c9564bd5175ce400ef8ac173", "fusion_lon": 0.0}, {"lat": 38.927689, "fusion_lat": 0.0, "type": "electric_bike", "bike_id": "6078fce1f149a2276c5a0ccfb83a8260", "is_reserved": 0, "rental_uris": {"ios": "https://dc.lft.to/lastmile_qr_scan", "android": "https://dc.lft.to/lastmile_qr_scan"}, "is_disabled": 0, "lon": -77.07013533333334, "name": "6078fce1f149a2276c5a0ccfb83a8260", "fusion_lon": 0.0}, {"lat": 38.907378666666666, "fusion_lat": 0.0, "type": "electric_scooter", "bike_id": "6318b219a4177d6a6919d1d54c31a7bd", "is_reserved": 0, "rental_uris": {"ios": "https://dc.lft.to/lastmile_qr_scan", "android": "https://dc.lft.to/lastmile_qr_scan"}, "is_disabled": 0, "lon": -76.979715, "name": "6318b219a4177d6a6919d1d54c31a7bd", "fusion_lon": 0.0}, {"lat": 38.91858466666667, "fusion_lat": 0.0, "type": "electric_scooter", "bike_id": "5ebdf2025fdc233a615147de9e767f2c", "is_reserved": 0, "rental_uris": {"ios": "https://dc.lft.to/lastmile_qr_scan", "android": "https://dc.lft.to/lastmile_qr_scan"}, "is_disabled": 0, "lon": -77.04182333333334, "name": "5ebdf2025fdc233a615147de9e767f2c", "fusion_lon": 0.0}, {"lat": 38.8314555, "fusion_lat": 0.0, "type": "electric_scooter", "bike_id": "29acb7aaf54cf6e58a356ee3e6e82251", "is_reserved": 0, "rental_uris": {"ios": "https://dc.lft.to/lastmile_qr_scan", "android": "https://dc.lft.to/lastmile_qr_scan"}, "is_disabled": 0, "lon": -77.05131733333333, "name": "29acb7aaf54cf6e58a356ee3e6e82251", "fusion_lon": 0.0}, {"lat": 38.8639275, "fusion_lat": 0.0, "type": "electric_scooter", "bike_id": "dfce419388ba704914a84a6bbdd6b8f8", "is_reserved": 0, "rental_uris": {"ios": "https://dc.lft.to/lastmile_qr_scan", "android": "https://dc.lft.to/lastmile_qr_scan"}, "is_disabled": 0, "lon": -76.99044383333333, "name": "dfce419388ba704914a84a6bbdd6b8f8", "fusion_lon": 0.0}, {"lat": 38.90053016666667, "fusion_lat": 0.0, "type": "electric_scooter", "bike_id": "dfa1dc2d4c17c7c3b5fb95d112780c1a", "is_reserved": 0, "rental_uris": {"ios": "https://dc.lft.to/lastmile_qr_scan", "android": "https://dc.lft.to/lastmile_qr_scan"}, "is_disabled": 0, "lon": -76.91940866666667, "name": "dfa1dc2d4c17c7c3b5fb95d112780c1a", "fusion_lon": 0.0}, {"lat": 38.905639, "fusion_lat": 0.0, "type": "electric_scooter", "bike_id": "766f7b7c94961faae9ad4431151a9aad", "is_reserved": 0, "rental_uris": {"ios": "https://dc.lft.to/lastmile_qr_scan", "android": "https://dc.lft.to/lastmile_qr_scan"}, "is_disabled": 0, "lon": -77.04188933333333, "name": "766f7b7c94961faae9ad4431151a9aad", "fusion_lon": 0.0}, {"lat": 38.80135383333333, "fusion_lat": 0.0, "type": "electric_bike", "bike_id": "e6e18ce1bec46bc0897ba383e61c7b48", "is_reserved": 0, "rental_uris": {"ios": "https://dc.lft.to/lastmile_qr_scan", "android": "https://dc.lft.to/lastmile_qr_scan"}, "is_disabled": 0, "lon": -77.0704655, "name": "e6e18ce1bec46bc0897ba383e61c7b48", "fusion_lon": 0.0}, {"lat": 38.925685, "fusion_lat": 0.0, "type": "electric_scooter", "bike_id": "efe33f328ded52025b9c28ae8a852f46", "is_reserved": 0, "rental_uris": {"ios": "https://dc.lft.to/lastmile_qr_scan", "android": "https://dc.lft.to/lastmile_qr_scan"}, "is_disabled": 0, "lon": -77.04376683333334, "name": "efe33f328ded52025b9c28ae8a852f46", "fusion_lon": 0.0}, {"lat": 38.903792, "fusion_lat": 0.0, "type": "electric_scooter", "bike_id": "7526a9dbc6ea7b24077e5faa204faed8", "is_reserved": 0, "rental_uris": {"ios": "https://dc.lft.to/lastmile_qr_scan", "android": "https://dc.lft.to/lastmile_qr_scan"}, "is_disabled": 0, "lon": -77.0448905, "name": "7526a9dbc6ea7b24077e5faa204faed8", "fusion_lon": 0.0}, {"lat": 38.936091833333336, "fusion_lat": 0.0, "type": "electric_scooter", "bike_id": "92a3ec6b6a75985f73187d742134ba1c", "is_reserved": 0, "rental_uris": {"ios": "https://dc.lft.to/lastmile_qr_scan", "android": "https://dc.lft.to/lastmile_qr_scan"}, "is_disabled": 0, "lon": -77.05855933333333, "name": "92a3ec6b6a75985f73187d742134ba1c", "fusion_lon": 0.0}, {"lat": 38.892121833333334, "fusion_lat": 0.0, "type": "electric_scooter", "bike_id": "855557f5638532323ae66a8e906479a1", "is_reserved": 0, "rental_uris": {"ios": "https://dc.lft.to/lastmile_qr_scan", "android": "https://dc.lft.to/lastmile_qr_scan"}, "is_disabled": 0, "lon": -77.02592683333333, "name": "855557f5638532323ae66a8e906479a1", "fusion_lon": 0.0}, {"lat": 38.9005225, "fusion_lat": 0.0, "type": "electric_scooter", "bike_id": "b76a9595ba614895246047eca71fea25", "is_reserved": 0, "rental_uris": {"ios": "https://dc.lft.to/lastmile_qr_scan", "android": "https://dc.lft.to/lastmile_qr_scan"}, "is_disabled": 0, "lon": -77.00062633333333, "name": "b76a9595ba614895246047eca71fea25", "fusion_lon": 0.0}, {"lat": 38.9212855, "fusion_lat": 0.0, "type": "electric_scooter", "bike_id": "baec02cd848bd792ea08edcf1df28eb6", "is_reserved": 0, "rental_uris": {"ios": "https://dc.lft.to/lastmile_qr_scan", "android": "https://dc.lft.to/lastmile_qr_scan"}, "is_disabled": 0, "lon": -77.012089, "name": "baec02cd848bd792ea08edcf1df28eb6", "fusion_lon": 0.0}, {"lat": 38.923252833333336, "fusion_lat": 0.0, "type": "electric_scooter", "bike_id": "26a82627df32ddbdd1f07fecf299d4c4", "is_reserved": 0, "rental_uris": {"ios": "https://dc.lft.to/lastmile_qr_scan", "android": "https://dc.lft.to/lastmile_qr_scan"}, "is_disabled": 0, "lon": -77.0213215, "name": "26a82627df32ddbdd1f07fecf299d4c4", "fusion_lon": 0.0}, {"lat": 38.92607666666667, "fusion_lat": 0.0, "type": "electric_scooter", "bike_id": "eabc8dfea42863bb5ed829e3d6a9ab78", "is_reserved": 0, "rental_uris": {"ios": "https://dc.lft.to/lastmile_qr_scan", "android": "https://dc.lft.to/lastmile_qr_scan"}, "is_disabled": 0, "lon": -77.0241635, "name": "eabc8dfea42863bb5ed829e3d6a9ab78", "fusion_lon": 0.0}, {"lat": 38.9042765, "fusion_lat": 0.0, "type": "electric_scooter", "bike_id": "7ce24527ce604ccf375b2becd20d6c7e", "is_reserved": 0, "rental_uris": {"ios": "https://dc.lft.to/lastmile_qr_scan", "android": "https://dc.lft.to/lastmile_qr_scan"}, "is_disabled": 0, "lon": -77.043536, "name": "7ce24527ce604ccf375b2becd20d6c7e", "fusion_lon": 0.0}, {"lat": 38.88106416666667, "fusion_lat": 0.0, "type": "electric_scooter", "bike_id": "f8ffcc16ebad6988c0894f2ce0e08878", "is_reserved": 0, "rental_uris": {"ios": "https://dc.lft.to/lastmile_qr_scan", "android": "https://dc.lft.to/lastmile_qr_scan"}, "is_disabled": 0, "lon": -76.9984745, "name": "f8ffcc16ebad6988c0894f2ce0e08878", "fusion_lon": 0.0}, {"lat": 38.96315633333333, "fusion_lat": 0.0, "type": "electric_bike", "bike_id": "f1770e9813f9a6d9ad2f51f88788fc28", "is_reserved": 0, "rental_uris": {"ios": "https://dc.lft.to/lastmile_qr_scan", "android": "https://dc.lft.to/lastmile_qr_scan"}, "is_disabled": 0, "lon": -77.0109845, "name": "f1770e9813f9a6d9ad2f51f88788fc28", "fusion_lon": 0.0}, {"lat": 38.9160315, "fusion_lat": 0.0, "type": "electric_scooter", "bike_id": "7898736f016e7f65794075a3e633fd8f", "is_reserved": 0, "rental_uris": {"ios": "https://dc.lft.to/lastmile_qr_scan", "android": "https://dc.lft.to/lastmile_qr_scan"}, "is_disabled": 0, "lon": -77.02304283333334, "name": "7898736f016e7f65794075a3e633fd8f", "fusion_lon": 0.0}, {"lat": 38.89223633333334, "fusion_lat": 0.0, "type": "electric_scooter", "bike_id": "b52728a449c103166a1a0f1fdb481d27", "is_reserved": 0, "rental_uris": {"ios": "https://dc.lft.to/lastmile_qr_scan", "android": "https://dc.lft.to/lastmile_qr_scan"}, "is_disabled": 0, "lon": -77.02800766666667, "name": "b52728a449c103166a1a0f1fdb481d27", "fusion_lon": 0.0}, {"lat": 38.923498333333335, "fusion_lat": 0.0, "type": "electric_scooter", "bike_id": "6c2e5bfaceb9b6fd4acd9898a32b929e", "is_reserved": 0, "rental_uris": {"ios": "https://dc.lft.to/lastmile_qr_scan", "android": "https://dc.lft.to/lastmile_qr_scan"}, "is_disabled": 0, "lon": -77.04170816666667, "name": "6c2e5bfaceb9b6fd4acd9898a32b929e", "fusion_lon": 0.0}, {"lat": 38.955328333333334, "fusion_lat": 0.0, "type": "electric_bike", "bike_id": "d038549d9fce6c5fbd98d03e9bd785a9", "is_reserved": 0, "rental_uris": {"ios": "https://dc.lft.to/lastmile_qr_scan", "android": "https://dc.lft.to/lastmile_qr_scan"}, "is_disabled": 0, "lon": -76.9682715, "name": "d038549d9fce6c5fbd98d03e9bd785a9", "fusion_lon": 0.0}, {"lat": 38.905125166666664, "fusion_lat": 0.0, "type": "electric_scooter", "bike_id": "0f4901e2582a5ffb2887662f5431b0cc", "is_reserved": 0, "rental_uris": {"ios": "https://dc.lft.to/lastmile_qr_scan", "android": "https://dc.lft.to/lastmile_qr_scan"}, "is_disabled": 0, "lon": -77.06016433333333, "name": "0f4901e2582a5ffb2887662f5431b0cc", "fusion_lon": 0.0}, {"lat": 38.918179, "fusion_lat": 0.0, "type": "electric_scooter", "bike_id": "76b94546c6f7369749d11c65c7c894b9", "is_reserved": 0, "rental_uris": {"ios": "https://dc.lft.to/lastmile_qr_scan", "android": "https://dc.lft.to/lastmile_qr_scan"}, "is_disabled": 0, "lon": -77.0896265, "name": "76b94546c6f7369749d11c65c7c894b9", "fusion_lon": 0.0}, {"lat": 38.916863166666666, "fusion_lat": 0.0, "type": "electric_scooter", "bike_id": "b789fa5b8f474af767678fc82694c267", "is_reserved": 0, "rental_uris": {"ios": "https://dc.lft.to/lastmile_qr_scan", "android": "https://dc.lft.to/lastmile_qr_scan"}, "is_disabled": 0, "lon": -77.0158315, "name": "b789fa5b8f474af767678fc82694c267", "fusion_lon": 0.0}, {"lat": 38.91911866666667, "fusion_lat": 0.0, "type": "electric_scooter", "bike_id": "ee9ef2365c284e2b378399b6df756ab2", "is_reserved": 0, "rental_uris": {"ios": "https://dc.lft.to/lastmile_qr_scan", "android": "https://dc.lft.to/lastmile_qr_scan"}, "is_disabled": 0, "lon": -77.01538666666667, "name": "ee9ef2365c284e2b378399b6df756ab2", "fusion_lon": 0.0}, {"lat": 38.96323866666667, "fusion_lat": 0.0, "type": "electric_bike", "bike_id": "11bd430f11b6bfd03651cb244ab54aff", "is_reserved": 0, "rental_uris": {"ios": "https://dc.lft.to/lastmile_qr_scan", "android": "https://dc.lft.to/lastmile_qr_scan"}, "is_disabled": 0, "lon": -76.97358783333334, "name": "11bd430f11b6bfd03651cb244ab54aff", "fusion_lon": 0.0}, {"lat": 38.922551, "fusion_lat": 0.0, "type": "electric_scooter", "bike_id": "d09d08b3caaa820f753cf5e42600d080", "is_reserved": 0, "rental_uris": {"ios": "https://dc.lft.to/lastmile_qr_scan", "android": "https://dc.lft.to/lastmile_qr_scan"}, "is_disabled": 0, "lon": -77.04197333333333, "name": "d09d08b3caaa820f753cf5e42600d080", "fusion_lon": 0.0}, {"lat": 38.90630916666667, "fusion_lat": 0.0, "type": "electric_scooter", "bike_id": "2cb7302c790b916243c3f689cd0d2ee5", "is_reserved": 0, "rental_uris": {"ios": "https://dc.lft.to/lastmile_qr_scan", "android": "https://dc.lft.to/lastmile_qr_scan"}, "is_disabled": 0, "lon": -77.04144783333334, "name": "2cb7302c790b916243c3f689cd0d2ee5", "fusion_lon": 0.0}, {"lat": 38.93229816666667, "fusion_lat": 0.0, "type": "electric_bike", "bike_id": "8f673c8be47fa00cd4bf9f717c43eff5", "is_reserved": 0, "rental_uris": {"ios": "https://dc.lft.to/lastmile_qr_scan", "android": "https://dc.lft.to/lastmile_qr_scan"}, "is_disabled": 0, "lon": -77.181225, "name": "8f673c8be47fa00cd4bf9f717c43eff5", "fusion_lon": 0.0}, {"lat": 38.913451333333335, "fusion_lat": 0.0, "type": "electric_scooter", "bike_id": "c2c244eb1ab27c5a42d816620b0dc9b4", "is_reserved": 0, "rental_uris": {"ios": "https://dc.lft.to/lastmile_qr_scan", "android": "https://dc.lft.to/lastmile_qr_scan"}, "is_disabled": 0, "lon": -77.03264133333333, "name": "c2c244eb1ab27c5a42d816620b0dc9b4", "fusion_lon": 0.0}, {"lat": 38.866193833333334, "fusion_lat": 0.0, "type": "electric_scooter", "bike_id": "a6e2514eb18aed87639b25a3333cea8f", "is_reserved": 0, "rental_uris": {"ios": "https://dc.lft.to/lastmile_qr_scan", "android": "https://dc.lft.to/lastmile_qr_scan"}, "is_disabled": 0, "lon": -77.08786216666667, "name": "a6e2514eb18aed87639b25a3333cea8f", "fusion_lon": 0.0}, {"lat": 38.9132025, "fusion_lat": 0.0, "type": "electric_scooter", "bike_id": "294a769cbc66efca5ae876132bd4bc03", "is_reserved": 0, "rental_uris": {"ios": "https://dc.lft.to/lastmile_qr_scan", "android": "https://dc.lft.to/lastmile_qr_scan"}, "is_disabled": 0, "lon": -77.0624765, "name": "294a769cbc66efca5ae876132bd4bc03", "fusion_lon": 0.0}, {"lat": 38.93418283333333, "fusion_lat": 0.0, "type": "electric_scooter", "bike_id": "228cf9804ec3ef0ac10629c3d7ea1f8f", "is_reserved": 0, "rental_uris": {"ios": "https://dc.lft.to/lastmile_qr_scan", "android": "https://dc.lft.to/lastmile_qr_scan"}, "is_disabled": 0, "lon": -77.04150016666667, "name": "228cf9804ec3ef0ac10629c3d7ea1f8f", "fusion_lon": 0.0}, {"lat": 38.928717, "fusion_lat": 0.0, "type": "electric_scooter", "bike_id": "0bab3aaa620b0922a2284e65b3966100", "is_reserved": 0, "rental_uris": {"ios": "https://dc.lft.to/lastmile_qr_scan", "android": "https://dc.lft.to/lastmile_qr_scan"}, "is_disabled": 0, "lon": -77.0282545, "name": "0bab3aaa620b0922a2284e65b3966100", "fusion_lon": 0.0}, {"lat": 38.89926116666667, "fusion_lat": 0.0, "type": "electric_scooter", "bike_id": "5d882c61e09f2999e7635a9ea9234b20", "is_reserved": 0, "rental_uris": {"ios": "https://dc.lft.to/lastmile_qr_scan", "android": "https://dc.lft.to/lastmile_qr_scan"}, "is_disabled": 0, "lon": -77.02221533333334, "name": "5d882c61e09f2999e7635a9ea9234b20", "fusion_lon": 0.0}, {"lat": 38.919410166666665, "fusion_lat": 0.0, "type": "electric_scooter", "bike_id": "499741264c434470bf632a112839fcc0", "is_reserved": 0, "rental_uris": {"ios": "https://dc.lft.to/lastmile_qr_scan", "android": "https://dc.lft.to/lastmile_qr_scan"}, "is_disabled": 0, "lon": -77.03187966666667, "name": "499741264c434470bf632a112839fcc0", "fusion_lon": 0.0}, {"lat": 38.91371733333333, "fusion_lat": 0.0, "type": "electric_scooter", "bike_id": "90e14119bfcdf52f8abe89ccddfd13f9", "is_reserved": 0, "rental_uris": {"ios": "https://dc.lft.to/lastmile_qr_scan", "android": "https://dc.lft.to/lastmile_qr_scan"}, "is_disabled": 0, "lon": -77.06618616666667, "name": "90e14119bfcdf52f8abe89ccddfd13f9", "fusion_lon": 0.0}, {"lat": 38.90788033333333, "fusion_lat": 0.0, "type": "electric_scooter", "bike_id": "18a8da682bf5439e9afd908eed75a7ad", "is_reserved": 0, "rental_uris": {"ios": "https://dc.lft.to/lastmile_qr_scan", "android": "https://dc.lft.to/lastmile_qr_scan"}, "is_disabled": 0, "lon": -77.03827066666666, "name": "18a8da682bf5439e9afd908eed75a7ad", "fusion_lon": 0.0}, {"lat": 38.87638366666667, "fusion_lat": 0.0, "type": "electric_scooter", "bike_id": "cfa4210f434c9559acebacb16b58673c", "is_reserved": 0, "rental_uris": {"ios": "https://dc.lft.to/lastmile_qr_scan", "android": "https://dc.lft.to/lastmile_qr_scan"}, "is_disabled": 0, "lon": -77.00454933333333, "name": "cfa4210f434c9559acebacb16b58673c", "fusion_lon": 0.0}, {"lat": 38.917702166666665, "fusion_lat": 0.0, "type": "electric_scooter", "bike_id": "35c891a1f066c573b72cc4db3a563aa5", "is_reserved": 0, "rental_uris": {"ios": "https://dc.lft.to/lastmile_qr_scan", "android": "https://dc.lft.to/lastmile_qr_scan"}, "is_disabled": 0, "lon": -77.0406245, "name": "35c891a1f066c573b72cc4db3a563aa5", "fusion_lon": 0.0}, {"lat": 38.9066595, "fusion_lat": 0.0, "type": "electric_scooter", "bike_id": "e639d7eb77d644acf8b73c421741db27", "is_reserved": 0, "rental_uris": {"ios": "https://dc.lft.to/lastmile_qr_scan", "android": "https://dc.lft.to/lastmile_qr_scan"}, "is_disabled": 0, "lon": -77.00900016666667, "name": "e639d7eb77d644acf8b73c421741db27", "fusion_lon": 0.0}, {"lat": 38.92879516666667, "fusion_lat": 0.0, "type": "electric_scooter", "bike_id": "69854df246543924471969b29771801a", "is_reserved": 0, "rental_uris": {"ios": "https://dc.lft.to/lastmile_qr_scan", "android": "https://dc.lft.to/lastmile_qr_scan"}, "is_disabled": 0, "lon": -77.01361633333333, "name": "69854df246543924471969b29771801a", "fusion_lon": 0.0}, {"lat": 39.038875166666664, "fusion_lat": 0.0, "type": "electric_bike", "bike_id": "e55928b391f877d97201ae7f4ffa0258", "is_reserved": 0, "rental_uris": {"ios": "https://dc.lft.to/lastmile_qr_scan", "android": "https://dc.lft.to/lastmile_qr_scan"}, "is_disabled": 0, "lon": -77.050668, "name": "e55928b391f877d97201ae7f4ffa0258", "fusion_lon": 0.0}, {"lat": 38.88463183333333, "fusion_lat": 0.0, "type": "electric_scooter", "bike_id": "a7f2c3b3bdf4de9b9a5766f5c8d46a4c", "is_reserved": 0, "rental_uris": {"ios": "https://dc.lft.to/lastmile_qr_scan", "android": "https://dc.lft.to/lastmile_qr_scan"}, "is_disabled": 0, "lon": -76.95748766666667, "name": "a7f2c3b3bdf4de9b9a5766f5c8d46a4c", "fusion_lon": 0.0}, {"lat": 38.88605916666667, "fusion_lat": 0.0, "type": "electric_scooter", "bike_id": "1a355cb49e4288e065f9cf75ef18fae7", "is_reserved": 0, "rental_uris": {"ios": "https://dc.lft.to/lastmile_qr_scan", "android": "https://dc.lft.to/lastmile_qr_scan"}, "is_disabled": 0, "lon": -76.99604466666666, "name": "1a355cb49e4288e065f9cf75ef18fae7", "fusion_lon": 0.0}, {"lat": 38.9233325, "fusion_lat": 0.0, "type": "electric_scooter", "bike_id": "3b73c5af159f52eac8599ebc3816b7cc", "is_reserved": 0, "rental_uris": {"ios": "https://dc.lft.to/lastmile_qr_scan", "android": "https://dc.lft.to/lastmile_qr_scan"}, "is_disabled": 0, "lon": -77.02267983333333, "name": "3b73c5af159f52eac8599ebc3816b7cc", "fusion_lon": 0.0}, {"lat": 39.05498766666667, "fusion_lat": 0.0, "type": "electric_bike", "bike_id": "2739a2e0d3d02fc123bc35dc31262bfc", "is_reserved": 0, "rental_uris": {"ios": "https://dc.lft.to/lastmile_qr_scan", "android": "https://dc.lft.to/lastmile_qr_scan"}, "is_disabled": 0, "lon": -77.11788383333334, "name": "2739a2e0d3d02fc123bc35dc31262bfc", "fusion_lon": 0.0}, {"lat": 38.90258516666667, "fusion_lat": 0.0, "type": "electric_scooter", "bike_id": "6ded7133937f507282f1cbeff5a51d7f", "is_reserved": 0, "rental_uris": {"ios": "https://dc.lft.to/lastmile_qr_scan", "android": "https://dc.lft.to/lastmile_qr_scan"}, "is_disabled": 0, "lon": -77.01767483333333, "name": "6ded7133937f507282f1cbeff5a51d7f", "fusion_lon": 0.0}, {"lat": 38.91383366666667, "fusion_lat": 0.0, "type": "electric_scooter", "bike_id": "12a5f2c350bf9801e59bde78eb9c1362", "is_reserved": 0, "rental_uris": {"ios": "https://dc.lft.to/lastmile_qr_scan", "android": "https://dc.lft.to/lastmile_qr_scan"}, "is_disabled": 0, "lon": -77.04603833333333, "name": "12a5f2c350bf9801e59bde78eb9c1362", "fusion_lon": 0.0}, {"lat": 38.870202166666665, "fusion_lat": 0.0, "type": "electric_scooter", "bike_id": "ddbf6b9d3639c911bc383807373369b7", "is_reserved": 0, "rental_uris": {"ios": "https://dc.lft.to/lastmile_qr_scan", "android": "https://dc.lft.to/lastmile_qr_scan"}, "is_disabled": 0, "lon": -76.98082583333333, "name": "ddbf6b9d3639c911bc383807373369b7", "fusion_lon": 0.0}, {"lat": 38.892236, "fusion_lat": 0.0, "type": "electric_scooter", "bike_id": "1284501509506cbbfde4a06ced201a24", "is_reserved": 0, "rental_uris": {"ios": "https://dc.lft.to/lastmile_qr_scan", "android": "https://dc.lft.to/lastmile_qr_scan"}, "is_disabled": 0, "lon": -77.0486155, "name": "1284501509506cbbfde4a06ced201a24", "fusion_lon": 0.0}, {"lat": 38.923617166666666, "fusion_lat": 0.0, "type": "electric_scooter", "bike_id": "f8beb5c227001e57808a46ef0cfeb88c", "is_reserved": 0, "rental_uris": {"ios": "https://dc.lft.to/lastmile_qr_scan", "android": "https://dc.lft.to/lastmile_qr_scan"}, "is_disabled": 0, "lon": -77.0510305, "name": "f8beb5c227001e57808a46ef0cfeb88c", "fusion_lon": 0.0}, {"lat": 38.9072495, "fusion_lat": 0.0, "type": "electric_scooter", "bike_id": "1a84fa9479dcbe8c5c46857be2647147", "is_reserved": 0, "rental_uris": {"ios": "https://dc.lft.to/lastmile_qr_scan", "android": "https://dc.lft.to/lastmile_qr_scan"}, "is_disabled": 0, "lon": -77.014685, "name": "1a84fa9479dcbe8c5c46857be2647147", "fusion_lon": 0.0}, {"lat": 38.923278333333336, "fusion_lat": 0.0, "type": "electric_scooter", "bike_id": "81cb8cdbf8bca0b91860ece9e56541e3", "is_reserved": 0, "rental_uris": {"ios": "https://dc.lft.to/lastmile_qr_scan", "android": "https://dc.lft.to/lastmile_qr_scan"}, "is_disabled": 0, "lon": -77.02140483333334, "name": "81cb8cdbf8bca0b91860ece9e56541e3", "fusion_lon": 0.0}, {"lat": 38.89184766666666, "fusion_lat": 0.0, "type": "electric_scooter", "bike_id": "af809dec3b35f930e24a2051e4f7ef17", "is_reserved": 0, "rental_uris": {"ios": "https://dc.lft.to/lastmile_qr_scan", "android": "https://dc.lft.to/lastmile_qr_scan"}, "is_disabled": 0, "lon": -77.02206266666667, "name": "af809dec3b35f930e24a2051e4f7ef17", "fusion_lon": 0.0}, {"lat": 38.8947335, "fusion_lat": 0.0, "type": "electric_scooter", "bike_id": "a9bd502bf187a3480344f30530c564c9", "is_reserved": 0, "rental_uris": {"ios": "https://dc.lft.to/lastmile_qr_scan", "android": "https://dc.lft.to/lastmile_qr_scan"}, "is_disabled": 0, "lon": -77.02259716666667, "name": "a9bd502bf187a3480344f30530c564c9", "fusion_lon": 0.0}, {"lat": 38.919231, "fusion_lat": 0.0, "type": "electric_scooter", "bike_id": "074122f12e41e79ebc8c993f32d28aed", "is_reserved": 0, "rental_uris": {"ios": "https://dc.lft.to/lastmile_qr_scan", "android": "https://dc.lft.to/lastmile_qr_scan"}, "is_disabled": 0, "lon": -77.0322425, "name": "074122f12e41e79ebc8c993f32d28aed", "fusion_lon": 0.0}, {"lat": 38.957375166666665, "fusion_lat": 0.0, "type": "electric_scooter", "bike_id": "c23bf3f32dc72d58920396e367dff853", "is_reserved": 0, "rental_uris": {"ios": "https://dc.lft.to/lastmile_qr_scan", "android": "https://dc.lft.to/lastmile_qr_scan"}, "is_disabled": 0, "lon": -77.024039, "name": "c23bf3f32dc72d58920396e367dff853", "fusion_lon": 0.0}, {"lat": 38.916232666666666, "fusion_lat": 0.0, "type": "electric_scooter", "bike_id": "b0763646e34d69a34748cc5bba38a5af", "is_reserved": 0, "rental_uris": {"ios": "https://dc.lft.to/lastmile_qr_scan", "android": "https://dc.lft.to/lastmile_qr_scan"}, "is_disabled": 0, "lon": -77.04610216666667, "name": "b0763646e34d69a34748cc5bba38a5af", "fusion_lon": 0.0}, {"lat": 38.882497, "fusion_lat": 0.0, "type": "electric_scooter", "bike_id": "5e37a90151d584e4b17540ac7e186f3a", "is_reserved": 0, "rental_uris": {"ios": "https://dc.lft.to/lastmile_qr_scan", "android": "https://dc.lft.to/lastmile_qr_scan"}, "is_disabled": 0, "lon": -76.99118816666666, "name": "5e37a90151d584e4b17540ac7e186f3a", "fusion_lon": 0.0}, {"lat": 38.90184433333334, "fusion_lat": 0.0, "type": "electric_scooter", "bike_id": "462b5b1c6b8d0ecac22cf76e82d65e26", "is_reserved": 0, "rental_uris": {"ios": "https://dc.lft.to/lastmile_qr_scan", "android": "https://dc.lft.to/lastmile_qr_scan"}, "is_disabled": 0, "lon": -77.02517116666667, "name": "462b5b1c6b8d0ecac22cf76e82d65e26", "fusion_lon": 0.0}, {"lat": 38.896184833333336, "fusion_lat": 0.0, "type": "electric_scooter", "bike_id": "e896c75476368d85f802230f2ff0b396", "is_reserved": 0, "rental_uris": {"ios": "https://dc.lft.to/lastmile_qr_scan", "android": "https://dc.lft.to/lastmile_qr_scan"}, "is_disabled": 0, "lon": -77.0455965, "name": "e896c75476368d85f802230f2ff0b396", "fusion_lon": 0.0}, {"lat": 38.912739333333334, "fusion_lat": 0.0, "type": "electric_scooter", "bike_id": "a50074c534a51feb31d2b00170430134", "is_reserved": 0, "rental_uris": {"ios": "https://dc.lft.to/lastmile_qr_scan", "android": "https://dc.lft.to/lastmile_qr_scan"}, "is_disabled": 0, "lon": -77.07348166666667, "name": "a50074c534a51feb31d2b00170430134", "fusion_lon": 0.0}, {"lat": 38.90263316666667, "fusion_lat": 0.0, "type": "electric_scooter", "bike_id": "1f3cf56787905268f0e7fc476fa6a9aa", "is_reserved": 0, "rental_uris": {"ios": "https://dc.lft.to/lastmile_qr_scan", "android": "https://dc.lft.to/lastmile_qr_scan"}, "is_disabled": 0, "lon": -77.039728, "name": "1f3cf56787905268f0e7fc476fa6a9aa", "fusion_lon": 0.0}, {"lat": 38.9170895, "fusion_lat": 0.0, "type": "electric_scooter", "bike_id": "50dc9fd7b4fb8fb82ef785d9054b6ca2", "is_reserved": 0, "rental_uris": {"ios": "https://dc.lft.to/lastmile_qr_scan", "android": "https://dc.lft.to/lastmile_qr_scan"}, "is_disabled": 0, "lon": -77.02978383333334, "name": "50dc9fd7b4fb8fb82ef785d9054b6ca2", "fusion_lon": 0.0}, {"lat": 38.90267883333333, "fusion_lat": 0.0, "type": "electric_scooter", "bike_id": "4253933d54625b641d435a371c5e9ede", "is_reserved": 0, "rental_uris": {"ios": "https://dc.lft.to/lastmile_qr_scan", "android": "https://dc.lft.to/lastmile_qr_scan"}, "is_disabled": 0, "lon": -77.0382775, "name": "4253933d54625b641d435a371c5e9ede", "fusion_lon": 0.0}, {"lat": 38.90127183333333, "fusion_lat": 0.0, "type": "electric_scooter", "bike_id": "c54ff9efc2905bfb89154254ba7ef684", "is_reserved": 0, "rental_uris": {"ios": "https://dc.lft.to/lastmile_qr_scan", "android": "https://dc.lft.to/lastmile_qr_scan"}, "is_disabled": 0, "lon": -77.048609, "name": "c54ff9efc2905bfb89154254ba7ef684", "fusion_lon": 0.0}, {"lat": 38.910065, "fusion_lat": 0.0, "type": "electric_scooter", "bike_id": "1effa390642cc1ae9fc6775112783107", "is_reserved": 0, "rental_uris": {"ios": "https://dc.lft.to/lastmile_qr_scan", "android": "https://dc.lft.to/lastmile_qr_scan"}, "is_disabled": 0, "lon": -77.0400715, "name": "1effa390642cc1ae9fc6775112783107", "fusion_lon": 0.0}, {"lat": 38.914245333333334, "fusion_lat": 0.0, "type": "electric_scooter", "bike_id": "67561a5ea2e5110f99d47d7fb26605ea", "is_reserved": 0, "rental_uris": {"ios": "https://dc.lft.to/lastmile_qr_scan", "android": "https://dc.lft.to/lastmile_qr_scan"}, "is_disabled": 0, "lon": -77.0450195, "name": "67561a5ea2e5110f99d47d7fb26605ea", "fusion_lon": 0.0}, {"lat": 38.905325166666664, "fusion_lat": 0.0, "type": "electric_scooter", "bike_id": "830660b979350e4efb9e23ac7250b85f", "is_reserved": 0, "rental_uris": {"ios": "https://dc.lft.to/lastmile_qr_scan", "android": "https://dc.lft.to/lastmile_qr_scan"}, "is_disabled": 0, "lon": -77.04644983333333, "name": "830660b979350e4efb9e23ac7250b85f", "fusion_lon": 0.0}, {"lat": 38.9478755, "fusion_lat": 0.0, "type": "electric_bike", "bike_id": "3964a40e639e14889388ebcca26ee6ab", "is_reserved": 0, "rental_uris": {"ios": "https://dc.lft.to/lastmile_qr_scan", "android": "https://dc.lft.to/lastmile_qr_scan"}, "is_disabled": 0, "lon": -76.97210966666667, "name": "3964a40e639e14889388ebcca26ee6ab", "fusion_lon": 0.0}, {"lat": 39.0244075, "fusion_lat": 0.0, "type": "electric_bike", "bike_id": "f18432fc62a27824668ab6017043c239", "is_reserved": 0, "rental_uris": {"ios": "https://dc.lft.to/lastmile_qr_scan", "android": "https://dc.lft.to/lastmile_qr_scan"}, "is_disabled": 0, "lon": -77.130993, "name": "f18432fc62a27824668ab6017043c239", "fusion_lon": 0.0}, {"lat": 38.9046985, "fusion_lat": 0.0, "type": "electric_scooter", "bike_id": "534dfa09cad8160afb321ffa861db170", "is_reserved": 0, "rental_uris": {"ios": "https://dc.lft.to/lastmile_qr_scan", "android": "https://dc.lft.to/lastmile_qr_scan"}, "is_disabled": 0, "lon": -77.05348283333333, "name": "534dfa09cad8160afb321ffa861db170", "fusion_lon": 0.0}, {"lat": 38.905716, "fusion_lat": 0.0, "type": "electric_scooter", "bike_id": "7c1cd07bd42096385852d24af0e5ea6f", "is_reserved": 0, "rental_uris": {"ios": "https://dc.lft.to/lastmile_qr_scan", "android": "https://dc.lft.to/lastmile_qr_scan"}, "is_disabled": 0, "lon": -77.0446835, "name": "7c1cd07bd42096385852d24af0e5ea6f", "fusion_lon": 0.0}, {"lat": 38.92760533333333, "fusion_lat": 0.0, "type": "electric_scooter", "bike_id": "b44ff663e9078e3abc3990fd4fa6787a", "is_reserved": 0, "rental_uris": {"ios": "https://dc.lft.to/lastmile_qr_scan", "android": "https://dc.lft.to/lastmile_qr_scan"}, "is_disabled": 0, "lon": -77.0327705, "name": "b44ff663e9078e3abc3990fd4fa6787a", "fusion_lon": 0.0}, {"lat": 38.829437, "fusion_lat": 0.0, "type": "electric_bike", "bike_id": "3d9b715411f1131f11325730d60c9a64", "is_reserved": 0, "rental_uris": {"ios": "https://dc.lft.to/lastmile_qr_scan", "android": "https://dc.lft.to/lastmile_qr_scan"}, "is_disabled": 0, "lon": -77.12363783333333, "name": "3d9b715411f1131f11325730d60c9a64", "fusion_lon": 0.0}, {"lat": 38.90727916666667, "fusion_lat": 0.0, "type": "electric_scooter", "bike_id": "bd86029742e1224f0581d9515bf7f14f", "is_reserved": 0, "rental_uris": {"ios": "https://dc.lft.to/lastmile_qr_scan", "android": "https://dc.lft.to/lastmile_qr_scan"}, "is_disabled": 0, "lon": -76.98921766666666, "name": "bd86029742e1224f0581d9515bf7f14f", "fusion_lon": 0.0}, {"lat": 38.905857833333336, "fusion_lat": 0.0, "type": "electric_scooter", "bike_id": "9ca9b3291bc39aa9559dc0c9c5bde193", "is_reserved": 0, "rental_uris": {"ios": "https://dc.lft.to/lastmile_qr_scan", "android": "https://dc.lft.to/lastmile_qr_scan"}, "is_disabled": 0, "lon": -77.05135683333333, "name": "9ca9b3291bc39aa9559dc0c9c5bde193", "fusion_lon": 0.0}, {"lat": 38.859245, "fusion_lat": 0.0, "type": "electric_scooter", "bike_id": "c5a62cc54edf912e785d35f177c349b7", "is_reserved": 0, "rental_uris": {"ios": "https://dc.lft.to/lastmile_qr_scan", "android": "https://dc.lft.to/lastmile_qr_scan"}, "is_disabled": 0, "lon": -76.98980916666666, "name": "c5a62cc54edf912e785d35f177c349b7", "fusion_lon": 0.0}, {"lat": 38.9214385, "fusion_lat": 0.0, "type": "electric_scooter", "bike_id": "288ed385925efa60cafe5b72b420b3d8", "is_reserved": 0, "rental_uris": {"ios": "https://dc.lft.to/lastmile_qr_scan", "android": "https://dc.lft.to/lastmile_qr_scan"}, "is_disabled": 0, "lon": -77.0433495, "name": "288ed385925efa60cafe5b72b420b3d8", "fusion_lon": 0.0}, {"lat": 38.90333866666667, "fusion_lat": 0.0, "type": "electric_scooter", "bike_id": "4441c2598432d8fe3d5e53beb503d803", "is_reserved": 0, "rental_uris": {"ios": "https://dc.lft.to/lastmile_qr_scan", "android": "https://dc.lft.to/lastmile_qr_scan"}, "is_disabled": 0, "lon": -77.02588916666667, "name": "4441c2598432d8fe3d5e53beb503d803", "fusion_lon": 0.0}, {"lat": 38.9327425, "fusion_lat": 0.0, "type": "electric_scooter", "bike_id": "5513e90a470f6328961c6905c3bd29ad", "is_reserved": 0, "rental_uris": {"ios": "https://dc.lft.to/lastmile_qr_scan", "android": "https://dc.lft.to/lastmile_qr_scan"}, "is_disabled": 0, "lon": -77.032578, "name": "5513e90a470f6328961c6905c3bd29ad", "fusion_lon": 0.0}, {"lat": 38.920573, "fusion_lat": 0.0, "type": "electric_scooter", "bike_id": "f61fcf7a38c429ddfc67a6d7dab27e25", "is_reserved": 0, "rental_uris": {"ios": "https://dc.lft.to/lastmile_qr_scan", "android": "https://dc.lft.to/lastmile_qr_scan"}, "is_disabled": 0, "lon": -76.98938266666667, "name": "f61fcf7a38c429ddfc67a6d7dab27e25", "fusion_lon": 0.0}, {"lat": 38.90219883333333, "fusion_lat": 0.0, "type": "electric_scooter", "bike_id": "7041246f06e3770cfa77adce2cc86cf9", "is_reserved": 0, "rental_uris": {"ios": "https://dc.lft.to/lastmile_qr_scan", "android": "https://dc.lft.to/lastmile_qr_scan"}, "is_disabled": 0, "lon": -77.023209, "name": "7041246f06e3770cfa77adce2cc86cf9", "fusion_lon": 0.0}, {"lat": 38.903679333333336, "fusion_lat": 0.0, "type": "electric_scooter", "bike_id": "0300a9e1202d7ea44be3ad3e496a876e", "is_reserved": 0, "rental_uris": {"ios": "https://dc.lft.to/lastmile_qr_scan", "android": "https://dc.lft.to/lastmile_qr_scan"}, "is_disabled": 0, "lon": -77.0427695, "name": "0300a9e1202d7ea44be3ad3e496a876e", "fusion_lon": 0.0}, {"lat": 38.921544, "fusion_lat": 0.0, "type": "electric_scooter", "bike_id": "68e35264eda200b3d90873c0bad0298b", "is_reserved": 0, "rental_uris": {"ios": "https://dc.lft.to/lastmile_qr_scan", "android": "https://dc.lft.to/lastmile_qr_scan"}, "is_disabled": 0, "lon": -77.01814783333333, "name": "68e35264eda200b3d90873c0bad0298b", "fusion_lon": 0.0}, {"lat": 38.8998575, "fusion_lat": 0.0, "type": "electric_scooter", "bike_id": "143f11bb9ce31da102892bab627bef9f", "is_reserved": 0, "rental_uris": {"ios": "https://dc.lft.to/lastmile_qr_scan", "android": "https://dc.lft.to/lastmile_qr_scan"}, "is_disabled": 0, "lon": -77.02239666666667, "name": "143f11bb9ce31da102892bab627bef9f", "fusion_lon": 0.0}, {"lat": 38.9006145, "fusion_lat": 0.0, "type": "electric_scooter", "bike_id": "e9b7345eec26d6fb56463d797c7eeb98", "is_reserved": 0, "rental_uris": {"ios": "https://dc.lft.to/lastmile_qr_scan", "android": "https://dc.lft.to/lastmile_qr_scan"}, "is_disabled": 0, "lon": -76.93478383333333, "name": "e9b7345eec26d6fb56463d797c7eeb98", "fusion_lon": 0.0}, {"lat": 38.912935, "fusion_lat": 0.0, "type": "electric_scooter", "bike_id": "b3b9971f9cec8c2cf81ab4f7bf84d7b1", "is_reserved": 0, "rental_uris": {"ios": "https://dc.lft.to/lastmile_qr_scan", "android": "https://dc.lft.to/lastmile_qr_scan"}, "is_disabled": 0, "lon": -77.01975233333333, "name": "b3b9971f9cec8c2cf81ab4f7bf84d7b1", "fusion_lon": 0.0}, {"lat": 38.9241035, "fusion_lat": 0.0, "type": "electric_scooter", "bike_id": "83c70af69d837b04b478733df6b30c94", "is_reserved": 0, "rental_uris": {"ios": "https://dc.lft.to/lastmile_qr_scan", "android": "https://dc.lft.to/lastmile_qr_scan"}, "is_disabled": 0, "lon": -77.02093633333334, "name": "83c70af69d837b04b478733df6b30c94", "fusion_lon": 0.0}, {"lat": 38.85696933333333, "fusion_lat": 0.0, "type": "electric_scooter", "bike_id": "9fc185ea32a77ee0391f1f2c44e75210", "is_reserved": 0, "rental_uris": {"ios": "https://dc.lft.to/lastmile_qr_scan", "android": "https://dc.lft.to/lastmile_qr_scan"}, "is_disabled": 0, "lon": -76.9897035, "name": "9fc185ea32a77ee0391f1f2c44e75210", "fusion_lon": 0.0}, {"lat": 38.93012016666667, "fusion_lat": 0.0, "type": "electric_scooter", "bike_id": "1fe42f5bd88e4e74f05dce9792fd4524", "is_reserved": 0, "rental_uris": {"ios": "https://dc.lft.to/lastmile_qr_scan", "android": "https://dc.lft.to/lastmile_qr_scan"}, "is_disabled": 0, "lon": -77.01432433333333, "name": "1fe42f5bd88e4e74f05dce9792fd4524", "fusion_lon": 0.0}, {"lat": 39.05794266666667, "fusion_lat": 0.0, "type": "electric_bike", "bike_id": "41b05f412494767bfed36ed211d4f12b", "is_reserved": 0, "rental_uris": {"ios": "https://dc.lft.to/lastmile_qr_scan", "android": "https://dc.lft.to/lastmile_qr_scan"}, "is_disabled": 0, "lon": -77.15018533333334, "name": "41b05f412494767bfed36ed211d4f12b", "fusion_lon": 0.0}, {"lat": 38.868241166666664, "fusion_lat": 0.0, "type": "electric_bike", "bike_id": "9cd4b234c59a5c784e8b576c391f941c", "is_reserved": 0, "rental_uris": {"ios": "https://dc.lft.to/lastmile_qr_scan", "android": "https://dc.lft.to/lastmile_qr_scan"}, "is_disabled": 0, "lon": -76.98027583333334, "name": "9cd4b234c59a5c784e8b576c391f941c", "fusion_lon": 0.0}, {"lat": 38.84619166666667, "fusion_lat": 0.0, "type": "electric_scooter", "bike_id": "43ac058d50b4fd09e113b75251bb3ef8", "is_reserved": 0, "rental_uris": {"ios": "https://dc.lft.to/lastmile_qr_scan", "android": "https://dc.lft.to/lastmile_qr_scan"}, "is_disabled": 0, "lon": -76.98141433333333, "name": "43ac058d50b4fd09e113b75251bb3ef8", "fusion_lon": 0.0}, {"lat": 38.90587883333333, "fusion_lat": 0.0, "type": "electric_scooter", "bike_id": "b3ceab1ebfbddc70df5f8996f0e7b512", "is_reserved": 0, "rental_uris": {"ios": "https://dc.lft.to/lastmile_qr_scan", "android": "https://dc.lft.to/lastmile_qr_scan"}, "is_disabled": 0, "lon": -77.07021383333333, "name": "b3ceab1ebfbddc70df5f8996f0e7b512", "fusion_lon": 0.0}, {"lat": 38.905735, "fusion_lat": 0.0, "type": "electric_scooter", "bike_id": "4282e4935f9b538053e5b2ef3f46b32a", "is_reserved": 0, "rental_uris": {"ios": "https://dc.lft.to/lastmile_qr_scan", "android": "https://dc.lft.to/lastmile_qr_scan"}, "is_disabled": 0, "lon": -77.02208366666666, "name": "4282e4935f9b538053e5b2ef3f46b32a", "fusion_lon": 0.0}, {"lat": 38.9101855, "fusion_lat": 0.0, "type": "electric_bike", "bike_id": "e0867b3a1e7cc3088327490e27e9fb64", "is_reserved": 0, "rental_uris": {"ios": "https://dc.lft.to/lastmile_qr_scan", "android": "https://dc.lft.to/lastmile_qr_scan"}, "is_disabled": 0, "lon": -77.22799533333334, "name": "e0867b3a1e7cc3088327490e27e9fb64", "fusion_lon": 0.0}, {"lat": 38.87293616666667, "fusion_lat": 0.0, "type": "electric_scooter", "bike_id": "1f8a76ab83746e6d76376567cc4d41ad", "is_reserved": 0, "rental_uris": {"ios": "https://dc.lft.to/lastmile_qr_scan", "android": "https://dc.lft.to/lastmile_qr_scan"}, "is_disabled": 0, "lon": -77.00987916666666, "name": "1f8a76ab83746e6d76376567cc4d41ad", "fusion_lon": 0.0}, {"lat": 38.8695825, "fusion_lat": 0.0, "type": "electric_scooter", "bike_id": "e45ca481a06761942ff33bf56a7d7e44", "is_reserved": 0, "rental_uris": {"ios": "https://dc.lft.to/lastmile_qr_scan", "android": "https://dc.lft.to/lastmile_qr_scan"}, "is_disabled": 0, "lon": -76.98176066666667, "name": "e45ca481a06761942ff33bf56a7d7e44", "fusion_lon": 0.0}, {"lat": 38.91521816666667, "fusion_lat": 0.0, "type": "electric_scooter", "bike_id": "6f28fffbaec20234e6fc7d69f580875a", "is_reserved": 0, "rental_uris": {"ios": "https://dc.lft.to/lastmile_qr_scan", "android": "https://dc.lft.to/lastmile_qr_scan"}, "is_disabled": 0, "lon": -77.03183633333333, "name": "6f28fffbaec20234e6fc7d69f580875a", "fusion_lon": 0.0}, {"lat": 38.87283216666667, "fusion_lat": 0.0, "type": "electric_bike", "bike_id": "bd9b6fdcaffedf258cd5c6bc6f3b6cfc", "is_reserved": 0, "rental_uris": {"ios": "https://dc.lft.to/lastmile_qr_scan", "android": "https://dc.lft.to/lastmile_qr_scan"}, "is_disabled": 0, "lon": -77.23316683333333, "name": "bd9b6fdcaffedf258cd5c6bc6f3b6cfc", "fusion_lon": 0.0}, {"lat": 38.9010535, "fusion_lat": 0.0, "type": "electric_scooter", "bike_id": "e5d85250e79532057c27fddcb3484fc0", "is_reserved": 0, "rental_uris": {"ios": "https://dc.lft.to/lastmile_qr_scan", "android": "https://dc.lft.to/lastmile_qr_scan"}, "is_disabled": 0, "lon": -77.057802, "name": "e5d85250e79532057c27fddcb3484fc0", "fusion_lon": 0.0}, {"lat": 38.91028283333333, "fusion_lat": 0.0, "type": "electric_scooter", "bike_id": "1f029f3924f27725435ba5aefaf80104", "is_reserved": 0, "rental_uris": {"ios": "https://dc.lft.to/lastmile_qr_scan", "android": "https://dc.lft.to/lastmile_qr_scan"}, "is_disabled": 0, "lon": -76.98614533333334, "name": "1f029f3924f27725435ba5aefaf80104", "fusion_lon": 0.0}, {"lat": 38.86357233333333, "fusion_lat": 0.0, "type": "electric_scooter", "bike_id": "a015e00348f462f8868e2d3fc0e291fc", "is_reserved": 0, "rental_uris": {"ios": "https://dc.lft.to/lastmile_qr_scan", "android": "https://dc.lft.to/lastmile_qr_scan"}, "is_disabled": 0, "lon": -76.987046, "name": "a015e00348f462f8868e2d3fc0e291fc", "fusion_lon": 0.0}, {"lat": 38.914925333333336, "fusion_lat": 0.0, "type": "electric_scooter", "bike_id": "1f0c4de4c82d8b5facc6b3041ae95691", "is_reserved": 0, "rental_uris": {"ios": "https://dc.lft.to/lastmile_qr_scan", "android": "https://dc.lft.to/lastmile_qr_scan"}, "is_disabled": 0, "lon": -77.04134566666667, "name": "1f0c4de4c82d8b5facc6b3041ae95691", "fusion_lon": 0.0}, {"lat": 38.880599333333336, "fusion_lat": 0.0, "type": "electric_bike", "bike_id": "3b9bc4b39ee10b698fc9357c8b2af7d0", "is_reserved": 0, "rental_uris": {"ios": "https://dc.lft.to/lastmile_qr_scan", "android": "https://dc.lft.to/lastmile_qr_scan"}, "is_disabled": 0, "lon": -76.96236, "name": "3b9bc4b39ee10b698fc9357c8b2af7d0", "fusion_lon": 0.0}, {"lat": 38.914191833333334, "fusion_lat": 0.0, "type": "electric_scooter", "bike_id": "018802bfb143431cb9139c424e8f7911", "is_reserved": 0, "rental_uris": {"ios": "https://dc.lft.to/lastmile_qr_scan", "android": "https://dc.lft.to/lastmile_qr_scan"}, "is_disabled": 0, "lon": -77.0208735, "name": "018802bfb143431cb9139c424e8f7911", "fusion_lon": 0.0}, {"lat": 38.916331166666666, "fusion_lat": 0.0, "type": "electric_scooter", "bike_id": "9ffaf7722bf822834069f1a7d7ca4913", "is_reserved": 0, "rental_uris": {"ios": "https://dc.lft.to/lastmile_qr_scan", "android": "https://dc.lft.to/lastmile_qr_scan"}, "is_disabled": 0, "lon": -77.048553, "name": "9ffaf7722bf822834069f1a7d7ca4913", "fusion_lon": 0.0}, {"lat": 38.9060665, "fusion_lat": 0.0, "type": "electric_scooter", "bike_id": "5ebdd4dd0b1a8b4a413ace87468fa61f", "is_reserved": 0, "rental_uris": {"ios": "https://dc.lft.to/lastmile_qr_scan", "android": "https://dc.lft.to/lastmile_qr_scan"}, "is_disabled": 0, "lon": -77.0568915, "name": "5ebdd4dd0b1a8b4a413ace87468fa61f", "fusion_lon": 0.0}, {"lat": 38.898233833333336, "fusion_lat": 0.0, "type": "electric_scooter", "bike_id": "c1079c83b82ec1b96b43e2d766fcd6af", "is_reserved": 0, "rental_uris": {"ios": "https://dc.lft.to/lastmile_qr_scan", "android": "https://dc.lft.to/lastmile_qr_scan"}, "is_disabled": 0, "lon": -77.03324883333333, "name": "c1079c83b82ec1b96b43e2d766fcd6af", "fusion_lon": 0.0}, {"lat": 38.9239815, "fusion_lat": 0.0, "type": "electric_scooter", "bike_id": "c72df23885b34cadbd9680395aea4a20", "is_reserved": 0, "rental_uris": {"ios": "https://dc.lft.to/lastmile_qr_scan", "android": "https://dc.lft.to/lastmile_qr_scan"}, "is_disabled": 0, "lon": -77.0214995, "name": "c72df23885b34cadbd9680395aea4a20", "fusion_lon": 0.0}, {"lat": 38.929219, "fusion_lat": 0.0, "type": "electric_scooter", "bike_id": "66d66abb8f81ec13bcaa6d8318c19eba", "is_reserved": 0, "rental_uris": {"ios": "https://dc.lft.to/lastmile_qr_scan", "android": "https://dc.lft.to/lastmile_qr_scan"}, "is_disabled": 0, "lon": -77.033, "name": "66d66abb8f81ec13bcaa6d8318c19eba", "fusion_lon": 0.0}, {"lat": 38.904760333333336, "fusion_lat": 0.0, "type": "electric_scooter", "bike_id": "b71354eec1f6cd52eccf9aa5a3510776", "is_reserved": 0, "rental_uris": {"ios": "https://dc.lft.to/lastmile_qr_scan", "android": "https://dc.lft.to/lastmile_qr_scan"}, "is_disabled": 0, "lon": -77.03821233333333, "name": "b71354eec1f6cd52eccf9aa5a3510776", "fusion_lon": 0.0}, {"lat": 38.9479515, "fusion_lat": 0.0, "type": "electric_scooter", "bike_id": "507b0f1858be4b7de428aabd4c890d8e", "is_reserved": 0, "rental_uris": {"ios": "https://dc.lft.to/lastmile_qr_scan", "android": "https://dc.lft.to/lastmile_qr_scan"}, "is_disabled": 0, "lon": -77.021353, "name": "507b0f1858be4b7de428aabd4c890d8e", "fusion_lon": 0.0}, {"lat": 38.89214533333333, "fusion_lat": 0.0, "type": "electric_scooter", "bike_id": "b53871e52ccf5c91144df65ecf63c7f6", "is_reserved": 0, "rental_uris": {"ios": "https://dc.lft.to/lastmile_qr_scan", "android": "https://dc.lft.to/lastmile_qr_scan"}, "is_disabled": 0, "lon": -77.02594033333334, "name": "b53871e52ccf5c91144df65ecf63c7f6", "fusion_lon": 0.0}, {"lat": 38.876623, "fusion_lat": 0.0, "type": "electric_scooter", "bike_id": "ab30e0874b122efb06424e97b4c93c8c", "is_reserved": 0, "rental_uris": {"ios": "https://dc.lft.to/lastmile_qr_scan", "android": "https://dc.lft.to/lastmile_qr_scan"}, "is_disabled": 0, "lon": -77.00565916666666, "name": "ab30e0874b122efb06424e97b4c93c8c", "fusion_lon": 0.0}, {"lat": 38.9038035, "fusion_lat": 0.0, "type": "electric_scooter", "bike_id": "6b9fa12c7182ddc7d440471763e9ae5f", "is_reserved": 0, "rental_uris": {"ios": "https://dc.lft.to/lastmile_qr_scan", "android": "https://dc.lft.to/lastmile_qr_scan"}, "is_disabled": 0, "lon": -76.93749616666666, "name": "6b9fa12c7182ddc7d440471763e9ae5f", "fusion_lon": 0.0}, {"lat": 38.92016266666667, "fusion_lat": 0.0, "type": "electric_scooter", "bike_id": "4399bfa7705b9bb957551e0ccc5a3ea0", "is_reserved": 0, "rental_uris": {"ios": "https://dc.lft.to/lastmile_qr_scan", "android": "https://dc.lft.to/lastmile_qr_scan"}, "is_disabled": 0, "lon": -77.01947233333334, "name": "4399bfa7705b9bb957551e0ccc5a3ea0", "fusion_lon": 0.0}, {"lat": 38.92411666666667, "fusion_lat": 0.0, "type": "electric_scooter", "bike_id": "02ee901b37e9d4f3a33c88051729a8d8", "is_reserved": 0, "rental_uris": {"ios": "https://dc.lft.to/lastmile_qr_scan", "android": "https://dc.lft.to/lastmile_qr_scan"}, "is_disabled": 0, "lon": -77.04454066666666, "name": "02ee901b37e9d4f3a33c88051729a8d8", "fusion_lon": 0.0}, {"lat": 39.06297466666667, "fusion_lat": 0.0, "type": "electric_bike", "bike_id": "0a5067b770eb97a3a4dee66b73cbbe33", "is_reserved": 0, "rental_uris": {"ios": "https://dc.lft.to/lastmile_qr_scan", "android": "https://dc.lft.to/lastmile_qr_scan"}, "is_disabled": 0, "lon": -77.04982083333333, "name": "0a5067b770eb97a3a4dee66b73cbbe33", "fusion_lon": 0.0}, {"lat": 38.919814333333335, "fusion_lat": 0.0, "type": "electric_scooter", "bike_id": "dc3acc566d23e0967bcca07e92a9935e", "is_reserved": 0, "rental_uris": {"ios": "https://dc.lft.to/lastmile_qr_scan", "android": "https://dc.lft.to/lastmile_qr_scan"}, "is_disabled": 0, "lon": -77.021803, "name": "dc3acc566d23e0967bcca07e92a9935e", "fusion_lon": 0.0}, {"lat": 38.9015585, "fusion_lat": 0.0, "type": "electric_scooter", "bike_id": "18e0426cb34010070d5af77a1302b9c2", "is_reserved": 0, "rental_uris": {"ios": "https://dc.lft.to/lastmile_qr_scan", "android": "https://dc.lft.to/lastmile_qr_scan"}, "is_disabled": 0, "lon": -76.93059333333333, "name": "18e0426cb34010070d5af77a1302b9c2", "fusion_lon": 0.0}, {"lat": 38.913676833333334, "fusion_lat": 0.0, "type": "electric_scooter", "bike_id": "72d270ef680f952d890ca5e3c68bc3bc", "is_reserved": 0, "rental_uris": {"ios": "https://dc.lft.to/lastmile_qr_scan", "android": "https://dc.lft.to/lastmile_qr_scan"}, "is_disabled": 0, "lon": -77.04481333333334, "name": "72d270ef680f952d890ca5e3c68bc3bc", "fusion_lon": 0.0}, {"lat": 38.908814666666665, "fusion_lat": 0.0, "type": "electric_scooter", "bike_id": "95508f4c07373db2f07428d8c4da9786", "is_reserved": 0, "rental_uris": {"ios": "https://dc.lft.to/lastmile_qr_scan", "android": "https://dc.lft.to/lastmile_qr_scan"}, "is_disabled": 0, "lon": -77.03756083333333, "name": "95508f4c07373db2f07428d8c4da9786", "fusion_lon": 0.0}, {"lat": 38.900245, "fusion_lat": 0.0, "type": "electric_scooter", "bike_id": "e330522ccb270bfd3e9e87480b417e16", "is_reserved": 0, "rental_uris": {"ios": "https://dc.lft.to/lastmile_qr_scan", "android": "https://dc.lft.to/lastmile_qr_scan"}, "is_disabled": 0, "lon": -77.02396933333333, "name": "e330522ccb270bfd3e9e87480b417e16", "fusion_lon": 0.0}, {"lat": 38.921510166666664, "fusion_lat": 0.0, "type": "electric_scooter", "bike_id": "629ef1c88b8c7c9b4f2bf181ee8eb0f3", "is_reserved": 0, "rental_uris": {"ios": "https://dc.lft.to/lastmile_qr_scan", "android": "https://dc.lft.to/lastmile_qr_scan"}, "is_disabled": 0, "lon": -77.01822466666667, "name": "629ef1c88b8c7c9b4f2bf181ee8eb0f3", "fusion_lon": 0.0}, {"lat": 38.89910316666667, "fusion_lat": 0.0, "type": "electric_scooter", "bike_id": "1165f28dfc4b8abca16391413ededb6f", "is_reserved": 0, "rental_uris": {"ios": "https://dc.lft.to/lastmile_qr_scan", "android": "https://dc.lft.to/lastmile_qr_scan"}, "is_disabled": 0, "lon": -77.0402515, "name": "1165f28dfc4b8abca16391413ededb6f", "fusion_lon": 0.0}, {"lat": 38.89043316666667, "fusion_lat": 0.0, "type": "electric_scooter", "bike_id": "27a8e2deefc8b63d9e61c40a4dd4faf9", "is_reserved": 0, "rental_uris": {"ios": "https://dc.lft.to/lastmile_qr_scan", "android": "https://dc.lft.to/lastmile_qr_scan"}, "is_disabled": 0, "lon": -76.95145566666666, "name": "27a8e2deefc8b63d9e61c40a4dd4faf9", "fusion_lon": 0.0}, {"lat": 38.915507, "fusion_lat": 0.0, "type": "electric_scooter", "bike_id": "4fed94fba4c33794249ff077ddc269de", "is_reserved": 0, "rental_uris": {"ios": "https://dc.lft.to/lastmile_qr_scan", "android": "https://dc.lft.to/lastmile_qr_scan"}, "is_disabled": 0, "lon": -77.02364816666666, "name": "4fed94fba4c33794249ff077ddc269de", "fusion_lon": 0.0}, {"lat": 38.90867333333333, "fusion_lat": 0.0, "type": "electric_bike", "bike_id": "3519876d75efb88f6239ea128b8ad171", "is_reserved": 0, "rental_uris": {"ios": "https://dc.lft.to/lastmile_qr_scan", "android": "https://dc.lft.to/lastmile_qr_scan"}, "is_disabled": 0, "lon": -76.99134583333333, "name": "3519876d75efb88f6239ea128b8ad171", "fusion_lon": 0.0}, {"lat": 38.92137, "fusion_lat": 0.0, "type": "electric_scooter", "bike_id": "1c7e987c2fd6ca3ec6654ebfc0b7f0a6", "is_reserved": 0, "rental_uris": {"ios": "https://dc.lft.to/lastmile_qr_scan", "android": "https://dc.lft.to/lastmile_qr_scan"}, "is_disabled": 0, "lon": -77.04131183333334, "name": "1c7e987c2fd6ca3ec6654ebfc0b7f0a6", "fusion_lon": 0.0}, {"lat": 38.91807583333333, "fusion_lat": 0.0, "type": "electric_scooter", "bike_id": "5bda0de39538d4e0a575d72c27f86f64", "is_reserved": 0, "rental_uris": {"ios": "https://dc.lft.to/lastmile_qr_scan", "android": "https://dc.lft.to/lastmile_qr_scan"}, "is_disabled": 0, "lon": -77.03389883333334, "name": "5bda0de39538d4e0a575d72c27f86f64", "fusion_lon": 0.0}, {"lat": 38.897690833333336, "fusion_lat": 0.0, "type": "electric_scooter", "bike_id": "5f7a8bb037394d24d645055362795b60", "is_reserved": 0, "rental_uris": {"ios": "https://dc.lft.to/lastmile_qr_scan", "android": "https://dc.lft.to/lastmile_qr_scan"}, "is_disabled": 0, "lon": -77.05451383333333, "name": "5f7a8bb037394d24d645055362795b60", "fusion_lon": 0.0}, {"lat": 38.92619333333333, "fusion_lat": 0.0, "type": "electric_scooter", "bike_id": "c35dee05064ea69ae18271dd7aa6a665", "is_reserved": 0, "rental_uris": {"ios": "https://dc.lft.to/lastmile_qr_scan", "android": "https://dc.lft.to/lastmile_qr_scan"}, "is_disabled": 0, "lon": -77.02651666666667, "name": "c35dee05064ea69ae18271dd7aa6a665", "fusion_lon": 0.0}, {"lat": 38.87496983333333, "fusion_lat": 0.0, "type": "electric_scooter", "bike_id": "2fa4cc3fb9f51372a240dcadbf5e8102", "is_reserved": 0, "rental_uris": {"ios": "https://dc.lft.to/lastmile_qr_scan", "android": "https://dc.lft.to/lastmile_qr_scan"}, "is_disabled": 0, "lon": -76.99978566666667, "name": "2fa4cc3fb9f51372a240dcadbf5e8102", "fusion_lon": 0.0}, {"lat": 38.905323333333335, "fusion_lat": 0.0, "type": "electric_scooter", "bike_id": "4179394491b684ff5276233f23ebf8c0", "is_reserved": 0, "rental_uris": {"ios": "https://dc.lft.to/lastmile_qr_scan", "android": "https://dc.lft.to/lastmile_qr_scan"}, "is_disabled": 0, "lon": -77.06600433333334, "name": "4179394491b684ff5276233f23ebf8c0", "fusion_lon": 0.0}, {"lat": 38.89745416666667, "fusion_lat": 0.0, "type": "electric_scooter", "bike_id": "d9522e7b0a98c8909e719a6cdc4aa06b", "is_reserved": 0, "rental_uris": {"ios": "https://dc.lft.to/lastmile_qr_scan", "android": "https://dc.lft.to/lastmile_qr_scan"}, "is_disabled": 0, "lon": -77.0331875, "name": "d9522e7b0a98c8909e719a6cdc4aa06b", "fusion_lon": 0.0}, {"lat": 38.90941383333333, "fusion_lat": 0.0, "type": "electric_scooter", "bike_id": "4f774e13e3a36aeda786de2fb9f18f30", "is_reserved": 0, "rental_uris": {"ios": "https://dc.lft.to/lastmile_qr_scan", "android": "https://dc.lft.to/lastmile_qr_scan"}, "is_disabled": 0, "lon": -77.02691866666666, "name": "4f774e13e3a36aeda786de2fb9f18f30", "fusion_lon": 0.0}, {"lat": 38.87837483333333, "fusion_lat": 0.0, "type": "electric_scooter", "bike_id": "feec737e69efb19c4de22e65affbfe9a", "is_reserved": 0, "rental_uris": {"ios": "https://dc.lft.to/lastmile_qr_scan", "android": "https://dc.lft.to/lastmile_qr_scan"}, "is_disabled": 0, "lon": -77.0083655, "name": "feec737e69efb19c4de22e65affbfe9a", "fusion_lon": 0.0}, {"lat": 38.92221683333333, "fusion_lat": 0.0, "type": "electric_scooter", "bike_id": "32b0225e6ccdd879d8ac7bef299dc31f", "is_reserved": 0, "rental_uris": {"ios": "https://dc.lft.to/lastmile_qr_scan", "android": "https://dc.lft.to/lastmile_qr_scan"}, "is_disabled": 0, "lon": -77.03465983333334, "name": "32b0225e6ccdd879d8ac7bef299dc31f", "fusion_lon": 0.0}, {"lat": 38.89734383333333, "fusion_lat": 0.0, "type": "electric_scooter", "bike_id": "6b7e34f7a5c8fb5d77a5f845f1d2280f", "is_reserved": 0, "rental_uris": {"ios": "https://dc.lft.to/lastmile_qr_scan", "android": "https://dc.lft.to/lastmile_qr_scan"}, "is_disabled": 0, "lon": -77.05474733333334, "name": "6b7e34f7a5c8fb5d77a5f845f1d2280f", "fusion_lon": 0.0}, {"lat": 38.87682733333333, "fusion_lat": 0.0, "type": "electric_scooter", "bike_id": "ddaeec398f4582ce460ae0022b057c81", "is_reserved": 0, "rental_uris": {"ios": "https://dc.lft.to/lastmile_qr_scan", "android": "https://dc.lft.to/lastmile_qr_scan"}, "is_disabled": 0, "lon": -76.99826216666666, "name": "ddaeec398f4582ce460ae0022b057c81", "fusion_lon": 0.0}, {"lat": 38.9098495, "fusion_lat": 0.0, "type": "electric_scooter", "bike_id": "f98a82bfd1d43e0e58375631ea95120d", "is_reserved": 0, "rental_uris": {"ios": "https://dc.lft.to/lastmile_qr_scan", "android": "https://dc.lft.to/lastmile_qr_scan"}, "is_disabled": 0, "lon": -77.03365016666666, "name": "f98a82bfd1d43e0e58375631ea95120d", "fusion_lon": 0.0}, {"lat": 39.039944166666665, "fusion_lat": 0.0, "type": "electric_bike", "bike_id": "570d468bafbf156c99d7033951bb61fe", "is_reserved": 0, "rental_uris": {"ios": "https://dc.lft.to/lastmile_qr_scan", "android": "https://dc.lft.to/lastmile_qr_scan"}, "is_disabled": 0, "lon": -76.99929516666667, "name": "570d468bafbf156c99d7033951bb61fe", "fusion_lon": 0.0}, {"lat": 38.90261233333333, "fusion_lat": 0.0, "type": "electric_scooter", "bike_id": "53fdc73f026ec530ea2d6b9d748f4912", "is_reserved": 0, "rental_uris": {"ios": "https://dc.lft.to/lastmile_qr_scan", "android": "https://dc.lft.to/lastmile_qr_scan"}, "is_disabled": 0, "lon": -76.9755075, "name": "53fdc73f026ec530ea2d6b9d748f4912", "fusion_lon": 0.0}, {"lat": 38.90588366666667, "fusion_lat": 0.0, "type": "electric_scooter", "bike_id": "e529b5ca52af41a2e3a2c92edc7eebb4", "is_reserved": 0, "rental_uris": {"ios": "https://dc.lft.to/lastmile_qr_scan", "android": "https://dc.lft.to/lastmile_qr_scan"}, "is_disabled": 0, "lon": -77.0701335, "name": "e529b5ca52af41a2e3a2c92edc7eebb4", "fusion_lon": 0.0}, {"lat": 38.96726183333333, "fusion_lat": 0.0, "type": "electric_scooter", "bike_id": "405c7409b9c1767f6b4e3cc16a20f104", "is_reserved": 0, "rental_uris": {"ios": "https://dc.lft.to/lastmile_qr_scan", "android": "https://dc.lft.to/lastmile_qr_scan"}, "is_disabled": 0, "lon": -77.01886216666666, "name": "405c7409b9c1767f6b4e3cc16a20f104", "fusion_lon": 0.0}, {"lat": 38.88529, "fusion_lat": 0.0, "type": "electric_scooter", "bike_id": "8563dbade3d4a8c8b6dda3166db29baa", "is_reserved": 0, "rental_uris": {"ios": "https://dc.lft.to/lastmile_qr_scan", "android": "https://dc.lft.to/lastmile_qr_scan"}, "is_disabled": 0, "lon": -77.01138, "name": "8563dbade3d4a8c8b6dda3166db29baa", "fusion_lon": 0.0}, {"lat": 38.897447166666666, "fusion_lat": 0.0, "type": "electric_scooter", "bike_id": "270793bdbeb8bdfa4e66d97f64ec2d89", "is_reserved": 0, "rental_uris": {"ios": "https://dc.lft.to/lastmile_qr_scan", "android": "https://dc.lft.to/lastmile_qr_scan"}, "is_disabled": 0, "lon": -77.00770383333334, "name": "270793bdbeb8bdfa4e66d97f64ec2d89", "fusion_lon": 0.0}, {"lat": 38.94600766666667, "fusion_lat": 0.0, "type": "electric_scooter", "bike_id": "bcab45a4635fedbf62ec00fd6654f552", "is_reserved": 0, "rental_uris": {"ios": "https://dc.lft.to/lastmile_qr_scan", "android": "https://dc.lft.to/lastmile_qr_scan"}, "is_disabled": 0, "lon": -77.07032333333333, "name": "bcab45a4635fedbf62ec00fd6654f552", "fusion_lon": 0.0}, {"lat": 38.905758666666664, "fusion_lat": 0.0, "type": "electric_scooter", "bike_id": "da4fb9123d4167e8959c26346a4ce32d", "is_reserved": 0, "rental_uris": {"ios": "https://dc.lft.to/lastmile_qr_scan", "android": "https://dc.lft.to/lastmile_qr_scan"}, "is_disabled": 0, "lon": -77.02208833333333, "name": "da4fb9123d4167e8959c26346a4ce32d", "fusion_lon": 0.0}, {"lat": 38.907121333333336, "fusion_lat": 0.0, "type": "electric_scooter", "bike_id": "38c35205e816150e7d0f3fec8c19955a", "is_reserved": 0, "rental_uris": {"ios": "https://dc.lft.to/lastmile_qr_scan", "android": "https://dc.lft.to/lastmile_qr_scan"}, "is_disabled": 0, "lon": -77.03210283333334, "name": "38c35205e816150e7d0f3fec8c19955a", "fusion_lon": 0.0}, {"lat": 38.915664666666665, "fusion_lat": 0.0, "type": "electric_scooter", "bike_id": "abe833d3bbf821f07988909076fd656c", "is_reserved": 0, "rental_uris": {"ios": "https://dc.lft.to/lastmile_qr_scan", "android": "https://dc.lft.to/lastmile_qr_scan"}, "is_disabled": 0, "lon": -77.0317, "name": "abe833d3bbf821f07988909076fd656c", "fusion_lon": 0.0}, {"lat": 38.904137666666664, "fusion_lat": 0.0, "type": "electric_scooter", "bike_id": "0890bccc75fca4e8b08612bba149abfc", "is_reserved": 0, "rental_uris": {"ios": "https://dc.lft.to/lastmile_qr_scan", "android": "https://dc.lft.to/lastmile_qr_scan"}, "is_disabled": 0, "lon": -76.97330533333333, "name": "0890bccc75fca4e8b08612bba149abfc", "fusion_lon": 0.0}, {"lat": 38.911734333333335, "fusion_lat": 0.0, "type": "electric_scooter", "bike_id": "78805f229599e0dccc27dde1c8a59671", "is_reserved": 0, "rental_uris": {"ios": "https://dc.lft.to/lastmile_qr_scan", "android": "https://dc.lft.to/lastmile_qr_scan"}, "is_disabled": 0, "lon": -77.00199666666667, "name": "78805f229599e0dccc27dde1c8a59671", "fusion_lon": 0.0}, {"lat": 38.872997, "fusion_lat": 0.0, "type": "electric_bike", "bike_id": "956dd4ae5c2affea11c9951c1b2a83a0", "is_reserved": 0, "rental_uris": {"ios": "https://dc.lft.to/lastmile_qr_scan", "android": "https://dc.lft.to/lastmile_qr_scan"}, "is_disabled": 0, "lon": -76.96979433333334, "name": "956dd4ae5c2affea11c9951c1b2a83a0", "fusion_lon": 0.0}, {"lat": 38.94991133333333, "fusion_lat": 0.0, "type": "electric_scooter", "bike_id": "1099d720943f941672ede8131686239c", "is_reserved": 0, "rental_uris": {"ios": "https://dc.lft.to/lastmile_qr_scan", "android": "https://dc.lft.to/lastmile_qr_scan"}, "is_disabled": 0, "lon": -77.02704183333333, "name": "1099d720943f941672ede8131686239c", "fusion_lon": 0.0}, {"lat": 38.8818415, "fusion_lat": 0.0, "type": "electric_scooter", "bike_id": "c6c9b123523a4579500d9a7d1ce63167", "is_reserved": 0, "rental_uris": {"ios": "https://dc.lft.to/lastmile_qr_scan", "android": "https://dc.lft.to/lastmile_qr_scan"}, "is_disabled": 0, "lon": -77.0357515, "name": "c6c9b123523a4579500d9a7d1ce63167", "fusion_lon": 0.0}, {"lat": 38.87818016666667, "fusion_lat": 0.0, "type": "electric_scooter", "bike_id": "a06bf1bf046360fd4c817eb26bfe0055", "is_reserved": 0, "rental_uris": {"ios": "https://dc.lft.to/lastmile_qr_scan", "android": "https://dc.lft.to/lastmile_qr_scan"}, "is_disabled": 0, "lon": -76.93099066666667, "name": "a06bf1bf046360fd4c817eb26bfe0055", "fusion_lon": 0.0}, {"lat": 38.900963833333336, "fusion_lat": 0.0, "type": "electric_scooter", "bike_id": "6fc4ffd75edb837fd05b84a96224ba96", "is_reserved": 0, "rental_uris": {"ios": "https://dc.lft.to/lastmile_qr_scan", "android": "https://dc.lft.to/lastmile_qr_scan"}, "is_disabled": 0, "lon": -76.976411, "name": "6fc4ffd75edb837fd05b84a96224ba96", "fusion_lon": 0.0}, {"lat": 38.8741465, "fusion_lat": 0.0, "type": "electric_scooter", "bike_id": "5f5cd5e49ea7b38deeb5653d805d47be", "is_reserved": 0, "rental_uris": {"ios": "https://dc.lft.to/lastmile_qr_scan", "android": "https://dc.lft.to/lastmile_qr_scan"}, "is_disabled": 0, "lon": -76.9711715, "name": "5f5cd5e49ea7b38deeb5653d805d47be", "fusion_lon": 0.0}, {"lat": 38.90831283333333, "fusion_lat": 0.0, "type": "electric_scooter", "bike_id": "090464685719dae9ae09f8c4be78818f", "is_reserved": 0, "rental_uris": {"ios": "https://dc.lft.to/lastmile_qr_scan", "android": "https://dc.lft.to/lastmile_qr_scan"}, "is_disabled": 0, "lon": -76.93447516666667, "name": "090464685719dae9ae09f8c4be78818f", "fusion_lon": 0.0}, {"lat": 38.92082816666667, "fusion_lat": 0.0, "type": "electric_scooter", "bike_id": "bc34c0bae204804e55ef45b3e087a144", "is_reserved": 0, "rental_uris": {"ios": "https://dc.lft.to/lastmile_qr_scan", "android": "https://dc.lft.to/lastmile_qr_scan"}, "is_disabled": 0, "lon": -77.04202783333334, "name": "bc34c0bae204804e55ef45b3e087a144", "fusion_lon": 0.0}, {"lat": 38.92692433333333, "fusion_lat": 0.0, "type": "electric_scooter", "bike_id": "ae3de7daee9846c6378209def6115d91", "is_reserved": 0, "rental_uris": {"ios": "https://dc.lft.to/lastmile_qr_scan", "android": "https://dc.lft.to/lastmile_qr_scan"}, "is_disabled": 0, "lon": -77.02278716666666, "name": "ae3de7daee9846c6378209def6115d91", "fusion_lon": 0.0}, {"lat": 38.865071, "fusion_lat": 0.0, "type": "electric_scooter", "bike_id": "1d33b39025b1a1ef7ed94a98b01436b7", "is_reserved": 0, "rental_uris": {"ios": "https://dc.lft.to/lastmile_qr_scan", "android": "https://dc.lft.to/lastmile_qr_scan"}, "is_disabled": 0, "lon": -76.99005633333333, "name": "1d33b39025b1a1ef7ed94a98b01436b7", "fusion_lon": 0.0}, {"lat": 38.9095375, "fusion_lat": 0.0, "type": "electric_scooter", "bike_id": "e0f77f2b531913f081d2c56431787768", "is_reserved": 0, "rental_uris": {"ios": "https://dc.lft.to/lastmile_qr_scan", "android": "https://dc.lft.to/lastmile_qr_scan"}, "is_disabled": 0, "lon": -76.99892533333333, "name": "e0f77f2b531913f081d2c56431787768", "fusion_lon": 0.0}, {"lat": 38.92146066666667, "fusion_lat": 0.0, "type": "electric_scooter", "bike_id": "034fd7e6e05df6c6d2cd54a10f2e354a", "is_reserved": 0, "rental_uris": {"ios": "https://dc.lft.to/lastmile_qr_scan", "android": "https://dc.lft.to/lastmile_qr_scan"}, "is_disabled": 0, "lon": -77.01816666666667, "name": "034fd7e6e05df6c6d2cd54a10f2e354a", "fusion_lon": 0.0}, {"lat": 38.936842166666665, "fusion_lat": 0.0, "type": "electric_scooter", "bike_id": "fc90caa9f66cfda3a85a3eca1dc956ed", "is_reserved": 0, "rental_uris": {"ios": "https://dc.lft.to/lastmile_qr_scan", "android": "https://dc.lft.to/lastmile_qr_scan"}, "is_disabled": 0, "lon": -77.035749, "name": "fc90caa9f66cfda3a85a3eca1dc956ed", "fusion_lon": 0.0}, {"lat": 38.92866633333333, "fusion_lat": 0.0, "type": "electric_scooter", "bike_id": "abddd7e7576323eb9bc8a6064bd2337f", "is_reserved": 0, "rental_uris": {"ios": "https://dc.lft.to/lastmile_qr_scan", "android": "https://dc.lft.to/lastmile_qr_scan"}, "is_disabled": 0, "lon": -77.01388216666666, "name": "abddd7e7576323eb9bc8a6064bd2337f", "fusion_lon": 0.0}, {"lat": 38.905752, "fusion_lat": 0.0, "type": "electric_scooter", "bike_id": "d12d0887c83a07333074e09a2dfef170", "is_reserved": 0, "rental_uris": {"ios": "https://dc.lft.to/lastmile_qr_scan", "android": "https://dc.lft.to/lastmile_qr_scan"}, "is_disabled": 0, "lon": -77.005978, "name": "d12d0887c83a07333074e09a2dfef170", "fusion_lon": 0.0}, {"lat": 38.95178083333333, "fusion_lat": 0.0, "type": "electric_bike", "bike_id": "af406ee6193e6668600ab416e5351fa0", "is_reserved": 0, "rental_uris": {"ios": "https://dc.lft.to/lastmile_qr_scan", "android": "https://dc.lft.to/lastmile_qr_scan"}, "is_disabled": 0, "lon": -76.97732633333334, "name": "af406ee6193e6668600ab416e5351fa0", "fusion_lon": 0.0}, {"lat": 38.9049585, "fusion_lat": 0.0, "type": "electric_scooter", "bike_id": "aed81e6d371a7c21008374a90d25b060", "is_reserved": 0, "rental_uris": {"ios": "https://dc.lft.to/lastmile_qr_scan", "android": "https://dc.lft.to/lastmile_qr_scan"}, "is_disabled": 0, "lon": -76.9496125, "name": "aed81e6d371a7c21008374a90d25b060", "fusion_lon": 0.0}, {"lat": 38.9553405, "fusion_lat": 0.0, "type": "electric_scooter", "bike_id": "478527e5fc63d793fd1dcbf38bded80b", "is_reserved": 0, "rental_uris": {"ios": "https://dc.lft.to/lastmile_qr_scan", "android": "https://dc.lft.to/lastmile_qr_scan"}, "is_disabled": 0, "lon": -77.0277755, "name": "478527e5fc63d793fd1dcbf38bded80b", "fusion_lon": 0.0}, {"lat": 38.9051475, "fusion_lat": 0.0, "type": "electric_scooter", "bike_id": "9e48a881719e5b51c501d92830d13d11", "is_reserved": 0, "rental_uris": {"ios": "https://dc.lft.to/lastmile_qr_scan", "android": "https://dc.lft.to/lastmile_qr_scan"}, "is_disabled": 0, "lon": -77.03834333333333, "name": "9e48a881719e5b51c501d92830d13d11", "fusion_lon": 0.0}, {"lat": 38.922808, "fusion_lat": 0.0, "type": "electric_scooter", "bike_id": "4ff02450188ab16f8eab897779a1db5c", "is_reserved": 0, "rental_uris": {"ios": "https://dc.lft.to/lastmile_qr_scan", "android": "https://dc.lft.to/lastmile_qr_scan"}, "is_disabled": 0, "lon": -77.02246666666667, "name": "4ff02450188ab16f8eab897779a1db5c", "fusion_lon": 0.0}, {"lat": 38.838117, "fusion_lat": 0.0, "type": "electric_bike", "bike_id": "c3e7c5a69c5477c955bb04e2787cf219", "is_reserved": 0, "rental_uris": {"ios": "https://dc.lft.to/lastmile_qr_scan", "android": "https://dc.lft.to/lastmile_qr_scan"}, "is_disabled": 0, "lon": -77.09522483333333, "name": "c3e7c5a69c5477c955bb04e2787cf219", "fusion_lon": 0.0}, {"lat": 38.92783433333334, "fusion_lat": 0.0, "type": "electric_scooter", "bike_id": "bace892e6d1ddf4616c773b3b631fb2e", "is_reserved": 0, "rental_uris": {"ios": "https://dc.lft.to/lastmile_qr_scan", "android": "https://dc.lft.to/lastmile_qr_scan"}, "is_disabled": 0, "lon": -77.02675083333334, "name": "bace892e6d1ddf4616c773b3b631fb2e", "fusion_lon": 0.0}, {"lat": 38.87471033333333, "fusion_lat": 0.0, "type": "electric_scooter", "bike_id": "12a74dfa112907115ceb4ebb3f88eee6", "is_reserved": 0, "rental_uris": {"ios": "https://dc.lft.to/lastmile_qr_scan", "android": "https://dc.lft.to/lastmile_qr_scan"}, "is_disabled": 0, "lon": -77.0056205, "name": "12a74dfa112907115ceb4ebb3f88eee6", "fusion_lon": 0.0}, {"lat": 38.857740666666665, "fusion_lat": 0.0, "type": "electric_bike", "bike_id": "dad8c9e987789d6fed3cb7cc64338bf5", "is_reserved": 0, "rental_uris": {"ios": "https://dc.lft.to/lastmile_qr_scan", "android": "https://dc.lft.to/lastmile_qr_scan"}, "is_disabled": 0, "lon": -76.98755466666667, "name": "dad8c9e987789d6fed3cb7cc64338bf5", "fusion_lon": 0.0}, {"lat": 38.90690133333333, "fusion_lat": 0.0, "type": "electric_scooter", "bike_id": "389aeaa004c446c854530415a5a4dbfc", "is_reserved": 0, "rental_uris": {"ios": "https://dc.lft.to/lastmile_qr_scan", "android": "https://dc.lft.to/lastmile_qr_scan"}, "is_disabled": 0, "lon": -77.06520233333333, "name": "389aeaa004c446c854530415a5a4dbfc", "fusion_lon": 0.0}, {"lat": 38.92977166666667, "fusion_lat": 0.0, "type": "electric_scooter", "bike_id": "ac62effcbe49773e6b52377ce6fdb6d4", "is_reserved": 0, "rental_uris": {"ios": "https://dc.lft.to/lastmile_qr_scan", "android": "https://dc.lft.to/lastmile_qr_scan"}, "is_disabled": 0, "lon": -77.02954633333333, "name": "ac62effcbe49773e6b52377ce6fdb6d4", "fusion_lon": 0.0}, {"lat": 38.930217, "fusion_lat": 0.0, "type": "electric_scooter", "bike_id": "c18b4f8e899dac8e4b5efbc27eecfc95", "is_reserved": 0, "rental_uris": {"ios": "https://dc.lft.to/lastmile_qr_scan", "android": "https://dc.lft.to/lastmile_qr_scan"}, "is_disabled": 0, "lon": -77.0609015, "name": "c18b4f8e899dac8e4b5efbc27eecfc95", "fusion_lon": 0.0}, {"lat": 38.90249083333333, "fusion_lat": 0.0, "type": "electric_scooter", "bike_id": "f2764ef1eea9237f87df3abc38ae8eea", "is_reserved": 0, "rental_uris": {"ios": "https://dc.lft.to/lastmile_qr_scan", "android": "https://dc.lft.to/lastmile_qr_scan"}, "is_disabled": 0, "lon": -76.97413266666666, "name": "f2764ef1eea9237f87df3abc38ae8eea", "fusion_lon": 0.0}, {"lat": 38.91409216666667, "fusion_lat": 0.0, "type": "electric_scooter", "bike_id": "ca432ec536c00c1d128de87e93de669e", "is_reserved": 0, "rental_uris": {"ios": "https://dc.lft.to/lastmile_qr_scan", "android": "https://dc.lft.to/lastmile_qr_scan"}, "is_disabled": 0, "lon": -77.02657066666667, "name": "ca432ec536c00c1d128de87e93de669e", "fusion_lon": 0.0}, {"lat": 38.919094666666666, "fusion_lat": 0.0, "type": "electric_scooter", "bike_id": "a992f19f68dce91a83472abbb220e602", "is_reserved": 0, "rental_uris": {"ios": "https://dc.lft.to/lastmile_qr_scan", "android": "https://dc.lft.to/lastmile_qr_scan"}, "is_disabled": 0, "lon": -77.02397666666667, "name": "a992f19f68dce91a83472abbb220e602", "fusion_lon": 0.0}, {"lat": 38.90067366666667, "fusion_lat": 0.0, "type": "electric_scooter", "bike_id": "e79cd1c806942fced56e9513cd10c602", "is_reserved": 0, "rental_uris": {"ios": "https://dc.lft.to/lastmile_qr_scan", "android": "https://dc.lft.to/lastmile_qr_scan"}, "is_disabled": 0, "lon": -76.927452, "name": "e79cd1c806942fced56e9513cd10c602", "fusion_lon": 0.0}, {"lat": 38.881968, "fusion_lat": 0.0, "type": "electric_bike", "bike_id": "a346a1a60f01619a0d9fc22f1e1f478d", "is_reserved": 0, "rental_uris": {"ios": "https://dc.lft.to/lastmile_qr_scan", "android": "https://dc.lft.to/lastmile_qr_scan"}, "is_disabled": 0, "lon": -76.98932266666667, "name": "a346a1a60f01619a0d9fc22f1e1f478d", "fusion_lon": 0.0}, {"lat": 38.966253333333334, "fusion_lat": 0.0, "type": "electric_bike", "bike_id": "dbf8680c5374a31e0c0b4e758afab087", "is_reserved": 0, "rental_uris": {"ios": "https://dc.lft.to/lastmile_qr_scan", "android": "https://dc.lft.to/lastmile_qr_scan"}, "is_disabled": 0, "lon": -77.03427916666666, "name": "dbf8680c5374a31e0c0b4e758afab087", "fusion_lon": 0.0}, {"lat": 38.887192, "fusion_lat": 0.0, "type": "electric_scooter", "bike_id": "c608226c6ffd084d434e8a44570ec53f", "is_reserved": 0, "rental_uris": {"ios": "https://dc.lft.to/lastmile_qr_scan", "android": "https://dc.lft.to/lastmile_qr_scan"}, "is_disabled": 0, "lon": -77.003513, "name": "c608226c6ffd084d434e8a44570ec53f", "fusion_lon": 0.0}, {"lat": 38.90838016666667, "fusion_lat": 0.0, "type": "electric_scooter", "bike_id": "dce3685921525bf0334fd39a590a4aa2", "is_reserved": 0, "rental_uris": {"ios": "https://dc.lft.to/lastmile_qr_scan", "android": "https://dc.lft.to/lastmile_qr_scan"}, "is_disabled": 0, "lon": -77.0394115, "name": "dce3685921525bf0334fd39a590a4aa2", "fusion_lon": 0.0}, {"lat": 38.927817833333336, "fusion_lat": 0.0, "type": "electric_scooter", "bike_id": "0596260c122a1d4239f1e1656fa82ef3", "is_reserved": 0, "rental_uris": {"ios": "https://dc.lft.to/lastmile_qr_scan", "android": "https://dc.lft.to/lastmile_qr_scan"}, "is_disabled": 0, "lon": -77.02679083333334, "name": "0596260c122a1d4239f1e1656fa82ef3", "fusion_lon": 0.0}, {"lat": 38.918708, "fusion_lat": 0.0, "type": "electric_scooter", "bike_id": "979e1b3e0f62c4db80dd0cdaffa87069", "is_reserved": 0, "rental_uris": {"ios": "https://dc.lft.to/lastmile_qr_scan", "android": "https://dc.lft.to/lastmile_qr_scan"}, "is_disabled": 0, "lon": -77.04157183333334, "name": "979e1b3e0f62c4db80dd0cdaffa87069", "fusion_lon": 0.0}, {"lat": 38.902461, "fusion_lat": 0.0, "type": "electric_scooter", "bike_id": "0268320d62b9d64cdd96bfed09fca740", "is_reserved": 0, "rental_uris": {"ios": "https://dc.lft.to/lastmile_qr_scan", "android": "https://dc.lft.to/lastmile_qr_scan"}, "is_disabled": 0, "lon": -77.03461933333334, "name": "0268320d62b9d64cdd96bfed09fca740", "fusion_lon": 0.0}, {"lat": 39.014865666666665, "fusion_lat": 0.0, "type": "electric_bike", "bike_id": "fdb36d64a84a2ffec0092b82d7ba60c8", "is_reserved": 0, "rental_uris": {"ios": "https://dc.lft.to/lastmile_qr_scan", "android": "https://dc.lft.to/lastmile_qr_scan"}, "is_disabled": 0, "lon": -77.0549315, "name": "fdb36d64a84a2ffec0092b82d7ba60c8", "fusion_lon": 0.0}, {"lat": 38.9019545, "fusion_lat": 0.0, "type": "electric_scooter", "bike_id": "9187fd272cd32ec5359e2c4e2a20d13a", "is_reserved": 0, "rental_uris": {"ios": "https://dc.lft.to/lastmile_qr_scan", "android": "https://dc.lft.to/lastmile_qr_scan"}, "is_disabled": 0, "lon": -77.01316316666667, "name": "9187fd272cd32ec5359e2c4e2a20d13a", "fusion_lon": 0.0}, {"lat": 38.928792, "fusion_lat": 0.0, "type": "electric_scooter", "bike_id": "0951a328093e05e9322205f4146159a1", "is_reserved": 0, "rental_uris": {"ios": "https://dc.lft.to/lastmile_qr_scan", "android": "https://dc.lft.to/lastmile_qr_scan"}, "is_disabled": 0, "lon": -77.012309, "name": "0951a328093e05e9322205f4146159a1", "fusion_lon": 0.0}, {"lat": 38.91446333333333, "fusion_lat": 0.0, "type": "electric_scooter", "bike_id": "5896020ecbd2d4f83d07aa303bc87cb1", "is_reserved": 0, "rental_uris": {"ios": "https://dc.lft.to/lastmile_qr_scan", "android": "https://dc.lft.to/lastmile_qr_scan"}, "is_disabled": 0, "lon": -77.04156366666666, "name": "5896020ecbd2d4f83d07aa303bc87cb1", "fusion_lon": 0.0}, {"lat": 38.91200033333333, "fusion_lat": 0.0, "type": "electric_scooter", "bike_id": "0685198cb2d75d19afcc007b8b9d2796", "is_reserved": 0, "rental_uris": {"ios": "https://dc.lft.to/lastmile_qr_scan", "android": "https://dc.lft.to/lastmile_qr_scan"}, "is_disabled": 0, "lon": -77.023437, "name": "0685198cb2d75d19afcc007b8b9d2796", "fusion_lon": 0.0}, {"lat": 38.89239966666667, "fusion_lat": 0.0, "type": "electric_scooter", "bike_id": "ab0e4e58c6ccf8dcf906f14b5c8a35c1", "is_reserved": 0, "rental_uris": {"ios": "https://dc.lft.to/lastmile_qr_scan", "android": "https://dc.lft.to/lastmile_qr_scan"}, "is_disabled": 0, "lon": -77.02382466666667, "name": "ab0e4e58c6ccf8dcf906f14b5c8a35c1", "fusion_lon": 0.0}, {"lat": 38.91864966666667, "fusion_lat": 0.0, "type": "electric_scooter", "bike_id": "0eafda376c2586cfd3035afa8d72ec57", "is_reserved": 0, "rental_uris": {"ios": "https://dc.lft.to/lastmile_qr_scan", "android": "https://dc.lft.to/lastmile_qr_scan"}, "is_disabled": 0, "lon": -77.02713416666667, "name": "0eafda376c2586cfd3035afa8d72ec57", "fusion_lon": 0.0}, {"lat": 38.92051283333333, "fusion_lat": 0.0, "type": "electric_scooter", "bike_id": "3c3f9f660c3d6dcdb1a195b793c11a45", "is_reserved": 0, "rental_uris": {"ios": "https://dc.lft.to/lastmile_qr_scan", "android": "https://dc.lft.to/lastmile_qr_scan"}, "is_disabled": 0, "lon": -77.02409483333334, "name": "3c3f9f660c3d6dcdb1a195b793c11a45", "fusion_lon": 0.0}, {"lat": 38.959436833333335, "fusion_lat": 0.0, "type": "electric_scooter", "bike_id": "03f6963bc942474dde5475d7ac56834d", "is_reserved": 0, "rental_uris": {"ios": "https://dc.lft.to/lastmile_qr_scan", "android": "https://dc.lft.to/lastmile_qr_scan"}, "is_disabled": 0, "lon": -77.030513, "name": "03f6963bc942474dde5475d7ac56834d", "fusion_lon": 0.0}, {"lat": 38.9297105, "fusion_lat": 0.0, "type": "electric_scooter", "bike_id": "cec5629a6d78bf38a1b52d129654dfff", "is_reserved": 0, "rental_uris": {"ios": "https://dc.lft.to/lastmile_qr_scan", "android": "https://dc.lft.to/lastmile_qr_scan"}, "is_disabled": 0, "lon": -77.01690866666667, "name": "cec5629a6d78bf38a1b52d129654dfff", "fusion_lon": 0.0}, {"lat": 38.905849833333335, "fusion_lat": 0.0, "type": "electric_bike", "bike_id": "2a9ead012ce7a1bc20d087fae3a812af", "is_reserved": 0, "rental_uris": {"ios": "https://dc.lft.to/lastmile_qr_scan", "android": "https://dc.lft.to/lastmile_qr_scan"}, "is_disabled": 0, "lon": -77.00869266666666, "name": "2a9ead012ce7a1bc20d087fae3a812af", "fusion_lon": 0.0}, {"lat": 38.90868366666667, "fusion_lat": 0.0, "type": "electric_scooter", "bike_id": "4edf8f8d0a09bd4b8aa689cd91f53b09", "is_reserved": 0, "rental_uris": {"ios": "https://dc.lft.to/lastmile_qr_scan", "android": "https://dc.lft.to/lastmile_qr_scan"}, "is_disabled": 0, "lon": -77.03228383333334, "name": "4edf8f8d0a09bd4b8aa689cd91f53b09", "fusion_lon": 0.0}, {"lat": 38.905476, "fusion_lat": 0.0, "type": "electric_scooter", "bike_id": "e02e54fdaa7cdf2ce03caaa5883bcc6a", "is_reserved": 0, "rental_uris": {"ios": "https://dc.lft.to/lastmile_qr_scan", "android": "https://dc.lft.to/lastmile_qr_scan"}, "is_disabled": 0, "lon": -77.03079616666666, "name": "e02e54fdaa7cdf2ce03caaa5883bcc6a", "fusion_lon": 0.0}, {"lat": 38.90027366666666, "fusion_lat": 0.0, "type": "electric_scooter", "bike_id": "8944c812672d8be5c9e642fe6a607965", "is_reserved": 0, "rental_uris": {"ios": "https://dc.lft.to/lastmile_qr_scan", "android": "https://dc.lft.to/lastmile_qr_scan"}, "is_disabled": 0, "lon": -76.99925916666666, "name": "8944c812672d8be5c9e642fe6a607965", "fusion_lon": 0.0}, {"lat": 38.902846, "fusion_lat": 0.0, "type": "electric_scooter", "bike_id": "89ff7594d4e385ba5b305aa2050645c0", "is_reserved": 0, "rental_uris": {"ios": "https://dc.lft.to/lastmile_qr_scan", "android": "https://dc.lft.to/lastmile_qr_scan"}, "is_disabled": 0, "lon": -77.03828783333333, "name": "89ff7594d4e385ba5b305aa2050645c0", "fusion_lon": 0.0}, {"lat": 38.926653, "fusion_lat": 0.0, "type": "electric_scooter", "bike_id": "86b69e72dc61fb8036d94c4b5b958b4c", "is_reserved": 0, "rental_uris": {"ios": "https://dc.lft.to/lastmile_qr_scan", "android": "https://dc.lft.to/lastmile_qr_scan"}, "is_disabled": 0, "lon": -76.995311, "name": "86b69e72dc61fb8036d94c4b5b958b4c", "fusion_lon": 0.0}, {"lat": 38.89864333333333, "fusion_lat": 0.0, "type": "electric_scooter", "bike_id": "858bc70920e054e5726a70b4f52dc70a", "is_reserved": 0, "rental_uris": {"ios": "https://dc.lft.to/lastmile_qr_scan", "android": "https://dc.lft.to/lastmile_qr_scan"}, "is_disabled": 0, "lon": -76.92751133333333, "name": "858bc70920e054e5726a70b4f52dc70a", "fusion_lon": 0.0}, {"lat": 38.911937333333334, "fusion_lat": 0.0, "type": "electric_scooter", "bike_id": "2cd87ed5899436320561343555715228", "is_reserved": 0, "rental_uris": {"ios": "https://dc.lft.to/lastmile_qr_scan", "android": "https://dc.lft.to/lastmile_qr_scan"}, "is_disabled": 0, "lon": -77.03294316666667, "name": "2cd87ed5899436320561343555715228", "fusion_lon": 0.0},