{"data": {"bikes": [{"is_disabled": 0, "fusion_lon": 0.0, "fusion_lat": 0.0, "lat": 38.892495, "type": "electric_scooter", "lon": -76.99849833333333, "bike_id": "7008a142c51fb6b82cc031884bf727b5", "rental_uris": {"android": "https://dc.lft.to/lastmile_qr_scan", "ios": "https://dc.lft.to/lastmile_qr_scan"}, "name": "7008a142c51fb6b82cc031884bf727b5", "is_reserved": 0}, {"is_disabled": 0, "fusion_lon": 0.0, "fusion_lat": 0.0, "lat": 38.86595666666667, "type": "electric_bike", "lon": -76.93216566666666, "bike_id": "3220677c053c44513b1da8966f5df1e1", "rental_uris": {"android": "https://dc.lft.to/lastmile_qr_scan", "ios": "https://dc.lft.to/lastmile_qr_scan"}, "name": "3220677c053c44513b1da8966f5df1e1", "is_reserved": 0}, {"is_disabled": 0, "fusion_lon": 0.0, "fusion_lat": 0.0, "lat": 38.902949, "type": "electric_scooter", "lon": -77.050722, "bike_id": "00a268a0d3566499e7a4d21395dc6736", "rental_uris": {"android": "https://dc.lft.to/lastmile_qr_scan", "ios": "https://dc.lft.to/lastmile_qr_scan"}, "name": "00a268a0d3566499e7a4d21395dc6736", "is_reserved": 0}, {"is_disabled": 0, "fusion_lon": 0.0, "fusion_lat": 0.0, "lat": 38.9269235, "type": "electric_scooter", "lon": -77.03784366666666, "bike_id": "b35311fbba892f6b6550a2ce729721a0", "rental_uris": {"android": "https://dc.lft.to/lastmile_qr_scan", "ios": "https://dc.lft.to/lastmile_qr_scan"}, "name": "b35311fbba892f6b6550a2ce729721a0", "is_reserved": 0}, {"is_disabled": 0, "fusion_lon": 0.0, "fusion_lat": 0.0, "lat": 38.94491516666667, "type": "electric_bike", "lon": -77.00676866666667, "bike_id": "12427d29e982b81a1f6f01567e26b4fb", "rental_uris": {"android": "https://dc.lft.to/lastmile_qr_scan", "ios": "https://dc.lft.to/lastmile_qr_scan"}, "name": "12427d29e982b81a1f6f01567e26b4fb", "is_reserved": 0}, {"is_disabled": 0, "fusion_lon": 0.0, "fusion_lat": 0.0, "lat": 38.936030833333334, "type": "electric_scooter", "lon": -77.05860033333333, "bike_id": "0991d24e78f76431945f5b4f444c1c30", "rental_uris": {"android": "https://dc.lft.to/lastmile_qr_scan", "ios": "https://dc.lft.to/lastmile_qr_scan"}, "name": "0991d24e78f76431945f5b4f444c1c30", "is_reserved": 0}, {"is_disabled": 0, "fusion_lon": 0.0, "fusion_lat": 0.0, "lat": 38.916918333333335, "type": "electric_scooter", "lon": -77.025952, "bike_id": "81ac3035bc137487ef0a8de1c432b94f", "rental_uris": {"android": "https://dc.lft.to/lastmile_qr_scan", "ios": "https://dc.lft.to/lastmile_qr_scan"}, "name": "81ac3035bc137487ef0a8de1c432b94f", "is_reserved": 0}, {"is_disabled": 0, "fusion_lon": 0.0, "fusion_lat": 0.0, "lat": 38.89760016666666, "type": "electric_scooter", "lon": -77.05106183333334, "bike_id": "d358eca2f27fb792ae24b44a904b9943", "rental_uris": {"android": "https://dc.lft.to/lastmile_qr_scan", "ios": "https://dc.lft.to/lastmile_qr_scan"}, "name": "d358eca2f27fb792ae24b44a904b9943", "is_reserved": 0}, {"is_disabled": 0, "fusion_lon": 0.0, "fusion_lat": 0.0, "lat": 38.914181166666665, "type": "electric_scooter", "lon": -77.01427766666667, "bike_id": "47477e6e028915fb60831dcfd246b634", "rental_uris": {"android": "https://dc.lft.to/lastmile_qr_scan", "ios": "https://dc.lft.to/lastmile_qr_scan"}, "name": "47477e6e028915fb60831dcfd246b634", "is_reserved": 0}, {"is_disabled": 0, "fusion_lon": 0.0, "fusion_lat": 0.0, "lat": 38.91695216666667, "type": "electric_scooter", "lon": -77.00649916666667, "bike_id": "ff3b05567715616babd28c53db4a34c1", "rental_uris": {"android": "https://dc.lft.to/lastmile_qr_scan", "ios": "https://dc.lft.to/lastmile_qr_scan"}, "name": "ff3b05567715616babd28c53db4a34c1", "is_reserved": 0}, {"is_disabled": 0, "fusion_lon": 0.0, "fusion_lat": 0.0, "lat": 38.90579566666667, "type": "electric_scooter", "lon": -77.02604266666667, "bike_id": "759e77673af2db561d6a2538bee7a0dd", "rental_uris": {"android": "https://dc.lft.to/lastmile_qr_scan", "ios": "https://dc.lft.to/lastmile_qr_scan"}, "name": "759e77673af2db561d6a2538bee7a0dd", "is_reserved": 0}, {"is_disabled": 0, "fusion_lon": 0.0, "fusion_lat": 0.0, "lat": 38.911062, "type": "electric_scooter", "lon": -77.04507383333333, "bike_id": "d3df4337992443db89633157232f388b", "rental_uris": {"android": "https://dc.lft.to/lastmile_qr_scan", "ios": "https://dc.lft.to/lastmile_qr_scan"}, "name": "d3df4337992443db89633157232f388b", "is_reserved": 0}, {"is_disabled": 0, "fusion_lon": 0.0, "fusion_lat": 0.0, "lat": 38.85204183333333, "type": "electric_bike", "lon": -77.12761366666666, "bike_id": "e9e597eba234a54f741dbb95886a5b19", "rental_uris": {"android": "https://dc.lft.to/lastmile_qr_scan", "ios": "https://dc.lft.to/lastmile_qr_scan"}, "name": "e9e597eba234a54f741dbb95886a5b19", "is_reserved": 0}, {"is_disabled": 0, "fusion_lon": 0.0, "fusion_lat": 0.0, "lat": 38.89502916666667, "type": "electric_scooter", "lon": -76.94881416666666, "bike_id": "d4d60abb99f7fc03dc05fbb760b31d3b", "rental_uris": {"android": "https://dc.lft.to/lastmile_qr_scan", "ios": "https://dc.lft.to/lastmile_qr_scan"}, "name": "d4d60abb99f7fc03dc05fbb760b31d3b", "is_reserved": 0}, {"is_disabled": 0, "fusion_lon": 0.0, "fusion_lat": 0.0, "lat": 38.8984455, "type": "electric_scooter", "lon": -76.94562716666667, "bike_id": "06afbc1afe006888ed3cdf7e8b939786", "rental_uris": {"android": "https://dc.lft.to/lastmile_qr_scan", "ios": "https://dc.lft.to/lastmile_qr_scan"}, "name": "06afbc1afe006888ed3cdf7e8b939786", "is_reserved": 0}, {"is_disabled": 0, "fusion_lon": 0.0, "fusion_lat": 0.0, "lat": 38.86032816666667, "type": "electric_scooter", "lon": -76.99691483333334, "bike_id": "59aaeb57efe5d4e0c930add48fe57ff6", "rental_uris": {"android": "https://dc.lft.to/lastmile_qr_scan", "ios": "https://dc.lft.to/lastmile_qr_scan"}, "name": "59aaeb57efe5d4e0c930add48fe57ff6", "is_reserved": 0}, {"is_disabled": 0, "fusion_lon": 0.0, "fusion_lat": 0.0, "lat": 39.09587766666667, "type": "electric_bike", "lon": -77.14777116666667, "bike_id": "0fd4874ed90f5fd05bdf9b29bccb309b", "rental_uris": {"android": "https://dc.lft.to/lastmile_qr_scan", "ios": "https://dc.lft.to/lastmile_qr_scan"}, "name": "0fd4874ed90f5fd05bdf9b29bccb309b", "is_reserved": 0}, {"is_disabled": 0, "fusion_lon": 0.0, "fusion_lat": 0.0, "lat": 38.99934483333333, "type": "electric_bike", "lon": -77.0012225, "bike_id": "a8356128a049c079937e25dd4959c327", "rental_uris": {"android": "https://dc.lft.to/lastmile_qr_scan", "ios": "https://dc.lft.to/lastmile_qr_scan"}, "name": "a8356128a049c079937e25dd4959c327", "is_reserved": 0}, {"is_disabled": 0, "fusion_lon": 0.0, "fusion_lat": 0.0, "lat": 38.916231833333335, "type": "electric_scooter", "lon": -77.04881783333333, "bike_id": "e3283a5c13760dcb871efff4a41d0b13", "rental_uris": {"android": "https://dc.lft.to/lastmile_qr_scan", "ios": "https://dc.lft.to/lastmile_qr_scan"}, "name": "e3283a5c13760dcb871efff4a41d0b13", "is_reserved": 0}, {"is_disabled": 0, "fusion_lon": 0.0, "fusion_lat": 0.0, "lat": 38.855354, "type": "electric_bike", "lon": -77.10710583333334, "bike_id": "2538113e92eecfd66172e7fb1444d339", "rental_uris": {"android": "https://dc.lft.to/lastmile_qr_scan", "ios": "https://dc.lft.to/lastmile_qr_scan"}, "name": "2538113e92eecfd66172e7fb1444d339", "is_reserved": 0}, {"is_disabled": 0, "fusion_lon": 0.0, "fusion_lat": 0.0, "lat": 38.919383, "type": "electric_scooter", "lon": -77.0813595, "bike_id": "5556a3316c15e4244c4393f29d355ad3", "rental_uris": {"android": "https://dc.lft.to/lastmile_qr_scan", "ios": "https://dc.lft.to/lastmile_qr_scan"}, "name": "5556a3316c15e4244c4393f29d355ad3", "is_reserved": 0}, {"is_disabled": 0, "fusion_lon": 0.0, "fusion_lat": 0.0, "lat": 38.9063205, "type": "electric_scooter", "lon": -77.02502733333333, "bike_id": "ca52ebf1a676c041c00c7153c0c8dad3", "rental_uris": {"android": "https://dc.lft.to/lastmile_qr_scan", "ios": "https://dc.lft.to/lastmile_qr_scan"}, "name": "ca52ebf1a676c041c00c7153c0c8dad3", "is_reserved": 0}, {"is_disabled": 0, "fusion_lon": 0.0, "fusion_lat": 0.0, "lat": 38.86344533333333, "type": "electric_scooter", "lon": -76.990646, "bike_id": "ac090bc6fbc9f04c0db63432fb19f727", "rental_uris": {"android": "https://dc.lft.to/lastmile_qr_scan", "ios": "https://dc.lft.to/lastmile_qr_scan"}, "name": "ac090bc6fbc9f04c0db63432fb19f727", "is_reserved": 0}, {"is_disabled": 0, "fusion_lon": 0.0, "fusion_lat": 0.0, "lat": 38.9202505, "type": "electric_scooter", "lon": -77.01872533333334, "bike_id": "f55b351f77a0e04856ff20d7f82e16d9", "rental_uris": {"android": "https://dc.lft.to/lastmile_qr_scan", "ios": "https://dc.lft.to/lastmile_qr_scan"}, "name": "f55b351f77a0e04856ff20d7f82e16d9", "is_reserved": 0}, {"is_disabled": 0, "fusion_lon": 0.0, "fusion_lat": 0.0, "lat": 38.90183316666667, "type": "electric_scooter", "lon": -77.04999616666667, "bike_id": "a38f16087e0f9965ccef876406e1d99d", "rental_uris": {"android": "https://dc.lft.to/lastmile_qr_scan", "ios": "https://dc.lft.to/lastmile_qr_scan"}, "name": "a38f16087e0f9965ccef876406e1d99d", "is_reserved": 0}, {"is_disabled": 0, "fusion_lon": 0.0, "fusion_lat": 0.0, "lat": 38.90582716666667, "type": "electric_scooter", "lon": -77.04861866666667, "bike_id": "b94e008febaa77a3b82ffd7818aa78ba", "rental_uris": {"android": "https://dc.lft.to/lastmile_qr_scan", "ios": "https://dc.lft.to/lastmile_qr_scan"}, "name": "b94e008febaa77a3b82ffd7818aa78ba", "is_reserved": 0}, {"is_disabled": 0, "fusion_lon": 0.0, "fusion_lat": 0.0, "lat": 38.93706383333333, "type": "electric_scooter", "lon": -77.0610605, "bike_id": "4390a2a0a847f2df33f67ab9b776e7fb", "rental_uris": {"android": "https://dc.lft.to/lastmile_qr_scan", "ios": "https://dc.lft.to/lastmile_qr_scan"}, "name": "4390a2a0a847f2df33f67ab9b776e7fb", "is_reserved": 0}, {"is_disabled": 0, "fusion_lon": 0.0, "fusion_lat": 0.0, "lat": 38.898186, "type": "electric_scooter", "lon": -77.0433625, "bike_id": "74d8130c2355a98b25a9dd417edfd965", "rental_uris": {"android": "https://dc.lft.to/lastmile_qr_scan", "ios": "https://dc.lft.to/lastmile_qr_scan"}, "name": "74d8130c2355a98b25a9dd417edfd965", "is_reserved": 0}, {"is_disabled": 0, "fusion_lon": 0.0, "fusion_lat": 0.0, "lat": 38.92355366666666, "type": "electric_scooter", "lon": -77.05461433333333, "bike_id": "21be55c4c49ec241d9e501b3fa115eb8", "rental_uris": {"android": "https://dc.lft.to/lastmile_qr_scan", "ios": "https://dc.lft.to/lastmile_qr_scan"}, "name": "21be55c4c49ec241d9e501b3fa115eb8", "is_reserved": 0}, {"is_disabled": 0, "fusion_lon": 0.0, "fusion_lat": 0.0, "lat": 38.908396, "type": "electric_scooter", "lon": -77.02698083333334, "bike_id": "795003d6b1baf070970e834d3d342fb7", "rental_uris": {"android": "https://dc.lft.to/lastmile_qr_scan", "ios": "https://dc.lft.to/lastmile_qr_scan"}, "name": "795003d6b1baf070970e834d3d342fb7", "is_reserved": 0}, {"is_disabled": 0, "fusion_lon": 0.0, "fusion_lat": 0.0, "lat": 38.930551, "type": "electric_scooter", "lon": -77.02803166666666, "bike_id": "8c7f27265745954a5d9083c3f58de611", "rental_uris": {"android": "https://dc.lft.to/lastmile_qr_scan", "ios": "https://dc.lft.to/lastmile_qr_scan"}, "name": "8c7f27265745954a5d9083c3f58de611", "is_reserved": 0}, {"is_disabled": 0, "fusion_lon": 0.0, "fusion_lat": 0.0, "lat": 38.94492233333333, "type": "electric_bike", "lon": -76.98665483333333, "bike_id": "90887772dd02ec95048c2237acf2ef46", "rental_uris": {"android": "https://dc.lft.to/lastmile_qr_scan", "ios": "https://dc.lft.to/lastmile_qr_scan"}, "name": "90887772dd02ec95048c2237acf2ef46", "is_reserved": 0}, {"is_disabled": 0, "fusion_lon": 0.0, "fusion_lat": 0.0, "lat": 38.935367166666666, "type": "electric_scooter", "lon": -77.058043, "bike_id": "4a90e5ecb5fb8f1bf44138d805e344cd", "rental_uris": {"android": "https://dc.lft.to/lastmile_qr_scan", "ios": "https://dc.lft.to/lastmile_qr_scan"}, "name": "4a90e5ecb5fb8f1bf44138d805e344cd", "is_reserved": 0}, {"is_disabled": 0, "fusion_lon": 0.0, "fusion_lat": 0.0, "lat": 38.9139675, "type": "electric_scooter", "lon": -77.00337366666666, "bike_id": "a1f468f365123c5ce9f5e262c06c1350", "rental_uris": {"android": "https://dc.lft.to/lastmile_qr_scan", "ios": "https://dc.lft.to/lastmile_qr_scan"}, "name": "a1f468f365123c5ce9f5e262c06c1350", "is_reserved": 0}, {"is_disabled": 0, "fusion_lon": 0.0, "fusion_lat": 0.0, "lat": 38.8857485, "type": "electric_scooter", "lon": -76.91913766666667, "bike_id": "dfb6423c6cce3244d3f3f7c804799f1e", "rental_uris": {"android": "https://dc.lft.to/lastmile_qr_scan", "ios": "https://dc.lft.to/lastmile_qr_scan"}, "name": "dfb6423c6cce3244d3f3f7c804799f1e", "is_reserved": 0}, {"is_disabled": 0, "fusion_lon": 0.0, "fusion_lat": 0.0, "lat": 38.91775233333333, "type": "electric_scooter", "lon": -77.0430505, "bike_id": "ff2e161e31eab01a4804c772c0faee92", "rental_uris": {"android": "https://dc.lft.to/lastmile_qr_scan", "ios": "https://dc.lft.to/lastmile_qr_scan"}, "name": "ff2e161e31eab01a4804c772c0faee92", "is_reserved": 0}, {"is_disabled": 0, "fusion_lon": 0.0, "fusion_lat": 0.0, "lat": 38.9058645, "type": "electric_scooter", "lon": -77.06915166666667, "bike_id": "ef1981412dc0de59e587106d85829a2a", "rental_uris": {"android": "https://dc.lft.to/lastmile_qr_scan", "ios": "https://dc.lft.to/lastmile_qr_scan"}, "name": "ef1981412dc0de59e587106d85829a2a", "is_reserved": 0}, {"is_disabled": 0, "fusion_lon": 0.0, "fusion_lat": 0.0, "lat": 38.961262166666664, "type": "electric_scooter", "lon": -77.028114, "bike_id": "895dc7a8047e46b4c3a865523b5498b7", "rental_uris": {"android": "https://dc.lft.to/lastmile_qr_scan", "ios": "https://dc.lft.to/lastmile_qr_scan"}, "name": "895dc7a8047e46b4c3a865523b5498b7", "is_reserved": 0}, {"is_disabled": 0, "fusion_lon": 0.0, "fusion_lat": 0.0, "lat": 38.908116166666666, "type": "electric_scooter", "lon": -77.001484, "bike_id": "5fbf7107717eef7f6a2c125bf18c0a9d", "rental_uris": {"android": "https://dc.lft.to/lastmile_qr_scan", "ios": "https://dc.lft.to/lastmile_qr_scan"}, "name": "5fbf7107717eef7f6a2c125bf18c0a9d", "is_reserved": 0}, {"is_disabled": 0, "fusion_lon": 0.0, "fusion_lat": 0.0, "lat": 38.889131, "type": "electric_scooter", "lon": -76.98004083333333, "bike_id": "a55e8556adfe7dc4951e5517db323212", "rental_uris": {"android": "https://dc.lft.to/lastmile_qr_scan", "ios": "https://dc.lft.to/lastmile_qr_scan"}, "name": "a55e8556adfe7dc4951e5517db323212", "is_reserved": 0}, {"is_disabled": 0, "fusion_lon": 0.0, "fusion_lat": 0.0, "lat": 38.905431, "type": "electric_scooter", "lon": -77.0502485, "bike_id": "be94e4c33db6c9a6cd56725c3e1e2f3f", "rental_uris": {"android": "https://dc.lft.to/lastmile_qr_scan", "ios": "https://dc.lft.to/lastmile_qr_scan"}, "name": "be94e4c33db6c9a6cd56725c3e1e2f3f", "is_reserved": 0}, {"is_disabled": 0, "fusion_lon": 0.0, "fusion_lat": 0.0, "lat": 38.90005133333333, "type": "electric_scooter", "lon": -77.033709, "bike_id": "bbddf1212c2f35c3e550a077bf57e1f2", "rental_uris": {"android": "https://dc.lft.to/lastmile_qr_scan", "ios": "https://dc.lft.to/lastmile_qr_scan"}, "name": "bbddf1212c2f35c3e550a077bf57e1f2", "is_reserved": 0}, {"is_disabled": 0, "fusion_lon": 0.0, "fusion_lat": 0.0, "lat": 38.896798, "type": "electric_scooter", "lon": -77.01174066666667, "bike_id": "3c7488458cd00b4ad6b9b3b86e56d9c5", "rental_uris": {"android": "https://dc.lft.to/lastmile_qr_scan", "ios": "https://dc.lft.to/lastmile_qr_scan"}, "name": "3c7488458cd00b4ad6b9b3b86e56d9c5", "is_reserved": 0}, {"is_disabled": 0, "fusion_lon": 0.0, "fusion_lat": 0.0, "lat": 38.9243445, "type": "electric_bike", "lon": -76.90759833333334, "bike_id": "7e0f40c72db5bca7ffad8f3b0e31d814", "rental_uris": {"android": "https://dc.lft.to/lastmile_qr_scan", "ios": "https://dc.lft.to/lastmile_qr_scan"}, "name": "7e0f40c72db5bca7ffad8f3b0e31d814", "is_reserved": 0}, {"is_disabled": 0, "fusion_lon": 0.0, "fusion_lat": 0.0, "lat": 38.8719465, "type": "electric_scooter", "lon": -76.978245, "bike_id": "4eef6fabf2cf7ebbaa2a941008491d9e", "rental_uris": {"android": "https://dc.lft.to/lastmile_qr_scan", "ios": "https://dc.lft.to/lastmile_qr_scan"}, "name": "4eef6fabf2cf7ebbaa2a941008491d9e", "is_reserved": 0}, {"is_disabled": 0, "fusion_lon": 0.0, "fusion_lat": 0.0, "lat": 38.939269833333334, "type": "electric_bike", "lon": -76.99518483333334, "bike_id": "0ccea22e2fe47123eec7acfcfa9645c8", "rental_uris": {"android": "https://dc.lft.to/lastmile_qr_scan", "ios": "https://dc.lft.to/lastmile_qr_scan"}, "name": "0ccea22e2fe47123eec7acfcfa9645c8", "is_reserved": 0}, {"is_disabled": 0, "fusion_lon": 0.0, "fusion_lat": 0.0, "lat": 38.93232483333333, "type": "electric_scooter", "lon": -76.9993595, "bike_id": "658a27473ba02fde7c7651d77ac298d7", "rental_uris": {"android": "https://dc.lft.to/lastmile_qr_scan", "ios": "https://dc.lft.to/lastmile_qr_scan"}, "name": "658a27473ba02fde7c7651d77ac298d7", "is_reserved": 0}, {"is_disabled": 0, "fusion_lon": 0.0, "fusion_lat": 0.0, "lat": 38.899615833333336, "type": "electric_scooter", "lon": -77.016045, "bike_id": "e5e04ae69a2484588017603c514b3f4e", "rental_uris": {"android": "https://dc.lft.to/lastmile_qr_scan", "ios": "https://dc.lft.to/lastmile_qr_scan"}, "name": "e5e04ae69a2484588017603c514b3f4e", "is_reserved": 0}, {"is_disabled": 0, "fusion_lon": 0.0, "fusion_lat": 0.0, "lat": 38.918194, "type": "electric_scooter", "lon": -77.045262, "bike_id": "530493acf582d535ee9977ed37efd3bd", "rental_uris": {"android": "https://dc.lft.to/lastmile_qr_scan", "ios": "https://dc.lft.to/lastmile_qr_scan"}, "name": "530493acf582d535ee9977ed37efd3bd", "is_reserved": 0}, {"is_disabled": 0, "fusion_lon": 0.0, "fusion_lat": 0.0, "lat": 38.88832333333333, "type": "electric_scooter", "lon": -76.9178435, "bike_id": "d23e0c04d061ca21a93e2d6912eb1ca8", "rental_uris": {"android": "https://dc.lft.to/lastmile_qr_scan", "ios": "https://dc.lft.to/lastmile_qr_scan"}, "name": "d23e0c04d061ca21a93e2d6912eb1ca8", "is_reserved": 0}, {"is_disabled": 0, "fusion_lon": 0.0, "fusion_lat": 0.0, "lat": 38.90607466666667, "type": "electric_scooter", "lon": -77.04663183333334, "bike_id": "537ca9af547a0fa0dcf503982dc93e70", "rental_uris": {"android": "https://dc.lft.to/lastmile_qr_scan", "ios": "https://dc.lft.to/lastmile_qr_scan"}, "name": "537ca9af547a0fa0dcf503982dc93e70", "is_reserved": 0}, {"is_disabled": 0, "fusion_lon": 0.0, "fusion_lat": 0.0, "lat": 38.9366655, "type": "electric_scooter", "lon": -77.03636133333333, "bike_id": "f6082671cecb49c33c7cabeba65b1fab", "rental_uris": {"android": "https://dc.lft.to/lastmile_qr_scan", "ios": "https://dc.lft.to/lastmile_qr_scan"}, "name": "f6082671cecb49c33c7cabeba65b1fab", "is_reserved": 0}, {"is_disabled": 0, "fusion_lon": 0.0, "fusion_lat": 0.0, "lat": 38.917035, "type": "electric_scooter", "lon": -77.03461016666667, "bike_id": "036eb01bdd60e82e3744a33d024e374f", "rental_uris": {"android": "https://dc.lft.to/lastmile_qr_scan", "ios": "https://dc.lft.to/lastmile_qr_scan"}, "name": "036eb01bdd60e82e3744a33d024e374f", "is_reserved": 0}, {"is_disabled": 0, "fusion_lon": 0.0, "fusion_lat": 0.0, "lat": 38.89740233333333, "type": "electric_scooter", "lon": -77.04688966666667, "bike_id": "5844c002223b2cb8197fb1216750ad34", "rental_uris": {"android": "https://dc.lft.to/lastmile_qr_scan", "ios": "https://dc.lft.to/lastmile_qr_scan"}, "name": "5844c002223b2cb8197fb1216750ad34", "is_reserved": 0}, {"is_disabled": 0, "fusion_lon": 0.0, "fusion_lat": 0.0, "lat": 38.83117983333333, "type": "electric_bike", "lon": -77.04329816666667, "bike_id": "d0adb4ed5c32b7c71ea8236449ac2205", "rental_uris": {"android": "https://dc.lft.to/lastmile_qr_scan", "ios": "https://dc.lft.to/lastmile_qr_scan"}, "name": "d0adb4ed5c32b7c71ea8236449ac2205", "is_reserved": 0}, {"is_disabled": 0, "fusion_lon": 0.0, "fusion_lat": 0.0, "lat": 38.91821766666666, "type": "electric_scooter", "lon": -77.01212066666666, "bike_id": "dd07dfb7e56da7887930c36cc3c32a36", "rental_uris": {"android": "https://dc.lft.to/lastmile_qr_scan", "ios": "https://dc.lft.to/lastmile_qr_scan"}, "name": "dd07dfb7e56da7887930c36cc3c32a36", "is_reserved": 0}, {"is_disabled": 0, "fusion_lon": 0.0, "fusion_lat": 0.0, "lat": 38.948954666666666, "type": "electric_bike", "lon": -76.96378016666667, "bike_id": "f9fb5e24337c825cf6943e6eba2f492c", "rental_uris": {"android": "https://dc.lft.to/lastmile_qr_scan", "ios": "https://dc.lft.to/lastmile_qr_scan"}, "name": "f9fb5e24337c825cf6943e6eba2f492c", "is_reserved": 0}, {"is_disabled": 0, "fusion_lon": 0.0, "fusion_lat": 0.0, "lat": 38.89401216666667, "type": "electric_scooter", "lon": -76.9499465, "bike_id": "3df51c0314b5121da075c98b1b5360b2", "rental_uris": {"android": "https://dc.lft.to/lastmile_qr_scan", "ios": "https://dc.lft.to/lastmile_qr_scan"}, "name": "3df51c0314b5121da075c98b1b5360b2", "is_reserved": 0}, {"is_disabled": 0, "fusion_lon": 0.0, "fusion_lat": 0.0, "lat": 38.9119745, "type": "electric_scooter", "lon": -77.03713133333333, "bike_id": "dfcfeaee4674d7111f20b6beaa9f6e7d", "rental_uris": {"android": "https://dc.lft.to/lastmile_qr_scan", "ios": "https://dc.lft.to/lastmile_qr_scan"}, "name": "dfcfeaee4674d7111f20b6beaa9f6e7d", "is_reserved": 0}, {"is_disabled": 0, "fusion_lon": 0.0, "fusion_lat": 0.0, "lat": 38.92584466666667, "type": "electric_scooter", "lon": -77.0320765, "bike_id": "ee8b17a5155975e18a0e58fe32b85c7f", "rental_uris": {"android": "https://dc.lft.to/lastmile_qr_scan", "ios": "https://dc.lft.to/lastmile_qr_scan"}, "name": "ee8b17a5155975e18a0e58fe32b85c7f", "is_reserved": 0}, {"is_disabled": 0, "fusion_lon": 0.0, "fusion_lat": 0.0, "lat": 38.90847433333333, "type": "electric_scooter", "lon": -77.02058533333333, "bike_id": "0547f37d185f46d84c9c2a8bacbe03d4", "rental_uris": {"android": "https://dc.lft.to/lastmile_qr_scan", "ios": "https://dc.lft.to/lastmile_qr_scan"}, "name": "0547f37d185f46d84c9c2a8bacbe03d4", "is_reserved": 0}, {"is_disabled": 0, "fusion_lon": 0.0, "fusion_lat": 0.0, "lat": 38.905296, "type": "electric_scooter", "lon": -77.0678285, "bike_id": "c13e5a54515ebbe8dda91fcb4d859fd6", "rental_uris": {"android": "https://dc.lft.to/lastmile_qr_scan", "ios": "https://dc.lft.to/lastmile_qr_scan"}, "name": "c13e5a54515ebbe8dda91fcb4d859fd6", "is_reserved": 0}, {"is_disabled": 0, "fusion_lon": 0.0, "fusion_lat": 0.0, "lat": 38.9055265, "type": "electric_scooter", "lon": -77.04333233333334, "bike_id": "2b0b37bad1f235a0512dfabb394f2a3e", "rental_uris": {"android": "https://dc.lft.to/lastmile_qr_scan", "ios": "https://dc.lft.to/lastmile_qr_scan"}, "name": "2b0b37bad1f235a0512dfabb394f2a3e", "is_reserved": 0}, {"is_disabled": 0, "fusion_lon": 0.0, "fusion_lat": 0.0, "lat": 38.863481, "type": "electric_scooter", "lon": -76.99060966666667, "bike_id": "c64fcc305d7df701de379172f363dcf8", "rental_uris": {"android": "https://dc.lft.to/lastmile_qr_scan", "ios": "https://dc.lft.to/lastmile_qr_scan"}, "name": "c64fcc305d7df701de379172f363dcf8", "is_reserved": 0}, {"is_disabled": 0, "fusion_lon": 0.0, "fusion_lat": 0.0, "lat": 38.90584616666666, "type": "electric_scooter", "lon": -77.051218, "bike_id": "7ec8ab46da8fd4da00e3e0eaecd997c3", "rental_uris": {"android": "https://dc.lft.to/lastmile_qr_scan", "ios": "https://dc.lft.to/lastmile_qr_scan"}, "name": "7ec8ab46da8fd4da00e3e0eaecd997c3", "is_reserved": 0}, {"is_disabled": 0, "fusion_lon": 0.0, "fusion_lat": 0.0, "lat": 38.8992305, "type": "electric_scooter", "lon": -77.03922633333333, "bike_id": "a74a75ae62697bb763d40ad432bb0d67", "rental_uris": {"android": "https://dc.lft.to/lastmile_qr_scan", "ios": "https://dc.lft.to/lastmile_qr_scan"}, "name": "a74a75ae62697bb763d40ad432bb0d67", "is_reserved": 0}, {"is_disabled": 0, "fusion_lon": 0.0, "fusion_lat": 0.0, "lat": 38.935444333333336, "type": "electric_scooter", "lon": -77.0580905, "bike_id": "19fa7c620128f678fa5bf43b2bcc37f5", "rental_uris": {"android": "https://dc.lft.to/lastmile_qr_scan", "ios": "https://dc.lft.to/lastmile_qr_scan"}, "name": "19fa7c620128f678fa5bf43b2bcc37f5", "is_reserved": 0}, {"is_disabled": 0, "fusion_lon": 0.0, "fusion_lat": 0.0, "lat": 38.92639616666666, "type": "electric_bike", "lon": -77.03332916666666, "bike_id": "a8b88b05a98f668448b95362c4b84a42", "rental_uris": {"android": "https://dc.lft.to/lastmile_qr_scan", "ios": "https://dc.lft.to/lastmile_qr_scan"}, "name": "a8b88b05a98f668448b95362c4b84a42", "is_reserved": 0}, {"is_disabled": 0, "fusion_lon": 0.0, "fusion_lat": 0.0, "lat": 38.87778333333333, "type": "electric_scooter", "lon": -77.01439233333333, "bike_id": "86ba71aeaf987f9cd9c364e6cee213f2", "rental_uris": {"android": "https://dc.lft.to/lastmile_qr_scan", "ios": "https://dc.lft.to/lastmile_qr_scan"}, "name": "86ba71aeaf987f9cd9c364e6cee213f2", "is_reserved": 0}, {"is_disabled": 0, "fusion_lon": 0.0, "fusion_lat": 0.0, "lat": 38.84898833333333, "type": "electric_scooter", "lon": -77.00520516666667, "bike_id": "17ce5fdb2b8f31e668c7eace8527ae91", "rental_uris": {"android": "https://dc.lft.to/lastmile_qr_scan", "ios": "https://dc.lft.to/lastmile_qr_scan"}, "name": "17ce5fdb2b8f31e668c7eace8527ae91", "is_reserved": 0}, {"is_disabled": 0, "fusion_lon": 0.0, "fusion_lat": 0.0, "lat": 38.913334, "type": "electric_scooter", "lon": -77.041831, "bike_id": "e4abe6a23ff99dff450ee99c00818536", "rental_uris": {"android": "https://dc.lft.to/lastmile_qr_scan", "ios": "https://dc.lft.to/lastmile_qr_scan"}, "name": "e4abe6a23ff99dff450ee99c00818536", "is_reserved": 0}, {"is_disabled": 0, "fusion_lon": 0.0, "fusion_lat": 0.0, "lat": 38.898402833333336, "type": "electric_scooter", "lon": -77.0074505, "bike_id": "88375e76e66d00abbf79c1f35a68af84", "rental_uris": {"android": "https://dc.lft.to/lastmile_qr_scan", "ios": "https://dc.lft.to/lastmile_qr_scan"}, "name": "88375e76e66d00abbf79c1f35a68af84", "is_reserved": 0}, {"is_disabled": 0, "fusion_lon": 0.0, "fusion_lat": 0.0, "lat": 38.981432166666664, "type": "electric_bike", "lon": -77.00773216666667, "bike_id": "521ec129b53710a960c8307e4d31c7c9", "rental_uris": {"android": "https://dc.lft.to/lastmile_qr_scan", "ios": "https://dc.lft.to/lastmile_qr_scan"}, "name": "521ec129b53710a960c8307e4d31c7c9", "is_reserved": 0}, {"is_disabled": 0, "fusion_lon": 0.0, "fusion_lat": 0.0, "lat": 38.9141705, "type": "electric_scooter", "lon": -77.03580633333333, "bike_id": "f687d21fac2967e55af682f1e926384d", "rental_uris": {"android": "https://dc.lft.to/lastmile_qr_scan", "ios": "https://dc.lft.to/lastmile_qr_scan"}, "name": "f687d21fac2967e55af682f1e926384d", "is_reserved": 0}, {"is_disabled": 0, "fusion_lon": 0.0, "fusion_lat": 0.0, "lat": 38.922991, "type": "electric_bike", "lon": -76.99419366666666, "bike_id": "c1df2b266c9e81c406cdf1ab8e2cb886", "rental_uris": {"android": "https://dc.lft.to/lastmile_qr_scan", "ios": "https://dc.lft.to/lastmile_qr_scan"}, "name": "c1df2b266c9e81c406cdf1ab8e2cb886", "is_reserved": 0}, {"is_disabled": 0, "fusion_lon": 0.0, "fusion_lat": 0.0, "lat": 38.929109833333335, "type": "electric_scooter", "lon": -77.02347933333333, "bike_id": "83b33b9825ab6fe239168528f0b0340c", "rental_uris": {"android": "https://dc.lft.to/lastmile_qr_scan", "ios": "https://dc.lft.to/lastmile_qr_scan"}, "name": "83b33b9825ab6fe239168528f0b0340c", "is_reserved": 0}, {"is_disabled": 0, "fusion_lon": 0.0, "fusion_lat": 0.0, "lat": 38.92848933333333, "type": "electric_bike", "lon": -77.02072766666667, "bike_id": "71a9439b0d39d39f04583ad85252b1a1", "rental_uris": {"android": "https://dc.lft.to/lastmile_qr_scan", "ios": "https://dc.lft.to/lastmile_qr_scan"}, "name": "71a9439b0d39d39f04583ad85252b1a1", "is_reserved": 0}, {"is_disabled": 0, "fusion_lon": 0.0, "fusion_lat": 0.0, "lat": 38.928942, "type": "electric_scooter", "lon": -76.98458016666666, "bike_id": "59ed7fc3a30bec36d53a32147ad20bae", "rental_uris": {"android": "https://dc.lft.to/lastmile_qr_scan", "ios": "https://dc.lft.to/lastmile_qr_scan"}, "name": "59ed7fc3a30bec36d53a32147ad20bae", "is_reserved": 0}, {"is_disabled": 0, "fusion_lon": 0.0, "fusion_lat": 0.0, "lat": 38.90280383333333, "type": "electric_scooter", "lon": -77.042717, "bike_id": "c12784b7e489217e90a2e0804a5e60d4", "rental_uris": {"android": "https://dc.lft.to/lastmile_qr_scan", "ios": "https://dc.lft.to/lastmile_qr_scan"}, "name": "c12784b7e489217e90a2e0804a5e60d4", "is_reserved": 0}, {"is_disabled": 0, "fusion_lon": 0.0, "fusion_lat": 0.0, "lat": 38.93632383333333, "type": "electric_scooter", "lon": -77.036647, "bike_id": "f42dd13d00baa4ac1ff5f54796d724e6", "rental_uris": {"android": "https://dc.lft.to/lastmile_qr_scan", "ios": "https://dc.lft.to/lastmile_qr_scan"}, "name": "f42dd13d00baa4ac1ff5f54796d724e6", "is_reserved": 0}, {"is_disabled": 0, "fusion_lon": 0.0, "fusion_lat": 0.0, "lat": 38.89371916666666, "type": "electric_scooter", "lon": -76.9500015, "bike_id": "aa4db1757516d82a7ba4c054744b9525", "rental_uris": {"android": "https://dc.lft.to/lastmile_qr_scan", "ios": "https://dc.lft.to/lastmile_qr_scan"}, "name": "aa4db1757516d82a7ba4c054744b9525", "is_reserved": 0}, {"is_disabled": 0, "fusion_lon": 0.0, "fusion_lat": 0.0, "lat": 38.919782833333336, "type": "electric_scooter", "lon": -77.0001835, "bike_id": "4e4b2524539217bf9f1c59d535ee7474", "rental_uris": {"android": "https://dc.lft.to/lastmile_qr_scan", "ios": "https://dc.lft.to/lastmile_qr_scan"}, "name": "4e4b2524539217bf9f1c59d535ee7474", "is_reserved": 0}, {"is_disabled": 0, "fusion_lon": 0.0, "fusion_lat": 0.0, "lat": 38.9244525, "type": "electric_bike", "lon": -76.96833483333333, "bike_id": "322ce5d2a0120178f5235ff0eef60b10", "rental_uris": {"android": "https://dc.lft.to/lastmile_qr_scan", "ios": "https://dc.lft.to/lastmile_qr_scan"}, "name": "322ce5d2a0120178f5235ff0eef60b10", "is_reserved": 0}, {"is_disabled": 0, "fusion_lon": 0.0, "fusion_lat": 0.0, "lat": 39.10565, "type": "electric_bike", "lon": -77.15266466666667, "bike_id": "0b4d364dac57afa11c751f8bc9b0b09f", "rental_uris": {"android": "https://dc.lft.to/lastmile_qr_scan", "ios": "https://dc.lft.to/lastmile_qr_scan"}, "name": "0b4d364dac57afa11c751f8bc9b0b09f", "is_reserved": 0}, {"is_disabled": 0, "fusion_lon": 0.0, "fusion_lat": 0.0, "lat": 38.91262616666667, "type": "electric_scooter", "lon": -77.033747, "bike_id": "dbbaed439e9a435d9058bad29511decd", "rental_uris": {"android": "https://dc.lft.to/lastmile_qr_scan", "ios": "https://dc.lft.to/lastmile_qr_scan"}, "name": "dbbaed439e9a435d9058bad29511decd", "is_reserved": 0}, {"is_disabled": 0, "fusion_lon": 0.0, "fusion_lat": 0.0, "lat": 38.94973383333333, "type": "electric_scooter", "lon": -77.094447, "bike_id": "c134fb911bed6e9f28d2fbf9191befab", "rental_uris": {"android": "https://dc.lft.to/lastmile_qr_scan", "ios": "https://dc.lft.to/lastmile_qr_scan"}, "name": "c134fb911bed6e9f28d2fbf9191befab", "is_reserved": 0}, {"is_disabled": 0, "fusion_lon": 0.0, "fusion_lat": 0.0, "lat": 38.878253, "type": "electric_scooter", "lon": -76.96320583333333, "bike_id": "f24fd35bec445164c77eaa0349ab6973", "rental_uris": {"android": "https://dc.lft.to/lastmile_qr_scan", "ios": "https://dc.lft.to/lastmile_qr_scan"}, "name": "f24fd35bec445164c77eaa0349ab6973", "is_reserved": 0}, {"is_disabled": 0, "fusion_lon": 0.0, "fusion_lat": 0.0, "lat": 38.876681166666664, "type": "electric_scooter", "lon": -76.93191583333333, "bike_id": "01f749399d043350fbe54c30c706aad6", "rental_uris": {"android": "https://dc.lft.to/lastmile_qr_scan", "ios": "https://dc.lft.to/lastmile_qr_scan"}, "name": "01f749399d043350fbe54c30c706aad6", "is_reserved": 0}, {"is_disabled": 0, "fusion_lon": 0.0, "fusion_lat": 0.0, "lat": 38.95001583333333, "type": "electric_bike", "lon": -77.3531075, "bike_id": "a76b1d373fb3c3c1914d5bc164448c8e", "rental_uris": {"android": "https://dc.lft.to/lastmile_qr_scan", "ios": "https://dc.lft.to/lastmile_qr_scan"}, "name": "a76b1d373fb3c3c1914d5bc164448c8e", "is_reserved": 0}, {"is_disabled": 0, "fusion_lon": 0.0, "fusion_lat": 0.0, "lat": 38.9169785, "type": "electric_scooter", "lon": -77.0298695, "bike_id": "20b6c78950097c31893da5d1f3de25bd", "rental_uris": {"android": "https://dc.lft.to/lastmile_qr_scan", "ios": "https://dc.lft.to/lastmile_qr_scan"}, "name": "20b6c78950097c31893da5d1f3de25bd", "is_reserved": 0}, {"is_disabled": 0, "fusion_lon": 0.0, "fusion_lat": 0.0, "lat": 38.918079, "type": "electric_scooter", "lon": -77.03441783333334, "bike_id": "64303d3c7de236b800d8ef33559bdda4", "rental_uris": {"android": "https://dc.lft.to/lastmile_qr_scan", "ios": "https://dc.lft.to/lastmile_qr_scan"}, "name": "64303d3c7de236b800d8ef33559bdda4", "is_reserved": 0}, {"is_disabled": 0, "fusion_lon": 0.0, "fusion_lat": 0.0, "lat": 38.88377716666667, "type": "electric_scooter", "lon": -76.92377533333334, "bike_id": "93f4234814fc34595ba86056b3be2bd9", "rental_uris": {"android": "https://dc.lft.to/lastmile_qr_scan", "ios": "https://dc.lft.to/lastmile_qr_scan"}, "name": "93f4234814fc34595ba86056b3be2bd9", "is_reserved": 0}, {"is_disabled": 0, "fusion_lon": 0.0, "fusion_lat": 0.0, "lat": 38.902622666666666, "type": "electric_scooter", "lon": -77.054087, "bike_id": "0ffffe5bbcc43a0a09d1ef1743898f74", "rental_uris": {"android": "https://dc.lft.to/lastmile_qr_scan", "ios": "https://dc.lft.to/lastmile_qr_scan"}, "name": "0ffffe5bbcc43a0a09d1ef1743898f74", "is_reserved": 0}, {"is_disabled": 0, "fusion_lon": 0.0, "fusion_lat": 0.0, "lat": 38.918084666666665, "type": "electric_scooter", "lon": -77.04029383333334, "bike_id": "cd84de0336a84d23d421cbe6a90dca69", "rental_uris": {"android": "https://dc.lft.to/lastmile_qr_scan", "ios": "https://dc.lft.to/lastmile_qr_scan"}, "name": "cd84de0336a84d23d421cbe6a90dca69", "is_reserved": 0}, {"is_disabled": 0, "fusion_lon": 0.0, "fusion_lat": 0.0, "lat": 38.91627783333333, "type": "electric_scooter", "lon": -77.0408515, "bike_id": "eb7b3d53fab1197a0b58b2246722f08b", "rental_uris": {"android": "https://dc.lft.to/lastmile_qr_scan", "ios": "https://dc.lft.to/lastmile_qr_scan"}, "name": "eb7b3d53fab1197a0b58b2246722f08b", "is_reserved": 0}, {"is_disabled": 0, "fusion_lon": 0.0, "fusion_lat": 0.0, "lat": 38.910874666666665, "type": "electric_bike", "lon": -77.0876785, "bike_id": "70d98f0037f5304faf72559ed8aaca1c", "rental_uris": {"android": "https://dc.lft.to/lastmile_qr_scan", "ios": "https://dc.lft.to/lastmile_qr_scan"}, "name": "70d98f0037f5304faf72559ed8aaca1c", "is_reserved": 0}, {"is_disabled": 0, "fusion_lon": 0.0, "fusion_lat": 0.0, "lat": 38.91631316666667, "type": "electric_scooter", "lon": -77.03199466666666, "bike_id": "347c182e1e472c12fec2fdd316f2e475", "rental_uris": {"android": "https://dc.lft.to/lastmile_qr_scan", "ios": "https://dc.lft.to/lastmile_qr_scan"}, "name": "347c182e1e472c12fec2fdd316f2e475", "is_reserved": 0}, {"is_disabled": 0, "fusion_lon": 0.0, "fusion_lat": 0.0, "lat": 38.90722483333333, "type": "electric_scooter", "lon": -77.02890483333333, "bike_id": "d9353fd9577fa5e59678f21e9b28a7f5", "rental_uris": {"android": "https://dc.lft.to/lastmile_qr_scan", "ios": "https://dc.lft.to/lastmile_qr_scan"}, "name": "d9353fd9577fa5e59678f21e9b28a7f5", "is_reserved": 0}, {"is_disabled": 0, "fusion_lon": 0.0, "fusion_lat": 0.0, "lat": 38.925693833333334, "type": "electric_scooter", "lon": -77.05260783333334, "bike_id": "b1169dd1f4516f12379dcd213cd9e860", "rental_uris": {"android": "https://dc.lft.to/lastmile_qr_scan", "ios": "https://dc.lft.to/lastmile_qr_scan"}, "name": "b1169dd1f4516f12379dcd213cd9e860", "is_reserved": 0}, {"is_disabled": 0, "fusion_lon": 0.0, "fusion_lat": 0.0, "lat": 38.9451995, "type": "electric_scooter", "lon": -77.029841, "bike_id": "c8b2c74ef06bed93c34d335cb7c1e126", "rental_uris": {"android": "https://dc.lft.to/lastmile_qr_scan", "ios": "https://dc.lft.to/lastmile_qr_scan"}, "name": "c8b2c74ef06bed93c34d335cb7c1e126", "is_reserved": 0}, {"is_disabled": 0, "fusion_lon": 0.0, "fusion_lat": 0.0, "lat": 38.930336833333335, "type": "electric_scooter", "lon": -77.03447466666667, "bike_id": "f6eec3b814c043394dcb405f389b309f", "rental_uris": {"android": "https://dc.lft.to/lastmile_qr_scan", "ios": "https://dc.lft.to/lastmile_qr_scan"}, "name": "f6eec3b814c043394dcb405f389b309f", "is_reserved": 0}, {"is_disabled": 0, "fusion_lon": 0.0, "fusion_lat": 0.0, "lat": 38.9180845, "type": "electric_scooter", "lon": -77.0364815, "bike_id": "d0bedacf97817b409d64d095112f19b8", "rental_uris": {"android": "https://dc.lft.to/lastmile_qr_scan", "ios": "https://dc.lft.to/lastmile_qr_scan"}, "name": "d0bedacf97817b409d64d095112f19b8", "is_reserved": 0}, {"is_disabled": 0, "fusion_lon": 0.0, "fusion_lat": 0.0, "lat": 38.939635833333334, "type": "electric_scooter", "lon": -77.03281966666667, "bike_id": "74dbe33b332d7e597b87090fc1908491", "rental_uris": {"android": "https://dc.lft.to/lastmile_qr_scan", "ios": "https://dc.lft.to/lastmile_qr_scan"}, "name": "74dbe33b332d7e597b87090fc1908491", "is_reserved": 0}, {"is_disabled": 0, "fusion_lon": 0.0, "fusion_lat": 0.0, "lat": 38.90530733333333, "type": "electric_scooter", "lon": -77.05644616666666, "bike_id": "11951dcfe16c9dd47adcd3d5eee1d1f9", "rental_uris": {"android": "https://dc.lft.to/lastmile_qr_scan", "ios": "https://dc.lft.to/lastmile_qr_scan"}, "name": "11951dcfe16c9dd47adcd3d5eee1d1f9", "is_reserved": 0}, {"is_disabled": 0, "fusion_lon": 0.0, "fusion_lat": 0.0, "lat": 38.923688, "type": "electric_scooter", "lon": -77.05036566666666, "bike_id": "b3efb04f81a18d41281a998b17f6274d", "rental_uris": {"android": "https://dc.lft.to/lastmile_qr_scan", "ios": "https://dc.lft.to/lastmile_qr_scan"}, "name": "b3efb04f81a18d41281a998b17f6274d", "is_reserved": 0}, {"is_disabled": 0, "fusion_lon": 0.0, "fusion_lat": 0.0, "lat": 38.912587, "type": "electric_scooter", "lon": -77.02566766666666, "bike_id": "ab8e9a52c07ae43824ba662b01a20b97", "rental_uris": {"android": "https://dc.lft.to/lastmile_qr_scan", "ios": "https://dc.lft.to/lastmile_qr_scan"}, "name": "ab8e9a52c07ae43824ba662b01a20b97", "is_reserved": 0}, {"is_disabled": 0, "fusion_lon": 0.0, "fusion_lat": 0.0, "lat": 38.904771, "type": "electric_bike", "lon": -76.950543, "bike_id": "55a3ab6f6fa6b4d27c4db0a15b71fa4e", "rental_uris": {"android": "https://dc.lft.to/lastmile_qr_scan", "ios": "https://dc.lft.to/lastmile_qr_scan"}, "name": "55a3ab6f6fa6b4d27c4db0a15b71fa4e", "is_reserved": 0}, {"is_disabled": 0, "fusion_lon": 0.0, "fusion_lat": 0.0, "lat": 38.92373583333333, "type": "electric_scooter", "lon": -77.030195, "bike_id": "72b3303687bf1ccdfa04416fd33dad5f", "rental_uris": {"android": "https://dc.lft.to/lastmile_qr_scan", "ios": "https://dc.lft.to/lastmile_qr_scan"}, "name": "72b3303687bf1ccdfa04416fd33dad5f", "is_reserved": 0}, {"is_disabled": 0, "fusion_lon": 0.0, "fusion_lat": 0.0, "lat": 38.898323500000004, "type": "electric_scooter", "lon": -76.946362, "bike_id": "7165e1ad8f7aed576025d4fe1245a6e3", "rental_uris": {"android": "https://dc.lft.to/lastmile_qr_scan", "ios": "https://dc.lft.to/lastmile_qr_scan"}, "name": "7165e1ad8f7aed576025d4fe1245a6e3", "is_reserved": 0}, {"is_disabled": 0, "fusion_lon": 0.0, "fusion_lat": 0.0, "lat": 38.96260916666667, "type": "electric_scooter", "lon": -77.02898316666666, "bike_id": "81dc0dd9e83753b53b3b71b490b3b88d", "rental_uris": {"android": "https://dc.lft.to/lastmile_qr_scan", "ios": "https://dc.lft.to/lastmile_qr_scan"}, "name": "81dc0dd9e83753b53b3b71b490b3b88d", "is_reserved": 0}, {"is_disabled": 0, "fusion_lon": 0.0, "fusion_lat": 0.0, "lat": 38.885355833333335, "type": "electric_scooter", "lon": -76.92699033333334, "bike_id": "45a4ee4037d147dfa553d33fb65f02eb", "rental_uris": {"android": "https://dc.lft.to/lastmile_qr_scan", "ios": "https://dc.lft.to/lastmile_qr_scan"}, "name": "45a4ee4037d147dfa553d33fb65f02eb", "is_reserved": 0}, {"is_disabled": 0, "fusion_lon": 0.0, "fusion_lat": 0.0, "lat": 38.82782483333333, "type": "electric_bike", "lon": -77.110828, "bike_id": "5255adf88eaa395ad71477f12b42d953", "rental_uris": {"android": "https://dc.lft.to/lastmile_qr_scan", "ios": "https://dc.lft.to/lastmile_qr_scan"}, "name": "5255adf88eaa395ad71477f12b42d953", "is_reserved": 0}, {"is_disabled": 0, "fusion_lon": 0.0, "fusion_lat": 0.0, "lat": 38.90788033333333, "type": "electric_scooter", "lon": -77.0304635, "bike_id": "b7e7960506e75269d136afe6c85971d0", "rental_uris": {"android": "https://dc.lft.to/lastmile_qr_scan", "ios": "https://dc.lft.to/lastmile_qr_scan"}, "name": "b7e7960506e75269d136afe6c85971d0", "is_reserved": 0}, {"is_disabled": 0, "fusion_lon": 0.0, "fusion_lat": 0.0, "lat": 38.915947, "type": "electric_scooter", "lon": -77.0308645, "bike_id": "d2c8c6e1414df45b78374e1abb30d860", "rental_uris": {"android": "https://dc.lft.to/lastmile_qr_scan", "ios": "https://dc.lft.to/lastmile_qr_scan"}, "name": "d2c8c6e1414df45b78374e1abb30d860", "is_reserved": 0}, {"is_disabled": 0, "fusion_lon": 0.0, "fusion_lat": 0.0, "lat": 38.934731, "type": "electric_scooter", "lon": -77.03581, "bike_id": "7995a36ad4fbf36a6eec50d26ae731a8", "rental_uris": {"android": "https://dc.lft.to/lastmile_qr_scan", "ios": "https://dc.lft.to/lastmile_qr_scan"}, "name": "7995a36ad4fbf36a6eec50d26ae731a8", "is_reserved": 0}, {"is_disabled": 0, "fusion_lon": 0.0, "fusion_lat": 0.0, "lat": 38.92972616666667, "type": "electric_scooter", "lon": -77.020759, "bike_id": "84b64c1a60682f5ba598a312cb89e287", "rental_uris": {"android": "https://dc.lft.to/lastmile_qr_scan", "ios": "https://dc.lft.to/lastmile_qr_scan"}, "name": "84b64c1a60682f5ba598a312cb89e287", "is_reserved": 0}, {"is_disabled": 0, "fusion_lon": 0.0, "fusion_lat": 0.0, "lat": 38.901528666666664, "type": "electric_scooter", "lon": -77.022976, "bike_id": "87e84aacb4314ecd8d7bdf83b7d7a93c", "rental_uris": {"android": "https://dc.lft.to/lastmile_qr_scan", "ios": "https://dc.lft.to/lastmile_qr_scan"}, "name": "87e84aacb4314ecd8d7bdf83b7d7a93c", "is_reserved": 0}, {"is_disabled": 0, "fusion_lon": 0.0, "fusion_lat": 0.0, "lat": 38.896069, "type": "electric_scooter", "lon": -77.009313, "bike_id": "4ad8a1c4925734e540d249a5e0f2ef07", "rental_uris": {"android": "https://dc.lft.to/lastmile_qr_scan", "ios": "https://dc.lft.to/lastmile_qr_scan"}, "name": "4ad8a1c4925734e540d249a5e0f2ef07", "is_reserved": 0}, {"is_disabled": 0, "fusion_lon": 0.0, "fusion_lat": 0.0, "lat": 38.910422833333335, "type": "electric_scooter", "lon": -77.04003466666667, "bike_id": "28157837207e43f4e3e75ac0d1b5c404", "rental_uris": {"android": "https://dc.lft.to/lastmile_qr_scan", "ios": "https://dc.lft.to/lastmile_qr_scan"}, "name": "28157837207e43f4e3e75ac0d1b5c404", "is_reserved": 0}, {"is_disabled": 0, "fusion_lon": 0.0, "fusion_lat": 0.0, "lat": 38.94202516666667, "type": "electric_scooter", "lon": -77.02592366666667, "bike_id": "340afd5d01d0454d26620c4f6431c7ef", "rental_uris": {"android": "https://dc.lft.to/lastmile_qr_scan", "ios": "https://dc.lft.to/lastmile_qr_scan"}, "name": "340afd5d01d0454d26620c4f6431c7ef", "is_reserved": 0}, {"is_disabled": 0, "fusion_lon": 0.0, "fusion_lat": 0.0, "lat": 38.9068105, "type": "electric_scooter", "lon": -76.98002016666666, "bike_id": "c1398ebb0acdbef2401ffddbc93602d6", "rental_uris": {"android": "https://dc.lft.to/lastmile_qr_scan", "ios": "https://dc.lft.to/lastmile_qr_scan"}, "name": "c1398ebb0acdbef2401ffddbc93602d6", "is_reserved": 0}, {"is_disabled": 0, "fusion_lon": 0.0, "fusion_lat": 0.0, "lat": 38.93536133333333, "type": "electric_scooter", "lon": -77.05430816666667, "bike_id": "6600d7c2675e6542a8835e9d6d28c2fa", "rental_uris": {"android": "https://dc.lft.to/lastmile_qr_scan", "ios": "https://dc.lft.to/lastmile_qr_scan"}, "name": "6600d7c2675e6542a8835e9d6d28c2fa", "is_reserved": 0}, {"is_disabled": 0, "fusion_lon": 0.0, "fusion_lat": 0.0, "lat": 38.85807066666667, "type": "electric_scooter", "lon": -76.98656633333333, "bike_id": "3e8bda13288153cf4fe445e24907103c", "rental_uris": {"android": "https://dc.lft.to/lastmile_qr_scan", "ios": "https://dc.lft.to/lastmile_qr_scan"}, "name": "3e8bda13288153cf4fe445e24907103c", "is_reserved": 0}, {"is_disabled": 0, "fusion_lon": 0.0, "fusion_lat": 0.0, "lat": 38.960983666666664, "type": "electric_scooter", "lon": -77.06900483333334, "bike_id": "875eb3c222d18940788ae2c1c47d3c58", "rental_uris": {"android": "https://dc.lft.to/lastmile_qr_scan", "ios": "https://dc.lft.to/lastmile_qr_scan"}, "name": "875eb3c222d18940788ae2c1c47d3c58", "is_reserved": 0}, {"is_disabled": 0, "fusion_lon": 0.0, "fusion_lat": 0.0, "lat": 38.90873583333333, "type": "electric_scooter", "lon": -77.0355065, "bike_id": "4ff2507c2e38c2f4dccbc29c81ec53cd", "rental_uris": {"android": "https://dc.lft.to/lastmile_qr_scan", "ios": "https://dc.lft.to/lastmile_qr_scan"}, "name": "4ff2507c2e38c2f4dccbc29c81ec53cd", "is_reserved": 0}, {"is_disabled": 0, "fusion_lon": 0.0, "fusion_lat": 0.0, "lat": 38.911820166666665, "type": "electric_scooter", "lon": -77.035068, "bike_id": "3ee9f66a92a0a59a120ad45a576b75d6", "rental_uris": {"android": "https://dc.lft.to/lastmile_qr_scan", "ios": "https://dc.lft.to/lastmile_qr_scan"}, "name": "3ee9f66a92a0a59a120ad45a576b75d6", "is_reserved": 0}, {"is_disabled": 0, "fusion_lon": 0.0, "fusion_lat": 0.0, "lat": 38.934026, "type": "electric_scooter", "lon": -77.03269283333333, "bike_id": "b47870d7035535a679c8d6d38cb4ea9a", "rental_uris": {"android": "https://dc.lft.to/lastmile_qr_scan", "ios": "https://dc.lft.to/lastmile_qr_scan"}, "name": "b47870d7035535a679c8d6d38cb4ea9a", "is_reserved": 0}, {"is_disabled": 0, "fusion_lon": 0.0, "fusion_lat": 0.0, "lat": 38.865248666666666, "type": "electric_scooter", "lon": -76.98970783333333, "bike_id": "7fd77166e051871caa36e0255b4a2cda", "rental_uris": {"android": "https://dc.lft.to/lastmile_qr_scan", "ios": "https://dc.lft.to/lastmile_qr_scan"}, "name": "7fd77166e051871caa36e0255b4a2cda", "is_reserved": 0}, {"is_disabled": 0, "fusion_lon": 0.0, "fusion_lat": 0.0, "lat": 38.90366616666667, "type": "electric_scooter", "lon": -77.01626816666666, "bike_id": "ff9bf0058065ece10baec5ecdcf2f4fb", "rental_uris": {"android": "https://dc.lft.to/lastmile_qr_scan", "ios": "https://dc.lft.to/lastmile_qr_scan"}, "name": "ff9bf0058065ece10baec5ecdcf2f4fb", "is_reserved": 0}, {"is_disabled": 0, "fusion_lon": 0.0, "fusion_lat": 0.0, "lat": 38.895657666666665, "type": "electric_bike", "lon": -77.12740033333333, "bike_id": "2d871acc7fde2d9222f2129f83713da3", "rental_uris": {"android": "https://dc.lft.to/lastmile_qr_scan", "ios": "https://dc.lft.to/lastmile_qr_scan"}, "name": "2d871acc7fde2d9222f2129f83713da3", "is_reserved": 0}, {"is_disabled": 0, "fusion_lon": 0.0, "fusion_lat": 0.0, "lat": 38.905569, "type": "electric_scooter", "lon": -77.034731, "bike_id": "4cdc9400198c52efa86f7865b2b25b79", "rental_uris": {"android": "https://dc.lft.to/lastmile_qr_scan", "ios": "https://dc.lft.to/lastmile_qr_scan"}, "name": "4cdc9400198c52efa86f7865b2b25b79", "is_reserved": 0}, {"is_disabled": 0, "fusion_lon": 0.0, "fusion_lat": 0.0, "lat": 38.922520666666664, "type": "electric_scooter", "lon": -77.041477, "bike_id": "c48fe6c2ae638c46e19b6efdcad71ca8", "rental_uris": {"android": "https://dc.lft.to/lastmile_qr_scan", "ios": "https://dc.lft.to/lastmile_qr_scan"}, "name": "c48fe6c2ae638c46e19b6efdcad71ca8", "is_reserved": 0}, {"is_disabled": 0, "fusion_lon": 0.0, "fusion_lat": 0.0, "lat": 38.9257665, "type": "electric_scooter", "lon": -76.99497866666667, "bike_id": "361dbd3c906491f85c6a72abc2341457", "rental_uris": {"android": "https://dc.lft.to/lastmile_qr_scan", "ios": "https://dc.lft.to/lastmile_qr_scan"}, "name": "361dbd3c906491f85c6a72abc2341457", "is_reserved": 0}, {"is_disabled": 0, "fusion_lon": 0.0, "fusion_lat": 0.0, "lat": 38.894824, "type": "electric_bike", "lon": -76.995228, "bike_id": "4b15a2dadd84448034751cafff8146a3", "rental_uris": {"android": "https://dc.lft.to/lastmile_qr_scan", "ios": "https://dc.lft.to/lastmile_qr_scan"}, "name": "4b15a2dadd84448034751cafff8146a3", "is_reserved": 0}, {"is_disabled": 0, "fusion_lon": 0.0, "fusion_lat": 0.0, "lat": 38.93785833333333, "type": "electric_scooter", "lon": -77.01877883333333, "bike_id": "6621974a6af5bf0882276534f8069765", "rental_uris": {"android": "https://dc.lft.to/lastmile_qr_scan", "ios": "https://dc.lft.to/lastmile_qr_scan"}, "name": "6621974a6af5bf0882276534f8069765", "is_reserved": 0}, {"is_disabled": 0, "fusion_lon": 0.0, "fusion_lat": 0.0, "lat": 38.961164333333336, "type": "electric_scooter", "lon": -77.0853245, "bike_id": "b9d1ee00af76b483312580662b4b0337", "rental_uris": {"android": "https://dc.lft.to/lastmile_qr_scan", "ios": "https://dc.lft.to/lastmile_qr_scan"}, "name": "b9d1ee00af76b483312580662b4b0337", "is_reserved": 0}, {"is_disabled": 0, "fusion_lon": 0.0, "fusion_lat": 0.0, "lat": 38.922197833333335, "type": "electric_scooter", "lon": -77.03297716666667, "bike_id": "88ad693be30773f16549c6c8d61e3be0", "rental_uris": {"android": "https://dc.lft.to/lastmile_qr_scan", "ios": "https://dc.lft.to/lastmile_qr_scan"}, "name": "88ad693be30773f16549c6c8d61e3be0", "is_reserved": 0}, {"is_disabled": 0, "fusion_lon": 0.0, "fusion_lat": 0.0, "lat": 38.8874275, "type": "electric_scooter", "lon": -77.0153705, "bike_id": "12935d690a2491ce125db40c2ded753e", "rental_uris": {"android": "https://dc.lft.to/lastmile_qr_scan", "ios": "https://dc.lft.to/lastmile_qr_scan"}, "name": "12935d690a2491ce125db40c2ded753e", "is_reserved": 0}, {"is_disabled": 0, "fusion_lon": 0.0, "fusion_lat": 0.0, "lat": 38.91628, "type": "electric_scooter", "lon": -77.04876066666667, "bike_id": "a66b45291f955e5bc0df2cd68c2ca5fb", "rental_uris": {"android": "https://dc.lft.to/lastmile_qr_scan", "ios": "https://dc.lft.to/lastmile_qr_scan"}, "name": "a66b45291f955e5bc0df2cd68c2ca5fb", "is_reserved": 0}, {"is_disabled": 0, "fusion_lon": 0.0, "fusion_lat": 0.0, "lat": 38.91702766666667, "type": "electric_scooter", "lon": -77.001148, "bike_id": "06345a5865dac47fd431ceb2a6b5f562", "rental_uris": {"android": "https://dc.lft.to/lastmile_qr_scan", "ios": "https://dc.lft.to/lastmile_qr_scan"}, "name": "06345a5865dac47fd431ceb2a6b5f562", "is_reserved": 0}, {"is_disabled": 0, "fusion_lon": 0.0, "fusion_lat": 0.0, "lat": 38.91791683333334, "type": "electric_scooter", "lon": -77.024006, "bike_id": "930f4397505859933688e76eb9fd9b19", "rental_uris": {"android": "https://dc.lft.to/lastmile_qr_scan", "ios": "https://dc.lft.to/lastmile_qr_scan"}, "name": "930f4397505859933688e76eb9fd9b19", "is_reserved": 0}, {"is_disabled": 0, "fusion_lon": 0.0, "fusion_lat": 0.0, "lat": 38.90932733333333, "type": "electric_scooter", "lon": -77.02299583333334, "bike_id": "a9bfceb66ba9e44a0f7a627efb36b19d", "rental_uris": {"android": "https://dc.lft.to/lastmile_qr_scan", "ios": "https://dc.lft.to/lastmile_qr_scan"}, "name": "a9bfceb66ba9e44a0f7a627efb36b19d", "is_reserved": 0}, {"is_disabled": 0, "fusion_lon": 0.0, "fusion_lat": 0.0, "lat": 38.984991, "type": "electric_bike", "lon": -76.9819795, "bike_id": "f8a7f7c563b8bd5351b434d254c54da8", "rental_uris": {"android": "https://dc.lft.to/lastmile_qr_scan", "ios": "https://dc.lft.to/lastmile_qr_scan"}, "name": "f8a7f7c563b8bd5351b434d254c54da8", "is_reserved": 0}, {"is_disabled": 0, "fusion_lon": 0.0, "fusion_lat": 0.0, "lat": 38.9037145, "type": "electric_scooter", "lon": -77.03179466666667, "bike_id": "39fa84fe1195785d000f9456ff16abd0", "rental_uris": {"android": "https://dc.lft.to/lastmile_qr_scan", "ios": "https://dc.lft.to/lastmile_qr_scan"}, "name": "39fa84fe1195785d000f9456ff16abd0", "is_reserved": 0}, {"is_disabled": 0, "fusion_lon": 0.0, "fusion_lat": 0.0, "lat": 38.905041, "type": "electric_scooter", "lon": -77.02542616666666, "bike_id": "32cdb2fb8fa1e2b8ddeef4cce15870d7", "rental_uris": {"android": "https://dc.lft.to/lastmile_qr_scan", "ios": "https://dc.lft.to/lastmile_qr_scan"}, "name": "32cdb2fb8fa1e2b8ddeef4cce15870d7", "is_reserved": 0}, {"is_disabled": 0, "fusion_lon": 0.0, "fusion_lat": 0.0, "lat": 38.9048315, "type": "electric_scooter", "lon": -76.9733215, "bike_id": "78a80cfec8a6b3cfa608d0eae3b2abca", "rental_uris": {"android": "https://dc.lft.to/lastmile_qr_scan", "ios": "https://dc.lft.to/lastmile_qr_scan"}, "name": "78a80cfec8a6b3cfa608d0eae3b2abca", "is_reserved": 0}, {"is_disabled": 0, "fusion_lon": 0.0, "fusion_lat": 0.0, "lat": 38.918073666666665, "type": "electric_scooter", "lon": -77.032226, "bike_id": "8d39503bf0ab2ca879780a688f4757cf", "rental_uris": {"android": "https://dc.lft.to/lastmile_qr_scan", "ios": "https://dc.lft.to/lastmile_qr_scan"}, "name": "8d39503bf0ab2ca879780a688f4757cf", "is_reserved": 0}, {"is_disabled": 0, "fusion_lon": 0.0, "fusion_lat": 0.0, "lat": 38.915667, "type": "electric_scooter", "lon": -77.010244, "bike_id": "ed3aa85276be60db8f9feda4b984978a", "rental_uris": {"android": "https://dc.lft.to/lastmile_qr_scan", "ios": "https://dc.lft.to/lastmile_qr_scan"}, "name": "ed3aa85276be60db8f9feda4b984978a", "is_reserved": 0}, {"is_disabled": 0, "fusion_lon": 0.0, "fusion_lat": 0.0, "lat": 38.906818666666666, "type": "electric_bike", "lon": -76.95198066666667, "bike_id": "1b7c3a56f6b541cd4cf69119a57f9096", "rental_uris": {"android": "https://dc.lft.to/lastmile_qr_scan", "ios": "https://dc.lft.to/lastmile_qr_scan"}, "name": "1b7c3a56f6b541cd4cf69119a57f9096", "is_reserved": 0}, {"is_disabled": 0, "fusion_lon": 0.0, "fusion_lat": 0.0, "lat": 38.9073845, "type": "electric_scooter", "lon": -77.02977266666667, "bike_id": "574664d45bff4fca2737f93b2bf376fb", "rental_uris": {"android": "https://dc.lft.to/lastmile_qr_scan", "ios": "https://dc.lft.to/lastmile_qr_scan"}, "name": "574664d45bff4fca2737f93b2bf376fb", "is_reserved": 0}, {"is_disabled": 0, "fusion_lon": 0.0, "fusion_lat": 0.0, "lat": 38.930271166666664, "type": "electric_scooter", "lon": -77.01943566666667, "bike_id": "9768859c283af31db90578076885ebf7", "rental_uris": {"android": "https://dc.lft.to/lastmile_qr_scan", "ios": "https://dc.lft.to/lastmile_qr_scan"}, "name": "9768859c283af31db90578076885ebf7", "is_reserved": 0}, {"is_disabled": 0, "fusion_lon": 0.0, "fusion_lat": 0.0, "lat": 38.91951066666667, "type": "electric_scooter", "lon": -77.01657083333333, "bike_id": "ca94dfb822f76a6269e999304c6c2075", "rental_uris": {"android": "https://dc.lft.to/lastmile_qr_scan", "ios": "https://dc.lft.to/lastmile_qr_scan"}, "name": "ca94dfb822f76a6269e999304c6c2075", "is_reserved": 0}, {"is_disabled": 0, "fusion_lon": 0.0, "fusion_lat": 0.0, "lat": 38.909749, "type": "electric_scooter", "lon": -77.03868966666667, "bike_id": "bcbc4b0abbc07839751e0ca8970fc507", "rental_uris": {"android": "https://dc.lft.to/lastmile_qr_scan", "ios": "https://dc.lft.to/lastmile_qr_scan"}, "name": "bcbc4b0abbc07839751e0ca8970fc507", "is_reserved": 0}, {"is_disabled": 0, "fusion_lon": 0.0, "fusion_lat": 0.0, "lat": 38.925043, "type": "electric_scooter", "lon": -77.04096816666667, "bike_id": "295ff6d6747abbcd3d8d5505b83e47c0", "rental_uris": {"android": "https://dc.lft.to/lastmile_qr_scan", "ios": "https://dc.lft.to/lastmile_qr_scan"}, "name": "295ff6d6747abbcd3d8d5505b83e47c0", "is_reserved": 0}, {"is_disabled": 0, "fusion_lon": 0.0, "fusion_lat": 0.0, "lat": 38.895141333333335, "type": "electric_bike", "lon": -76.94947216666667, "bike_id": "518bf8bfc9cd7a4433a564ed89224dc8", "rental_uris": {"android": "https://dc.lft.to/lastmile_qr_scan", "ios": "https://dc.lft.to/lastmile_qr_scan"}, "name": "518bf8bfc9cd7a4433a564ed89224dc8", "is_reserved": 0}, {"is_disabled": 0, "fusion_lon": 0.0, "fusion_lat": 0.0, "lat": 38.88588816666667, "type": "electric_scooter", "lon": -77.03113033333334, "bike_id": "eb0dbacaa4db381f2a95627589a5681f", "rental_uris": {"android": "https://dc.lft.to/lastmile_qr_scan", "ios": "https://dc.lft.to/lastmile_qr_scan"}, "name": "eb0dbacaa4db381f2a95627589a5681f", "is_reserved": 0}, {"is_disabled": 0, "fusion_lon": 0.0, "fusion_lat": 0.0, "lat": 38.93231083333333, "type": "electric_scooter", "lon": -77.020288, "bike_id": "54a5b09527dfc49ecb81fe5bd81e1452", "rental_uris": {"android": "https://dc.lft.to/lastmile_qr_scan", "ios": "https://dc.lft.to/lastmile_qr_scan"}, "name": "54a5b09527dfc49ecb81fe5bd81e1452", "is_reserved": 0}, {"is_disabled": 0, "fusion_lon": 0.0, "fusion_lat": 0.0, "lat": 38.89842466666666, "type": "electric_scooter", "lon": -77.03959583333334, "bike_id": "0f998b191d32d820632639c774e601b5", "rental_uris": {"android": "https://dc.lft.to/lastmile_qr_scan", "ios": "https://dc.lft.to/lastmile_qr_scan"}, "name": "0f998b191d32d820632639c774e601b5", "is_reserved": 0}, {"is_disabled": 0, "fusion_lon": 0.0, "fusion_lat": 0.0, "lat": 38.86335, "type": "electric_bike", "lon": -76.987178, "bike_id": "563d67c94267914630be13437ed41c28", "rental_uris": {"android": "https://dc.lft.to/lastmile_qr_scan", "ios": "https://dc.lft.to/lastmile_qr_scan"}, "name": "563d67c94267914630be13437ed41c28", "is_reserved": 0}, {"is_disabled": 0, "fusion_lon": 0.0, "fusion_lat": 0.0, "lat": 38.91951383333333, "type": "electric_scooter", "lon": -77.000719, "bike_id": "d55a7e206c0967251d09d72ee549b76e", "rental_uris": {"android": "https://dc.lft.to/lastmile_qr_scan", "ios": "https://dc.lft.to/lastmile_qr_scan"}, "name": "d55a7e206c0967251d09d72ee549b76e", "is_reserved": 0}, {"is_disabled": 0, "fusion_lon": 0.0, "fusion_lat": 0.0, "lat": 38.900607, "type": "electric_scooter", "lon": -76.93474333333333, "bike_id": "31758b60d0f506b4cf7c7fb1cac95c79", "rental_uris": {"android": "https://dc.lft.to/lastmile_qr_scan", "ios": "https://dc.lft.to/lastmile_qr_scan"}, "name": "31758b60d0f506b4cf7c7fb1cac95c79", "is_reserved": 0}, {"is_disabled": 0, "fusion_lon": 0.0, "fusion_lat": 0.0, "lat": 38.92365016666667, "type": "electric_scooter", "lon": -77.05129916666667, "bike_id": "addc8d20ccf2453ca6adaef03e70d1b7", "rental_uris": {"android": "https://dc.lft.to/lastmile_qr_scan", "ios": "https://dc.lft.to/lastmile_qr_scan"}, "name": "addc8d20ccf2453ca6adaef03e70d1b7", "is_reserved": 0}, {"is_disabled": 0, "fusion_lon": 0.0, "fusion_lat": 0.0, "lat": 38.9187255, "type": "electric_scooter", "lon": -77.0352475, "bike_id": "4e1a44d68d77e0ccaa5f511d70690ee5", "rental_uris": {"android": "https://dc.lft.to/lastmile_qr_scan", "ios": "https://dc.lft.to/lastmile_qr_scan"}, "name": "4e1a44d68d77e0ccaa5f511d70690ee5", "is_reserved": 0}, {"is_disabled": 0, "fusion_lon": 0.0, "fusion_lat": 0.0, "lat": 38.94153466666667, "type": "electric_bike", "lon": -77.00198733333333, "bike_id": "88605b038ca5a644f39fa0e9301325fd", "rental_uris": {"android": "https://dc.lft.to/lastmile_qr_scan", "ios": "https://dc.lft.to/lastmile_qr_scan"}, "name": "88605b038ca5a644f39fa0e9301325fd", "is_reserved": 0}, {"is_disabled": 0, "fusion_lon": 0.0, "fusion_lat": 0.0, "lat": 38.9076445, "type": "electric_scooter", "lon": -77.03581866666667, "bike_id": "093a9d887673523445614449a8aa53a9", "rental_uris": {"android": "https://dc.lft.to/lastmile_qr_scan", "ios": "https://dc.lft.to/lastmile_qr_scan"}, "name": "093a9d887673523445614449a8aa53a9", "is_reserved": 0}, {"is_disabled": 0, "fusion_lon": 0.0, "fusion_lat": 0.0, "lat": 38.87669533333333, "type": "electric_bike", "lon": -77.01442216666666, "bike_id": "32457c1383703a42c35c3cc28f9c5453", "rental_uris": {"android": "https://dc.lft.to/lastmile_qr_scan", "ios": "https://dc.lft.to/lastmile_qr_scan"}, "name": "32457c1383703a42c35c3cc28f9c5453", "is_reserved": 0}, {"is_disabled": 0, "fusion_lon": 0.0, "fusion_lat": 0.0, "lat": 39.05810066666667, "type": "electric_bike", "lon": -77.12628066666667, "bike_id": "c4b46c81d3d79412896dada767982ffc", "rental_uris": {"android": "https://dc.lft.to/lastmile_qr_scan", "ios": "https://dc.lft.to/lastmile_qr_scan"}, "name": "c4b46c81d3d79412896dada767982ffc", "is_reserved": 0}, {"is_disabled": 0, "fusion_lon": 0.0, "fusion_lat": 0.0, "lat": 38.90374766666667, "type": "electric_scooter", "lon": -77.0253255, "bike_id": "23e045700f3af30a44dfdb8b32484884", "rental_uris": {"android": "https://dc.lft.to/lastmile_qr_scan", "ios": "https://dc.lft.to/lastmile_qr_scan"}, "name": "23e045700f3af30a44dfdb8b32484884", "is_reserved": 0}, {"is_disabled": 0, "fusion_lon": 0.0, "fusion_lat": 0.0, "lat": 38.904995666666665, "type": "electric_scooter", "lon": -77.026072, "bike_id": "0b56302f439be77ad8dfd375cc6c2870", "rental_uris": {"android": "https://dc.lft.to/lastmile_qr_scan", "ios": "https://dc.lft.to/lastmile_qr_scan"}, "name": "0b56302f439be77ad8dfd375cc6c2870", "is_reserved": 0}, {"is_disabled": 0, "fusion_lon": 0.0, "fusion_lat": 0.0, "lat": 38.9228805, "type": "electric_scooter", "lon": -77.04032233333334, "bike_id": "8bf29ea530f7895160953e01bf3da12c", "rental_uris": {"android": "https://dc.lft.to/lastmile_qr_scan", "ios": "https://dc.lft.to/lastmile_qr_scan"}, "name": "8bf29ea530f7895160953e01bf3da12c", "is_reserved": 0}, {"is_disabled": 0, "fusion_lon": 0.0, "fusion_lat": 0.0, "lat": 38.8875515, "type": "electric_scooter", "lon": -77.0338595, "bike_id": "19a73e15615073c20cbd9d7e48f4031d", "rental_uris": {"android": "https://dc.lft.to/lastmile_qr_scan", "ios": "https://dc.lft.to/lastmile_qr_scan"}, "name": "19a73e15615073c20cbd9d7e48f4031d", "is_reserved": 0}, {"is_disabled": 0, "fusion_lon": 0.0, "fusion_lat": 0.0, "lat": 38.90196666666667, "type": "electric_scooter", "lon": -77.0395775, "bike_id": "c74ab78731c64a7d0fa3367d13c5f8d8", "rental_uris": {"android": "https://dc.lft.to/lastmile_qr_scan", "ios": "https://dc.lft.to/lastmile_qr_scan"}, "name": "c74ab78731c64a7d0fa3367d13c5f8d8", "is_reserved": 0}, {"is_disabled": 0, "fusion_lon": 0.0, "fusion_lat": 0.0, "lat": 38.901726, "type": "electric_scooter", "lon": -76.993857, "bike_id": "90931519758d8d3c915cb97ce64bee62", "rental_uris": {"android": "https://dc.lft.to/lastmile_qr_scan", "ios": "https://dc.lft.to/lastmile_qr_scan"}, "name": "90931519758d8d3c915cb97ce64bee62", "is_reserved": 0}, {"is_disabled": 0, "fusion_lon": 0.0, "fusion_lat": 0.0, "lat": 38.9484355, "type": "electric_bike", "lon": -76.9723295, "bike_id": "594875fd63362bd34177ae097cac1c2b", "rental_uris": {"android": "https://dc.lft.to/lastmile_qr_scan", "ios": "https://dc.lft.to/lastmile_qr_scan"}, "name": "594875fd63362bd34177ae097cac1c2b", "is_reserved": 0}, {"is_disabled": 0, "fusion_lon": 0.0, "fusion_lat": 0.0, "lat": 38.902611666666665, "type": "electric_scooter", "lon": -77.00327, "bike_id": "068fe7fa6b8f73f23d9114a14f6d7982", "rental_uris": {"android": "https://dc.lft.to/lastmile_qr_scan", "ios": "https://dc.lft.to/lastmile_qr_scan"}, "name": "068fe7fa6b8f73f23d9114a14f6d7982", "is_reserved": 0}, {"is_disabled": 0, "fusion_lon": 0.0, "fusion_lat": 0.0, "lat": 38.917291, "type": "electric_scooter", "lon": -76.99181466666667, "bike_id": "7b9de6f91f67ac881217cc4f76f925db", "rental_uris": {"android": "https://dc.lft.to/lastmile_qr_scan", "ios": "https://dc.lft.to/lastmile_qr_scan"}, "name": "7b9de6f91f67ac881217cc4f76f925db", "is_reserved": 0}, {"is_disabled": 0, "fusion_lon": 0.0, "fusion_lat": 0.0, "lat": 38.87207, "type": "electric_bike", "lon": -76.95485533333333, "bike_id": "a5eff8cba489dca3a5ee69fd024c0fe2", "rental_uris": {"android": "https://dc.lft.to/lastmile_qr_scan", "ios": "https://dc.lft.to/lastmile_qr_scan"}, "name": "a5eff8cba489dca3a5ee69fd024c0fe2", "is_reserved": 0}, {"is_disabled": 0, "fusion_lon": 0.0, "fusion_lat": 0.0, "lat": 38.970621333333334, "type": "electric_bike", "lon": -76.96041216666667, "bike_id": "9d9d5b93b9fbd0fdeded4074e9df6a5e", "rental_uris": {"android": "https://dc.lft.to/lastmile_qr_scan", "ios": "https://dc.lft.to/lastmile_qr_scan"}, "name": "9d9d5b93b9fbd0fdeded4074e9df6a5e", "is_reserved": 0}, {"is_disabled": 0, "fusion_lon": 0.0, "fusion_lat": 0.0, "lat": 38.918499, "type": "electric_scooter", "lon": -77.03219333333334, "bike_id": "a9fa83dc2b3ff26cf20bf7667195b123", "rental_uris": {"android": "https://dc.lft.to/lastmile_qr_scan", "ios": "https://dc.lft.to/lastmile_qr_scan"}, "name": "a9fa83dc2b3ff26cf20bf7667195b123", "is_reserved": 0}, {"is_disabled": 0, "fusion_lon": 0.0, "fusion_lat": 0.0, "lat": 38.91200583333333, "type": "electric_scooter", "lon": -76.9848465, "bike_id": "55197c249674a1b54dd5736b51a17827", "rental_uris": {"android": "https://dc.lft.to/lastmile_qr_scan", "ios": "https://dc.lft.to/lastmile_qr_scan"}, "name": "55197c249674a1b54dd5736b51a17827", "is_reserved": 0}, {"is_disabled": 0, "fusion_lon": 0.0, "fusion_lat": 0.0, "lat": 38.8875305, "type": "electric_scooter", "lon": -77.00229383333334, "bike_id": "3b67d0c20f75640782f916101790b0a3", "rental_uris": {"android": "https://dc.lft.to/lastmile_qr_scan", "ios": "https://dc.lft.to/lastmile_qr_scan"}, "name": "3b67d0c20f75640782f916101790b0a3", "is_reserved": 0}, {"is_disabled": 0, "fusion_lon": 0.0, "fusion_lat": 0.0, "lat": 38.876364333333335, "type": "electric_scooter", "lon": -76.9976705, "bike_id": "ec54e5f098676935808e5e744f10e1cd", "rental_uris": {"android": "https://dc.lft.to/lastmile_qr_scan", "ios": "https://dc.lft.to/lastmile_qr_scan"}, "name": "ec54e5f098676935808e5e744f10e1cd", "is_reserved": 0}, {"is_disabled": 0, "fusion_lon": 0.0, "fusion_lat": 0.0, "lat": 38.89995716666667, "type": "electric_scooter", "lon": -76.99165583333334, "bike_id": "0d078c2b91d4b7887d5911314103f86c", "rental_uris": {"android": "https://dc.lft.to/lastmile_qr_scan", "ios": "https://dc.lft.to/lastmile_qr_scan"}, "name": "0d078c2b91d4b7887d5911314103f86c", "is_reserved": 0}, {"is_disabled": 0, "fusion_lon": 0.0, "fusion_lat": 0.0, "lat": 38.9018035, "type": "electric_scooter", "lon": -77.05003833333333, "bike_id": "ae32aa94edbbf93d837a9209ab67a170", "rental_uris": {"android": "https://dc.lft.to/lastmile_qr_scan", "ios": "https://dc.lft.to/lastmile_qr_scan"}, "name": "ae32aa94edbbf93d837a9209ab67a170", "is_reserved": 0}, {"is_disabled": 0, "fusion_lon": 0.0, "fusion_lat": 0.0, "lat": 38.865170166666665, "type": "electric_scooter", "lon": -76.9896585, "bike_id": "8afdec3d4720b390b4e9eda2d3dec651", "rental_uris": {"android": "https://dc.lft.to/lastmile_qr_scan", "ios": "https://dc.lft.to/lastmile_qr_scan"}, "name": "8afdec3d4720b390b4e9eda2d3dec651", "is_reserved": 0}, {"is_disabled": 0, "fusion_lon": 0.0, "fusion_lat": 0.0, "lat": 38.84619816666667, "type": "electric_scooter", "lon": -76.99631016666666, "bike_id": "3625c6b4e4d6671125d93d725387c229", "rental_uris": {"android": "https://dc.lft.to/lastmile_qr_scan", "ios": "https://dc.lft.to/lastmile_qr_scan"}, "name": "3625c6b4e4d6671125d93d725387c229", "is_reserved": 0}, {"is_disabled": 0, "fusion_lon": 0.0, "fusion_lat": 0.0, "lat": 38.898865666666666, "type": "electric_scooter", "lon": -77.03957816666667, "bike_id": "7b2089b098ff037238b0b124b4806e19", "rental_uris": {"android": "https://dc.lft.to/lastmile_qr_scan", "ios": "https://dc.lft.to/lastmile_qr_scan"}, "name": "7b2089b098ff037238b0b124b4806e19", "is_reserved": 0}, {"is_disabled": 0, "fusion_lon": 0.0, "fusion_lat": 0.0, "lat": 38.92440633333333, "type": "electric_scooter", "lon": -77.02609016666666, "bike_id": "5cb6d2fb7f102466cf702c467ce3870f", "rental_uris": {"android": "https://dc.lft.to/lastmile_qr_scan", "ios": "https://dc.lft.to/lastmile_qr_scan"}, "name": "5cb6d2fb7f102466cf702c467ce3870f", "is_reserved": 0}, {"is_disabled": 0, "fusion_lon": 0.0, "fusion_lat": 0.0, "lat": 38.918290999999996, "type": "electric_scooter", "lon": -77.03136233333333, "bike_id": "b2a0492a9e4a985a5707f8a3eb60cd1b", "rental_uris": {"android": "https://dc.lft.to/lastmile_qr_scan", "ios": "https://dc.lft.to/lastmile_qr_scan"}, "name": "b2a0492a9e4a985a5707f8a3eb60cd1b", "is_reserved": 0}, {"is_disabled": 0, "fusion_lon": 0.0, "fusion_lat": 0.0, "lat": 38.96014, "type": "electric_scooter", "lon": -77.033152, "bike_id": "ba3f038b6e212714e768ae4a75c8cee4", "rental_uris": {"android": "https://dc.lft.to/lastmile_qr_scan", "ios": "https://dc.lft.to/lastmile_qr_scan"}, "name": "ba3f038b6e212714e768ae4a75c8cee4", "is_reserved": 0}, {"is_disabled": 0, "fusion_lon": 0.0, "fusion_lat": 0.0, "lat": 38.92782166666667, "type": "electric_scooter", "lon": -77.02786083333334, "bike_id": "e269494be0436eb6250c29841b8feb72", "rental_uris": {"android": "https://dc.lft.to/lastmile_qr_scan", "ios": "https://dc.lft.to/lastmile_qr_scan"}, "name": "e269494be0436eb6250c29841b8feb72", "is_reserved": 0}, {"is_disabled": 0, "fusion_lon": 0.0, "fusion_lat": 0.0, "lat": 38.90951183333333, "type": "electric_scooter", "lon": -77.0217965, "bike_id": "b7b47f645f5686eda002def7cede3f94", "rental_uris": {"android": "https://dc.lft.to/lastmile_qr_scan", "ios": "https://dc.lft.to/lastmile_qr_scan"}, "name": "b7b47f645f5686eda002def7cede3f94", "is_reserved": 0}, {"is_disabled": 0, "fusion_lon": 0.0, "fusion_lat": 0.0, "lat": 38.93355833333333, "type": "electric_scooter", "lon": -77.0737555, "bike_id": "9af9f22c9023f732b2634a91efdd7e5a", "rental_uris": {"android": "https://dc.lft.to/lastmile_qr_scan", "ios": "https://dc.lft.to/lastmile_qr_scan"}, "name": "9af9f22c9023f732b2634a91efdd7e5a", "is_reserved": 0}, {"is_disabled": 0, "fusion_lon": 0.0, "fusion_lat": 0.0, "lat": 38.905412, "type": "electric_scooter", "lon": -77.026985, "bike_id": "58eff116958b4e3bad3cd4e0c2a27a5d", "rental_uris": {"android": "https://dc.lft.to/lastmile_qr_scan", "ios": "https://dc.lft.to/lastmile_qr_scan"}, "name": "58eff116958b4e3bad3cd4e0c2a27a5d", "is_reserved": 0}, {"is_disabled": 0, "fusion_lon": 0.0, "fusion_lat": 0.0, "lat": 38.909711333333334, "type": "electric_scooter", "lon": -77.03868566666667, "bike_id": "b8588df3373f9bf628728797e8e5b48d", "rental_uris": {"android": "https://dc.lft.to/lastmile_qr_scan", "ios": "https://dc.lft.to/lastmile_qr_scan"}, "name": "b8588df3373f9bf628728797e8e5b48d", "is_reserved": 0}, {"is_disabled": 0, "fusion_lon": 0.0, "fusion_lat": 0.0, "lat": 38.875092, "type": "electric_scooter", "lon": -77.0137565, "bike_id": "720c577f316d81bf097b15fa5f3f28e5", "rental_uris": {"android": "https://dc.lft.to/lastmile_qr_scan", "ios": "https://dc.lft.to/lastmile_qr_scan"}, "name": "720c577f316d81bf097b15fa5f3f28e5", "is_reserved": 0}, {"is_disabled": 0, "fusion_lon": 0.0, "fusion_lat": 0.0, "lat": 38.896703, "type": "electric_scooter", "lon": -77.04347533333333, "bike_id": "b011a18b18afe7e6cffad29a3bc5f389", "rental_uris": {"android": "https://dc.lft.to/lastmile_qr_scan", "ios": "https://dc.lft.to/lastmile_qr_scan"}, "name": "b011a18b18afe7e6cffad29a3bc5f389", "is_reserved": 0}, {"is_disabled": 0, "fusion_lon": 0.0, "fusion_lat": 0.0, "lat": 38.926362166666664, "type": "electric_scooter", "lon": -77.04183216666667, "bike_id": "e4447efc671bb848130bca6bc60d6ed2", "rental_uris": {"android": "https://dc.lft.to/lastmile_qr_scan", "ios": "https://dc.lft.to/lastmile_qr_scan"}, "name": "e4447efc671bb848130bca6bc60d6ed2", "is_reserved": 0}, {"is_disabled": 0, "fusion_lon": 0.0, "fusion_lat": 0.0, "lat": 38.996700833333335, "type": "electric_bike", "lon": -76.99145166666666, "bike_id": "e5da60c87b0d0c21a1dfb60d4474d84b", "rental_uris": {"android": "https://dc.lft.to/lastmile_qr_scan", "ios": "https://dc.lft.to/lastmile_qr_scan"}, "name": "e5da60c87b0d0c21a1dfb60d4474d84b", "is_reserved": 0}, {"is_disabled": 0, "fusion_lon": 0.0, "fusion_lat": 0.0, "lat": 38.944529833333334, "type": "electric_scooter", "lon": -77.06030766666667, "bike_id": "2159a81ca8c531e0cdc2b40c5122ea28", "rental_uris": {"android": "https://dc.lft.to/lastmile_qr_scan", "ios": "https://dc.lft.to/lastmile_qr_scan"}, "name": "2159a81ca8c531e0cdc2b40c5122ea28", "is_reserved": 0}, {"is_disabled": 0, "fusion_lon": 0.0, "fusion_lat": 0.0, "lat": 38.90367533333333, "type": "electric_scooter", "lon": -77.016486, "bike_id": "9dfd9ad790d467b61c94f84ee762be32", "rental_uris": {"android": "https://dc.lft.to/lastmile_qr_scan", "ios": "https://dc.lft.to/lastmile_qr_scan"}, "name": "9dfd9ad790d467b61c94f84ee762be32", "is_reserved": 0}, {"is_disabled": 0, "fusion_lon": 0.0, "fusion_lat": 0.0, "lat": 38.9190955, "type": "electric_scooter", "lon": -77.03389516666667, "bike_id": "7500341cc6a7c3844c6b4389f53a8713", "rental_uris": {"android": "https://dc.lft.to/lastmile_qr_scan", "ios": "https://dc.lft.to/lastmile_qr_scan"}, "name": "7500341cc6a7c3844c6b4389f53a8713", "is_reserved": 0}, {"is_disabled": 0, "fusion_lon": 0.0, "fusion_lat": 0.0, "lat": 38.9725715, "type": "electric_bike", "lon": -76.99170733333334, "bike_id": "1b15ab78b3bd7827980ae103dc75bcf4", "rental_uris": {"android": "https://dc.lft.to/lastmile_qr_scan", "ios": "https://dc.lft.to/lastmile_qr_scan"}, "name": "1b15ab78b3bd7827980ae103dc75bcf4", "is_reserved": 0}, {"is_disabled": 0, "fusion_lon": 0.0, "fusion_lat": 0.0, "lat": 38.895031, "type": "electric_scooter", "lon": -77.01071483333334, "bike_id": "f5616dc5653af0215f5201fedcd9c8c8", "rental_uris": {"android": "https://dc.lft.to/lastmile_qr_scan", "ios": "https://dc.lft.to/lastmile_qr_scan"}, "name": "f5616dc5653af0215f5201fedcd9c8c8", "is_reserved": 0}, {"is_disabled": 0, "fusion_lon": 0.0, "fusion_lat": 0.0, "lat": 38.917667333333334, "type": "electric_scooter", "lon": -77.04751516666667, "bike_id": "e439951bd6b3c995d1685e9246bf7ac1", "rental_uris": {"android": "https://dc.lft.to/lastmile_qr_scan", "ios": "https://dc.lft.to/lastmile_qr_scan"}, "name": "e439951bd6b3c995d1685e9246bf7ac1", "is_reserved": 0}, {"is_disabled": 0, "fusion_lon": 0.0, "fusion_lat": 0.0, "lat": 38.89749916666667, "type": "electric_scooter", "lon": -77.01006766666667, "bike_id": "15ece69b64dd339a527c732ce15cda81", "rental_uris": {"android": "https://dc.lft.to/lastmile_qr_scan", "ios": "https://dc.lft.to/lastmile_qr_scan"}, "name": "15ece69b64dd339a527c732ce15cda81", "is_reserved": 0}, {"is_disabled": 0, "fusion_lon": 0.0, "fusion_lat": 0.0, "lat": 38.934686666666664, "type": "electric_scooter", "lon": -77.0688265, "bike_id": "c5f1b63f37c34ce80d9f88c3121f7bda", "rental_uris": {"android": "https://dc.lft.to/lastmile_qr_scan", "ios": "https://dc.lft.to/lastmile_qr_scan"}, "name": "c5f1b63f37c34ce80d9f88c3121f7bda", "is_reserved": 0}, {"is_disabled": 0, "fusion_lon": 0.0, "fusion_lat": 0.0, "lat": 38.89428366666667, "type": "electric_scooter", "lon": -77.0109795, "bike_id": "cc93e7965c131c795a9373b7fdd7beef", "rental_uris": {"android": "https://dc.lft.to/lastmile_qr_scan", "ios": "https://dc.lft.to/lastmile_qr_scan"}, "name": "cc93e7965c131c795a9373b7fdd7beef", "is_reserved": 0}, {"is_disabled": 0, "fusion_lon": 0.0, "fusion_lat": 0.0, "lat": 38.83931916666667, "type": "electric_bike", "lon": -77.07904383333333, "bike_id": "ede3a472b93b5a1bddafb3f4c11459bb", "rental_uris": {"android": "https://dc.lft.to/lastmile_qr_scan", "ios": "https://dc.lft.to/lastmile_qr_scan"}, "name": "ede3a472b93b5a1bddafb3f4c11459bb", "is_reserved": 0}, {"is_disabled": 0, "fusion_lon": 0.0, "fusion_lat": 0.0, "lat": 38.90684366666667, "type": "electric_scooter", "lon": -77.062853, "bike_id": "e93d9504d3b50fc2cb2e716e3be58715", "rental_uris": {"android": "https://dc.lft.to/lastmile_qr_scan", "ios": "https://dc.lft.to/lastmile_qr_scan"}, "name": "e93d9504d3b50fc2cb2e716e3be58715", "is_reserved": 0}, {"is_disabled": 0, "fusion_lon": 0.0, "fusion_lat": 0.0, "lat": 38.93827016666667, "type": "electric_scooter", "lon": -77.02794633333333, "bike_id": "c85c1bad24bef34cb428b83eb0552a57", "rental_uris": {"android": "https://dc.lft.to/lastmile_qr_scan", "ios": "https://dc.lft.to/lastmile_qr_scan"}, "name": "c85c1bad24bef34cb428b83eb0552a57", "is_reserved": 0}, {"is_disabled": 0, "fusion_lon": 0.0, "fusion_lat": 0.0, "lat": 38.929152333333334, "type": "electric_scooter", "lon": -77.022722, "bike_id": "407a299017863a8fe9705473f95d161d", "rental_uris": {"android": "https://dc.lft.to/lastmile_qr_scan", "ios": "https://dc.lft.to/lastmile_qr_scan"}, "name": "407a299017863a8fe9705473f95d161d", "is_reserved": 0}, {"is_disabled": 0, "fusion_lon": 0.0, "fusion_lat": 0.0, "lat": 38.9041725, "type": "electric_scooter", "lon": -76.98552733333334, "bike_id": "3e202090a4f09cd01e09d455dd76aa42", "rental_uris": {"android": "https://dc.lft.to/lastmile_qr_scan", "ios": "https://dc.lft.to/lastmile_qr_scan"}, "name": "3e202090a4f09cd01e09d455dd76aa42", "is_reserved": 0}, {"is_disabled": 0, "fusion_lon": 0.0, "fusion_lat": 0.0, "lat": 38.93704616666667, "type": "electric_scooter", "lon": -77.06105616666666, "bike_id": "c623c141621e4096a41a76622371c874", "rental_uris": {"android": "https://dc.lft.to/lastmile_qr_scan", "ios": "https://dc.lft.to/lastmile_qr_scan"}, "name": "c623c141621e4096a41a76622371c874", "is_reserved": 0}, {"is_disabled": 0, "fusion_lon": 0.0, "fusion_lat": 0.0, "lat": 38.918526166666666, "type": "electric_bike", "lon": -76.96090483333333, "bike_id": "19d0f7094276b430287eb6e744bd5346", "rental_uris": {"android": "https://dc.lft.to/lastmile_qr_scan", "ios": "https://dc.lft.to/lastmile_qr_scan"}, "name": "19d0f7094276b430287eb6e744bd5346", "is_reserved": 0}, {"is_disabled": 0, "fusion_lon": 0.0, "fusion_lat": 0.0, "lat": 38.902737333333334, "type": "electric_scooter", "lon": -77.0343565, "bike_id": "0e0af4d8109336c4e5797f52ba241df3", "rental_uris": {"android": "https://dc.lft.to/lastmile_qr_scan", "ios": "https://dc.lft.to/lastmile_qr_scan"}, "name": "0e0af4d8109336c4e5797f52ba241df3", "is_reserved": 0}, {"is_disabled": 0, "fusion_lon": 0.0, "fusion_lat": 0.0, "lat": 38.911091, "type": "electric_scooter", "lon": -77.0383075, "bike_id": "d81a4498c70c81fc229776ddb8e8a2d3", "rental_uris": {"android": "https://dc.lft.to/lastmile_qr_scan", "ios": "https://dc.lft.to/lastmile_qr_scan"}, "name": "d81a4498c70c81fc229776ddb8e8a2d3", "is_reserved": 0}, {"is_disabled": 0, "fusion_lon": 0.0, "fusion_lat": 0.0, "lat": 38.898253833333335, "type": "electric_scooter", "lon": -76.94653583333333, "bike_id": "eecb6d12152aaf7e008f94ddf503b823", "rental_uris": {"android": "https://dc.lft.to/lastmile_qr_scan", "ios": "https://dc.lft.to/lastmile_qr_scan"}, "name": "eecb6d12152aaf7e008f94ddf503b823", "is_reserved": 0}, {"is_disabled": 0, "fusion_lon": 0.0, "fusion_lat": 0.0, "lat": 38.9245865, "type": "electric_scooter", "lon": -77.02965216666666, "bike_id": "c84f5bbe84da8b5695673eddcd413172", "rental_uris": {"android": "https://dc.lft.to/lastmile_qr_scan", "ios": "https://dc.lft.to/lastmile_qr_scan"}, "name": "c84f5bbe84da8b5695673eddcd413172", "is_reserved": 0}, {"is_disabled": 0, "fusion_lon": 0.0, "fusion_lat": 0.0, "lat": 38.91056966666667, "type": "electric_scooter", "lon": -77.02280916666666, "bike_id": "f0389869dd99bbcb259d8029d2478381", "rental_uris": {"android": "https://dc.lft.to/lastmile_qr_scan", "ios": "https://dc.lft.to/lastmile_qr_scan"}, "name": "f0389869dd99bbcb259d8029d2478381", "is_reserved": 0}, {"is_disabled": 0, "fusion_lon": 0.0, "fusion_lat": 0.0, "lat": 38.917027, "type": "electric_scooter", "lon": -77.03316916666667, "bike_id": "493191bee479bf079b70123c2981bf64", "rental_uris": {"android": "https://dc.lft.to/lastmile_qr_scan", "ios": "https://dc.lft.to/lastmile_qr_scan"}, "name": "493191bee479bf079b70123c2981bf64", "is_reserved": 0}, {"is_disabled": 0, "fusion_lon": 0.0, "fusion_lat": 0.0, "lat": 38.9517715, "type": "electric_scooter", "lon": -77.02606316666666, "bike_id": "886e99d29ba0bc1825ab0f87596fe84b", "rental_uris": {"android": "https://dc.lft.to/lastmile_qr_scan", "ios": "https://dc.lft.to/lastmile_qr_scan"}, "name": "886e99d29ba0bc1825ab0f87596fe84b", "is_reserved": 0}, {"is_disabled": 0, "fusion_lon": 0.0, "fusion_lat": 0.0, "lat": 38.90383633333333, "type": "electric_scooter", "lon": -76.99006516666667, "bike_id": "7afdc7c17462b0c952f97d6291364c47", "rental_uris": {"android": "https://dc.lft.to/lastmile_qr_scan", "ios": "https://dc.lft.to/lastmile_qr_scan"}, "name": "7afdc7c17462b0c952f97d6291364c47", "is_reserved": 0}, {"is_disabled": 0, "fusion_lon": 0.0, "fusion_lat": 0.0, "lat": 38.88121666666667, "type": "electric_bike", "lon": -77.0166925, "bike_id": "4db0bc310714c29459f5f90c1e678d2f", "rental_uris": {"android": "https://dc.lft.to/lastmile_qr_scan", "ios": "https://dc.lft.to/lastmile_qr_scan"}, "name": "4db0bc310714c29459f5f90c1e678d2f", "is_reserved": 0}, {"is_disabled": 0, "fusion_lon": 0.0, "fusion_lat": 0.0, "lat": 38.928085333333335, "type": "electric_scooter", "lon": -77.03617266666667, "bike_id": "fdc1fab9f2b53bad783bae02dbc64d5d", "rental_uris": {"android": "https://dc.lft.to/lastmile_qr_scan", "ios": "https://dc.lft.to/lastmile_qr_scan"}, "name": "fdc1fab9f2b53bad783bae02dbc64d5d", "is_reserved": 0}, {"is_disabled": 0, "fusion_lon": 0.0, "fusion_lat": 0.0, "lat": 38.946217833333336, "type": "electric_bike", "lon": -76.93412566666666, "bike_id": "e04d6a17c947f6bd15be43f54abbeba7", "rental_uris": {"android": "https://dc.lft.to/lastmile_qr_scan", "ios": "https://dc.lft.to/lastmile_qr_scan"}, "name": "e04d6a17c947f6bd15be43f54abbeba7", "is_reserved": 0}, {"is_disabled": 0, "fusion_lon": 0.0, "fusion_lat": 0.0, "lat": 38.92589733333333, "type": "electric_bike", "lon": -76.88901733333333, "bike_id": "53465a1ff2fb5ed91100ff71d16b18c2", "rental_uris": {"android": "https://dc.lft.to/lastmile_qr_scan", "ios": "https://dc.lft.to/lastmile_qr_scan"}, "name": "53465a1ff2fb5ed91100ff71d16b18c2", "is_reserved": 0}, {"is_disabled": 0, "fusion_lon": 0.0, "fusion_lat": 0.0, "lat": 38.8728295, "type": "electric_scooter", "lon": -76.97732433333333, "bike_id": "b45a47472302cec1befac48f12b9d810", "rental_uris": {"android": "https://dc.lft.to/lastmile_qr_scan", "ios": "https://dc.lft.to/lastmile_qr_scan"}, "name": "b45a47472302cec1befac48f12b9d810", "is_reserved": 0}, {"is_disabled": 0, "fusion_lon": 0.0, "fusion_lat": 0.0, "lat": 38.954155666666665, "type": "electric_scooter", "lon": -77.02846883333333, "bike_id": "1440dac8f5c4cc79d3e3d992348d7e49", "rental_uris": {"android": "https://dc.lft.to/lastmile_qr_scan", "ios": "https://dc.lft.to/lastmile_qr_scan"}, "name": "1440dac8f5c4cc79d3e3d992348d7e49", "is_reserved": 0}, {"is_disabled": 0, "fusion_lon": 0.0, "fusion_lat": 0.0, "lat": 38.976768, "type": "electric_bike", "lon": -76.97168966666666, "bike_id": "80d34c326be60dc7c835244e02ca1e41", "rental_uris": {"android": "https://dc.lft.to/lastmile_qr_scan", "ios": "https://dc.lft.to/lastmile_qr_scan"}, "name": "80d34c326be60dc7c835244e02ca1e41", "is_reserved": 0}, {"is_disabled": 0, "fusion_lon": 0.0, "fusion_lat": 0.0, "lat": 38.892323833333336, "type": "electric_bike", "lon": -76.9522195, "bike_id": "5cdd5bdbfc27c2f14a26df0c3496a08f", "rental_uris": {"android": "https://dc.lft.to/lastmile_qr_scan", "ios": "https://dc.lft.to/lastmile_qr_scan"}, "name": "5cdd5bdbfc27c2f14a26df0c3496a08f", "is_reserved": 0}, {"is_disabled": 0, "fusion_lon": 0.0, "fusion_lat": 0.0, "lat": 38.90854083333333, "type": "electric_scooter", "lon": -77.07157383333333, "bike_id": "b6c91efbfd296452e509651e88f4230e", "rental_uris": {"android": "https://dc.lft.to/lastmile_qr_scan", "ios": "https://dc.lft.to/lastmile_qr_scan"}, "name": "b6c91efbfd296452e509651e88f4230e", "is_reserved": 0}, {"is_disabled": 0, "fusion_lon": 0.0, "fusion_lat": 0.0, "lat": 38.91794633333333, "type": "electric_scooter", "lon": -77.0401085, "bike_id": "1e4b845528fd15ab9350b7d6f0e7da1a", "rental_uris": {"android": "https://dc.lft.to/lastmile_qr_scan", "ios": "https://dc.lft.to/lastmile_qr_scan"}, "name": "1e4b845528fd15ab9350b7d6f0e7da1a", "is_reserved": 0}, {"is_disabled": 0, "fusion_lon": 0.0, "fusion_lat": 0.0, "lat": 38.82872883333334, "type": "electric_bike", "lon": -77.1122435, "bike_id": "39d1f0c690b72678191b37db9b2866cd", "rental_uris": {"android": "https://dc.lft.to/lastmile_qr_scan", "ios": "https://dc.lft.to/lastmile_qr_scan"}, "name": "39d1f0c690b72678191b37db9b2866cd", "is_reserved": 0}, {"is_disabled": 0, "fusion_lon": 0.0, "fusion_lat": 0.0, "lat": 38.96564866666667, "type": "electric_scooter", "lon": -77.01568633333333, "bike_id": "fb7243d58c130b4aba4a4a15370284c6", "rental_uris": {"android": "https://dc.lft.to/lastmile_qr_scan", "ios": "https://dc.lft.to/lastmile_qr_scan"}, "name": "fb7243d58c130b4aba4a4a15370284c6", "is_reserved": 0}, {"is_disabled": 0, "fusion_lon": 0.0, "fusion_lat": 0.0, "lat": 38.91813966666667, "type": "electric_scooter", "lon": -77.024745, "bike_id": "519f711984b3349551012e4877f92dfa", "rental_uris": {"android": "https://dc.lft.to/lastmile_qr_scan", "ios": "https://dc.lft.to/lastmile_qr_scan"}, "name": "519f711984b3349551012e4877f92dfa", "is_reserved": 0}, {"is_disabled": 0, "fusion_lon": 0.0, "fusion_lat": 0.0, "lat": 38.882618, "type": "electric_scooter", "lon": -76.98541866666666, "bike_id": "0bcd3dbdfb79d075489692b19408ed1d", "rental_uris": {"android": "https://dc.lft.to/lastmile_qr_scan", "ios": "https://dc.lft.to/lastmile_qr_scan"}, "name": "0bcd3dbdfb79d075489692b19408ed1d", "is_reserved": 0}, {"is_disabled": 0, "fusion_lon": 0.0, "fusion_lat": 0.0, "lat": 38.955482833333335, "type": "electric_bike", "lon": -76.93545716666667, "bike_id": "90ca2d26f192cf7f30eb17b70cd15405", "rental_uris": {"android": "https://dc.lft.to/lastmile_qr_scan", "ios": "https://dc.lft.to/lastmile_qr_scan"}, "name": "90ca2d26f192cf7f30eb17b70cd15405", "is_reserved": 0}, {"is_disabled": 0, "fusion_lon": 0.0, "fusion_lat": 0.0, "lat": 38.83318966666667, "type": "electric_scooter", "lon": -77.00008966666667, "bike_id": "f6675ebf00b15664e6c810e398c6837f", "rental_uris": {"android": "https://dc.lft.to/lastmile_qr_scan", "ios": "https://dc.lft.to/lastmile_qr_scan"}, "name": "f6675ebf00b15664e6c810e398c6837f", "is_reserved": 0}, {"is_disabled": 0, "fusion_lon": 0.0, "fusion_lat": 0.0, "lat": 38.8724455, "type": "electric_scooter", "lon": -76.977303, "bike_id": "c2f15108722c0765f4d6dbd4921c322f", "rental_uris": {"android": "https://dc.lft.to/lastmile_qr_scan", "ios": "https://dc.lft.to/lastmile_qr_scan"}, "name": "c2f15108722c0765f4d6dbd4921c322f", "is_reserved": 0}, {"is_disabled": 0, "fusion_lon": 0.0, "fusion_lat": 0.0, "lat": 38.83193166666667, "type": "electric_bike", "lon": -77.07684983333333, "bike_id": "300dd3cdac6ec0ddac677f0bd5234f5c", "rental_uris": {"android": "https://dc.lft.to/lastmile_qr_scan", "ios": "https://dc.lft.to/lastmile_qr_scan"}, "name": "300dd3cdac6ec0ddac677f0bd5234f5c", "is_reserved": 0}, {"is_disabled": 0, "fusion_lon": 0.0, "fusion_lat": 0.0, "lat": 38.913343, "type": "electric_scooter", "lon": -77.04865383333333, "bike_id": "a8b7a080af41c65c2f275da5afa92b85", "rental_uris": {"android": "https://dc.lft.to/lastmile_qr_scan", "ios": "https://dc.lft.to/lastmile_qr_scan"}, "name": "a8b7a080af41c65c2f275da5afa92b85", "is_reserved": 0}, {"is_disabled": 0, "fusion_lon": 0.0, "fusion_lat": 0.0, "lat": 38.925766833333334, "type": "electric_scooter", "lon": -77.02869566666666, "bike_id": "5725d1029a0a5dab129940d452f02a66", "rental_uris": {"android": "https://dc.lft.to/lastmile_qr_scan", "ios": "https://dc.lft.to/lastmile_qr_scan"}, "name": "5725d1029a0a5dab129940d452f02a66", "is_reserved": 0}, {"is_disabled": 0, "fusion_lon": 0.0, "fusion_lat": 0.0, "lat": 38.915375, "type": "electric_scooter", "lon": -77.037866, "bike_id": "19a29f5581bb0b291400d9e3fd40e807", "rental_uris": {"android": "https://dc.lft.to/lastmile_qr_scan", "ios": "https://dc.lft.to/lastmile_qr_scan"}, "name": "19a29f5581bb0b291400d9e3fd40e807", "is_reserved": 0}, {"is_disabled": 0, "fusion_lon": 0.0, "fusion_lat": 0.0, "lat": 38.95176466666667, "type": "electric_scooter", "lon": -77.05660383333333, "bike_id": "ff3a2f6616261a24134841b145eb5be0", "rental_uris": {"android": "https://dc.lft.to/lastmile_qr_scan", "ios": "https://dc.lft.to/lastmile_qr_scan"}, "name": "ff3a2f6616261a24134841b145eb5be0", "is_reserved": 0}, {"is_disabled": 0, "fusion_lon": 0.0, "fusion_lat": 0.0, "lat": 38.905195166666665, "type": "electric_scooter", "lon": -77.05149166666666, "bike_id": "d29572bac9a1de744cde980c7057fd06", "rental_uris": {"android": "https://dc.lft.to/lastmile_qr_scan", "ios": "https://dc.lft.to/lastmile_qr_scan"}, "name": "d29572bac9a1de744cde980c7057fd06", "is_reserved": 0}, {"is_disabled": 0, "fusion_lon": 0.0, "fusion_lat": 0.0, "lat": 38.956361, "type": "electric_scooter", "lon": -77.02981133333333, "bike_id": "d2417c603b06f829ac406e3b640fc236", "rental_uris": {"android": "https://dc.lft.to/lastmile_qr_scan", "ios": "https://dc.lft.to/lastmile_qr_scan"}, "name": "d2417c603b06f829ac406e3b640fc236", "is_reserved": 0}, {"is_disabled": 0, "fusion_lon": 0.0, "fusion_lat": 0.0, "lat": 38.8816375, "type": "electric_scooter", "lon": -77.00901766666667, "bike_id": "9131f5d6b346d62464e5b0eb61f0c4ca", "rental_uris": {"android": "https://dc.lft.to/lastmile_qr_scan", "ios": "https://dc.lft.to/lastmile_qr_scan"}, "name": "9131f5d6b346d62464e5b0eb61f0c4ca", "is_reserved": 0}, {"is_disabled": 0, "fusion_lon": 0.0, "fusion_lat": 0.0, "lat": 38.859767, "type": "electric_scooter", "lon": -76.9841535, "bike_id": "465d594d74f951d63387a03b93e2f8fe", "rental_uris": {"android": "https://dc.lft.to/lastmile_qr_scan", "ios": "https://dc.lft.to/lastmile_qr_scan"}, "name": "465d594d74f951d63387a03b93e2f8fe", "is_reserved": 0}, {"is_disabled": 0, "fusion_lon": 0.0, "fusion_lat": 0.0, "lat": 38.92736766666667, "type": "electric_bike", "lon": -76.99366883333333, "bike_id": "da332da3fd4dcf0894b4be3e7194d46b", "rental_uris": {"android": "https://dc.lft.to/lastmile_qr_scan", "ios": "https://dc.lft.to/lastmile_qr_scan"}, "name": "da332da3fd4dcf0894b4be3e7194d46b", "is_reserved": 0}, {"is_disabled": 0, "fusion_lon": 0.0, "fusion_lat": 0.0, "lat": 38.85065516666667, "type": "electric_bike", "lon": -76.97333233333333, "bike_id": "f3843a74a8e06f2ce508969416e7de10", "rental_uris": {"android": "https://dc.lft.to/lastmile_qr_scan", "ios": "https://dc.lft.to/lastmile_qr_scan"}, "name": "f3843a74a8e06f2ce508969416e7de10", "is_reserved": 0}, {"is_disabled": 0, "fusion_lon": 0.0, "fusion_lat": 0.0, "lat": 38.919016166666665, "type": "electric_scooter", "lon": -77.02759333333333, "bike_id": "52df5a6da4bd826513968903c4e8a253", "rental_uris": {"android": "https://dc.lft.to/lastmile_qr_scan", "ios": "https://dc.lft.to/lastmile_qr_scan"}, "name": "52df5a6da4bd826513968903c4e8a253", "is_reserved": 0}, {"is_disabled": 0, "fusion_lon": 0.0, "fusion_lat": 0.0, "lat": 38.92481466666667, "type": "electric_scooter", "lon": -77.0271185, "bike_id": "1c4ad089dbdeb5cebf6e18929c759100", "rental_uris": {"android": "https://dc.lft.to/lastmile_qr_scan", "ios": "https://dc.lft.to/lastmile_qr_scan"}, "name": "1c4ad089dbdeb5cebf6e18929c759100", "is_reserved": 0}, {"is_disabled": 0, "fusion_lon": 0.0, "fusion_lat": 0.0, "lat": 38.918013333333334, "type": "electric_scooter", "lon": -77.03556583333334, "bike_id": "674d4eb1937b06b6e1692c011ffbeb04", "rental_uris": {"android": "https://dc.lft.to/lastmile_qr_scan", "ios": "https://dc.lft.to/lastmile_qr_scan"}, "name": "674d4eb1937b06b6e1692c011ffbeb04", "is_reserved": 0}, {"is_disabled": 0, "fusion_lon": 0.0, "fusion_lat": 0.0, "lat": 38.904977, "type": "electric_scooter", "lon": -77.02956116666667, "bike_id": "9958b1a2a97a1a295acdce800cfda1bf", "rental_uris": {"android": "https://dc.lft.to/lastmile_qr_scan", "ios": "https://dc.lft.to/lastmile_qr_scan"}, "name": "9958b1a2a97a1a295acdce800cfda1bf", "is_reserved": 0}, {"is_disabled": 0, "fusion_lon": 0.0, "fusion_lat": 0.0, "lat": 38.92794716666667, "type": "electric_scooter", "lon": -77.02297833333333, "bike_id": "94fb404fe04ebf47c1e435f4e0c874f4", "rental_uris": {"android": "https://dc.lft.to/lastmile_qr_scan", "ios": "https://dc.lft.to/lastmile_qr_scan"}, "name": "94fb404fe04ebf47c1e435f4e0c874f4", "is_reserved": 0}, {"is_disabled": 0, "fusion_lon": 0.0, "fusion_lat": 0.0, "lat": 38.89846216666667, "type": "electric_scooter", "lon": -76.9463095, "bike_id": "10ca9095007627ceb93577a450974cda", "rental_uris": {"android": "https://dc.lft.to/lastmile_qr_scan", "ios": "https://dc.lft.to/lastmile_qr_scan"}, "name": "10ca9095007627ceb93577a450974cda", "is_reserved": 0}, {"is_disabled": 0, "fusion_lon": 0.0, "fusion_lat": 0.0, "lat": 38.903120333333334, "type": "electric_scooter", "lon": -76.98245683333333, "bike_id": "d6241c7c3c96c274a57ddaa6354b4b0a", "rental_uris": {"android": "https://dc.lft.to/lastmile_qr_scan", "ios": "https://dc.lft.to/lastmile_qr_scan"}, "name": "d6241c7c3c96c274a57ddaa6354b4b0a", "is_reserved": 0}, {"is_disabled": 0, "fusion_lon": 0.0, "fusion_lat": 0.0, "lat": 38.92791666666667, "type": "electric_scooter", "lon": -77.03148233333333, "bike_id": "fb8802e09228b37cd392601f3c159a9c", "rental_uris": {"android": "https://dc.lft.to/lastmile_qr_scan", "ios": "https://dc.lft.to/lastmile_qr_scan"}, "name": "fb8802e09228b37cd392601f3c159a9c", "is_reserved": 0}, {"is_disabled": 0, "fusion_lon": 0.0, "fusion_lat": 0.0, "lat": 38.87338466666667, "type": "electric_bike", "lon": -77.01857766666667, "bike_id": "011c5b4b1de3af036357be0a83efe653", "rental_uris": {"android": "https://dc.lft.to/lastmile_qr_scan", "ios": "https://dc.lft.to/lastmile_qr_scan"}, "name": "011c5b4b1de3af036357be0a83efe653", "is_reserved": 0}, {"is_disabled": 0, "fusion_lon": 0.0, "fusion_lat": 0.0, "lat": 38.908085166666666, "type": "electric_scooter", "lon": -77.040884, "bike_id": "523c779116555b2c69e9044060614ddf", "rental_uris": {"android": "https://dc.lft.to/lastmile_qr_scan", "ios": "https://dc.lft.to/lastmile_qr_scan"}, "name": "523c779116555b2c69e9044060614ddf", "is_reserved": 0}, {"is_disabled": 0, "fusion_lon": 0.0, "fusion_lat": 0.0, "lat": 38.950861, "type": "electric_bike", "lon": -76.965582, "bike_id": "66d61e39e738bcd5332536db3df5ea19", "rental_uris": {"android": "https://dc.lft.to/lastmile_qr_scan", "ios": "https://dc.lft.to/lastmile_qr_scan"}, "name": "66d61e39e738bcd5332536db3df5ea19", "is_reserved": 0}, {"is_disabled": 0, "fusion_lon": 0.0, "fusion_lat": 0.0, "lat": 38.912538, "type": "electric_scooter", "lon": -77.00922333333334, "bike_id": "77580b1311845f4a59c300bae75a29df", "rental_uris": {"android": "https://dc.lft.to/lastmile_qr_scan", "ios": "https://dc.lft.to/lastmile_qr_scan"}, "name": "77580b1311845f4a59c300bae75a29df", "is_reserved": 0}, {"is_disabled": 0, "fusion_lon": 0.0, "fusion_lat": 0.0, "lat": 38.9112335, "type": "electric_scooter", "lon": -77.0421055, "bike_id": "8a35962e567eb41a49e1981b05f1dbad", "rental_uris": {"android": "https://dc.lft.to/lastmile_qr_scan", "ios": "https://dc.lft.to/lastmile_qr_scan"}, "name": "8a35962e567eb41a49e1981b05f1dbad", "is_reserved": 0}, {"is_disabled": 0, "fusion_lon": 0.0, "fusion_lat": 0.0, "lat": 38.90535216666667, "type": "electric_scooter", "lon": -77.04720233333333, "bike_id": "a440b330fcf8f7aa6d80a6de850816fd", "rental_uris": {"android": "https://dc.lft.to/lastmile_qr_scan", "ios": "https://dc.lft.to/lastmile_qr_scan"}, "name": "a440b330fcf8f7aa6d80a6de850816fd", "is_reserved": 0}, {"is_disabled": 0, "fusion_lon": 0.0, "fusion_lat": 0.0, "lat": 38.901681833333335, "type": "electric_scooter", "lon": -77.02499816666666, "bike_id": "5a6bdfcf0da464f1dfe234973d9349b0", "rental_uris": {"android": "https://dc.lft.to/lastmile_qr_scan", "ios": "https://dc.lft.to/lastmile_qr_scan"}, "name": "5a6bdfcf0da464f1dfe234973d9349b0", "is_reserved": 0}, {"is_disabled": 0, "fusion_lon": 0.0, "fusion_lat": 0.0, "lat": 38.90196433333333, "type": "electric_scooter", "lon": -77.03958616666667, "bike_id": "88deffcc294917a894f54bfcaecdfa34", "rental_uris": {"android": "https://dc.lft.to/lastmile_qr_scan", "ios": "https://dc.lft.to/lastmile_qr_scan"}, "name": "88deffcc294917a894f54bfcaecdfa34", "is_reserved": 0}, {"is_disabled": 0, "fusion_lon": 0.0, "fusion_lat": 0.0, "lat": 38.9068085, "type": "electric_scooter", "lon": -77.02692733333333, "bike_id": "bcfc311a4d3c8a7e5ce58e75e40a1d18", "rental_uris": {"android": "https://dc.lft.to/lastmile_qr_scan", "ios": "https://dc.lft.to/lastmile_qr_scan"}, "name": "bcfc311a4d3c8a7e5ce58e75e40a1d18", "is_reserved": 0}, {"is_disabled": 0, "fusion_lon": 0.0, "fusion_lat": 0.0, "lat": 38.90077183333333, "type": "electric_scooter", "lon": -77.04993233333333, "bike_id": "3518db6a515d539d1aa0147b15d9328e", "rental_uris": {"android": "https://dc.lft.to/lastmile_qr_scan", "ios": "https://dc.lft.to/lastmile_qr_scan"}, "name": "3518db6a515d539d1aa0147b15d9328e", "is_reserved": 0}, {"is_disabled": 0, "fusion_lon": 0.0, "fusion_lat": 0.0, "lat": 38.92262083333333, "type": "electric_bike", "lon": -77.07719833333333, "bike_id": "196f0463fa71313b6c746c28abc6d403", "rental_uris": {"android": "https://dc.lft.to/lastmile_qr_scan", "ios": "https://dc.lft.to/lastmile_qr_scan"}, "name": "196f0463fa71313b6c746c28abc6d403", "is_reserved": 0}, {"is_disabled": 0, "fusion_lon": 0.0, "fusion_lat": 0.0, "lat": 38.90836316666667, "type": "electric_scooter", "lon": -76.99699616666666, "bike_id": "6fd75ba01ddbeb59ff743b32cb9b0142", "rental_uris": {"android": "https://dc.lft.to/lastmile_qr_scan", "ios": "https://dc.lft.to/lastmile_qr_scan"}, "name": "6fd75ba01ddbeb59ff743b32cb9b0142", "is_reserved": 0}, {"is_disabled": 0, "fusion_lon": 0.0, "fusion_lat": 0.0, "lat": 38.91676133333333, "type": "electric_scooter", "lon": -77.02718116666667, "bike_id": "9dd3796e98c08392e8767037cf11175a", "rental_uris": {"android": "https://dc.lft.to/lastmile_qr_scan", "ios": "https://dc.lft.to/lastmile_qr_scan"}, "name": "9dd3796e98c08392e8767037cf11175a", "is_reserved": 0}, {"is_disabled": 0, "fusion_lon": 0.0, "fusion_lat": 0.0, "lat": 38.84513333333334, "type": "electric_bike", "lon": -77.077987, "bike_id": "1634c7602f98da971c271f44a49045b0", "rental_uris": {"android": "https://dc.lft.to/lastmile_qr_scan", "ios": "https://dc.lft.to/lastmile_qr_scan"}, "name": "1634c7602f98da971c271f44a49045b0", "is_reserved": 0}, {"is_disabled": 0, "fusion_lon": 0.0, "fusion_lat": 0.0, "lat": 38.920484, "type": "electric_scooter", "lon": -77.02612166666667, "bike_id": "e28ed54bfbc0e867fc40d0a7992dd827", "rental_uris": {"android": "https://dc.lft.to/lastmile_qr_scan", "ios": "https://dc.lft.to/lastmile_qr_scan"}, "name": "e28ed54bfbc0e867fc40d0a7992dd827", "is_reserved": 0}, {"is_disabled": 0, "fusion_lon": 0.0, "fusion_lat": 0.0, "lat": 38.90729266666666, "type": "electric_scooter", "lon": -77.03458466666666, "bike_id": "6fe11dec0a343e097aeab874e8263451", "rental_uris": {"android": "https://dc.lft.to/lastmile_qr_scan", "ios": "https://dc.lft.to/lastmile_qr_scan"}, "name": "6fe11dec0a343e097aeab874e8263451", "is_reserved": 0}, {"is_disabled": 0, "fusion_lon": 0.0, "fusion_lat": 0.0, "lat": 38.89548933333333, "type": "electric_scooter", "lon": -77.0109645, "bike_id": "3369f32f2eab5d34bad2cd87a9157ed4", "rental_uris": {"android": "https://dc.lft.to/lastmile_qr_scan", "ios": "https://dc.lft.to/lastmile_qr_scan"}, "name": "3369f32f2eab5d34bad2cd87a9157ed4", "is_reserved": 0}, {"is_disabled": 0, "fusion_lon": 0.0, "fusion_lat": 0.0, "lat": 38.91858366666666, "type": "electric_bike", "lon": -76.96091216666667, "bike_id": "353662718cde3931958fd00a292ef881", "rental_uris": {"android": "https://dc.lft.to/lastmile_qr_scan", "ios": "https://dc.lft.to/lastmile_qr_scan"}, "name": "353662718cde3931958fd00a292ef881", "is_reserved": 0}, {"is_disabled": 0, "fusion_lon": 0.0, "fusion_lat": 0.0, "lat": 38.8334955, "type": "electric_bike", "lon": -76.96561, "bike_id": "7b3bc9ebe76940830b348c2cd9b93f96", "rental_uris": {"android": "https://dc.lft.to/lastmile_qr_scan", "ios": "https://dc.lft.to/lastmile_qr_scan"}, "name": "7b3bc9ebe76940830b348c2cd9b93f96", "is_reserved": 0}, {"is_disabled": 0, "fusion_lon": 0.0, "fusion_lat": 0.0, "lat": 38.930858666666666, "type": "electric_scooter", "lon": -77.02552316666667, "bike_id": "25c099b59ada771951401ce527c22979", "rental_uris": {"android": "https://dc.lft.to/lastmile_qr_scan", "ios": "https://dc.lft.to/lastmile_qr_scan"}, "name": "25c099b59ada771951401ce527c22979", "is_reserved": 0}, {"is_disabled": 0, "fusion_lon": 0.0, "fusion_lat": 0.0, "lat": 38.890479166666665, "type": "electric_scooter", "lon": -77.0014495, "bike_id": "3db19dcd529c2e8fcc109a4c105dba06", "rental_uris": {"android": "https://dc.lft.to/lastmile_qr_scan", "ios": "https://dc.lft.to/lastmile_qr_scan"}, "name": "3db19dcd529c2e8fcc109a4c105dba06", "is_reserved": 0}, {"is_disabled": 0, "fusion_lon": 0.0, "fusion_lat": 0.0, "lat": 38.90165733333333, "type": "electric_scooter", "lon": -77.0305755, "bike_id": "5743f58e4dbbe26b5e2021bf441bf912", "rental_uris": {"android": "https://dc.lft.to/lastmile_qr_scan", "ios": "https://dc.lft.to/lastmile_qr_scan"}, "name": "5743f58e4dbbe26b5e2021bf441bf912", "is_reserved": 0}, {"is_disabled": 0, "fusion_lon": 0.0, "fusion_lat": 0.0, "lat": 38.91636033333333, "type": "electric_scooter", "lon": -77.034585, "bike_id": "95d3ea30ae7063fab37c4d617ae8f9fe", "rental_uris": {"android": "https://dc.lft.to/lastmile_qr_scan", "ios": "https://dc.lft.to/lastmile_qr_scan"}, "name": "95d3ea30ae7063fab37c4d617ae8f9fe", "is_reserved": 0}, {"is_disabled": 0, "fusion_lon": 0.0, "fusion_lat": 0.0, "lat": 38.904628, "type": "electric_scooter", "lon": -77.03798783333333, "bike_id": "4e29c28fe45a6c07e43ae761e350994d", "rental_uris": {"android": "https://dc.lft.to/lastmile_qr_scan", "ios": "https://dc.lft.to/lastmile_qr_scan"}, "name": "4e29c28fe45a6c07e43ae761e350994d", "is_reserved": 0},