{"data": {"bikes": [{"bike_id": "b34f3058d839f9a42c3f64810558b714", "is_reserved": 0, "fusion_lon": 0.0, "lat": 38.911259666666666, "is_disabled": 0, "name": "b34f3058d839f9a42c3f64810558b714", "fusion_lat": 0.0, "rental_uris": {"ios": "https://dc.lft.to/lastmile_qr_scan", "android": "https://dc.lft.to/lastmile_qr_scan"}, "lon": -77.02183666666667, "type": "electric_scooter"}, {"bike_id": "3beaa26117c2a9d60f852458a42fce2d", "is_reserved": 0, "fusion_lon": 0.0, "lat": 38.90976833333333, "is_disabled": 0, "name": "3beaa26117c2a9d60f852458a42fce2d", "fusion_lat": 0.0, "rental_uris": {"ios": "https://dc.lft.to/lastmile_qr_scan", "android": "https://dc.lft.to/lastmile_qr_scan"}, "lon": -77.04870233333334, "type": "electric_scooter"}, {"bike_id": "f34dc6ed9f96c2c021fabb944b4069d2", "is_reserved": 0, "fusion_lon": 0.0, "lat": 38.90269283333333, "is_disabled": 0, "name": "f34dc6ed9f96c2c021fabb944b4069d2", "fusion_lat": 0.0, "rental_uris": {"ios": "https://dc.lft.to/lastmile_qr_scan", "android": "https://dc.lft.to/lastmile_qr_scan"}, "lon": -77.0384245, "type": "electric_scooter"}, {"bike_id": "983e8abe1d48c88865c331bebf22251d", "is_reserved": 0, "fusion_lon": 0.0, "lat": 38.88532716666667, "is_disabled": 0, "name": "983e8abe1d48c88865c331bebf22251d", "fusion_lat": 0.0, "rental_uris": {"ios": "https://dc.lft.to/lastmile_qr_scan", "android": "https://dc.lft.to/lastmile_qr_scan"}, "lon": -77.00582616666667, "type": "electric_scooter"}, {"bike_id": "eff0766d1244b80fa4d5e0b6d26d1fdc", "is_reserved": 0, "fusion_lon": 0.0, "lat": 38.92360816666667, "is_disabled": 0, "name": "eff0766d1244b80fa4d5e0b6d26d1fdc", "fusion_lat": 0.0, "rental_uris": {"ios": "https://dc.lft.to/lastmile_qr_scan", "android": "https://dc.lft.to/lastmile_qr_scan"}, "lon": -77.0503095, "type": "electric_scooter"}, {"bike_id": "d7a1fe3a26640895253679d66664ade3", "is_reserved": 0, "fusion_lon": 0.0, "lat": 38.86664966666667, "is_disabled": 0, "name": "d7a1fe3a26640895253679d66664ade3", "fusion_lat": 0.0, "rental_uris": {"ios": "https://dc.lft.to/lastmile_qr_scan", "android": "https://dc.lft.to/lastmile_qr_scan"}, "lon": -76.9890675, "type": "electric_scooter"}, {"bike_id": "4e65f9c0f4cdb5bea4a636d4214d9adc", "is_reserved": 0, "fusion_lon": 0.0, "lat": 38.90582833333333, "is_disabled": 0, "name": "4e65f9c0f4cdb5bea4a636d4214d9adc", "fusion_lat": 0.0, "rental_uris": {"ios": "https://dc.lft.to/lastmile_qr_scan", "android": "https://dc.lft.to/lastmile_qr_scan"}, "lon": -77.03452166666666, "type": "electric_scooter"}, {"bike_id": "7cd766a1f26fb0d2936c9581f073af7e", "is_reserved": 0, "fusion_lon": 0.0, "lat": 38.89907433333333, "is_disabled": 0, "name": "7cd766a1f26fb0d2936c9581f073af7e", "fusion_lat": 0.0, "rental_uris": {"ios": "https://dc.lft.to/lastmile_qr_scan", "android": "https://dc.lft.to/lastmile_qr_scan"}, "lon": -77.03911566666666, "type": "electric_scooter"}, {"bike_id": "7ea1814440477ef852d97909b8abd0e5", "is_reserved": 0, "fusion_lon": 0.0, "lat": 38.897581833333334, "is_disabled": 0, "name": "7ea1814440477ef852d97909b8abd0e5", "fusion_lat": 0.0, "rental_uris": {"ios": "https://dc.lft.to/lastmile_qr_scan", "android": "https://dc.lft.to/lastmile_qr_scan"}, "lon": -77.04309616666667, "type": "electric_scooter"}, {"bike_id": "a284ef794e96c5ceec8ce2f79095c7b2", "is_reserved": 0, "fusion_lon": 0.0, "lat": 38.9335745, "is_disabled": 0, "name": "a284ef794e96c5ceec8ce2f79095c7b2", "fusion_lat": 0.0, "rental_uris": {"ios": "https://dc.lft.to/lastmile_qr_scan", "android": "https://dc.lft.to/lastmile_qr_scan"}, "lon": -77.06935616666667, "type": "electric_scooter"}, {"bike_id": "ce1b669ae5c217e8aacd1dee1696f259", "is_reserved": 0, "fusion_lon": 0.0, "lat": 38.89835983333333, "is_disabled": 0, "name": "ce1b669ae5c217e8aacd1dee1696f259", "fusion_lat": 0.0, "rental_uris": {"ios": "https://dc.lft.to/lastmile_qr_scan", "android": "https://dc.lft.to/lastmile_qr_scan"}, "lon": -77.00732683333334, "type": "electric_scooter"}, {"bike_id": "9f50f949cd5c2db47de955790b35204e", "is_reserved": 0, "fusion_lon": 0.0, "lat": 38.90594216666667, "is_disabled": 0, "name": "9f50f949cd5c2db47de955790b35204e", "fusion_lat": 0.0, "rental_uris": {"ios": "https://dc.lft.to/lastmile_qr_scan", "android": "https://dc.lft.to/lastmile_qr_scan"}, "lon": -77.05105, "type": "electric_scooter"}, {"bike_id": "7f343e5f7d4dc880436a174860329c98", "is_reserved": 0, "fusion_lon": 0.0, "lat": 38.837296, "is_disabled": 0, "name": "7f343e5f7d4dc880436a174860329c98", "fusion_lat": 0.0, "rental_uris": {"ios": "https://dc.lft.to/lastmile_qr_scan", "android": "https://dc.lft.to/lastmile_qr_scan"}, "lon": -76.9974885, "type": "electric_bike"}, {"bike_id": "fbeb04241f67e78b992d70ea3f2a04e2", "is_reserved": 0, "fusion_lon": 0.0, "lat": 38.93433866666667, "is_disabled": 0, "name": "fbeb04241f67e78b992d70ea3f2a04e2", "fusion_lat": 0.0, "rental_uris": {"ios": "https://dc.lft.to/lastmile_qr_scan", "android": "https://dc.lft.to/lastmile_qr_scan"}, "lon": -77.03996033333334, "type": "electric_scooter"}, {"bike_id": "f17c8df110fdeeb7a2cefb4f498f497f", "is_reserved": 0, "fusion_lon": 0.0, "lat": 38.885136333333335, "is_disabled": 0, "name": "f17c8df110fdeeb7a2cefb4f498f497f", "fusion_lat": 0.0, "rental_uris": {"ios": "https://dc.lft.to/lastmile_qr_scan", "android": "https://dc.lft.to/lastmile_qr_scan"}, "lon": -77.005755, "type": "electric_scooter"}, {"bike_id": "2f19c3e6c744ea961695c31ff45d8081", "is_reserved": 0, "fusion_lon": 0.0, "lat": 38.886059833333334, "is_disabled": 0, "name": "2f19c3e6c744ea961695c31ff45d8081", "fusion_lat": 0.0, "rental_uris": {"ios": "https://dc.lft.to/lastmile_qr_scan", "android": "https://dc.lft.to/lastmile_qr_scan"}, "lon": -76.93605116666667, "type": "electric_scooter"}, {"bike_id": "4eab844a6b972c7a6288dad5d73482bd", "is_reserved": 0, "fusion_lon": 0.0, "lat": 38.95075383333333, "is_disabled": 0, "name": "4eab844a6b972c7a6288dad5d73482bd", "fusion_lat": 0.0, "rental_uris": {"ios": "https://dc.lft.to/lastmile_qr_scan", "android": "https://dc.lft.to/lastmile_qr_scan"}, "lon": -77.01204, "type": "electric_bike"}, {"bike_id": "21f38ac182964a04dbb8ef6931870777", "is_reserved": 0, "fusion_lon": 0.0, "lat": 38.90485416666667, "is_disabled": 0, "name": "21f38ac182964a04dbb8ef6931870777", "fusion_lat": 0.0, "rental_uris": {"ios": "https://dc.lft.to/lastmile_qr_scan", "android": "https://dc.lft.to/lastmile_qr_scan"}, "lon": -77.04044183333333, "type": "electric_scooter"}, {"bike_id": "93bf5e445436fe4c3d05972a900f261e", "is_reserved": 0, "fusion_lon": 0.0, "lat": 38.9138535, "is_disabled": 0, "name": "93bf5e445436fe4c3d05972a900f261e", "fusion_lat": 0.0, "rental_uris": {"ios": "https://dc.lft.to/lastmile_qr_scan", "android": "https://dc.lft.to/lastmile_qr_scan"}, "lon": -77.01698266666666, "type": "electric_scooter"}, {"bike_id": "3045f690c36170ce22d12df7834cd871", "is_reserved": 0, "fusion_lon": 0.0, "lat": 38.9247905, "is_disabled": 0, "name": "3045f690c36170ce22d12df7834cd871", "fusion_lat": 0.0, "rental_uris": {"ios": "https://dc.lft.to/lastmile_qr_scan", "android": "https://dc.lft.to/lastmile_qr_scan"}, "lon": -77.02643566666667, "type": "electric_scooter"}, {"bike_id": "973048b595bedf15440e53b5bcc74696", "is_reserved": 0, "fusion_lon": 0.0, "lat": 38.90038333333333, "is_disabled": 0, "name": "973048b595bedf15440e53b5bcc74696", "fusion_lat": 0.0, "rental_uris": {"ios": "https://dc.lft.to/lastmile_qr_scan", "android": "https://dc.lft.to/lastmile_qr_scan"}, "lon": -77.002049, "type": "electric_scooter"}, {"bike_id": "4b230ed24a83b2c963d11f19a3c37720", "is_reserved": 0, "fusion_lon": 0.0, "lat": 38.9013135, "is_disabled": 0, "name": "4b230ed24a83b2c963d11f19a3c37720", "fusion_lat": 0.0, "rental_uris": {"ios": "https://dc.lft.to/lastmile_qr_scan", "android": "https://dc.lft.to/lastmile_qr_scan"}, "lon": -77.03331866666667, "type": "electric_scooter"}, {"bike_id": "05e487d92ecc4938ed0c7b2fb54a3927", "is_reserved": 0, "fusion_lon": 0.0, "lat": 38.937058666666665, "is_disabled": 0, "name": "05e487d92ecc4938ed0c7b2fb54a3927", "fusion_lat": 0.0, "rental_uris": {"ios": "https://dc.lft.to/lastmile_qr_scan", "android": "https://dc.lft.to/lastmile_qr_scan"}, "lon": -77.0293575, "type": "electric_scooter"}, {"bike_id": "412c4d81764f7ce3f4eabfb4670464da", "is_reserved": 0, "fusion_lon": 0.0, "lat": 38.92834383333334, "is_disabled": 0, "name": "412c4d81764f7ce3f4eabfb4670464da", "fusion_lat": 0.0, "rental_uris": {"ios": "https://dc.lft.to/lastmile_qr_scan", "android": "https://dc.lft.to/lastmile_qr_scan"}, "lon": -77.01391633333333, "type": "electric_scooter"}, {"bike_id": "5c81e1c8ac3fb5dc85ce152bf86a0d95", "is_reserved": 0, "fusion_lon": 0.0, "lat": 38.93967283333333, "is_disabled": 0, "name": "5c81e1c8ac3fb5dc85ce152bf86a0d95", "fusion_lat": 0.0, "rental_uris": {"ios": "https://dc.lft.to/lastmile_qr_scan", "android": "https://dc.lft.to/lastmile_qr_scan"}, "lon": -77.03260233333333, "type": "electric_scooter"}, {"bike_id": "d4ec7664dcdb273121738298d2b6b716", "is_reserved": 0, "fusion_lon": 0.0, "lat": 38.92177216666666, "is_disabled": 0, "name": "d4ec7664dcdb273121738298d2b6b716", "fusion_lat": 0.0, "rental_uris": {"ios": "https://dc.lft.to/lastmile_qr_scan", "android": "https://dc.lft.to/lastmile_qr_scan"}, "lon": -77.040207, "type": "electric_scooter"}, {"bike_id": "3ce3047de5c100ac5d6c144f2d9837e3", "is_reserved": 0, "fusion_lon": 0.0, "lat": 38.928330333333335, "is_disabled": 0, "name": "3ce3047de5c100ac5d6c144f2d9837e3", "fusion_lat": 0.0, "rental_uris": {"ios": "https://dc.lft.to/lastmile_qr_scan", "android": "https://dc.lft.to/lastmile_qr_scan"}, "lon": -77.055095, "type": "electric_scooter"}, {"bike_id": "31365d48eedcb32c5305b13f5b49fb92", "is_reserved": 0, "fusion_lon": 0.0, "lat": 38.86722683333333, "is_disabled": 0, "name": "31365d48eedcb32c5305b13f5b49fb92", "fusion_lat": 0.0, "rental_uris": {"ios": "https://dc.lft.to/lastmile_qr_scan", "android": "https://dc.lft.to/lastmile_qr_scan"}, "lon": -76.98785066666667, "type": "electric_scooter"}, {"bike_id": "b13f4e55814dbce1064812355df3ebc4", "is_reserved": 0, "fusion_lon": 0.0, "lat": 38.866281, "is_disabled": 0, "name": "b13f4e55814dbce1064812355df3ebc4", "fusion_lat": 0.0, "rental_uris": {"ios": "https://dc.lft.to/lastmile_qr_scan", "android": "https://dc.lft.to/lastmile_qr_scan"}, "lon": -76.987177, "type": "electric_scooter"}, {"bike_id": "e5542cf6bee3dd4bd678a648d835d11c", "is_reserved": 0, "fusion_lon": 0.0, "lat": 38.880353166666666, "is_disabled": 0, "name": "e5542cf6bee3dd4bd678a648d835d11c", "fusion_lat": 0.0, "rental_uris": {"ios": "https://dc.lft.to/lastmile_qr_scan", "android": "https://dc.lft.to/lastmile_qr_scan"}, "lon": -77.0251665, "type": "electric_scooter"}, {"bike_id": "51c72c8ad5a283e6e311f756a209a522", "is_reserved": 0, "fusion_lon": 0.0, "lat": 38.90666983333333, "is_disabled": 0, "name": "51c72c8ad5a283e6e311f756a209a522", "fusion_lat": 0.0, "rental_uris": {"ios": "https://dc.lft.to/lastmile_qr_scan", "android": "https://dc.lft.to/lastmile_qr_scan"}, "lon": -77.027114, "type": "electric_scooter"}, {"bike_id": "ebff281579aa78537459f30f9feab4c4", "is_reserved": 0, "fusion_lon": 0.0, "lat": 38.89004633333333, "is_disabled": 0, "name": "ebff281579aa78537459f30f9feab4c4", "fusion_lat": 0.0, "rental_uris": {"ios": "https://dc.lft.to/lastmile_qr_scan", "android": "https://dc.lft.to/lastmile_qr_scan"}, "lon": -76.937431, "type": "electric_scooter"}, {"bike_id": "35d67bdb7245340b7b5fd0a89cd8513e", "is_reserved": 0, "fusion_lon": 0.0, "lat": 38.97067416666667, "is_disabled": 0, "name": "35d67bdb7245340b7b5fd0a89cd8513e", "fusion_lat": 0.0, "rental_uris": {"ios": "https://dc.lft.to/lastmile_qr_scan", "android": "https://dc.lft.to/lastmile_qr_scan"}, "lon": -76.93606283333334, "type": "electric_bike"}, {"bike_id": "c8a772614396179bb7639a97f6080675", "is_reserved": 0, "fusion_lon": 0.0, "lat": 38.91610266666667, "is_disabled": 0, "name": "c8a772614396179bb7639a97f6080675", "fusion_lat": 0.0, "rental_uris": {"ios": "https://dc.lft.to/lastmile_qr_scan", "android": "https://dc.lft.to/lastmile_qr_scan"}, "lon": -77.043449, "type": "electric_scooter"}, {"bike_id": "892e41c80bc602823692cd45f028e8c4", "is_reserved": 0, "fusion_lon": 0.0, "lat": 38.92855566666667, "is_disabled": 0, "name": "892e41c80bc602823692cd45f028e8c4", "fusion_lat": 0.0, "rental_uris": {"ios": "https://dc.lft.to/lastmile_qr_scan", "android": "https://dc.lft.to/lastmile_qr_scan"}, "lon": -77.03597, "type": "electric_scooter"}, {"bike_id": "b853ef21898a69a5555307df911552a7", "is_reserved": 0, "fusion_lon": 0.0, "lat": 38.905495, "is_disabled": 0, "name": "b853ef21898a69a5555307df911552a7", "fusion_lat": 0.0, "rental_uris": {"ios": "https://dc.lft.to/lastmile_qr_scan", "android": "https://dc.lft.to/lastmile_qr_scan"}, "lon": -77.00574833333333, "type": "electric_scooter"}, {"bike_id": "417c41d055f8a1bdd6b035edfe30df0a", "is_reserved": 0, "fusion_lon": 0.0, "lat": 38.883219, "is_disabled": 0, "name": "417c41d055f8a1bdd6b035edfe30df0a", "fusion_lat": 0.0, "rental_uris": {"ios": "https://dc.lft.to/lastmile_qr_scan", "android": "https://dc.lft.to/lastmile_qr_scan"}, "lon": -77.01742516666667, "type": "electric_scooter"}, {"bike_id": "c1ae44cbbf7ba3158052dafbab23ce13", "is_reserved": 0, "fusion_lon": 0.0, "lat": 38.9184225, "is_disabled": 0, "name": "c1ae44cbbf7ba3158052dafbab23ce13", "fusion_lat": 0.0, "rental_uris": {"ios": "https://dc.lft.to/lastmile_qr_scan", "android": "https://dc.lft.to/lastmile_qr_scan"}, "lon": -77.03898983333333, "type": "electric_scooter"}, {"bike_id": "896e461fda54691ebee4b098a2d4992d", "is_reserved": 0, "fusion_lon": 0.0, "lat": 38.917003666666666, "is_disabled": 0, "name": "896e461fda54691ebee4b098a2d4992d", "fusion_lat": 0.0, "rental_uris": {"ios": "https://dc.lft.to/lastmile_qr_scan", "android": "https://dc.lft.to/lastmile_qr_scan"}, "lon": -77.0228325, "type": "electric_scooter"}, {"bike_id": "2ced3ec8351a73ac67e1f5cd7314f8de", "is_reserved": 0, "fusion_lon": 0.0, "lat": 38.897475, "is_disabled": 0, "name": "2ced3ec8351a73ac67e1f5cd7314f8de", "fusion_lat": 0.0, "rental_uris": {"ios": "https://dc.lft.to/lastmile_qr_scan", "android": "https://dc.lft.to/lastmile_qr_scan"}, "lon": -77.02681283333334, "type": "electric_scooter"}, {"bike_id": "31cd5fbb89aa29f9e232ea18db92b6d7", "is_reserved": 0, "fusion_lon": 0.0, "lat": 38.885041666666666, "is_disabled": 0, "name": "31cd5fbb89aa29f9e232ea18db92b6d7", "fusion_lat": 0.0, "rental_uris": {"ios": "https://dc.lft.to/lastmile_qr_scan", "android": "https://dc.lft.to/lastmile_qr_scan"}, "lon": -77.0056705, "type": "electric_scooter"}, {"bike_id": "326a711e085df6eeabaaab8fddc446b2", "is_reserved": 0, "fusion_lon": 0.0, "lat": 38.93444866666667, "is_disabled": 0, "name": "326a711e085df6eeabaaab8fddc446b2", "fusion_lat": 0.0, "rental_uris": {"ios": "https://dc.lft.to/lastmile_qr_scan", "android": "https://dc.lft.to/lastmile_qr_scan"}, "lon": -77.0284435, "type": "electric_scooter"}, {"bike_id": "1cc9b97394b3636db2b19eb995125a0d", "is_reserved": 0, "fusion_lon": 0.0, "lat": 38.89790333333333, "is_disabled": 0, "name": "1cc9b97394b3636db2b19eb995125a0d", "fusion_lat": 0.0, "rental_uris": {"ios": "https://dc.lft.to/lastmile_qr_scan", "android": "https://dc.lft.to/lastmile_qr_scan"}, "lon": -76.90440316666667, "type": "electric_bike"}, {"bike_id": "5b45c9a3e3e88634bfa8880b00dfdee6", "is_reserved": 0, "fusion_lon": 0.0, "lat": 38.871750166666665, "is_disabled": 0, "name": "5b45c9a3e3e88634bfa8880b00dfdee6", "fusion_lat": 0.0, "rental_uris": {"ios": "https://dc.lft.to/lastmile_qr_scan", "android": "https://dc.lft.to/lastmile_qr_scan"}, "lon": -77.00626283333334, "type": "electric_scooter"}, {"bike_id": "b1108b0266334716a3f53fe0a4fd55bc", "is_reserved": 0, "fusion_lon": 0.0, "lat": 38.925659833333334, "is_disabled": 0, "name": "b1108b0266334716a3f53fe0a4fd55bc", "fusion_lat": 0.0, "rental_uris": {"ios": "https://dc.lft.to/lastmile_qr_scan", "android": "https://dc.lft.to/lastmile_qr_scan"}, "lon": -77.03780816666666, "type": "electric_scooter"}, {"bike_id": "702d7449c032b57208adc706ec87cede", "is_reserved": 0, "fusion_lon": 0.0, "lat": 38.9185465, "is_disabled": 0, "name": "702d7449c032b57208adc706ec87cede", "fusion_lat": 0.0, "rental_uris": {"ios": "https://dc.lft.to/lastmile_qr_scan", "android": "https://dc.lft.to/lastmile_qr_scan"}, "lon": -76.960879, "type": "electric_bike"}, {"bike_id": "63298f72018e53fe3a8195f0a9ec1c77", "is_reserved": 0, "fusion_lon": 0.0, "lat": 38.955511333333334, "is_disabled": 0, "name": "63298f72018e53fe3a8195f0a9ec1c77", "fusion_lat": 0.0, "rental_uris": {"ios": "https://dc.lft.to/lastmile_qr_scan", "android": "https://dc.lft.to/lastmile_qr_scan"}, "lon": -76.94013016666666, "type": "electric_bike"}, {"bike_id": "693125436e1651fe5b690b8c48b58040", "is_reserved": 0, "fusion_lon": 0.0, "lat": 38.92230833333333, "is_disabled": 0, "name": "693125436e1651fe5b690b8c48b58040", "fusion_lat": 0.0, "rental_uris": {"ios": "https://dc.lft.to/lastmile_qr_scan", "android": "https://dc.lft.to/lastmile_qr_scan"}, "lon": -77.041217, "type": "electric_scooter"}, {"bike_id": "1cac3bf2033b4356acaafac08d9378b5", "is_reserved": 0, "fusion_lon": 0.0, "lat": 38.901773, "is_disabled": 0, "name": "1cac3bf2033b4356acaafac08d9378b5", "fusion_lat": 0.0, "rental_uris": {"ios": "https://dc.lft.to/lastmile_qr_scan", "android": "https://dc.lft.to/lastmile_qr_scan"}, "lon": -77.02205083333334, "type": "electric_scooter"}, {"bike_id": "b0cbb27e75753254b1a5e68746a3a224", "is_reserved": 0, "fusion_lon": 0.0, "lat": 38.905637, "is_disabled": 0, "name": "b0cbb27e75753254b1a5e68746a3a224", "fusion_lat": 0.0, "rental_uris": {"ios": "https://dc.lft.to/lastmile_qr_scan", "android": "https://dc.lft.to/lastmile_qr_scan"}, "lon": -77.0347265, "type": "electric_scooter"}, {"bike_id": "c345c165c9c7fcd981b1b5c3b458211b", "is_reserved": 0, "fusion_lon": 0.0, "lat": 38.88004883333333, "is_disabled": 0, "name": "c345c165c9c7fcd981b1b5c3b458211b", "fusion_lat": 0.0, "rental_uris": {"ios": "https://dc.lft.to/lastmile_qr_scan", "android": "https://dc.lft.to/lastmile_qr_scan"}, "lon": -76.91593433333334, "type": "electric_bike"}, {"bike_id": "587043b59c7c31a387610eb3b32888f9", "is_reserved": 0, "fusion_lon": 0.0, "lat": 38.90368733333333, "is_disabled": 0, "name": "587043b59c7c31a387610eb3b32888f9", "fusion_lat": 0.0, "rental_uris": {"ios": "https://dc.lft.to/lastmile_qr_scan", "android": "https://dc.lft.to/lastmile_qr_scan"}, "lon": -77.03913616666667, "type": "electric_scooter"}, {"bike_id": "7ed266f173f59ecf4f92eeb50094edd5", "is_reserved": 0, "fusion_lon": 0.0, "lat": 38.93508383333333, "is_disabled": 0, "name": "7ed266f173f59ecf4f92eeb50094edd5", "fusion_lat": 0.0, "rental_uris": {"ios": "https://dc.lft.to/lastmile_qr_scan", "android": "https://dc.lft.to/lastmile_qr_scan"}, "lon": -77.03343983333333, "type": "electric_scooter"}, {"bike_id": "b7ff7a9762ee91632ebf5f4f3ceb7019", "is_reserved": 0, "fusion_lon": 0.0, "lat": 38.90899533333334, "is_disabled": 0, "name": "b7ff7a9762ee91632ebf5f4f3ceb7019", "fusion_lat": 0.0, "rental_uris": {"ios": "https://dc.lft.to/lastmile_qr_scan", "android": "https://dc.lft.to/lastmile_qr_scan"}, "lon": -77.08621666666667, "type": "electric_scooter"}, {"bike_id": "72e764b2156b1c9d292561bae7fda66e", "is_reserved": 0, "fusion_lon": 0.0, "lat": 38.92348716666667, "is_disabled": 0, "name": "72e764b2156b1c9d292561bae7fda66e", "fusion_lat": 0.0, "rental_uris": {"ios": "https://dc.lft.to/lastmile_qr_scan", "android": "https://dc.lft.to/lastmile_qr_scan"}, "lon": -77.0351735, "type": "electric_scooter"}, {"bike_id": "8ff03c93c9c07574e48f95663e7004c8", "is_reserved": 0, "fusion_lon": 0.0, "lat": 38.88383833333333, "is_disabled": 0, "name": "8ff03c93c9c07574e48f95663e7004c8", "fusion_lat": 0.0, "rental_uris": {"ios": "https://dc.lft.to/lastmile_qr_scan", "android": "https://dc.lft.to/lastmile_qr_scan"}, "lon": -76.94924483333334, "type": "electric_scooter"}, {"bike_id": "71d4b63062ca02909df2f69fb001e60a", "is_reserved": 0, "fusion_lon": 0.0, "lat": 38.89247183333333, "is_disabled": 0, "name": "71d4b63062ca02909df2f69fb001e60a", "fusion_lat": 0.0, "rental_uris": {"ios": "https://dc.lft.to/lastmile_qr_scan", "android": "https://dc.lft.to/lastmile_qr_scan"}, "lon": -77.03183883333334, "type": "electric_scooter"}, {"bike_id": "98959b4d4513cd5b96a6a4d888b52c5c", "is_reserved": 0, "fusion_lon": 0.0, "lat": 38.91721, "is_disabled": 0, "name": "98959b4d4513cd5b96a6a4d888b52c5c", "fusion_lat": 0.0, "rental_uris": {"ios": "https://dc.lft.to/lastmile_qr_scan", "android": "https://dc.lft.to/lastmile_qr_scan"}, "lon": -77.038383, "type": "electric_scooter"}, {"bike_id": "c8f52377417856d20c09808318a1214f", "is_reserved": 0, "fusion_lon": 0.0, "lat": 38.92092816666667, "is_disabled": 0, "name": "c8f52377417856d20c09808318a1214f", "fusion_lat": 0.0, "rental_uris": {"ios": "https://dc.lft.to/lastmile_qr_scan", "android": "https://dc.lft.to/lastmile_qr_scan"}, "lon": -77.02438633333334, "type": "electric_scooter"}, {"bike_id": "dcde69bdf74f9b2a9522b299adc6f6e5", "is_reserved": 0, "fusion_lon": 0.0, "lat": 38.90289166666667, "is_disabled": 0, "name": "dcde69bdf74f9b2a9522b299adc6f6e5", "fusion_lat": 0.0, "rental_uris": {"ios": "https://dc.lft.to/lastmile_qr_scan", "android": "https://dc.lft.to/lastmile_qr_scan"}, "lon": -77.03662633333333, "type": "electric_scooter"}, {"bike_id": "0fdfacfe5083c5576bd7bb4c8fa37696", "is_reserved": 0, "fusion_lon": 0.0, "lat": 38.824474333333335, "is_disabled": 0, "name": "0fdfacfe5083c5576bd7bb4c8fa37696", "fusion_lat": 0.0, "rental_uris": {"ios": "https://dc.lft.to/lastmile_qr_scan", "android": "https://dc.lft.to/lastmile_qr_scan"}, "lon": -77.07045633333334, "type": "electric_bike"}, {"bike_id": "8a8734321f2acaecd1544553320167cd", "is_reserved": 0, "fusion_lon": 0.0, "lat": 38.933403166666665, "is_disabled": 0, "name": "8a8734321f2acaecd1544553320167cd", "fusion_lat": 0.0, "rental_uris": {"ios": "https://dc.lft.to/lastmile_qr_scan", "android": "https://dc.lft.to/lastmile_qr_scan"}, "lon": -77.04202066666667, "type": "electric_bike"}, {"bike_id": "ec30cd4142a96edb401dc753bc9f5b1a", "is_reserved": 0, "fusion_lon": 0.0, "lat": 38.90139166666667, "is_disabled": 0, "name": "ec30cd4142a96edb401dc753bc9f5b1a", "fusion_lat": 0.0, "rental_uris": {"ios": "https://dc.lft.to/lastmile_qr_scan", "android": "https://dc.lft.to/lastmile_qr_scan"}, "lon": -77.03310283333333, "type": "electric_scooter"}, {"bike_id": "90825648327070a3039267891df7d754", "is_reserved": 0, "fusion_lon": 0.0, "lat": 38.8022865, "is_disabled": 0, "name": "90825648327070a3039267891df7d754", "fusion_lat": 0.0, "rental_uris": {"ios": "https://dc.lft.to/lastmile_qr_scan", "android": "https://dc.lft.to/lastmile_qr_scan"}, "lon": -77.07916616666667, "type": "electric_bike"}, {"bike_id": "a82ecea0dc94a226d532ac133cfe3822", "is_reserved": 0, "fusion_lon": 0.0, "lat": 38.90268233333333, "is_disabled": 0, "name": "a82ecea0dc94a226d532ac133cfe3822", "fusion_lat": 0.0, "rental_uris": {"ios": "https://dc.lft.to/lastmile_qr_scan", "android": "https://dc.lft.to/lastmile_qr_scan"}, "lon": -77.053179, "type": "electric_scooter"}, {"bike_id": "2de4fae7e39ef2495c0d6750636e5ee8", "is_reserved": 0, "fusion_lon": 0.0, "lat": 38.9320505, "is_disabled": 0, "name": "2de4fae7e39ef2495c0d6750636e5ee8", "fusion_lat": 0.0, "rental_uris": {"ios": "https://dc.lft.to/lastmile_qr_scan", "android": "https://dc.lft.to/lastmile_qr_scan"}, "lon": -77.03878566666667, "type": "electric_scooter"}, {"bike_id": "03b07a4f321bc49aeb74176d3439d7b3", "is_reserved": 0, "fusion_lon": 0.0, "lat": 38.919127833333334, "is_disabled": 0, "name": "03b07a4f321bc49aeb74176d3439d7b3", "fusion_lat": 0.0, "rental_uris": {"ios": "https://dc.lft.to/lastmile_qr_scan", "android": "https://dc.lft.to/lastmile_qr_scan"}, "lon": -77.03428183333334, "type": "electric_scooter"}, {"bike_id": "9c686d4f8c3cf7e73df430602d2a6b43", "is_reserved": 0, "fusion_lon": 0.0, "lat": 38.94415716666666, "is_disabled": 0, "name": "9c686d4f8c3cf7e73df430602d2a6b43", "fusion_lat": 0.0, "rental_uris": {"ios": "https://dc.lft.to/lastmile_qr_scan", "android": "https://dc.lft.to/lastmile_qr_scan"}, "lon": -77.05517, "type": "electric_scooter"}, {"bike_id": "0090b0448a664e1012108cfb6282ae5c", "is_reserved": 0, "fusion_lon": 0.0, "lat": 38.906854333333335, "is_disabled": 0, "name": "0090b0448a664e1012108cfb6282ae5c", "fusion_lat": 0.0, "rental_uris": {"ios": "https://dc.lft.to/lastmile_qr_scan", "android": "https://dc.lft.to/lastmile_qr_scan"}, "lon": -76.95183833333333, "type": "electric_bike"}, {"bike_id": "c176b2e4c6693c69b383d3287f5a80a2", "is_reserved": 0, "fusion_lon": 0.0, "lat": 38.86506283333333, "is_disabled": 0, "name": "c176b2e4c6693c69b383d3287f5a80a2", "fusion_lat": 0.0, "rental_uris": {"ios": "https://dc.lft.to/lastmile_qr_scan", "android": "https://dc.lft.to/lastmile_qr_scan"}, "lon": -76.98979133333333, "type": "electric_scooter"}, {"bike_id": "a7df863350459ab55dff9ce16de4772a", "is_reserved": 0, "fusion_lon": 0.0, "lat": 38.95881766666667, "is_disabled": 0, "name": "a7df863350459ab55dff9ce16de4772a", "fusion_lat": 0.0, "rental_uris": {"ios": "https://dc.lft.to/lastmile_qr_scan", "android": "https://dc.lft.to/lastmile_qr_scan"}, "lon": -77.01035216666666, "type": "electric_bike"}, {"bike_id": "b4051653197fabec4a2e6d5cdac142f5", "is_reserved": 0, "fusion_lon": 0.0, "lat": 38.904618166666666, "is_disabled": 0, "name": "b4051653197fabec4a2e6d5cdac142f5", "fusion_lat": 0.0, "rental_uris": {"ios": "https://dc.lft.to/lastmile_qr_scan", "android": "https://dc.lft.to/lastmile_qr_scan"}, "lon": -77.0323865, "type": "electric_scooter"}, {"bike_id": "807cc6047941d5f8343b80e1c5360349", "is_reserved": 0, "fusion_lon": 0.0, "lat": 38.924859166666664, "is_disabled": 0, "name": "807cc6047941d5f8343b80e1c5360349", "fusion_lat": 0.0, "rental_uris": {"ios": "https://dc.lft.to/lastmile_qr_scan", "android": "https://dc.lft.to/lastmile_qr_scan"}, "lon": -77.02714266666666, "type": "electric_scooter"}, {"bike_id": "f6fd21117e0a44ce0ed632437c709647", "is_reserved": 0, "fusion_lon": 0.0, "lat": 38.894785666666664, "is_disabled": 0, "name": "f6fd21117e0a44ce0ed632437c709647", "fusion_lat": 0.0, "rental_uris": {"ios": "https://dc.lft.to/lastmile_qr_scan", "android": "https://dc.lft.to/lastmile_qr_scan"}, "lon": -77.022933, "type": "electric_scooter"}, {"bike_id": "f7e9c41143d66bc850ee672f3d92b496", "is_reserved": 0, "fusion_lon": 0.0, "lat": 38.917178166666666, "is_disabled": 0, "name": "f7e9c41143d66bc850ee672f3d92b496", "fusion_lat": 0.0, "rental_uris": {"ios": "https://dc.lft.to/lastmile_qr_scan", "android": "https://dc.lft.to/lastmile_qr_scan"}, "lon": -77.01209533333333, "type": "electric_scooter"}, {"bike_id": "c0bc4cd78b2d38a8e351006f72cbeeef", "is_reserved": 0, "fusion_lon": 0.0, "lat": 38.9295525, "is_disabled": 0, "name": "c0bc4cd78b2d38a8e351006f72cbeeef", "fusion_lat": 0.0, "rental_uris": {"ios": "https://dc.lft.to/lastmile_qr_scan", "android": "https://dc.lft.to/lastmile_qr_scan"}, "lon": -77.04398433333333, "type": "electric_scooter"}, {"bike_id": "7d609be9455a6e97369033d738e3abcf", "is_reserved": 0, "fusion_lon": 0.0, "lat": 38.90602616666666, "is_disabled": 0, "name": "7d609be9455a6e97369033d738e3abcf", "fusion_lat": 0.0, "rental_uris": {"ios": "https://dc.lft.to/lastmile_qr_scan", "android": "https://dc.lft.to/lastmile_qr_scan"}, "lon": -77.06298616666666, "type": "electric_scooter"}, {"bike_id": "0ffb678ce21c8fb948558f66f7aedaf8", "is_reserved": 0, "fusion_lon": 0.0, "lat": 38.912537666666665, "is_disabled": 0, "name": "0ffb678ce21c8fb948558f66f7aedaf8", "fusion_lat": 0.0, "rental_uris": {"ios": "https://dc.lft.to/lastmile_qr_scan", "android": "https://dc.lft.to/lastmile_qr_scan"}, "lon": -77.01441766666667, "type": "electric_scooter"}, {"bike_id": "4455444d7a82ae9611002fa0f76816ba", "is_reserved": 0, "fusion_lon": 0.0, "lat": 38.94552816666667, "is_disabled": 0, "name": "4455444d7a82ae9611002fa0f76816ba", "fusion_lat": 0.0, "rental_uris": {"ios": "https://dc.lft.to/lastmile_qr_scan", "android": "https://dc.lft.to/lastmile_qr_scan"}, "lon": -76.895367, "type": "electric_bike"}, {"bike_id": "51442c6aafa4b3ed9ef11a7f7decb120", "is_reserved": 0, "fusion_lon": 0.0, "lat": 38.9333195, "is_disabled": 0, "name": "51442c6aafa4b3ed9ef11a7f7decb120", "fusion_lat": 0.0, "rental_uris": {"ios": "https://dc.lft.to/lastmile_qr_scan", "android": "https://dc.lft.to/lastmile_qr_scan"}, "lon": -77.03267383333333, "type": "electric_scooter"}, {"bike_id": "aeff2f1a801cd7f4e3a87600a8b2c5c4", "is_reserved": 0, "fusion_lon": 0.0, "lat": 38.89472883333333, "is_disabled": 0, "name": "aeff2f1a801cd7f4e3a87600a8b2c5c4", "fusion_lat": 0.0, "rental_uris": {"ios": "https://dc.lft.to/lastmile_qr_scan", "android": "https://dc.lft.to/lastmile_qr_scan"}, "lon": -77.01225483333333, "type": "electric_scooter"}, {"bike_id": "87be2b41b7f7f18aed7b7764c1289be1", "is_reserved": 0, "fusion_lon": 0.0, "lat": 38.90011033333333, "is_disabled": 0, "name": "87be2b41b7f7f18aed7b7764c1289be1", "fusion_lat": 0.0, "rental_uris": {"ios": "https://dc.lft.to/lastmile_qr_scan", "android": "https://dc.lft.to/lastmile_qr_scan"}, "lon": -77.046486, "type": "electric_scooter"}, {"bike_id": "2e88fe0fddd2a1bf3ffd49197196bcb4", "is_reserved": 0, "fusion_lon": 0.0, "lat": 38.883975, "is_disabled": 0, "name": "2e88fe0fddd2a1bf3ffd49197196bcb4", "fusion_lat": 0.0, "rental_uris": {"ios": "https://dc.lft.to/lastmile_qr_scan", "android": "https://dc.lft.to/lastmile_qr_scan"}, "lon": -76.93046466666667, "type": "electric_scooter"}, {"bike_id": "14e60f3ae48c40f5eb4027c221ec9661", "is_reserved": 0, "fusion_lon": 0.0, "lat": 38.9325195, "is_disabled": 0, "name": "14e60f3ae48c40f5eb4027c221ec9661", "fusion_lat": 0.0, "rental_uris": {"ios": "https://dc.lft.to/lastmile_qr_scan", "android": "https://dc.lft.to/lastmile_qr_scan"}, "lon": -77.03281166666666, "type": "electric_scooter"}, {"bike_id": "7785ac3762bafa74b2c4cf8320850277", "is_reserved": 0, "fusion_lon": 0.0, "lat": 38.844299166666666, "is_disabled": 0, "name": "7785ac3762bafa74b2c4cf8320850277", "fusion_lat": 0.0, "rental_uris": {"ios": "https://dc.lft.to/lastmile_qr_scan", "android": "https://dc.lft.to/lastmile_qr_scan"}, "lon": -76.9977735, "type": "electric_scooter"}, {"bike_id": "9ccd1fda1692e445d507bbe5947668f0", "is_reserved": 0, "fusion_lon": 0.0, "lat": 38.906538166666664, "is_disabled": 0, "name": "9ccd1fda1692e445d507bbe5947668f0", "fusion_lat": 0.0, "rental_uris": {"ios": "https://dc.lft.to/lastmile_qr_scan", "android": "https://dc.lft.to/lastmile_qr_scan"}, "lon": -77.035361, "type": "electric_scooter"}, {"bike_id": "a3c982cc9960ad7a06106a590423370c", "is_reserved": 0, "fusion_lon": 0.0, "lat": 38.8618015, "is_disabled": 0, "name": "a3c982cc9960ad7a06106a590423370c", "fusion_lat": 0.0, "rental_uris": {"ios": "https://dc.lft.to/lastmile_qr_scan", "android": "https://dc.lft.to/lastmile_qr_scan"}, "lon": -76.96907316666666, "type": "electric_scooter"}, {"bike_id": "821670924d4e11f9a626307c4f5703bd", "is_reserved": 0, "fusion_lon": 0.0, "lat": 38.917049166666665, "is_disabled": 0, "name": "821670924d4e11f9a626307c4f5703bd", "fusion_lat": 0.0, "rental_uris": {"ios": "https://dc.lft.to/lastmile_qr_scan", "android": "https://dc.lft.to/lastmile_qr_scan"}, "lon": -77.02257483333334, "type": "electric_scooter"}, {"bike_id": "a7a206b5680f4c954990d590ed0e59b1", "is_reserved": 0, "fusion_lon": 0.0, "lat": 38.900338166666664, "is_disabled": 0, "name": "a7a206b5680f4c954990d590ed0e59b1", "fusion_lat": 0.0, "rental_uris": {"ios": "https://dc.lft.to/lastmile_qr_scan", "android": "https://dc.lft.to/lastmile_qr_scan"}, "lon": -77.01195833333334, "type": "electric_scooter"}, {"bike_id": "972544dbe04316246cd5fa37b153fbbf", "is_reserved": 0, "fusion_lon": 0.0, "lat": 38.86560583333333, "is_disabled": 0, "name": "972544dbe04316246cd5fa37b153fbbf", "fusion_lat": 0.0, "rental_uris": {"ios": "https://dc.lft.to/lastmile_qr_scan", "android": "https://dc.lft.to/lastmile_qr_scan"}, "lon": -76.98947866666667, "type": "electric_scooter"}, {"bike_id": "499d70dddc6e150c8f119dc55c2bf946", "is_reserved": 0, "fusion_lon": 0.0, "lat": 38.898271666666666, "is_disabled": 0, "name": "499d70dddc6e150c8f119dc55c2bf946", "fusion_lat": 0.0, "rental_uris": {"ios": "https://dc.lft.to/lastmile_qr_scan", "android": "https://dc.lft.to/lastmile_qr_scan"}, "lon": -77.033425, "type": "electric_scooter"}, {"bike_id": "a0bbe9223d72fb31bc02858cda361fd1", "is_reserved": 0, "fusion_lon": 0.0, "lat": 38.88239083333333, "is_disabled": 0, "name": "a0bbe9223d72fb31bc02858cda361fd1", "fusion_lat": 0.0, "rental_uris": {"ios": "https://dc.lft.to/lastmile_qr_scan", "android": "https://dc.lft.to/lastmile_qr_scan"}, "lon": -76.990021, "type": "electric_scooter"}, {"bike_id": "e92dba92076e349ee95ae3d406159b04", "is_reserved": 0, "fusion_lon": 0.0, "lat": 38.91477733333333, "is_disabled": 0, "name": "e92dba92076e349ee95ae3d406159b04", "fusion_lat": 0.0, "rental_uris": {"ios": "https://dc.lft.to/lastmile_qr_scan", "android": "https://dc.lft.to/lastmile_qr_scan"}, "lon": -77.0127425, "type": "electric_scooter"}, {"bike_id": "fef0ea9601b26df1580e38436a073357", "is_reserved": 0, "fusion_lon": 0.0, "lat": 38.9732535, "is_disabled": 0, "name": "fef0ea9601b26df1580e38436a073357", "fusion_lat": 0.0, "rental_uris": {"ios": "https://dc.lft.to/lastmile_qr_scan", "android": "https://dc.lft.to/lastmile_qr_scan"}, "lon": -77.02151533333334, "type": "electric_bike"}, {"bike_id": "7ec3369aa5dbcb0658d735a291b60407", "is_reserved": 0, "fusion_lon": 0.0, "lat": 38.91805, "is_disabled": 0, "name": "7ec3369aa5dbcb0658d735a291b60407", "fusion_lat": 0.0, "rental_uris": {"ios": "https://dc.lft.to/lastmile_qr_scan", "android": "https://dc.lft.to/lastmile_qr_scan"}, "lon": -77.03441883333333, "type": "electric_scooter"}, {"bike_id": "994ec4bf3a7792c160c6fcfded1ec09b", "is_reserved": 0, "fusion_lon": 0.0, "lat": 38.90744866666667, "is_disabled": 0, "name": "994ec4bf3a7792c160c6fcfded1ec09b", "fusion_lat": 0.0, "rental_uris": {"ios": "https://dc.lft.to/lastmile_qr_scan", "android": "https://dc.lft.to/lastmile_qr_scan"}, "lon": -77.03468033333333, "type": "electric_scooter"}, {"bike_id": "08e062732bf5b90f478aa0fc1ae4b1d1", "is_reserved": 0, "fusion_lon": 0.0, "lat": 38.89834416666667, "is_disabled": 0, "name": "08e062732bf5b90f478aa0fc1ae4b1d1", "fusion_lat": 0.0, "rental_uris": {"ios": "https://dc.lft.to/lastmile_qr_scan", "android": "https://dc.lft.to/lastmile_qr_scan"}, "lon": -76.94632966666667, "type": "electric_scooter"}, {"bike_id": "ce0c30047761fbb37ce09b724887f3f1", "is_reserved": 0, "fusion_lon": 0.0, "lat": 38.90127283333333, "is_disabled": 0, "name": "ce0c30047761fbb37ce09b724887f3f1", "fusion_lat": 0.0, "rental_uris": {"ios": "https://dc.lft.to/lastmile_qr_scan", "android": "https://dc.lft.to/lastmile_qr_scan"}, "lon": -77.01968183333334, "type": "electric_scooter"}, {"bike_id": "68089d9bc1368e7604e85fd6aafd3228", "is_reserved": 0, "fusion_lon": 0.0, "lat": 38.93336716666666, "is_disabled": 0, "name": "68089d9bc1368e7604e85fd6aafd3228", "fusion_lat": 0.0, "rental_uris": {"ios": "https://dc.lft.to/lastmile_qr_scan", "android": "https://dc.lft.to/lastmile_qr_scan"}, "lon": -77.03279766666667, "type": "electric_scooter"}, {"bike_id": "c36930cea4e0b8af53706414d7afaeda", "is_reserved": 0, "fusion_lon": 0.0, "lat": 38.911204, "is_disabled": 0, "name": "c36930cea4e0b8af53706414d7afaeda", "fusion_lat": 0.0, "rental_uris": {"ios": "https://dc.lft.to/lastmile_qr_scan", "android": "https://dc.lft.to/lastmile_qr_scan"}, "lon": -77.00274183333333, "type": "electric_scooter"}, {"bike_id": "a1857281aea03a3fb32ca9482033b794", "is_reserved": 0, "fusion_lon": 0.0, "lat": 38.90704183333333, "is_disabled": 0, "name": "a1857281aea03a3fb32ca9482033b794", "fusion_lat": 0.0, "rental_uris": {"ios": "https://dc.lft.to/lastmile_qr_scan", "android": "https://dc.lft.to/lastmile_qr_scan"}, "lon": -77.03193183333333, "type": "electric_scooter"}, {"bike_id": "c0d8e8daecd9976ddffb2ddcc40c30da", "is_reserved": 0, "fusion_lon": 0.0, "lat": 38.9158225, "is_disabled": 0, "name": "c0d8e8daecd9976ddffb2ddcc40c30da", "fusion_lat": 0.0, "rental_uris": {"ios": "https://dc.lft.to/lastmile_qr_scan", "android": "https://dc.lft.to/lastmile_qr_scan"}, "lon": -77.01237166666667, "type": "electric_scooter"}, {"bike_id": "a0575bb01b64a5912ced5adacc085f31", "is_reserved": 0, "fusion_lon": 0.0, "lat": 38.92675066666666, "is_disabled": 0, "name": "a0575bb01b64a5912ced5adacc085f31", "fusion_lat": 0.0, "rental_uris": {"ios": "https://dc.lft.to/lastmile_qr_scan", "android": "https://dc.lft.to/lastmile_qr_scan"}, "lon": -76.9953105, "type": "electric_scooter"}, {"bike_id": "355c0311d0f3d5f778f2f703c9668536", "is_reserved": 0, "fusion_lon": 0.0, "lat": 38.917707166666666, "is_disabled": 0, "name": "355c0311d0f3d5f778f2f703c9668536", "fusion_lat": 0.0, "rental_uris": {"ios": "https://dc.lft.to/lastmile_qr_scan", "android": "https://dc.lft.to/lastmile_qr_scan"}, "lon": -77.04740583333333, "type": "electric_scooter"}, {"bike_id": "1702de051f8a1aec00c08d0fa00bba70", "is_reserved": 0, "fusion_lon": 0.0, "lat": 38.901744, "is_disabled": 0, "name": "1702de051f8a1aec00c08d0fa00bba70", "fusion_lat": 0.0, "rental_uris": {"ios": "https://dc.lft.to/lastmile_qr_scan", "android": "https://dc.lft.to/lastmile_qr_scan"}, "lon": -76.98065833333334, "type": "electric_scooter"}, {"bike_id": "d42c2f280be8a94d77c16c6520372649", "is_reserved": 0, "fusion_lon": 0.0, "lat": 38.87629066666667, "is_disabled": 0, "name": "d42c2f280be8a94d77c16c6520372649", "fusion_lat": 0.0, "rental_uris": {"ios": "https://dc.lft.to/lastmile_qr_scan", "android": "https://dc.lft.to/lastmile_qr_scan"}, "lon": -76.96524883333333, "type": "electric_scooter"}, {"bike_id": "83d7f5410d86e38fc6c9633dadb43595", "is_reserved": 0, "fusion_lon": 0.0, "lat": 38.90718966666667, "is_disabled": 0, "name": "83d7f5410d86e38fc6c9633dadb43595", "fusion_lat": 0.0, "rental_uris": {"ios": "https://dc.lft.to/lastmile_qr_scan", "android": "https://dc.lft.to/lastmile_qr_scan"}, "lon": -77.02938783333333, "type": "electric_scooter"}, {"bike_id": "cd66c0ee8a18a69587d86c543f62bb29", "is_reserved": 0, "fusion_lon": 0.0, "lat": 38.90269816666667, "is_disabled": 0, "name": "cd66c0ee8a18a69587d86c543f62bb29", "fusion_lat": 0.0, "rental_uris": {"ios": "https://dc.lft.to/lastmile_qr_scan", "android": "https://dc.lft.to/lastmile_qr_scan"}, "lon": -77.03972833333333, "type": "electric_scooter"}, {"bike_id": "e7b47c4e1f24b4fd3369a754c87475d3", "is_reserved": 0, "fusion_lon": 0.0, "lat": 38.893307666666665, "is_disabled": 0, "name": "e7b47c4e1f24b4fd3369a754c87475d3", "fusion_lat": 0.0, "rental_uris": {"ios": "https://dc.lft.to/lastmile_qr_scan", "android": "https://dc.lft.to/lastmile_qr_scan"}, "lon": -76.9299425, "type": "electric_scooter"}, {"bike_id": "5df87dc0d802ec60051824f6e1b34527", "is_reserved": 0, "fusion_lon": 0.0, "lat": 38.965055166666666, "is_disabled": 0, "name": "5df87dc0d802ec60051824f6e1b34527", "fusion_lat": 0.0, "rental_uris": {"ios": "https://dc.lft.to/lastmile_qr_scan", "android": "https://dc.lft.to/lastmile_qr_scan"}, "lon": -77.02814766666667, "type": "electric_bike"}, {"bike_id": "778d9a171f9dc3db15e194642249bd78", "is_reserved": 0, "fusion_lon": 0.0, "lat": 38.8997785, "is_disabled": 0, "name": "778d9a171f9dc3db15e194642249bd78", "fusion_lat": 0.0, "rental_uris": {"ios": "https://dc.lft.to/lastmile_qr_scan", "android": "https://dc.lft.to/lastmile_qr_scan"}, "lon": -76.991427, "type": "electric_scooter"}, {"bike_id": "18218b3b4ef69024c1e79cea6cc1a78d", "is_reserved": 0, "fusion_lon": 0.0, "lat": 38.923197333333334, "is_disabled": 0, "name": "18218b3b4ef69024c1e79cea6cc1a78d", "fusion_lat": 0.0, "rental_uris": {"ios": "https://dc.lft.to/lastmile_qr_scan", "android": "https://dc.lft.to/lastmile_qr_scan"}, "lon": -77.0296385, "type": "electric_scooter"}, {"bike_id": "81be38c765f546b297fc78028f356b56", "is_reserved": 0, "fusion_lon": 0.0, "lat": 38.9067655, "is_disabled": 0, "name": "81be38c765f546b297fc78028f356b56", "fusion_lat": 0.0, "rental_uris": {"ios": "https://dc.lft.to/lastmile_qr_scan", "android": "https://dc.lft.to/lastmile_qr_scan"}, "lon": -77.03764266666667, "type": "electric_scooter"}, {"bike_id": "c6ff8f334577d021834710987bcb2be8", "is_reserved": 0, "fusion_lon": 0.0, "lat": 38.903665, "is_disabled": 0, "name": "c6ff8f334577d021834710987bcb2be8", "fusion_lat": 0.0, "rental_uris": {"ios": "https://dc.lft.to/lastmile_qr_scan", "android": "https://dc.lft.to/lastmile_qr_scan"}, "lon": -77.04339466666667, "type": "electric_scooter"}, {"bike_id": "7b7bba025b310eae8758c3505f80beb9", "is_reserved": 0, "fusion_lon": 0.0, "lat": 38.9073355, "is_disabled": 0, "name": "7b7bba025b310eae8758c3505f80beb9", "fusion_lat": 0.0, "rental_uris": {"ios": "https://dc.lft.to/lastmile_qr_scan", "android": "https://dc.lft.to/lastmile_qr_scan"}, "lon": -77.032183, "type": "electric_scooter"}, {"bike_id": "e3b17af3132eaf6f6eaefa7ec5e17fe4", "is_reserved": 0, "fusion_lon": 0.0, "lat": 38.9057235, "is_disabled": 0, "name": "e3b17af3132eaf6f6eaefa7ec5e17fe4", "fusion_lat": 0.0, "rental_uris": {"ios": "https://dc.lft.to/lastmile_qr_scan", "android": "https://dc.lft.to/lastmile_qr_scan"}, "lon": -77.00584316666666, "type": "electric_scooter"}, {"bike_id": "3bf2b31b4f8a1bc3825b453c36d8a67a", "is_reserved": 0, "fusion_lon": 0.0, "lat": 38.92061566666667, "is_disabled": 0, "name": "3bf2b31b4f8a1bc3825b453c36d8a67a", "fusion_lat": 0.0, "rental_uris": {"ios": "https://dc.lft.to/lastmile_qr_scan", "android": "https://dc.lft.to/lastmile_qr_scan"}, "lon": -77.04250383333333, "type": "electric_scooter"}, {"bike_id": "b057dac47b06f7ccc45bcaa17e648c14", "is_reserved": 0, "fusion_lon": 0.0, "lat": 38.92473283333333, "is_disabled": 0, "name": "b057dac47b06f7ccc45bcaa17e648c14", "fusion_lat": 0.0, "rental_uris": {"ios": "https://dc.lft.to/lastmile_qr_scan", "android": "https://dc.lft.to/lastmile_qr_scan"}, "lon": -77.035469, "type": "electric_scooter"}, {"bike_id": "6e0afd0408db5e07229cf260489b471c", "is_reserved": 0, "fusion_lon": 0.0, "lat": 38.954801833333335, "is_disabled": 0, "name": "6e0afd0408db5e07229cf260489b471c", "fusion_lat": 0.0, "rental_uris": {"ios": "https://dc.lft.to/lastmile_qr_scan", "android": "https://dc.lft.to/lastmile_qr_scan"}, "lon": -77.082394, "type": "electric_bike"}, {"bike_id": "44697c6b0f2ce27994245b7737788c6e", "is_reserved": 0, "fusion_lon": 0.0, "lat": 38.897577166666665, "is_disabled": 0, "name": "44697c6b0f2ce27994245b7737788c6e", "fusion_lat": 0.0, "rental_uris": {"ios": "https://dc.lft.to/lastmile_qr_scan", "android": "https://dc.lft.to/lastmile_qr_scan"}, "lon": -76.94186883333333, "type": "electric_scooter"}, {"bike_id": "1590f6a4d99d42f78459de7584acecf3", "is_reserved": 0, "fusion_lon": 0.0, "lat": 38.920931333333336, "is_disabled": 0, "name": "1590f6a4d99d42f78459de7584acecf3", "fusion_lat": 0.0, "rental_uris": {"ios": "https://dc.lft.to/lastmile_qr_scan", "android": "https://dc.lft.to/lastmile_qr_scan"}, "lon": -77.02595533333333, "type": "electric_scooter"}, {"bike_id": "5ec48eb5006ba2d97bbdcded420dbf0a", "is_reserved": 0, "fusion_lon": 0.0, "lat": 38.90446583333333, "is_disabled": 0, "name": "5ec48eb5006ba2d97bbdcded420dbf0a", "fusion_lat": 0.0, "rental_uris": {"ios": "https://dc.lft.to/lastmile_qr_scan", "android": "https://dc.lft.to/lastmile_qr_scan"}, "lon": -77.04874066666666, "type": "electric_scooter"}, {"bike_id": "20280d42fab4dc82678e49085d61afab", "is_reserved": 0, "fusion_lon": 0.0, "lat": 38.931483666666665, "is_disabled": 0, "name": "20280d42fab4dc82678e49085d61afab", "fusion_lat": 0.0, "rental_uris": {"ios": "https://dc.lft.to/lastmile_qr_scan", "android": "https://dc.lft.to/lastmile_qr_scan"}, "lon": -77.0383305, "type": "electric_scooter"}, {"bike_id": "1eb97e9ac0f1890faa44fff1274eb49e", "is_reserved": 0, "fusion_lon": 0.0, "lat": 38.92589866666667, "is_disabled": 0, "name": "1eb97e9ac0f1890faa44fff1274eb49e", "fusion_lat": 0.0, "rental_uris": {"ios": "https://dc.lft.to/lastmile_qr_scan", "android": "https://dc.lft.to/lastmile_qr_scan"}, "lon": -77.00561666666667, "type": "electric_scooter"}, {"bike_id": "29a256bfa2994088ed936816b8cde19d", "is_reserved": 0, "fusion_lon": 0.0, "lat": 38.884374, "is_disabled": 0, "name": "29a256bfa2994088ed936816b8cde19d", "fusion_lat": 0.0, "rental_uris": {"ios": "https://dc.lft.to/lastmile_qr_scan", "android": "https://dc.lft.to/lastmile_qr_scan"}, "lon": -76.9576045, "type": "electric_scooter"}, {"bike_id": "d9adb1f2a74d7e1e6a2437464d961025", "is_reserved": 0, "fusion_lon": 0.0, "lat": 38.89907633333333, "is_disabled": 0, "name": "d9adb1f2a74d7e1e6a2437464d961025", "fusion_lat": 0.0, "rental_uris": {"ios": "https://dc.lft.to/lastmile_qr_scan", "android": "https://dc.lft.to/lastmile_qr_scan"}, "lon": -76.93348083333333, "type": "electric_scooter"}, {"bike_id": "cc3256fe2ffd87b0bed330ac452eec03", "is_reserved": 0, "fusion_lon": 0.0, "lat": 38.912598, "is_disabled": 0, "name": "cc3256fe2ffd87b0bed330ac452eec03", "fusion_lat": 0.0, "rental_uris": {"ios": "https://dc.lft.to/lastmile_qr_scan", "android": "https://dc.lft.to/lastmile_qr_scan"}, "lon": -77.03125566666667, "type": "electric_scooter"}, {"bike_id": "5ce20dc97685ada57352fc24c1a3722a", "is_reserved": 0, "fusion_lon": 0.0, "lat": 38.9167495, "is_disabled": 0, "name": "5ce20dc97685ada57352fc24c1a3722a", "fusion_lat": 0.0, "rental_uris": {"ios": "https://dc.lft.to/lastmile_qr_scan", "android": "https://dc.lft.to/lastmile_qr_scan"}, "lon": -77.02715266666667, "type": "electric_scooter"}, {"bike_id": "84b88350bad620d3e42113a07758badc", "is_reserved": 0, "fusion_lon": 0.0, "lat": 38.90567733333334, "is_disabled": 0, "name": "84b88350bad620d3e42113a07758badc", "fusion_lat": 0.0, "rental_uris": {"ios": "https://dc.lft.to/lastmile_qr_scan", "android": "https://dc.lft.to/lastmile_qr_scan"}, "lon": -77.00566733333334, "type": "electric_scooter"}, {"bike_id": "a8385d955152ac1f6dfcddc836c804b1", "is_reserved": 0, "fusion_lon": 0.0, "lat": 38.91688766666667, "is_disabled": 0, "name": "a8385d955152ac1f6dfcddc836c804b1", "fusion_lat": 0.0, "rental_uris": {"ios": "https://dc.lft.to/lastmile_qr_scan", "android": "https://dc.lft.to/lastmile_qr_scan"}, "lon": -77.02902666666667, "type": "electric_scooter"}, {"bike_id": "c0dba3af09159cd7dcf5d3f5fbe0f0bf", "is_reserved": 0, "fusion_lon": 0.0, "lat": 38.910108, "is_disabled": 0, "name": "c0dba3af09159cd7dcf5d3f5fbe0f0bf", "fusion_lat": 0.0, "rental_uris": {"ios": "https://dc.lft.to/lastmile_qr_scan", "android": "https://dc.lft.to/lastmile_qr_scan"}, "lon": -77.03439183333333, "type": "electric_scooter"}, {"bike_id": "d6cbb12f35f92801b7febbc84041651a", "is_reserved": 0, "fusion_lon": 0.0, "lat": 38.92441316666667, "is_disabled": 0, "name": "d6cbb12f35f92801b7febbc84041651a", "fusion_lat": 0.0, "rental_uris": {"ios": "https://dc.lft.to/lastmile_qr_scan", "android": "https://dc.lft.to/lastmile_qr_scan"}, "lon": -77.03370066666666, "type": "electric_scooter"}, {"bike_id": "228669ac675422137aab9f307adcc812", "is_reserved": 0, "fusion_lon": 0.0, "lat": 38.89737366666667, "is_disabled": 0, "name": "228669ac675422137aab9f307adcc812", "fusion_lat": 0.0, "rental_uris": {"ios": "https://dc.lft.to/lastmile_qr_scan", "android": "https://dc.lft.to/lastmile_qr_scan"}, "lon": -76.94721266666667, "type": "electric_scooter"}, {"bike_id": "f0c2fe93ebd661a3f362de615c281239", "is_reserved": 0, "fusion_lon": 0.0, "lat": 38.92795316666667, "is_disabled": 0, "name": "f0c2fe93ebd661a3f362de615c281239", "fusion_lat": 0.0, "rental_uris": {"ios": "https://dc.lft.to/lastmile_qr_scan", "android": "https://dc.lft.to/lastmile_qr_scan"}, "lon": -77.02599383333333, "type": "electric_scooter"}, {"bike_id": "f5778441a71e41fe1146b59e66cf6649", "is_reserved": 0, "fusion_lon": 0.0, "lat": 38.8747645, "is_disabled": 0, "name": "f5778441a71e41fe1146b59e66cf6649", "fusion_lat": 0.0, "rental_uris": {"ios": "https://dc.lft.to/lastmile_qr_scan", "android": "https://dc.lft.to/lastmile_qr_scan"}, "lon": -76.96528916666666, "type": "electric_bike"}, {"bike_id": "638e0a0cd6de0d689eba4744c91e628f", "is_reserved": 0, "fusion_lon": 0.0, "lat": 38.96622833333333, "is_disabled": 0, "name": "638e0a0cd6de0d689eba4744c91e628f", "fusion_lat": 0.0, "rental_uris": {"ios": "https://dc.lft.to/lastmile_qr_scan", "android": "https://dc.lft.to/lastmile_qr_scan"}, "lon": -77.03434616666667, "type": "electric_bike"}, {"bike_id": "b94bfdde1eecc2b320f961532228e657", "is_reserved": 0, "fusion_lon": 0.0, "lat": 38.928419833333336, "is_disabled": 0, "name": "b94bfdde1eecc2b320f961532228e657", "fusion_lat": 0.0, "rental_uris": {"ios": "https://dc.lft.to/lastmile_qr_scan", "android": "https://dc.lft.to/lastmile_qr_scan"}, "lon": -77.02058533333333, "type": "electric_bike"}, {"bike_id": "f238b546110ed16db50aee9aa3f8a4ab", "is_reserved": 0, "fusion_lon": 0.0, "lat": 38.91614833333333, "is_disabled": 0, "name": "f238b546110ed16db50aee9aa3f8a4ab", "fusion_lat": 0.0, "rental_uris": {"ios": "https://dc.lft.to/lastmile_qr_scan", "android": "https://dc.lft.to/lastmile_qr_scan"}, "lon": -77.0364365, "type": "electric_scooter"}, {"bike_id": "4efe9c69c6d13367623b688705dfe71e", "is_reserved": 0, "fusion_lon": 0.0, "lat": 38.90213416666667, "is_disabled": 0, "name": "4efe9c69c6d13367623b688705dfe71e", "fusion_lat": 0.0, "rental_uris": {"ios": "https://dc.lft.to/lastmile_qr_scan", "android": "https://dc.lft.to/lastmile_qr_scan"}, "lon": -77.01981316666667, "type": "electric_scooter"}, {"bike_id": "6a901a28fe31571a47b5e8da914b7cd4", "is_reserved": 0, "fusion_lon": 0.0, "lat": 38.910027, "is_disabled": 0, "name": "6a901a28fe31571a47b5e8da914b7cd4", "fusion_lat": 0.0, "rental_uris": {"ios": "https://dc.lft.to/lastmile_qr_scan", "android": "https://dc.lft.to/lastmile_qr_scan"}, "lon": -77.0209715, "type": "electric_scooter"}, {"bike_id": "d1c6c5f7531493b907cdc42f998bb968", "is_reserved": 0, "fusion_lon": 0.0, "lat": 38.899597, "is_disabled": 0, "name": "d1c6c5f7531493b907cdc42f998bb968", "fusion_lat": 0.0, "rental_uris": {"ios": "https://dc.lft.to/lastmile_qr_scan", "android": "https://dc.lft.to/lastmile_qr_scan"}, "lon": -77.01623366666666, "type": "electric_scooter"}, {"bike_id": "2808ccc654b6aa98efa95539772edf4b", "is_reserved": 0, "fusion_lon": 0.0, "lat": 38.915387333333335, "is_disabled": 0, "name": "2808ccc654b6aa98efa95539772edf4b", "fusion_lat": 0.0, "rental_uris": {"ios": "https://dc.lft.to/lastmile_qr_scan", "android": "https://dc.lft.to/lastmile_qr_scan"}, "lon": -77.02353316666667, "type": "electric_scooter"}, {"bike_id": "62651a12ccc623c72ec80b9de11304eb", "is_reserved": 0, "fusion_lon": 0.0, "lat": 38.918054166666664, "is_disabled": 0, "name": "62651a12ccc623c72ec80b9de11304eb", "fusion_lat": 0.0, "rental_uris": {"ios": "https://dc.lft.to/lastmile_qr_scan", "android": "https://dc.lft.to/lastmile_qr_scan"}, "lon": -77.03436666666667, "type": "electric_scooter"}, {"bike_id": "bf9860621961c4ec1ca3ba3c09afa5b2", "is_reserved": 0, "fusion_lon": 0.0, "lat": 38.93399083333333, "is_disabled": 0, "name": "bf9860621961c4ec1ca3ba3c09afa5b2", "fusion_lat": 0.0, "rental_uris": {"ios": "https://dc.lft.to/lastmile_qr_scan", "android": "https://dc.lft.to/lastmile_qr_scan"}, "lon": -77.03881266666667, "type": "electric_scooter"}, {"bike_id": "e98583f438cb634d481b9aeb7939b148", "is_reserved": 0, "fusion_lon": 0.0, "lat": 38.959116333333334, "is_disabled": 0, "name": "e98583f438cb634d481b9aeb7939b148", "fusion_lat": 0.0, "rental_uris": {"ios": "https://dc.lft.to/lastmile_qr_scan", "android": "https://dc.lft.to/lastmile_qr_scan"}, "lon": -77.08077383333334, "type": "electric_scooter"}, {"bike_id": "dc00a102591543739eed171ebc625861", "is_reserved": 0, "fusion_lon": 0.0, "lat": 38.88311733333333, "is_disabled": 0, "name": "dc00a102591543739eed171ebc625861", "fusion_lat": 0.0, "rental_uris": {"ios": "https://dc.lft.to/lastmile_qr_scan", "android": "https://dc.lft.to/lastmile_qr_scan"}, "lon": -77.0059705, "type": "electric_scooter"}, {"bike_id": "74d197dd1537987a4b5e173213b29ee0", "is_reserved": 0, "fusion_lon": 0.0, "lat": 38.91093633333333, "is_disabled": 0, "name": "74d197dd1537987a4b5e173213b29ee0", "fusion_lat": 0.0, "rental_uris": {"ios": "https://dc.lft.to/lastmile_qr_scan", "android": "https://dc.lft.to/lastmile_qr_scan"}, "lon": -77.03852933333333, "type": "electric_scooter"}, {"bike_id": "e1298c462e26932f33afe6064677e6bc", "is_reserved": 0, "fusion_lon": 0.0, "lat": 38.93253083333333, "is_disabled": 0, "name": "e1298c462e26932f33afe6064677e6bc", "fusion_lat": 0.0, "rental_uris": {"ios": "https://dc.lft.to/lastmile_qr_scan", "android": "https://dc.lft.to/lastmile_qr_scan"}, "lon": -77.03287316666666, "type": "electric_scooter"}, {"bike_id": "a379c8efa089b89c9b94a769e7be2835", "is_reserved": 0, "fusion_lon": 0.0, "lat": 38.8848885, "is_disabled": 0, "name": "a379c8efa089b89c9b94a769e7be2835", "fusion_lat": 0.0, "rental_uris": {"ios": "https://dc.lft.to/lastmile_qr_scan", "android": "https://dc.lft.to/lastmile_qr_scan"}, "lon": -77.007254, "type": "electric_scooter"}, {"bike_id": "2759acabbe69177fd78c82c8d819ac94", "is_reserved": 0, "fusion_lon": 0.0, "lat": 38.92646633333333, "is_disabled": 0, "name": "2759acabbe69177fd78c82c8d819ac94", "fusion_lat": 0.0, "rental_uris": {"ios": "https://dc.lft.to/lastmile_qr_scan", "android": "https://dc.lft.to/lastmile_qr_scan"}, "lon": -77.03707666666666, "type": "electric_scooter"}, {"bike_id": "830062a5bed7578b99229fe365b9ab1c", "is_reserved": 0, "fusion_lon": 0.0, "lat": 38.81332733333333, "is_disabled": 0, "name": "830062a5bed7578b99229fe365b9ab1c", "fusion_lat": 0.0, "rental_uris": {"ios": "https://dc.lft.to/lastmile_qr_scan", "android": "https://dc.lft.to/lastmile_qr_scan"}, "lon": -77.05112666666666, "type": "electric_bike"}, {"bike_id": "66586075f7e6dc33820966b64b9a25bb", "is_reserved": 0, "fusion_lon": 0.0, "lat": 38.907147, "is_disabled": 0, "name": "66586075f7e6dc33820966b64b9a25bb", "fusion_lat": 0.0, "rental_uris": {"ios": "https://dc.lft.to/lastmile_qr_scan", "android": "https://dc.lft.to/lastmile_qr_scan"}, "lon": -77.04351916666667, "type": "electric_scooter"}, {"bike_id": "b141de41f340d2b3f08f619cc355901e", "is_reserved": 0, "fusion_lon": 0.0, "lat": 38.9178745, "is_disabled": 0, "name": "b141de41f340d2b3f08f619cc355901e", "fusion_lat": 0.0, "rental_uris": {"ios": "https://dc.lft.to/lastmile_qr_scan", "android": "https://dc.lft.to/lastmile_qr_scan"}, "lon": -77.02690566666666, "type": "electric_scooter"}, {"bike_id": "8489f3eaf87f98020445d6acc6f8eb27", "is_reserved": 0, "fusion_lon": 0.0, "lat": 38.886412166666666, "is_disabled": 0, "name": "8489f3eaf87f98020445d6acc6f8eb27", "fusion_lat": 0.0, "rental_uris": {"ios": "https://dc.lft.to/lastmile_qr_scan", "android": "https://dc.lft.to/lastmile_qr_scan"}, "lon": -77.02138233333334, "type": "electric_scooter"}, {"bike_id": "d04220527fc23a6acebf49c75a2dd002", "is_reserved": 0, "fusion_lon": 0.0, "lat": 38.9068225, "is_disabled": 0, "name": "d04220527fc23a6acebf49c75a2dd002", "fusion_lat": 0.0, "rental_uris": {"ios": "https://dc.lft.to/lastmile_qr_scan", "android": "https://dc.lft.to/lastmile_qr_scan"}, "lon": -77.00031533333333, "type": "electric_scooter"}, {"bike_id": "0199ce8b19798d713eed57ca5de9d649", "is_reserved": 0, "fusion_lon": 0.0, "lat": 38.9245675, "is_disabled": 0, "name": "0199ce8b19798d713eed57ca5de9d649", "fusion_lat": 0.0, "rental_uris": {"ios": "https://dc.lft.to/lastmile_qr_scan", "android": "https://dc.lft.to/lastmile_qr_scan"}, "lon": -76.99908433333333, "type": "electric_scooter"}, {"bike_id": "5a69e1d149b0e2776ccd8fd7de062058", "is_reserved": 0, "fusion_lon": 0.0, "lat": 38.9037785, "is_disabled": 0, "name": "5a69e1d149b0e2776ccd8fd7de062058", "fusion_lat": 0.0, "rental_uris": {"ios": "https://dc.lft.to/lastmile_qr_scan", "android": "https://dc.lft.to/lastmile_qr_scan"}, "lon": -77.039043, "type": "electric_scooter"}, {"bike_id": "8f7b3886c4b2682cf020086ea9c568f9", "is_reserved": 0, "fusion_lon": 0.0, "lat": 38.903792333333335, "is_disabled": 0, "name": "8f7b3886c4b2682cf020086ea9c568f9", "fusion_lat": 0.0, "rental_uris": {"ios": "https://dc.lft.to/lastmile_qr_scan", "android": "https://dc.lft.to/lastmile_qr_scan"}, "lon": -76.99562683333333, "type": "electric_scooter"}, {"bike_id": "dd59fc217a5053b0ef5cadd156ee54b4", "is_reserved": 0, "fusion_lon": 0.0, "lat": 38.86619233333333, "is_disabled": 0, "name": "dd59fc217a5053b0ef5cadd156ee54b4", "fusion_lat": 0.0, "rental_uris": {"ios": "https://dc.lft.to/lastmile_qr_scan", "android": "https://dc.lft.to/lastmile_qr_scan"}, "lon": -76.94567966666666, "type": "electric_bike"}, {"bike_id": "98a7ea7c8383fe8b4c5160a67375d1f3", "is_reserved": 0, "fusion_lon": 0.0, "lat": 38.94806166666667, "is_disabled": 0, "name": "98a7ea7c8383fe8b4c5160a67375d1f3", "fusion_lat": 0.0, "rental_uris": {"ios": "https://dc.lft.to/lastmile_qr_scan", "android": "https://dc.lft.to/lastmile_qr_scan"}, "lon": -77.079072, "type": "electric_scooter"}, {"bike_id": "90cde2d853d4bc21200533995543a021", "is_reserved": 0, "fusion_lon": 0.0, "lat": 38.8601055, "is_disabled": 0, "name": "90cde2d853d4bc21200533995543a021", "fusion_lat": 0.0, "rental_uris": {"ios": "https://dc.lft.to/lastmile_qr_scan", "android": "https://dc.lft.to/lastmile_qr_scan"}, "lon": -77.05770766666667, "type": "electric_bike"}, {"bike_id": "2a9bbaed1a63edbf1c66db3e3194768c", "is_reserved": 0, "fusion_lon": 0.0, "lat": 38.90526366666667, "is_disabled": 0, "name": "2a9bbaed1a63edbf1c66db3e3194768c", "fusion_lat": 0.0, "rental_uris": {"ios": "https://dc.lft.to/lastmile_qr_scan", "android": "https://dc.lft.to/lastmile_qr_scan"}, "lon": -77.05119533333334, "type": "electric_scooter"}, {"bike_id": "b6ac4775aecc5a7bcad35b2bf1fbd7f7", "is_reserved": 0, "fusion_lon": 0.0, "lat": 38.932576166666664, "is_disabled": 0, "name": "b6ac4775aecc5a7bcad35b2bf1fbd7f7", "fusion_lat": 0.0, "rental_uris": {"ios": "https://dc.lft.to/lastmile_qr_scan", "android": "https://dc.lft.to/lastmile_qr_scan"}, "lon": -77.03284816666667, "type": "electric_scooter"}, {"bike_id": "ed3ded4020aeff1aaf6a4f42b807462c", "is_reserved": 0, "fusion_lon": 0.0, "lat": 38.887444, "is_disabled": 0, "name": "ed3ded4020aeff1aaf6a4f42b807462c", "fusion_lat": 0.0, "rental_uris": {"ios": "https://dc.lft.to/lastmile_qr_scan", "android": "https://dc.lft.to/lastmile_qr_scan"}, "lon": -77.02973816666666, "type": "electric_scooter"}, {"bike_id": "a2d56de4a74e3012253e23d860985e2d", "is_reserved": 0, "fusion_lon": 0.0, "lat": 38.90080016666667, "is_disabled": 0, "name": "a2d56de4a74e3012253e23d860985e2d", "fusion_lat": 0.0, "rental_uris": {"ios": "https://dc.lft.to/lastmile_qr_scan", "android": "https://dc.lft.to/lastmile_qr_scan"}, "lon": -76.9386205, "type": "electric_scooter"}, {"bike_id": "6ef721b2b32630740830119a7ef4a112", "is_reserved": 0, "fusion_lon": 0.0, "lat": 38.9196455, "is_disabled": 0, "name": "6ef721b2b32630740830119a7ef4a112", "fusion_lat": 0.0, "rental_uris": {"ios": "https://dc.lft.to/lastmile_qr_scan", "android": "https://dc.lft.to/lastmile_qr_scan"}, "lon": -77.03197183333333, "type": "electric_scooter"}, {"bike_id": "879519c3ca389f984aab718b78ca026c", "is_reserved": 0, "fusion_lon": 0.0, "lat": 38.94972083333333, "is_disabled": 0, "name": "879519c3ca389f984aab718b78ca026c", "fusion_lat": 0.0, "rental_uris": {"ios": "https://dc.lft.to/lastmile_qr_scan", "android": "https://dc.lft.to/lastmile_qr_scan"}, "lon": -76.97279816666666, "type": "electric_bike"}, {"bike_id": "1fd8e16b0250bbaef027fc46f054ba6c", "is_reserved": 0, "fusion_lon": 0.0, "lat": 38.89735, "is_disabled": 0, "name": "1fd8e16b0250bbaef027fc46f054ba6c", "fusion_lat": 0.0, "rental_uris": {"ios": "https://dc.lft.to/lastmile_qr_scan", "android": "https://dc.lft.to/lastmile_qr_scan"}, "lon": -77.05576666666667, "type": "electric_scooter"}, {"bike_id": "14229f644d8ef1480f7f341c9545a969", "is_reserved": 0, "fusion_lon": 0.0, "lat": 38.903919, "is_disabled": 0, "name": "14229f644d8ef1480f7f341c9545a969", "fusion_lat": 0.0, "rental_uris": {"ios": "https://dc.lft.to/lastmile_qr_scan", "android": "https://dc.lft.to/lastmile_qr_scan"}, "lon": -77.04502683333334, "type": "electric_scooter"}, {"bike_id": "6f3b22ce5b5da1158c61a67bd8f82e49", "is_reserved": 0, "fusion_lon": 0.0, "lat": 38.888462833333335, "is_disabled": 0, "name": "6f3b22ce5b5da1158c61a67bd8f82e49", "fusion_lat": 0.0, "rental_uris": {"ios": "https://dc.lft.to/lastmile_qr_scan", "android": "https://dc.lft.to/lastmile_qr_scan"}, "lon": -76.9268065, "type": "electric_scooter"}, {"bike_id": "4316af5f4cd48428cb63667a69aad01b", "is_reserved": 0, "fusion_lon": 0.0, "lat": 38.905472333333336, "is_disabled": 0, "name": "4316af5f4cd48428cb63667a69aad01b", "fusion_lat": 0.0, "rental_uris": {"ios": "https://dc.lft.to/lastmile_qr_scan", "android": "https://dc.lft.to/lastmile_qr_scan"}, "lon": -77.02695383333334, "type": "electric_scooter"}, {"bike_id": "c84423760a44f0dfe46a54cb03669919", "is_reserved": 0, "fusion_lon": 0.0, "lat": 38.903328, "is_disabled": 0, "name": "c84423760a44f0dfe46a54cb03669919", "fusion_lat": 0.0, "rental_uris": {"ios": "https://dc.lft.to/lastmile_qr_scan", "android": "https://dc.lft.to/lastmile_qr_scan"}, "lon": -77.038261, "type": "electric_scooter"}, {"bike_id": "712f239aa3c7e8023be40d7aae6ffcdb", "is_reserved": 0, "fusion_lon": 0.0, "lat": 38.946849666666665, "is_disabled": 0, "name": "712f239aa3c7e8023be40d7aae6ffcdb", "fusion_lat": 0.0, "rental_uris": {"ios": "https://dc.lft.to/lastmile_qr_scan", "android": "https://dc.lft.to/lastmile_qr_scan"}, "lon": -77.0205435, "type": "electric_bike"}, {"bike_id": "933da06a402d2d052b40f053fe6aa0ab", "is_reserved": 0, "fusion_lon": 0.0, "lat": 38.9592365, "is_disabled": 0, "name": "933da06a402d2d052b40f053fe6aa0ab", "fusion_lat": 0.0, "rental_uris": {"ios": "https://dc.lft.to/lastmile_qr_scan", "android": "https://dc.lft.to/lastmile_qr_scan"}, "lon": -77.03320533333333, "type": "electric_scooter"}, {"bike_id": "49f66d9a208de2afe3c4d4e887f39856", "is_reserved": 0, "fusion_lon": 0.0, "lat": 38.90811333333333, "is_disabled": 0, "name": "49f66d9a208de2afe3c4d4e887f39856", "fusion_lat": 0.0, "rental_uris": {"ios": "https://dc.lft.to/lastmile_qr_scan", "android": "https://dc.lft.to/lastmile_qr_scan"}, "lon": -77.034539, "type": "electric_scooter"}, {"bike_id": "ced628e89a18fa310611d64359fd0e25", "is_reserved": 0, "fusion_lon": 0.0, "lat": 38.86561366666667, "is_disabled": 0, "name": "ced628e89a18fa310611d64359fd0e25", "fusion_lat": 0.0, "rental_uris": {"ios": "https://dc.lft.to/lastmile_qr_scan", "android": "https://dc.lft.to/lastmile_qr_scan"}, "lon": -76.98951416666667, "type": "electric_scooter"}, {"bike_id": "f402925be6b907b964b8715596416f06", "is_reserved": 0, "fusion_lon": 0.0, "lat": 38.91680083333333, "is_disabled": 0, "name": "f402925be6b907b964b8715596416f06", "fusion_lat": 0.0, "rental_uris": {"ios": "https://dc.lft.to/lastmile_qr_scan", "android": "https://dc.lft.to/lastmile_qr_scan"}, "lon": -77.0295465, "type": "electric_scooter"}, {"bike_id": "ef311e819a4d6fd0578d1be2782d81dd", "is_reserved": 0, "fusion_lon": 0.0, "lat": 38.9038825, "is_disabled": 0, "name": "ef311e819a4d6fd0578d1be2782d81dd", "fusion_lat": 0.0, "rental_uris": {"ios": "https://dc.lft.to/lastmile_qr_scan", "android": "https://dc.lft.to/lastmile_qr_scan"}, "lon": -77.04386216666667, "type": "electric_scooter"}, {"bike_id": "878177206e9865c38b99e540ce1b17c1", "is_reserved": 0, "fusion_lon": 0.0, "lat": 38.9087235, "is_disabled": 0, "name": "878177206e9865c38b99e540ce1b17c1", "fusion_lat": 0.0, "rental_uris": {"ios": "https://dc.lft.to/lastmile_qr_scan", "android": "https://dc.lft.to/lastmile_qr_scan"}, "lon": -77.04268533333334, "type": "electric_scooter"}, {"bike_id": "39e5cc6b6656893c70da4fa62f1da2cf", "is_reserved": 0, "fusion_lon": 0.0, "lat": 38.93897416666667, "is_disabled": 0, "name": "39e5cc6b6656893c70da4fa62f1da2cf", "fusion_lat": 0.0, "rental_uris": {"ios": "https://dc.lft.to/lastmile_qr_scan", "android": "https://dc.lft.to/lastmile_qr_scan"}, "lon": -77.029784, "type": "electric_scooter"}, {"bike_id": "473d7d4eeeabd4a09fbc10027bda1b73", "is_reserved": 0, "fusion_lon": 0.0, "lat": 38.90297116666667, "is_disabled": 0, "name": "473d7d4eeeabd4a09fbc10027bda1b73", "fusion_lat": 0.0, "rental_uris": {"ios": "https://dc.lft.to/lastmile_qr_scan", "android": "https://dc.lft.to/lastmile_qr_scan"}, "lon": -76.9444205, "type": "electric_bike"}, {"bike_id": "82d5a6aa9f2b3b434082bcaa3723eef4", "is_reserved": 0, "fusion_lon": 0.0, "lat": 38.922366833333335, "is_disabled": 0, "name": "82d5a6aa9f2b3b434082bcaa3723eef4", "fusion_lat": 0.0, "rental_uris": {"ios": "https://dc.lft.to/lastmile_qr_scan", "android": "https://dc.lft.to/lastmile_qr_scan"}, "lon": -77.03077816666666, "type": "electric_scooter"}, {"bike_id": "60f0a75070b0e5273531d894b35f2ed9", "is_reserved": 0, "fusion_lon": 0.0, "lat": 38.906670166666665, "is_disabled": 0, "name": "60f0a75070b0e5273531d894b35f2ed9", "fusion_lat": 0.0, "rental_uris": {"ios": "https://dc.lft.to/lastmile_qr_scan", "android": "https://dc.lft.to/lastmile_qr_scan"}, "lon": -77.03859583333333, "type": "electric_scooter"}, {"bike_id": "dc45cf494370b33b2a66de543b707dac", "is_reserved": 0, "fusion_lon": 0.0, "lat": 38.838012, "is_disabled": 0, "name": "dc45cf494370b33b2a66de543b707dac", "fusion_lat": 0.0, "rental_uris": {"ios": "https://dc.lft.to/lastmile_qr_scan", "android": "https://dc.lft.to/lastmile_qr_scan"}, "lon": -76.9983845, "type": "electric_bike"}, {"bike_id": "9efa1ab584b8222ab2f9adec640abcd2", "is_reserved": 0, "fusion_lon": 0.0, "lat": 38.9226855, "is_disabled": 0, "name": "9efa1ab584b8222ab2f9adec640abcd2", "fusion_lat": 0.0, "rental_uris": {"ios": "https://dc.lft.to/lastmile_qr_scan", "android": "https://dc.lft.to/lastmile_qr_scan"}, "lon": -77.0420345, "type": "electric_scooter"}, {"bike_id": "a932b89c3c687ae0adaa6b2d112c9be8", "is_reserved": 0, "fusion_lon": 0.0, "lat": 38.90663166666667, "is_disabled": 0, "name": "a932b89c3c687ae0adaa6b2d112c9be8", "fusion_lat": 0.0, "rental_uris": {"ios": "https://dc.lft.to/lastmile_qr_scan", "android": "https://dc.lft.to/lastmile_qr_scan"}, "lon": -77.03860566666667, "type": "electric_scooter"}, {"bike_id": "7ebf2868a6b406a93e5a4c10b0a29f0f", "is_reserved": 0, "fusion_lon": 0.0, "lat": 39.0159385, "is_disabled": 0, "name": "7ebf2868a6b406a93e5a4c10b0a29f0f", "fusion_lat": 0.0, "rental_uris": {"ios": "https://dc.lft.to/lastmile_qr_scan", "android": "https://dc.lft.to/lastmile_qr_scan"}, "lon": -77.044237, "type": "electric_bike"}, {"bike_id": "d38bc1b04d2488f895f3395d202f7f5b", "is_reserved": 0, "fusion_lon": 0.0, "lat": 38.90538883333333, "is_disabled": 0, "name": "d38bc1b04d2488f895f3395d202f7f5b", "fusion_lat": 0.0, "rental_uris": {"ios": "https://dc.lft.to/lastmile_qr_scan", "android": "https://dc.lft.to/lastmile_qr_scan"}, "lon": -77.002141, "type": "electric_bike"}, {"bike_id": "cd9f3ae286d3a60e5c25e100b1dd3075", "is_reserved": 0, "fusion_lon": 0.0, "lat": 38.900843333333334, "is_disabled": 0, "name": "cd9f3ae286d3a60e5c25e100b1dd3075", "fusion_lat": 0.0, "rental_uris": {"ios": "https://dc.lft.to/lastmile_qr_scan", "android": "https://dc.lft.to/lastmile_qr_scan"}, "lon": -77.04772516666667, "type": "electric_scooter"}, {"bike_id": "a4b3aa4588d3273df0e1631d1602a967", "is_reserved": 0, "fusion_lon": 0.0, "lat": 38.90574683333333, "is_disabled": 0, "name": "a4b3aa4588d3273df0e1631d1602a967", "fusion_lat": 0.0, "rental_uris": {"ios": "https://dc.lft.to/lastmile_qr_scan", "android": "https://dc.lft.to/lastmile_qr_scan"}, "lon": -77.0343545, "type": "electric_scooter"}, {"bike_id": "50fcd9f981b5f269bda4d06baeabb9a8", "is_reserved": 0, "fusion_lon": 0.0, "lat": 38.90201233333333, "is_disabled": 0, "name": "50fcd9f981b5f269bda4d06baeabb9a8", "fusion_lat": 0.0, "rental_uris": {"ios": "https://dc.lft.to/lastmile_qr_scan", "android": "https://dc.lft.to/lastmile_qr_scan"}, "lon": -77.023726, "type": "electric_scooter"}, {"bike_id": "938ae01149cd9e99753b05b2a2564400", "is_reserved": 0, "fusion_lon": 0.0, "lat": 38.92673466666667, "is_disabled": 0, "name": "938ae01149cd9e99753b05b2a2564400", "fusion_lat": 0.0, "rental_uris": {"ios": "https://dc.lft.to/lastmile_qr_scan", "android": "https://dc.lft.to/lastmile_qr_scan"}, "lon": -77.03641016666667, "type": "electric_scooter"}, {"bike_id": "599a4658f6430c84d9136f20115ee8dc", "is_reserved": 0, "fusion_lon": 0.0, "lat": 38.91320833333333, "is_disabled": 0, "name": "599a4658f6430c84d9136f20115ee8dc", "fusion_lat": 0.0, "rental_uris": {"ios": "https://dc.lft.to/lastmile_qr_scan", "android": "https://dc.lft.to/lastmile_qr_scan"}, "lon": -77.01508616666666, "type": "electric_scooter"}, {"bike_id": "d5ee95af68d8958ec88a4ef76f39c56a", "is_reserved": 0, "fusion_lon": 0.0, "lat": 38.944166, "is_disabled": 0, "name": "d5ee95af68d8958ec88a4ef76f39c56a", "fusion_lat": 0.0, "rental_uris": {"ios": "https://dc.lft.to/lastmile_qr_scan", "android": "https://dc.lft.to/lastmile_qr_scan"}, "lon": -77.01775416666666, "type": "electric_scooter"}, {"bike_id": "3a281f6a85a72329cd377a2a53491774", "is_reserved": 0, "fusion_lon": 0.0, "lat": 38.85802966666667, "is_disabled": 0, "name": "3a281f6a85a72329cd377a2a53491774", "fusion_lat": 0.0, "rental_uris": {"ios": "https://dc.lft.to/lastmile_qr_scan", "android": "https://dc.lft.to/lastmile_qr_scan"}, "lon": -76.9875075, "type": "electric_bike"}, {"bike_id": "716c478720e818834e1b942ef6e7b369", "is_reserved": 0, "fusion_lon": 0.0, "lat": 38.90505533333334, "is_disabled": 0, "name": "716c478720e818834e1b942ef6e7b369", "fusion_lat": 0.0, "rental_uris": {"ios": "https://dc.lft.to/lastmile_qr_scan", "android": "https://dc.lft.to/lastmile_qr_scan"}, "lon": -77.02948066666667, "type": "electric_scooter"}, {"bike_id": "30b1e526fd630f9643e58356e1c382a5", "is_reserved": 0, "fusion_lon": 0.0, "lat": 38.91996066666667, "is_disabled": 0, "name": "30b1e526fd630f9643e58356e1c382a5", "fusion_lat": 0.0, "rental_uris": {"ios": "https://dc.lft.to/lastmile_qr_scan", "android": "https://dc.lft.to/lastmile_qr_scan"}, "lon": -77.032254, "type": "electric_scooter"}, {"bike_id": "e0e9dfa3f53976a099ab2f4864b951d9", "is_reserved": 0, "fusion_lon": 0.0, "lat": 38.877076333333335, "is_disabled": 0, "name": "e0e9dfa3f53976a099ab2f4864b951d9", "fusion_lat": 0.0, "rental_uris": {"ios": "https://dc.lft.to/lastmile_qr_scan", "android": "https://dc.lft.to/lastmile_qr_scan"}, "lon": -77.01753533333333, "type": "electric_scooter"}, {"bike_id": "997e6c8139e236df752ae020734ccd7f", "is_reserved": 0, "fusion_lon": 0.0, "lat": 38.84294416666667, "is_disabled": 0, "name": "997e6c8139e236df752ae020734ccd7f", "fusion_lat": 0.0, "rental_uris": {"ios": "https://dc.lft.to/lastmile_qr_scan", "android": "https://dc.lft.to/lastmile_qr_scan"}, "lon": -76.999434, "type": "electric_scooter"}, {"bike_id": "58321484bdf49843385f79b626be772f", "is_reserved": 0, "fusion_lon": 0.0, "lat": 38.9354055, "is_disabled": 0, "name": "58321484bdf49843385f79b626be772f", "fusion_lat": 0.0, "rental_uris": {"ios": "https://dc.lft.to/lastmile_qr_scan", "android": "https://dc.lft.to/lastmile_qr_scan"}, "lon": -77.03284366666666, "type": "electric_scooter"}, {"bike_id": "a1cbcf57dcdd50cab189f58a51c78c9e", "is_reserved": 0, "fusion_lon": 0.0, "lat": 38.910539166666666, "is_disabled": 0, "name": "a1cbcf57dcdd50cab189f58a51c78c9e", "fusion_lat": 0.0, "rental_uris": {"ios": "https://dc.lft.to/lastmile_qr_scan", "android": "https://dc.lft.to/lastmile_qr_scan"}, "lon": -77.01685216666667, "type": "electric_scooter"}, {"bike_id": "4a9d862330b7ad921754e08e13485655", "is_reserved": 0, "fusion_lon": 0.0, "lat": 38.94175233333333, "is_disabled": 0, "name": "4a9d862330b7ad921754e08e13485655", "fusion_lat": 0.0, "rental_uris": {"ios": "https://dc.lft.to/lastmile_qr_scan", "android": "https://dc.lft.to/lastmile_qr_scan"}, "lon": -77.02495583333334, "type": "electric_scooter"}, {"bike_id": "3a147ceec8f1d7a43fbc1e08df14ea95", "is_reserved": 0, "fusion_lon": 0.0, "lat": 38.92034016666667, "is_disabled": 0, "name": "3a147ceec8f1d7a43fbc1e08df14ea95", "fusion_lat": 0.0, "rental_uris": {"ios": "https://dc.lft.to/lastmile_qr_scan", "android": "https://dc.lft.to/lastmile_qr_scan"}, "lon": -77.01120133333333, "type": "electric_scooter"}, {"bike_id": "96e40ee0400a7804cef4cd8c22b08bd8", "is_reserved": 0, "fusion_lon": 0.0, "lat": 38.9254325, "is_disabled": 0, "name": "96e40ee0400a7804cef4cd8c22b08bd8", "fusion_lat": 0.0, "rental_uris": {"ios": "https://dc.lft.to/lastmile_qr_scan", "android": "https://dc.lft.to/lastmile_qr_scan"}, "lon": -77.03468016666666, "type": "electric_scooter"}, {"bike_id": "6422a13b3a51b3148406c0684c04a389", "is_reserved": 0, "fusion_lon": 0.0, "lat": 38.90667333333333, "is_disabled": 0, "name": "6422a13b3a51b3148406c0684c04a389", "fusion_lat": 0.0, "rental_uris": {"ios": "https://dc.lft.to/lastmile_qr_scan", "android": "https://dc.lft.to/lastmile_qr_scan"}, "lon": -77.02710716666667, "type": "electric_scooter"}, {"bike_id": "1840dbe50e0b6c9083090d3338932065", "is_reserved": 0, "fusion_lon": 0.0, "lat": 38.92349316666667, "is_disabled": 0, "name": "1840dbe50e0b6c9083090d3338932065", "fusion_lat": 0.0, "rental_uris": {"ios": "https://dc.lft.to/lastmile_qr_scan", "android": "https://dc.lft.to/lastmile_qr_scan"}, "lon": -77.03510616666667, "type": "electric_scooter"}, {"bike_id": "a952d3dd16dcaad1525079148aa49edd", "is_reserved": 0, "fusion_lon": 0.0, "lat": 38.922233166666665, "is_disabled": 0, "name": "a952d3dd16dcaad1525079148aa49edd", "fusion_lat": 0.0, "rental_uris": {"ios": "https://dc.lft.to/lastmile_qr_scan", "android": "https://dc.lft.to/lastmile_qr_scan"}, "lon": -77.03900116666667, "type": "electric_scooter"}, {"bike_id": "f69a015f64e2f45cfb7b29c827c22916", "is_reserved": 0, "fusion_lon": 0.0, "lat": 38.86626866666667, "is_disabled": 0, "name": "f69a015f64e2f45cfb7b29c827c22916", "fusion_lat": 0.0, "rental_uris": {"ios": "https://dc.lft.to/lastmile_qr_scan", "android": "https://dc.lft.to/lastmile_qr_scan"}, "lon": -76.98695716666667, "type": "electric_scooter"}, {"bike_id": "adc1a3beafa016eecf544f2f34661fb3", "is_reserved": 0, "fusion_lon": 0.0, "lat": 38.87089616666667, "is_disabled": 0, "name": "adc1a3beafa016eecf544f2f34661fb3", "fusion_lat": 0.0, "rental_uris": {"ios": "https://dc.lft.to/lastmile_qr_scan", "android": "https://dc.lft.to/lastmile_qr_scan"}, "lon": -77.01207333333333, "type": "electric_bike"}, {"bike_id": "b1dd58d52752fbb60e2e51c025199bf6", "is_reserved": 0, "fusion_lon": 0.0, "lat": 38.90628933333333, "is_disabled": 0, "name": "b1dd58d52752fbb60e2e51c025199bf6", "fusion_lat": 0.0, "rental_uris": {"ios": "https://dc.lft.to/lastmile_qr_scan", "android": "https://dc.lft.to/lastmile_qr_scan"}, "lon": -76.98609083333334, "type": "electric_bike"}, {"bike_id": "446b21a93609314de4fd9d1c9350dca7", "is_reserved": 0, "fusion_lon": 0.0, "lat": 38.91259083333333, "is_disabled": 0, "name": "446b21a93609314de4fd9d1c9350dca7", "fusion_lat": 0.0, "rental_uris": {"ios": "https://dc.lft.to/lastmile_qr_scan", "android": "https://dc.lft.to/lastmile_qr_scan"}, "lon": -77.03768566666666, "type": "electric_scooter"}, {"bike_id": "8d1f64295cf07779bf6f72163382ac67", "is_reserved": 0, "fusion_lon": 0.0, "lat": 38.87914766666667, "is_disabled": 0, "name": "8d1f64295cf07779bf6f72163382ac67", "fusion_lat": 0.0, "rental_uris": {"ios": "https://dc.lft.to/lastmile_qr_scan", "android": "https://dc.lft.to/lastmile_qr_scan"}, "lon": -76.9950525, "type": "electric_scooter"}, {"bike_id": "5e40cc82a89a165987369ff5dba81c87", "is_reserved": 0, "fusion_lon": 0.0, "lat": 38.89104233333333, "is_disabled": 0, "name": "5e40cc82a89a165987369ff5dba81c87", "fusion_lat": 0.0, "rental_uris": {"ios": "https://dc.lft.to/lastmile_qr_scan", "android": "https://dc.lft.to/lastmile_qr_scan"}, "lon": -76.98701833333334, "type": "electric_scooter"}, {"bike_id": "40eef6c4ac9d6345fa54e03f2b0b503f", "is_reserved": 0, "fusion_lon": 0.0, "lat": 38.90978583333333, "is_disabled": 0, "name": "40eef6c4ac9d6345fa54e03f2b0b503f", "fusion_lat": 0.0, "rental_uris": {"ios": "https://dc.lft.to/lastmile_qr_scan", "android": "https://dc.lft.to/lastmile_qr_scan"}, "lon": -77.0238415, "type": "electric_scooter"}, {"bike_id": "4829b62875366fa6ab5b718505af40b5", "is_reserved": 0, "fusion_lon": 0.0, "lat": 38.9224845, "is_disabled": 0, "name": "4829b62875366fa6ab5b718505af40b5", "fusion_lat": 0.0, "rental_uris": {"ios": "https://dc.lft.to/lastmile_qr_scan", "android": "https://dc.lft.to/lastmile_qr_scan"}, "lon": -77.03081033333333, "type": "electric_scooter"}, {"bike_id": "77cbecaf83b805d75349c20019591e84", "is_reserved": 0, "fusion_lon": 0.0, "lat": 38.925058666666665, "is_disabled": 0, "name": "77cbecaf83b805d75349c20019591e84", "fusion_lat": 0.0, "rental_uris": {"ios": "https://dc.lft.to/lastmile_qr_scan", "android": "https://dc.lft.to/lastmile_qr_scan"}, "lon": -77.0216205, "type": "electric_scooter"}, {"bike_id": "0f33e29b00f1cb36be337fe849d22856", "is_reserved": 0, "fusion_lon": 0.0, "lat": 38.900357166666666, "is_disabled": 0, "name": "0f33e29b00f1cb36be337fe849d22856", "fusion_lat": 0.0, "rental_uris": {"ios": "https://dc.lft.to/lastmile_qr_scan", "android": "https://dc.lft.to/lastmile_qr_scan"}, "lon": -76.986958, "type": "electric_scooter"}, {"bike_id": "0d78a1226974b11b97faa2e891fb13d0", "is_reserved": 0, "fusion_lon": 0.0, "lat": 38.93162, "is_disabled": 0, "name": "0d78a1226974b11b97faa2e891fb13d0", "fusion_lat": 0.0, "rental_uris": {"ios": "https://dc.lft.to/lastmile_qr_scan", "android": "https://dc.lft.to/lastmile_qr_scan"}, "lon": -77.03628966666666, "type": "electric_scooter"}, {"bike_id": "d6f4ac483f9dd2642f4903341321adb6", "is_reserved": 0, "fusion_lon": 0.0, "lat": 38.918078, "is_disabled": 0, "name": "d6f4ac483f9dd2642f4903341321adb6", "fusion_lat": 0.0, "rental_uris": {"ios": "https://dc.lft.to/lastmile_qr_scan", "android": "https://dc.lft.to/lastmile_qr_scan"}, "lon": -77.035645, "type": "electric_scooter"}, {"bike_id": "ea6f781c9f8bd5aade9044f4e2f7057b", "is_reserved": 0, "fusion_lon": 0.0, "lat": 38.879002166666666, "is_disabled": 0, "name": "ea6f781c9f8bd5aade9044f4e2f7057b", "fusion_lat": 0.0, "rental_uris": {"ios": "https://dc.lft.to/lastmile_qr_scan", "android": "https://dc.lft.to/lastmile_qr_scan"}, "lon": -77.0219655, "type": "electric_scooter"}, {"bike_id": "461a430b456e79f6b8c1767fb2daf3ee", "is_reserved": 0, "fusion_lon": 0.0, "lat": 38.896846333333336, "is_disabled": 0, "name": "461a430b456e79f6b8c1767fb2daf3ee", "fusion_lat": 0.0, "rental_uris": {"ios": "https://dc.lft.to/lastmile_qr_scan", "android": "https://dc.lft.to/lastmile_qr_scan"}, "lon": -76.99624916666667, "type": "electric_scooter"}, {"bike_id": "66c28485800b4fe6d8a269c9b1059ff3", "is_reserved": 0, "fusion_lon": 0.0, "lat": 38.902599333333335, "is_disabled": 0, "name": "66c28485800b4fe6d8a269c9b1059ff3", "fusion_lat": 0.0, "rental_uris": {"ios": "https://dc.lft.to/lastmile_qr_scan", "android": "https://dc.lft.to/lastmile_qr_scan"}, "lon": -77.01779566666667, "type": "electric_scooter"}, {"bike_id": "1dd09cc1a249c12ad4b36ecb6e30e5de", "is_reserved": 0, "fusion_lon": 0.0, "lat": 38.91274116666666, "is_disabled": 0, "name": "1dd09cc1a249c12ad4b36ecb6e30e5de", "fusion_lat": 0.0, "rental_uris": {"ios": "https://dc.lft.to/lastmile_qr_scan", "android": "https://dc.lft.to/lastmile_qr_scan"}, "lon": -77.026911, "type": "electric_scooter"}, {"bike_id": "f3b53ffef60623bca1ed43679e88421e", "is_reserved": 0, "fusion_lon": 0.0, "lat": 38.912775, "is_disabled": 0, "name": "f3b53ffef60623bca1ed43679e88421e", "fusion_lat": 0.0, "rental_uris": {"ios": "https://dc.lft.to/lastmile_qr_scan", "android": "https://dc.lft.to/lastmile_qr_scan"}, "lon": -77.01351316666667, "type": "electric_scooter"}, {"bike_id": "b21fbad111203790fd7f040b1e3d47ee", "is_reserved": 0, "fusion_lon": 0.0, "lat": 38.91932633333333, "is_disabled": 0, "name": "b21fbad111203790fd7f040b1e3d47ee", "fusion_lat": 0.0, "rental_uris": {"ios": "https://dc.lft.to/lastmile_qr_scan", "android": "https://dc.lft.to/lastmile_qr_scan"}, "lon": -77.04498216666667, "type": "electric_scooter"}, {"bike_id": "1e634ea3086235d6b83b1d191dc62585", "is_reserved": 0, "fusion_lon": 0.0, "lat": 38.90623433333333, "is_disabled": 0, "name": "1e634ea3086235d6b83b1d191dc62585", "fusion_lat": 0.0, "rental_uris": {"ios": "https://dc.lft.to/lastmile_qr_scan", "android": "https://dc.lft.to/lastmile_qr_scan"}, "lon": -77.041153, "type": "electric_scooter"}, {"bike_id": "9e61ebf1cc81d04d1cd483860a3e2407", "is_reserved": 0, "fusion_lon": 0.0, "lat": 38.900961, "is_disabled": 0, "name": "9e61ebf1cc81d04d1cd483860a3e2407", "fusion_lat": 0.0, "rental_uris": {"ios": "https://dc.lft.to/lastmile_qr_scan", "android": "https://dc.lft.to/lastmile_qr_scan"}, "lon": -76.97466616666667, "type": "electric_scooter"}, {"bike_id": "a510307ed0b743f55bfbe8c0eed075f0", "is_reserved": 0, "fusion_lon": 0.0, "lat": 38.909617833333336, "is_disabled": 0, "name": "a510307ed0b743f55bfbe8c0eed075f0", "fusion_lat": 0.0, "rental_uris": {"ios": "https://dc.lft.to/lastmile_qr_scan", "android": "https://dc.lft.to/lastmile_qr_scan"}, "lon": -77.02553433333334, "type": "electric_scooter"}, {"bike_id": "5529a9973b52edf2b52bdf025ddc4e38", "is_reserved": 0, "fusion_lon": 0.0, "lat": 38.8926455, "is_disabled": 0, "name": "5529a9973b52edf2b52bdf025ddc4e38", "fusion_lat": 0.0, "rental_uris": {"ios": "https://dc.lft.to/lastmile_qr_scan", "android": "https://dc.lft.to/lastmile_qr_scan"}, "lon": -77.0220995, "type": "electric_bike"}, {"bike_id": "65880350999cc5fcabb081fc16e85584", "is_reserved": 0, "fusion_lon": 0.0, "lat": 38.915547833333335, "is_disabled": 0, "name": "65880350999cc5fcabb081fc16e85584", "fusion_lat": 0.0, "rental_uris": {"ios": "https://dc.lft.to/lastmile_qr_scan", "android": "https://dc.lft.to/lastmile_qr_scan"}, "lon": -77.038628, "type": "electric_scooter"}, {"bike_id": "a1e60a641c81ddd2d03eb9b3101079e7", "is_reserved": 0, "fusion_lon": 0.0, "lat": 38.89728566666667, "is_disabled": 0, "name": "a1e60a641c81ddd2d03eb9b3101079e7", "fusion_lat": 0.0, "rental_uris": {"ios": "https://dc.lft.to/lastmile_qr_scan", "android": "https://dc.lft.to/lastmile_qr_scan"}, "lon": -77.04335283333333, "type": "electric_scooter"}, {"bike_id": "aa8d2a6730fa7d98cbd99e923d047739", "is_reserved": 0, "fusion_lon": 0.0, "lat": 38.907296, "is_disabled": 0, "name": "aa8d2a6730fa7d98cbd99e923d047739", "fusion_lat": 0.0, "rental_uris": {"ios": "https://dc.lft.to/lastmile_qr_scan", "android": "https://dc.lft.to/lastmile_qr_scan"}, "lon": -77.0321785, "type": "electric_scooter"}, {"bike_id": "4183f26ba69d791be5982dbfc8301b71", "is_reserved": 0, "fusion_lon": 0.0, "lat": 38.900188, "is_disabled": 0, "name": "4183f26ba69d791be5982dbfc8301b71", "fusion_lat": 0.0, "rental_uris": {"ios": "https://dc.lft.to/lastmile_qr_scan", "android": "https://dc.lft.to/lastmile_qr_scan"}, "lon": -77.04045733333334, "type": "electric_scooter"}, {"bike_id": "28b1fcf7998d4f3638400d5f4105cb75", "is_reserved": 0, "fusion_lon": 0.0, "lat": 38.90771616666667, "is_disabled": 0, "name": "28b1fcf7998d4f3638400d5f4105cb75", "fusion_lat": 0.0, "rental_uris": {"ios": "https://dc.lft.to/lastmile_qr_scan", "android": "https://dc.lft.to/lastmile_qr_scan"}, "lon": -77.03208066666667, "type": "electric_scooter"}, {"bike_id": "5d4e9903598775b8fe80d749160e8a85", "is_reserved": 0, "fusion_lon": 0.0, "lat": 38.917057166666666, "is_disabled": 0, "name": "5d4e9903598775b8fe80d749160e8a85", "fusion_lat": 0.0, "rental_uris": {"ios": "https://dc.lft.to/lastmile_qr_scan", "android": "https://dc.lft.to/lastmile_qr_scan"}, "lon": -77.00114566666667, "type": "electric_scooter"}, {"bike_id": "f79a0326566d07fd913f31ec08a40692", "is_reserved": 0, "fusion_lon": 0.0, "lat": 38.9270735, "is_disabled": 0, "name": "f79a0326566d07fd913f31ec08a40692", "fusion_lat": 0.0, "rental_uris": {"ios": "https://dc.lft.to/lastmile_qr_scan", "android": "https://dc.lft.to/lastmile_qr_scan"}, "lon": -77.03841533333333, "type": "electric_scooter"}, {"bike_id": "d4127dae4bd48ba0dbfb013b2f414e1b", "is_reserved": 0, "fusion_lon": 0.0, "lat": 38.9119735, "is_disabled": 0, "name": "d4127dae4bd48ba0dbfb013b2f414e1b", "fusion_lat": 0.0, "rental_uris": {"ios": "https://dc.lft.to/lastmile_qr_scan", "android": "https://dc.lft.to/lastmile_qr_scan"}, "lon": -77.06085166666666, "type": "electric_scooter"}, {"bike_id": "228def4f466744bc1f03ac779203689a", "is_reserved": 0, "fusion_lon": 0.0, "lat": 38.88589733333333, "is_disabled": 0, "name": "228def4f466744bc1f03ac779203689a", "fusion_lat": 0.0, "rental_uris": {"ios": "https://dc.lft.to/lastmile_qr_scan", "android": "https://dc.lft.to/lastmile_qr_scan"}, "lon": -77.017643, "type": "electric_scooter"}, {"bike_id": "940be6b3fdb220f592d7b4ef5f74f1fd", "is_reserved": 0, "fusion_lon": 0.0, "lat": 38.95643066666667, "is_disabled": 0, "name": "940be6b3fdb220f592d7b4ef5f74f1fd", "fusion_lat": 0.0, "rental_uris": {"ios": "https://dc.lft.to/lastmile_qr_scan", "android": "https://dc.lft.to/lastmile_qr_scan"}, "lon": -76.99742266666667, "type": "electric_bike"}, {"bike_id": "57adfd4a4c250d1d108f129637e5a4c8", "is_reserved": 0, "fusion_lon": 0.0, "lat": 38.951856666666664, "is_disabled": 0, "name": "57adfd4a4c250d1d108f129637e5a4c8", "fusion_lat": 0.0, "rental_uris": {"ios": "https://dc.lft.to/lastmile_qr_scan", "android": "https://dc.lft.to/lastmile_qr_scan"}, "lon": -76.93541333333333, "type": "electric_bike"}, {"bike_id": "d66c697b4a249eeb84dd7adac72688ac", "is_reserved": 0, "fusion_lon": 0.0, "lat": 38.8693085, "is_disabled": 0, "name": "d66c697b4a249eeb84dd7adac72688ac", "fusion_lat": 0.0, "rental_uris": {"ios": "https://dc.lft.to/lastmile_qr_scan", "android": "https://dc.lft.to/lastmile_qr_scan"}, "lon": -76.9601385, "type": "electric_bike"}, {"bike_id": "98d000df35725e34e4ed9813912b5839", "is_reserved": 0, "fusion_lon": 0.0, "lat": 38.912497333333334, "is_disabled": 0, "name": "98d000df35725e34e4ed9813912b5839", "fusion_lat": 0.0, "rental_uris": {"ios": "https://dc.lft.to/lastmile_qr_scan", "android": "https://dc.lft.to/lastmile_qr_scan"}, "lon": -77.03641016666667, "type": "electric_scooter"}, {"bike_id": "6318c608e630e9f536b60d33bb463e3d", "is_reserved": 0, "fusion_lon": 0.0, "lat": 38.92486, "is_disabled": 0, "name": "6318c608e630e9f536b60d33bb463e3d", "fusion_lat": 0.0, "rental_uris": {"ios": "https://dc.lft.to/lastmile_qr_scan", "android": "https://dc.lft.to/lastmile_qr_scan"}, "lon": -77.0283405, "type": "electric_scooter"}, {"bike_id": "7ebc3da492b13af25e129f991d6d0a49", "is_reserved": 0, "fusion_lon": 0.0, "lat": 38.92780166666667, "is_disabled": 0, "name": "7ebc3da492b13af25e129f991d6d0a49", "fusion_lat": 0.0, "rental_uris": {"ios": "https://dc.lft.to/lastmile_qr_scan", "android": "https://dc.lft.to/lastmile_qr_scan"}, "lon": -77.031981, "type": "electric_scooter"}, {"bike_id": "a6efe3dc8d5eb57bbd2eb2222d3ab246", "is_reserved": 0, "fusion_lon": 0.0, "lat": 38.8900395, "is_disabled": 0, "name": "a6efe3dc8d5eb57bbd2eb2222d3ab246", "fusion_lat": 0.0, "rental_uris": {"ios": "https://dc.lft.to/lastmile_qr_scan", "android": "https://dc.lft.to/lastmile_qr_scan"}, "lon": -77.04884983333334, "type": "electric_scooter"}, {"bike_id": "48083b10db80be829d031c2d0bef0334", "is_reserved": 0, "fusion_lon": 0.0, "lat": 38.906854, "is_disabled": 0, "name": "48083b10db80be829d031c2d0bef0334", "fusion_lat": 0.0, "rental_uris": {"ios": "https://dc.lft.to/lastmile_qr_scan", "android": "https://dc.lft.to/lastmile_qr_scan"}, "lon": -77.01339716666666, "type": "electric_scooter"}, {"bike_id": "9f34ecb77b55cf0ca9ebee94ad9f8604", "is_reserved": 0, "fusion_lon": 0.0, "lat": 38.8691465, "is_disabled": 0, "name": "9f34ecb77b55cf0ca9ebee94ad9f8604", "fusion_lat": 0.0, "rental_uris": {"ios": "https://dc.lft.to/lastmile_qr_scan", "android": "https://dc.lft.to/lastmile_qr_scan"}, "lon": -77.13181516666667, "type": "electric_bike"}, {"bike_id": "eeb062b4abb08ae5cdcf02b2955dd4f5", "is_reserved": 0, "fusion_lon": 0.0, "lat": 38.915402666666665, "is_disabled": 0, "name": "eeb062b4abb08ae5cdcf02b2955dd4f5", "fusion_lat": 0.0, "rental_uris": {"ios": "https://dc.lft.to/lastmile_qr_scan", "android": "https://dc.lft.to/lastmile_qr_scan"}, "lon": -77.03850633333333, "type": "electric_scooter"}, {"bike_id": "31ca02f8e1a8eb9b70b3beddfe4e18c3", "is_reserved": 0, "fusion_lon": 0.0, "lat": 38.93424233333333, "is_disabled": 0, "name": "31ca02f8e1a8eb9b70b3beddfe4e18c3", "fusion_lat": 0.0, "rental_uris": {"ios": "https://dc.lft.to/lastmile_qr_scan", "android": "https://dc.lft.to/lastmile_qr_scan"}, "lon": -77.043189, "type": "electric_scooter"}, {"bike_id": "681fb4915c057d8ca07b95f1c2c16024", "is_reserved": 0, "fusion_lon": 0.0, "lat": 38.90598833333333, "is_disabled": 0, "name": "681fb4915c057d8ca07b95f1c2c16024", "fusion_lat": 0.0, "rental_uris": {"ios": "https://dc.lft.to/lastmile_qr_scan", "android": "https://dc.lft.to/lastmile_qr_scan"}, "lon": -77.01318716666667, "type": "electric_scooter"}, {"bike_id": "7595e39e05e88444ed5862444eec7e7c", "is_reserved": 0, "fusion_lon": 0.0, "lat": 38.891938833333334, "is_disabled": 0, "name": "7595e39e05e88444ed5862444eec7e7c", "fusion_lat": 0.0, "rental_uris": {"ios": "https://dc.lft.to/lastmile_qr_scan", "android": "https://dc.lft.to/lastmile_qr_scan"}, "lon": -77.0297945, "type": "electric_scooter"}, {"bike_id": "91add34a2ba91b48014d0d5af0a613d4", "is_reserved": 0, "fusion_lon": 0.0, "lat": 38.911945833333334, "is_disabled": 0, "name": "91add34a2ba91b48014d0d5af0a613d4", "fusion_lat": 0.0, "rental_uris": {"ios": "https://dc.lft.to/lastmile_qr_scan", "android": "https://dc.lft.to/lastmile_qr_scan"}, "lon": -77.001988, "type": "electric_scooter"}, {"bike_id": "e4274429ecfb24e7fa067f5ebba11f5b", "is_reserved": 0, "fusion_lon": 0.0, "lat": 38.898313, "is_disabled": 0, "name": "e4274429ecfb24e7fa067f5ebba11f5b", "fusion_lat": 0.0, "rental_uris": {"ios": "https://dc.lft.to/lastmile_qr_scan", "android": "https://dc.lft.to/lastmile_qr_scan"}, "lon": -77.0330765, "type": "electric_scooter"}, {"bike_id": "7186d2769036cf7a5b501a6bd4a657bc", "is_reserved": 0, "fusion_lon": 0.0, "lat": 38.89194416666667, "is_disabled": 0, "name": "7186d2769036cf7a5b501a6bd4a657bc", "fusion_lat": 0.0, "rental_uris": {"ios": "https://dc.lft.to/lastmile_qr_scan", "android": "https://dc.lft.to/lastmile_qr_scan"}, "lon": -77.00245133333334, "type": "electric_bike"}, {"bike_id": "51bf205bc525fdd059414612355994ce", "is_reserved": 0, "fusion_lon": 0.0, "lat": 38.922432666666666, "is_disabled": 0, "name": "51bf205bc525fdd059414612355994ce", "fusion_lat": 0.0, "rental_uris": {"ios": "https://dc.lft.to/lastmile_qr_scan", "android": "https://dc.lft.to/lastmile_qr_scan"}, "lon": -77.01006866666667, "type": "electric_scooter"}, {"bike_id": "ef3c31d8e149cd7cdb0301df47e00cfb", "is_reserved": 0, "fusion_lon": 0.0, "lat": 38.90732033333333, "is_disabled": 0, "name": "ef3c31d8e149cd7cdb0301df47e00cfb", "fusion_lat": 0.0, "rental_uris": {"ios": "https://dc.lft.to/lastmile_qr_scan", "android": "https://dc.lft.to/lastmile_qr_scan"}, "lon": -77.04645016666667, "type": "electric_scooter"}, {"bike_id": "7918c42ecb8889dd11e80cc106de987d", "is_reserved": 0, "fusion_lon": 0.0, "lat": 38.9284525, "is_disabled": 0, "name": "7918c42ecb8889dd11e80cc106de987d", "fusion_lat": 0.0, "rental_uris": {"ios": "https://dc.lft.to/lastmile_qr_scan", "android": "https://dc.lft.to/lastmile_qr_scan"}, "lon": -77.0544195, "type": "electric_scooter"}, {"bike_id": "33feeb011d4d4620e54eab107597be37", "is_reserved": 0, "fusion_lon": 0.0, "lat": 38.8948465, "is_disabled": 0, "name": "33feeb011d4d4620e54eab107597be37", "fusion_lat": 0.0, "rental_uris": {"ios": "https://dc.lft.to/lastmile_qr_scan", "android": "https://dc.lft.to/lastmile_qr_scan"}, "lon": -77.02296516666667, "type": "electric_scooter"}, {"bike_id": "89226ddcc8819475fe5d7ab37e5a1c2d", "is_reserved": 0, "fusion_lon": 0.0, "lat": 38.89622416666667, "is_disabled": 0, "name": "89226ddcc8819475fe5d7ab37e5a1c2d", "fusion_lat": 0.0, "rental_uris": {"ios": "https://dc.lft.to/lastmile_qr_scan", "android": "https://dc.lft.to/lastmile_qr_scan"}, "lon": -76.99851083333333, "type": "electric_scooter"}, {"bike_id": "c532348c37e56b210a2761d40256c4a9", "is_reserved": 0, "fusion_lon": 0.0, "lat": 38.9027535, "is_disabled": 0, "name": "c532348c37e56b210a2761d40256c4a9", "fusion_lat": 0.0, "rental_uris": {"ios": "https://dc.lft.to/lastmile_qr_scan", "android": "https://dc.lft.to/lastmile_qr_scan"}, "lon": -77.0591825, "type": "electric_scooter"}, {"bike_id": "7fe00977574cb9afbf9dbe6706a91248", "is_reserved": 0, "fusion_lon": 0.0, "lat": 38.907185, "is_disabled": 0, "name": "7fe00977574cb9afbf9dbe6706a91248", "fusion_lat": 0.0, "rental_uris": {"ios": "https://dc.lft.to/lastmile_qr_scan", "android": "https://dc.lft.to/lastmile_qr_scan"}, "lon": -77.04356633333333, "type": "electric_scooter"}, {"bike_id": "9cdcc3eac366df38f7e979b385f48b79", "is_reserved": 0, "fusion_lon": 0.0, "lat": 38.89608833333333, "is_disabled": 0, "name": "9cdcc3eac366df38f7e979b385f48b79", "fusion_lat": 0.0, "rental_uris": {"ios": "https://dc.lft.to/lastmile_qr_scan", "android": "https://dc.lft.to/lastmile_qr_scan"}, "lon": -77.02848016666667, "type": "electric_scooter"}, {"bike_id": "1eae9e68c1292f4176d8a92d09de4e79", "is_reserved": 0, "fusion_lon": 0.0, "lat": 38.90794833333333, "is_disabled": 0, "name": "1eae9e68c1292f4176d8a92d09de4e79", "fusion_lat": 0.0, "rental_uris": {"ios": "https://dc.lft.to/lastmile_qr_scan", "android": "https://dc.lft.to/lastmile_qr_scan"}, "lon": -77.0096755, "type": "electric_scooter"}, {"bike_id": "1093fee7e808b6f28e3699eb2a8bbda6", "is_reserved": 0, "fusion_lon": 0.0, "lat": 38.9291245, "is_disabled": 0, "name": "1093fee7e808b6f28e3699eb2a8bbda6", "fusion_lat": 0.0, "rental_uris": {"ios": "https://dc.lft.to/lastmile_qr_scan", "android": "https://dc.lft.to/lastmile_qr_scan"}, "lon": -77.03176916666666, "type": "electric_scooter"}, {"bike_id": "1795888f0a8f9fdfe6d90e26d7066c27", "is_reserved": 0, "fusion_lon": 0.0, "lat": 38.893856666666665, "is_disabled": 0, "name": "1795888f0a8f9fdfe6d90e26d7066c27", "fusion_lat": 0.0, "rental_uris": {"ios": "https://dc.lft.to/lastmile_qr_scan", "android": "https://dc.lft.to/lastmile_qr_scan"}, "lon": -77.02253183333333, "type": "electric_bike"}, {"bike_id": "a46ef2a4704220b87b96b1a9f73557b1", "is_reserved": 0, "fusion_lon": 0.0, "lat": 38.9192805, "is_disabled": 0, "name": "a46ef2a4704220b87b96b1a9f73557b1", "fusion_lat": 0.0, "rental_uris": {"ios": "https://dc.lft.to/lastmile_qr_scan", "android": "https://dc.lft.to/lastmile_qr_scan"}, "lon": -77.0006865, "type": "electric_scooter"}, {"bike_id": "b5429a18dd1f468693cbf839b1171777", "is_reserved": 0, "fusion_lon": 0.0, "lat": 38.902665166666665, "is_disabled": 0, "name": "b5429a18dd1f468693cbf839b1171777", "fusion_lat": 0.0, "rental_uris": {"ios": "https://dc.lft.to/lastmile_qr_scan", "android": "https://dc.lft.to/lastmile_qr_scan"}, "lon": -77.03471733333333, "type": "electric_scooter"}, {"bike_id": "bdc44a9ee797cabeb09ca0a7e70a791a", "is_reserved": 0, "fusion_lon": 0.0, "lat": 38.90761033333333, "is_disabled": 0, "name": "bdc44a9ee797cabeb09ca0a7e70a791a", "fusion_lat": 0.0, "rental_uris": {"ios": "https://dc.lft.to/lastmile_qr_scan", "android": "https://dc.lft.to/lastmile_qr_scan"}, "lon": -77.03205383333334, "type": "electric_scooter"}, {"bike_id": "7c2aa7d38eb9c343b0241cd892629edb", "is_reserved": 0, "fusion_lon": 0.0, "lat": 38.887044333333336, "is_disabled": 0, "name": "7c2aa7d38eb9c343b0241cd892629edb", "fusion_lat": 0.0, "rental_uris": {"ios": "https://dc.lft.to/lastmile_qr_scan", "android": "https://dc.lft.to/lastmile_qr_scan"}, "lon": -77.0015195, "type": "electric_scooter"}, {"bike_id": "0974c22560f1b40531cd5b9aec813700", "is_reserved": 0, "fusion_lon": 0.0, "lat": 38.91879933333333, "is_disabled": 0, "name": "0974c22560f1b40531cd5b9aec813700", "fusion_lat": 0.0, "rental_uris": {"ios": "https://dc.lft.to/lastmile_qr_scan", "android": "https://dc.lft.to/lastmile_qr_scan"}, "lon": -77.04461783333333, "type": "electric_scooter"}, {"bike_id": "b58ea2de55290699b93b6a1ebe211e6d", "is_reserved": 0, "fusion_lon": 0.0, "lat": 38.90525316666667, "is_disabled": 0, "name": "b58ea2de55290699b93b6a1ebe211e6d", "fusion_lat": 0.0, "rental_uris": {"ios": "https://dc.lft.to/lastmile_qr_scan", "android": "https://dc.lft.to/lastmile_qr_scan"}, "lon": -77.065332, "type": "electric_scooter"}, {"bike_id": "21f31302e9f4ecbec5a4b9147261f898", "is_reserved": 0, "fusion_lon": 0.0, "lat": 38.89831, "is_disabled": 0, "name": "21f31302e9f4ecbec5a4b9147261f898", "fusion_lat": 0.0, "rental_uris": {"ios": "https://dc.lft.to/lastmile_qr_scan", "android": "https://dc.lft.to/lastmile_qr_scan"}, "lon": -76.98032933333333, "type": "electric_scooter"}, {"bike_id": "dc3b982d4e8c6ee2f13c318b16fbd08a", "is_reserved": 0, "fusion_lon": 0.0, "lat": 38.89558366666667, "is_disabled": 0, "name": "dc3b982d4e8c6ee2f13c318b16fbd08a", "fusion_lat": 0.0, "rental_uris": {"ios": "https://dc.lft.to/lastmile_qr_scan", "android": "https://dc.lft.to/lastmile_qr_scan"}, "lon": -77.02564783333334, "type": "electric_scooter"}, {"bike_id": "1eb0c28263ac8488a908964c0dda5d33", "is_reserved": 0, "fusion_lon": 0.0, "lat": 38.879949, "is_disabled": 0, "name": "1eb0c28263ac8488a908964c0dda5d33", "fusion_lat": 0.0, "rental_uris": {"ios": "https://dc.lft.to/lastmile_qr_scan", "android": "https://dc.lft.to/lastmile_qr_scan"}, "lon": -76.985387, "type": "electric_scooter"}, {"bike_id": "67e4f527c2d1611096b83433fd2dc92a", "is_reserved": 0, "fusion_lon": 0.0, "lat": 38.908316666666664, "is_disabled": 0, "name": "67e4f527c2d1611096b83433fd2dc92a", "fusion_lat": 0.0, "rental_uris": {"ios": "https://dc.lft.to/lastmile_qr_scan", "android": "https://dc.lft.to/lastmile_qr_scan"}, "lon": -76.99696116666667, "type": "electric_scooter"}, {"bike_id": "ff193b1f7ac81ce2f65695cacf48d91b", "is_reserved": 0, "fusion_lon": 0.0, "lat": 38.93340583333333, "is_disabled": 0, "name": "ff193b1f7ac81ce2f65695cacf48d91b", "fusion_lat": 0.0, "rental_uris": {"ios": "https://dc.lft.to/lastmile_qr_scan", "android": "https://dc.lft.to/lastmile_qr_scan"}, "lon": -77.0570935, "type": "electric_scooter"}, {"bike_id": "9c435043e2c9c64cb3178dba0804903f", "is_reserved": 0, "fusion_lon": 0.0, "lat": 38.89716283333333, "is_disabled": 0, "name": "9c435043e2c9c64cb3178dba0804903f", "fusion_lat": 0.0, "rental_uris": {"ios": "https://dc.lft.to/lastmile_qr_scan", "android": "https://dc.lft.to/lastmile_qr_scan"}, "lon": -77.0269025, "type": "electric_scooter"}, {"bike_id": "925fd847353809e1b5f3496f77b6a9c7", "is_reserved": 0, "fusion_lon": 0.0, "lat": 38.944121333333335, "is_disabled": 0, "name": "925fd847353809e1b5f3496f77b6a9c7", "fusion_lat": 0.0, "rental_uris": {"ios": "https://dc.lft.to/lastmile_qr_scan", "android": "https://dc.lft.to/lastmile_qr_scan"}, "lon": -77.06240433333333, "type": "electric_scooter"}, {"bike_id": "89bb6588b5fd4eabcc473e38ef25076b", "is_reserved": 0, "fusion_lon": 0.0, "lat": 39.03045083333333, "is_disabled": 0, "name": "89bb6588b5fd4eabcc473e38ef25076b", "fusion_lat": 0.0, "rental_uris": {"ios": "https://dc.lft.to/lastmile_qr_scan", "android": "https://dc.lft.to/lastmile_qr_scan"}, "lon": -77.0948375, "type": "electric_bike"}, {"bike_id": "bdf7a98976fdd9d72a9d85beb866f18e", "is_reserved": 0, "fusion_lon": 0.0, "lat": 38.89196666666667, "is_disabled": 0, "name": "bdf7a98976fdd9d72a9d85beb866f18e", "fusion_lat": 0.0, "rental_uris": {"ios": "https://dc.lft.to/lastmile_qr_scan", "android": "https://dc.lft.to/lastmile_qr_scan"}, "lon": -77.0154805, "type": "electric_scooter"}, {"bike_id": "02264d0cddd0c78f443f721b0a0ff7d1", "is_reserved": 0, "fusion_lon": 0.0, "lat": 38.90030433333333, "is_disabled": 0, "name": "02264d0cddd0c78f443f721b0a0ff7d1", "fusion_lat": 0.0, "rental_uris": {"ios": "https://dc.lft.to/lastmile_qr_scan", "android": "https://dc.lft.to/lastmile_qr_scan"}, "lon": -76.99765583333334, "type": "electric_scooter"}, {"bike_id": "3a0d98fdaf066aff02cd2c31c600bd63", "is_reserved": 0, "fusion_lon": 0.0, "lat": 38.90767233333333, "is_disabled": 0, "name": "3a0d98fdaf066aff02cd2c31c600bd63", "fusion_lat": 0.0, "rental_uris": {"ios": "https://dc.lft.to/lastmile_qr_scan", "android": "https://dc.lft.to/lastmile_qr_scan"}, "lon": -77.06917866666667, "type": "electric_scooter"},