{"data": {"bikes": [{"lat": 38.91931916666667, "is_disabled": 0, "type": "electric_scooter", "lon": -77.0230465, "bike_id": "2581b7573d99350a1db7795b2e019f13", "fusion_lat": 0.0, "name": "2581b7573d99350a1db7795b2e019f13", "is_reserved": 0, "rental_uris": {"android": "https://dc.lft.to/lastmile_qr_scan", "ios": "https://dc.lft.to/lastmile_qr_scan"}, "fusion_lon": 0.0}, {"lat": 38.92236333333334, "is_disabled": 0, "type": "electric_scooter", "lon": -77.04575483333333, "bike_id": "33bf2c272cf1afcb909bb74c8d647471", "fusion_lat": 0.0, "name": "33bf2c272cf1afcb909bb74c8d647471", "is_reserved": 0, "rental_uris": {"android": "https://dc.lft.to/lastmile_qr_scan", "ios": "https://dc.lft.to/lastmile_qr_scan"}, "fusion_lon": 0.0}, {"lat": 38.919177166666664, "is_disabled": 0, "type": "electric_scooter", "lon": -77.0705625, "bike_id": "51c157ce85786c459be3927d439358bd", "fusion_lat": 0.0, "name": "51c157ce85786c459be3927d439358bd", "is_reserved": 0, "rental_uris": {"android": "https://dc.lft.to/lastmile_qr_scan", "ios": "https://dc.lft.to/lastmile_qr_scan"}, "fusion_lon": 0.0}, {"lat": 38.89969633333333, "is_disabled": 0, "type": "electric_scooter", "lon": -77.00717966666667, "bike_id": "982c7807ac22f42ce050dd9c63f975c0", "fusion_lat": 0.0, "name": "982c7807ac22f42ce050dd9c63f975c0", "is_reserved": 0, "rental_uris": {"android": "https://dc.lft.to/lastmile_qr_scan", "ios": "https://dc.lft.to/lastmile_qr_scan"}, "fusion_lon": 0.0}, {"lat": 38.90525016666667, "is_disabled": 0, "type": "electric_scooter", "lon": -77.0576615, "bike_id": "aa269ace60f2c3b803c245b110bd7d01", "fusion_lat": 0.0, "name": "aa269ace60f2c3b803c245b110bd7d01", "is_reserved": 0, "rental_uris": {"android": "https://dc.lft.to/lastmile_qr_scan", "ios": "https://dc.lft.to/lastmile_qr_scan"}, "fusion_lon": 0.0}, {"lat": 38.850375, "is_disabled": 0, "type": "electric_bike", "lon": -76.9729625, "bike_id": "2cdaa4b2fc19ed59a4ff2629d0349f54", "fusion_lat": 0.0, "name": "2cdaa4b2fc19ed59a4ff2629d0349f54", "is_reserved": 0, "rental_uris": {"android": "https://dc.lft.to/lastmile_qr_scan", "ios": "https://dc.lft.to/lastmile_qr_scan"}, "fusion_lon": 0.0}, {"lat": 38.8921915, "is_disabled": 0, "type": "electric_scooter", "lon": -77.04373083333333, "bike_id": "6ca56102ce8a810e489627c2d9dd2d75", "fusion_lat": 0.0, "name": "6ca56102ce8a810e489627c2d9dd2d75", "is_reserved": 0, "rental_uris": {"android": "https://dc.lft.to/lastmile_qr_scan", "ios": "https://dc.lft.to/lastmile_qr_scan"}, "fusion_lon": 0.0}, {"lat": 38.89221916666666, "is_disabled": 0, "type": "electric_scooter", "lon": -77.04197666666667, "bike_id": "c6b9549f55666946502802d440afa5ce", "fusion_lat": 0.0, "name": "c6b9549f55666946502802d440afa5ce", "is_reserved": 0, "rental_uris": {"android": "https://dc.lft.to/lastmile_qr_scan", "ios": "https://dc.lft.to/lastmile_qr_scan"}, "fusion_lon": 0.0}, {"lat": 38.90000766666667, "is_disabled": 0, "type": "electric_scooter", "lon": -76.99856483333333, "bike_id": "32ea08001c62672fd39120260daafae0", "fusion_lat": 0.0, "name": "32ea08001c62672fd39120260daafae0", "is_reserved": 0, "rental_uris": {"android": "https://dc.lft.to/lastmile_qr_scan", "ios": "https://dc.lft.to/lastmile_qr_scan"}, "fusion_lon": 0.0}, {"lat": 38.92610966666667, "is_disabled": 0, "type": "electric_scooter", "lon": -77.02163183333333, "bike_id": "161ca1a9d58a3bb911932487163e9e16", "fusion_lat": 0.0, "name": "161ca1a9d58a3bb911932487163e9e16", "is_reserved": 0, "rental_uris": {"android": "https://dc.lft.to/lastmile_qr_scan", "ios": "https://dc.lft.to/lastmile_qr_scan"}, "fusion_lon": 0.0}, {"lat": 38.9081345, "is_disabled": 0, "type": "electric_scooter", "lon": -77.0184505, "bike_id": "205cc46c9ad63c10c2d53dd90885bf2c", "fusion_lat": 0.0, "name": "205cc46c9ad63c10c2d53dd90885bf2c", "is_reserved": 0, "rental_uris": {"android": "https://dc.lft.to/lastmile_qr_scan", "ios": "https://dc.lft.to/lastmile_qr_scan"}, "fusion_lon": 0.0}, {"lat": 38.893508, "is_disabled": 0, "type": "electric_scooter", "lon": -77.013521, "bike_id": "acb5096b750ffa27804b3a719ec12246", "fusion_lat": 0.0, "name": "acb5096b750ffa27804b3a719ec12246", "is_reserved": 0, "rental_uris": {"android": "https://dc.lft.to/lastmile_qr_scan", "ios": "https://dc.lft.to/lastmile_qr_scan"}, "fusion_lon": 0.0}, {"lat": 38.905380666666666, "is_disabled": 0, "type": "electric_scooter", "lon": -77.04184833333333, "bike_id": "860169d4be29d2888a6619bb917336e0", "fusion_lat": 0.0, "name": "860169d4be29d2888a6619bb917336e0", "is_reserved": 0, "rental_uris": {"android": "https://dc.lft.to/lastmile_qr_scan", "ios": "https://dc.lft.to/lastmile_qr_scan"}, "fusion_lon": 0.0}, {"lat": 38.902693666666664, "is_disabled": 0, "type": "electric_scooter", "lon": -77.05262833333333, "bike_id": "c23af18bdf24daf493511f85f7f9cd5a", "fusion_lat": 0.0, "name": "c23af18bdf24daf493511f85f7f9cd5a", "is_reserved": 0, "rental_uris": {"android": "https://dc.lft.to/lastmile_qr_scan", "ios": "https://dc.lft.to/lastmile_qr_scan"}, "fusion_lon": 0.0}, {"lat": 38.89005433333333, "is_disabled": 0, "type": "electric_scooter", "lon": -76.93737866666666, "bike_id": "5fef0732afd05f894ad92a652a3c62d4", "fusion_lat": 0.0, "name": "5fef0732afd05f894ad92a652a3c62d4", "is_reserved": 0, "rental_uris": {"android": "https://dc.lft.to/lastmile_qr_scan", "ios": "https://dc.lft.to/lastmile_qr_scan"}, "fusion_lon": 0.0}, {"lat": 38.905658, "is_disabled": 0, "type": "electric_scooter", "lon": -77.00609183333333, "bike_id": "86f373cf9474fab1a4717f3b1f8d1319", "fusion_lat": 0.0, "name": "86f373cf9474fab1a4717f3b1f8d1319", "is_reserved": 0, "rental_uris": {"android": "https://dc.lft.to/lastmile_qr_scan", "ios": "https://dc.lft.to/lastmile_qr_scan"}, "fusion_lon": 0.0}, {"lat": 38.870678833333336, "is_disabled": 0, "type": "electric_bike", "lon": -76.97839416666666, "bike_id": "f6b22ecf6ff5f58d40934a901ffd9a01", "fusion_lat": 0.0, "name": "f6b22ecf6ff5f58d40934a901ffd9a01", "is_reserved": 0, "rental_uris": {"android": "https://dc.lft.to/lastmile_qr_scan", "ios": "https://dc.lft.to/lastmile_qr_scan"}, "fusion_lon": 0.0}, {"lat": 38.89222016666667, "is_disabled": 0, "type": "electric_scooter", "lon": -77.0221205, "bike_id": "eb486b8ea60ade69dd3d3ac610abf170", "fusion_lat": 0.0, "name": "eb486b8ea60ade69dd3d3ac610abf170", "is_reserved": 0, "rental_uris": {"android": "https://dc.lft.to/lastmile_qr_scan", "ios": "https://dc.lft.to/lastmile_qr_scan"}, "fusion_lon": 0.0}, {"lat": 38.883898, "is_disabled": 0, "type": "electric_scooter", "lon": -76.98531416666667, "bike_id": "847abd0e5bb37f428cb1fe4404e4fac5", "fusion_lat": 0.0, "name": "847abd0e5bb37f428cb1fe4404e4fac5", "is_reserved": 0, "rental_uris": {"android": "https://dc.lft.to/lastmile_qr_scan", "ios": "https://dc.lft.to/lastmile_qr_scan"}, "fusion_lon": 0.0}, {"lat": 38.914503833333335, "is_disabled": 0, "type": "electric_bike", "lon": -76.972728, "bike_id": "8619a180f1639e1dab5507cc0d0a90eb", "fusion_lat": 0.0, "name": "8619a180f1639e1dab5507cc0d0a90eb", "is_reserved": 0, "rental_uris": {"android": "https://dc.lft.to/lastmile_qr_scan", "ios": "https://dc.lft.to/lastmile_qr_scan"}, "fusion_lon": 0.0}, {"lat": 38.89038566666667, "is_disabled": 0, "type": "electric_scooter", "lon": -76.93753716666667, "bike_id": "157b73c5b6b2e84d0dd1a0522a2a2c90", "fusion_lat": 0.0, "name": "157b73c5b6b2e84d0dd1a0522a2a2c90", "is_reserved": 0, "rental_uris": {"android": "https://dc.lft.to/lastmile_qr_scan", "ios": "https://dc.lft.to/lastmile_qr_scan"}, "fusion_lon": 0.0}, {"lat": 38.93296133333333, "is_disabled": 0, "type": "electric_scooter", "lon": -77.045352, "bike_id": "368940ebffa143829df5a0f11e5ed322", "fusion_lat": 0.0, "name": "368940ebffa143829df5a0f11e5ed322", "is_reserved": 0, "rental_uris": {"android": "https://dc.lft.to/lastmile_qr_scan", "ios": "https://dc.lft.to/lastmile_qr_scan"}, "fusion_lon": 0.0}, {"lat": 38.92876416666667, "is_disabled": 0, "type": "electric_scooter", "lon": -77.037144, "bike_id": "bb0d0d0a08eb3a668ec386e27066a2fa", "fusion_lat": 0.0, "name": "bb0d0d0a08eb3a668ec386e27066a2fa", "is_reserved": 0, "rental_uris": {"android": "https://dc.lft.to/lastmile_qr_scan", "ios": "https://dc.lft.to/lastmile_qr_scan"}, "fusion_lon": 0.0}, {"lat": 38.914604, "is_disabled": 0, "type": "electric_scooter", "lon": -77.01436383333333, "bike_id": "92dd734cd184f16efa259c24ebdfbafa", "fusion_lat": 0.0, "name": "92dd734cd184f16efa259c24ebdfbafa", "is_reserved": 0, "rental_uris": {"android": "https://dc.lft.to/lastmile_qr_scan", "ios": "https://dc.lft.to/lastmile_qr_scan"}, "fusion_lon": 0.0}, {"lat": 38.9005, "is_disabled": 0, "type": "electric_scooter", "lon": -77.03309233333333, "bike_id": "dbcaa90232af1b73adaf00617400bdaa", "fusion_lat": 0.0, "name": "dbcaa90232af1b73adaf00617400bdaa", "is_reserved": 0, "rental_uris": {"android": "https://dc.lft.to/lastmile_qr_scan", "ios": "https://dc.lft.to/lastmile_qr_scan"}, "fusion_lon": 0.0}, {"lat": 38.87944816666667, "is_disabled": 0, "type": "electric_scooter", "lon": -77.00874516666667, "bike_id": "cd6375bde9d9c4df46578a15d5a362a7", "fusion_lat": 0.0, "name": "cd6375bde9d9c4df46578a15d5a362a7", "is_reserved": 0, "rental_uris": {"android": "https://dc.lft.to/lastmile_qr_scan", "ios": "https://dc.lft.to/lastmile_qr_scan"}, "fusion_lon": 0.0}, {"lat": 38.90673816666666, "is_disabled": 0, "type": "electric_scooter", "lon": -77.03829933333333, "bike_id": "728ff95cdce438f101b522b3690533fd", "fusion_lat": 0.0, "name": "728ff95cdce438f101b522b3690533fd", "is_reserved": 0, "rental_uris": {"android": "https://dc.lft.to/lastmile_qr_scan", "ios": "https://dc.lft.to/lastmile_qr_scan"}, "fusion_lon": 0.0}, {"lat": 38.85927483333333, "is_disabled": 0, "type": "electric_scooter", "lon": -76.99709516666667, "bike_id": "dac073d8892d8dcc5fcfe0ae2781aae1", "fusion_lat": 0.0, "name": "dac073d8892d8dcc5fcfe0ae2781aae1", "is_reserved": 0, "rental_uris": {"android": "https://dc.lft.to/lastmile_qr_scan", "ios": "https://dc.lft.to/lastmile_qr_scan"}, "fusion_lon": 0.0}, {"lat": 38.921559333333335, "is_disabled": 0, "type": "electric_scooter", "lon": -77.03517316666667, "bike_id": "29cc0cd93e24def2ae81e690521838aa", "fusion_lat": 0.0, "name": "29cc0cd93e24def2ae81e690521838aa", "is_reserved": 0, "rental_uris": {"android": "https://dc.lft.to/lastmile_qr_scan", "ios": "https://dc.lft.to/lastmile_qr_scan"}, "fusion_lon": 0.0}, {"lat": 38.955586833333335, "is_disabled": 0, "type": "electric_scooter", "lon": -77.02229683333333, "bike_id": "48f21e0c567845ba9ba8ac2cb3b7d0f2", "fusion_lat": 0.0, "name": "48f21e0c567845ba9ba8ac2cb3b7d0f2", "is_reserved": 0, "rental_uris": {"android": "https://dc.lft.to/lastmile_qr_scan", "ios": "https://dc.lft.to/lastmile_qr_scan"}, "fusion_lon": 0.0}, {"lat": 38.905666, "is_disabled": 0, "type": "electric_scooter", "lon": -77.04339216666666, "bike_id": "d179a63a145cbf7b6b66b1e9fe064613", "fusion_lat": 0.0, "name": "d179a63a145cbf7b6b66b1e9fe064613", "is_reserved": 0, "rental_uris": {"android": "https://dc.lft.to/lastmile_qr_scan", "ios": "https://dc.lft.to/lastmile_qr_scan"}, "fusion_lon": 0.0}, {"lat": 38.90775, "is_disabled": 0, "type": "electric_scooter", "lon": -76.983054, "bike_id": "b9f0b45bcbe98d5a06081a9cd7111c02", "fusion_lat": 0.0, "name": "b9f0b45bcbe98d5a06081a9cd7111c02", "is_reserved": 0, "rental_uris": {"android": "https://dc.lft.to/lastmile_qr_scan", "ios": "https://dc.lft.to/lastmile_qr_scan"}, "fusion_lon": 0.0}, {"lat": 38.8634805, "is_disabled": 0, "type": "electric_scooter", "lon": -76.990065, "bike_id": "c32efb49c883fda2a7836a00b5809523", "fusion_lat": 0.0, "name": "c32efb49c883fda2a7836a00b5809523", "is_reserved": 0, "rental_uris": {"android": "https://dc.lft.to/lastmile_qr_scan", "ios": "https://dc.lft.to/lastmile_qr_scan"}, "fusion_lon": 0.0}, {"lat": 38.89923316666667, "is_disabled": 0, "type": "electric_scooter", "lon": -76.933763, "bike_id": "4736a8fd3b883383af5c0bc5f1ba9d71", "fusion_lat": 0.0, "name": "4736a8fd3b883383af5c0bc5f1ba9d71", "is_reserved": 0, "rental_uris": {"android": "https://dc.lft.to/lastmile_qr_scan", "ios": "https://dc.lft.to/lastmile_qr_scan"}, "fusion_lon": 0.0}, {"lat": 38.922790666666664, "is_disabled": 0, "type": "electric_scooter", "lon": -77.0297045, "bike_id": "8671bc49a55396f2cd085442a35dca21", "fusion_lat": 0.0, "name": "8671bc49a55396f2cd085442a35dca21", "is_reserved": 0, "rental_uris": {"android": "https://dc.lft.to/lastmile_qr_scan", "ios": "https://dc.lft.to/lastmile_qr_scan"}, "fusion_lon": 0.0}, {"lat": 38.89879533333333, "is_disabled": 0, "type": "electric_scooter", "lon": -77.0533875, "bike_id": "9143cbfe9febfc88c4811d9c27fdbb7b", "fusion_lat": 0.0, "name": "9143cbfe9febfc88c4811d9c27fdbb7b", "is_reserved": 0, "rental_uris": {"android": "https://dc.lft.to/lastmile_qr_scan", "ios": "https://dc.lft.to/lastmile_qr_scan"}, "fusion_lon": 0.0}, {"lat": 38.936021333333336, "is_disabled": 0, "type": "electric_scooter", "lon": -77.03654516666667, "bike_id": "55dcbe061ca4eee5ffbc9b87400ebb93", "fusion_lat": 0.0, "name": "55dcbe061ca4eee5ffbc9b87400ebb93", "is_reserved": 0, "rental_uris": {"android": "https://dc.lft.to/lastmile_qr_scan", "ios": "https://dc.lft.to/lastmile_qr_scan"}, "fusion_lon": 0.0}, {"lat": 38.94832866666667, "is_disabled": 0, "type": "electric_bike", "lon": -77.038882, "bike_id": "1e1944f7a6380a8fc3b19d906032bb18", "fusion_lat": 0.0, "name": "1e1944f7a6380a8fc3b19d906032bb18", "is_reserved": 0, "rental_uris": {"android": "https://dc.lft.to/lastmile_qr_scan", "ios": "https://dc.lft.to/lastmile_qr_scan"}, "fusion_lon": 0.0}, {"lat": 38.955547, "is_disabled": 0, "type": "electric_bike", "lon": -76.93546616666667, "bike_id": "03e6d32f2ef8d7ed6e247c498f126123", "fusion_lat": 0.0, "name": "03e6d32f2ef8d7ed6e247c498f126123", "is_reserved": 0, "rental_uris": {"android": "https://dc.lft.to/lastmile_qr_scan", "ios": "https://dc.lft.to/lastmile_qr_scan"}, "fusion_lon": 0.0}, {"lat": 38.906722333333335, "is_disabled": 0, "type": "electric_scooter", "lon": -77.02702983333333, "bike_id": "f836338df13b6a66f75ece90bca964bc", "fusion_lat": 0.0, "name": "f836338df13b6a66f75ece90bca964bc", "is_reserved": 0, "rental_uris": {"android": "https://dc.lft.to/lastmile_qr_scan", "ios": "https://dc.lft.to/lastmile_qr_scan"}, "fusion_lon": 0.0}, {"lat": 38.89219, "is_disabled": 0, "type": "electric_scooter", "lon": -76.99586633333334, "bike_id": "177fb58c89bdf8bdfe711b5657c761e7", "fusion_lat": 0.0, "name": "177fb58c89bdf8bdfe711b5657c761e7", "is_reserved": 0, "rental_uris": {"android": "https://dc.lft.to/lastmile_qr_scan", "ios": "https://dc.lft.to/lastmile_qr_scan"}, "fusion_lon": 0.0}, {"lat": 38.9223695, "is_disabled": 0, "type": "electric_scooter", "lon": -77.04244033333333, "bike_id": "0e8f4af160a8c5952fcadef283412469", "fusion_lat": 0.0, "name": "0e8f4af160a8c5952fcadef283412469", "is_reserved": 0, "rental_uris": {"android": "https://dc.lft.to/lastmile_qr_scan", "ios": "https://dc.lft.to/lastmile_qr_scan"}, "fusion_lon": 0.0}, {"lat": 39.029364, "is_disabled": 0, "type": "electric_bike", "lon": -77.0492905, "bike_id": "b9e6468c55774bfdb3097ab512ed1c6d", "fusion_lat": 0.0, "name": "b9e6468c55774bfdb3097ab512ed1c6d", "is_reserved": 0, "rental_uris": {"android": "https://dc.lft.to/lastmile_qr_scan", "ios": "https://dc.lft.to/lastmile_qr_scan"}, "fusion_lon": 0.0}, {"lat": 38.9134255, "is_disabled": 0, "type": "electric_scooter", "lon": -77.04355316666667, "bike_id": "b8f6f6bc074853e65b6ba518d00f07fa", "fusion_lat": 0.0, "name": "b8f6f6bc074853e65b6ba518d00f07fa", "is_reserved": 0, "rental_uris": {"android": "https://dc.lft.to/lastmile_qr_scan", "ios": "https://dc.lft.to/lastmile_qr_scan"}, "fusion_lon": 0.0}, {"lat": 38.931135166666664, "is_disabled": 0, "type": "electric_scooter", "lon": -77.0384135, "bike_id": "84d49f4f05f94f15186155377700c696", "fusion_lat": 0.0, "name": "84d49f4f05f94f15186155377700c696", "is_reserved": 0, "rental_uris": {"android": "https://dc.lft.to/lastmile_qr_scan", "ios": "https://dc.lft.to/lastmile_qr_scan"}, "fusion_lon": 0.0}, {"lat": 38.911185333333336, "is_disabled": 0, "type": "electric_scooter", "lon": -77.043214, "bike_id": "4abaa9b6ae92babb342897437badb92a", "fusion_lat": 0.0, "name": "4abaa9b6ae92babb342897437badb92a", "is_reserved": 0, "rental_uris": {"android": "https://dc.lft.to/lastmile_qr_scan", "ios": "https://dc.lft.to/lastmile_qr_scan"}, "fusion_lon": 0.0}, {"lat": 38.884932666666664, "is_disabled": 0, "type": "electric_scooter", "lon": -77.0071365, "bike_id": "a4ebec9c81350a4fdd306a98c0ab42ba", "fusion_lat": 0.0, "name": "a4ebec9c81350a4fdd306a98c0ab42ba", "is_reserved": 0, "rental_uris": {"android": "https://dc.lft.to/lastmile_qr_scan", "ios": "https://dc.lft.to/lastmile_qr_scan"}, "fusion_lon": 0.0}, {"lat": 38.915519333333336, "is_disabled": 0, "type": "electric_scooter", "lon": -77.04186266666666, "bike_id": "c98453ea20c5322dc798ba519a3907bf", "fusion_lat": 0.0, "name": "c98453ea20c5322dc798ba519a3907bf", "is_reserved": 0, "rental_uris": {"android": "https://dc.lft.to/lastmile_qr_scan", "ios": "https://dc.lft.to/lastmile_qr_scan"}, "fusion_lon": 0.0}, {"lat": 38.807513666666665, "is_disabled": 0, "type": "electric_bike", "lon": -77.09454116666667, "bike_id": "32c023a86673138f2c36d7cd0efd3a79", "fusion_lat": 0.0, "name": "32c023a86673138f2c36d7cd0efd3a79", "is_reserved": 0, "rental_uris": {"android": "https://dc.lft.to/lastmile_qr_scan", "ios": "https://dc.lft.to/lastmile_qr_scan"}, "fusion_lon": 0.0}, {"lat": 38.91349666666667, "is_disabled": 0, "type": "electric_scooter", "lon": -77.03194166666667, "bike_id": "5ff281f96c3ef82830d57cf0916a0575", "fusion_lat": 0.0, "name": "5ff281f96c3ef82830d57cf0916a0575", "is_reserved": 0, "rental_uris": {"android": "https://dc.lft.to/lastmile_qr_scan", "ios": "https://dc.lft.to/lastmile_qr_scan"}, "fusion_lon": 0.0}, {"lat": 38.916633833333336, "is_disabled": 0, "type": "electric_scooter", "lon": -77.0220175, "bike_id": "465ea82a2771814d7e87f93fcdec07ec", "fusion_lat": 0.0, "name": "465ea82a2771814d7e87f93fcdec07ec", "is_reserved": 0, "rental_uris": {"android": "https://dc.lft.to/lastmile_qr_scan", "ios": "https://dc.lft.to/lastmile_qr_scan"}, "fusion_lon": 0.0}, {"lat": 38.902255, "is_disabled": 0, "type": "electric_scooter", "lon": -77.01787016666667, "bike_id": "8c49f407854d1448aaf140aa91252fd6", "fusion_lat": 0.0, "name": "8c49f407854d1448aaf140aa91252fd6", "is_reserved": 0, "rental_uris": {"android": "https://dc.lft.to/lastmile_qr_scan", "ios": "https://dc.lft.to/lastmile_qr_scan"}, "fusion_lon": 0.0}, {"lat": 38.911119666666664, "is_disabled": 0, "type": "electric_scooter", "lon": -77.02333583333333, "bike_id": "89df8a9a2632927825b0154438429635", "fusion_lat": 0.0, "name": "89df8a9a2632927825b0154438429635", "is_reserved": 0, "rental_uris": {"android": "https://dc.lft.to/lastmile_qr_scan", "ios": "https://dc.lft.to/lastmile_qr_scan"}, "fusion_lon": 0.0}, {"lat": 38.943069333333334, "is_disabled": 0, "type": "electric_scooter", "lon": -77.059246, "bike_id": "d249ec63b13f763e608c9a54694c397a", "fusion_lat": 0.0, "name": "d249ec63b13f763e608c9a54694c397a", "is_reserved": 0, "rental_uris": {"android": "https://dc.lft.to/lastmile_qr_scan", "ios": "https://dc.lft.to/lastmile_qr_scan"}, "fusion_lon": 0.0}, {"lat": 38.90804716666667, "is_disabled": 0, "type": "electric_scooter", "lon": -77.043642, "bike_id": "b67d50f955d7b7921701b3aee83b8e82", "fusion_lat": 0.0, "name": "b67d50f955d7b7921701b3aee83b8e82", "is_reserved": 0, "rental_uris": {"android": "https://dc.lft.to/lastmile_qr_scan", "ios": "https://dc.lft.to/lastmile_qr_scan"}, "fusion_lon": 0.0}, {"lat": 38.902876166666665, "is_disabled": 0, "type": "electric_bike", "lon": -77.06341466666667, "bike_id": "fd1be94ee530461f69c775ded27bf7b2", "fusion_lat": 0.0, "name": "fd1be94ee530461f69c775ded27bf7b2", "is_reserved": 0, "rental_uris": {"android": "https://dc.lft.to/lastmile_qr_scan", "ios": "https://dc.lft.to/lastmile_qr_scan"}, "fusion_lon": 0.0}, {"lat": 38.86381816666667, "is_disabled": 0, "type": "electric_scooter", "lon": -76.99253833333333, "bike_id": "48eb5ebac7734243986c0f701549d7fc", "fusion_lat": 0.0, "name": "48eb5ebac7734243986c0f701549d7fc", "is_reserved": 0, "rental_uris": {"android": "https://dc.lft.to/lastmile_qr_scan", "ios": "https://dc.lft.to/lastmile_qr_scan"}, "fusion_lon": 0.0}, {"lat": 38.91827283333333, "is_disabled": 0, "type": "electric_scooter", "lon": -77.0242015, "bike_id": "5b44f36c7db02aed8fb98ae255277313", "fusion_lat": 0.0, "name": "5b44f36c7db02aed8fb98ae255277313", "is_reserved": 0, "rental_uris": {"android": "https://dc.lft.to/lastmile_qr_scan", "ios": "https://dc.lft.to/lastmile_qr_scan"}, "fusion_lon": 0.0}, {"lat": 38.923564, "is_disabled": 0, "type": "electric_scooter", "lon": -77.04386283333334, "bike_id": "c262216965b5b368049204e7c3c1eb11", "fusion_lat": 0.0, "name": "c262216965b5b368049204e7c3c1eb11", "is_reserved": 0, "rental_uris": {"android": "https://dc.lft.to/lastmile_qr_scan", "ios": "https://dc.lft.to/lastmile_qr_scan"}, "fusion_lon": 0.0}, {"lat": 38.90966133333333, "is_disabled": 0, "type": "electric_scooter", "lon": -77.03814, "bike_id": "ca6600b79a4185ae6c32081aedd9075c", "fusion_lat": 0.0, "name": "ca6600b79a4185ae6c32081aedd9075c", "is_reserved": 0, "rental_uris": {"android": "https://dc.lft.to/lastmile_qr_scan", "ios": "https://dc.lft.to/lastmile_qr_scan"}, "fusion_lon": 0.0}, {"lat": 38.97836483333333, "is_disabled": 0, "type": "electric_bike", "lon": -77.026497, "bike_id": "d27ae09f7947e69e47258ee2638ff9e8", "fusion_lat": 0.0, "name": "d27ae09f7947e69e47258ee2638ff9e8", "is_reserved": 0, "rental_uris": {"android": "https://dc.lft.to/lastmile_qr_scan", "ios": "https://dc.lft.to/lastmile_qr_scan"}, "fusion_lon": 0.0}, {"lat": 38.85448233333334, "is_disabled": 0, "type": "electric_scooter", "lon": -76.9722505, "bike_id": "b921ae3bdfb2cc191ea3e923d3f8ef1f", "fusion_lat": 0.0, "name": "b921ae3bdfb2cc191ea3e923d3f8ef1f", "is_reserved": 0, "rental_uris": {"android": "https://dc.lft.to/lastmile_qr_scan", "ios": "https://dc.lft.to/lastmile_qr_scan"}, "fusion_lon": 0.0}, {"lat": 38.89221366666666, "is_disabled": 0, "type": "electric_scooter", "lon": -77.04200883333333, "bike_id": "8eef8b5f3b8adac56989589d7b3f81de", "fusion_lat": 0.0, "name": "8eef8b5f3b8adac56989589d7b3f81de", "is_reserved": 0, "rental_uris": {"android": "https://dc.lft.to/lastmile_qr_scan", "ios": "https://dc.lft.to/lastmile_qr_scan"}, "fusion_lon": 0.0}, {"lat": 38.92973333333333, "is_disabled": 0, "type": "electric_scooter", "lon": -77.02931083333333, "bike_id": "68ce1a7699404759dcb228ee09f10e83", "fusion_lat": 0.0, "name": "68ce1a7699404759dcb228ee09f10e83", "is_reserved": 0, "rental_uris": {"android": "https://dc.lft.to/lastmile_qr_scan", "ios": "https://dc.lft.to/lastmile_qr_scan"}, "fusion_lon": 0.0}, {"lat": 38.923080666666664, "is_disabled": 0, "type": "electric_scooter", "lon": -77.04220783333334, "bike_id": "123c549ad3668320fc050108d7c72014", "fusion_lat": 0.0, "name": "123c549ad3668320fc050108d7c72014", "is_reserved": 0, "rental_uris": {"android": "https://dc.lft.to/lastmile_qr_scan", "ios": "https://dc.lft.to/lastmile_qr_scan"}, "fusion_lon": 0.0}, {"lat": 38.863664166666666, "is_disabled": 0, "type": "electric_scooter", "lon": -76.990317, "bike_id": "047a75cef64b9ccff563413be47a9765", "fusion_lat": 0.0, "name": "047a75cef64b9ccff563413be47a9765", "is_reserved": 0, "rental_uris": {"android": "https://dc.lft.to/lastmile_qr_scan", "ios": "https://dc.lft.to/lastmile_qr_scan"}, "fusion_lon": 0.0}, {"lat": 38.892257666666666, "is_disabled": 0, "type": "electric_scooter", "lon": -77.03220266666666, "bike_id": "228c0c0b8cc0aa57a0bf753de031e3d9", "fusion_lat": 0.0, "name": "228c0c0b8cc0aa57a0bf753de031e3d9", "is_reserved": 0, "rental_uris": {"android": "https://dc.lft.to/lastmile_qr_scan", "ios": "https://dc.lft.to/lastmile_qr_scan"}, "fusion_lon": 0.0}, {"lat": 38.899851, "is_disabled": 0, "type": "electric_scooter", "lon": -77.02301566666667, "bike_id": "0bfb12c97a7b2579091a2e28c62b40ad", "fusion_lat": 0.0, "name": "0bfb12c97a7b2579091a2e28c62b40ad", "is_reserved": 0, "rental_uris": {"android": "https://dc.lft.to/lastmile_qr_scan", "ios": "https://dc.lft.to/lastmile_qr_scan"}, "fusion_lon": 0.0}, {"lat": 38.892228833333334, "is_disabled": 0, "type": "electric_scooter", "lon": -77.0451515, "bike_id": "8091b1f5def9adf05ef1a7ef563206ec", "fusion_lat": 0.0, "name": "8091b1f5def9adf05ef1a7ef563206ec", "is_reserved": 0, "rental_uris": {"android": "https://dc.lft.to/lastmile_qr_scan", "ios": "https://dc.lft.to/lastmile_qr_scan"}, "fusion_lon": 0.0}, {"lat": 38.894849666666666, "is_disabled": 0, "type": "electric_scooter", "lon": -76.99505333333333, "bike_id": "2df7cac78492a28e013b12fc01dab2ec", "fusion_lat": 0.0, "name": "2df7cac78492a28e013b12fc01dab2ec", "is_reserved": 0, "rental_uris": {"android": "https://dc.lft.to/lastmile_qr_scan", "ios": "https://dc.lft.to/lastmile_qr_scan"}, "fusion_lon": 0.0}, {"lat": 38.917324, "is_disabled": 0, "type": "electric_scooter", "lon": -77.03192633333333, "bike_id": "6cbef3fdc515ecd143a2fee014a31d5b", "fusion_lat": 0.0, "name": "6cbef3fdc515ecd143a2fee014a31d5b", "is_reserved": 0, "rental_uris": {"android": "https://dc.lft.to/lastmile_qr_scan", "ios": "https://dc.lft.to/lastmile_qr_scan"}, "fusion_lon": 0.0}, {"lat": 38.9094215, "is_disabled": 0, "type": "electric_scooter", "lon": -77.04665383333334, "bike_id": "17bf73e7c650a3c15287db1e0103ab31", "fusion_lat": 0.0, "name": "17bf73e7c650a3c15287db1e0103ab31", "is_reserved": 0, "rental_uris": {"android": "https://dc.lft.to/lastmile_qr_scan", "ios": "https://dc.lft.to/lastmile_qr_scan"}, "fusion_lon": 0.0}, {"lat": 38.871562, "is_disabled": 0, "type": "electric_bike", "lon": -76.9364945, "bike_id": "579a7081b4882dc6cf28e4286864cb5b", "fusion_lat": 0.0, "name": "579a7081b4882dc6cf28e4286864cb5b", "is_reserved": 0, "rental_uris": {"android": "https://dc.lft.to/lastmile_qr_scan", "ios": "https://dc.lft.to/lastmile_qr_scan"}, "fusion_lon": 0.0}, {"lat": 38.89617966666667, "is_disabled": 0, "type": "electric_scooter", "lon": -77.0284495, "bike_id": "a82fb7572a3bafe181faf5fb0e3c5b4b", "fusion_lat": 0.0, "name": "a82fb7572a3bafe181faf5fb0e3c5b4b", "is_reserved": 0, "rental_uris": {"android": "https://dc.lft.to/lastmile_qr_scan", "ios": "https://dc.lft.to/lastmile_qr_scan"}, "fusion_lon": 0.0}, {"lat": 38.881295333333334, "is_disabled": 0, "type": "electric_scooter", "lon": -77.01657966666667, "bike_id": "937d6bed54be33c1f9e9d70f5e662cf9", "fusion_lat": 0.0, "name": "937d6bed54be33c1f9e9d70f5e662cf9", "is_reserved": 0, "rental_uris": {"android": "https://dc.lft.to/lastmile_qr_scan", "ios": "https://dc.lft.to/lastmile_qr_scan"}, "fusion_lon": 0.0}, {"lat": 38.921638333333334, "is_disabled": 0, "type": "electric_scooter", "lon": -77.04022183333333, "bike_id": "6387e6f21ba6e85c8951eca78be1ac4e", "fusion_lat": 0.0, "name": "6387e6f21ba6e85c8951eca78be1ac4e", "is_reserved": 0, "rental_uris": {"android": "https://dc.lft.to/lastmile_qr_scan", "ios": "https://dc.lft.to/lastmile_qr_scan"}, "fusion_lon": 0.0}, {"lat": 38.935847, "is_disabled": 0, "type": "electric_bike", "lon": -77.10685883333333, "bike_id": "62c06f63e99a995033d1ab754e74a757", "fusion_lat": 0.0, "name": "62c06f63e99a995033d1ab754e74a757", "is_reserved": 0, "rental_uris": {"android": "https://dc.lft.to/lastmile_qr_scan", "ios": "https://dc.lft.to/lastmile_qr_scan"}, "fusion_lon": 0.0}, {"lat": 38.89005983333333, "is_disabled": 0, "type": "electric_scooter", "lon": -76.93744883333333, "bike_id": "a764fb1c415cc143b89f6c577c134743", "fusion_lat": 0.0, "name": "a764fb1c415cc143b89f6c577c134743", "is_reserved": 0, "rental_uris": {"android": "https://dc.lft.to/lastmile_qr_scan", "ios": "https://dc.lft.to/lastmile_qr_scan"}, "fusion_lon": 0.0}, {"lat": 38.911212166666665, "is_disabled": 0, "type": "electric_scooter", "lon": -77.03840916666667, "bike_id": "09a0d72af0f28003b070b4049560b4f9", "fusion_lat": 0.0, "name": "09a0d72af0f28003b070b4049560b4f9", "is_reserved": 0, "rental_uris": {"android": "https://dc.lft.to/lastmile_qr_scan", "ios": "https://dc.lft.to/lastmile_qr_scan"}, "fusion_lon": 0.0}, {"lat": 38.903222666666665, "is_disabled": 0, "type": "electric_scooter", "lon": -77.0516905, "bike_id": "5318a004a3f115b2bbe3e43642a86a1e", "fusion_lat": 0.0, "name": "5318a004a3f115b2bbe3e43642a86a1e", "is_reserved": 0, "rental_uris": {"android": "https://dc.lft.to/lastmile_qr_scan", "ios": "https://dc.lft.to/lastmile_qr_scan"}, "fusion_lon": 0.0}, {"lat": 38.90525566666667, "is_disabled": 0, "type": "electric_scooter", "lon": -77.04185083333333, "bike_id": "36408fc5dc1606e6114595e7edb08392", "fusion_lat": 0.0, "name": "36408fc5dc1606e6114595e7edb08392", "is_reserved": 0, "rental_uris": {"android": "https://dc.lft.to/lastmile_qr_scan", "ios": "https://dc.lft.to/lastmile_qr_scan"}, "fusion_lon": 0.0}, {"lat": 38.84254816666667, "is_disabled": 0, "type": "electric_bike", "lon": -77.05834266666666, "bike_id": "8b7d87d681e59b2846830e03d4ddbf52", "fusion_lat": 0.0, "name": "8b7d87d681e59b2846830e03d4ddbf52", "is_reserved": 0, "rental_uris": {"android": "https://dc.lft.to/lastmile_qr_scan", "ios": "https://dc.lft.to/lastmile_qr_scan"}, "fusion_lon": 0.0}, {"lat": 38.9169645, "is_disabled": 0, "type": "electric_scooter", "lon": -77.04275283333334, "bike_id": "fb9429039789321932da7ce422bb18a8", "fusion_lat": 0.0, "name": "fb9429039789321932da7ce422bb18a8", "is_reserved": 0, "rental_uris": {"android": "https://dc.lft.to/lastmile_qr_scan", "ios": "https://dc.lft.to/lastmile_qr_scan"}, "fusion_lon": 0.0}, {"lat": 38.924664666666665, "is_disabled": 0, "type": "electric_bike", "lon": -77.20839783333334, "bike_id": "eec3dd0015057e8ef617f88830b5f846", "fusion_lat": 0.0, "name": "eec3dd0015057e8ef617f88830b5f846", "is_reserved": 0, "rental_uris": {"android": "https://dc.lft.to/lastmile_qr_scan", "ios": "https://dc.lft.to/lastmile_qr_scan"}, "fusion_lon": 0.0}, {"lat": 38.9217545, "is_disabled": 0, "type": "electric_scooter", "lon": -77.0323885, "bike_id": "88868e015b08da6c24f1794ab84a3e84", "fusion_lat": 0.0, "name": "88868e015b08da6c24f1794ab84a3e84", "is_reserved": 0, "rental_uris": {"android": "https://dc.lft.to/lastmile_qr_scan", "ios": "https://dc.lft.to/lastmile_qr_scan"}, "fusion_lon": 0.0}, {"lat": 38.892199, "is_disabled": 0, "type": "electric_scooter", "lon": -77.023188, "bike_id": "74b01c3ebdb48253f7ca6802e804564c", "fusion_lat": 0.0, "name": "74b01c3ebdb48253f7ca6802e804564c", "is_reserved": 0, "rental_uris": {"android": "https://dc.lft.to/lastmile_qr_scan", "ios": "https://dc.lft.to/lastmile_qr_scan"}, "fusion_lon": 0.0}, {"lat": 38.90686983333333, "is_disabled": 0, "type": "electric_scooter", "lon": -77.01014583333334, "bike_id": "c24b0b8a4d2460ac3959117fc1f19106", "fusion_lat": 0.0, "name": "c24b0b8a4d2460ac3959117fc1f19106", "is_reserved": 0, "rental_uris": {"android": "https://dc.lft.to/lastmile_qr_scan", "ios": "https://dc.lft.to/lastmile_qr_scan"}, "fusion_lon": 0.0}, {"lat": 38.905800166666666, "is_disabled": 0, "type": "electric_scooter", "lon": -77.04630233333333, "bike_id": "0546eef002d78409ca5e4f32cbc54e71", "fusion_lat": 0.0, "name": "0546eef002d78409ca5e4f32cbc54e71", "is_reserved": 0, "rental_uris": {"android": "https://dc.lft.to/lastmile_qr_scan", "ios": "https://dc.lft.to/lastmile_qr_scan"}, "fusion_lon": 0.0}, {"lat": 38.9147625, "is_disabled": 0, "type": "electric_scooter", "lon": -77.0386675, "bike_id": "545084b1c06b4ba0f8ca60e9af0efe78", "fusion_lat": 0.0, "name": "545084b1c06b4ba0f8ca60e9af0efe78", "is_reserved": 0, "rental_uris": {"android": "https://dc.lft.to/lastmile_qr_scan", "ios": "https://dc.lft.to/lastmile_qr_scan"}, "fusion_lon": 0.0}, {"lat": 38.902385, "is_disabled": 0, "type": "electric_scooter", "lon": -77.00199416666666, "bike_id": "8a097ceb953fe25a58bb65c28aa9f58c", "fusion_lat": 0.0, "name": "8a097ceb953fe25a58bb65c28aa9f58c", "is_reserved": 0, "rental_uris": {"android": "https://dc.lft.to/lastmile_qr_scan", "ios": "https://dc.lft.to/lastmile_qr_scan"}, "fusion_lon": 0.0}, {"lat": 38.91263716666667, "is_disabled": 0, "type": "electric_scooter", "lon": -77.0225535, "bike_id": "440e872fe1ba033e1fb4dd51e6b1eb34", "fusion_lat": 0.0, "name": "440e872fe1ba033e1fb4dd51e6b1eb34", "is_reserved": 0, "rental_uris": {"android": "https://dc.lft.to/lastmile_qr_scan", "ios": "https://dc.lft.to/lastmile_qr_scan"}, "fusion_lon": 0.0}, {"lat": 38.908268, "is_disabled": 0, "type": "electric_scooter", "lon": -76.99701966666666, "bike_id": "8a23a9fd8c62ef0764afb58c1bf5aaf0", "fusion_lat": 0.0, "name": "8a23a9fd8c62ef0764afb58c1bf5aaf0", "is_reserved": 0, "rental_uris": {"android": "https://dc.lft.to/lastmile_qr_scan", "ios": "https://dc.lft.to/lastmile_qr_scan"}, "fusion_lon": 0.0}, {"lat": 38.91930683333333, "is_disabled": 0, "type": "electric_scooter", "lon": -77.03215883333333, "bike_id": "271747a10fe8c90e0723ed4deb2781de", "fusion_lat": 0.0, "name": "271747a10fe8c90e0723ed4deb2781de", "is_reserved": 0, "rental_uris": {"android": "https://dc.lft.to/lastmile_qr_scan", "ios": "https://dc.lft.to/lastmile_qr_scan"}, "fusion_lon": 0.0}, {"lat": 38.917121, "is_disabled": 0, "type": "electric_scooter", "lon": -77.03249266666667, "bike_id": "b5ada5457774af790fddff654b8708e0", "fusion_lat": 0.0, "name": "b5ada5457774af790fddff654b8708e0", "is_reserved": 0, "rental_uris": {"android": "https://dc.lft.to/lastmile_qr_scan", "ios": "https://dc.lft.to/lastmile_qr_scan"}, "fusion_lon": 0.0}, {"lat": 38.905759, "is_disabled": 0, "type": "electric_scooter", "lon": -77.00607333333333, "bike_id": "52798179a5a485350144061682911060", "fusion_lat": 0.0, "name": "52798179a5a485350144061682911060", "is_reserved": 0, "rental_uris": {"android": "https://dc.lft.to/lastmile_qr_scan", "ios": "https://dc.lft.to/lastmile_qr_scan"}, "fusion_lon": 0.0}, {"lat": 38.90071733333333, "is_disabled": 0, "type": "electric_scooter", "lon": -77.0261915, "bike_id": "7605cac8e670de0a20459964443d29d4", "fusion_lat": 0.0, "name": "7605cac8e670de0a20459964443d29d4", "is_reserved": 0, "rental_uris": {"android": "https://dc.lft.to/lastmile_qr_scan", "ios": "https://dc.lft.to/lastmile_qr_scan"}, "fusion_lon": 0.0}, {"lat": 38.868317, "is_disabled": 0, "type": "electric_scooter", "lon": -76.97744583333333, "bike_id": "dbb67e5e8cce287bc3191677763ec743", "fusion_lat": 0.0, "name": "dbb67e5e8cce287bc3191677763ec743", "is_reserved": 0, "rental_uris": {"android": "https://dc.lft.to/lastmile_qr_scan", "ios": "https://dc.lft.to/lastmile_qr_scan"}, "fusion_lon": 0.0}, {"lat": 38.88740166666667, "is_disabled": 0, "type": "electric_scooter", "lon": -77.02207616666666, "bike_id": "f95a0e4032e7350696ddace4b6154b0f", "fusion_lat": 0.0, "name": "f95a0e4032e7350696ddace4b6154b0f", "is_reserved": 0, "rental_uris": {"android": "https://dc.lft.to/lastmile_qr_scan", "ios": "https://dc.lft.to/lastmile_qr_scan"}, "fusion_lon": 0.0}, {"lat": 38.892228333333335, "is_disabled": 0, "type": "electric_scooter", "lon": -77.04369216666667, "bike_id": "7f550c0d722b8da7662ff638efd6c1be", "fusion_lat": 0.0, "name": "7f550c0d722b8da7662ff638efd6c1be", "is_reserved": 0, "rental_uris": {"android": "https://dc.lft.to/lastmile_qr_scan", "ios": "https://dc.lft.to/lastmile_qr_scan"}, "fusion_lon": 0.0}, {"lat": 38.9008265, "is_disabled": 0, "type": "electric_scooter", "lon": -77.050629, "bike_id": "1e44ebbe0f6bcbfdfe63da26dacc4e65", "fusion_lat": 0.0, "name": "1e44ebbe0f6bcbfdfe63da26dacc4e65", "is_reserved": 0, "rental_uris": {"android": "https://dc.lft.to/lastmile_qr_scan", "ios": "https://dc.lft.to/lastmile_qr_scan"}, "fusion_lon": 0.0}, {"lat": 38.87145366666667, "is_disabled": 0, "type": "electric_bike", "lon": -76.93707066666667, "bike_id": "5eebee55c53d683a0415c465fc4c0284", "fusion_lat": 0.0, "name": "5eebee55c53d683a0415c465fc4c0284", "is_reserved": 0, "rental_uris": {"android": "https://dc.lft.to/lastmile_qr_scan", "ios": "https://dc.lft.to/lastmile_qr_scan"}, "fusion_lon": 0.0}, {"lat": 38.906327833333336, "is_disabled": 0, "type": "electric_scooter", "lon": -77.02501783333334, "bike_id": "05bffe6f662de53b7c2beff463fa12bc", "fusion_lat": 0.0, "name": "05bffe6f662de53b7c2beff463fa12bc", "is_reserved": 0, "rental_uris": {"android": "https://dc.lft.to/lastmile_qr_scan", "ios": "https://dc.lft.to/lastmile_qr_scan"}, "fusion_lon": 0.0}, {"lat": 38.91272716666667, "is_disabled": 0, "type": "electric_scooter", "lon": -77.03866333333333, "bike_id": "cacab8367039c0836b3417de4db118b4", "fusion_lat": 0.0, "name": "cacab8367039c0836b3417de4db118b4", "is_reserved": 0, "rental_uris": {"android": "https://dc.lft.to/lastmile_qr_scan", "ios": "https://dc.lft.to/lastmile_qr_scan"}, "fusion_lon": 0.0}, {"lat": 38.928624, "is_disabled": 0, "type": "electric_scooter", "lon": -77.0331435, "bike_id": "905a4b39e2e447b8b518b85c58e35bb6", "fusion_lat": 0.0, "name": "905a4b39e2e447b8b518b85c58e35bb6", "is_reserved": 0, "rental_uris": {"android": "https://dc.lft.to/lastmile_qr_scan", "ios": "https://dc.lft.to/lastmile_qr_scan"}, "fusion_lon": 0.0}, {"lat": 38.89567866666667, "is_disabled": 0, "type": "electric_scooter", "lon": -77.04672533333333, "bike_id": "5933d6cfa6b833b8c98e384390c8a3eb", "fusion_lat": 0.0, "name": "5933d6cfa6b833b8c98e384390c8a3eb", "is_reserved": 0, "rental_uris": {"android": "https://dc.lft.to/lastmile_qr_scan", "ios": "https://dc.lft.to/lastmile_qr_scan"}, "fusion_lon": 0.0}, {"lat": 38.914230333333336, "is_disabled": 0, "type": "electric_scooter", "lon": -77.046452, "bike_id": "1b6e3d3630807f7c3a58c76bcbd37022", "fusion_lat": 0.0, "name": "1b6e3d3630807f7c3a58c76bcbd37022", "is_reserved": 0, "rental_uris": {"android": "https://dc.lft.to/lastmile_qr_scan", "ios": "https://dc.lft.to/lastmile_qr_scan"}, "fusion_lon": 0.0}, {"lat": 38.9160805, "is_disabled": 0, "type": "electric_scooter", "lon": -77.03299666666666, "bike_id": "6e58e72fe256fc8bc972e93d66a632c3", "fusion_lat": 0.0, "name": "6e58e72fe256fc8bc972e93d66a632c3", "is_reserved": 0, "rental_uris": {"android": "https://dc.lft.to/lastmile_qr_scan", "ios": "https://dc.lft.to/lastmile_qr_scan"}, "fusion_lon": 0.0}, {"lat": 38.9054965, "is_disabled": 0, "type": "electric_scooter", "lon": -77.0059595, "bike_id": "00d3b654c875d34ae8386e92340bb2c1", "fusion_lat": 0.0, "name": "00d3b654c875d34ae8386e92340bb2c1", "is_reserved": 0, "rental_uris": {"android": "https://dc.lft.to/lastmile_qr_scan", "ios": "https://dc.lft.to/lastmile_qr_scan"}, "fusion_lon": 0.0}, {"lat": 38.89212883333333, "is_disabled": 0, "type": "electric_scooter", "lon": -77.031641, "bike_id": "197eeac8c96cd44b3d4312605cbc0186", "fusion_lat": 0.0, "name": "197eeac8c96cd44b3d4312605cbc0186", "is_reserved": 0, "rental_uris": {"android": "https://dc.lft.to/lastmile_qr_scan", "ios": "https://dc.lft.to/lastmile_qr_scan"}, "fusion_lon": 0.0}, {"lat": 38.916176666666665, "is_disabled": 0, "type": "electric_bike", "lon": -77.0029015, "bike_id": "fc323c282e9466b290821c7c558da26f", "fusion_lat": 0.0, "name": "fc323c282e9466b290821c7c558da26f", "is_reserved": 0, "rental_uris": {"android": "https://dc.lft.to/lastmile_qr_scan", "ios": "https://dc.lft.to/lastmile_qr_scan"}, "fusion_lon": 0.0}, {"lat": 38.909744, "is_disabled": 0, "type": "electric_scooter", "lon": -77.0318465, "bike_id": "67fbd9506fcdf4540761b90567ac175f", "fusion_lat": 0.0, "name": "67fbd9506fcdf4540761b90567ac175f", "is_reserved": 0, "rental_uris": {"android": "https://dc.lft.to/lastmile_qr_scan", "ios": "https://dc.lft.to/lastmile_qr_scan"}, "fusion_lon": 0.0}, {"lat": 38.92374366666667, "is_disabled": 0, "type": "electric_scooter", "lon": -77.02528583333333, "bike_id": "b51e86b9785644b27b391ce39e1f1dcc", "fusion_lat": 0.0, "name": "b51e86b9785644b27b391ce39e1f1dcc", "is_reserved": 0, "rental_uris": {"android": "https://dc.lft.to/lastmile_qr_scan", "ios": "https://dc.lft.to/lastmile_qr_scan"}, "fusion_lon": 0.0}, {"lat": 38.916373, "is_disabled": 0, "type": "electric_scooter", "lon": -77.02318066666666, "bike_id": "fd3f4dd16d14a77527f14892162597e8", "fusion_lat": 0.0, "name": "fd3f4dd16d14a77527f14892162597e8", "is_reserved": 0, "rental_uris": {"android": "https://dc.lft.to/lastmile_qr_scan", "ios": "https://dc.lft.to/lastmile_qr_scan"}, "fusion_lon": 0.0}, {"lat": 38.93982833333333, "is_disabled": 0, "type": "electric_scooter", "lon": -77.0263595, "bike_id": "ec56f03e94fc68b7cd1df64915151f8a", "fusion_lat": 0.0, "name": "ec56f03e94fc68b7cd1df64915151f8a", "is_reserved": 0, "rental_uris": {"android": "https://dc.lft.to/lastmile_qr_scan", "ios": "https://dc.lft.to/lastmile_qr_scan"}, "fusion_lon": 0.0}, {"lat": 38.90807616666667, "is_disabled": 0, "type": "electric_scooter", "lon": -77.034422, "bike_id": "5edb4bbe26b3dea4ccc6179d57fc3352", "fusion_lat": 0.0, "name": "5edb4bbe26b3dea4ccc6179d57fc3352", "is_reserved": 0, "rental_uris": {"android": "https://dc.lft.to/lastmile_qr_scan", "ios": "https://dc.lft.to/lastmile_qr_scan"}, "fusion_lon": 0.0}, {"lat": 38.91677766666667, "is_disabled": 0, "type": "electric_scooter", "lon": -77.029752, "bike_id": "e6178445efaa8c8fedbfefc4adeaa158", "fusion_lat": 0.0, "name": "e6178445efaa8c8fedbfefc4adeaa158", "is_reserved": 0, "rental_uris": {"android": "https://dc.lft.to/lastmile_qr_scan", "ios": "https://dc.lft.to/lastmile_qr_scan"}, "fusion_lon": 0.0}, {"lat": 38.903743666666664, "is_disabled": 0, "type": "electric_scooter", "lon": -77.040052, "bike_id": "0274756cacf1ec87bdd5d94b6c60cffa", "fusion_lat": 0.0, "name": "0274756cacf1ec87bdd5d94b6c60cffa", "is_reserved": 0, "rental_uris": {"android": "https://dc.lft.to/lastmile_qr_scan", "ios": "https://dc.lft.to/lastmile_qr_scan"}, "fusion_lon": 0.0}, {"lat": 38.92302933333333, "is_disabled": 0, "type": "electric_scooter", "lon": -77.023308, "bike_id": "1f4f88b429438a6901ec22f52a611648", "fusion_lat": 0.0, "name": "1f4f88b429438a6901ec22f52a611648", "is_reserved": 0, "rental_uris": {"android": "https://dc.lft.to/lastmile_qr_scan", "ios": "https://dc.lft.to/lastmile_qr_scan"}, "fusion_lon": 0.0}, {"lat": 38.951901666666664, "is_disabled": 0, "type": "electric_bike", "lon": -77.02392183333333, "bike_id": "766bca19a05074a9c8da6cb722d0f4ab", "fusion_lat": 0.0, "name": "766bca19a05074a9c8da6cb722d0f4ab", "is_reserved": 0, "rental_uris": {"android": "https://dc.lft.to/lastmile_qr_scan", "ios": "https://dc.lft.to/lastmile_qr_scan"}, "fusion_lon": 0.0}, {"lat": 38.8989415, "is_disabled": 0, "type": "electric_scooter", "lon": -77.07235066666667, "bike_id": "5b72ea7ac5e842226f38fc5c17653b9e", "fusion_lat": 0.0, "name": "5b72ea7ac5e842226f38fc5c17653b9e", "is_reserved": 0, "rental_uris": {"android": "https://dc.lft.to/lastmile_qr_scan", "ios": "https://dc.lft.to/lastmile_qr_scan"}, "fusion_lon": 0.0}, {"lat": 38.91875616666667, "is_disabled": 0, "type": "electric_scooter", "lon": -77.03664916666666, "bike_id": "85b9063597e7d212720e70e5225c954d", "fusion_lat": 0.0, "name": "85b9063597e7d212720e70e5225c954d", "is_reserved": 0, "rental_uris": {"android": "https://dc.lft.to/lastmile_qr_scan", "ios": "https://dc.lft.to/lastmile_qr_scan"}, "fusion_lon": 0.0}, {"lat": 38.91192733333333, "is_disabled": 0, "type": "electric_scooter", "lon": -77.03637583333334, "bike_id": "b759b0907d4fd1154c80ded68857336c", "fusion_lat": 0.0, "name": "b759b0907d4fd1154c80ded68857336c", "is_reserved": 0, "rental_uris": {"android": "https://dc.lft.to/lastmile_qr_scan", "ios": "https://dc.lft.to/lastmile_qr_scan"}, "fusion_lon": 0.0}, {"lat": 38.93294616666667, "is_disabled": 0, "type": "electric_scooter", "lon": -77.02197583333333, "bike_id": "a1262febd1be4afc555026224c0869ff", "fusion_lat": 0.0, "name": "a1262febd1be4afc555026224c0869ff", "is_reserved": 0, "rental_uris": {"android": "https://dc.lft.to/lastmile_qr_scan", "ios": "https://dc.lft.to/lastmile_qr_scan"}, "fusion_lon": 0.0}, {"lat": 38.931899333333334, "is_disabled": 0, "type": "electric_scooter", "lon": -77.028326, "bike_id": "89a3c0d63eda1ebb4e3f9f41a2a8fe9c", "fusion_lat": 0.0, "name": "89a3c0d63eda1ebb4e3f9f41a2a8fe9c", "is_reserved": 0, "rental_uris": {"android": "https://dc.lft.to/lastmile_qr_scan", "ios": "https://dc.lft.to/lastmile_qr_scan"}, "fusion_lon": 0.0}, {"lat": 38.90333966666667, "is_disabled": 0, "type": "electric_scooter", "lon": -77.04494366666667, "bike_id": "6df52023a7f0cf338bba7081c39265ce", "fusion_lat": 0.0, "name": "6df52023a7f0cf338bba7081c39265ce", "is_reserved": 0, "rental_uris": {"android": "https://dc.lft.to/lastmile_qr_scan", "ios": "https://dc.lft.to/lastmile_qr_scan"}, "fusion_lon": 0.0}, {"lat": 38.926031, "is_disabled": 0, "type": "electric_scooter", "lon": -77.02157333333334, "bike_id": "73016062a2f658c4939d407e1e8c4736", "fusion_lat": 0.0, "name": "73016062a2f658c4939d407e1e8c4736", "is_reserved": 0, "rental_uris": {"android": "https://dc.lft.to/lastmile_qr_scan", "ios": "https://dc.lft.to/lastmile_qr_scan"}, "fusion_lon": 0.0}, {"lat": 38.91928683333333, "is_disabled": 0, "type": "electric_scooter", "lon": -77.0321065, "bike_id": "7f6c4894b915776868c249345b8e5de8", "fusion_lat": 0.0, "name": "7f6c4894b915776868c249345b8e5de8", "is_reserved": 0, "rental_uris": {"android": "https://dc.lft.to/lastmile_qr_scan", "ios": "https://dc.lft.to/lastmile_qr_scan"}, "fusion_lon": 0.0}, {"lat": 38.916295166666664, "is_disabled": 0, "type": "electric_scooter", "lon": -77.01087016666666, "bike_id": "dc855ea395db5cfbce7badf4cbc4849d", "fusion_lat": 0.0, "name": "dc855ea395db5cfbce7badf4cbc4849d", "is_reserved": 0, "rental_uris": {"android": "https://dc.lft.to/lastmile_qr_scan", "ios": "https://dc.lft.to/lastmile_qr_scan"}, "fusion_lon": 0.0}, {"lat": 38.92610466666667, "is_disabled": 0, "type": "electric_scooter", "lon": -77.04147333333333, "bike_id": "dce247597d5153584f749622106e7a65", "fusion_lat": 0.0, "name": "dce247597d5153584f749622106e7a65", "is_reserved": 0, "rental_uris": {"android": "https://dc.lft.to/lastmile_qr_scan", "ios": "https://dc.lft.to/lastmile_qr_scan"}, "fusion_lon": 0.0}, {"lat": 38.898232666666665, "is_disabled": 0, "type": "electric_scooter", "lon": -77.04160133333333, "bike_id": "d6094c69cb7d0fc5e3813ded42c4059f", "fusion_lat": 0.0, "name": "d6094c69cb7d0fc5e3813ded42c4059f", "is_reserved": 0, "rental_uris": {"android": "https://dc.lft.to/lastmile_qr_scan", "ios": "https://dc.lft.to/lastmile_qr_scan"}, "fusion_lon": 0.0}, {"lat": 38.9074305, "is_disabled": 0, "type": "electric_scooter", "lon": -77.03441683333334, "bike_id": "e2799e6b640fd271d05cd15df94b6975", "fusion_lat": 0.0, "name": "e2799e6b640fd271d05cd15df94b6975", "is_reserved": 0, "rental_uris": {"android": "https://dc.lft.to/lastmile_qr_scan", "ios": "https://dc.lft.to/lastmile_qr_scan"}, "fusion_lon": 0.0}, {"lat": 38.90385966666667, "is_disabled": 0, "type": "electric_scooter", "lon": -77.04507416666667, "bike_id": "1ebd061943cf6f55e0e006634de779ae", "fusion_lat": 0.0, "name": "1ebd061943cf6f55e0e006634de779ae", "is_reserved": 0, "rental_uris": {"android": "https://dc.lft.to/lastmile_qr_scan", "ios": "https://dc.lft.to/lastmile_qr_scan"}, "fusion_lon": 0.0}, {"lat": 38.90067, "is_disabled": 0, "type": "electric_scooter", "lon": -77.002227, "bike_id": "b81912751523ddc410dd5411103b333b", "fusion_lat": 0.0, "name": "b81912751523ddc410dd5411103b333b", "is_reserved": 0, "rental_uris": {"android": "https://dc.lft.to/lastmile_qr_scan", "ios": "https://dc.lft.to/lastmile_qr_scan"}, "fusion_lon": 0.0}, {"lat": 38.9335805, "is_disabled": 0, "type": "electric_bike", "lon": -77.0996465, "bike_id": "5db6a8710a40b349950aaf56aa24b899", "fusion_lat": 0.0, "name": "5db6a8710a40b349950aaf56aa24b899", "is_reserved": 0, "rental_uris": {"android": "https://dc.lft.to/lastmile_qr_scan", "ios": "https://dc.lft.to/lastmile_qr_scan"}, "fusion_lon": 0.0}, {"lat": 38.9236675, "is_disabled": 0, "type": "electric_scooter", "lon": -77.05131966666667, "bike_id": "64a633db201e8e838aa837638aab5488", "fusion_lat": 0.0, "name": "64a633db201e8e838aa837638aab5488", "is_reserved": 0, "rental_uris": {"android": "https://dc.lft.to/lastmile_qr_scan", "ios": "https://dc.lft.to/lastmile_qr_scan"}, "fusion_lon": 0.0}, {"lat": 38.90976916666666, "is_disabled": 0, "type": "electric_scooter", "lon": -77.03183883333334, "bike_id": "758198cdc0bbbd50cb03ddb2b19c8f8e", "fusion_lat": 0.0, "name": "758198cdc0bbbd50cb03ddb2b19c8f8e", "is_reserved": 0, "rental_uris": {"android": "https://dc.lft.to/lastmile_qr_scan", "ios": "https://dc.lft.to/lastmile_qr_scan"}, "fusion_lon": 0.0}, {"lat": 38.902354333333335, "is_disabled": 0, "type": "electric_scooter", "lon": -77.00199033333334, "bike_id": "bdd7d7294af74e395f3024f54cfe8ad7", "fusion_lat": 0.0, "name": "bdd7d7294af74e395f3024f54cfe8ad7", "is_reserved": 0, "rental_uris": {"android": "https://dc.lft.to/lastmile_qr_scan", "ios": "https://dc.lft.to/lastmile_qr_scan"}, "fusion_lon": 0.0}, {"lat": 38.925735333333336, "is_disabled": 0, "type": "electric_scooter", "lon": -77.02834883333334, "bike_id": "2413b170e48f6fda2f3d0999124f99f5", "fusion_lat": 0.0, "name": "2413b170e48f6fda2f3d0999124f99f5", "is_reserved": 0, "rental_uris": {"android": "https://dc.lft.to/lastmile_qr_scan", "ios": "https://dc.lft.to/lastmile_qr_scan"}, "fusion_lon": 0.0}, {"lat": 38.9301765, "is_disabled": 0, "type": "electric_scooter", "lon": -77.04451733333333, "bike_id": "79c20f3e223cdb0582ce4de8bedffc7a", "fusion_lat": 0.0, "name": "79c20f3e223cdb0582ce4de8bedffc7a", "is_reserved": 0, "rental_uris": {"android": "https://dc.lft.to/lastmile_qr_scan", "ios": "https://dc.lft.to/lastmile_qr_scan"}, "fusion_lon": 0.0}, {"lat": 38.910228833333335, "is_disabled": 0, "type": "electric_scooter", "lon": -77.04267066666667, "bike_id": "776127c36b75f167c931c05a4ca39fc6", "fusion_lat": 0.0, "name": "776127c36b75f167c931c05a4ca39fc6", "is_reserved": 0, "rental_uris": {"android": "https://dc.lft.to/lastmile_qr_scan", "ios": "https://dc.lft.to/lastmile_qr_scan"}, "fusion_lon": 0.0}, {"lat": 38.914052, "is_disabled": 0, "type": "electric_scooter", "lon": -77.0316, "bike_id": "f63706a7ada928cdfb3d16d8ca8dae9e", "fusion_lat": 0.0, "name": "f63706a7ada928cdfb3d16d8ca8dae9e", "is_reserved": 0, "rental_uris": {"android": "https://dc.lft.to/lastmile_qr_scan", "ios": "https://dc.lft.to/lastmile_qr_scan"}, "fusion_lon": 0.0}, {"lat": 38.91914933333334, "is_disabled": 0, "type": "electric_scooter", "lon": -77.03173866666667, "bike_id": "643386bc4f0f550ad0a423b5ea289d14", "fusion_lat": 0.0, "name": "643386bc4f0f550ad0a423b5ea289d14", "is_reserved": 0, "rental_uris": {"android": "https://dc.lft.to/lastmile_qr_scan", "ios": "https://dc.lft.to/lastmile_qr_scan"}, "fusion_lon": 0.0}, {"lat": 38.89546, "is_disabled": 0, "type": "electric_scooter", "lon": -77.00922566666667, "bike_id": "11d9e8ca3f1d8bc5e51025515cf860fc", "fusion_lat": 0.0, "name": "11d9e8ca3f1d8bc5e51025515cf860fc", "is_reserved": 0, "rental_uris": {"android": "https://dc.lft.to/lastmile_qr_scan", "ios": "https://dc.lft.to/lastmile_qr_scan"}, "fusion_lon": 0.0}, {"lat": 38.897201333333335, "is_disabled": 0, "type": "electric_scooter", "lon": -77.04894416666667, "bike_id": "580cd21c9ad56c5a0de04450e3c912bf", "fusion_lat": 0.0, "name": "580cd21c9ad56c5a0de04450e3c912bf", "is_reserved": 0, "rental_uris": {"android": "https://dc.lft.to/lastmile_qr_scan", "ios": "https://dc.lft.to/lastmile_qr_scan"}, "fusion_lon": 0.0}, {"lat": 38.899061333333336, "is_disabled": 0, "type": "electric_scooter", "lon": -76.93354383333333, "bike_id": "d72cf5aec205bfc036094e8ebab23124", "fusion_lat": 0.0, "name": "d72cf5aec205bfc036094e8ebab23124", "is_reserved": 0, "rental_uris": {"android": "https://dc.lft.to/lastmile_qr_scan", "ios": "https://dc.lft.to/lastmile_qr_scan"}, "fusion_lon": 0.0}, {"lat": 38.899476166666666, "is_disabled": 0, "type": "electric_scooter", "lon": -77.019887, "bike_id": "b93850dbc4d620413289a56ef1b99945", "fusion_lat": 0.0, "name": "b93850dbc4d620413289a56ef1b99945", "is_reserved": 0, "rental_uris": {"android": "https://dc.lft.to/lastmile_qr_scan", "ios": "https://dc.lft.to/lastmile_qr_scan"}, "fusion_lon": 0.0}, {"lat": 38.943525666666666, "is_disabled": 0, "type": "electric_scooter", "lon": -77.00217833333333, "bike_id": "bee0423a09e6bbe79c35c642624207ad", "fusion_lat": 0.0, "name": "bee0423a09e6bbe79c35c642624207ad", "is_reserved": 0, "rental_uris": {"android": "https://dc.lft.to/lastmile_qr_scan", "ios": "https://dc.lft.to/lastmile_qr_scan"}, "fusion_lon": 0.0}, {"lat": 38.91195783333333, "is_disabled": 0, "type": "electric_scooter", "lon": -77.01080933333333, "bike_id": "06bcdd214b08d445fcb74ba5238a2b3a", "fusion_lat": 0.0, "name": "06bcdd214b08d445fcb74ba5238a2b3a", "is_reserved": 0, "rental_uris": {"android": "https://dc.lft.to/lastmile_qr_scan", "ios": "https://dc.lft.to/lastmile_qr_scan"}, "fusion_lon": 0.0}, {"lat": 38.91032666666667, "is_disabled": 0, "type": "electric_scooter", "lon": -76.9934405, "bike_id": "b2ad3ed9b96cf111ec4dae26efcc8fb7", "fusion_lat": 0.0, "name": "b2ad3ed9b96cf111ec4dae26efcc8fb7", "is_reserved": 0, "rental_uris": {"android": "https://dc.lft.to/lastmile_qr_scan", "ios": "https://dc.lft.to/lastmile_qr_scan"}, "fusion_lon": 0.0}, {"lat": 38.998183166666664, "is_disabled": 0, "type": "electric_bike", "lon": -76.8837955, "bike_id": "20b9fdc3d43c7271104cf6e923103de9", "fusion_lat": 0.0, "name": "20b9fdc3d43c7271104cf6e923103de9", "is_reserved": 0, "rental_uris": {"android": "https://dc.lft.to/lastmile_qr_scan", "ios": "https://dc.lft.to/lastmile_qr_scan"}, "fusion_lon": 0.0}, {"lat": 38.89531266666667, "is_disabled": 0, "type": "electric_scooter", "lon": -76.9489235, "bike_id": "2b8558d86255a543f2a8336d6505d408", "fusion_lat": 0.0, "name": "2b8558d86255a543f2a8336d6505d408", "is_reserved": 0, "rental_uris": {"android": "https://dc.lft.to/lastmile_qr_scan", "ios": "https://dc.lft.to/lastmile_qr_scan"}, "fusion_lon": 0.0}, {"lat": 39.02430666666667, "is_disabled": 0, "type": "electric_bike", "lon": -77.1309875, "bike_id": "f28c57ddc98d79f838caf9eb328fd992", "fusion_lat": 0.0, "name": "f28c57ddc98d79f838caf9eb328fd992", "is_reserved": 0, "rental_uris": {"android": "https://dc.lft.to/lastmile_qr_scan", "ios": "https://dc.lft.to/lastmile_qr_scan"}, "fusion_lon": 0.0}, {"lat": 38.949759666666665, "is_disabled": 0, "type": "electric_scooter", "lon": -77.06558983333333, "bike_id": "6577374d4703e482a9350c1e8c778ab6", "fusion_lat": 0.0, "name": "6577374d4703e482a9350c1e8c778ab6", "is_reserved": 0, "rental_uris": {"android": "https://dc.lft.to/lastmile_qr_scan", "ios": "https://dc.lft.to/lastmile_qr_scan"}, "fusion_lon": 0.0}, {"lat": 38.892098833333336, "is_disabled": 0, "type": "electric_scooter", "lon": -76.985664, "bike_id": "41d663ba6cf405d086225cf489473fc1", "fusion_lat": 0.0, "name": "41d663ba6cf405d086225cf489473fc1", "is_reserved": 0, "rental_uris": {"android": "https://dc.lft.to/lastmile_qr_scan", "ios": "https://dc.lft.to/lastmile_qr_scan"}, "fusion_lon": 0.0}, {"lat": 38.917057666666665, "is_disabled": 0, "type": "electric_scooter", "lon": -77.02735083333333, "bike_id": "df46f631564517e809d296aad36ee061", "fusion_lat": 0.0, "name": "df46f631564517e809d296aad36ee061", "is_reserved": 0, "rental_uris": {"android": "https://dc.lft.to/lastmile_qr_scan", "ios": "https://dc.lft.to/lastmile_qr_scan"}, "fusion_lon": 0.0}, {"lat": 38.899719166666664, "is_disabled": 0, "type": "electric_scooter", "lon": -77.0206725, "bike_id": "58414d9ebe9000af661282340b28fa4c", "fusion_lat": 0.0, "name": "58414d9ebe9000af661282340b28fa4c", "is_reserved": 0, "rental_uris": {"android": "https://dc.lft.to/lastmile_qr_scan", "ios": "https://dc.lft.to/lastmile_qr_scan"}, "fusion_lon": 0.0}, {"lat": 38.876489166666666, "is_disabled": 0, "type": "electric_scooter", "lon": -77.00415033333333, "bike_id": "c88c3781e573f518051be58c5ce5586d", "fusion_lat": 0.0, "name": "c88c3781e573f518051be58c5ce5586d", "is_reserved": 0, "rental_uris": {"android": "https://dc.lft.to/lastmile_qr_scan", "ios": "https://dc.lft.to/lastmile_qr_scan"}, "fusion_lon": 0.0}, {"lat": 39.03039733333333, "is_disabled": 0, "type": "electric_bike", "lon": -77.09481466666666, "bike_id": "e679ab7bfdecc5a4643be918912cc24e", "fusion_lat": 0.0, "name": "e679ab7bfdecc5a4643be918912cc24e", "is_reserved": 0, "rental_uris": {"android": "https://dc.lft.to/lastmile_qr_scan", "ios": "https://dc.lft.to/lastmile_qr_scan"}, "fusion_lon": 0.0}, {"lat": 38.93865533333334, "is_disabled": 0, "type": "electric_scooter", "lon": -77.03093616666666, "bike_id": "2b42f01820ebe545a38300850f507dda", "fusion_lat": 0.0, "name": "2b42f01820ebe545a38300850f507dda", "is_reserved": 0, "rental_uris": {"android": "https://dc.lft.to/lastmile_qr_scan", "ios": "https://dc.lft.to/lastmile_qr_scan"}, "fusion_lon": 0.0}, {"lat": 38.91736316666667, "is_disabled": 0, "type": "electric_scooter", "lon": -77.03212666666667, "bike_id": "f64dbb79212ee90609309c06ba11aaea", "fusion_lat": 0.0, "name": "f64dbb79212ee90609309c06ba11aaea", "is_reserved": 0, "rental_uris": {"android": "https://dc.lft.to/lastmile_qr_scan", "ios": "https://dc.lft.to/lastmile_qr_scan"}, "fusion_lon": 0.0}, {"lat": 38.917351333333336, "is_disabled": 0, "type": "electric_scooter", "lon": -77.03218433333333, "bike_id": "9ff6a36b4f7a0bacf3b6e9567eb4ef51", "fusion_lat": 0.0, "name": "9ff6a36b4f7a0bacf3b6e9567eb4ef51", "is_reserved": 0, "rental_uris": {"android": "https://dc.lft.to/lastmile_qr_scan", "ios": "https://dc.lft.to/lastmile_qr_scan"}, "fusion_lon": 0.0}, {"lat": 38.944733, "is_disabled": 0, "type": "electric_scooter", "lon": -77.06028716666667, "bike_id": "e74b25f03fce3754975a5f529ee2d878", "fusion_lat": 0.0, "name": "e74b25f03fce3754975a5f529ee2d878", "is_reserved": 0, "rental_uris": {"android": "https://dc.lft.to/lastmile_qr_scan", "ios": "https://dc.lft.to/lastmile_qr_scan"}, "fusion_lon": 0.0}, {"lat": 38.896812833333335, "is_disabled": 0, "type": "electric_scooter", "lon": -76.93609866666667, "bike_id": "9b1f6e0821a35906d1a29c33e3cbba65", "fusion_lat": 0.0, "name": "9b1f6e0821a35906d1a29c33e3cbba65", "is_reserved": 0, "rental_uris": {"android": "https://dc.lft.to/lastmile_qr_scan", "ios": "https://dc.lft.to/lastmile_qr_scan"}, "fusion_lon": 0.0}, {"lat": 38.88448266666666, "is_disabled": 0, "type": "electric_scooter", "lon": -76.950974, "bike_id": "1d4416ac2c73c309095ddffd8dddb79b", "fusion_lat": 0.0, "name": "1d4416ac2c73c309095ddffd8dddb79b", "is_reserved": 0, "rental_uris": {"android": "https://dc.lft.to/lastmile_qr_scan", "ios": "https://dc.lft.to/lastmile_qr_scan"}, "fusion_lon": 0.0}, {"lat": 38.948230333333335, "is_disabled": 0, "type": "electric_scooter", "lon": -76.999046, "bike_id": "beee280fd02afdf6479ff097dd8f3ebf", "fusion_lat": 0.0, "name": "beee280fd02afdf6479ff097dd8f3ebf", "is_reserved": 0, "rental_uris": {"android": "https://dc.lft.to/lastmile_qr_scan", "ios": "https://dc.lft.to/lastmile_qr_scan"}, "fusion_lon": 0.0}, {"lat": 38.92500283333333, "is_disabled": 0, "type": "electric_scooter", "lon": -77.05229466666667, "bike_id": "837c1e4fee5f6c9e346b581c381c971d", "fusion_lat": 0.0, "name": "837c1e4fee5f6c9e346b581c381c971d", "is_reserved": 0, "rental_uris": {"android": "https://dc.lft.to/lastmile_qr_scan", "ios": "https://dc.lft.to/lastmile_qr_scan"}, "fusion_lon": 0.0}, {"lat": 38.921217666666664, "is_disabled": 0, "type": "electric_scooter", "lon": -77.0417365, "bike_id": "18cc4c0cb1e4202b987bf8d94fcbd49d", "fusion_lat": 0.0, "name": "18cc4c0cb1e4202b987bf8d94fcbd49d", "is_reserved": 0, "rental_uris": {"android": "https://dc.lft.to/lastmile_qr_scan", "ios": "https://dc.lft.to/lastmile_qr_scan"}, "fusion_lon": 0.0}, {"lat": 38.93074766666667, "is_disabled": 0, "type": "electric_scooter", "lon": -77.033866, "bike_id": "599dfe20dc08589bc0806d610fcb036e", "fusion_lat": 0.0, "name": "599dfe20dc08589bc0806d610fcb036e", "is_reserved": 0, "rental_uris": {"android": "https://dc.lft.to/lastmile_qr_scan", "ios": "https://dc.lft.to/lastmile_qr_scan"}, "fusion_lon": 0.0}, {"lat": 38.9022615, "is_disabled": 0, "type": "electric_scooter", "lon": -77.06050566666667, "bike_id": "f475cebb8760eb87b993c6752f4a0914", "fusion_lat": 0.0, "name": "f475cebb8760eb87b993c6752f4a0914", "is_reserved": 0, "rental_uris": {"android": "https://dc.lft.to/lastmile_qr_scan", "ios": "https://dc.lft.to/lastmile_qr_scan"}, "fusion_lon": 0.0}, {"lat": 38.90848966666667, "is_disabled": 0, "type": "electric_scooter", "lon": -77.02064483333334, "bike_id": "78ec6d0e69e3f977e3917fc8840c0808", "fusion_lat": 0.0, "name": "78ec6d0e69e3f977e3917fc8840c0808", "is_reserved": 0, "rental_uris": {"android": "https://dc.lft.to/lastmile_qr_scan", "ios": "https://dc.lft.to/lastmile_qr_scan"}, "fusion_lon": 0.0}, {"lat": 38.924558166666664, "is_disabled": 0, "type": "electric_scooter", "lon": -77.0420135, "bike_id": "fd9004ca07bcd0c5b86437d9049c7860", "fusion_lat": 0.0, "name": "fd9004ca07bcd0c5b86437d9049c7860", "is_reserved": 0, "rental_uris": {"android": "https://dc.lft.to/lastmile_qr_scan", "ios": "https://dc.lft.to/lastmile_qr_scan"}, "fusion_lon": 0.0}, {"lat": 38.920003333333334, "is_disabled": 0, "type": "electric_scooter", "lon": -77.03238316666666, "bike_id": "116c882e33e62333e78edaee6457824c", "fusion_lat": 0.0, "name": "116c882e33e62333e78edaee6457824c", "is_reserved": 0, "rental_uris": {"android": "https://dc.lft.to/lastmile_qr_scan", "ios": "https://dc.lft.to/lastmile_qr_scan"}, "fusion_lon": 0.0}, {"lat": 38.90716116666667, "is_disabled": 0, "type": "electric_scooter", "lon": -77.04757933333333, "bike_id": "ee03433119447f020488c19d6b69b735", "fusion_lat": 0.0, "name": "ee03433119447f020488c19d6b69b735", "is_reserved": 0, "rental_uris": {"android": "https://dc.lft.to/lastmile_qr_scan", "ios": "https://dc.lft.to/lastmile_qr_scan"}, "fusion_lon": 0.0}, {"lat": 38.89536233333333, "is_disabled": 0, "type": "electric_scooter", "lon": -76.94895933333333, "bike_id": "f345dd89c6ad68012f56a9e5b9f65941", "fusion_lat": 0.0, "name": "f345dd89c6ad68012f56a9e5b9f65941", "is_reserved": 0, "rental_uris": {"android": "https://dc.lft.to/lastmile_qr_scan", "ios": "https://dc.lft.to/lastmile_qr_scan"}, "fusion_lon": 0.0}, {"lat": 38.945241, "is_disabled": 0, "type": "electric_scooter", "lon": -76.97953183333334, "bike_id": "f1fb05d3097d5a7e153351e1a23bbc33", "fusion_lat": 0.0, "name": "f1fb05d3097d5a7e153351e1a23bbc33", "is_reserved": 0, "rental_uris": {"android": "https://dc.lft.to/lastmile_qr_scan", "ios": "https://dc.lft.to/lastmile_qr_scan"}, "fusion_lon": 0.0}, {"lat": 38.90810066666667, "is_disabled": 0, "type": "electric_scooter", "lon": -77.04345566666667, "bike_id": "a4907ea807e105c210fc9854f25a6fa9", "fusion_lat": 0.0, "name": "a4907ea807e105c210fc9854f25a6fa9", "is_reserved": 0, "rental_uris": {"android": "https://dc.lft.to/lastmile_qr_scan", "ios": "https://dc.lft.to/lastmile_qr_scan"}, "fusion_lon": 0.0}, {"lat": 38.9173475, "is_disabled": 0, "type": "electric_scooter", "lon": -77.032127, "bike_id": "4ff30e27d4076a50182e21012da99d88", "fusion_lat": 0.0, "name": "4ff30e27d4076a50182e21012da99d88", "is_reserved": 0, "rental_uris": {"android": "https://dc.lft.to/lastmile_qr_scan", "ios": "https://dc.lft.to/lastmile_qr_scan"}, "fusion_lon": 0.0}, {"lat": 38.850293, "is_disabled": 0, "type": "electric_bike", "lon": -77.09804933333334, "bike_id": "d4329acb6ca9c6245ee045ac518427c9", "fusion_lat": 0.0, "name": "d4329acb6ca9c6245ee045ac518427c9", "is_reserved": 0, "rental_uris": {"android": "https://dc.lft.to/lastmile_qr_scan", "ios": "https://dc.lft.to/lastmile_qr_scan"}, "fusion_lon": 0.0}, {"lat": 38.90354033333333, "is_disabled": 0, "type": "electric_scooter", "lon": -77.045124, "bike_id": "a0e0ed3e3297561c0b9f57505e83ecd9", "fusion_lat": 0.0, "name": "a0e0ed3e3297561c0b9f57505e83ecd9", "is_reserved": 0, "rental_uris": {"android": "https://dc.lft.to/lastmile_qr_scan", "ios": "https://dc.lft.to/lastmile_qr_scan"}, "fusion_lon": 0.0}, {"lat": 38.88482716666667, "is_disabled": 0, "type": "electric_scooter", "lon": -76.94528083333333, "bike_id": "c63bd9312e45ca103115d43e8b32cf0f", "fusion_lat": 0.0, "name": "c63bd9312e45ca103115d43e8b32cf0f", "is_reserved": 0, "rental_uris": {"android": "https://dc.lft.to/lastmile_qr_scan", "ios": "https://dc.lft.to/lastmile_qr_scan"}, "fusion_lon": 0.0}, {"lat": 38.90206633333333, "is_disabled": 0, "type": "electric_scooter", "lon": -77.02316483333334, "bike_id": "08c55bb33be725f0476f922054924a7f", "fusion_lat": 0.0, "name": "08c55bb33be725f0476f922054924a7f", "is_reserved": 0, "rental_uris": {"android": "https://dc.lft.to/lastmile_qr_scan", "ios": "https://dc.lft.to/lastmile_qr_scan"}, "fusion_lon": 0.0}, {"lat": 38.857873166666664, "is_disabled": 0, "type": "electric_bike", "lon": -77.09961433333334, "bike_id": "711bbb1769d01b216aa50918834b22c5", "fusion_lat": 0.0, "name": "711bbb1769d01b216aa50918834b22c5", "is_reserved": 0, "rental_uris": {"android": "https://dc.lft.to/lastmile_qr_scan", "ios": "https://dc.lft.to/lastmile_qr_scan"}, "fusion_lon": 0.0}, {"lat": 38.92497816666667, "is_disabled": 0, "type": "electric_scooter", "lon": -77.05226, "bike_id": "1451440a7bc10fc04184389a68ba6dd8", "fusion_lat": 0.0, "name": "1451440a7bc10fc04184389a68ba6dd8", "is_reserved": 0, "rental_uris": {"android": "https://dc.lft.to/lastmile_qr_scan", "ios": "https://dc.lft.to/lastmile_qr_scan"}, "fusion_lon": 0.0}, {"lat": 38.917276333333334, "is_disabled": 0, "type": "electric_scooter", "lon": -77.032011, "bike_id": "6c8063a2bf0160b02d39a99fcb30bb70", "fusion_lat": 0.0, "name": "6c8063a2bf0160b02d39a99fcb30bb70", "is_reserved": 0, "rental_uris": {"android": "https://dc.lft.to/lastmile_qr_scan", "ios": "https://dc.lft.to/lastmile_qr_scan"}, "fusion_lon": 0.0}, {"lat": 38.902736166666664, "is_disabled": 0, "type": "electric_scooter", "lon": -77.0526265, "bike_id": "00cad08243b397df59f69d5662219fd3", "fusion_lat": 0.0, "name": "00cad08243b397df59f69d5662219fd3", "is_reserved": 0, "rental_uris": {"android": "https://dc.lft.to/lastmile_qr_scan", "ios": "https://dc.lft.to/lastmile_qr_scan"}, "fusion_lon": 0.0}, {"lat": 38.8922255, "is_disabled": 0, "type": "electric_scooter", "lon": -77.04859583333334, "bike_id": "08348ebb5c349c2b512c80cd69109185", "fusion_lat": 0.0, "name": "08348ebb5c349c2b512c80cd69109185", "is_reserved": 0, "rental_uris": {"android": "https://dc.lft.to/lastmile_qr_scan", "ios": "https://dc.lft.to/lastmile_qr_scan"}, "fusion_lon": 0.0}, {"lat": 38.905435, "is_disabled": 0, "type": "electric_scooter", "lon": -77.05701066666667, "bike_id": "991578b711aea0071b2d022fb01b9a43", "fusion_lat": 0.0, "name": "991578b711aea0071b2d022fb01b9a43", "is_reserved": 0, "rental_uris": {"android": "https://dc.lft.to/lastmile_qr_scan", "ios": "https://dc.lft.to/lastmile_qr_scan"}, "fusion_lon": 0.0}, {"lat": 38.959565833333336, "is_disabled": 0, "type": "electric_bike", "lon": -77.10091733333333, "bike_id": "18cb613309f5b5aa7a0fafb48b1f2aad", "fusion_lat": 0.0, "name": "18cb613309f5b5aa7a0fafb48b1f2aad", "is_reserved": 0, "rental_uris": {"android": "https://dc.lft.to/lastmile_qr_scan", "ios": "https://dc.lft.to/lastmile_qr_scan"}, "fusion_lon": 0.0}, {"lat": 38.8922265, "is_disabled": 0, "type": "electric_scooter", "lon": -77.0468655, "bike_id": "78cf711d60b59a160824384c7d8c158e", "fusion_lat": 0.0, "name": "78cf711d60b59a160824384c7d8c158e", "is_reserved": 0, "rental_uris": {"android": "https://dc.lft.to/lastmile_qr_scan", "ios": "https://dc.lft.to/lastmile_qr_scan"}, "fusion_lon": 0.0}, {"lat": 38.919185, "is_disabled": 0, "type": "electric_scooter", "lon": -77.04806316666667, "bike_id": "4b3dc730f1443af76431a796fe2cb1ef", "fusion_lat": 0.0, "name": "4b3dc730f1443af76431a796fe2cb1ef", "is_reserved": 0, "rental_uris": {"android": "https://dc.lft.to/lastmile_qr_scan", "ios": "https://dc.lft.to/lastmile_qr_scan"}, "fusion_lon": 0.0}, {"lat": 38.91814166666666, "is_disabled": 0, "type": "electric_scooter", "lon": -77.03195866666667, "bike_id": "1eb8a6415333434e80cf25c20afdca1c", "fusion_lat": 0.0, "name": "1eb8a6415333434e80cf25c20afdca1c", "is_reserved": 0, "rental_uris": {"android": "https://dc.lft.to/lastmile_qr_scan", "ios": "https://dc.lft.to/lastmile_qr_scan"}, "fusion_lon": 0.0}, {"lat": 38.92340016666667, "is_disabled": 0, "type": "electric_scooter", "lon": -77.03515016666667, "bike_id": "2e7f0ac9721f61723e6de2d1e2960d62", "fusion_lat": 0.0, "name": "2e7f0ac9721f61723e6de2d1e2960d62", "is_reserved": 0, "rental_uris": {"android": "https://dc.lft.to/lastmile_qr_scan", "ios": "https://dc.lft.to/lastmile_qr_scan"}, "fusion_lon": 0.0}, {"lat": 38.916135833333335, "is_disabled": 0, "type": "electric_bike", "lon": -77.002912, "bike_id": "56e646d072e823fb809aa9da8b39084f", "fusion_lat": 0.0, "name": "56e646d072e823fb809aa9da8b39084f", "is_reserved": 0, "rental_uris": {"android": "https://dc.lft.to/lastmile_qr_scan", "ios": "https://dc.lft.to/lastmile_qr_scan"}, "fusion_lon": 0.0}, {"lat": 38.9595825, "is_disabled": 0, "type": "electric_scooter", "lon": -77.03315966666666, "bike_id": "4b99be7c83c513d9c7e707b638339d03", "fusion_lat": 0.0, "name": "4b99be7c83c513d9c7e707b638339d03", "is_reserved": 0, "rental_uris": {"android": "https://dc.lft.to/lastmile_qr_scan", "ios": "https://dc.lft.to/lastmile_qr_scan"}, "fusion_lon": 0.0}, {"lat": 38.9249825, "is_disabled": 0, "type": "electric_scooter", "lon": -77.0215985, "bike_id": "7f77b6c743571b6dc5f020b47b8bcd15", "fusion_lat": 0.0, "name": "7f77b6c743571b6dc5f020b47b8bcd15", "is_reserved": 0, "rental_uris": {"android": "https://dc.lft.to/lastmile_qr_scan", "ios": "https://dc.lft.to/lastmile_qr_scan"}, "fusion_lon": 0.0}, {"lat": 38.91321883333333, "is_disabled": 0, "type": "electric_scooter", "lon": -77.03262916666667, "bike_id": "a9c70a7584536e49ddff7f1b649228cc", "fusion_lat": 0.0, "name": "a9c70a7584536e49ddff7f1b649228cc", "is_reserved": 0, "rental_uris": {"android": "https://dc.lft.to/lastmile_qr_scan", "ios": "https://dc.lft.to/lastmile_qr_scan"}, "fusion_lon": 0.0}, {"lat": 38.88486266666666, "is_disabled": 0, "type": "electric_scooter", "lon": -77.03474766666666, "bike_id": "962536269c7835da1322848063bf5498", "fusion_lat": 0.0, "name": "962536269c7835da1322848063bf5498", "is_reserved": 0, "rental_uris": {"android": "https://dc.lft.to/lastmile_qr_scan", "ios": "https://dc.lft.to/lastmile_qr_scan"}, "fusion_lon": 0.0}, {"lat": 38.90566483333333, "is_disabled": 0, "type": "electric_scooter", "lon": -77.0058735, "bike_id": "5184a9caff6870758ab893cf73bd782a", "fusion_lat": 0.0, "name": "5184a9caff6870758ab893cf73bd782a", "is_reserved": 0, "rental_uris": {"android": "https://dc.lft.to/lastmile_qr_scan", "ios": "https://dc.lft.to/lastmile_qr_scan"}, "fusion_lon": 0.0}, {"lat": 38.919888, "is_disabled": 0, "type": "electric_scooter", "lon": -77.03267266666667, "bike_id": "d463949d74d3136ec0798e11af2b6c19", "fusion_lat": 0.0, "name": "d463949d74d3136ec0798e11af2b6c19", "is_reserved": 0, "rental_uris": {"android": "https://dc.lft.to/lastmile_qr_scan", "ios": "https://dc.lft.to/lastmile_qr_scan"}, "fusion_lon": 0.0}, {"lat": 38.90027633333333, "is_disabled": 0, "type": "electric_scooter", "lon": -77.00003266666667, "bike_id": "58784e77186d9dd72b3790b648bb45fb", "fusion_lat": 0.0, "name": "58784e77186d9dd72b3790b648bb45fb", "is_reserved": 0, "rental_uris": {"android": "https://dc.lft.to/lastmile_qr_scan", "ios": "https://dc.lft.to/lastmile_qr_scan"}, "fusion_lon": 0.0}, {"lat": 38.89896133333333, "is_disabled": 0, "type": "electric_scooter", "lon": -76.99730433333333, "bike_id": "eb6f6c044ca9c0cff966dbd0317e3996", "fusion_lat": 0.0, "name": "eb6f6c044ca9c0cff966dbd0317e3996", "is_reserved": 0, "rental_uris": {"android": "https://dc.lft.to/lastmile_qr_scan", "ios": "https://dc.lft.to/lastmile_qr_scan"}, "fusion_lon": 0.0}, {"lat": 38.902332333333334, "is_disabled": 0, "type": "electric_scooter", "lon": -77.00066066666666, "bike_id": "eae99043f24d34cedcfe2b36a21363d9", "fusion_lat": 0.0, "name": "eae99043f24d34cedcfe2b36a21363d9", "is_reserved": 0, "rental_uris": {"android": "https://dc.lft.to/lastmile_qr_scan", "ios": "https://dc.lft.to/lastmile_qr_scan"}, "fusion_lon": 0.0}, {"lat": 38.898845333333334, "is_disabled": 0, "type": "electric_scooter", "lon": -76.931794, "bike_id": "e58a3a5fdca6cd3c3a6aa8e0b690eb30", "fusion_lat": 0.0, "name": "e58a3a5fdca6cd3c3a6aa8e0b690eb30", "is_reserved": 0, "rental_uris": {"android": "https://dc.lft.to/lastmile_qr_scan", "ios": "https://dc.lft.to/lastmile_qr_scan"}, "fusion_lon": 0.0}, {"lat": 38.88138816666667, "is_disabled": 0, "type": "electric_scooter", "lon": -76.99518266666666, "bike_id": "2c35e323627aaeb9741ec6e625edff05", "fusion_lat": 0.0, "name": "2c35e323627aaeb9741ec6e625edff05", "is_reserved": 0, "rental_uris": {"android": "https://dc.lft.to/lastmile_qr_scan", "ios": "https://dc.lft.to/lastmile_qr_scan"}, "fusion_lon": 0.0}, {"lat": 38.868917, "is_disabled": 0, "type": "electric_scooter", "lon": -76.983122, "bike_id": "5c28bf654b089049476caf3033f9deeb", "fusion_lat": 0.0, "name": "5c28bf654b089049476caf3033f9deeb", "is_reserved": 0, "rental_uris": {"android": "https://dc.lft.to/lastmile_qr_scan", "ios": "https://dc.lft.to/lastmile_qr_scan"}, "fusion_lon": 0.0}, {"lat": 38.87711683333333, "is_disabled": 0, "type": "electric_scooter", "lon": -77.01757783333333, "bike_id": "20d163b3be8896fff488c834f3d4b198", "fusion_lat": 0.0, "name": "20d163b3be8896fff488c834f3d4b198", "is_reserved": 0, "rental_uris": {"android": "https://dc.lft.to/lastmile_qr_scan", "ios": "https://dc.lft.to/lastmile_qr_scan"}, "fusion_lon": 0.0}, {"lat": 38.90575316666666, "is_disabled": 0, "type": "electric_scooter", "lon": -77.00883483333334, "bike_id": "e566e275c8f846641557306fb5165f4c", "fusion_lat": 0.0, "name": "e566e275c8f846641557306fb5165f4c", "is_reserved": 0, "rental_uris": {"android": "https://dc.lft.to/lastmile_qr_scan", "ios": "https://dc.lft.to/lastmile_qr_scan"}, "fusion_lon": 0.0}, {"lat": 38.89941016666667, "is_disabled": 0, "type": "electric_scooter", "lon": -77.0280735, "bike_id": "a6e927f23d960ff6b16e8dd75f800c93", "fusion_lat": 0.0, "name": "a6e927f23d960ff6b16e8dd75f800c93", "is_reserved": 0, "rental_uris": {"android": "https://dc.lft.to/lastmile_qr_scan", "ios": "https://dc.lft.to/lastmile_qr_scan"}, "fusion_lon": 0.0}, {"lat": 38.9353535, "is_disabled": 0, "type": "electric_scooter", "lon": -77.07293583333333, "bike_id": "8b956433a3c4888a60878792789780f7", "fusion_lat": 0.0, "name": "8b956433a3c4888a60878792789780f7", "is_reserved": 0, "rental_uris": {"android": "https://dc.lft.to/lastmile_qr_scan", "ios": "https://dc.lft.to/lastmile_qr_scan"}, "fusion_lon": 0.0}, {"lat": 38.895293833333334, "is_disabled": 0, "type": "electric_scooter", "lon": -76.94888366666666, "bike_id": "69a052d356fb38fa20bc5471a3c397be", "fusion_lat": 0.0, "name": "69a052d356fb38fa20bc5471a3c397be", "is_reserved": 0, "rental_uris": {"android": "https://dc.lft.to/lastmile_qr_scan", "ios": "https://dc.lft.to/lastmile_qr_scan"}, "fusion_lon": 0.0}, {"lat": 38.90572433333333, "is_disabled": 0, "type": "electric_scooter", "lon": -77.016848, "bike_id": "acd7a8d3241684858ebbb3c435b5d5ed", "fusion_lat": 0.0, "name": "acd7a8d3241684858ebbb3c435b5d5ed", "is_reserved": 0, "rental_uris": {"android": "https://dc.lft.to/lastmile_qr_scan", "ios": "https://dc.lft.to/lastmile_qr_scan"}, "fusion_lon": 0.0}, {"lat": 38.890511333333336, "is_disabled": 0, "type": "electric_scooter", "lon": -76.93747033333334, "bike_id": "e0113fa573d14000d9e51ad66a31f90c", "fusion_lat": 0.0, "name": "e0113fa573d14000d9e51ad66a31f90c", "is_reserved": 0, "rental_uris": {"android": "https://dc.lft.to/lastmile_qr_scan", "ios": "https://dc.lft.to/lastmile_qr_scan"}, "fusion_lon": 0.0}, {"lat": 38.902748, "is_disabled": 0, "type": "electric_scooter", "lon": -77.05804733333333, "bike_id": "4abac0dc3f4fccb6a409396a8be55884", "fusion_lat": 0.0, "name": "4abac0dc3f4fccb6a409396a8be55884", "is_reserved": 0, "rental_uris": {"android": "https://dc.lft.to/lastmile_qr_scan", "ios": "https://dc.lft.to/lastmile_qr_scan"}, "fusion_lon": 0.0}, {"lat": 38.909416, "is_disabled": 0, "type": "electric_scooter", "lon": -76.98963366666666, "bike_id": "85226f8b93ec1fca3a7bc19f3f80e4e8", "fusion_lat": 0.0, "name": "85226f8b93ec1fca3a7bc19f3f80e4e8", "is_reserved": 0, "rental_uris": {"android": "https://dc.lft.to/lastmile_qr_scan", "ios": "https://dc.lft.to/lastmile_qr_scan"}, "fusion_lon": 0.0}, {"lat": 38.90085033333333, "is_disabled": 0, "type": "electric_scooter", "lon": -77.02727683333333, "bike_id": "41b4722219aeaf949e7bfff466a538a9", "fusion_lat": 0.0, "name": "41b4722219aeaf949e7bfff466a538a9", "is_reserved": 0, "rental_uris": {"android": "https://dc.lft.to/lastmile_qr_scan", "ios": "https://dc.lft.to/lastmile_qr_scan"}, "fusion_lon": 0.0}, {"lat": 38.903571, "is_disabled": 0, "type": "electric_scooter", "lon": -77.01119733333333, "bike_id": "afb513c2cbdbacda1e9f90da7312969e", "fusion_lat": 0.0, "name": "afb513c2cbdbacda1e9f90da7312969e", "is_reserved": 0, "rental_uris": {"android": "https://dc.lft.to/lastmile_qr_scan", "ios": "https://dc.lft.to/lastmile_qr_scan"}, "fusion_lon": 0.0}, {"lat": 38.84036616666667, "is_disabled": 0, "type": "electric_bike", "lon": -76.97586733333333, "bike_id": "8dc7b5dd36c36e44c5e87a8aef8ab3e1", "fusion_lat": 0.0, "name": "8dc7b5dd36c36e44c5e87a8aef8ab3e1", "is_reserved": 0, "rental_uris": {"android": "https://dc.lft.to/lastmile_qr_scan", "ios": "https://dc.lft.to/lastmile_qr_scan"}, "fusion_lon": 0.0}, {"lat": 38.87418, "is_disabled": 0, "type": "electric_bike", "lon": -76.96577216666667, "bike_id": "7352b26b88be8432cf568ef15c487479", "fusion_lat": 0.0, "name": "7352b26b88be8432cf568ef15c487479", "is_reserved": 0, "rental_uris": {"android": "https://dc.lft.to/lastmile_qr_scan", "ios": "https://dc.lft.to/lastmile_qr_scan"}, "fusion_lon": 0.0}, {"lat": 38.8874165, "is_disabled": 0, "type": "electric_scooter", "lon": -76.98358883333333, "bike_id": "eb8b3c85ba67bdcfe4cf5001f39524cd", "fusion_lat": 0.0, "name": "eb8b3c85ba67bdcfe4cf5001f39524cd", "is_reserved": 0, "rental_uris": {"android": "https://dc.lft.to/lastmile_qr_scan", "ios": "https://dc.lft.to/lastmile_qr_scan"}, "fusion_lon": 0.0}, {"lat": 38.8669745, "is_disabled": 0, "type": "electric_scooter", "lon": -76.987124, "bike_id": "610a2accc08ab8f64b9aab14fc67b5d3", "fusion_lat": 0.0, "name": "610a2accc08ab8f64b9aab14fc67b5d3", "is_reserved": 0, "rental_uris": {"android": "https://dc.lft.to/lastmile_qr_scan", "ios": "https://dc.lft.to/lastmile_qr_scan"}, "fusion_lon": 0.0}, {"lat": 38.96927016666667, "is_disabled": 0, "type": "electric_bike", "lon": -77.02623766666666, "bike_id": "616a702e1cc354e3c0ed80b53d81f357", "fusion_lat": 0.0, "name": "616a702e1cc354e3c0ed80b53d81f357", "is_reserved": 0, "rental_uris": {"android": "https://dc.lft.to/lastmile_qr_scan", "ios": "https://dc.lft.to/lastmile_qr_scan"}, "fusion_lon": 0.0}, {"lat": 38.91569916666667, "is_disabled": 0, "type": "electric_scooter", "lon": -77.045031, "bike_id": "1e313ca98c66fe835c1b1cdf8f063699", "fusion_lat": 0.0, "name": "1e313ca98c66fe835c1b1cdf8f063699", "is_reserved": 0, "rental_uris": {"android": "https://dc.lft.to/lastmile_qr_scan", "ios": "https://dc.lft.to/lastmile_qr_scan"}, "fusion_lon": 0.0}, {"lat": 38.898339, "is_disabled": 0, "type": "electric_scooter", "lon": -76.93103283333333, "bike_id": "dd299e1e8727c061fab9d196fffaba8e", "fusion_lat": 0.0, "name": "dd299e1e8727c061fab9d196fffaba8e", "is_reserved": 0, "rental_uris": {"android": "https://dc.lft.to/lastmile_qr_scan", "ios": "https://dc.lft.to/lastmile_qr_scan"}, "fusion_lon": 0.0}, {"lat": 38.87373266666667, "is_disabled": 0, "type": "electric_bike", "lon": -77.11803183333333, "bike_id": "15034061d086bff3ddef184bd5984bf8", "fusion_lat": 0.0, "name": "15034061d086bff3ddef184bd5984bf8", "is_reserved": 0, "rental_uris": {"android": "https://dc.lft.to/lastmile_qr_scan", "ios": "https://dc.lft.to/lastmile_qr_scan"}, "fusion_lon": 0.0}, {"lat": 38.90573466666667, "is_disabled": 0, "type": "electric_scooter", "lon": -77.02496883333333, "bike_id": "a8b6d19e65e43c10141be320a59bd3ee", "fusion_lat": 0.0, "name": "a8b6d19e65e43c10141be320a59bd3ee", "is_reserved": 0, "rental_uris": {"android": "https://dc.lft.to/lastmile_qr_scan", "ios": "https://dc.lft.to/lastmile_qr_scan"}, "fusion_lon": 0.0}, {"lat": 38.906624666666666, "is_disabled": 0, "type": "electric_scooter", "lon": -77.037676, "bike_id": "edebcadeb109ed2fe22ad19451200c02", "fusion_lat": 0.0, "name": "edebcadeb109ed2fe22ad19451200c02", "is_reserved": 0, "rental_uris": {"android": "https://dc.lft.to/lastmile_qr_scan", "ios": "https://dc.lft.to/lastmile_qr_scan"}, "fusion_lon": 0.0}, {"lat": 38.89621566666667, "is_disabled": 0, "type": "electric_scooter", "lon": -77.03168216666667, "bike_id": "97b477fbc86f07ce8459449bc413f09f", "fusion_lat": 0.0, "name": "97b477fbc86f07ce8459449bc413f09f", "is_reserved": 0, "rental_uris": {"android": "https://dc.lft.to/lastmile_qr_scan", "ios": "https://dc.lft.to/lastmile_qr_scan"}, "fusion_lon": 0.0}, {"lat": 38.921106, "is_disabled": 0, "type": "electric_scooter", "lon": -77.04363566666666, "bike_id": "6e3a0c4cd4a2c9a7912d22b39664d90b", "fusion_lat": 0.0, "name": "6e3a0c4cd4a2c9a7912d22b39664d90b", "is_reserved": 0, "rental_uris": {"android": "https://dc.lft.to/lastmile_qr_scan", "ios": "https://dc.lft.to/lastmile_qr_scan"}, "fusion_lon": 0.0}, {"lat": 38.90028616666667, "is_disabled": 0, "type": "electric_scooter", "lon": -76.99825533333333, "bike_id": "395c1be028368beff44cf221a3b6abfc", "fusion_lat": 0.0, "name": "395c1be028368beff44cf221a3b6abfc", "is_reserved": 0, "rental_uris": {"android": "https://dc.lft.to/lastmile_qr_scan", "ios": "https://dc.lft.to/lastmile_qr_scan"}, "fusion_lon": 0.0}, {"lat": 38.911444333333336, "is_disabled": 0, "type": "electric_scooter", "lon": -77.01897933333333, "bike_id": "7ad693b6faf51c01795fc6d7afa3dfe8", "fusion_lat": 0.0, "name": "7ad693b6faf51c01795fc6d7afa3dfe8", "is_reserved": 0, "rental_uris": {"android": "https://dc.lft.to/lastmile_qr_scan", "ios": "https://dc.lft.to/lastmile_qr_scan"}, "fusion_lon": 0.0}, {"lat": 38.949907, "is_disabled": 0, "type": "electric_bike", "lon": -77.0296185, "bike_id": "7b234ad62c7c117dbc4b294bdea7fa9f", "fusion_lat": 0.0, "name": "7b234ad62c7c117dbc4b294bdea7fa9f", "is_reserved": 0, "rental_uris": {"android": "https://dc.lft.to/lastmile_qr_scan", "ios": "https://dc.lft.to/lastmile_qr_scan"}, "fusion_lon": 0.0}, {"lat": 38.93104133333333, "is_disabled": 0, "type": "electric_scooter", "lon": -77.02557283333333, "bike_id": "801a7c34f67cbf34e58ae3dda272f33a", "fusion_lat": 0.0, "name": "801a7c34f67cbf34e58ae3dda272f33a", "is_reserved": 0, "rental_uris": {"android": "https://dc.lft.to/lastmile_qr_scan", "ios": "https://dc.lft.to/lastmile_qr_scan"}, "fusion_lon": 0.0}, {"lat": 38.935044833333336, "is_disabled": 0, "type": "electric_scooter", "lon": -77.04287533333333, "bike_id": "1c1f52a80621ffcf328441bac7261ec5", "fusion_lat": 0.0, "name": "1c1f52a80621ffcf328441bac7261ec5", "is_reserved": 0, "rental_uris": {"android": "https://dc.lft.to/lastmile_qr_scan", "ios": "https://dc.lft.to/lastmile_qr_scan"}, "fusion_lon": 0.0}, {"lat": 38.89228683333333, "is_disabled": 0, "type": "electric_bike", "lon": -77.03444216666666, "bike_id": "29676f09c51afb3c84c0c81b2481a457", "fusion_lat": 0.0, "name": "29676f09c51afb3c84c0c81b2481a457", "is_reserved": 0, "rental_uris": {"android": "https://dc.lft.to/lastmile_qr_scan", "ios": "https://dc.lft.to/lastmile_qr_scan"}, "fusion_lon": 0.0}, {"lat": 38.915890833333336, "is_disabled": 0, "type": "electric_scooter", "lon": -77.023035, "bike_id": "ec746272f88f0ee92d896b412af6b9d3", "fusion_lat": 0.0, "name": "ec746272f88f0ee92d896b412af6b9d3", "is_reserved": 0, "rental_uris": {"android": "https://dc.lft.to/lastmile_qr_scan", "ios": "https://dc.lft.to/lastmile_qr_scan"}, "fusion_lon": 0.0}, {"lat": 38.9203495, "is_disabled": 0, "type": "electric_scooter", "lon": -77.04195233333333, "bike_id": "8f6a829075660e8292107c80e7992285", "fusion_lat": 0.0, "name": "8f6a829075660e8292107c80e7992285", "is_reserved": 0, "rental_uris": {"android": "https://dc.lft.to/lastmile_qr_scan", "ios": "https://dc.lft.to/lastmile_qr_scan"}, "fusion_lon": 0.0}, {"lat": 38.90654216666667, "is_disabled": 0, "type": "electric_scooter", "lon": -77.03387983333333, "bike_id": "2735dc1ea905abc81b610260d4bd4109", "fusion_lat": 0.0, "name": "2735dc1ea905abc81b610260d4bd4109", "is_reserved": 0, "rental_uris": {"android": "https://dc.lft.to/lastmile_qr_scan", "ios": "https://dc.lft.to/lastmile_qr_scan"}, "fusion_lon": 0.0}, {"lat": 38.9067005, "is_disabled": 0, "type": "electric_scooter", "lon": -77.03765183333333, "bike_id": "37c5003bd768bf3f42fb982e67fa7fc0", "fusion_lat": 0.0, "name": "37c5003bd768bf3f42fb982e67fa7fc0", "is_reserved": 0, "rental_uris": {"android": "https://dc.lft.to/lastmile_qr_scan", "ios": "https://dc.lft.to/lastmile_qr_scan"}, "fusion_lon": 0.0}, {"lat": 38.8973135, "is_disabled": 0, "type": "electric_scooter", "lon": -77.02165966666666, "bike_id": "da536e02745ea7ce3cc31c42459e3253", "fusion_lat": 0.0, "name": "da536e02745ea7ce3cc31c42459e3253", "is_reserved": 0, "rental_uris": {"android": "https://dc.lft.to/lastmile_qr_scan", "ios": "https://dc.lft.to/lastmile_qr_scan"}, "fusion_lon": 0.0}, {"lat": 38.859046, "is_disabled": 0, "type": "electric_scooter", "lon": -76.99150133333333, "bike_id": "5ebb13280510e8f1434fbbb32a4e7df7", "fusion_lat": 0.0, "name": "5ebb13280510e8f1434fbbb32a4e7df7", "is_reserved": 0, "rental_uris": {"android": "https://dc.lft.to/lastmile_qr_scan", "ios": "https://dc.lft.to/lastmile_qr_scan"}, "fusion_lon": 0.0}, {"lat": 38.9061375, "is_disabled": 0, "type": "electric_scooter", "lon": -77.01883316666667, "bike_id": "374fad5df9e2c15a3f285eeb43de7591", "fusion_lat": 0.0, "name": "374fad5df9e2c15a3f285eeb43de7591", "is_reserved": 0, "rental_uris": {"android": "https://dc.lft.to/lastmile_qr_scan", "ios": "https://dc.lft.to/lastmile_qr_scan"}, "fusion_lon": 0.0}, {"lat": 38.917333166666666, "is_disabled": 0, "type": "electric_scooter", "lon": -77.03644383333334, "bike_id": "6f438df406b44ebce59d9722e5634bde", "fusion_lat": 0.0, "name": "6f438df406b44ebce59d9722e5634bde", "is_reserved": 0, "rental_uris": {"android": "https://dc.lft.to/lastmile_qr_scan", "ios": "https://dc.lft.to/lastmile_qr_scan"}, "fusion_lon": 0.0}, {"lat": 39.052031166666666, "is_disabled": 0, "type": "electric_bike", "lon": -77.10919366666667, "bike_id": "e0fce5d90c835d9fa864783318b74857", "fusion_lat": 0.0, "name": "e0fce5d90c835d9fa864783318b74857", "is_reserved": 0, "rental_uris": {"android": "https://dc.lft.to/lastmile_qr_scan", "ios": "https://dc.lft.to/lastmile_qr_scan"}, "fusion_lon": 0.0}, {"lat": 38.90214133333333, "is_disabled": 0, "type": "electric_scooter", "lon": -77.02377883333334, "bike_id": "31ad7c7ac2205be5f340f8a76f81fcc9", "fusion_lat": 0.0, "name": "31ad7c7ac2205be5f340f8a76f81fcc9", "is_reserved": 0, "rental_uris": {"android": "https://dc.lft.to/lastmile_qr_scan", "ios": "https://dc.lft.to/lastmile_qr_scan"}, "fusion_lon": 0.0}, {"lat": 38.952824166666666, "is_disabled": 0, "type": "electric_scooter", "lon": -77.06870783333333, "bike_id": "f78c6fc8c4be0aeafa7439221779577c", "fusion_lat": 0.0, "name": "f78c6fc8c4be0aeafa7439221779577c", "is_reserved": 0, "rental_uris": {"android": "https://dc.lft.to/lastmile_qr_scan", "ios": "https://dc.lft.to/lastmile_qr_scan"}, "fusion_lon": 0.0}, {"lat": 38.89906416666667, "is_disabled": 0, "type": "electric_scooter", "lon": -76.93354166666667, "bike_id": "dabf03ca064c9206db9ee1e4f47a0d03", "fusion_lat": 0.0, "name": "dabf03ca064c9206db9ee1e4f47a0d03", "is_reserved": 0, "rental_uris": {"android": "https://dc.lft.to/lastmile_qr_scan", "ios": "https://dc.lft.to/lastmile_qr_scan"}, "fusion_lon": 0.0}, {"lat": 38.86651766666667, "is_disabled": 0, "type": "electric_scooter", "lon": -76.98887683333334, "bike_id": "ace12928027dcdf2d44bf82180063e40", "fusion_lat": 0.0, "name": "ace12928027dcdf2d44bf82180063e40", "is_reserved": 0, "rental_uris": {"android": "https://dc.lft.to/lastmile_qr_scan", "ios": "https://dc.lft.to/lastmile_qr_scan"}, "fusion_lon": 0.0}, {"lat": 38.923626666666664, "is_disabled": 0, "type": "electric_scooter", "lon": -77.0505595, "bike_id": "320c018119e5e3f3cd1abdb3a5abc7df", "fusion_lat": 0.0, "name": "320c018119e5e3f3cd1abdb3a5abc7df", "is_reserved": 0, "rental_uris": {"android": "https://dc.lft.to/lastmile_qr_scan", "ios": "https://dc.lft.to/lastmile_qr_scan"}, "fusion_lon": 0.0}, {"lat": 38.915488, "is_disabled": 0, "type": "electric_scooter", "lon": -77.0531955, "bike_id": "96759ef62482cc872d84c28a7abcb79e", "fusion_lat": 0.0, "name": "96759ef62482cc872d84c28a7abcb79e", "is_reserved": 0, "rental_uris": {"android": "https://dc.lft.to/lastmile_qr_scan", "ios": "https://dc.lft.to/lastmile_qr_scan"}, "fusion_lon": 0.0}, {"lat": 38.9354105, "is_disabled": 0, "type": "electric_scooter", "lon": -77.03264316666667, "bike_id": "e03ff53b51a3590a08dfff6710ee3f8a", "fusion_lat": 0.0, "name": "e03ff53b51a3590a08dfff6710ee3f8a", "is_reserved": 0, "rental_uris": {"android": "https://dc.lft.to/lastmile_qr_scan", "ios": "https://dc.lft.to/lastmile_qr_scan"}, "fusion_lon": 0.0}, {"lat": 38.90830483333333, "is_disabled": 0, "type": "electric_scooter", "lon": -77.034751, "bike_id": "2752971e923d8d0966ef9a329ba05dc0", "fusion_lat": 0.0, "name": "2752971e923d8d0966ef9a329ba05dc0", "is_reserved": 0, "rental_uris": {"android": "https://dc.lft.to/lastmile_qr_scan", "ios": "https://dc.lft.to/lastmile_qr_scan"}, "fusion_lon": 0.0}, {"lat": 38.905547, "is_disabled": 0, "type": "electric_scooter", "lon": -77.0340085, "bike_id": "e4f0e8bd75b39409cf93509f4dd5cae6", "fusion_lat": 0.0, "name": "e4f0e8bd75b39409cf93509f4dd5cae6", "is_reserved": 0, "rental_uris": {"android": "https://dc.lft.to/lastmile_qr_scan", "ios": "https://dc.lft.to/lastmile_qr_scan"}, "fusion_lon": 0.0}, {"lat": 38.8922265, "is_disabled": 0, "type": "electric_scooter", "lon": -77.04866416666667, "bike_id": "649919698e51e7b86e862cb2689b7a33", "fusion_lat": 0.0, "name": "649919698e51e7b86e862cb2689b7a33", "is_reserved": 0, "rental_uris": {"android": "https://dc.lft.to/lastmile_qr_scan", "ios": "https://dc.lft.to/lastmile_qr_scan"}, "fusion_lon": 0.0}, {"lat": 38.921688833333334, "is_disabled": 0, "type": "electric_scooter", "lon": -77.04008133333333, "bike_id": "53be7be1ceee1b784f07f607b81177c4", "fusion_lat": 0.0, "name": "53be7be1ceee1b784f07f607b81177c4", "is_reserved": 0, "rental_uris": {"android": "https://dc.lft.to/lastmile_qr_scan", "ios": "https://dc.lft.to/lastmile_qr_scan"}, "fusion_lon": 0.0}, {"lat": 38.8949715, "is_disabled": 0, "type": "electric_scooter", "lon": -77.022127, "bike_id": "9b1108db65ba94553d9eac23cb41a59a", "fusion_lat": 0.0, "name": "9b1108db65ba94553d9eac23cb41a59a", "is_reserved": 0, "rental_uris": {"android": "https://dc.lft.to/lastmile_qr_scan", "ios": "https://dc.lft.to/lastmile_qr_scan"}, "fusion_lon": 0.0}, {"lat": 38.8921975, "is_disabled": 0, "type": "electric_scooter", "lon": -77.0262765, "bike_id": "3ebae54d72b36f463c5bd5d4c77cf670", "fusion_lat": 0.0, "name": "3ebae54d72b36f463c5bd5d4c77cf670", "is_reserved": 0, "rental_uris": {"android": "https://dc.lft.to/lastmile_qr_scan", "ios": "https://dc.lft.to/lastmile_qr_scan"}, "fusion_lon": 0.0}, {"lat": 38.9159695, "is_disabled": 0, "type": "electric_scooter", "lon": -77.01591466666666, "bike_id": "1dabfad54e8e2d671cf2a13eaa4ca785", "fusion_lat": 0.0, "name": "1dabfad54e8e2d671cf2a13eaa4ca785", "is_reserved": 0, "rental_uris": {"android": "https://dc.lft.to/lastmile_qr_scan", "ios": "https://dc.lft.to/lastmile_qr_scan"}, "fusion_lon": 0.0}, {"lat": 38.91908883333333, "is_disabled": 0, "type": "electric_scooter", "lon": -77.03174633333333, "bike_id": "631afd4d51d1b040b3666e6bd2a9e6f6", "fusion_lat": 0.0, "name": "631afd4d51d1b040b3666e6bd2a9e6f6", "is_reserved": 0, "rental_uris": {"android": "https://dc.lft.to/lastmile_qr_scan", "ios": "https://dc.lft.to/lastmile_qr_scan"}, "fusion_lon": 0.0}, {"lat": 38.892240666666666, "is_disabled": 0, "type": "electric_scooter", "lon": -77.02626216666667, "bike_id": "43efb133920e3e61b878b9701e9d9275", "fusion_lat": 0.0, "name": "43efb133920e3e61b878b9701e9d9275", "is_reserved": 0, "rental_uris": {"android": "https://dc.lft.to/lastmile_qr_scan", "ios": "https://dc.lft.to/lastmile_qr_scan"}, "fusion_lon": 0.0}, {"lat": 38.93234316666667, "is_disabled": 0, "type": "electric_scooter", "lon": -77.044157, "bike_id": "7f00202b406bb9b8d9b400fe0dad1eb2", "fusion_lat": 0.0, "name": "7f00202b406bb9b8d9b400fe0dad1eb2", "is_reserved": 0, "rental_uris": {"android": "https://dc.lft.to/lastmile_qr_scan", "ios": "https://dc.lft.to/lastmile_qr_scan"}, "fusion_lon": 0.0}, {"lat": 38.957468166666665, "is_disabled": 0, "type": "electric_bike", "lon": -77.02168183333333, "bike_id": "345b62af3a733c41eb56034cf77765c3", "fusion_lat": 0.0, "name": "345b62af3a733c41eb56034cf77765c3", "is_reserved": 0, "rental_uris": {"android": "https://dc.lft.to/lastmile_qr_scan", "ios": "https://dc.lft.to/lastmile_qr_scan"}, "fusion_lon": 0.0}, {"lat": 38.91758, "is_disabled": 0, "type": "electric_scooter", "lon": -77.004533, "bike_id": "e9b1defe1e9150ea4822f3c4e4f933c6", "fusion_lat": 0.0, "name": "e9b1defe1e9150ea4822f3c4e4f933c6", "is_reserved": 0, "rental_uris": {"android": "https://dc.lft.to/lastmile_qr_scan", "ios": "https://dc.lft.to/lastmile_qr_scan"}, "fusion_lon": 0.0}, {"lat": 38.90057516666667, "is_disabled": 0, "type": "electric_scooter", "lon": -77.007612, "bike_id": "cd158745a776f026ae132d83c04807ca", "fusion_lat": 0.0, "name": "cd158745a776f026ae132d83c04807ca", "is_reserved": 0, "rental_uris": {"android": "https://dc.lft.to/lastmile_qr_scan", "ios": "https://dc.lft.to/lastmile_qr_scan"}, "fusion_lon": 0.0}, {"lat": 38.885131666666666, "is_disabled": 0, "type": "electric_scooter", "lon": -77.0151235, "bike_id": "f6ef86e57fc47ebbe52c5e583bea2415", "fusion_lat": 0.0, "name": "f6ef86e57fc47ebbe52c5e583bea2415", "is_reserved": 0, "rental_uris": {"android": "https://dc.lft.to/lastmile_qr_scan", "ios": "https://dc.lft.to/lastmile_qr_scan"}, "fusion_lon": 0.0}, {"lat": 38.877191, "is_disabled": 0, "type": "electric_scooter", "lon": -77.017571, "bike_id": "bbb547d21fd206f45d42c3a0aed21158", "fusion_lat": 0.0, "name": "bbb547d21fd206f45d42c3a0aed21158", "is_reserved": 0, "rental_uris": {"android": "https://dc.lft.to/lastmile_qr_scan", "ios": "https://dc.lft.to/lastmile_qr_scan"}, "fusion_lon": 0.0}, {"lat": 38.86594, "is_disabled": 0, "type": "electric_bike", "lon": -76.93230883333334, "bike_id": "4ffdbfcb10c36c571568b91bf9809dc0", "fusion_lat": 0.0, "name": "4ffdbfcb10c36c571568b91bf9809dc0", "is_reserved": 0, "rental_uris": {"android": "https://dc.lft.to/lastmile_qr_scan", "ios": "https://dc.lft.to/lastmile_qr_scan"}, "fusion_lon": 0.0}, {"lat": 38.90567083333333, "is_disabled": 0, "type": "electric_scooter", "lon": -77.02175833333334, "bike_id": "16608056d7824760a3105daaa424144c", "fusion_lat": 0.0, "name": "16608056d7824760a3105daaa424144c", "is_reserved": 0, "rental_uris": {"android": "https://dc.lft.to/lastmile_qr_scan", "ios": "https://dc.lft.to/lastmile_qr_scan"}, "fusion_lon": 0.0}, {"lat": 38.8652335, "is_disabled": 0, "type": "electric_scooter", "lon": -76.9903025, "bike_id": "387b638e3a8250f67af86b5e9b8e07ee", "fusion_lat": 0.0, "name": "387b638e3a8250f67af86b5e9b8e07ee", "is_reserved": 0, "rental_uris": {"android": "https://dc.lft.to/lastmile_qr_scan", "ios": "https://dc.lft.to/lastmile_qr_scan"}, "fusion_lon": 0.0}, {"lat": 38.90999583333333, "is_disabled": 0, "type": "electric_scooter", "lon": -77.040104, "bike_id": "3af3d10c480d3b3c88d67bf813e13929", "fusion_lat": 0.0, "name": "3af3d10c480d3b3c88d67bf813e13929", "is_reserved": 0, "rental_uris": {"android": "https://dc.lft.to/lastmile_qr_scan", "ios": "https://dc.lft.to/lastmile_qr_scan"}, "fusion_lon": 0.0}, {"lat": 38.914021166666664, "is_disabled": 0, "type": "electric_scooter", "lon": -77.03186816666667, "bike_id": "83f7108cc3956813984061eb4ace34a6", "fusion_lat": 0.0, "name": "83f7108cc3956813984061eb4ace34a6", "is_reserved": 0, "rental_uris": {"android": "https://dc.lft.to/lastmile_qr_scan", "ios": "https://dc.lft.to/lastmile_qr_scan"}, "fusion_lon": 0.0}, {"lat": 38.8522475, "is_disabled": 0, "type": "electric_bike", "lon": -77.12961116666666, "bike_id": "734d954779215e99800955986f425999", "fusion_lat": 0.0, "name": "734d954779215e99800955986f425999", "is_reserved": 0, "rental_uris": {"android": "https://dc.lft.to/lastmile_qr_scan", "ios": "https://dc.lft.to/lastmile_qr_scan"}, "fusion_lon": 0.0}, {"lat": 38.8947525, "is_disabled": 0, "type": "electric_scooter", "lon": -77.026819, "bike_id": "d2ccc133c4a3c19b342a655591f34e28", "fusion_lat": 0.0, "name": "d2ccc133c4a3c19b342a655591f34e28", "is_reserved": 0, "rental_uris": {"android": "https://dc.lft.to/lastmile_qr_scan", "ios": "https://dc.lft.to/lastmile_qr_scan"}, "fusion_lon": 0.0}, {"lat": 38.899825666666665, "is_disabled": 0, "type": "electric_scooter", "lon": -77.05265066666666, "bike_id": "ad59edf57649e6d84e66491c6711a5e2", "fusion_lat": 0.0, "name": "ad59edf57649e6d84e66491c6711a5e2", "is_reserved": 0, "rental_uris": {"android": "https://dc.lft.to/lastmile_qr_scan", "ios": "https://dc.lft.to/lastmile_qr_scan"}, "fusion_lon": 0.0}, {"lat": 38.8957785, "is_disabled": 0, "type": "electric_scooter", "lon": -76.98180316666667, "bike_id": "d61951abb2adf78ae5b9aeb0d33d4f37", "fusion_lat": 0.0, "name": "d61951abb2adf78ae5b9aeb0d33d4f37", "is_reserved": 0, "rental_uris": {"android": "https://dc.lft.to/lastmile_qr_scan", "ios": "https://dc.lft.to/lastmile_qr_scan"}, "fusion_lon": 0.0}, {"lat": 38.85092316666667, "is_disabled": 0, "type": "electric_bike", "lon": -76.95678383333333, "bike_id": "d07d9edae65fc8e1192b69df4aa1700c", "fusion_lat": 0.0, "name": "d07d9edae65fc8e1192b69df4aa1700c", "is_reserved": 0, "rental_uris": {"android": "https://dc.lft.to/lastmile_qr_scan", "ios": "https://dc.lft.to/lastmile_qr_scan"}, "fusion_lon": 0.0}, {"lat": 38.899924666666664, "is_disabled": 0, "type": "electric_scooter", "lon": -77.026697, "bike_id": "a00ce28162ad751ff99293caf7135934", "fusion_lat": 0.0, "name": "a00ce28162ad751ff99293caf7135934", "is_reserved": 0, "rental_uris": {"android": "https://dc.lft.to/lastmile_qr_scan", "ios": "https://dc.lft.to/lastmile_qr_scan"}, "fusion_lon": 0.0}, {"lat": 38.9003935, "is_disabled": 0, "type": "electric_scooter", "lon": -77.0330355, "bike_id": "6f5bcb32e9c7859ce0ceaaffdecc13b8", "fusion_lat": 0.0, "name": "6f5bcb32e9c7859ce0ceaaffdecc13b8", "is_reserved": 0, "rental_uris": {"android": "https://dc.lft.to/lastmile_qr_scan", "ios": "https://dc.lft.to/lastmile_qr_scan"}, "fusion_lon": 0.0}, {"lat": 38.925365666666664, "is_disabled": 0, "type": "electric_scooter", "lon": -77.04130616666667, "bike_id": "aa9b8b82aeb8d36a281bfdcdcd17f157", "fusion_lat": 0.0, "name": "aa9b8b82aeb8d36a281bfdcdcd17f157", "is_reserved": 0, "rental_uris": {"android": "https://dc.lft.to/lastmile_qr_scan", "ios": "https://dc.lft.to/lastmile_qr_scan"}, "fusion_lon": 0.0}, {"lat": 38.85396216666667, "is_disabled": 0, "type": "electric_bike", "lon": -77.12486566666666, "bike_id": "3e787a034651b951104b193ccfefb806", "fusion_lat": 0.0, "name": "3e787a034651b951104b193ccfefb806", "is_reserved": 0, "rental_uris": {"android": "https://dc.lft.to/lastmile_qr_scan", "ios": "https://dc.lft.to/lastmile_qr_scan"}, "fusion_lon": 0.0}, {"lat": 38.91761, "is_disabled": 0, "type": "electric_scooter", "lon": -77.032013, "bike_id": "100344d2a2d37b15c96a2b0601479f85", "fusion_lat": 0.0, "name": "100344d2a2d37b15c96a2b0601479f85", "is_reserved": 0, "rental_uris": {"android": "https://dc.lft.to/lastmile_qr_scan", "ios": "https://dc.lft.to/lastmile_qr_scan"}, "fusion_lon": 0.0}, {"lat": 38.9005185, "is_disabled": 0, "type": "electric_scooter", "lon": -77.002157, "bike_id": "bad313c4c43e117b23f7d97e5a50459f", "fusion_lat": 0.0, "name": "bad313c4c43e117b23f7d97e5a50459f", "is_reserved": 0, "rental_uris": {"android": "https://dc.lft.to/lastmile_qr_scan", "ios": "https://dc.lft.to/lastmile_qr_scan"}, "fusion_lon": 0.0}, {"lat": 38.90573166666667, "is_disabled": 0, "type": "electric_scooter", "lon": -77.04646516666666, "bike_id": "9d80d1d0cf64ec26d369954fc1014eeb", "fusion_lat": 0.0, "name": "9d80d1d0cf64ec26d369954fc1014eeb", "is_reserved": 0, "rental_uris": {"android": "https://dc.lft.to/lastmile_qr_scan", "ios": "https://dc.lft.to/lastmile_qr_scan"}, "fusion_lon": 0.0},