{"data": {"bikes": [{"lon": -77.03744366666666, "fusion_lat": 0.0, "type": "electric_scooter", "lat": 38.916836333333336, "is_disabled": 0, "name": "ecc34d1b752ce522079aa1ef1bbb3c44", "is_reserved": 0, "bike_id": "ecc34d1b752ce522079aa1ef1bbb3c44", "fusion_lon": 0.0, "rental_uris": {"ios": "https://dc.lft.to/lastmile_qr_scan", "android": "https://dc.lft.to/lastmile_qr_scan"}}, {"lon": -76.9941585, "fusion_lat": 0.0, "type": "electric_scooter", "lat": 38.90787666666667, "is_disabled": 0, "name": "bebbc3c4fe407ec62f0ba2ae05478a9e", "is_reserved": 0, "bike_id": "bebbc3c4fe407ec62f0ba2ae05478a9e", "fusion_lon": 0.0, "rental_uris": {"ios": "https://dc.lft.to/lastmile_qr_scan", "android": "https://dc.lft.to/lastmile_qr_scan"}}, {"lon": -77.0463645, "fusion_lat": 0.0, "type": "electric_scooter", "lat": 38.91922783333333, "is_disabled": 0, "name": "d61afa54b094dc2bb5f3990f8f2d75fa", "is_reserved": 0, "bike_id": "d61afa54b094dc2bb5f3990f8f2d75fa", "fusion_lon": 0.0, "rental_uris": {"ios": "https://dc.lft.to/lastmile_qr_scan", "android": "https://dc.lft.to/lastmile_qr_scan"}}, {"lon": -77.03163166666667, "fusion_lat": 0.0, "type": "electric_scooter", "lat": 38.90957066666667, "is_disabled": 0, "name": "70238135caad3fc1e1266c66440a74be", "is_reserved": 0, "bike_id": "70238135caad3fc1e1266c66440a74be", "fusion_lon": 0.0, "rental_uris": {"ios": "https://dc.lft.to/lastmile_qr_scan", "android": "https://dc.lft.to/lastmile_qr_scan"}}, {"lon": -77.03638166666667, "fusion_lat": 0.0, "type": "electric_scooter", "lat": 38.9234835, "is_disabled": 0, "name": "c2771b192c130787173f441b93753d83", "is_reserved": 0, "bike_id": "c2771b192c130787173f441b93753d83", "fusion_lon": 0.0, "rental_uris": {"ios": "https://dc.lft.to/lastmile_qr_scan", "android": "https://dc.lft.to/lastmile_qr_scan"}}, {"lon": -76.9814475, "fusion_lat": 0.0, "type": "electric_bike", "lat": 39.00719816666667, "is_disabled": 0, "name": "f84014eb82c7edc0fe569af2cdcc26b7", "is_reserved": 0, "bike_id": "f84014eb82c7edc0fe569af2cdcc26b7", "fusion_lon": 0.0, "rental_uris": {"ios": "https://dc.lft.to/lastmile_qr_scan", "android": "https://dc.lft.to/lastmile_qr_scan"}}, {"lon": -77.02685916666667, "fusion_lat": 0.0, "type": "electric_scooter", "lat": 38.896052833333336, "is_disabled": 0, "name": "c13f0963738d286c3dc61469501853e0", "is_reserved": 0, "bike_id": "c13f0963738d286c3dc61469501853e0", "fusion_lon": 0.0, "rental_uris": {"ios": "https://dc.lft.to/lastmile_qr_scan", "android": "https://dc.lft.to/lastmile_qr_scan"}}, {"lon": -77.05925233333333, "fusion_lat": 0.0, "type": "electric_scooter", "lat": 38.94303716666667, "is_disabled": 0, "name": "bfad430ef24aebdd6f91133dca09c663", "is_reserved": 0, "bike_id": "bfad430ef24aebdd6f91133dca09c663", "fusion_lon": 0.0, "rental_uris": {"ios": "https://dc.lft.to/lastmile_qr_scan", "android": "https://dc.lft.to/lastmile_qr_scan"}}, {"lon": -77.02511116666666, "fusion_lat": 0.0, "type": "electric_scooter", "lat": 38.919762166666665, "is_disabled": 0, "name": "c89e575ccf8c5341f840ae04bc2b6e62", "is_reserved": 0, "bike_id": "c89e575ccf8c5341f840ae04bc2b6e62", "fusion_lon": 0.0, "rental_uris": {"ios": "https://dc.lft.to/lastmile_qr_scan", "android": "https://dc.lft.to/lastmile_qr_scan"}}, {"lon": -76.97776666666667, "fusion_lat": 0.0, "type": "electric_scooter", "lat": 38.8980165, "is_disabled": 0, "name": "5d508eeccd605734e478cededd518ddd", "is_reserved": 0, "bike_id": "5d508eeccd605734e478cededd518ddd", "fusion_lon": 0.0, "rental_uris": {"ios": "https://dc.lft.to/lastmile_qr_scan", "android": "https://dc.lft.to/lastmile_qr_scan"}}, {"lon": -77.01754366666667, "fusion_lat": 0.0, "type": "electric_scooter", "lat": 38.900390333333334, "is_disabled": 0, "name": "7a2775297741da14898a2a124716aa54", "is_reserved": 0, "bike_id": "7a2775297741da14898a2a124716aa54", "fusion_lon": 0.0, "rental_uris": {"ios": "https://dc.lft.to/lastmile_qr_scan", "android": "https://dc.lft.to/lastmile_qr_scan"}}, {"lon": -77.00889233333334, "fusion_lat": 0.0, "type": "electric_scooter", "lat": 38.924806333333336, "is_disabled": 0, "name": "d5d49c93641bcf8230faac2d4105cbfd", "is_reserved": 0, "bike_id": "d5d49c93641bcf8230faac2d4105cbfd", "fusion_lon": 0.0, "rental_uris": {"ios": "https://dc.lft.to/lastmile_qr_scan", "android": "https://dc.lft.to/lastmile_qr_scan"}}, {"lon": -77.02127716666666, "fusion_lat": 0.0, "type": "electric_scooter", "lat": 38.89968116666667, "is_disabled": 0, "name": "29bbaff95cfac5a63fb4b128b193288d", "is_reserved": 0, "bike_id": "29bbaff95cfac5a63fb4b128b193288d", "fusion_lon": 0.0, "rental_uris": {"ios": "https://dc.lft.to/lastmile_qr_scan", "android": "https://dc.lft.to/lastmile_qr_scan"}}, {"lon": -77.07812533333333, "fusion_lat": 0.0, "type": "electric_bike", "lat": 38.8490045, "is_disabled": 0, "name": "4af7b219d687d955c05dda05f9327aa1", "is_reserved": 0, "bike_id": "4af7b219d687d955c05dda05f9327aa1", "fusion_lon": 0.0, "rental_uris": {"ios": "https://dc.lft.to/lastmile_qr_scan", "android": "https://dc.lft.to/lastmile_qr_scan"}}, {"lon": -77.041506, "fusion_lat": 0.0, "type": "electric_scooter", "lat": 38.91706166666667, "is_disabled": 0, "name": "bd91c693d0864a1fa9b42f3b5e30f1ee", "is_reserved": 0, "bike_id": "bd91c693d0864a1fa9b42f3b5e30f1ee", "fusion_lon": 0.0, "rental_uris": {"ios": "https://dc.lft.to/lastmile_qr_scan", "android": "https://dc.lft.to/lastmile_qr_scan"}}, {"lon": -77.0326345, "fusion_lat": 0.0, "type": "electric_scooter", "lat": 38.91909283333333, "is_disabled": 0, "name": "dc22efb8a88cffa5313aa9142509333e", "is_reserved": 0, "bike_id": "dc22efb8a88cffa5313aa9142509333e", "fusion_lon": 0.0, "rental_uris": {"ios": "https://dc.lft.to/lastmile_qr_scan", "android": "https://dc.lft.to/lastmile_qr_scan"}}, {"lon": -76.9867835, "fusion_lat": 0.0, "type": "electric_scooter", "lat": 38.900078666666666, "is_disabled": 0, "name": "78a957d86aca74646f3365f07f5279f5", "is_reserved": 0, "bike_id": "78a957d86aca74646f3365f07f5279f5", "fusion_lon": 0.0, "rental_uris": {"ios": "https://dc.lft.to/lastmile_qr_scan", "android": "https://dc.lft.to/lastmile_qr_scan"}}, {"lon": -77.03912583333333, "fusion_lat": 0.0, "type": "electric_bike", "lat": 39.0356115, "is_disabled": 0, "name": "2b74169cd7aec56a30cbe2736708dffb", "is_reserved": 0, "bike_id": "2b74169cd7aec56a30cbe2736708dffb", "fusion_lon": 0.0, "rental_uris": {"ios": "https://dc.lft.to/lastmile_qr_scan", "android": "https://dc.lft.to/lastmile_qr_scan"}}, {"lon": -77.03166933333334, "fusion_lat": 0.0, "type": "electric_scooter", "lat": 38.89321866666667, "is_disabled": 0, "name": "1aefaf6cbf0a72156271d6539ef5e35c", "is_reserved": 0, "bike_id": "1aefaf6cbf0a72156271d6539ef5e35c", "fusion_lon": 0.0, "rental_uris": {"ios": "https://dc.lft.to/lastmile_qr_scan", "android": "https://dc.lft.to/lastmile_qr_scan"}}, {"lon": -77.0321755, "fusion_lat": 0.0, "type": "electric_scooter", "lat": 38.911829, "is_disabled": 0, "name": "a8d47f7e89dbfa26c474bb0e3a6d2ef2", "is_reserved": 0, "bike_id": "a8d47f7e89dbfa26c474bb0e3a6d2ef2", "fusion_lon": 0.0, "rental_uris": {"ios": "https://dc.lft.to/lastmile_qr_scan", "android": "https://dc.lft.to/lastmile_qr_scan"}}, {"lon": -77.0110395, "fusion_lat": 0.0, "type": "electric_scooter", "lat": 38.89492083333333, "is_disabled": 0, "name": "2db8fbde61190cc1b7d1052d95a27889", "is_reserved": 0, "bike_id": "2db8fbde61190cc1b7d1052d95a27889", "fusion_lon": 0.0, "rental_uris": {"ios": "https://dc.lft.to/lastmile_qr_scan", "android": "https://dc.lft.to/lastmile_qr_scan"}}, {"lon": -77.0326615, "fusion_lat": 0.0, "type": "electric_scooter", "lat": 38.92805216666667, "is_disabled": 0, "name": "96145873d31cb28ae0417ce360f53e97", "is_reserved": 0, "bike_id": "96145873d31cb28ae0417ce360f53e97", "fusion_lon": 0.0, "rental_uris": {"ios": "https://dc.lft.to/lastmile_qr_scan", "android": "https://dc.lft.to/lastmile_qr_scan"}}, {"lon": -77.02733366666666, "fusion_lat": 0.0, "type": "electric_scooter", "lat": 38.896704, "is_disabled": 0, "name": "39fa3bbaee6da18482cc40bc47a89b55", "is_reserved": 0, "bike_id": "39fa3bbaee6da18482cc40bc47a89b55", "fusion_lon": 0.0, "rental_uris": {"ios": "https://dc.lft.to/lastmile_qr_scan", "android": "https://dc.lft.to/lastmile_qr_scan"}}, {"lon": -77.03211816666666, "fusion_lat": 0.0, "type": "electric_scooter", "lat": 38.897841166666666, "is_disabled": 0, "name": "d7d693bdaa986aa3be2b43c01c18a4bb", "is_reserved": 0, "bike_id": "d7d693bdaa986aa3be2b43c01c18a4bb", "fusion_lon": 0.0, "rental_uris": {"ios": "https://dc.lft.to/lastmile_qr_scan", "android": "https://dc.lft.to/lastmile_qr_scan"}}, {"lon": -77.07110183333333, "fusion_lat": 0.0, "type": "electric_scooter", "lat": 38.91973633333333, "is_disabled": 0, "name": "65f04f554336d87cb76d7b5ebdb59104", "is_reserved": 0, "bike_id": "65f04f554336d87cb76d7b5ebdb59104", "fusion_lon": 0.0, "rental_uris": {"ios": "https://dc.lft.to/lastmile_qr_scan", "android": "https://dc.lft.to/lastmile_qr_scan"}}, {"lon": -77.0149995, "fusion_lat": 0.0, "type": "electric_scooter", "lat": 38.926652833333335, "is_disabled": 0, "name": "d4fc5903454982d185124d75e7253490", "is_reserved": 0, "bike_id": "d4fc5903454982d185124d75e7253490", "fusion_lon": 0.0, "rental_uris": {"ios": "https://dc.lft.to/lastmile_qr_scan", "android": "https://dc.lft.to/lastmile_qr_scan"}}, {"lon": -76.98538, "fusion_lat": 0.0, "type": "electric_scooter", "lat": 38.885284166666665, "is_disabled": 0, "name": "7171bbc826aa5f7e0544da8e1dd403db", "is_reserved": 0, "bike_id": "7171bbc826aa5f7e0544da8e1dd403db", "fusion_lon": 0.0, "rental_uris": {"ios": "https://dc.lft.to/lastmile_qr_scan", "android": "https://dc.lft.to/lastmile_qr_scan"}}, {"lon": -77.0057415, "fusion_lat": 0.0, "type": "electric_scooter", "lat": 38.87573416666667, "is_disabled": 0, "name": "47d2a31d701cbdb9f3c8bbb9904c6750", "is_reserved": 0, "bike_id": "47d2a31d701cbdb9f3c8bbb9904c6750", "fusion_lon": 0.0, "rental_uris": {"ios": "https://dc.lft.to/lastmile_qr_scan", "android": "https://dc.lft.to/lastmile_qr_scan"}}, {"lon": -76.99799116666667, "fusion_lat": 0.0, "type": "electric_scooter", "lat": 38.935533666666664, "is_disabled": 0, "name": "2db9754bc66eb33ee585d2bb2edc7953", "is_reserved": 0, "bike_id": "2db9754bc66eb33ee585d2bb2edc7953", "fusion_lon": 0.0, "rental_uris": {"ios": "https://dc.lft.to/lastmile_qr_scan", "android": "https://dc.lft.to/lastmile_qr_scan"}}, {"lon": -77.028476, "fusion_lat": 0.0, "type": "electric_scooter", "lat": 38.935226666666665, "is_disabled": 0, "name": "8a24f98ac81712915be0b8183658c250", "is_reserved": 0, "bike_id": "8a24f98ac81712915be0b8183658c250", "fusion_lon": 0.0, "rental_uris": {"ios": "https://dc.lft.to/lastmile_qr_scan", "android": "https://dc.lft.to/lastmile_qr_scan"}}, {"lon": -77.00087533333334, "fusion_lat": 0.0, "type": "electric_scooter", "lat": 38.87370883333333, "is_disabled": 0, "name": "a1d170d3423afc35c2165ea67dd47723", "is_reserved": 0, "bike_id": "a1d170d3423afc35c2165ea67dd47723", "fusion_lon": 0.0, "rental_uris": {"ios": "https://dc.lft.to/lastmile_qr_scan", "android": "https://dc.lft.to/lastmile_qr_scan"}}, {"lon": -77.03654933333334, "fusion_lat": 0.0, "type": "electric_scooter", "lat": 38.900918, "is_disabled": 0, "name": "78c973b44c60eb9083c9889b904045cf", "is_reserved": 0, "bike_id": "78c973b44c60eb9083c9889b904045cf", "fusion_lon": 0.0, "rental_uris": {"ios": "https://dc.lft.to/lastmile_qr_scan", "android": "https://dc.lft.to/lastmile_qr_scan"}}, {"lon": -77.02785866666666, "fusion_lat": 0.0, "type": "electric_scooter", "lat": 38.90267583333333, "is_disabled": 0, "name": "f4024b8b22d9225cb897856d4ff33c2e", "is_reserved": 0, "bike_id": "f4024b8b22d9225cb897856d4ff33c2e", "fusion_lon": 0.0, "rental_uris": {"ios": "https://dc.lft.to/lastmile_qr_scan", "android": "https://dc.lft.to/lastmile_qr_scan"}}, {"lon": -77.036499, "fusion_lat": 0.0, "type": "electric_scooter", "lat": 38.90372283333333, "is_disabled": 0, "name": "022b74834d60afbef9718650ddaf5015", "is_reserved": 0, "bike_id": "022b74834d60afbef9718650ddaf5015", "fusion_lon": 0.0, "rental_uris": {"ios": "https://dc.lft.to/lastmile_qr_scan", "android": "https://dc.lft.to/lastmile_qr_scan"}}, {"lon": -77.0265355, "fusion_lat": 0.0, "type": "electric_scooter", "lat": 38.922081666666664, "is_disabled": 0, "name": "f192c2e8dfffec762cfa2dd232ba9c9e", "is_reserved": 0, "bike_id": "f192c2e8dfffec762cfa2dd232ba9c9e", "fusion_lon": 0.0, "rental_uris": {"ios": "https://dc.lft.to/lastmile_qr_scan", "android": "https://dc.lft.to/lastmile_qr_scan"}}, {"lon": -77.02436333333333, "fusion_lat": 0.0, "type": "electric_scooter", "lat": 38.920442666666666, "is_disabled": 0, "name": "6f5923dd0d7f30a8c151da772c9bc6f3", "is_reserved": 0, "bike_id": "6f5923dd0d7f30a8c151da772c9bc6f3", "fusion_lon": 0.0, "rental_uris": {"ios": "https://dc.lft.to/lastmile_qr_scan", "android": "https://dc.lft.to/lastmile_qr_scan"}}, {"lon": -76.98355533333333, "fusion_lat": 0.0, "type": "electric_scooter", "lat": 38.887223, "is_disabled": 0, "name": "4dc06437a6ca7349915fcfd57290b7f0", "is_reserved": 0, "bike_id": "4dc06437a6ca7349915fcfd57290b7f0", "fusion_lon": 0.0, "rental_uris": {"ios": "https://dc.lft.to/lastmile_qr_scan", "android": "https://dc.lft.to/lastmile_qr_scan"}}, {"lon": -77.0307115, "fusion_lat": 0.0, "type": "electric_scooter", "lat": 38.922483, "is_disabled": 0, "name": "632d1411990c2c02abd9ffa7fea6d180", "is_reserved": 0, "bike_id": "632d1411990c2c02abd9ffa7fea6d180", "fusion_lon": 0.0, "rental_uris": {"ios": "https://dc.lft.to/lastmile_qr_scan", "android": "https://dc.lft.to/lastmile_qr_scan"}}, {"lon": -77.02307016666667, "fusion_lat": 0.0, "type": "electric_scooter", "lat": 38.920738, "is_disabled": 0, "name": "f916f3f4299e6482b5d55dc9fd86d2b0", "is_reserved": 0, "bike_id": "f916f3f4299e6482b5d55dc9fd86d2b0", "fusion_lon": 0.0, "rental_uris": {"ios": "https://dc.lft.to/lastmile_qr_scan", "android": "https://dc.lft.to/lastmile_qr_scan"}}, {"lon": -77.031772, "fusion_lat": 0.0, "type": "electric_scooter", "lat": 38.91783783333333, "is_disabled": 0, "name": "062827e32cc23975549a876be1e7f91b", "is_reserved": 0, "bike_id": "062827e32cc23975549a876be1e7f91b", "fusion_lon": 0.0, "rental_uris": {"ios": "https://dc.lft.to/lastmile_qr_scan", "android": "https://dc.lft.to/lastmile_qr_scan"}}, {"lon": -77.00990783333333, "fusion_lat": 0.0, "type": "electric_scooter", "lat": 38.894747833333334, "is_disabled": 0, "name": "444690678dc6afaecc01bf8cdd972d59", "is_reserved": 0, "bike_id": "444690678dc6afaecc01bf8cdd972d59", "fusion_lon": 0.0, "rental_uris": {"ios": "https://dc.lft.to/lastmile_qr_scan", "android": "https://dc.lft.to/lastmile_qr_scan"}}, {"lon": -77.03026083333333, "fusion_lat": 0.0, "type": "electric_scooter", "lat": 38.91813783333333, "is_disabled": 0, "name": "5a235c85b8b693243ee450afd2a140fa", "is_reserved": 0, "bike_id": "5a235c85b8b693243ee450afd2a140fa", "fusion_lon": 0.0, "rental_uris": {"ios": "https://dc.lft.to/lastmile_qr_scan", "android": "https://dc.lft.to/lastmile_qr_scan"}}, {"lon": -77.004011, "fusion_lat": 0.0, "type": "electric_scooter", "lat": 38.92947183333333, "is_disabled": 0, "name": "8e0a5b82ac30c3326a88b8460fa6056b", "is_reserved": 0, "bike_id": "8e0a5b82ac30c3326a88b8460fa6056b", "fusion_lon": 0.0, "rental_uris": {"ios": "https://dc.lft.to/lastmile_qr_scan", "android": "https://dc.lft.to/lastmile_qr_scan"}}, {"lon": -76.92741916666667, "fusion_lat": 0.0, "type": "electric_scooter", "lat": 38.9006775, "is_disabled": 0, "name": "43dec2cd285fbe27adbd0bb081e805ba", "is_reserved": 0, "bike_id": "43dec2cd285fbe27adbd0bb081e805ba", "fusion_lon": 0.0, "rental_uris": {"ios": "https://dc.lft.to/lastmile_qr_scan", "android": "https://dc.lft.to/lastmile_qr_scan"}}, {"lon": -77.02174533333333, "fusion_lat": 0.0, "type": "electric_scooter", "lat": 38.88714933333333, "is_disabled": 0, "name": "a99038cb854f5443e5a32258a6efc421", "is_reserved": 0, "bike_id": "a99038cb854f5443e5a32258a6efc421", "fusion_lon": 0.0, "rental_uris": {"ios": "https://dc.lft.to/lastmile_qr_scan", "android": "https://dc.lft.to/lastmile_qr_scan"}}, {"lon": -77.043685, "fusion_lat": 0.0, "type": "electric_scooter", "lat": 38.90386183333333, "is_disabled": 0, "name": "f0e6e7b9a81da2fd0b795e69d1635c1f", "is_reserved": 0, "bike_id": "f0e6e7b9a81da2fd0b795e69d1635c1f", "fusion_lon": 0.0, "rental_uris": {"ios": "https://dc.lft.to/lastmile_qr_scan", "android": "https://dc.lft.to/lastmile_qr_scan"}}, {"lon": -77.04470733333333, "fusion_lat": 0.0, "type": "electric_scooter", "lat": 38.8952655, "is_disabled": 0, "name": "6ab51965c1c7be7f20fc50a0d55d9771", "is_reserved": 0, "bike_id": "6ab51965c1c7be7f20fc50a0d55d9771", "fusion_lon": 0.0, "rental_uris": {"ios": "https://dc.lft.to/lastmile_qr_scan", "android": "https://dc.lft.to/lastmile_qr_scan"}}, {"lon": -77.02687716666667, "fusion_lat": 0.0, "type": "electric_scooter", "lat": 38.89462066666667, "is_disabled": 0, "name": "775a738095ccece44abc74abdb2ae67f", "is_reserved": 0, "bike_id": "775a738095ccece44abc74abdb2ae67f", "fusion_lon": 0.0, "rental_uris": {"ios": "https://dc.lft.to/lastmile_qr_scan", "android": "https://dc.lft.to/lastmile_qr_scan"}}, {"lon": -76.95058783333333, "fusion_lat": 0.0, "type": "electric_bike", "lat": 39.084898833333334, "is_disabled": 0, "name": "953be0b4e48a13dc5549443ef15363ff", "is_reserved": 0, "bike_id": "953be0b4e48a13dc5549443ef15363ff", "fusion_lon": 0.0, "rental_uris": {"ios": "https://dc.lft.to/lastmile_qr_scan", "android": "https://dc.lft.to/lastmile_qr_scan"}}, {"lon": -77.0495695, "fusion_lat": 0.0, "type": "electric_scooter", "lat": 38.90534233333333, "is_disabled": 0, "name": "76bbc292a4f37e6152f55f6a5cc4dba2", "is_reserved": 0, "bike_id": "76bbc292a4f37e6152f55f6a5cc4dba2", "fusion_lon": 0.0, "rental_uris": {"ios": "https://dc.lft.to/lastmile_qr_scan", "android": "https://dc.lft.to/lastmile_qr_scan"}}, {"lon": -77.039405, "fusion_lat": 0.0, "type": "electric_scooter", "lat": 38.930559333333335, "is_disabled": 0, "name": "eb79569631769eee295d984d8fe34dd9", "is_reserved": 0, "bike_id": "eb79569631769eee295d984d8fe34dd9", "fusion_lon": 0.0, "rental_uris": {"ios": "https://dc.lft.to/lastmile_qr_scan", "android": "https://dc.lft.to/lastmile_qr_scan"}}, {"lon": -77.00133866666667, "fusion_lat": 0.0, "type": "electric_scooter", "lat": 38.907592, "is_disabled": 0, "name": "9eee8fa39d9a3da226404e40092d5907", "is_reserved": 0, "bike_id": "9eee8fa39d9a3da226404e40092d5907", "fusion_lon": 0.0, "rental_uris": {"ios": "https://dc.lft.to/lastmile_qr_scan", "android": "https://dc.lft.to/lastmile_qr_scan"}}, {"lon": -77.03243766666667, "fusion_lat": 0.0, "type": "electric_scooter", "lat": 38.92944816666667, "is_disabled": 0, "name": "35ab72cc8163b84b476da51b1a41d8e0", "is_reserved": 0, "bike_id": "35ab72cc8163b84b476da51b1a41d8e0", "fusion_lon": 0.0, "rental_uris": {"ios": "https://dc.lft.to/lastmile_qr_scan", "android": "https://dc.lft.to/lastmile_qr_scan"}}, {"lon": -77.02517683333333, "fusion_lat": 0.0, "type": "electric_scooter", "lat": 38.8922855, "is_disabled": 0, "name": "dde2f912b7911ce5cee5fbeef8016fc1", "is_reserved": 0, "bike_id": "dde2f912b7911ce5cee5fbeef8016fc1", "fusion_lon": 0.0, "rental_uris": {"ios": "https://dc.lft.to/lastmile_qr_scan", "android": "https://dc.lft.to/lastmile_qr_scan"}}, {"lon": -77.04318866666667, "fusion_lat": 0.0, "type": "electric_scooter", "lat": 38.908785333333334, "is_disabled": 0, "name": "ec2f81581628c987fc39f52ae8af5a2b", "is_reserved": 0, "bike_id": "ec2f81581628c987fc39f52ae8af5a2b", "fusion_lon": 0.0, "rental_uris": {"ios": "https://dc.lft.to/lastmile_qr_scan", "android": "https://dc.lft.to/lastmile_qr_scan"}}, {"lon": -77.05516466666667, "fusion_lat": 0.0, "type": "electric_scooter", "lat": 38.944219, "is_disabled": 0, "name": "11a4a128f52fc4fee7127510a4cad60a", "is_reserved": 0, "bike_id": "11a4a128f52fc4fee7127510a4cad60a", "fusion_lon": 0.0, "rental_uris": {"ios": "https://dc.lft.to/lastmile_qr_scan", "android": "https://dc.lft.to/lastmile_qr_scan"}}, {"lon": -77.00281183333334, "fusion_lat": 0.0, "type": "electric_scooter", "lat": 38.88618, "is_disabled": 0, "name": "dbea0d84af92ef5149fe69380adf20b7", "is_reserved": 0, "bike_id": "dbea0d84af92ef5149fe69380adf20b7", "fusion_lon": 0.0, "rental_uris": {"ios": "https://dc.lft.to/lastmile_qr_scan", "android": "https://dc.lft.to/lastmile_qr_scan"}}, {"lon": -77.00376133333333, "fusion_lat": 0.0, "type": "electric_scooter", "lat": 38.90723966666667, "is_disabled": 0, "name": "601d281615429701984ae1ef587f0d11", "is_reserved": 0, "bike_id": "601d281615429701984ae1ef587f0d11", "fusion_lon": 0.0, "rental_uris": {"ios": "https://dc.lft.to/lastmile_qr_scan", "android": "https://dc.lft.to/lastmile_qr_scan"}}, {"lon": -77.059015, "fusion_lat": 0.0, "type": "electric_scooter", "lat": 38.90193033333333, "is_disabled": 0, "name": "226407ae6144ad225b45e95e8697cc32", "is_reserved": 0, "bike_id": "226407ae6144ad225b45e95e8697cc32", "fusion_lon": 0.0, "rental_uris": {"ios": "https://dc.lft.to/lastmile_qr_scan", "android": "https://dc.lft.to/lastmile_qr_scan"}}, {"lon": -77.02225733333333, "fusion_lat": 0.0, "type": "electric_scooter", "lat": 38.9126515, "is_disabled": 0, "name": "b91eb62b8b46aff14b8fa624d1119308", "is_reserved": 0, "bike_id": "b91eb62b8b46aff14b8fa624d1119308", "fusion_lon": 0.0, "rental_uris": {"ios": "https://dc.lft.to/lastmile_qr_scan", "android": "https://dc.lft.to/lastmile_qr_scan"}}, {"lon": -77.01921083333333, "fusion_lat": 0.0, "type": "electric_scooter", "lat": 38.91764333333333, "is_disabled": 0, "name": "d36ba966d3f82a276cc755e00b50cd63", "is_reserved": 0, "bike_id": "d36ba966d3f82a276cc755e00b50cd63", "fusion_lon": 0.0, "rental_uris": {"ios": "https://dc.lft.to/lastmile_qr_scan", "android": "https://dc.lft.to/lastmile_qr_scan"}}, {"lon": -77.00341966666667, "fusion_lat": 0.0, "type": "electric_scooter", "lat": 38.90819583333333, "is_disabled": 0, "name": "cdc47161541c7540311890b2c24eb324", "is_reserved": 0, "bike_id": "cdc47161541c7540311890b2c24eb324", "fusion_lon": 0.0, "rental_uris": {"ios": "https://dc.lft.to/lastmile_qr_scan", "android": "https://dc.lft.to/lastmile_qr_scan"}}, {"lon": -77.02706316666666, "fusion_lat": 0.0, "type": "electric_scooter", "lat": 38.90977683333333, "is_disabled": 0, "name": "57ff2d4ec0c1d4a21e71a6f7442978aa", "is_reserved": 0, "bike_id": "57ff2d4ec0c1d4a21e71a6f7442978aa", "fusion_lon": 0.0, "rental_uris": {"ios": "https://dc.lft.to/lastmile_qr_scan", "android": "https://dc.lft.to/lastmile_qr_scan"}}, {"lon": -77.02969733333333, "fusion_lat": 0.0, "type": "electric_scooter", "lat": 38.9154025, "is_disabled": 0, "name": "c63db11ab02b63aeadffd13e9ebd1d55", "is_reserved": 0, "bike_id": "c63db11ab02b63aeadffd13e9ebd1d55", "fusion_lon": 0.0, "rental_uris": {"ios": "https://dc.lft.to/lastmile_qr_scan", "android": "https://dc.lft.to/lastmile_qr_scan"}}, {"lon": -77.02502816666667, "fusion_lat": 0.0, "type": "electric_scooter", "lat": 38.90725533333333, "is_disabled": 0, "name": "70b19d31775bd007b60dd4b2da6045ab", "is_reserved": 0, "bike_id": "70b19d31775bd007b60dd4b2da6045ab", "fusion_lon": 0.0, "rental_uris": {"ios": "https://dc.lft.to/lastmile_qr_scan", "android": "https://dc.lft.to/lastmile_qr_scan"}}, {"lon": -77.032476, "fusion_lat": 0.0, "type": "electric_bike", "lat": 38.94068133333333, "is_disabled": 0, "name": "1fd4e61e85b592dedcd0e4bd1f1bd532", "is_reserved": 0, "bike_id": "1fd4e61e85b592dedcd0e4bd1f1bd532", "fusion_lon": 0.0, "rental_uris": {"ios": "https://dc.lft.to/lastmile_qr_scan", "android": "https://dc.lft.to/lastmile_qr_scan"}}, {"lon": -77.02389316666667, "fusion_lat": 0.0, "type": "electric_scooter", "lat": 38.90632033333333, "is_disabled": 0, "name": "6d7ca88255c524e0a60d846b566e5750", "is_reserved": 0, "bike_id": "6d7ca88255c524e0a60d846b566e5750", "fusion_lon": 0.0, "rental_uris": {"ios": "https://dc.lft.to/lastmile_qr_scan", "android": "https://dc.lft.to/lastmile_qr_scan"}}, {"lon": -77.01503166666667, "fusion_lat": 0.0, "type": "electric_scooter", "lat": 38.9268395, "is_disabled": 0, "name": "c234563ea52b8da18a9046d8efeb5e0a", "is_reserved": 0, "bike_id": "c234563ea52b8da18a9046d8efeb5e0a", "fusion_lon": 0.0, "rental_uris": {"ios": "https://dc.lft.to/lastmile_qr_scan", "android": "https://dc.lft.to/lastmile_qr_scan"}}, {"lon": -77.02497616666666, "fusion_lat": 0.0, "type": "electric_scooter", "lat": 38.919118833333336, "is_disabled": 0, "name": "8855cdc258b2ce3cd6b55fc62509dab8", "is_reserved": 0, "bike_id": "8855cdc258b2ce3cd6b55fc62509dab8", "fusion_lon": 0.0, "rental_uris": {"ios": "https://dc.lft.to/lastmile_qr_scan", "android": "https://dc.lft.to/lastmile_qr_scan"}}, {"lon": -77.00624116666667, "fusion_lat": 0.0, "type": "electric_scooter", "lat": 38.871729, "is_disabled": 0, "name": "d819481089595b8b290aab340f79efef", "is_reserved": 0, "bike_id": "d819481089595b8b290aab340f79efef", "fusion_lon": 0.0, "rental_uris": {"ios": "https://dc.lft.to/lastmile_qr_scan", "android": "https://dc.lft.to/lastmile_qr_scan"}}, {"lon": -77.027093, "fusion_lat": 0.0, "type": "electric_scooter", "lat": 38.969319, "is_disabled": 0, "name": "71a9a18338b5edadd571c8dcf30f7bca", "is_reserved": 0, "bike_id": "71a9a18338b5edadd571c8dcf30f7bca", "fusion_lon": 0.0, "rental_uris": {"ios": "https://dc.lft.to/lastmile_qr_scan", "android": "https://dc.lft.to/lastmile_qr_scan"}}, {"lon": -77.03372083333333, "fusion_lat": 0.0, "type": "electric_scooter", "lat": 38.892261500000004, "is_disabled": 0, "name": "980f8e80a7e628ba8ffcb2cdaf5ecaa5", "is_reserved": 0, "bike_id": "980f8e80a7e628ba8ffcb2cdaf5ecaa5", "fusion_lon": 0.0, "rental_uris": {"ios": "https://dc.lft.to/lastmile_qr_scan", "android": "https://dc.lft.to/lastmile_qr_scan"}}, {"lon": -77.02603983333333, "fusion_lat": 0.0, "type": "electric_scooter", "lat": 38.905992499999996, "is_disabled": 0, "name": "13e23165c3c4356a489ddb3ce937a682", "is_reserved": 0, "bike_id": "13e23165c3c4356a489ddb3ce937a682", "fusion_lon": 0.0, "rental_uris": {"ios": "https://dc.lft.to/lastmile_qr_scan", "android": "https://dc.lft.to/lastmile_qr_scan"}}, {"lon": -77.03042916666666, "fusion_lat": 0.0, "type": "electric_scooter", "lat": 38.9011675, "is_disabled": 0, "name": "012c99a7cd5bc1502c0902ca6a126138", "is_reserved": 0, "bike_id": "012c99a7cd5bc1502c0902ca6a126138", "fusion_lon": 0.0, "rental_uris": {"ios": "https://dc.lft.to/lastmile_qr_scan", "android": "https://dc.lft.to/lastmile_qr_scan"}}, {"lon": -77.03811216666666, "fusion_lat": 0.0, "type": "electric_scooter", "lat": 38.931096333333336, "is_disabled": 0, "name": "eaae62491f81092ef96b1353eff73a49", "is_reserved": 0, "bike_id": "eaae62491f81092ef96b1353eff73a49", "fusion_lon": 0.0, "rental_uris": {"ios": "https://dc.lft.to/lastmile_qr_scan", "android": "https://dc.lft.to/lastmile_qr_scan"}}, {"lon": -77.02732833333333, "fusion_lat": 0.0, "type": "electric_scooter", "lat": 38.900386, "is_disabled": 0, "name": "3043c5c0e99f52bfb38b9e18aa9ad961", "is_reserved": 0, "bike_id": "3043c5c0e99f52bfb38b9e18aa9ad961", "fusion_lon": 0.0, "rental_uris": {"ios": "https://dc.lft.to/lastmile_qr_scan", "android": "https://dc.lft.to/lastmile_qr_scan"}}, {"lon": -76.93184583333333, "fusion_lat": 0.0, "type": "electric_bike", "lat": 38.898520833333336, "is_disabled": 0, "name": "c51aa2278b5e86dc1d279d8a65e65683", "is_reserved": 0, "bike_id": "c51aa2278b5e86dc1d279d8a65e65683", "fusion_lon": 0.0, "rental_uris": {"ios": "https://dc.lft.to/lastmile_qr_scan", "android": "https://dc.lft.to/lastmile_qr_scan"}}, {"lon": -77.0393345, "fusion_lat": 0.0, "type": "electric_scooter", "lat": 38.912594166666665, "is_disabled": 0, "name": "c7bbae13f212fe6034f6e1cbb712e2e6", "is_reserved": 0, "bike_id": "c7bbae13f212fe6034f6e1cbb712e2e6", "fusion_lon": 0.0, "rental_uris": {"ios": "https://dc.lft.to/lastmile_qr_scan", "android": "https://dc.lft.to/lastmile_qr_scan"}}, {"lon": -77.0268495, "fusion_lat": 0.0, "type": "electric_scooter", "lat": 38.906792, "is_disabled": 0, "name": "cbc759b7ce7fd45078a151f0a73e1246", "is_reserved": 0, "bike_id": "cbc759b7ce7fd45078a151f0a73e1246", "fusion_lon": 0.0, "rental_uris": {"ios": "https://dc.lft.to/lastmile_qr_scan", "android": "https://dc.lft.to/lastmile_qr_scan"}}, {"lon": -77.04448983333333, "fusion_lat": 0.0, "type": "electric_scooter", "lat": 38.9349315, "is_disabled": 0, "name": "204e31181e5a19c7403fa936cb02889b", "is_reserved": 0, "bike_id": "204e31181e5a19c7403fa936cb02889b", "fusion_lon": 0.0, "rental_uris": {"ios": "https://dc.lft.to/lastmile_qr_scan", "android": "https://dc.lft.to/lastmile_qr_scan"}}, {"lon": -77.02854083333334, "fusion_lat": 0.0, "type": "electric_bike", "lat": 38.92136766666667, "is_disabled": 0, "name": "99c6e9cdb5d2f09da991e2d1f484c282", "is_reserved": 0, "bike_id": "99c6e9cdb5d2f09da991e2d1f484c282", "fusion_lon": 0.0, "rental_uris": {"ios": "https://dc.lft.to/lastmile_qr_scan", "android": "https://dc.lft.to/lastmile_qr_scan"}}, {"lon": -77.0194595, "fusion_lat": 0.0, "type": "electric_scooter", "lat": 38.9235935, "is_disabled": 0, "name": "c29f5fd1e9ffa948236c3fdbe4f2439a", "is_reserved": 0, "bike_id": "c29f5fd1e9ffa948236c3fdbe4f2439a", "fusion_lon": 0.0, "rental_uris": {"ios": "https://dc.lft.to/lastmile_qr_scan", "android": "https://dc.lft.to/lastmile_qr_scan"}}, {"lon": -76.992744, "fusion_lat": 0.0, "type": "electric_scooter", "lat": 38.89779333333333, "is_disabled": 0, "name": "6c0ca6c9745d73c59b41cfc0429a9b8a", "is_reserved": 0, "bike_id": "6c0ca6c9745d73c59b41cfc0429a9b8a", "fusion_lon": 0.0, "rental_uris": {"ios": "https://dc.lft.to/lastmile_qr_scan", "android": "https://dc.lft.to/lastmile_qr_scan"}}, {"lon": -76.98837433333334, "fusion_lat": 0.0, "type": "electric_scooter", "lat": 38.8988155, "is_disabled": 0, "name": "c2b62748b88a2c8fff5a4536985a35e3", "is_reserved": 0, "bike_id": "c2b62748b88a2c8fff5a4536985a35e3", "fusion_lon": 0.0, "rental_uris": {"ios": "https://dc.lft.to/lastmile_qr_scan", "android": "https://dc.lft.to/lastmile_qr_scan"}}, {"lon": -77.03360766666667, "fusion_lat": 0.0, "type": "electric_scooter", "lat": 38.989870833333335, "is_disabled": 0, "name": "8210414ecec1cb3c44f52bde4084b155", "is_reserved": 0, "bike_id": "8210414ecec1cb3c44f52bde4084b155", "fusion_lon": 0.0, "rental_uris": {"ios": "https://dc.lft.to/lastmile_qr_scan", "android": "https://dc.lft.to/lastmile_qr_scan"}}, {"lon": -77.04124966666667, "fusion_lat": 0.0, "type": "electric_scooter", "lat": 38.921327, "is_disabled": 0, "name": "9970c7d4450165d5ab251c379ecc092e", "is_reserved": 0, "bike_id": "9970c7d4450165d5ab251c379ecc092e", "fusion_lon": 0.0, "rental_uris": {"ios": "https://dc.lft.to/lastmile_qr_scan", "android": "https://dc.lft.to/lastmile_qr_scan"}}, {"lon": -77.00598133333334, "fusion_lat": 0.0, "type": "electric_scooter", "lat": 38.91115966666667, "is_disabled": 0, "name": "ded32d7e6d65dbef94be56a6bdec0d3c", "is_reserved": 0, "bike_id": "ded32d7e6d65dbef94be56a6bdec0d3c", "fusion_lon": 0.0, "rental_uris": {"ios": "https://dc.lft.to/lastmile_qr_scan", "android": "https://dc.lft.to/lastmile_qr_scan"}}, {"lon": -77.04477816666666, "fusion_lat": 0.0, "type": "electric_scooter", "lat": 38.90112233333333, "is_disabled": 0, "name": "5d7b8b3724fd93b8d523cdfef99a6035", "is_reserved": 0, "bike_id": "5d7b8b3724fd93b8d523cdfef99a6035", "fusion_lon": 0.0, "rental_uris": {"ios": "https://dc.lft.to/lastmile_qr_scan", "android": "https://dc.lft.to/lastmile_qr_scan"}}, {"lon": -77.02696783333333, "fusion_lat": 0.0, "type": "electric_scooter", "lat": 38.924638, "is_disabled": 0, "name": "f1456eb4f2184332a9bbca4008214966", "is_reserved": 0, "bike_id": "f1456eb4f2184332a9bbca4008214966", "fusion_lon": 0.0, "rental_uris": {"ios": "https://dc.lft.to/lastmile_qr_scan", "android": "https://dc.lft.to/lastmile_qr_scan"}}, {"lon": -76.99678683333333, "fusion_lat": 0.0, "type": "electric_scooter", "lat": 38.88721616666667, "is_disabled": 0, "name": "fea28b9ad8218a86681e46ef1750dbd9", "is_reserved": 0, "bike_id": "fea28b9ad8218a86681e46ef1750dbd9", "fusion_lon": 0.0, "rental_uris": {"ios": "https://dc.lft.to/lastmile_qr_scan", "android": "https://dc.lft.to/lastmile_qr_scan"}}, {"lon": -77.02500516666667, "fusion_lat": 0.0, "type": "electric_scooter", "lat": 38.880359, "is_disabled": 0, "name": "d00128879723533d4ee028fefd431509", "is_reserved": 0, "bike_id": "d00128879723533d4ee028fefd431509", "fusion_lon": 0.0, "rental_uris": {"ios": "https://dc.lft.to/lastmile_qr_scan", "android": "https://dc.lft.to/lastmile_qr_scan"}}, {"lon": -77.00742833333334, "fusion_lat": 0.0, "type": "electric_scooter", "lat": 38.89836283333333, "is_disabled": 0, "name": "aba3b1d50f1a516c9c7cbb0a45c3e508", "is_reserved": 0, "bike_id": "aba3b1d50f1a516c9c7cbb0a45c3e508", "fusion_lon": 0.0, "rental_uris": {"ios": "https://dc.lft.to/lastmile_qr_scan", "android": "https://dc.lft.to/lastmile_qr_scan"}}, {"lon": -77.02505866666667, "fusion_lat": 0.0, "type": "electric_scooter", "lat": 38.92644766666667, "is_disabled": 0, "name": "2c566de38ab36be35e43682fce782e8d", "is_reserved": 0, "bike_id": "2c566de38ab36be35e43682fce782e8d", "fusion_lon": 0.0, "rental_uris": {"ios": "https://dc.lft.to/lastmile_qr_scan", "android": "https://dc.lft.to/lastmile_qr_scan"}}, {"lon": -77.0542895, "fusion_lat": 0.0, "type": "electric_scooter", "lat": 38.923553, "is_disabled": 0, "name": "3b3138718f91c5eade22f415a6523f93", "is_reserved": 0, "bike_id": "3b3138718f91c5eade22f415a6523f93", "fusion_lon": 0.0, "rental_uris": {"ios": "https://dc.lft.to/lastmile_qr_scan", "android": "https://dc.lft.to/lastmile_qr_scan"}}, {"lon": -77.02226283333333, "fusion_lat": 0.0, "type": "electric_scooter", "lat": 38.91266783333333, "is_disabled": 0, "name": "714706359b784aab581d5bb5901dd01a", "is_reserved": 0, "bike_id": "714706359b784aab581d5bb5901dd01a", "fusion_lon": 0.0, "rental_uris": {"ios": "https://dc.lft.to/lastmile_qr_scan", "android": "https://dc.lft.to/lastmile_qr_scan"}}, {"lon": -77.04337583333333, "fusion_lat": 0.0, "type": "electric_scooter", "lat": 38.90503283333334, "is_disabled": 0, "name": "cd7661e4cc7b5c3293f8947158e4ff22", "is_reserved": 0, "bike_id": "cd7661e4cc7b5c3293f8947158e4ff22", "fusion_lon": 0.0, "rental_uris": {"ios": "https://dc.lft.to/lastmile_qr_scan", "android": "https://dc.lft.to/lastmile_qr_scan"}}, {"lon": -77.03949783333333, "fusion_lat": 0.0, "type": "electric_scooter", "lat": 38.907244, "is_disabled": 0, "name": "65b35f1b5f8164c5c330d3a66f3b02f3", "is_reserved": 0, "bike_id": "65b35f1b5f8164c5c330d3a66f3b02f3", "fusion_lon": 0.0, "rental_uris": {"ios": "https://dc.lft.to/lastmile_qr_scan", "android": "https://dc.lft.to/lastmile_qr_scan"}}, {"lon": -77.0501165, "fusion_lat": 0.0, "type": "electric_scooter", "lat": 38.907218, "is_disabled": 0, "name": "662e989326373aa7ff64f6dee8733934", "is_reserved": 0, "bike_id": "662e989326373aa7ff64f6dee8733934", "fusion_lon": 0.0, "rental_uris": {"ios": "https://dc.lft.to/lastmile_qr_scan", "android": "https://dc.lft.to/lastmile_qr_scan"}}, {"lon": -77.02661666666667, "fusion_lat": 0.0, "type": "electric_scooter", "lat": 38.93101516666667, "is_disabled": 0, "name": "2cd06bf1f38f95aae70b319721c27b07", "is_reserved": 0, "bike_id": "2cd06bf1f38f95aae70b319721c27b07", "fusion_lon": 0.0, "rental_uris": {"ios": "https://dc.lft.to/lastmile_qr_scan", "android": "https://dc.lft.to/lastmile_qr_scan"}}, {"lon": -77.02693883333333, "fusion_lat": 0.0, "type": "electric_scooter", "lat": 38.924624, "is_disabled": 0, "name": "8085c9728a8c6b37a293f192c0286168", "is_reserved": 0, "bike_id": "8085c9728a8c6b37a293f192c0286168", "fusion_lon": 0.0, "rental_uris": {"ios": "https://dc.lft.to/lastmile_qr_scan", "android": "https://dc.lft.to/lastmile_qr_scan"}}, {"lon": -77.03406216666667, "fusion_lat": 0.0, "type": "electric_scooter", "lat": 38.91690883333333, "is_disabled": 0, "name": "30158cb4d13b79b4eebadaa0b53c92ea", "is_reserved": 0, "bike_id": "30158cb4d13b79b4eebadaa0b53c92ea", "fusion_lon": 0.0, "rental_uris": {"ios": "https://dc.lft.to/lastmile_qr_scan", "android": "https://dc.lft.to/lastmile_qr_scan"}}, {"lon": -76.97604333333334, "fusion_lat": 0.0, "type": "electric_scooter", "lat": 38.898931166666664, "is_disabled": 0, "name": "ecabe01f70d04863a5bec4a088ff663c", "is_reserved": 0, "bike_id": "ecabe01f70d04863a5bec4a088ff663c", "fusion_lon": 0.0, "rental_uris": {"ios": "https://dc.lft.to/lastmile_qr_scan", "android": "https://dc.lft.to/lastmile_qr_scan"}}, {"lon": -77.04066716666667, "fusion_lat": 0.0, "type": "electric_scooter", "lat": 38.89615033333333, "is_disabled": 0, "name": "5d00256b6fc84c5c236ee059bd796201", "is_reserved": 0, "bike_id": "5d00256b6fc84c5c236ee059bd796201", "fusion_lon": 0.0, "rental_uris": {"ios": "https://dc.lft.to/lastmile_qr_scan", "android": "https://dc.lft.to/lastmile_qr_scan"}}, {"lon": -77.0297545, "fusion_lat": 0.0, "type": "electric_scooter", "lat": 38.962566333333335, "is_disabled": 0, "name": "26479e8a23b7d265de36b17afd1dc422", "is_reserved": 0, "bike_id": "26479e8a23b7d265de36b17afd1dc422", "fusion_lon": 0.0, "rental_uris": {"ios": "https://dc.lft.to/lastmile_qr_scan", "android": "https://dc.lft.to/lastmile_qr_scan"}}, {"lon": -76.969012, "fusion_lat": 0.0, "type": "electric_scooter", "lat": 38.86526216666667, "is_disabled": 0, "name": "ab17c73f8b7d1539aad2af33c0f9fcae", "is_reserved": 0, "bike_id": "ab17c73f8b7d1539aad2af33c0f9fcae", "fusion_lon": 0.0, "rental_uris": {"ios": "https://dc.lft.to/lastmile_qr_scan", "android": "https://dc.lft.to/lastmile_qr_scan"}}, {"lon": -77.03350016666667, "fusion_lat": 0.0, "type": "electric_scooter", "lat": 38.896038833333336, "is_disabled": 0, "name": "5f2891f2ebef9368eb5826eae0dabb6b", "is_reserved": 0, "bike_id": "5f2891f2ebef9368eb5826eae0dabb6b", "fusion_lon": 0.0, "rental_uris": {"ios": "https://dc.lft.to/lastmile_qr_scan", "android": "https://dc.lft.to/lastmile_qr_scan"}}, {"lon": -77.03337566666667, "fusion_lat": 0.0, "type": "electric_scooter", "lat": 38.8921785, "is_disabled": 0, "name": "33878561fef51d8163b4e5dbc5595a82", "is_reserved": 0, "bike_id": "33878561fef51d8163b4e5dbc5595a82", "fusion_lon": 0.0, "rental_uris": {"ios": "https://dc.lft.to/lastmile_qr_scan", "android": "https://dc.lft.to/lastmile_qr_scan"}}, {"lon": -77.0031485, "fusion_lat": 0.0, "type": "electric_scooter", "lat": 38.889889, "is_disabled": 0, "name": "608bb2eb43e5238d1e765349ef1c54dd", "is_reserved": 0, "bike_id": "608bb2eb43e5238d1e765349ef1c54dd", "fusion_lon": 0.0, "rental_uris": {"ios": "https://dc.lft.to/lastmile_qr_scan", "android": "https://dc.lft.to/lastmile_qr_scan"}}, {"lon": -76.9576545, "fusion_lat": 0.0, "type": "electric_scooter", "lat": 38.884414666666665, "is_disabled": 0, "name": "5b27486d4db9439fea33a534ab7469c4", "is_reserved": 0, "bike_id": "5b27486d4db9439fea33a534ab7469c4", "fusion_lon": 0.0, "rental_uris": {"ios": "https://dc.lft.to/lastmile_qr_scan", "android": "https://dc.lft.to/lastmile_qr_scan"}}, {"lon": -77.126694, "fusion_lat": 0.0, "type": "electric_bike", "lat": 38.81433166666667, "is_disabled": 0, "name": "c9d107903936328a72621f891f1816f2", "is_reserved": 0, "bike_id": "c9d107903936328a72621f891f1816f2", "fusion_lon": 0.0, "rental_uris": {"ios": "https://dc.lft.to/lastmile_qr_scan", "android": "https://dc.lft.to/lastmile_qr_scan"}}, {"lon": -77.022452, "fusion_lat": 0.0, "type": "electric_scooter", "lat": 38.92066883333333, "is_disabled": 0, "name": "8152b840c0224f04ce5a8f2141af87a6", "is_reserved": 0, "bike_id": "8152b840c0224f04ce5a8f2141af87a6", "fusion_lon": 0.0, "rental_uris": {"ios": "https://dc.lft.to/lastmile_qr_scan", "android": "https://dc.lft.to/lastmile_qr_scan"}}, {"lon": -76.988281, "fusion_lat": 0.0, "type": "electric_scooter", "lat": 38.90034283333333, "is_disabled": 0, "name": "ab4371ab904cb6eddc59777a6044970f", "is_reserved": 0, "bike_id": "ab4371ab904cb6eddc59777a6044970f", "fusion_lon": 0.0, "rental_uris": {"ios": "https://dc.lft.to/lastmile_qr_scan", "android": "https://dc.lft.to/lastmile_qr_scan"}}, {"lon": -77.07096616666666, "fusion_lat": 0.0, "type": "electric_scooter", "lat": 38.919747, "is_disabled": 0, "name": "b37fe947295ea16c3e6281fe685be27b", "is_reserved": 0, "bike_id": "b37fe947295ea16c3e6281fe685be27b", "fusion_lon": 0.0, "rental_uris": {"ios": "https://dc.lft.to/lastmile_qr_scan", "android": "https://dc.lft.to/lastmile_qr_scan"}}, {"lon": -77.03240766666667, "fusion_lat": 0.0, "type": "electric_scooter", "lat": 38.89801383333333, "is_disabled": 0, "name": "f0d0582c94acb09f7c60081088e482f0", "is_reserved": 0, "bike_id": "f0d0582c94acb09f7c60081088e482f0", "fusion_lon": 0.0, "rental_uris": {"ios": "https://dc.lft.to/lastmile_qr_scan", "android": "https://dc.lft.to/lastmile_qr_scan"}}, {"lon": -77.03322483333334, "fusion_lat": 0.0, "type": "electric_scooter", "lat": 38.90302283333333, "is_disabled": 0, "name": "5be7c7b9f5df84c90268ec5fb405a5bd", "is_reserved": 0, "bike_id": "5be7c7b9f5df84c90268ec5fb405a5bd", "fusion_lon": 0.0, "rental_uris": {"ios": "https://dc.lft.to/lastmile_qr_scan", "android": "https://dc.lft.to/lastmile_qr_scan"}}, {"lon": -76.99753566666666, "fusion_lat": 0.0, "type": "electric_scooter", "lat": 38.92656266666667, "is_disabled": 0, "name": "774ce9c22fba608459713cac2e7d3edd", "is_reserved": 0, "bike_id": "774ce9c22fba608459713cac2e7d3edd", "fusion_lon": 0.0, "rental_uris": {"ios": "https://dc.lft.to/lastmile_qr_scan", "android": "https://dc.lft.to/lastmile_qr_scan"}}, {"lon": -77.01102066666667, "fusion_lat": 0.0, "type": "electric_scooter", "lat": 38.895526333333336, "is_disabled": 0, "name": "350adb5a091c583ffed169131e76c6d0", "is_reserved": 0, "bike_id": "350adb5a091c583ffed169131e76c6d0", "fusion_lon": 0.0, "rental_uris": {"ios": "https://dc.lft.to/lastmile_qr_scan", "android": "https://dc.lft.to/lastmile_qr_scan"}}, {"lon": -77.028818, "fusion_lat": 0.0, "type": "electric_scooter", "lat": 38.9180775, "is_disabled": 0, "name": "57f62dbcbb90c7652b54fac5967de75b", "is_reserved": 0, "bike_id": "57f62dbcbb90c7652b54fac5967de75b", "fusion_lon": 0.0, "rental_uris": {"ios": "https://dc.lft.to/lastmile_qr_scan", "android": "https://dc.lft.to/lastmile_qr_scan"}}, {"lon": -77.02198183333333, "fusion_lat": 0.0, "type": "electric_scooter", "lat": 38.91129133333333, "is_disabled": 0, "name": "d7c5212cd8ae80c5d7e3aba26437dcf8", "is_reserved": 0, "bike_id": "d7c5212cd8ae80c5d7e3aba26437dcf8", "fusion_lon": 0.0, "rental_uris": {"ios": "https://dc.lft.to/lastmile_qr_scan", "android": "https://dc.lft.to/lastmile_qr_scan"}}, {"lon": -77.06850416666667, "fusion_lat": 0.0, "type": "electric_scooter", "lat": 38.903768166666666, "is_disabled": 0, "name": "a6a70229fc7d70ce43e0450aa003a1e5", "is_reserved": 0, "bike_id": "a6a70229fc7d70ce43e0450aa003a1e5", "fusion_lon": 0.0, "rental_uris": {"ios": "https://dc.lft.to/lastmile_qr_scan", "android": "https://dc.lft.to/lastmile_qr_scan"}}, {"lon": -77.0214405, "fusion_lat": 0.0, "type": "electric_scooter", "lat": 38.925179666666665, "is_disabled": 0, "name": "6ecf837ca0cdf7470ae766a8a8307311", "is_reserved": 0, "bike_id": "6ecf837ca0cdf7470ae766a8a8307311", "fusion_lon": 0.0, "rental_uris": {"ios": "https://dc.lft.to/lastmile_qr_scan", "android": "https://dc.lft.to/lastmile_qr_scan"}}, {"lon": -76.95242833333333, "fusion_lat": 0.0, "type": "electric_scooter", "lat": 38.893476, "is_disabled": 0, "name": "2616001e46fd3f0bf849ac5e8f8f8c70", "is_reserved": 0, "bike_id": "2616001e46fd3f0bf849ac5e8f8f8c70", "fusion_lon": 0.0, "rental_uris": {"ios": "https://dc.lft.to/lastmile_qr_scan", "android": "https://dc.lft.to/lastmile_qr_scan"}}, {"lon": -77.04023866666667, "fusion_lat": 0.0, "type": "electric_scooter", "lat": 38.91786783333333, "is_disabled": 0, "name": "a0b3e6743e6452eebc750461fc003211", "is_reserved": 0, "bike_id": "a0b3e6743e6452eebc750461fc003211", "fusion_lon": 0.0, "rental_uris": {"ios": "https://dc.lft.to/lastmile_qr_scan", "android": "https://dc.lft.to/lastmile_qr_scan"}}, {"lon": -76.92778716666666, "fusion_lat": 0.0, "type": "electric_scooter", "lat": 38.89533483333334, "is_disabled": 0, "name": "f9aee62752dfeffd346550b3bbb7933b", "is_reserved": 0, "bike_id": "f9aee62752dfeffd346550b3bbb7933b", "fusion_lon": 0.0, "rental_uris": {"ios": "https://dc.lft.to/lastmile_qr_scan", "android": "https://dc.lft.to/lastmile_qr_scan"}}, {"lon": -77.03609533333334, "fusion_lat": 0.0, "type": "electric_scooter", "lat": 38.966795166666664, "is_disabled": 0, "name": "b6a8f26ce9d014f6e2865edcd912c78e", "is_reserved": 0, "bike_id": "b6a8f26ce9d014f6e2865edcd912c78e", "fusion_lon": 0.0, "rental_uris": {"ios": "https://dc.lft.to/lastmile_qr_scan", "android": "https://dc.lft.to/lastmile_qr_scan"}}, {"lon": -77.03180566666667, "fusion_lat": 0.0, "type": "electric_scooter", "lat": 38.886742, "is_disabled": 0, "name": "4e74333a29d2a6962e891cd151d1eeca", "is_reserved": 0, "bike_id": "4e74333a29d2a6962e891cd151d1eeca", "fusion_lon": 0.0, "rental_uris": {"ios": "https://dc.lft.to/lastmile_qr_scan", "android": "https://dc.lft.to/lastmile_qr_scan"}}, {"lon": -77.01774416666666, "fusion_lat": 0.0, "type": "electric_scooter", "lat": 38.904484833333335, "is_disabled": 0, "name": "452a2965434e920d52db26037b40787b", "is_reserved": 0, "bike_id": "452a2965434e920d52db26037b40787b", "fusion_lon": 0.0, "rental_uris": {"ios": "https://dc.lft.to/lastmile_qr_scan", "android": "https://dc.lft.to/lastmile_qr_scan"}}, {"lon": -77.0116635, "fusion_lat": 0.0, "type": "electric_scooter", "lat": 38.9588065, "is_disabled": 0, "name": "a5fc43dc88843947ada14000f90094f2", "is_reserved": 0, "bike_id": "a5fc43dc88843947ada14000f90094f2", "fusion_lon": 0.0, "rental_uris": {"ios": "https://dc.lft.to/lastmile_qr_scan", "android": "https://dc.lft.to/lastmile_qr_scan"}}, {"lon": -77.09520316666666, "fusion_lat": 0.0, "type": "electric_bike", "lat": 38.838072, "is_disabled": 0, "name": "8805f2f454493cb9116c290149057e45", "is_reserved": 0, "bike_id": "8805f2f454493cb9116c290149057e45", "fusion_lon": 0.0, "rental_uris": {"ios": "https://dc.lft.to/lastmile_qr_scan", "android": "https://dc.lft.to/lastmile_qr_scan"}}, {"lon": -76.98335766666666, "fusion_lat": 0.0, "type": "electric_scooter", "lat": 38.895443666666665, "is_disabled": 0, "name": "51d69aefe2b1eadd8d3bbbeb22bf26c4", "is_reserved": 0, "bike_id": "51d69aefe2b1eadd8d3bbbeb22bf26c4", "fusion_lon": 0.0, "rental_uris": {"ios": "https://dc.lft.to/lastmile_qr_scan", "android": "https://dc.lft.to/lastmile_qr_scan"}}, {"lon": -77.00274716666667, "fusion_lat": 0.0, "type": "electric_scooter", "lat": 38.95231166666667, "is_disabled": 0, "name": "e82d9d5a22a351b5ee8091c838023d34", "is_reserved": 0, "bike_id": "e82d9d5a22a351b5ee8091c838023d34", "fusion_lon": 0.0, "rental_uris": {"ios": "https://dc.lft.to/lastmile_qr_scan", "android": "https://dc.lft.to/lastmile_qr_scan"}}, {"lon": -77.00769416666667, "fusion_lat": 0.0, "type": "electric_scooter", "lat": 38.95346416666667, "is_disabled": 0, "name": "b2f2faeb63c10955b496d07d2c25477b", "is_reserved": 0, "bike_id": "b2f2faeb63c10955b496d07d2c25477b", "fusion_lon": 0.0, "rental_uris": {"ios": "https://dc.lft.to/lastmile_qr_scan", "android": "https://dc.lft.to/lastmile_qr_scan"}}, {"lon": -76.97347083333334, "fusion_lat": 0.0, "type": "electric_scooter", "lat": 38.90400416666667, "is_disabled": 0, "name": "7ccbf129254f5bccf19d89fef8786a47", "is_reserved": 0, "bike_id": "7ccbf129254f5bccf19d89fef8786a47", "fusion_lon": 0.0, "rental_uris": {"ios": "https://dc.lft.to/lastmile_qr_scan", "android": "https://dc.lft.to/lastmile_qr_scan"}}, {"lon": -77.02231183333333, "fusion_lat": 0.0, "type": "electric_scooter", "lat": 38.91269483333333, "is_disabled": 0, "name": "1b6083634c951567087c242f7454b10c", "is_reserved": 0, "bike_id": "1b6083634c951567087c242f7454b10c", "fusion_lon": 0.0, "rental_uris": {"ios": "https://dc.lft.to/lastmile_qr_scan", "android": "https://dc.lft.to/lastmile_qr_scan"}}, {"lon": -77.03829633333334, "fusion_lat": 0.0, "type": "electric_scooter", "lat": 38.911183666666666, "is_disabled": 0, "name": "594e384c2382d1516848f9d055aefa59", "is_reserved": 0, "bike_id": "594e384c2382d1516848f9d055aefa59", "fusion_lon": 0.0, "rental_uris": {"ios": "https://dc.lft.to/lastmile_qr_scan", "android": "https://dc.lft.to/lastmile_qr_scan"}}, {"lon": -76.9700205, "fusion_lat": 0.0, "type": "electric_scooter", "lat": 38.860137333333334, "is_disabled": 0, "name": "14c9b073b1c9f2294a32eac19c256c61", "is_reserved": 0, "bike_id": "14c9b073b1c9f2294a32eac19c256c61", "fusion_lon": 0.0, "rental_uris": {"ios": "https://dc.lft.to/lastmile_qr_scan", "android": "https://dc.lft.to/lastmile_qr_scan"}}, {"lon": -77.04163, "fusion_lat": 0.0, "type": "electric_scooter", "lat": 38.91351266666667, "is_disabled": 0, "name": "276573f80c17a4aff2dfea056097939b", "is_reserved": 0, "bike_id": "276573f80c17a4aff2dfea056097939b", "fusion_lon": 0.0, "rental_uris": {"ios": "https://dc.lft.to/lastmile_qr_scan", "android": "https://dc.lft.to/lastmile_qr_scan"}}, {"lon": -77.033008, "fusion_lat": 0.0, "type": "electric_scooter", "lat": 38.947290833333334, "is_disabled": 0, "name": "baa3d8c6b66abc6fa807806b70233958", "is_reserved": 0, "bike_id": "baa3d8c6b66abc6fa807806b70233958", "fusion_lon": 0.0, "rental_uris": {"ios": "https://dc.lft.to/lastmile_qr_scan", "android": "https://dc.lft.to/lastmile_qr_scan"}}, {"lon": -77.02169983333333, "fusion_lat": 0.0, "type": "electric_scooter", "lat": 38.89933633333333, "is_disabled": 0, "name": "0d7cdab7d0728014b8c8de7758dd9488", "is_reserved": 0, "bike_id": "0d7cdab7d0728014b8c8de7758dd9488", "fusion_lon": 0.0, "rental_uris": {"ios": "https://dc.lft.to/lastmile_qr_scan", "android": "https://dc.lft.to/lastmile_qr_scan"}}, {"lon": -77.03177816666667, "fusion_lat": 0.0, "type": "electric_scooter", "lat": 38.919148, "is_disabled": 0, "name": "a04854623fcd93a44871cdbcf4357df3", "is_reserved": 0, "bike_id": "a04854623fcd93a44871cdbcf4357df3", "fusion_lon": 0.0, "rental_uris": {"ios": "https://dc.lft.to/lastmile_qr_scan", "android": "https://dc.lft.to/lastmile_qr_scan"}}, {"lon": -77.02313333333333, "fusion_lat": 0.0, "type": "electric_scooter", "lat": 38.92519816666667, "is_disabled": 0, "name": "1981f188257a60422156b4469eb1baa0", "is_reserved": 0, "bike_id": "1981f188257a60422156b4469eb1baa0", "fusion_lon": 0.0, "rental_uris": {"ios": "https://dc.lft.to/lastmile_qr_scan", "android": "https://dc.lft.to/lastmile_qr_scan"}}, {"lon": -77.025496, "fusion_lat": 0.0, "type": "electric_scooter", "lat": 38.899890166666665, "is_disabled": 0, "name": "d42e5d9d22e066e8a555eec4a60095b4", "is_reserved": 0, "bike_id": "d42e5d9d22e066e8a555eec4a60095b4", "fusion_lon": 0.0, "rental_uris": {"ios": "https://dc.lft.to/lastmile_qr_scan", "android": "https://dc.lft.to/lastmile_qr_scan"}}, {"lon": -77.04172316666667, "fusion_lat": 0.0, "type": "electric_scooter", "lat": 38.90745283333333, "is_disabled": 0, "name": "9d9c812f56664630dc7ff75e1b047157", "is_reserved": 0, "bike_id": "9d9c812f56664630dc7ff75e1b047157", "fusion_lon": 0.0, "rental_uris": {"ios": "https://dc.lft.to/lastmile_qr_scan", "android": "https://dc.lft.to/lastmile_qr_scan"}}, {"lon": -77.02178466666666, "fusion_lat": 0.0, "type": "electric_scooter", "lat": 38.90950266666667, "is_disabled": 0, "name": "aea38b26cd084b4b5ef07e83c6becc35", "is_reserved": 0, "bike_id": "aea38b26cd084b4b5ef07e83c6becc35", "fusion_lon": 0.0, "rental_uris": {"ios": "https://dc.lft.to/lastmile_qr_scan", "android": "https://dc.lft.to/lastmile_qr_scan"}}, {"lon": -77.0059495, "fusion_lat": 0.0, "type": "electric_scooter", "lat": 38.875580666666664, "is_disabled": 0, "name": "edfcffda7d3e9b3c49c7fc967786aed8", "is_reserved": 0, "bike_id": "edfcffda7d3e9b3c49c7fc967786aed8", "fusion_lon": 0.0, "rental_uris": {"ios": "https://dc.lft.to/lastmile_qr_scan", "android": "https://dc.lft.to/lastmile_qr_scan"}}, {"lon": -77.03627966666667, "fusion_lat": 0.0, "type": "electric_scooter", "lat": 38.90683116666666, "is_disabled": 0, "name": "4e04c79e81d67b60bb20ad72b788d0d5", "is_reserved": 0, "bike_id": "4e04c79e81d67b60bb20ad72b788d0d5", "fusion_lon": 0.0, "rental_uris": {"ios": "https://dc.lft.to/lastmile_qr_scan", "android": "https://dc.lft.to/lastmile_qr_scan"}}, {"lon": -77.05026066666667, "fusion_lat": 0.0, "type": "electric_scooter", "lat": 38.90668683333333, "is_disabled": 0, "name": "24e50941c8e7c7b0f3798b55f34d4dc5", "is_reserved": 0, "bike_id": "24e50941c8e7c7b0f3798b55f34d4dc5", "fusion_lon": 0.0, "rental_uris": {"ios": "https://dc.lft.to/lastmile_qr_scan", "android": "https://dc.lft.to/lastmile_qr_scan"}}, {"lon": -77.01724016666667, "fusion_lat": 0.0, "type": "electric_scooter", "lat": 38.94313666666667, "is_disabled": 0, "name": "1a119d13a141e33c1b7815eb3749a5c3", "is_reserved": 0, "bike_id": "1a119d13a141e33c1b7815eb3749a5c3", "fusion_lon": 0.0, "rental_uris": {"ios": "https://dc.lft.to/lastmile_qr_scan", "android": "https://dc.lft.to/lastmile_qr_scan"}}, {"lon": -76.99503716666666, "fusion_lat": 0.0, "type": "electric_scooter", "lat": 38.876797333333336, "is_disabled": 0, "name": "0097a62300c8f20c134554dfeaf00ab3", "is_reserved": 0, "bike_id": "0097a62300c8f20c134554dfeaf00ab3", "fusion_lon": 0.0, "rental_uris": {"ios": "https://dc.lft.to/lastmile_qr_scan", "android": "https://dc.lft.to/lastmile_qr_scan"}}, {"lon": -76.98349016666667, "fusion_lat": 0.0, "type": "electric_bike", "lat": 38.9351165, "is_disabled": 0, "name": "a5be6965f06b3e74f8c21ecd1fc337f8", "is_reserved": 0, "bike_id": "a5be6965f06b3e74f8c21ecd1fc337f8", "fusion_lon": 0.0, "rental_uris": {"ios": "https://dc.lft.to/lastmile_qr_scan", "android": "https://dc.lft.to/lastmile_qr_scan"}}, {"lon": -77.0347475, "fusion_lat": 0.0, "type": "electric_scooter", "lat": 38.90568433333333, "is_disabled": 0, "name": "00872c75a610ed3777bf78f77c35172b", "is_reserved": 0, "bike_id": "00872c75a610ed3777bf78f77c35172b", "fusion_lon": 0.0, "rental_uris": {"ios": "https://dc.lft.to/lastmile_qr_scan", "android": "https://dc.lft.to/lastmile_qr_scan"}}, {"lon": -77.03710133333334, "fusion_lat": 0.0, "type": "electric_scooter", "lat": 38.901297666666665, "is_disabled": 0, "name": "777677eadb7c3fbe6551f9ab00fe5426", "is_reserved": 0, "bike_id": "777677eadb7c3fbe6551f9ab00fe5426", "fusion_lon": 0.0, "rental_uris": {"ios": "https://dc.lft.to/lastmile_qr_scan", "android": "https://dc.lft.to/lastmile_qr_scan"}}, {"lon": -77.08406916666667, "fusion_lat": 0.0, "type": "electric_bike", "lat": 38.8329745, "is_disabled": 0, "name": "8041aa3c36e02e9595acbc7ab2044c1f", "is_reserved": 0, "bike_id": "8041aa3c36e02e9595acbc7ab2044c1f", "fusion_lon": 0.0, "rental_uris": {"ios": "https://dc.lft.to/lastmile_qr_scan", "android": "https://dc.lft.to/lastmile_qr_scan"}}, {"lon": -77.03483033333333, "fusion_lat": 0.0, "type": "electric_scooter", "lat": 38.91923966666667, "is_disabled": 0, "name": "f522b6c57a5c04cd3901bfb76e9e012c", "is_reserved": 0, "bike_id": "f522b6c57a5c04cd3901bfb76e9e012c", "fusion_lon": 0.0, "rental_uris": {"ios": "https://dc.lft.to/lastmile_qr_scan", "android": "https://dc.lft.to/lastmile_qr_scan"}}, {"lon": -77.04168966666667, "fusion_lat": 0.0, "type": "electric_scooter", "lat": 38.919828833333334, "is_disabled": 0, "name": "da5747b30e363eda1fa774497a8bfa75", "is_reserved": 0, "bike_id": "da5747b30e363eda1fa774497a8bfa75", "fusion_lon": 0.0, "rental_uris": {"ios": "https://dc.lft.to/lastmile_qr_scan", "android": "https://dc.lft.to/lastmile_qr_scan"}}, {"lon": -77.02413733333333, "fusion_lat": 0.0, "type": "electric_scooter", "lat": 38.89899716666667, "is_disabled": 0, "name": "faeb28ba368348341bfe6ffb6856f4b2", "is_reserved": 0, "bike_id": "faeb28ba368348341bfe6ffb6856f4b2", "fusion_lon": 0.0, "rental_uris": {"ios": "https://dc.lft.to/lastmile_qr_scan", "android": "https://dc.lft.to/lastmile_qr_scan"}}, {"lon": -77.0058, "fusion_lat": 0.0, "type": "electric_scooter", "lat": 38.8757495, "is_disabled": 0, "name": "6a6c15546c7e5c41fddb9c1da0a45cb7", "is_reserved": 0, "bike_id": "6a6c15546c7e5c41fddb9c1da0a45cb7", "fusion_lon": 0.0, "rental_uris": {"ios": "https://dc.lft.to/lastmile_qr_scan", "android": "https://dc.lft.to/lastmile_qr_scan"}}, {"lon": -77.02501883333333, "fusion_lat": 0.0, "type": "electric_scooter", "lat": 38.906337, "is_disabled": 0, "name": "fee089adc9778b9a9196b21b152cbfed", "is_reserved": 0, "bike_id": "fee089adc9778b9a9196b21b152cbfed", "fusion_lon": 0.0, "rental_uris": {"ios": "https://dc.lft.to/lastmile_qr_scan", "android": "https://dc.lft.to/lastmile_qr_scan"}}, {"lon": -77.03798616666667, "fusion_lat": 0.0, "type": "electric_scooter", "lat": 38.9068775, "is_disabled": 0, "name": "5d67b4fcd56f7bc462c8586eb54f790a", "is_reserved": 0, "bike_id": "5d67b4fcd56f7bc462c8586eb54f790a", "fusion_lon": 0.0, "rental_uris": {"ios": "https://dc.lft.to/lastmile_qr_scan", "android": "https://dc.lft.to/lastmile_qr_scan"}}, {"lon": -77.02126566666666, "fusion_lat": 0.0, "type": "electric_scooter", "lat": 38.8996625, "is_disabled": 0, "name": "e86d9b60cab2db69d3a974a5b92bf8a2", "is_reserved": 0, "bike_id": "e86d9b60cab2db69d3a974a5b92bf8a2", "fusion_lon": 0.0, "rental_uris": {"ios": "https://dc.lft.to/lastmile_qr_scan", "android": "https://dc.lft.to/lastmile_qr_scan"}}, {"lon": -77.0146565, "fusion_lat": 0.0, "type": "electric_scooter", "lat": 38.9266115, "is_disabled": 0, "name": "7e4253112e844a6fef46f65fc6a7055f", "is_reserved": 0, "bike_id": "7e4253112e844a6fef46f65fc6a7055f", "fusion_lon": 0.0, "rental_uris": {"ios": "https://dc.lft.to/lastmile_qr_scan", "android": "https://dc.lft.to/lastmile_qr_scan"}}, {"lon": -77.04834066666666, "fusion_lat": 0.0, "type": "electric_scooter", "lat": 38.918616166666666, "is_disabled": 0, "name": "df4ca9055c93f2b299355b655382513e", "is_reserved": 0, "bike_id": "df4ca9055c93f2b299355b655382513e", "fusion_lon": 0.0, "rental_uris": {"ios": "https://dc.lft.to/lastmile_qr_scan", "android": "https://dc.lft.to/lastmile_qr_scan"}}, {"lon": -76.93369066666666, "fusion_lat": 0.0, "type": "electric_bike", "lat": 38.90332166666666, "is_disabled": 0, "name": "8f118f47309cde415380711d8f449626", "is_reserved": 0, "bike_id": "8f118f47309cde415380711d8f449626", "fusion_lon": 0.0, "rental_uris": {"ios": "https://dc.lft.to/lastmile_qr_scan", "android": "https://dc.lft.to/lastmile_qr_scan"}}, {"lon": -77.0472915, "fusion_lat": 0.0, "type": "electric_scooter", "lat": 38.9188355, "is_disabled": 0, "name": "78cbe11060de1685d76a2be848184624", "is_reserved": 0, "bike_id": "78cbe11060de1685d76a2be848184624", "fusion_lon": 0.0, "rental_uris": {"ios": "https://dc.lft.to/lastmile_qr_scan", "android": "https://dc.lft.to/lastmile_qr_scan"}}, {"lon": -77.00051883333333, "fusion_lat": 0.0, "type": "electric_bike", "lat": 38.793315166666666, "is_disabled": 0, "name": "3fc62197b23c26c206c3fc60ec8a5921", "is_reserved": 0, "bike_id": "3fc62197b23c26c206c3fc60ec8a5921", "fusion_lon": 0.0, "rental_uris": {"ios": "https://dc.lft.to/lastmile_qr_scan", "android": "https://dc.lft.to/lastmile_qr_scan"}}, {"lon": -77.02949016666666, "fusion_lat": 0.0, "type": "electric_scooter", "lat": 38.91560533333333, "is_disabled": 0, "name": "ce6b8887fa1ebe6cf4ed9cc9eca210e8", "is_reserved": 0, "bike_id": "ce6b8887fa1ebe6cf4ed9cc9eca210e8", "fusion_lon": 0.0, "rental_uris": {"ios": "https://dc.lft.to/lastmile_qr_scan", "android": "https://dc.lft.to/lastmile_qr_scan"}}, {"lon": -77.02499933333333, "fusion_lat": 0.0, "type": "electric_scooter", "lat": 38.90183583333334, "is_disabled": 0, "name": "f47146a7a0260e168a8e34440678b43c", "is_reserved": 0, "bike_id": "f47146a7a0260e168a8e34440678b43c", "fusion_lon": 0.0, "rental_uris": {"ios": "https://dc.lft.to/lastmile_qr_scan", "android": "https://dc.lft.to/lastmile_qr_scan"}}, {"lon": -76.93712466666666, "fusion_lat": 0.0, "type": "electric_scooter", "lat": 38.89019916666667, "is_disabled": 0, "name": "e32f50f37df38d04ccfa1208433f9f30", "is_reserved": 0, "bike_id": "e32f50f37df38d04ccfa1208433f9f30", "fusion_lon": 0.0, "rental_uris": {"ios": "https://dc.lft.to/lastmile_qr_scan", "android": "https://dc.lft.to/lastmile_qr_scan"}}, {"lon": -77.01791416666667, "fusion_lat": 0.0, "type": "electric_scooter", "lat": 38.904100666666665, "is_disabled": 0, "name": "c7f5b7e4dbd913a23db8385265fd5844", "is_reserved": 0, "bike_id": "c7f5b7e4dbd913a23db8385265fd5844", "fusion_lon": 0.0, "rental_uris": {"ios": "https://dc.lft.to/lastmile_qr_scan", "android": "https://dc.lft.to/lastmile_qr_scan"}}, {"lon": -77.01138233333333, "fusion_lat": 0.0, "type": "electric_scooter", "lat": 38.90646183333333, "is_disabled": 0, "name": "dff3ba026ca9fc9b206ab0fa845f285b", "is_reserved": 0, "bike_id": "dff3ba026ca9fc9b206ab0fa845f285b", "fusion_lon": 0.0, "rental_uris": {"ios": "https://dc.lft.to/lastmile_qr_scan", "android": "https://dc.lft.to/lastmile_qr_scan"}}, {"lon": -77.01771283333333, "fusion_lat": 0.0, "type": "electric_scooter", "lat": 38.9026175, "is_disabled": 0, "name": "1f4cbbdc4583e1e76adb09798295785b", "is_reserved": 0, "bike_id": "1f4cbbdc4583e1e76adb09798295785b", "fusion_lon": 0.0, "rental_uris": {"ios": "https://dc.lft.to/lastmile_qr_scan", "android": "https://dc.lft.to/lastmile_qr_scan"}}, {"lon": -77.00331333333334, "fusion_lat": 0.0, "type": "electric_scooter", "lat": 38.89356433333333, "is_disabled": 0, "name": "560c7a801b196fa56cc2f6336a00e9d2", "is_reserved": 0, "bike_id": "560c7a801b196fa56cc2f6336a00e9d2", "fusion_lon": 0.0, "rental_uris": {"ios": "https://dc.lft.to/lastmile_qr_scan", "android": "https://dc.lft.to/lastmile_qr_scan"}}, {"lon": -76.99335816666667, "fusion_lat": 0.0, "type": "electric_bike", "lat": 38.94666866666667, "is_disabled": 0, "name": "f6644ee64a944255a673ede14e8ba856", "is_reserved": 0, "bike_id": "f6644ee64a944255a673ede14e8ba856", "fusion_lon": 0.0, "rental_uris": {"ios": "https://dc.lft.to/lastmile_qr_scan", "android": "https://dc.lft.to/lastmile_qr_scan"}}, {"lon": -77.0344675, "fusion_lat": 0.0, "type": "electric_scooter", "lat": 38.91909616666667, "is_disabled": 0, "name": "8d2a772f3f7163fedd95bfe4ee83e968", "is_reserved": 0, "bike_id": "8d2a772f3f7163fedd95bfe4ee83e968", "fusion_lon": 0.0, "rental_uris": {"ios": "https://dc.lft.to/lastmile_qr_scan", "android": "https://dc.lft.to/lastmile_qr_scan"}}, {"lon": -77.03018116666667, "fusion_lat": 0.0, "type": "electric_scooter", "lat": 38.91806616666667, "is_disabled": 0, "name": "19fd7f17efe91e764758674a811eddb1", "is_reserved": 0, "bike_id": "19fd7f17efe91e764758674a811eddb1", "fusion_lon": 0.0, "rental_uris": {"ios": "https://dc.lft.to/lastmile_qr_scan", "android": "https://dc.lft.to/lastmile_qr_scan"}}, {"lon": -77.142295, "fusion_lat": 0.0, "type": "electric_bike", "lat": 38.886041166666665, "is_disabled": 0, "name": "e8aad56cf9c8f9fb0bcfebb42467d9e3", "is_reserved": 0, "bike_id": "e8aad56cf9c8f9fb0bcfebb42467d9e3", "fusion_lon": 0.0, "rental_uris": {"ios": "https://dc.lft.to/lastmile_qr_scan", "android": "https://dc.lft.to/lastmile_qr_scan"}}, {"lon": -77.01117516666666, "fusion_lat": 0.0, "type": "electric_scooter", "lat": 38.8851115, "is_disabled": 0, "name": "8682ebd15f3e7d354d8c43731665a4a5", "is_reserved": 0, "bike_id": "8682ebd15f3e7d354d8c43731665a4a5", "fusion_lon": 0.0, "rental_uris": {"ios": "https://dc.lft.to/lastmile_qr_scan", "android": "https://dc.lft.to/lastmile_qr_scan"}}, {"lon": -77.07842216666667, "fusion_lat": 0.0, "type": "electric_scooter", "lat": 38.931408833333336, "is_disabled": 0, "name": "5643f8b95477b42b61500db25809d4d5", "is_reserved": 0, "bike_id": "5643f8b95477b42b61500db25809d4d5", "fusion_lon": 0.0, "rental_uris": {"ios": "https://dc.lft.to/lastmile_qr_scan", "android": "https://dc.lft.to/lastmile_qr_scan"}}, {"lon": -77.0457955, "fusion_lat": 0.0, "type": "electric_scooter", "lat": 38.9213035, "is_disabled": 0, "name": "3a4ad999da32004500f4ddec20fabb38", "is_reserved": 0, "bike_id": "3a4ad999da32004500f4ddec20fabb38", "fusion_lon": 0.0, "rental_uris": {"ios": "https://dc.lft.to/lastmile_qr_scan", "android": "https://dc.lft.to/lastmile_qr_scan"}}, {"lon": -76.93480266666667, "fusion_lat": 0.0, "type": "electric_scooter", "lat": 38.90736533333333, "is_disabled": 0, "name": "55d5a1f22e133ffd896ad37a3862efc4", "is_reserved": 0, "bike_id": "55d5a1f22e133ffd896ad37a3862efc4", "fusion_lon": 0.0, "rental_uris": {"ios": "https://dc.lft.to/lastmile_qr_scan", "android": "https://dc.lft.to/lastmile_qr_scan"}}, {"lon": -77.03635316666667, "fusion_lat": 0.0, "type": "electric_scooter", "lat": 38.923435, "is_disabled": 0, "name": "1d9485112c032033a0597d9d4d5518fc", "is_reserved": 0, "bike_id": "1d9485112c032033a0597d9d4d5518fc", "fusion_lon": 0.0, "rental_uris": {"ios": "https://dc.lft.to/lastmile_qr_scan", "android": "https://dc.lft.to/lastmile_qr_scan"}}, {"lon": -77.03482183333334, "fusion_lat": 0.0, "type": "electric_scooter", "lat": 38.928777333333336, "is_disabled": 0, "name": "dfc28f9478d097ccd1f485b6a09c400d", "is_reserved": 0, "bike_id": "dfc28f9478d097ccd1f485b6a09c400d", "fusion_lon": 0.0, "rental_uris": {"ios": "https://dc.lft.to/lastmile_qr_scan", "android": "https://dc.lft.to/lastmile_qr_scan"}}, {"lon": -77.04645633333334, "fusion_lat": 0.0, "type": "electric_scooter", "lat": 38.90329466666667, "is_disabled": 0, "name": "6831f159e3f3148f30a0d9bee39fae8d", "is_reserved": 0, "bike_id": "6831f159e3f3148f30a0d9bee39fae8d", "fusion_lon": 0.0, "rental_uris": {"ios": "https://dc.lft.to/lastmile_qr_scan", "android": "https://dc.lft.to/lastmile_qr_scan"}}, {"lon": -77.021807, "fusion_lat": 0.0, "type": "electric_scooter", "lat": 38.905704166666666, "is_disabled": 0, "name": "64a8a67bf4b11f9060720c6bab8d25e1", "is_reserved": 0, "bike_id": "64a8a67bf4b11f9060720c6bab8d25e1", "fusion_lon": 0.0, "rental_uris": {"ios": "https://dc.lft.to/lastmile_qr_scan", "android": "https://dc.lft.to/lastmile_qr_scan"}}, {"lon": -77.046768, "fusion_lat": 0.0, "type": "electric_scooter", "lat": 38.90181783333333, "is_disabled": 0, "name": "db29c00cb6fab1f0cd33a38af1a7b643", "is_reserved": 0, "bike_id": "db29c00cb6fab1f0cd33a38af1a7b643", "fusion_lon": 0.0, "rental_uris": {"ios": "https://dc.lft.to/lastmile_qr_scan", "android": "https://dc.lft.to/lastmile_qr_scan"}}, {"lon": -77.07203583333333, "fusion_lat": 0.0, "type": "electric_scooter", "lat": 38.922511166666666, "is_disabled": 0, "name": "f0c54c2ccad650719a2fa62742332f27", "is_reserved": 0, "bike_id": "f0c54c2ccad650719a2fa62742332f27", "fusion_lon": 0.0, "rental_uris": {"ios": "https://dc.lft.to/lastmile_qr_scan", "android": "https://dc.lft.to/lastmile_qr_scan"}}, {"lon": -77.038586, "fusion_lat": 0.0, "type": "electric_scooter", "lat": 38.91197783333333, "is_disabled": 0, "name": "ce959e4a6b24e320d0094fdb902e02a2", "is_reserved": 0, "bike_id": "ce959e4a6b24e320d0094fdb902e02a2", "fusion_lon": 0.0, "rental_uris": {"ios": "https://dc.lft.to/lastmile_qr_scan", "android": "https://dc.lft.to/lastmile_qr_scan"}}, {"lon": -77.19128566666667, "fusion_lat": 0.0, "type": "electric_bike", "lat": 38.894546166666665, "is_disabled": 0, "name": "24762ad3d9b0bf2746700213424bfded", "is_reserved": 0, "bike_id": "24762ad3d9b0bf2746700213424bfded", "fusion_lon": 0.0, "rental_uris": {"ios": "https://dc.lft.to/lastmile_qr_scan", "android": "https://dc.lft.to/lastmile_qr_scan"}}, {"lon": -77.04360983333333, "fusion_lat": 0.0, "type": "electric_scooter", "lat": 38.90836133333333, "is_disabled": 0, "name": "ec9e01b738ba45a1a64528f752bdf5e9", "is_reserved": 0, "bike_id": "ec9e01b738ba45a1a64528f752bdf5e9", "fusion_lon": 0.0, "rental_uris": {"ios": "https://dc.lft.to/lastmile_qr_scan", "android": "https://dc.lft.to/lastmile_qr_scan"}}, {"lon": -77.11695116666667, "fusion_lat": 0.0, "type": "electric_bike", "lat": 38.885425833333336, "is_disabled": 0, "name": "cfdfd2a2b178d864902654ce4c3f64ec", "is_reserved": 0, "bike_id": "cfdfd2a2b178d864902654ce4c3f64ec", "fusion_lon": 0.0, "rental_uris": {"ios": "https://dc.lft.to/lastmile_qr_scan", "android": "https://dc.lft.to/lastmile_qr_scan"}}, {"lon": -77.05334333333333, "fusion_lat": 0.0, "type": "electric_scooter", "lat": 38.903516833333335, "is_disabled": 0, "name": "e2f97e689ea4358cdcaed28f97f60e2a", "is_reserved": 0, "bike_id": "e2f97e689ea4358cdcaed28f97f60e2a", "fusion_lon": 0.0, "rental_uris": {"ios": "https://dc.lft.to/lastmile_qr_scan", "android": "https://dc.lft.to/lastmile_qr_scan"}}, {"lon": -77.03183616666666, "fusion_lat": 0.0, "type": "electric_scooter", "lat": 38.898072166666665, "is_disabled": 0, "name": "15ef04365c9c1be25aeb7d4877037e9c", "is_reserved": 0, "bike_id": "15ef04365c9c1be25aeb7d4877037e9c", "fusion_lon": 0.0, "rental_uris": {"ios": "https://dc.lft.to/lastmile_qr_scan", "android": "https://dc.lft.to/lastmile_qr_scan"}}, {"lon": -77.040113, "fusion_lat": 0.0, "type": "electric_scooter", "lat": 38.90575066666667, "is_disabled": 0, "name": "9f3be6ea3d391b8d76cbdfd53e96dbf3", "is_reserved": 0, "bike_id": "9f3be6ea3d391b8d76cbdfd53e96dbf3", "fusion_lon": 0.0, "rental_uris": {"ios": "https://dc.lft.to/lastmile_qr_scan", "android": "https://dc.lft.to/lastmile_qr_scan"}}, {"lon": -76.931728, "fusion_lat": 0.0, "type": "electric_scooter", "lat": 38.8988725, "is_disabled": 0, "name": "735ddec88cbfbfbb10adeb206901d2e2", "is_reserved": 0, "bike_id": "735ddec88cbfbfbb10adeb206901d2e2", "fusion_lon": 0.0, "rental_uris": {"ios": "https://dc.lft.to/lastmile_qr_scan", "android": "https://dc.lft.to/lastmile_qr_scan"}}, {"lon": -77.00677716666667, "fusion_lat": 0.0, "type": "electric_scooter", "lat": 38.90011333333333, "is_disabled": 0, "name": "a0f29dd8ecf8a21590545f46db13cc4d", "is_reserved": 0, "bike_id": "a0f29dd8ecf8a21590545f46db13cc4d", "fusion_lon": 0.0, "rental_uris": {"ios": "https://dc.lft.to/lastmile_qr_scan", "android": "https://dc.lft.to/lastmile_qr_scan"}}, {"lon": -77.01827066666667, "fusion_lat": 0.0, "type": "electric_scooter", "lat": 38.922303166666666, "is_disabled": 0, "name": "058c29508a45e2212125ed4fa109f73f", "is_reserved": 0, "bike_id": "058c29508a45e2212125ed4fa109f73f", "fusion_lon": 0.0, "rental_uris": {"ios": "https://dc.lft.to/lastmile_qr_scan", "android": "https://dc.lft.to/lastmile_qr_scan"}}, {"lon": -77.04656516666667, "fusion_lat": 0.0, "type": "electric_scooter", "lat": 38.892479333333334, "is_disabled": 0, "name": "f2863096d2033cae778b3f9b3a85246f", "is_reserved": 0, "bike_id": "f2863096d2033cae778b3f9b3a85246f", "fusion_lon": 0.0, "rental_uris": {"ios": "https://dc.lft.to/lastmile_qr_scan", "android": "https://dc.lft.to/lastmile_qr_scan"}}, {"lon": -76.94726783333333, "fusion_lat": 0.0, "type": "electric_scooter", "lat": 38.89679066666667, "is_disabled": 0, "name": "eb5e370b00a7c5044d0c21066b0df154", "is_reserved": 0, "bike_id": "eb5e370b00a7c5044d0c21066b0df154", "fusion_lon": 0.0, "rental_uris": {"ios": "https://dc.lft.to/lastmile_qr_scan", "android": "https://dc.lft.to/lastmile_qr_scan"}}, {"lon": -76.98988133333333, "fusion_lat": 0.0, "type": "electric_bike", "lat": 38.93671366666667, "is_disabled": 0, "name": "1899769f356de2fce8bde0cc40a1d3da", "is_reserved": 0, "bike_id": "1899769f356de2fce8bde0cc40a1d3da", "fusion_lon": 0.0, "rental_uris": {"ios": "https://dc.lft.to/lastmile_qr_scan", "android": "https://dc.lft.to/lastmile_qr_scan"}}, {"lon": -77.05145066666667, "fusion_lat": 0.0, "type": "electric_scooter", "lat": 38.898019, "is_disabled": 0, "name": "00364e8d88eedcbb6f43dc52e2b3f536", "is_reserved": 0, "bike_id": "00364e8d88eedcbb6f43dc52e2b3f536", "fusion_lon": 0.0, "rental_uris": {"ios": "https://dc.lft.to/lastmile_qr_scan", "android": "https://dc.lft.to/lastmile_qr_scan"}}, {"lon": -77.03389516666667, "fusion_lat": 0.0, "type": "electric_scooter", "lat": 38.901477666666665, "is_disabled": 0, "name": "1c561c2bcf6dedc8d306879625748bd0", "is_reserved": 0, "bike_id": "1c561c2bcf6dedc8d306879625748bd0", "fusion_lon": 0.0, "rental_uris": {"ios": "https://dc.lft.to/lastmile_qr_scan", "android": "https://dc.lft.to/lastmile_qr_scan"}}, {"lon": -77.0349575, "fusion_lat": 0.0, "type": "electric_scooter", "lat": 38.9162365, "is_disabled": 0, "name": "39a5eb891b74ab9fc82a928c81fb593b", "is_reserved": 0, "bike_id": "39a5eb891b74ab9fc82a928c81fb593b", "fusion_lon": 0.0, "rental_uris": {"ios": "https://dc.lft.to/lastmile_qr_scan", "android": "https://dc.lft.to/lastmile_qr_scan"}}, {"lon": -77.09576866666667, "fusion_lat": 0.0, "type": "electric_bike", "lat": 38.917020666666666, "is_disabled": 0, "name": "dfabec68f4ad597c1d8788f488821fd9", "is_reserved": 0, "bike_id": "dfabec68f4ad597c1d8788f488821fd9", "fusion_lon": 0.0, "rental_uris": {"ios": "https://dc.lft.to/lastmile_qr_scan", "android": "https://dc.lft.to/lastmile_qr_scan"}}, {"lon": -77.02365266666666, "fusion_lat": 0.0, "type": "electric_scooter", "lat": 38.90213516666667, "is_disabled": 0, "name": "ecc21d395186ed859adf7c331da82bcc", "is_reserved": 0, "bike_id": "ecc21d395186ed859adf7c331da82bcc", "fusion_lon": 0.0, "rental_uris": {"ios": "https://dc.lft.to/lastmile_qr_scan", "android": "https://dc.lft.to/lastmile_qr_scan"}}, {"lon": -76.9478275, "fusion_lat": 0.0, "type": "electric_scooter", "lat": 38.8963895, "is_disabled": 0, "name": "ed7ce01b03bd593ca9238d9f5d4b3be0", "is_reserved": 0, "bike_id": "ed7ce01b03bd593ca9238d9f5d4b3be0", "fusion_lon": 0.0, "rental_uris": {"ios": "https://dc.lft.to/lastmile_qr_scan", "android": "https://dc.lft.to/lastmile_qr_scan"}}, {"lon": -76.93711633333334, "fusion_lat": 0.0, "type": "electric_scooter", "lat": 38.890149, "is_disabled": 0, "name": "5f48ad3ca94ef080629e58a66efd6396", "is_reserved": 0, "bike_id": "5f48ad3ca94ef080629e58a66efd6396", "fusion_lon": 0.0, "rental_uris": {"ios": "https://dc.lft.to/lastmile_qr_scan", "android": "https://dc.lft.to/lastmile_qr_scan"}}, {"lon": -77.03230633333334, "fusion_lat": 0.0, "type": "electric_scooter", "lat": 38.929872333333336, "is_disabled": 0, "name": "d963c1fcb9c394b3a50cb0fe78bf25fa", "is_reserved": 0, "bike_id": "d963c1fcb9c394b3a50cb0fe78bf25fa", "fusion_lon": 0.0, "rental_uris": {"ios": "https://dc.lft.to/lastmile_qr_scan", "android": "https://dc.lft.to/lastmile_qr_scan"}}, {"lon": -76.97426166666666, "fusion_lat": 0.0, "type": "electric_scooter", "lat": 38.8983475, "is_disabled": 0, "name": "8aad7a4582a550b6fd121576c194345a", "is_reserved": 0, "bike_id": "8aad7a4582a550b6fd121576c194345a", "fusion_lon": 0.0, "rental_uris": {"ios": "https://dc.lft.to/lastmile_qr_scan", "android": "https://dc.lft.to/lastmile_qr_scan"}}, {"lon": -77.04488016666667, "fusion_lat": 0.0, "type": "electric_scooter", "lat": 38.897122333333336, "is_disabled": 0, "name": "b36fc6af6457e0f17d02ce2840691e36", "is_reserved": 0, "bike_id": "b36fc6af6457e0f17d02ce2840691e36", "fusion_lon": 0.0, "rental_uris": {"ios": "https://dc.lft.to/lastmile_qr_scan", "android": "https://dc.lft.to/lastmile_qr_scan"}}, {"lon": -77.05807233333333, "fusion_lat": 0.0, "type": "electric_scooter", "lat": 38.9346195, "is_disabled": 0, "name": "27fd823c678a644fbbf7712197622b38", "is_reserved": 0, "bike_id": "27fd823c678a644fbbf7712197622b38", "fusion_lon": 0.0, "rental_uris": {"ios": "https://dc.lft.to/lastmile_qr_scan", "android": "https://dc.lft.to/lastmile_qr_scan"}}, {"lon": -76.98204566666666, "fusion_lat": 0.0, "type": "electric_scooter", "lat": 38.905646, "is_disabled": 0, "name": "dce47356a89b274222e987a7303c3507", "is_reserved": 0, "bike_id": "dce47356a89b274222e987a7303c3507", "fusion_lon": 0.0, "rental_uris": {"ios": "https://dc.lft.to/lastmile_qr_scan", "android": "https://dc.lft.to/lastmile_qr_scan"}}, {"lon": -77.0220355, "fusion_lat": 0.0, "type": "electric_scooter", "lat": 38.90348766666666, "is_disabled": 0, "name": "00d94810c1fb71cb0f69df05bd489284", "is_reserved": 0, "bike_id": "00d94810c1fb71cb0f69df05bd489284", "fusion_lon": 0.0, "rental_uris": {"ios": "https://dc.lft.to/lastmile_qr_scan", "android": "https://dc.lft.to/lastmile_qr_scan"}}, {"lon": -77.02979533333334, "fusion_lat": 0.0, "type": "electric_scooter", "lat": 38.9254595, "is_disabled": 0, "name": "8ec61929c29a771fc499383100dca79f", "is_reserved": 0, "bike_id": "8ec61929c29a771fc499383100dca79f", "fusion_lon": 0.0, "rental_uris": {"ios": "https://dc.lft.to/lastmile_qr_scan", "android": "https://dc.lft.to/lastmile_qr_scan"}}, {"lon": -77.04012366666667, "fusion_lat": 0.0, "type": "electric_scooter", "lat": 38.907227166666665, "is_disabled": 0, "name": "b59ae6af4266048a7af7073db89ff7b2", "is_reserved": 0, "bike_id": "b59ae6af4266048a7af7073db89ff7b2", "fusion_lon": 0.0, "rental_uris": {"ios": "https://dc.lft.to/lastmile_qr_scan", "android": "https://dc.lft.to/lastmile_qr_scan"}}, {"lon": -77.02503733333333, "fusion_lat": 0.0, "type": "electric_scooter", "lat": 38.920722833333336, "is_disabled": 0, "name": "d5b0e783cf4e4dcdb4990715b21f6e08", "is_reserved": 0, "bike_id": "d5b0e783cf4e4dcdb4990715b21f6e08", "fusion_lon": 0.0, "rental_uris": {"ios": "https://dc.lft.to/lastmile_qr_scan", "android": "https://dc.lft.to/lastmile_qr_scan"}}, {"lon": -77.01524083333334, "fusion_lat": 0.0, "type": "electric_scooter", "lat": 38.88481916666667, "is_disabled": 0, "name": "38acba28abcf1a752c85765671c0292f", "is_reserved": 0, "bike_id": "38acba28abcf1a752c85765671c0292f", "fusion_lon": 0.0, "rental_uris": {"ios": "https://dc.lft.to/lastmile_qr_scan", "android": "https://dc.lft.to/lastmile_qr_scan"}}, {"lon": -77.03088516666666, "fusion_lat": 0.0, "type": "electric_scooter", "lat": 38.92675066666666, "is_disabled": 0, "name": "47fc4a48bc6008ade513c991604a786f", "is_reserved": 0, "bike_id": "47fc4a48bc6008ade513c991604a786f", "fusion_lon": 0.0, "rental_uris": {"ios": "https://dc.lft.to/lastmile_qr_scan", "android": "https://dc.lft.to/lastmile_qr_scan"}}, {"lon": -77.01364383333333, "fusion_lat": 0.0, "type": "electric_scooter", "lat": 38.88706233333333, "is_disabled": 0, "name": "127ebef49d472084b7f0c18d0241dfa9", "is_reserved": 0, "bike_id": "127ebef49d472084b7f0c18d0241dfa9", "fusion_lon": 0.0, "rental_uris": {"ios": "https://dc.lft.to/lastmile_qr_scan", "android": "https://dc.lft.to/lastmile_qr_scan"}}, {"lon": -77.00358766666666, "fusion_lat": 0.0, "type": "electric_scooter", "lat": 38.9110505, "is_disabled": 0, "name": "676deec71b1a70972c7c2766bbb6070a", "is_reserved": 0, "bike_id": "676deec71b1a70972c7c2766bbb6070a", "fusion_lon": 0.0, "rental_uris": {"ios": "https://dc.lft.to/lastmile_qr_scan", "android": "https://dc.lft.to/lastmile_qr_scan"}}, {"lon": -77.02701816666666, "fusion_lat": 0.0, "type": "electric_scooter", "lat": 38.89766866666667, "is_disabled": 0, "name": "3811e549b455553394f294d866969ebe", "is_reserved": 0, "bike_id": "3811e549b455553394f294d866969ebe", "fusion_lon": 0.0, "rental_uris": {"ios": "https://dc.lft.to/lastmile_qr_scan", "android": "https://dc.lft.to/lastmile_qr_scan"}}, {"lon": -77.03343516666666, "fusion_lat": 0.0, "type": "electric_scooter", "lat": 38.89901416666667, "is_disabled": 0, "name": "112153220ab854bbf4b9379a677977f0", "is_reserved": 0, "bike_id": "112153220ab854bbf4b9379a677977f0", "fusion_lon": 0.0, "rental_uris": {"ios": "https://dc.lft.to/lastmile_qr_scan", "android": "https://dc.lft.to/lastmile_qr_scan"}}, {"lon": -77.01909816666667, "fusion_lat": 0.0, "type": "electric_scooter", "lat": 38.91414416666667, "is_disabled": 0, "name": "9b50d1975bd5ae0c4ededb2bd8c01cf9", "is_reserved": 0, "bike_id": "9b50d1975bd5ae0c4ededb2bd8c01cf9", "fusion_lon": 0.0, "rental_uris": {"ios": "https://dc.lft.to/lastmile_qr_scan", "android": "https://dc.lft.to/lastmile_qr_scan"}}, {"lon": -77.02208633333333, "fusion_lat": 0.0, "type": "electric_scooter", "lat": 38.921460833333335, "is_disabled": 0, "name": "11b284b6365cf355b769566b4fcaf079", "is_reserved": 0, "bike_id": "11b284b6365cf355b769566b4fcaf079", "fusion_lon": 0.0, "rental_uris": {"ios": "https://dc.lft.to/lastmile_qr_scan", "android": "https://dc.lft.to/lastmile_qr_scan"}}, {"lon": -77.02961833333333, "fusion_lat": 0.0, "type": "electric_scooter", "lat": 38.930339333333336, "is_disabled": 0, "name": "0894734f184c2351ad46b1d87e54c079", "is_reserved": 0, "bike_id": "0894734f184c2351ad46b1d87e54c079", "fusion_lon": 0.0, "rental_uris": {"ios": "https://dc.lft.to/lastmile_qr_scan", "android": "https://dc.lft.to/lastmile_qr_scan"}}, {"lon": -77.03635283333334, "fusion_lat": 0.0, "type": "electric_scooter", "lat": 38.9234655, "is_disabled": 0, "name": "d11dae7defe618f24e42d204fb6aa2b1", "is_reserved": 0, "bike_id": "d11dae7defe618f24e42d204fb6aa2b1", "fusion_lon": 0.0, "rental_uris": {"ios": "https://dc.lft.to/lastmile_qr_scan", "android": "https://dc.lft.to/lastmile_qr_scan"}}, {"lon": -77.0168245, "fusion_lat": 0.0, "type": "electric_scooter", "lat": 38.87938533333333, "is_disabled": 0, "name": "3e717d29ce9b4cd5d2aa63c91ed0ca07", "is_reserved": 0, "bike_id": "3e717d29ce9b4cd5d2aa63c91ed0ca07", "fusion_lon": 0.0, "rental_uris": {"ios": "https://dc.lft.to/lastmile_qr_scan", "android": "https://dc.lft.to/lastmile_qr_scan"}}, {"lon": -77.02505233333333, "fusion_lat": 0.0, "type": "electric_scooter", "lat": 38.92639633333334, "is_disabled": 0, "name": "eb1042ded82b7dfa0f35435cc16193d3", "is_reserved": 0, "bike_id": "eb1042ded82b7dfa0f35435cc16193d3", "fusion_lon": 0.0, "rental_uris": {"ios": "https://dc.lft.to/lastmile_qr_scan", "android": "https://dc.lft.to/lastmile_qr_scan"}}, {"lon": -77.04074433333334, "fusion_lat": 0.0, "type": "electric_scooter", "lat": 38.90033433333333, "is_disabled": 0, "name": "f80af44bcb6342becfbe485813a9da60", "is_reserved": 0, "bike_id": "f80af44bcb6342becfbe485813a9da60", "fusion_lon": 0.0, "rental_uris": {"ios": "https://dc.lft.to/lastmile_qr_scan", "android": "https://dc.lft.to/lastmile_qr_scan"}}, {"lon": -77.04137, "fusion_lat": 0.0, "type": "electric_scooter", "lat": 38.91874, "is_disabled": 0, "name": "7d61868ed97158616148d1fb3959658a", "is_reserved": 0, "bike_id": "7d61868ed97158616148d1fb3959658a", "fusion_lon": 0.0, "rental_uris": {"ios": "https://dc.lft.to/lastmile_qr_scan", "android": "https://dc.lft.to/lastmile_qr_scan"}}, {"lon": -77.029771, "fusion_lat": 0.0, "type": "electric_scooter", "lat": 38.934434, "is_disabled": 0, "name": "cdee7bb3d06a0d00e106ecd7f40b74ff", "is_reserved": 0, "bike_id": "cdee7bb3d06a0d00e106ecd7f40b74ff", "fusion_lon": 0.0, "rental_uris": {"ios": "https://dc.lft.to/lastmile_qr_scan", "android": "https://dc.lft.to/lastmile_qr_scan"}}, {"lon": -77.0532675, "fusion_lat": 0.0, "type": "electric_scooter", "lat": 38.904255166666665, "is_disabled": 0, "name": "1f1f778e7939958f67effcaada8dd2c1", "is_reserved": 0, "bike_id": "1f1f778e7939958f67effcaada8dd2c1", "fusion_lon": 0.0, "rental_uris": {"ios": "https://dc.lft.to/lastmile_qr_scan", "android": "https://dc.lft.to/lastmile_qr_scan"}}, {"lon": -77.04549266666666, "fusion_lat": 0.0, "type": "electric_scooter", "lat": 38.91362483333333, "is_disabled": 0, "name": "ad2a684c192dcc468743209369d175b5", "is_reserved": 0, "bike_id": "ad2a684c192dcc468743209369d175b5", "fusion_lon": 0.0, "rental_uris": {"ios": "https://dc.lft.to/lastmile_qr_scan", "android": "https://dc.lft.to/lastmile_qr_scan"}}, {"lon": -77.03738016666667, "fusion_lat": 0.0, "type": "electric_scooter", "lat": 38.879921333333336, "is_disabled": 0, "name": "8ff4012901eaa7c24e5fb0db79c0d527", "is_reserved": 0, "bike_id": "8ff4012901eaa7c24e5fb0db79c0d527", "fusion_lon": 0.0, "rental_uris": {"ios": "https://dc.lft.to/lastmile_qr_scan", "android": "https://dc.lft.to/lastmile_qr_scan"}}, {"lon": -77.03211883333333, "fusion_lat": 0.0, "type": "electric_scooter", "lat": 38.929632833333336, "is_disabled": 0, "name": "1adafc569db8708bd69bf5ece2d49d0f", "is_reserved": 0, "bike_id": "1adafc569db8708bd69bf5ece2d49d0f", "fusion_lon": 0.0, "rental_uris": {"ios": "https://dc.lft.to/lastmile_qr_scan", "android": "https://dc.lft.to/lastmile_qr_scan"}}, {"lon": -77.03133366666667, "fusion_lat": 0.0, "type": "electric_scooter", "lat": 38.902613333333335, "is_disabled": 0, "name": "6b8bda5cd8d3f77571a46b17097a468e", "is_reserved": 0, "bike_id": "6b8bda5cd8d3f77571a46b17097a468e", "fusion_lon": 0.0, "rental_uris": {"ios": "https://dc.lft.to/lastmile_qr_scan", "android": "https://dc.lft.to/lastmile_qr_scan"}}, {"lon": -77.012235, "fusion_lat": 0.0, "type": "electric_scooter", "lat": 38.89799883333333, "is_disabled": 0, "name": "664e6fb44c97b6fab8e5a36bf1374784", "is_reserved": 0, "bike_id": "664e6fb44c97b6fab8e5a36bf1374784", "fusion_lon": 0.0, "rental_uris": {"ios": "https://dc.lft.to/lastmile_qr_scan", "android": "https://dc.lft.to/lastmile_qr_scan"}}, {"lon": -76.99258766666667, "fusion_lat": 0.0, "type": "electric_bike", "lat": 38.80732183333333, "is_disabled": 0, "name": "62ca75ddd9173bfb39d3ad463a0a679d", "is_reserved": 0, "bike_id": "62ca75ddd9173bfb39d3ad463a0a679d", "fusion_lon": 0.0, "rental_uris": {"ios": "https://dc.lft.to/lastmile_qr_scan", "android": "https://dc.lft.to/lastmile_qr_scan"}}, {"lon": -76.9302605, "fusion_lat": 0.0, "type": "electric_scooter", "lat": 38.9017055, "is_disabled": 0, "name": "191e651a2ce92ee5052bfc0b793b064a", "is_reserved": 0, "bike_id": "191e651a2ce92ee5052bfc0b793b064a", "fusion_lon": 0.0, "rental_uris": {"ios": "https://dc.lft.to/lastmile_qr_scan", "android": "https://dc.lft.to/lastmile_qr_scan"}}, {"lon": -77.03158983333333, "fusion_lat": 0.0, "type": "electric_scooter", "lat": 38.905956333333336, "is_disabled": 0, "name": "ba5c9e63059e1913de99f40f82bef14f", "is_reserved": 0, "bike_id": "ba5c9e63059e1913de99f40f82bef14f", "fusion_lon": 0.0, "rental_uris": {"ios": "https://dc.lft.to/lastmile_qr_scan", "android": "https://dc.lft.to/lastmile_qr_scan"}}, {"lon": -77.02960033333333, "fusion_lat": 0.0, "type": "electric_scooter", "lat": 38.92687133333333, "is_disabled": 0, "name": "0eccd4ba56ce42ba442895ff4de25f8d", "is_reserved": 0, "bike_id": "0eccd4ba56ce42ba442895ff4de25f8d", "fusion_lon": 0.0, "rental_uris": {"ios": "https://dc.lft.to/lastmile_qr_scan", "android": "https://dc.lft.to/lastmile_qr_scan"}}, {"lon": -77.01368116666667, "fusion_lat": 0.0, "type": "electric_scooter", "lat": 38.886870333333334, "is_disabled": 0, "name": "09525c8620b0b661faed52ce3bf0382a", "is_reserved": 0, "bike_id": "09525c8620b0b661faed52ce3bf0382a", "fusion_lon": 0.0, "rental_uris": {"ios": "https://dc.lft.to/lastmile_qr_scan", "android": "https://dc.lft.to/lastmile_qr_scan"}}, {"lon": -77.035694, "fusion_lat": 0.0, "type": "electric_scooter", "lat": 38.90567266666667, "is_disabled": 0, "name": "1eee6f7dfd9013689436e155427398da", "is_reserved": 0, "bike_id": "1eee6f7dfd9013689436e155427398da", "fusion_lon": 0.0, "rental_uris": {"ios": "https://dc.lft.to/lastmile_qr_scan", "android": "https://dc.lft.to/lastmile_qr_scan"}}, {"lon": -77.04157066666667, "fusion_lat": 0.0, "type": "electric_scooter", "lat": 38.91744033333333, "is_disabled": 0, "name": "9d66573f972e92550e69fc29980bb9e0", "is_reserved": 0, "bike_id": "9d66573f972e92550e69fc29980bb9e0", "fusion_lon": 0.0, "rental_uris": {"ios": "https://dc.lft.to/lastmile_qr_scan", "android": "https://dc.lft.to/lastmile_qr_scan"}}, {"lon": -77.02696066666667, "fusion_lat": 0.0, "type": "electric_scooter", "lat": 38.919854666666666, "is_disabled": 0, "name": "925b68e14c2d51df9a130a5d7a3a0083", "is_reserved": 0, "bike_id": "925b68e14c2d51df9a130a5d7a3a0083", "fusion_lon": 0.0, "rental_uris": {"ios": "https://dc.lft.to/lastmile_qr_scan", "android": "https://dc.lft.to/lastmile_qr_scan"}}, {"lon": -77.026864, "fusion_lat": 0.0, "type": "electric_scooter", "lat": 38.906777, "is_disabled": 0, "name": "14d42b7f698d3ac8607bd43aacddff83", "is_reserved": 0, "bike_id": "14d42b7f698d3ac8607bd43aacddff83", "fusion_lon": 0.0, "rental_uris": {"ios": "https://dc.lft.to/lastmile_qr_scan", "android": "https://dc.lft.to/lastmile_qr_scan"}}, {"lon": -77.04170066666667, "fusion_lat": 0.0, "type": "electric_scooter", "lat": 38.90590733333333, "is_disabled": 0, "name": "b06c061a507c576299760f150ca76069", "is_reserved": 0, "bike_id": "b06c061a507c576299760f150ca76069", "fusion_lon": 0.0, "rental_uris": {"ios": "https://dc.lft.to/lastmile_qr_scan", "android": "https://dc.lft.to/lastmile_qr_scan"}}, {"lon": -77.03422333333333, "fusion_lat": 0.0, "type": "electric_scooter", "lat": 38.92870533333333, "is_disabled": 0, "name": "44b2c2eda9bd274c986b89f458ccba7d", "is_reserved": 0, "bike_id": "44b2c2eda9bd274c986b89f458ccba7d", "fusion_lon": 0.0, "rental_uris": {"ios": "https://dc.lft.to/lastmile_qr_scan", "android": "https://dc.lft.to/lastmile_qr_scan"}}, {"lon": -77.01749716666667, "fusion_lat": 0.0, "type": "electric_scooter", "lat": 38.875369166666665, "is_disabled": 0, "name": "d872d19e36d2707fe68df6a1121ca0d4", "is_reserved": 0, "bike_id": "d872d19e36d2707fe68df6a1121ca0d4", "fusion_lon": 0.0, "rental_uris": {"ios": "https://dc.lft.to/lastmile_qr_scan", "android": "https://dc.lft.to/lastmile_qr_scan"}}, {"lon": -77.04666416666667, "fusion_lat": 0.0, "type": "electric_scooter", "lat": 38.910622333333336, "is_disabled": 0, "name": "e74fc18667b34db221d23237a525b556", "is_reserved": 0, "bike_id": "e74fc18667b34db221d23237a525b556", "fusion_lon": 0.0, "rental_uris": {"ios": "https://dc.lft.to/lastmile_qr_scan", "android": "https://dc.lft.to/lastmile_qr_scan"}}, {"lon": -77.0214545, "fusion_lat": 0.0, "type": "electric_scooter", "lat": 38.924429833333335, "is_disabled": 0, "name": "98894aeebaa0a6f586358db6469ce6b4", "is_reserved": 0, "bike_id": "98894aeebaa0a6f586358db6469ce6b4", "fusion_lon": 0.0, "rental_uris": {"ios": "https://dc.lft.to/lastmile_qr_scan", "android": "https://dc.lft.to/lastmile_qr_scan"}}, {"lon": -77.02351183333333, "fusion_lat": 0.0, "type": "electric_bike", "lat": 38.931937166666664, "is_disabled": 0, "name": "b17498d063838a3c885458e498bbc93d", "is_reserved": 0, "bike_id": "b17498d063838a3c885458e498bbc93d", "fusion_lon": 0.0, "rental_uris": {"ios": "https://dc.lft.to/lastmile_qr_scan", "android": "https://dc.lft.to/lastmile_qr_scan"}}, {"lon": -77.04746233333333, "fusion_lat": 0.0, "type": "electric_scooter", "lat": 38.91771516666667, "is_disabled": 0, "name": "f31fa70c1dbf9863f9eaf5a5aa274a85", "is_reserved": 0, "bike_id": "f31fa70c1dbf9863f9eaf5a5aa274a85", "fusion_lon": 0.0, "rental_uris": {"ios": "https://dc.lft.to/lastmile_qr_scan", "android": "https://dc.lft.to/lastmile_qr_scan"}}, {"lon": -76.939518, "fusion_lat": 0.0, "type": "electric_scooter", "lat": 38.89311283333333, "is_disabled": 0, "name": "5ee3beeffcfbe5e03589173e0ef3c3ab", "is_reserved": 0, "bike_id": "5ee3beeffcfbe5e03589173e0ef3c3ab", "fusion_lon": 0.0, "rental_uris": {"ios": "https://dc.lft.to/lastmile_qr_scan", "android": "https://dc.lft.to/lastmile_qr_scan"}}, {"lon": -77.02178233333333, "fusion_lat": 0.0, "type": "electric_scooter", "lat": 38.9059185, "is_disabled": 0, "name": "164c232e80aeeaa49a9c3415607cf4f7", "is_reserved": 0, "bike_id": "164c232e80aeeaa49a9c3415607cf4f7", "fusion_lon": 0.0, "rental_uris": {"ios": "https://dc.lft.to/lastmile_qr_scan", "android": "https://dc.lft.to/lastmile_qr_scan"}}, {"lon": -77.02705316666666, "fusion_lat": 0.0, "type": "electric_scooter", "lat": 38.97309, "is_disabled": 0, "name": "d44ceb4127bb2555a59d2d4af0d47695", "is_reserved": 0, "bike_id": "d44ceb4127bb2555a59d2d4af0d47695", "fusion_lon": 0.0, "rental_uris": {"ios": "https://dc.lft.to/lastmile_qr_scan", "android": "https://dc.lft.to/lastmile_qr_scan"}}, {"lon": -77.05375516666666, "fusion_lat": 0.0, "type": "electric_bike", "lat": 38.847567166666664, "is_disabled": 0, "name": "e27f37c1c13df79652178426ee6d11af", "is_reserved": 0, "bike_id": "e27f37c1c13df79652178426ee6d11af", "fusion_lon": 0.0, "rental_uris": {"ios": "https://dc.lft.to/lastmile_qr_scan", "android": "https://dc.lft.to/lastmile_qr_scan"}}, {"lon": -76.98609583333334, "fusion_lat": 0.0, "type": "electric_scooter", "lat": 38.90349483333333, "is_disabled": 0, "name": "d8318574ca476a210fb2eeb60cccab21", "is_reserved": 0, "bike_id": "d8318574ca476a210fb2eeb60cccab21", "fusion_lon": 0.0, "rental_uris": {"ios": "https://dc.lft.to/lastmile_qr_scan", "android": "https://dc.lft.to/lastmile_qr_scan"}}, {"lon": -77.03758166666667, "fusion_lat": 0.0, "type": "electric_scooter", "lat": 38.90779, "is_disabled": 0, "name": "685c043c0357ae2cc782281cebb70cdd", "is_reserved": 0, "bike_id": "685c043c0357ae2cc782281cebb70cdd", "fusion_lon": 0.0, "rental_uris": {"ios": "https://dc.lft.to/lastmile_qr_scan", "android": "https://dc.lft.to/lastmile_qr_scan"}}, {"lon": -77.06974583333333, "fusion_lat": 0.0, "type": "electric_scooter", "lat": 38.9526145, "is_disabled": 0, "name": "9bd7067f11e6fb200a7c6c66649417cf", "is_reserved": 0, "bike_id": "9bd7067f11e6fb200a7c6c66649417cf", "fusion_lon": 0.0, "rental_uris": {"ios": "https://dc.lft.to/lastmile_qr_scan", "android": "https://dc.lft.to/lastmile_qr_scan"}}, {"lon": -77.08370733333334, "fusion_lat": 0.0, "type": "electric_scooter", "lat": 38.956593833333336, "is_disabled": 0, "name": "5f1148934fb7f2dbc1f50c8d8422304f", "is_reserved": 0, "bike_id": "5f1148934fb7f2dbc1f50c8d8422304f", "fusion_lon": 0.0, "rental_uris": {"ios": "https://dc.lft.to/lastmile_qr_scan", "android": "https://dc.lft.to/lastmile_qr_scan"}}, {"lon": -77.0223275, "fusion_lat": 0.0, "type": "electric_scooter", "lat": 38.878371333333334, "is_disabled": 0, "name": "b1ac480675646f5fc47686768654f986", "is_reserved": 0, "bike_id": "b1ac480675646f5fc47686768654f986", "fusion_lon": 0.0, "rental_uris": {"ios": "https://dc.lft.to/lastmile_qr_scan", "android": "https://dc.lft.to/lastmile_qr_scan"}}, {"lon": -77.00328466666667, "fusion_lat": 0.0, "type": "electric_scooter", "lat": 38.893623833333336, "is_disabled": 0, "name": "1a64abe8d3a04955b138b793c545dd4b", "is_reserved": 0, "bike_id": "1a64abe8d3a04955b138b793c545dd4b", "fusion_lon": 0.0, "rental_uris": {"ios": "https://dc.lft.to/lastmile_qr_scan", "android": "https://dc.lft.to/lastmile_qr_scan"}}, {"lon": -77.02211883333334, "fusion_lat": 0.0, "type": "electric_scooter", "lat": 38.92479683333333, "is_disabled": 0, "name": "404f2585b7aac0bb120bbe4aaed90137", "is_reserved": 0, "bike_id": "404f2585b7aac0bb120bbe4aaed90137", "fusion_lon": 0.0, "rental_uris": {"ios": "https://dc.lft.to/lastmile_qr_scan", "android": "https://dc.lft.to/lastmile_qr_scan"}}, {"lon": -76.9854065, "fusion_lat": 0.0, "type": "electric_scooter", "lat": 38.912874333333335, "is_disabled": 0, "name": "638bfa718f02adcf914bad35b06f5834", "is_reserved": 0, "bike_id": "638bfa718f02adcf914bad35b06f5834", "fusion_lon": 0.0, "rental_uris": {"ios": "https://dc.lft.to/lastmile_qr_scan", "android": "https://dc.lft.to/lastmile_qr_scan"}}, {"lon": -77.02209933333333, "fusion_lat": 0.0, "type": "electric_scooter", "lat": 38.896115333333334, "is_disabled": 0, "name": "bd689d8a992297fa49a0e59b0bcdfb29", "is_reserved": 0, "bike_id": "bd689d8a992297fa49a0e59b0bcdfb29", "fusion_lon": 0.0, "rental_uris": {"ios": "https://dc.lft.to/lastmile_qr_scan", "android": "https://dc.lft.to/lastmile_qr_scan"}}, {"lon": -77.03659616666667, "fusion_lat": 0.0, "type": "electric_scooter", "lat": 38.922241, "is_disabled": 0, "name": "0157c449a781284860db7ac38d96cd5f", "is_reserved": 0, "bike_id": "0157c449a781284860db7ac38d96cd5f", "fusion_lon": 0.0, "rental_uris": {"ios": "https://dc.lft.to/lastmile_qr_scan", "android": "https://dc.lft.to/lastmile_qr_scan"}}, {"lon": -77.02725233333334, "fusion_lat": 0.0, "type": "electric_scooter", "lat": 38.934535833333335, "is_disabled": 0, "name": "fc80cbb354d95a9481f09245c45fef52", "is_reserved": 0, "bike_id": "fc80cbb354d95a9481f09245c45fef52", "fusion_lon": 0.0, "rental_uris": {"ios": "https://dc.lft.to/lastmile_qr_scan", "android": "https://dc.lft.to/lastmile_qr_scan"}}, {"lon": -77.03930116666666, "fusion_lat": 0.0, "type": "electric_scooter", "lat": 38.899362833333335, "is_disabled": 0, "name": "cc9d294f733bc60b556f7830730a2ec0", "is_reserved": 0, "bike_id": "cc9d294f733bc60b556f7830730a2ec0", "fusion_lon": 0.0, "rental_uris": {"ios": "https://dc.lft.to/lastmile_qr_scan", "android": "https://dc.lft.to/lastmile_qr_scan"}}, {"lon": -77.02555016666666, "fusion_lat": 0.0, "type": "electric_scooter", "lat": 38.9416595, "is_disabled": 0, "name": "8666b293866a71cacf0df32608b4663c", "is_reserved": 0, "bike_id": "8666b293866a71cacf0df32608b4663c", "fusion_lon": 0.0, "rental_uris": {"ios": "https://dc.lft.to/lastmile_qr_scan", "android": "https://dc.lft.to/lastmile_qr_scan"}}, {"lon": -77.0423185, "fusion_lat": 0.0, "type": "electric_scooter", "lat": 38.905733166666664, "is_disabled": 0, "name": "a641db27cdb64c36834ccce9d2c85579", "is_reserved": 0, "bike_id": "a641db27cdb64c36834ccce9d2c85579", "fusion_lon": 0.0, "rental_uris": {"ios": "https://dc.lft.to/lastmile_qr_scan", "android": "https://dc.lft.to/lastmile_qr_scan"}}, {"lon": -77.03463666666667, "fusion_lat": 0.0, "type": "electric_scooter", "lat": 38.92068833333333, "is_disabled": 0, "name": "b9f85914d6788ea186e0273991b936ea", "is_reserved": 0, "bike_id": "b9f85914d6788ea186e0273991b936ea", "fusion_lon": 0.0, "rental_uris": {"ios": "https://dc.lft.to/lastmile_qr_scan", "android": "https://dc.lft.to/lastmile_qr_scan"}}, {"lon": -77.00010383333333, "fusion_lat": 0.0, "type": "electric_scooter", "lat": 38.90733766666666, "is_disabled": 0, "name": "47fef55b52126e9668b1f3d7ba329ace", "is_reserved": 0, "bike_id": "47fef55b52126e9668b1f3d7ba329ace", "fusion_lon": 0.0, "rental_uris": {"ios": "https://dc.lft.to/lastmile_qr_scan", "android": "https://dc.lft.to/lastmile_qr_scan"}}, {"lon": -77.0060685, "fusion_lat": 0.0, "type": "electric_scooter", "lat": 38.878877333333335, "is_disabled": 0, "name": "e9224b21c2f0d47ba149629db382c966", "is_reserved": 0, "bike_id": "e9224b21c2f0d47ba149629db382c966", "fusion_lon": 0.0, "rental_uris": {"ios": "https://dc.lft.to/lastmile_qr_scan", "android": "https://dc.lft.to/lastmile_qr_scan"}}, {"lon": -77.0217985, "fusion_lat": 0.0, "type": "electric_scooter", "lat": 38.8848025, "is_disabled": 0, "name": "b217a0106f4bd1eef15aa289eb73b8df", "is_reserved": 0, "bike_id": "b217a0106f4bd1eef15aa289eb73b8df", "fusion_lon": 0.0, "rental_uris": {"ios": "https://dc.lft.to/lastmile_qr_scan", "android": "https://dc.lft.to/lastmile_qr_scan"}}, {"lon": -77.03208033333334, "fusion_lat": 0.0, "type": "electric_scooter", "lat": 38.9211035, "is_disabled": 0, "name": "7db345846356f3775dd19a7bbc06bada", "is_reserved": 0, "bike_id": "7db345846356f3775dd19a7bbc06bada", "fusion_lon": 0.0, "rental_uris": {"ios": "https://dc.lft.to/lastmile_qr_scan", "android": "https://dc.lft.to/lastmile_qr_scan"}}, {"lon": -77.080207, "fusion_lat": 0.0, "type": "electric_scooter", "lat": 38.94850233333333, "is_disabled": 0, "name": "7f9ab63ae559e46e1243c830abe63161", "is_reserved": 0, "bike_id": "7f9ab63ae559e46e1243c830abe63161", "fusion_lon": 0.0, "rental_uris": {"ios": "https://dc.lft.to/lastmile_qr_scan", "android": "https://dc.lft.to/lastmile_qr_scan"}}, {"lon": -77.02559466666666, "fusion_lat": 0.0, "type": "electric_scooter", "lat": 38.907237, "is_disabled": 0, "name": "3a091ff8ed31e78286b9556c3ef34ba1", "is_reserved": 0, "bike_id": "3a091ff8ed31e78286b9556c3ef34ba1", "fusion_lon": 0.0, "rental_uris": {"ios": "https://dc.lft.to/lastmile_qr_scan", "android": "https://dc.lft.to/lastmile_qr_scan"}}, {"lon": -77.00160516666666, "fusion_lat": 0.0, "type": "electric_bike", "lat": 38.89926333333333, "is_disabled": 0, "name": "512598ca88c8654c2afa5dae22a30036", "is_reserved": 0, "bike_id": "512598ca88c8654c2afa5dae22a30036", "fusion_lon": 0.0, "rental_uris": {"ios": "https://dc.lft.to/lastmile_qr_scan", "android": "https://dc.lft.to/lastmile_qr_scan"}}, {"lon": -77.04128866666667, "fusion_lat": 0.0, "type": "electric_scooter", "lat": 38.89994983333333, "is_disabled": 0, "name": "a05cc0d2187fb1cf46f420216ff486a2", "is_reserved": 0, "bike_id": "a05cc0d2187fb1cf46f420216ff486a2", "fusion_lon": 0.0, "rental_uris": {"ios": "https://dc.lft.to/lastmile_qr_scan", "android": "https://dc.lft.to/lastmile_qr_scan"}}, {"lon": -77.03169166666666, "fusion_lat": 0.0, "type": "electric_scooter", "lat": 38.914106, "is_disabled": 0, "name": "57794c66c6d1c407156998cdb8b56633", "is_reserved": 0, "bike_id": "57794c66c6d1c407156998cdb8b56633", "fusion_lon": 0.0, "rental_uris": {"ios": "https://dc.lft.to/lastmile_qr_scan", "android": "https://dc.lft.to/lastmile_qr_scan"}}, {"lon": -77.025051, "fusion_lat": 0.0, "type": "electric_scooter", "lat": 38.92075716666667, "is_disabled": 0, "name": "0e84041c3a13a810deaa18815c8f7972", "is_reserved": 0, "bike_id": "0e84041c3a13a810deaa18815c8f7972", "fusion_lon": 0.0, "rental_uris": {"ios": "https://dc.lft.to/lastmile_qr_scan", "android": "https://dc.lft.to/lastmile_qr_scan"}},